{"data": {"bikes": [{"lon": -77.0527295, "bike_id": "1ddc39b2f9a4f6322cc9627acf39b53c", "lat": 38.910122666666666, "fusion_lon": 0.0, "fusion_lat": 0.0, "type": "electric_scooter", "name": "1ddc39b2f9a4f6322cc9627acf39b53c", "is_disabled": 0, "rental_uris": {"ios": "https://dc.lft.to/lastmile_qr_scan", "android": "https://dc.lft.to/lastmile_qr_scan"}, "is_reserved": 0}, {"lon": -77.02786616666667, "bike_id": "2139c4e71b394ef2514e22ab8b0929ee", "lat": 38.956805833333334, "fusion_lon": 0.0, "fusion_lat": 0.0, "type": "electric_scooter", "name": "2139c4e71b394ef2514e22ab8b0929ee", "is_disabled": 0, "rental_uris": {"ios": "https://dc.lft.to/lastmile_qr_scan", "android": "https://dc.lft.to/lastmile_qr_scan"}, "is_reserved": 0}, {"lon": -77.052312, "bike_id": "c0b8ab51caf9a720c9856170ce492b47", "lat": 38.9246145, "fusion_lon": 0.0, "fusion_lat": 0.0, "type": "electric_scooter", "name": "c0b8ab51caf9a720c9856170ce492b47", "is_disabled": 0, "rental_uris": {"ios": "https://dc.lft.to/lastmile_qr_scan", "android": "https://dc.lft.to/lastmile_qr_scan"}, "is_reserved": 0}, {"lon": -77.022656, "bike_id": "9220dc6437762cc3672e31113f21b3a2", "lat": 38.937682, "fusion_lon": 0.0, "fusion_lat": 0.0, "type": "electric_scooter", "name": "9220dc6437762cc3672e31113f21b3a2", "is_disabled": 0, "rental_uris": {"ios": "https://dc.lft.to/lastmile_qr_scan", "android": "https://dc.lft.to/lastmile_qr_scan"}, "is_reserved": 0}, {"lon": -77.0326585, "bike_id": "2571d51b293ecfb5986c31c01153cbd3", "lat": 38.92552083333333, "fusion_lon": 0.0, "fusion_lat": 0.0, "type": "electric_scooter", "name": "2571d51b293ecfb5986c31c01153cbd3", "is_disabled": 0, "rental_uris": {"ios": "https://dc.lft.to/lastmile_qr_scan", "android": "https://dc.lft.to/lastmile_qr_scan"}, "is_reserved": 0}, {"lon": -77.025668, "bike_id": "9c98ba48672dd4ae0afe051b0a4e1277", "lat": 38.9257865, "fusion_lon": 0.0, "fusion_lat": 0.0, "type": "electric_scooter", "name": "9c98ba48672dd4ae0afe051b0a4e1277", "is_disabled": 0, "rental_uris": {"ios": "https://dc.lft.to/lastmile_qr_scan", "android": "https://dc.lft.to/lastmile_qr_scan"}, "is_reserved": 0}, {"lon": -77.05014316666667, "bike_id": "a20fc2d5c6b75209d12a31cbe2e8d881", "lat": 38.89691166666667, "fusion_lon": 0.0, "fusion_lat": 0.0, "type": "electric_scooter", "name": "a20fc2d5c6b75209d12a31cbe2e8d881", "is_disabled": 0, "rental_uris": {"ios": "https://dc.lft.to/lastmile_qr_scan", "android": "https://dc.lft.to/lastmile_qr_scan"}, "is_reserved": 0}, {"lon": -77.04578216666667, "bike_id": "db3092a544e74bd09019fa5e7b0c6bb0", "lat": 38.921342333333335, "fusion_lon": 0.0, "fusion_lat": 0.0, "type": "electric_scooter", "name": "db3092a544e74bd09019fa5e7b0c6bb0", "is_disabled": 0, "rental_uris": {"ios": "https://dc.lft.to/lastmile_qr_scan", "android": "https://dc.lft.to/lastmile_qr_scan"}, "is_reserved": 0}, {"lon": -77.04397333333333, "bike_id": "bdc801344600b1515d8f0a52693d5ff4", "lat": 38.933219666666666, "fusion_lon": 0.0, "fusion_lat": 0.0, "type": "electric_scooter", "name": "bdc801344600b1515d8f0a52693d5ff4", "is_disabled": 0, "rental_uris": {"ios": "https://dc.lft.to/lastmile_qr_scan", "android": "https://dc.lft.to/lastmile_qr_scan"}, "is_reserved": 0}, {"lon": -77.04246716666667, "bike_id": "248f9cb14dc9852d82ed5396d7c360fd", "lat": 38.92641033333334, "fusion_lon": 0.0, "fusion_lat": 0.0, "type": "electric_scooter", "name": "248f9cb14dc9852d82ed5396d7c360fd", "is_disabled": 0, "rental_uris": {"ios": "https://dc.lft.to/lastmile_qr_scan", "android": "https://dc.lft.to/lastmile_qr_scan"}, "is_reserved": 0}, {"lon": -77.00318766666666, "bike_id": "91fdbd5222eab141e6328ffd288c01f1", "lat": 38.90746166666667, "fusion_lon": 0.0, "fusion_lat": 0.0, "type": "electric_bike", "name": "91fdbd5222eab141e6328ffd288c01f1", "is_disabled": 0, "rental_uris": {"ios": "https://dc.lft.to/lastmile_qr_scan", "android": "https://dc.lft.to/lastmile_qr_scan"}, "is_reserved": 0}, {"lon": -77.052356, "bike_id": "3b4fe2fb681c92510f26fbd17cf0f8ac", "lat": 38.924677833333334, "fusion_lon": 0.0, "fusion_lat": 0.0, "type": "electric_scooter", "name": "3b4fe2fb681c92510f26fbd17cf0f8ac", "is_disabled": 0, "rental_uris": {"ios": "https://dc.lft.to/lastmile_qr_scan", "android": "https://dc.lft.to/lastmile_qr_scan"}, "is_reserved": 0}, {"lon": -77.02725566666666, "bike_id": "78211ede1c210bc106987115691bb987", "lat": 38.932053, "fusion_lon": 0.0, "fusion_lat": 0.0, "type": "electric_scooter", "name": "78211ede1c210bc106987115691bb987", "is_disabled": 0, "rental_uris": {"ios": "https://dc.lft.to/lastmile_qr_scan", "android": "https://dc.lft.to/lastmile_qr_scan"}, "is_reserved": 0}, {"lon": -77.01087416666667, "bike_id": "c1cab2a6410a284a24eb3c4bcfdc246d", "lat": 38.91559933333333, "fusion_lon": 0.0, "fusion_lat": 0.0, "type": "electric_scooter", "name": "c1cab2a6410a284a24eb3c4bcfdc246d", "is_disabled": 0, "rental_uris": {"ios": "https://dc.lft.to/lastmile_qr_scan", "android": "https://dc.lft.to/lastmile_qr_scan"}, "is_reserved": 0}, {"lon": -77.01477766666666, "bike_id": "d9d213d9465b910c569b67cb1a25fe61", "lat": 38.917674166666664, "fusion_lon": 0.0, "fusion_lat": 0.0, "type": "electric_scooter", "name": "d9d213d9465b910c569b67cb1a25fe61", "is_disabled": 0, "rental_uris": {"ios": "https://dc.lft.to/lastmile_qr_scan", "android": "https://dc.lft.to/lastmile_qr_scan"}, "is_reserved": 0}, {"lon": -77.02790183333333, "bike_id": "ba2338c1d7a4023c363110b09a90cf9a", "lat": 38.92026166666667, "fusion_lon": 0.0, "fusion_lat": 0.0, "type": "electric_scooter", "name": "ba2338c1d7a4023c363110b09a90cf9a", "is_disabled": 0, "rental_uris": {"ios": "https://dc.lft.to/lastmile_qr_scan", "android": "https://dc.lft.to/lastmile_qr_scan"}, "is_reserved": 0}, {"lon": -77.03832733333333, "bike_id": "b1bd54c03559275ec7e4172dac68f73c", "lat": 38.9146915, "fusion_lon": 0.0, "fusion_lat": 0.0, "type": "electric_scooter", "name": "b1bd54c03559275ec7e4172dac68f73c", "is_disabled": 0, "rental_uris": {"ios": "https://dc.lft.to/lastmile_qr_scan", "android": "https://dc.lft.to/lastmile_qr_scan"}, "is_reserved": 0}, {"lon": -76.9884055, "bike_id": "338f936173c78645bd3ecc1bd62db639", "lat": 38.84278483333333, "fusion_lon": 0.0, "fusion_lat": 0.0, "type": "electric_bike", "name": "338f936173c78645bd3ecc1bd62db639", "is_disabled": 0, "rental_uris": {"ios": "https://dc.lft.to/lastmile_qr_scan", "android": "https://dc.lft.to/lastmile_qr_scan"}, "is_reserved": 0}, {"lon": -77.01261083333333, "bike_id": "c42686b54840c1224d1613c4d7e492ab", "lat": 38.864618, "fusion_lon": 0.0, "fusion_lat": 0.0, "type": "electric_scooter", "name": "c42686b54840c1224d1613c4d7e492ab", "is_disabled": 0, "rental_uris": {"ios": "https://dc.lft.to/lastmile_qr_scan", "android": "https://dc.lft.to/lastmile_qr_scan"}, "is_reserved": 0}, {"lon": -76.994588, "bike_id": "d1697bf917000ccbe7a002f879123995", "lat": 38.903711333333334, "fusion_lon": 0.0, "fusion_lat": 0.0, "type": "electric_scooter", "name": "d1697bf917000ccbe7a002f879123995", "is_disabled": 0, "rental_uris": {"ios": "https://dc.lft.to/lastmile_qr_scan", "android": "https://dc.lft.to/lastmile_qr_scan"}, "is_reserved": 0}, {"lon": -76.97240883333333, "bike_id": "15e25c2dbf7bb8fc4158a670245a5ca1", "lat": 38.9034725, "fusion_lon": 0.0, "fusion_lat": 0.0, "type": "electric_scooter", "name": "15e25c2dbf7bb8fc4158a670245a5ca1", "is_disabled": 0, "rental_uris": {"ios": "https://dc.lft.to/lastmile_qr_scan", "android": "https://dc.lft.to/lastmile_qr_scan"}, "is_reserved": 0}, {"lon": -77.02258816666667, "bike_id": "16ee9f78caa9916212b5c8b739770d48", "lat": 38.926860833333336, "fusion_lon": 0.0, "fusion_lat": 0.0, "type": "electric_scooter", "name": "16ee9f78caa9916212b5c8b739770d48", "is_disabled": 0, "rental_uris": {"ios": "https://dc.lft.to/lastmile_qr_scan", "android": "https://dc.lft.to/lastmile_qr_scan"}, "is_reserved": 0}, {"lon": -77.07233266666667, "bike_id": "216afbfa7963d8926880f872570b7bdb", "lat": 38.898894166666665, "fusion_lon": 0.0, "fusion_lat": 0.0, "type": "electric_scooter", "name": "216afbfa7963d8926880f872570b7bdb", "is_disabled": 0, "rental_uris": {"ios": "https://dc.lft.to/lastmile_qr_scan", "android": "https://dc.lft.to/lastmile_qr_scan"}, "is_reserved": 0}, {"lon": -77.023106, "bike_id": "c16e6b056ab65b94e86f0b348604f4f8", "lat": 38.94206066666667, "fusion_lon": 0.0, "fusion_lat": 0.0, "type": "electric_scooter", "name": "c16e6b056ab65b94e86f0b348604f4f8", "is_disabled": 0, "rental_uris": {"ios": "https://dc.lft.to/lastmile_qr_scan", "android": "https://dc.lft.to/lastmile_qr_scan"}, "is_reserved": 0}, {"lon": -77.049234, "bike_id": "a6e97790f23133bd58cc730a8df7d87c", "lat": 38.90861266666667, "fusion_lon": 0.0, "fusion_lat": 0.0, "type": "electric_scooter", "name": "a6e97790f23133bd58cc730a8df7d87c", "is_disabled": 0, "rental_uris": {"ios": "https://dc.lft.to/lastmile_qr_scan", "android": "https://dc.lft.to/lastmile_qr_scan"}, "is_reserved": 0}, {"lon": -77.00040933333334, "bike_id": "a7b83eab029b34143fb4961d632eb9d4", "lat": 38.9239815, "fusion_lon": 0.0, "fusion_lat": 0.0, "type": "electric_scooter", "name": "a7b83eab029b34143fb4961d632eb9d4", "is_disabled": 0, "rental_uris": {"ios": "https://dc.lft.to/lastmile_qr_scan", "android": "https://dc.lft.to/lastmile_qr_scan"}, "is_reserved": 0}, {"lon": -77.057288, "bike_id": "940bdb84defb63fb758fdac796d850b5", "lat": 38.93356983333334, "fusion_lon": 0.0, "fusion_lat": 0.0, "type": "electric_scooter", "name": "940bdb84defb63fb758fdac796d850b5", "is_disabled": 0, "rental_uris": {"ios": "https://dc.lft.to/lastmile_qr_scan", "android": "https://dc.lft.to/lastmile_qr_scan"}, "is_reserved": 0}, {"lon": -76.99833216666667, "bike_id": "d5ca153310274813e51c0071ad9b0fa1", "lat": 38.900132666666664, "fusion_lon": 0.0, "fusion_lat": 0.0, "type": "electric_scooter", "name": "d5ca153310274813e51c0071ad9b0fa1", "is_disabled": 0, "rental_uris": {"ios": "https://dc.lft.to/lastmile_qr_scan", "android": "https://dc.lft.to/lastmile_qr_scan"}, "is_reserved": 0}, {"lon": -77.031884, "bike_id": "dbad445153797877fb1f858223a67bfd", "lat": 38.8921725, "fusion_lon": 0.0, "fusion_lat": 0.0, "type": "electric_scooter", "name": "dbad445153797877fb1f858223a67bfd", "is_disabled": 0, "rental_uris": {"ios": "https://dc.lft.to/lastmile_qr_scan", "android": "https://dc.lft.to/lastmile_qr_scan"}, "is_reserved": 0}, {"lon": -77.048299, "bike_id": "58c5357974c3ebbd32ab0c65a3b92eb7", "lat": 38.8972775, "fusion_lon": 0.0, "fusion_lat": 0.0, "type": "electric_scooter", "name": "58c5357974c3ebbd32ab0c65a3b92eb7", "is_disabled": 0, "rental_uris": {"ios": "https://dc.lft.to/lastmile_qr_scan", "android": "https://dc.lft.to/lastmile_qr_scan"}, "is_reserved": 0}, {"lon": -77.02171783333333, "bike_id": "e3de39366a3947c9d201ee6efa6af6ea", "lat": 38.93072033333333, "fusion_lon": 0.0, "fusion_lat": 0.0, "type": "electric_scooter", "name": "e3de39366a3947c9d201ee6efa6af6ea", "is_disabled": 0, "rental_uris": {"ios": "https://dc.lft.to/lastmile_qr_scan", "android": "https://dc.lft.to/lastmile_qr_scan"}, "is_reserved": 0}, {"lon": -77.04000533333334, "bike_id": "cd166be59498c7a6651566bfa21642e5", "lat": 38.90996483333333, "fusion_lon": 0.0, "fusion_lat": 0.0, "type": "electric_scooter", "name": "cd166be59498c7a6651566bfa21642e5", "is_disabled": 0, "rental_uris": {"ios": "https://dc.lft.to/lastmile_qr_scan", "android": "https://dc.lft.to/lastmile_qr_scan"}, "is_reserved": 0}, {"lon": -77.04599783333333, "bike_id": "3a825ce722bcc4ad3d9eff4dcb4aa406", "lat": 38.853026666666665, "fusion_lon": 0.0, "fusion_lat": 0.0, "type": "electric_bike", "name": "3a825ce722bcc4ad3d9eff4dcb4aa406", "is_disabled": 0, "rental_uris": {"ios": "https://dc.lft.to/lastmile_qr_scan", "android": "https://dc.lft.to/lastmile_qr_scan"}, "is_reserved": 0}, {"lon": -76.931901, "bike_id": "dde139e606077845a50915c7e604cf4c", "lat": 38.8987805, "fusion_lon": 0.0, "fusion_lat": 0.0, "type": "electric_scooter", "name": "dde139e606077845a50915c7e604cf4c", "is_disabled": 0, "rental_uris": {"ios": "https://dc.lft.to/lastmile_qr_scan", "android": "https://dc.lft.to/lastmile_qr_scan"}, "is_reserved": 0}, {"lon": -77.02162416666667, "bike_id": "88cb909b15af94bdf5dd0579269d657b", "lat": 38.897316000000004, "fusion_lon": 0.0, "fusion_lat": 0.0, "type": "electric_scooter", "name": "88cb909b15af94bdf5dd0579269d657b", "is_disabled": 0, "rental_uris": {"ios": "https://dc.lft.to/lastmile_qr_scan", "android": "https://dc.lft.to/lastmile_qr_scan"}, "is_reserved": 0}, {"lon": -77.03759016666666, "bike_id": "888363a73ac4cd59a28d1ba0c7949a08", "lat": 38.92600983333333, "fusion_lon": 0.0, "fusion_lat": 0.0, "type": "electric_scooter", "name": "888363a73ac4cd59a28d1ba0c7949a08", "is_disabled": 0, "rental_uris": {"ios": "https://dc.lft.to/lastmile_qr_scan", "android": "https://dc.lft.to/lastmile_qr_scan"}, "is_reserved": 0}, {"lon": -76.945924, "bike_id": "00df570e64c9f5855a0bb718e3afccdd", "lat": 38.90150933333334, "fusion_lon": 0.0, "fusion_lat": 0.0, "type": "electric_scooter", "name": "00df570e64c9f5855a0bb718e3afccdd", "is_disabled": 0, "rental_uris": {"ios": "https://dc.lft.to/lastmile_qr_scan", "android": "https://dc.lft.to/lastmile_qr_scan"}, "is_reserved": 0}, {"lon": -77.0334775, "bike_id": "94773c7e5496290df5b842a70e31d91b", "lat": 38.9205805, "fusion_lon": 0.0, "fusion_lat": 0.0, "type": "electric_scooter", "name": "94773c7e5496290df5b842a70e31d91b", "is_disabled": 0, "rental_uris": {"ios": "https://dc.lft.to/lastmile_qr_scan", "android": "https://dc.lft.to/lastmile_qr_scan"}, "is_reserved": 0}, {"lon": -76.97397283333333, "bike_id": "d6efa46d614b38599d9c10071302a5dc", "lat": 38.90299983333333, "fusion_lon": 0.0, "fusion_lat": 0.0, "type": "electric_scooter", "name": "d6efa46d614b38599d9c10071302a5dc", "is_disabled": 0, "rental_uris": {"ios": "https://dc.lft.to/lastmile_qr_scan", "android": "https://dc.lft.to/lastmile_qr_scan"}, "is_reserved": 0}, {"lon": -77.02713733333333, "bike_id": "bcdef3f3a612fc1273c73fc0faf50f5f", "lat": 38.9246705, "fusion_lon": 0.0, "fusion_lat": 0.0, "type": "electric_scooter", "name": "bcdef3f3a612fc1273c73fc0faf50f5f", "is_disabled": 0, "rental_uris": {"ios": "https://dc.lft.to/lastmile_qr_scan", "android": "https://dc.lft.to/lastmile_qr_scan"}, "is_reserved": 0}, {"lon": -77.08805033333333, "bike_id": "0a5eceea35247b6b1432e210c8a15a85", "lat": 38.911768333333335, "fusion_lon": 0.0, "fusion_lat": 0.0, "type": "electric_scooter", "name": "0a5eceea35247b6b1432e210c8a15a85", "is_disabled": 0, "rental_uris": {"ios": "https://dc.lft.to/lastmile_qr_scan", "android": "https://dc.lft.to/lastmile_qr_scan"}, "is_reserved": 0}, {"lon": -77.04002433333333, "bike_id": "d99d2a54d29159b26c88c94dfea481d3", "lat": 38.93430866666667, "fusion_lon": 0.0, "fusion_lat": 0.0, "type": "electric_scooter", "name": "d99d2a54d29159b26c88c94dfea481d3", "is_disabled": 0, "rental_uris": {"ios": "https://dc.lft.to/lastmile_qr_scan", "android": "https://dc.lft.to/lastmile_qr_scan"}, "is_reserved": 0}, {"lon": -76.9890795, "bike_id": "26f1b5e9348ad80de08292946905cc82", "lat": 38.864935, "fusion_lon": 0.0, "fusion_lat": 0.0, "type": "electric_scooter", "name": "26f1b5e9348ad80de08292946905cc82", "is_disabled": 0, "rental_uris": {"ios": "https://dc.lft.to/lastmile_qr_scan", "android": "https://dc.lft.to/lastmile_qr_scan"}, "is_reserved": 0}, {"lon": -77.0382735, "bike_id": "1dae64457359754f138b2ea098e62118", "lat": 38.909690499999996, "fusion_lon": 0.0, "fusion_lat": 0.0, "type": "electric_scooter", "name": "1dae64457359754f138b2ea098e62118", "is_disabled": 0, "rental_uris": {"ios": "https://dc.lft.to/lastmile_qr_scan", "android": "https://dc.lft.to/lastmile_qr_scan"}, "is_reserved": 0}, {"lon": -76.98062066666667, "bike_id": "9809ca9aa7945758a5fbb05c7b71f7b4", "lat": 38.884979333333334, "fusion_lon": 0.0, "fusion_lat": 0.0, "type": "electric_scooter", "name": "9809ca9aa7945758a5fbb05c7b71f7b4", "is_disabled": 0, "rental_uris": {"ios": "https://dc.lft.to/lastmile_qr_scan", "android": "https://dc.lft.to/lastmile_qr_scan"}, "is_reserved": 0}, {"lon": -77.04718633333333, "bike_id": "97d251028c7e4183d856a54122aa7cab", "lat": 38.90329033333333, "fusion_lon": 0.0, "fusion_lat": 0.0, "type": "electric_scooter", "name": "97d251028c7e4183d856a54122aa7cab", "is_disabled": 0, "rental_uris": {"ios": "https://dc.lft.to/lastmile_qr_scan", "android": "https://dc.lft.to/lastmile_qr_scan"}, "is_reserved": 0}, {"lon": -77.07469266666666, "bike_id": "e221f82a2b60035d0c5620abe3250bca", "lat": 38.920617166666666, "fusion_lon": 0.0, "fusion_lat": 0.0, "type": "electric_bike", "name": "e221f82a2b60035d0c5620abe3250bca", "is_disabled": 0, "rental_uris": {"ios": "https://dc.lft.to/lastmile_qr_scan", "android": "https://dc.lft.to/lastmile_qr_scan"}, "is_reserved": 0}, {"lon": -77.0281685, "bike_id": "71ed875ebbbddb3bdd87cddb1e590945", "lat": 38.89532416666667, "fusion_lon": 0.0, "fusion_lat": 0.0, "type": "electric_scooter", "name": "71ed875ebbbddb3bdd87cddb1e590945", "is_disabled": 0, "rental_uris": {"ios": "https://dc.lft.to/lastmile_qr_scan", "android": "https://dc.lft.to/lastmile_qr_scan"}, "is_reserved": 0}, {"lon": -77.02713216666666, "bike_id": "dca409882707e0667e00d1d214261339", "lat": 38.92284166666666, "fusion_lon": 0.0, "fusion_lat": 0.0, "type": "electric_scooter", "name": "dca409882707e0667e00d1d214261339", "is_disabled": 0, "rental_uris": {"ios": "https://dc.lft.to/lastmile_qr_scan", "android": "https://dc.lft.to/lastmile_qr_scan"}, "is_reserved": 0}, {"lon": -77.034271, "bike_id": "462e619cb788bd545391ff785db03fef", "lat": 38.919219, "fusion_lon": 0.0, "fusion_lat": 0.0, "type": "electric_scooter", "name": "462e619cb788bd545391ff785db03fef", "is_disabled": 0, "rental_uris": {"ios": "https://dc.lft.to/lastmile_qr_scan", "android": "https://dc.lft.to/lastmile_qr_scan"}, "is_reserved": 0}, {"lon": -77.044652, "bike_id": "078b3413c9f1ff53f2986fe7a6f76514", "lat": 38.92426483333333, "fusion_lon": 0.0, "fusion_lat": 0.0, "type": "electric_scooter", "name": "078b3413c9f1ff53f2986fe7a6f76514", "is_disabled": 0, "rental_uris": {"ios": "https://dc.lft.to/lastmile_qr_scan", "android": "https://dc.lft.to/lastmile_qr_scan"}, "is_reserved": 0}, {"lon": -77.0849105, "bike_id": "4b595c3a5fc44ce1d12da6722fcbada6", "lat": 38.848479, "fusion_lon": 0.0, "fusion_lat": 0.0, "type": "electric_bike", "name": "4b595c3a5fc44ce1d12da6722fcbada6", "is_disabled": 0, "rental_uris": {"ios": "https://dc.lft.to/lastmile_qr_scan", "android": "https://dc.lft.to/lastmile_qr_scan"}, "is_reserved": 0}, {"lon": -77.02106466666666, "bike_id": "a881db978f1063f423d182f30796e1b7", "lat": 38.949157166666666, "fusion_lon": 0.0, "fusion_lat": 0.0, "type": "electric_scooter", "name": "a881db978f1063f423d182f30796e1b7", "is_disabled": 0, "rental_uris": {"ios": "https://dc.lft.to/lastmile_qr_scan", "android": "https://dc.lft.to/lastmile_qr_scan"}, "is_reserved": 0}, {"lon": -77.03036666666667, "bike_id": "f492cd932226999fd3b3b2df5541f979", "lat": 38.93716083333333, "fusion_lon": 0.0, "fusion_lat": 0.0, "type": "electric_scooter", "name": "f492cd932226999fd3b3b2df5541f979", "is_disabled": 0, "rental_uris": {"ios": "https://dc.lft.to/lastmile_qr_scan", "android": "https://dc.lft.to/lastmile_qr_scan"}, "is_reserved": 0}, {"lon": -77.03657683333333, "bike_id": "ef663ac5d3168d529492dee4b6d20c4c", "lat": 38.91750566666666, "fusion_lon": 0.0, "fusion_lat": 0.0, "type": "electric_scooter", "name": "ef663ac5d3168d529492dee4b6d20c4c", "is_disabled": 0, "rental_uris": {"ios": "https://dc.lft.to/lastmile_qr_scan", "android": "https://dc.lft.to/lastmile_qr_scan"}, "is_reserved": 0}, {"lon": -77.01675533333334, "bike_id": "6747865a4749bc472927eb2dec3d9d81", "lat": 38.9144385, "fusion_lon": 0.0, "fusion_lat": 0.0, "type": "electric_scooter", "name": "6747865a4749bc472927eb2dec3d9d81", "is_disabled": 0, "rental_uris": {"ios": "https://dc.lft.to/lastmile_qr_scan", "android": "https://dc.lft.to/lastmile_qr_scan"}, "is_reserved": 0}, {"lon": -77.0741315, "bike_id": "fac14fcec08a5a2081c75116bf34d722", "lat": 38.928861166666664, "fusion_lon": 0.0, "fusion_lat": 0.0, "type": "electric_scooter", "name": "fac14fcec08a5a2081c75116bf34d722", "is_disabled": 0, "rental_uris": {"ios": "https://dc.lft.to/lastmile_qr_scan", "android": "https://dc.lft.to/lastmile_qr_scan"}, "is_reserved": 0}, {"lon": -77.03076283333333, "bike_id": "dc796ea0b5bbf5bcb702eb2153f8c1d4", "lat": 38.932695833333334, "fusion_lon": 0.0, "fusion_lat": 0.0, "type": "electric_bike", "name": "dc796ea0b5bbf5bcb702eb2153f8c1d4", "is_disabled": 0, "rental_uris": {"ios": "https://dc.lft.to/lastmile_qr_scan", "android": "https://dc.lft.to/lastmile_qr_scan"}, "is_reserved": 0}, {"lon": -77.02696316666666, "bike_id": "8973dfcb9bcd93171fcf6f4199c2ff0c", "lat": 38.904288333333334, "fusion_lon": 0.0, "fusion_lat": 0.0, "type": "electric_scooter", "name": "8973dfcb9bcd93171fcf6f4199c2ff0c", "is_disabled": 0, "rental_uris": {"ios": "https://dc.lft.to/lastmile_qr_scan", "android": "https://dc.lft.to/lastmile_qr_scan"}, "is_reserved": 0}, {"lon": -77.07334216666666, "bike_id": "ad12f8229a661517214537d07a08166c", "lat": 38.92404666666667, "fusion_lon": 0.0, "fusion_lat": 0.0, "type": "electric_scooter", "name": "ad12f8229a661517214537d07a08166c", "is_disabled": 0, "rental_uris": {"ios": "https://dc.lft.to/lastmile_qr_scan", "android": "https://dc.lft.to/lastmile_qr_scan"}, "is_reserved": 0}, {"lon": -77.02192583333333, "bike_id": "a5e54c48aff4e3433d996a79f0128929", "lat": 38.900295, "fusion_lon": 0.0, "fusion_lat": 0.0, "type": "electric_scooter", "name": "a5e54c48aff4e3433d996a79f0128929", "is_disabled": 0, "rental_uris": {"ios": "https://dc.lft.to/lastmile_qr_scan", "android": "https://dc.lft.to/lastmile_qr_scan"}, "is_reserved": 0}, {"lon": -77.01380733333333, "bike_id": "a8fa90704fccdb289c7862cba0896ef2", "lat": 38.88672716666667, "fusion_lon": 0.0, "fusion_lat": 0.0, "type": "electric_scooter", "name": "a8fa90704fccdb289c7862cba0896ef2", "is_disabled": 0, "rental_uris": {"ios": "https://dc.lft.to/lastmile_qr_scan", "android": "https://dc.lft.to/lastmile_qr_scan"}, "is_reserved": 0}, {"lon": -77.0097395, "bike_id": "971b40caa40cf610d8680d81f2f05355", "lat": 38.89484383333333, "fusion_lon": 0.0, "fusion_lat": 0.0, "type": "electric_scooter", "name": "971b40caa40cf610d8680d81f2f05355", "is_disabled": 0, "rental_uris": {"ios": "https://dc.lft.to/lastmile_qr_scan", "android": "https://dc.lft.to/lastmile_qr_scan"}, "is_reserved": 0}, {"lon": -77.0331975, "bike_id": "b2aa02ea54111046ca0cdf85a2cfd482", "lat": 38.919677666666665, "fusion_lon": 0.0, "fusion_lat": 0.0, "type": "electric_scooter", "name": "b2aa02ea54111046ca0cdf85a2cfd482", "is_disabled": 0, "rental_uris": {"ios": "https://dc.lft.to/lastmile_qr_scan", "android": "https://dc.lft.to/lastmile_qr_scan"}, "is_reserved": 0}, {"lon": -76.983465, "bike_id": "f07e6725dd8eeaf7834f7d806100de14", "lat": 38.90455216666667, "fusion_lon": 0.0, "fusion_lat": 0.0, "type": "electric_scooter", "name": "f07e6725dd8eeaf7834f7d806100de14", "is_disabled": 0, "rental_uris": {"ios": "https://dc.lft.to/lastmile_qr_scan", "android": "https://dc.lft.to/lastmile_qr_scan"}, "is_reserved": 0}, {"lon": -77.05859783333334, "bike_id": "0200ed32cda9abb3b1376d6162257c76", "lat": 38.936062, "fusion_lon": 0.0, "fusion_lat": 0.0, "type": "electric_scooter", "name": "0200ed32cda9abb3b1376d6162257c76", "is_disabled": 0, "rental_uris": {"ios": "https://dc.lft.to/lastmile_qr_scan", "android": "https://dc.lft.to/lastmile_qr_scan"}, "is_reserved": 0}, {"lon": -76.94919966666667, "bike_id": "a87124b674cb6033e7ae8d7c07d6f2c5", "lat": 38.893533833333336, "fusion_lon": 0.0, "fusion_lat": 0.0, "type": "electric_scooter", "name": "a87124b674cb6033e7ae8d7c07d6f2c5", "is_disabled": 0, "rental_uris": {"ios": "https://dc.lft.to/lastmile_qr_scan", "android": "https://dc.lft.to/lastmile_qr_scan"}, "is_reserved": 0}, {"lon": -77.0743055, "bike_id": "384263abc1c5c782757e279345f30d38", "lat": 38.999462666666666, "fusion_lon": 0.0, "fusion_lat": 0.0, "type": "electric_bike", "name": "384263abc1c5c782757e279345f30d38", "is_disabled": 0, "rental_uris": {"ios": "https://dc.lft.to/lastmile_qr_scan", "android": "https://dc.lft.to/lastmile_qr_scan"}, "is_reserved": 0}, {"lon": -77.0404365, "bike_id": "df7c8a91cf93a721e9221df59b85dfb7", "lat": 38.923881, "fusion_lon": 0.0, "fusion_lat": 0.0, "type": "electric_scooter", "name": "df7c8a91cf93a721e9221df59b85dfb7", "is_disabled": 0, "rental_uris": {"ios": "https://dc.lft.to/lastmile_qr_scan", "android": "https://dc.lft.to/lastmile_qr_scan"}, "is_reserved": 0}, {"lon": -77.0001, "bike_id": "ec4a9160f8c45e8e3d686fc61ba9c0ea", "lat": 38.9197505, "fusion_lon": 0.0, "fusion_lat": 0.0, "type": "electric_scooter", "name": "ec4a9160f8c45e8e3d686fc61ba9c0ea", "is_disabled": 0, "rental_uris": {"ios": "https://dc.lft.to/lastmile_qr_scan", "android": "https://dc.lft.to/lastmile_qr_scan"}, "is_reserved": 0}, {"lon": -77.02030283333333, "bike_id": "b00a5deb2a65e32962a301df92599397", "lat": 38.9244005, "fusion_lon": 0.0, "fusion_lat": 0.0, "type": "electric_scooter", "name": "b00a5deb2a65e32962a301df92599397", "is_disabled": 0, "rental_uris": {"ios": "https://dc.lft.to/lastmile_qr_scan", "android": "https://dc.lft.to/lastmile_qr_scan"}, "is_reserved": 0}, {"lon": -77.0218, "bike_id": "c4848412e446f8e01baadbd5cd698d0f", "lat": 38.90694116666667, "fusion_lon": 0.0, "fusion_lat": 0.0, "type": "electric_bike", "name": "c4848412e446f8e01baadbd5cd698d0f", "is_disabled": 0, "rental_uris": {"ios": "https://dc.lft.to/lastmile_qr_scan", "android": "https://dc.lft.to/lastmile_qr_scan"}, "is_reserved": 0}, {"lon": -76.98711783333333, "bike_id": "d38fdb636aea9c2e1d53d92048544e7e", "lat": 38.866299833333336, "fusion_lon": 0.0, "fusion_lat": 0.0, "type": "electric_scooter", "name": "d38fdb636aea9c2e1d53d92048544e7e", "is_disabled": 0, "rental_uris": {"ios": "https://dc.lft.to/lastmile_qr_scan", "android": "https://dc.lft.to/lastmile_qr_scan"}, "is_reserved": 0}, {"lon": -77.03178483333333, "bike_id": "5c1ea0e3ec39f5b28961046280bdbcb9", "lat": 38.913492, "fusion_lon": 0.0, "fusion_lat": 0.0, "type": "electric_scooter", "name": "5c1ea0e3ec39f5b28961046280bdbcb9", "is_disabled": 0, "rental_uris": {"ios": "https://dc.lft.to/lastmile_qr_scan", "android": "https://dc.lft.to/lastmile_qr_scan"}, "is_reserved": 0}, {"lon": -77.043327, "bike_id": "fc0f77f7139ab0900c1b35507ec54eb2", "lat": 38.900673, "fusion_lon": 0.0, "fusion_lat": 0.0, "type": "electric_scooter", "name": "fc0f77f7139ab0900c1b35507ec54eb2", "is_disabled": 0, "rental_uris": {"ios": "https://dc.lft.to/lastmile_qr_scan", "android": "https://dc.lft.to/lastmile_qr_scan"}, "is_reserved": 0}, {"lon": -77.03771216666667, "bike_id": "b0cd94a9c5423e4d8b7f1b9aacf03840", "lat": 38.92939666666667, "fusion_lon": 0.0, "fusion_lat": 0.0, "type": "electric_scooter", "name": "b0cd94a9c5423e4d8b7f1b9aacf03840", "is_disabled": 0, "rental_uris": {"ios": "https://dc.lft.to/lastmile_qr_scan", "android": "https://dc.lft.to/lastmile_qr_scan"}, "is_reserved": 0}, {"lon": -77.000277, "bike_id": "edd98d23902c8722aa4c41796ef96d3f", "lat": 38.968078166666665, "fusion_lon": 0.0, "fusion_lat": 0.0, "type": "electric_bike", "name": "edd98d23902c8722aa4c41796ef96d3f", "is_disabled": 0, "rental_uris": {"ios": "https://dc.lft.to/lastmile_qr_scan", "android": "https://dc.lft.to/lastmile_qr_scan"}, "is_reserved": 0}, {"lon": -77.02365783333333, "bike_id": "cac45343e473bccd953ae14526952683", "lat": 38.90192533333333, "fusion_lon": 0.0, "fusion_lat": 0.0, "type": "electric_scooter", "name": "cac45343e473bccd953ae14526952683", "is_disabled": 0, "rental_uris": {"ios": "https://dc.lft.to/lastmile_qr_scan", "android": "https://dc.lft.to/lastmile_qr_scan"}, "is_reserved": 0}, {"lon": -77.000676, "bike_id": "abfd6e1ead446294443fff6012b82dc9", "lat": 38.8972885, "fusion_lon": 0.0, "fusion_lat": 0.0, "type": "electric_scooter", "name": "abfd6e1ead446294443fff6012b82dc9", "is_disabled": 0, "rental_uris": {"ios": "https://dc.lft.to/lastmile_qr_scan", "android": "https://dc.lft.to/lastmile_qr_scan"}, "is_reserved": 0}, {"lon": -77.00545466666667, "bike_id": "a327ea7e44d0031ec975eb274ffe4aff", "lat": 38.874597333333334, "fusion_lon": 0.0, "fusion_lat": 0.0, "type": "electric_scooter", "name": "a327ea7e44d0031ec975eb274ffe4aff", "is_disabled": 0, "rental_uris": {"ios": "https://dc.lft.to/lastmile_qr_scan", "android": "https://dc.lft.to/lastmile_qr_scan"}, "is_reserved": 0}, {"lon": -77.034399, "bike_id": "da5fb78363514f38788b375879f19736", "lat": 38.91800716666667, "fusion_lon": 0.0, "fusion_lat": 0.0, "type": "electric_scooter", "name": "da5fb78363514f38788b375879f19736", "is_disabled": 0, "rental_uris": {"ios": "https://dc.lft.to/lastmile_qr_scan", "android": "https://dc.lft.to/lastmile_qr_scan"}, "is_reserved": 0}, {"lon": -77.03440733333333, "bike_id": "e9da946022e376ae7dcd7fd3f0c589c3", "lat": 38.91799566666667, "fusion_lon": 0.0, "fusion_lat": 0.0, "type": "electric_scooter", "name": "e9da946022e376ae7dcd7fd3f0c589c3", "is_disabled": 0, "rental_uris": {"ios": "https://dc.lft.to/lastmile_qr_scan", "android": "https://dc.lft.to/lastmile_qr_scan"}, "is_reserved": 0}, {"lon": -77.03351466666666, "bike_id": "c0b113cb7e4a24accc115c83296da633", "lat": 38.897232333333335, "fusion_lon": 0.0, "fusion_lat": 0.0, "type": "electric_scooter", "name": "c0b113cb7e4a24accc115c83296da633", "is_disabled": 0, "rental_uris": {"ios": "https://dc.lft.to/lastmile_qr_scan", "android": "https://dc.lft.to/lastmile_qr_scan"}, "is_reserved": 0}, {"lon": -77.05426116666666, "bike_id": "dd881f22aeb4ea3f7a6718fc60f3e643", "lat": 38.901526, "fusion_lon": 0.0, "fusion_lat": 0.0, "type": "electric_scooter", "name": "dd881f22aeb4ea3f7a6718fc60f3e643", "is_disabled": 0, "rental_uris": {"ios": "https://dc.lft.to/lastmile_qr_scan", "android": "https://dc.lft.to/lastmile_qr_scan"}, "is_reserved": 0}, {"lon": -77.01616816666667, "bike_id": "2fdac116aac89a2d158c92e8492f5225", "lat": 38.90097266666667, "fusion_lon": 0.0, "fusion_lat": 0.0, "type": "electric_scooter", "name": "2fdac116aac89a2d158c92e8492f5225", "is_disabled": 0, "rental_uris": {"ios": "https://dc.lft.to/lastmile_qr_scan", "android": "https://dc.lft.to/lastmile_qr_scan"}, "is_reserved": 0}, {"lon": -77.03657133333333, "bike_id": "68c63c8a0637ade231f9023e5f2e87a9", "lat": 38.92100283333333, "fusion_lon": 0.0, "fusion_lat": 0.0, "type": "electric_scooter", "name": "68c63c8a0637ade231f9023e5f2e87a9", "is_disabled": 0, "rental_uris": {"ios": "https://dc.lft.to/lastmile_qr_scan", "android": "https://dc.lft.to/lastmile_qr_scan"}, "is_reserved": 0}, {"lon": -77.03203133333334, "bike_id": "28032f0d269b7f0156abacd1b33ba3c8", "lat": 38.94407266666666, "fusion_lon": 0.0, "fusion_lat": 0.0, "type": "electric_scooter", "name": "28032f0d269b7f0156abacd1b33ba3c8", "is_disabled": 0, "rental_uris": {"ios": "https://dc.lft.to/lastmile_qr_scan", "android": "https://dc.lft.to/lastmile_qr_scan"}, "is_reserved": 0}, {"lon": -77.0380065, "bike_id": "d1cd96898e369ff27a915da9fb028f70", "lat": 38.920642, "fusion_lon": 0.0, "fusion_lat": 0.0, "type": "electric_scooter", "name": "d1cd96898e369ff27a915da9fb028f70", "is_disabled": 0, "rental_uris": {"ios": "https://dc.lft.to/lastmile_qr_scan", "android": "https://dc.lft.to/lastmile_qr_scan"}, "is_reserved": 0}, {"lon": -76.93173666666667, "bike_id": "4cdbc67c93318394f748c2cc1774926c", "lat": 38.898822, "fusion_lon": 0.0, "fusion_lat": 0.0, "type": "electric_scooter", "name": "4cdbc67c93318394f748c2cc1774926c", "is_disabled": 0, "rental_uris": {"ios": "https://dc.lft.to/lastmile_qr_scan", "android": "https://dc.lft.to/lastmile_qr_scan"}, "is_reserved": 0}, {"lon": -77.03420583333333, "bike_id": "c2f2faac97e3065ab9b77e18123e3f56", "lat": 38.93352866666667, "fusion_lon": 0.0, "fusion_lat": 0.0, "type": "electric_scooter", "name": "c2f2faac97e3065ab9b77e18123e3f56", "is_disabled": 0, "rental_uris": {"ios": "https://dc.lft.to/lastmile_qr_scan", "android": "https://dc.lft.to/lastmile_qr_scan"}, "is_reserved": 0}, {"lon": -76.93641966666667, "bike_id": "ffc878a5c4d1c855643f63f317765326", "lat": 38.900618333333334, "fusion_lon": 0.0, "fusion_lat": 0.0, "type": "electric_scooter", "name": "ffc878a5c4d1c855643f63f317765326", "is_disabled": 0, "rental_uris": {"ios": "https://dc.lft.to/lastmile_qr_scan", "android": "https://dc.lft.to/lastmile_qr_scan"}, "is_reserved": 0}, {"lon": -76.99932216666667, "bike_id": "77d727d61b14b21ccc58325e21cb8554", "lat": 38.843134, "fusion_lon": 0.0, "fusion_lat": 0.0, "type": "electric_scooter", "name": "77d727d61b14b21ccc58325e21cb8554", "is_disabled": 0, "rental_uris": {"ios": "https://dc.lft.to/lastmile_qr_scan", "android": "https://dc.lft.to/lastmile_qr_scan"}, "is_reserved": 0}, {"lon": -77.02437333333333, "bike_id": "58657384f06682d4153282f9af6ba802", "lat": 38.937490833333335, "fusion_lon": 0.0, "fusion_lat": 0.0, "type": "electric_scooter", "name": "58657384f06682d4153282f9af6ba802", "is_disabled": 0, "rental_uris": {"ios": "https://dc.lft.to/lastmile_qr_scan", "android": "https://dc.lft.to/lastmile_qr_scan"}, "is_reserved": 0}, {"lon": -76.9574335, "bike_id": "97d132fd14dfe83bf3b1d41c221053e4", "lat": 38.8842605, "fusion_lon": 0.0, "fusion_lat": 0.0, "type": "electric_scooter", "name": "97d132fd14dfe83bf3b1d41c221053e4", "is_disabled": 0, "rental_uris": {"ios": "https://dc.lft.to/lastmile_qr_scan", "android": "https://dc.lft.to/lastmile_qr_scan"}, "is_reserved": 0}, {"lon": -77.03288966666666, "bike_id": "aab7ac9478de5159e70b835e9d03bd7a", "lat": 38.956505166666666, "fusion_lon": 0.0, "fusion_lat": 0.0, "type": "electric_scooter", "name": "aab7ac9478de5159e70b835e9d03bd7a", "is_disabled": 0, "rental_uris": {"ios": "https://dc.lft.to/lastmile_qr_scan", "android": "https://dc.lft.to/lastmile_qr_scan"}, "is_reserved": 0}, {"lon": -77.0405105, "bike_id": "3f7984fdaa3be2532e6657c2ba41545d", "lat": 38.889936, "fusion_lon": 0.0, "fusion_lat": 0.0, "type": "electric_scooter", "name": "3f7984fdaa3be2532e6657c2ba41545d", "is_disabled": 0, "rental_uris": {"ios": "https://dc.lft.to/lastmile_qr_scan", "android": "https://dc.lft.to/lastmile_qr_scan"}, "is_reserved": 0}, {"lon": -76.9302655, "bike_id": "410e1450057d59bcbe7280ef462915fa", "lat": 38.89663133333333, "fusion_lon": 0.0, "fusion_lat": 0.0, "type": "electric_bike", "name": "410e1450057d59bcbe7280ef462915fa", "is_disabled": 0, "rental_uris": {"ios": "https://dc.lft.to/lastmile_qr_scan", "android": "https://dc.lft.to/lastmile_qr_scan"}, "is_reserved": 0}, {"lon": -76.87495066666666, "bike_id": "36238ef9bec65034226bb664c5e7a2f9", "lat": 38.990897, "fusion_lon": 0.0, "fusion_lat": 0.0, "type": "electric_bike", "name": "36238ef9bec65034226bb664c5e7a2f9", "is_disabled": 0, "rental_uris": {"ios": "https://dc.lft.to/lastmile_qr_scan", "android": "https://dc.lft.to/lastmile_qr_scan"}, "is_reserved": 0}, {"lon": -77.04334083333333, "bike_id": "a24cff3f4a0f9ac4a5363546ba845183", "lat": 38.929647333333335, "fusion_lon": 0.0, "fusion_lat": 0.0, "type": "electric_scooter", "name": "a24cff3f4a0f9ac4a5363546ba845183", "is_disabled": 0, "rental_uris": {"ios": "https://dc.lft.to/lastmile_qr_scan", "android": "https://dc.lft.to/lastmile_qr_scan"}, "is_reserved": 0}, {"lon": -77.02832783333334, "bike_id": "d95bd225584c62fa2d4c20adbd2e37bc", "lat": 38.902624333333335, "fusion_lon": 0.0, "fusion_lat": 0.0, "type": "electric_scooter", "name": "d95bd225584c62fa2d4c20adbd2e37bc", "is_disabled": 0, "rental_uris": {"ios": "https://dc.lft.to/lastmile_qr_scan", "android": "https://dc.lft.to/lastmile_qr_scan"}, "is_reserved": 0}, {"lon": -77.02384933333333, "bike_id": "01f85dab77ec4d0edfcf7528a1bc5424", "lat": 38.90731133333333, "fusion_lon": 0.0, "fusion_lat": 0.0, "type": "electric_scooter", "name": "01f85dab77ec4d0edfcf7528a1bc5424", "is_disabled": 0, "rental_uris": {"ios": "https://dc.lft.to/lastmile_qr_scan", "android": "https://dc.lft.to/lastmile_qr_scan"}, "is_reserved": 0}, {"lon": -76.9836785, "bike_id": "f75257bebe1776980a1d0c9da1ea25ad", "lat": 38.89980766666667, "fusion_lon": 0.0, "fusion_lat": 0.0, "type": "electric_scooter", "name": "f75257bebe1776980a1d0c9da1ea25ad", "is_disabled": 0, "rental_uris": {"ios": "https://dc.lft.to/lastmile_qr_scan", "android": "https://dc.lft.to/lastmile_qr_scan"}, "is_reserved": 0}, {"lon": -77.0229075, "bike_id": "9e7a21da4650c82006acb2e3528f9df9", "lat": 38.9097465, "fusion_lon": 0.0, "fusion_lat": 0.0, "type": "electric_scooter", "name": "9e7a21da4650c82006acb2e3528f9df9", "is_disabled": 0, "rental_uris": {"ios": "https://dc.lft.to/lastmile_qr_scan", "android": "https://dc.lft.to/lastmile_qr_scan"}, "is_reserved": 0}, {"lon": -76.9336715, "bike_id": "3d2be2502deff4791c85529bcdf93d25", "lat": 38.89921, "fusion_lon": 0.0, "fusion_lat": 0.0, "type": "electric_scooter", "name": "3d2be2502deff4791c85529bcdf93d25", "is_disabled": 0, "rental_uris": {"ios": "https://dc.lft.to/lastmile_qr_scan", "android": "https://dc.lft.to/lastmile_qr_scan"}, "is_reserved": 0}, {"lon": -77.07333233333334, "bike_id": "af8db7eaed93ad2a4069ed88b65ef463", "lat": 38.925085833333334, "fusion_lon": 0.0, "fusion_lat": 0.0, "type": "electric_bike", "name": "af8db7eaed93ad2a4069ed88b65ef463", "is_disabled": 0, "rental_uris": {"ios": "https://dc.lft.to/lastmile_qr_scan", "android": "https://dc.lft.to/lastmile_qr_scan"}, "is_reserved": 0}, {"lon": -77.06753616666667, "bike_id": "a896a53066271cb39b07f79c1f5a7601", "lat": 38.90335116666667, "fusion_lon": 0.0, "fusion_lat": 0.0, "type": "electric_scooter", "name": "a896a53066271cb39b07f79c1f5a7601", "is_disabled": 0, "rental_uris": {"ios": "https://dc.lft.to/lastmile_qr_scan", "android": "https://dc.lft.to/lastmile_qr_scan"}, "is_reserved": 0}, {"lon": -77.03655966666666, "bike_id": "28a321076c920b5c79cf57ec10b6f77c", "lat": 38.9226385, "fusion_lon": 0.0, "fusion_lat": 0.0, "type": "electric_scooter", "name": "28a321076c920b5c79cf57ec10b6f77c", "is_disabled": 0, "rental_uris": {"ios": "https://dc.lft.to/lastmile_qr_scan", "android": "https://dc.lft.to/lastmile_qr_scan"}, "is_reserved": 0}, {"lon": -77.03943166666667, "bike_id": "b08b4fab11dcb1a1915f9c2b4715f51b", "lat": 38.930621333333335, "fusion_lon": 0.0, "fusion_lat": 0.0, "type": "electric_scooter", "name": "b08b4fab11dcb1a1915f9c2b4715f51b", "is_disabled": 0, "rental_uris": {"ios": "https://dc.lft.to/lastmile_qr_scan", "android": "https://dc.lft.to/lastmile_qr_scan"}, "is_reserved": 0}, {"lon": -77.02976633333333, "bike_id": "ab8bfa0bbc1bb54f2883c7e99831f9d5", "lat": 38.932848666666665, "fusion_lon": 0.0, "fusion_lat": 0.0, "type": "electric_scooter", "name": "ab8bfa0bbc1bb54f2883c7e99831f9d5", "is_disabled": 0, "rental_uris": {"ios": "https://dc.lft.to/lastmile_qr_scan", "android": "https://dc.lft.to/lastmile_qr_scan"}, "is_reserved": 0}, {"lon": -77.0317765, "bike_id": "205f894a5a66d8148c6811941997ea1a", "lat": 38.8873995, "fusion_lon": 0.0, "fusion_lat": 0.0, "type": "electric_scooter", "name": "205f894a5a66d8148c6811941997ea1a", "is_disabled": 0, "rental_uris": {"ios": "https://dc.lft.to/lastmile_qr_scan", "android": "https://dc.lft.to/lastmile_qr_scan"}, "is_reserved": 0}, {"lon": -77.03285783333334, "bike_id": "4613dcb9a3fdca9e6c225542160682a3", "lat": 38.9013125, "fusion_lon": 0.0, "fusion_lat": 0.0, "type": "electric_scooter", "name": "4613dcb9a3fdca9e6c225542160682a3", "is_disabled": 0, "rental_uris": {"ios": "https://dc.lft.to/lastmile_qr_scan", "android": "https://dc.lft.to/lastmile_qr_scan"}, "is_reserved": 0}, {"lon": -77.0400805, "bike_id": "e51813ce5b5e788334d9a5d29b0c42c4", "lat": 38.909985, "fusion_lon": 0.0, "fusion_lat": 0.0, "type": "electric_scooter", "name": "e51813ce5b5e788334d9a5d29b0c42c4", "is_disabled": 0, "rental_uris": {"ios": "https://dc.lft.to/lastmile_qr_scan", "android": "https://dc.lft.to/lastmile_qr_scan"}, "is_reserved": 0}, {"lon": -77.03486533333333, "bike_id": "a1e89ed7ac78a63cb7fe24274fb16a9b", "lat": 38.91993633333333, "fusion_lon": 0.0, "fusion_lat": 0.0, "type": "electric_scooter", "name": "a1e89ed7ac78a63cb7fe24274fb16a9b", "is_disabled": 0, "rental_uris": {"ios": "https://dc.lft.to/lastmile_qr_scan", "android": "https://dc.lft.to/lastmile_qr_scan"}, "is_reserved": 0}, {"lon": -77.10839266666666, "bike_id": "dffebafd5eff2fbe990abcd13856d2e3", "lat": 38.81200316666666, "fusion_lon": 0.0, "fusion_lat": 0.0, "type": "electric_bike", "name": "dffebafd5eff2fbe990abcd13856d2e3", "is_disabled": 0, "rental_uris": {"ios": "https://dc.lft.to/lastmile_qr_scan", "android": "https://dc.lft.to/lastmile_qr_scan"}, "is_reserved": 0}, {"lon": -77.03621683333333, "bike_id": "88b9ce7827916cc465f5b2ee83ae177c", "lat": 38.9315865, "fusion_lon": 0.0, "fusion_lat": 0.0, "type": "electric_scooter", "name": "88b9ce7827916cc465f5b2ee83ae177c", "is_disabled": 0, "rental_uris": {"ios": "https://dc.lft.to/lastmile_qr_scan", "android": "https://dc.lft.to/lastmile_qr_scan"}, "is_reserved": 0}, {"lon": -77.01457683333334, "bike_id": "e9e4b5149f870655761cff287a786c7f", "lat": 38.917730166666665, "fusion_lon": 0.0, "fusion_lat": 0.0, "type": "electric_scooter", "name": "e9e4b5149f870655761cff287a786c7f", "is_disabled": 0, "rental_uris": {"ios": "https://dc.lft.to/lastmile_qr_scan", "android": "https://dc.lft.to/lastmile_qr_scan"}, "is_reserved": 0}, {"lon": -77.025707, "bike_id": "0aaeaf383193b700e3252bf0f8634511", "lat": 38.91482333333333, "fusion_lon": 0.0, "fusion_lat": 0.0, "type": "electric_scooter", "name": "0aaeaf383193b700e3252bf0f8634511", "is_disabled": 0, "rental_uris": {"ios": "https://dc.lft.to/lastmile_qr_scan", "android": "https://dc.lft.to/lastmile_qr_scan"}, "is_reserved": 0}, {"lon": -76.99175766666667, "bike_id": "8fa3e21e89f3195a25f1a785d32e8c1f", "lat": 38.90503666666667, "fusion_lon": 0.0, "fusion_lat": 0.0, "type": "electric_scooter", "name": "8fa3e21e89f3195a25f1a785d32e8c1f", "is_disabled": 0, "rental_uris": {"ios": "https://dc.lft.to/lastmile_qr_scan", "android": "https://dc.lft.to/lastmile_qr_scan"}, "is_reserved": 0}, {"lon": -77.02954066666666, "bike_id": "2817f362a4f222e3449391f9f17856eb", "lat": 38.9050695, "fusion_lon": 0.0, "fusion_lat": 0.0, "type": "electric_scooter", "name": "2817f362a4f222e3449391f9f17856eb", "is_disabled": 0, "rental_uris": {"ios": "https://dc.lft.to/lastmile_qr_scan", "android": "https://dc.lft.to/lastmile_qr_scan"}, "is_reserved": 0}, {"lon": -76.89537683333333, "bike_id": "005a9f8fcea14be1b78c9a32f17d7015", "lat": 38.9455115, "fusion_lon": 0.0, "fusion_lat": 0.0, "type": "electric_bike", "name": "005a9f8fcea14be1b78c9a32f17d7015", "is_disabled": 0, "rental_uris": {"ios": "https://dc.lft.to/lastmile_qr_scan", "android": "https://dc.lft.to/lastmile_qr_scan"}, "is_reserved": 0}, {"lon": -77.03579133333334, "bike_id": "82774e4f08da1a148a34ef5a95c20e69", "lat": 38.9347255, "fusion_lon": 0.0, "fusion_lat": 0.0, "type": "electric_scooter", "name": "82774e4f08da1a148a34ef5a95c20e69", "is_disabled": 0, "rental_uris": {"ios": "https://dc.lft.to/lastmile_qr_scan", "android": "https://dc.lft.to/lastmile_qr_scan"}, "is_reserved": 0}, {"lon": -77.02080566666666, "bike_id": "b7681853e5e5b2b58f81663e570aefa3", "lat": 38.8999325, "fusion_lon": 0.0, "fusion_lat": 0.0, "type": "electric_scooter", "name": "b7681853e5e5b2b58f81663e570aefa3", "is_disabled": 0, "rental_uris": {"ios": "https://dc.lft.to/lastmile_qr_scan", "android": "https://dc.lft.to/lastmile_qr_scan"}, "is_reserved": 0}, {"lon": -76.97807016666667, "bike_id": "2beed67b46cf0acf403007fb08f89232", "lat": 38.906676833333336, "fusion_lon": 0.0, "fusion_lat": 0.0, "type": "electric_scooter", "name": "2beed67b46cf0acf403007fb08f89232", "is_disabled": 0, "rental_uris": {"ios": "https://dc.lft.to/lastmile_qr_scan", "android": "https://dc.lft.to/lastmile_qr_scan"}, "is_reserved": 0}, {"lon": -77.0711075, "bike_id": "cc56e7b0cfb5807213effe89a7f3b118", "lat": 38.919728666666664, "fusion_lon": 0.0, "fusion_lat": 0.0, "type": "electric_scooter", "name": "cc56e7b0cfb5807213effe89a7f3b118", "is_disabled": 0, "rental_uris": {"ios": "https://dc.lft.to/lastmile_qr_scan", "android": "https://dc.lft.to/lastmile_qr_scan"}, "is_reserved": 0}, {"lon": -77.0441945, "bike_id": "abeb9fdab2e8b792bb19e8870001f0b3", "lat": 38.92125033333333, "fusion_lon": 0.0, "fusion_lat": 0.0, "type": "electric_scooter", "name": "abeb9fdab2e8b792bb19e8870001f0b3", "is_disabled": 0, "rental_uris": {"ios": "https://dc.lft.to/lastmile_qr_scan", "android": "https://dc.lft.to/lastmile_qr_scan"}, "is_reserved": 0}, {"lon": -76.9557975, "bike_id": "014cf9fecfdfccb777a25cf58d809057", "lat": 38.888517, "fusion_lon": 0.0, "fusion_lat": 0.0, "type": "electric_scooter", "name": "014cf9fecfdfccb777a25cf58d809057", "is_disabled": 0, "rental_uris": {"ios": "https://dc.lft.to/lastmile_qr_scan", "android": "https://dc.lft.to/lastmile_qr_scan"}, "is_reserved": 0}, {"lon": -77.00510066666666, "bike_id": "c984a535514626d5fb696301f1e73f39", "lat": 38.90574183333333, "fusion_lon": 0.0, "fusion_lat": 0.0, "type": "electric_scooter", "name": "c984a535514626d5fb696301f1e73f39", "is_disabled": 0, "rental_uris": {"ios": "https://dc.lft.to/lastmile_qr_scan", "android": "https://dc.lft.to/lastmile_qr_scan"}, "is_reserved": 0}, {"lon": -77.02521383333334, "bike_id": "3c99b6d931a71679181a87e8f950a644", "lat": 38.92067866666667, "fusion_lon": 0.0, "fusion_lat": 0.0, "type": "electric_scooter", "name": "3c99b6d931a71679181a87e8f950a644", "is_disabled": 0, "rental_uris": {"ios": "https://dc.lft.to/lastmile_qr_scan", "android": "https://dc.lft.to/lastmile_qr_scan"}, "is_reserved": 0}, {"lon": -77.01520966666666, "bike_id": "7353f4f5aee514db458727dd0dbdf626", "lat": 38.900238333333334, "fusion_lon": 0.0, "fusion_lat": 0.0, "type": "electric_scooter", "name": "7353f4f5aee514db458727dd0dbdf626", "is_disabled": 0, "rental_uris": {"ios": "https://dc.lft.to/lastmile_qr_scan", "android": "https://dc.lft.to/lastmile_qr_scan"}, "is_reserved": 0}, {"lon": -77.02345683333333, "bike_id": "2db17c11831790533ccb4ee24d1f744e", "lat": 38.922515833333335, "fusion_lon": 0.0, "fusion_lat": 0.0, "type": "electric_scooter", "name": "2db17c11831790533ccb4ee24d1f744e", "is_disabled": 0, "rental_uris": {"ios": "https://dc.lft.to/lastmile_qr_scan", "android": "https://dc.lft.to/lastmile_qr_scan"}, "is_reserved": 0}, {"lon": -76.98682066666667, "bike_id": "c7f3ed3d233007ad0baaf56f8f3157f3", "lat": 38.91215533333333, "fusion_lon": 0.0, "fusion_lat": 0.0, "type": "electric_scooter", "name": "c7f3ed3d233007ad0baaf56f8f3157f3", "is_disabled": 0, "rental_uris": {"ios": "https://dc.lft.to/lastmile_qr_scan", "android": "https://dc.lft.to/lastmile_qr_scan"}, "is_reserved": 0}, {"lon": -77.00881233333334, "bike_id": "102ff3e6bd6c6fab27be4d819e56d5f8", "lat": 38.922739666666665, "fusion_lon": 0.0, "fusion_lat": 0.0, "type": "electric_scooter", "name": "102ff3e6bd6c6fab27be4d819e56d5f8", "is_disabled": 0, "rental_uris": {"ios": "https://dc.lft.to/lastmile_qr_scan", "android": "https://dc.lft.to/lastmile_qr_scan"}, "is_reserved": 0}, {"lon": -76.965485, "bike_id": "56170909d29154e01c01c3d0bd3712d1", "lat": 38.91844366666667, "fusion_lon": 0.0, "fusion_lat": 0.0, "type": "electric_scooter", "name": "56170909d29154e01c01c3d0bd3712d1", "is_disabled": 0, "rental_uris": {"ios": "https://dc.lft.to/lastmile_qr_scan", "android": "https://dc.lft.to/lastmile_qr_scan"}, "is_reserved": 0}, {"lon": -77.0404055, "bike_id": "d9b2186b26984acd044b6b11cbd11750", "lat": 38.90844166666667, "fusion_lon": 0.0, "fusion_lat": 0.0, "type": "electric_bike", "name": "d9b2186b26984acd044b6b11cbd11750", "is_disabled": 0, "rental_uris": {"ios": "https://dc.lft.to/lastmile_qr_scan", "android": "https://dc.lft.to/lastmile_qr_scan"}, "is_reserved": 0}, {"lon": -77.233282, "bike_id": "24a7a2907b99860aa16f686ab5097bde", "lat": 38.87275616666667, "fusion_lon": 0.0, "fusion_lat": 0.0, "type": "electric_bike", "name": "24a7a2907b99860aa16f686ab5097bde", "is_disabled": 0, "rental_uris": {"ios": "https://dc.lft.to/lastmile_qr_scan", "android": "https://dc.lft.to/lastmile_qr_scan"}, "is_reserved": 0}, {"lon": -76.98219733333333, "bike_id": "d3cddd47b2c7f1769ad469b608636985", "lat": 38.916343833333336, "fusion_lon": 0.0, "fusion_lat": 0.0, "type": "electric_scooter", "name": "d3cddd47b2c7f1769ad469b608636985", "is_disabled": 0, "rental_uris": {"ios": "https://dc.lft.to/lastmile_qr_scan", "android": "https://dc.lft.to/lastmile_qr_scan"}, "is_reserved": 0}, {"lon": -76.988804, "bike_id": "593e09682dcc363306bb7d66658840eb", "lat": 38.86657683333333, "fusion_lon": 0.0, "fusion_lat": 0.0, "type": "electric_scooter", "name": "593e09682dcc363306bb7d66658840eb", "is_disabled": 0, "rental_uris": {"ios": "https://dc.lft.to/lastmile_qr_scan", "android": "https://dc.lft.to/lastmile_qr_scan"}, "is_reserved": 0}, {"lon": -77.027959, "bike_id": "d20ebcf8e6deb8c21dff808a991cebb2", "lat": 38.92963783333333, "fusion_lon": 0.0, "fusion_lat": 0.0, "type": "electric_scooter", "name": "d20ebcf8e6deb8c21dff808a991cebb2", "is_disabled": 0, "rental_uris": {"ios": "https://dc.lft.to/lastmile_qr_scan", "android": "https://dc.lft.to/lastmile_qr_scan"}, "is_reserved": 0}, {"lon": -77.03979583333333, "bike_id": "ca3d018cce254023077eca49e3e861b4", "lat": 38.9281055, "fusion_lon": 0.0, "fusion_lat": 0.0, "type": "electric_scooter", "name": "ca3d018cce254023077eca49e3e861b4", "is_disabled": 0, "rental_uris": {"ios": "https://dc.lft.to/lastmile_qr_scan", "android": "https://dc.lft.to/lastmile_qr_scan"}, "is_reserved": 0}, {"lon": -77.025423, "bike_id": "764e17bba22720982f35da33f2d6f894", "lat": 38.907199166666665, "fusion_lon": 0.0, "fusion_lat": 0.0, "type": "electric_scooter", "name": "764e17bba22720982f35da33f2d6f894", "is_disabled": 0, "rental_uris": {"ios": "https://dc.lft.to/lastmile_qr_scan", "android": "https://dc.lft.to/lastmile_qr_scan"}, "is_reserved": 0}, {"lon": -76.98519383333333, "bike_id": "3056b28fcee1b4132584464bdce64da8", "lat": 38.8668015, "fusion_lon": 0.0, "fusion_lat": 0.0, "type": "electric_scooter", "name": "3056b28fcee1b4132584464bdce64da8", "is_disabled": 0, "rental_uris": {"ios": "https://dc.lft.to/lastmile_qr_scan", "android": "https://dc.lft.to/lastmile_qr_scan"}, "is_reserved": 0}, {"lon": -77.00099316666666, "bike_id": "5bf0a1dd71a96975d867292767bc4b32", "lat": 38.912464666666665, "fusion_lon": 0.0, "fusion_lat": 0.0, "type": "electric_scooter", "name": "5bf0a1dd71a96975d867292767bc4b32", "is_disabled": 0, "rental_uris": {"ios": "https://dc.lft.to/lastmile_qr_scan", "android": "https://dc.lft.to/lastmile_qr_scan"}, "is_reserved": 0}, {"lon": -77.23319583333334, "bike_id": "c32b4fe7416c068937643f3cd8712d4b", "lat": 38.872844, "fusion_lon": 0.0, "fusion_lat": 0.0, "type": "electric_bike", "name": "c32b4fe7416c068937643f3cd8712d4b", "is_disabled": 0, "rental_uris": {"ios": "https://dc.lft.to/lastmile_qr_scan", "android": "https://dc.lft.to/lastmile_qr_scan"}, "is_reserved": 0}, {"lon": -77.0318075, "bike_id": "79bb74544bab5e2907826f1faf18251b", "lat": 38.9036225, "fusion_lon": 0.0, "fusion_lat": 0.0, "type": "electric_scooter", "name": "79bb74544bab5e2907826f1faf18251b", "is_disabled": 0, "rental_uris": {"ios": "https://dc.lft.to/lastmile_qr_scan", "android": "https://dc.lft.to/lastmile_qr_scan"}, "is_reserved": 0}, {"lon": -76.95000966666667, "bike_id": "e7787536a18956b789636b11fa3a6836", "lat": 38.893822, "fusion_lon": 0.0, "fusion_lat": 0.0, "type": "electric_scooter", "name": "e7787536a18956b789636b11fa3a6836", "is_disabled": 0, "rental_uris": {"ios": "https://dc.lft.to/lastmile_qr_scan", "android": "https://dc.lft.to/lastmile_qr_scan"}, "is_reserved": 0}, {"lon": -76.994468, "bike_id": "f8ca6d8199ea63098a9599e39b5a38c0", "lat": 38.86279916666667, "fusion_lon": 0.0, "fusion_lat": 0.0, "type": "electric_scooter", "name": "f8ca6d8199ea63098a9599e39b5a38c0", "is_disabled": 0, "rental_uris": {"ios": "https://dc.lft.to/lastmile_qr_scan", "android": "https://dc.lft.to/lastmile_qr_scan"}, "is_reserved": 0}, {"lon": -77.03076183333333, "bike_id": "9d1d50e7428cb69e7ddf4647dc63823b", "lat": 38.8839225, "fusion_lon": 0.0, "fusion_lat": 0.0, "type": "electric_scooter", "name": "9d1d50e7428cb69e7ddf4647dc63823b", "is_disabled": 0, "rental_uris": {"ios": "https://dc.lft.to/lastmile_qr_scan", "android": "https://dc.lft.to/lastmile_qr_scan"}, "is_reserved": 0}, {"lon": -77.0183455, "bike_id": "39c7bfd3717319632070680ce27c9864", "lat": 38.90144, "fusion_lon": 0.0, "fusion_lat": 0.0, "type": "electric_scooter", "name": "39c7bfd3717319632070680ce27c9864", "is_disabled": 0, "rental_uris": {"ios": "https://dc.lft.to/lastmile_qr_scan", "android": "https://dc.lft.to/lastmile_qr_scan"}, "is_reserved": 0}, {"lon": -77.08818666666667, "bike_id": "9d60283e799d8c60d042d4bc6697f31d", "lat": 38.909761333333336, "fusion_lon": 0.0, "fusion_lat": 0.0, "type": "electric_scooter", "name": "9d60283e799d8c60d042d4bc6697f31d", "is_disabled": 0, "rental_uris": {"ios": "https://dc.lft.to/lastmile_qr_scan", "android": "https://dc.lft.to/lastmile_qr_scan"}, "is_reserved": 0}, {"lon": -77.00201766666666, "bike_id": "bcbc22ae712c71114e1ddf16a3957c63", "lat": 38.900411166666665, "fusion_lon": 0.0, "fusion_lat": 0.0, "type": "electric_scooter", "name": "bcbc22ae712c71114e1ddf16a3957c63", "is_disabled": 0, "rental_uris": {"ios": "https://dc.lft.to/lastmile_qr_scan", "android": "https://dc.lft.to/lastmile_qr_scan"}, "is_reserved": 0}, {"lon": -77.007229, "bike_id": "14fcba1a594cedf8f96d822f6e463a47", "lat": 38.95061783333333, "fusion_lon": 0.0, "fusion_lat": 0.0, "type": "electric_bike", "name": "14fcba1a594cedf8f96d822f6e463a47", "is_disabled": 0, "rental_uris": {"ios": "https://dc.lft.to/lastmile_qr_scan", "android": "https://dc.lft.to/lastmile_qr_scan"}, "is_reserved": 0}, {"lon": -77.02382316666667, "bike_id": "5f0159fbf0d74cc734338480434e50ca", "lat": 38.909847, "fusion_lon": 0.0, "fusion_lat": 0.0, "type": "electric_scooter", "name": "5f0159fbf0d74cc734338480434e50ca", "is_disabled": 0, "rental_uris": {"ios": "https://dc.lft.to/lastmile_qr_scan", "android": "https://dc.lft.to/lastmile_qr_scan"}, "is_reserved": 0}, {"lon": -76.98332016666667, "bike_id": "5585decab57d69904b1782583e991d9b", "lat": 38.900884833333336, "fusion_lon": 0.0, "fusion_lat": 0.0, "type": "electric_scooter", "name": "5585decab57d69904b1782583e991d9b", "is_disabled": 0, "rental_uris": {"ios": "https://dc.lft.to/lastmile_qr_scan", "android": "https://dc.lft.to/lastmile_qr_scan"}, "is_reserved": 0}, {"lon": -76.992736, "bike_id": "fa7ebc685e073333f1c400594a2617ba", "lat": 38.89771916666667, "fusion_lon": 0.0, "fusion_lat": 0.0, "type": "electric_scooter", "name": "fa7ebc685e073333f1c400594a2617ba", "is_disabled": 0, "rental_uris": {"ios": "https://dc.lft.to/lastmile_qr_scan", "android": "https://dc.lft.to/lastmile_qr_scan"}, "is_reserved": 0}, {"lon": -77.03196233333334, "bike_id": "525ff4bec0cf0369fa3fe94763a05f87", "lat": 38.918996166666666, "fusion_lon": 0.0, "fusion_lat": 0.0, "type": "electric_scooter", "name": "525ff4bec0cf0369fa3fe94763a05f87", "is_disabled": 0, "rental_uris": {"ios": "https://dc.lft.to/lastmile_qr_scan", "android": "https://dc.lft.to/lastmile_qr_scan"}, "is_reserved": 0}, {"lon": -76.9489325, "bike_id": "ee2fb401e61dec1fe2e87e7a39672140", "lat": 38.895324, "fusion_lon": 0.0, "fusion_lat": 0.0, "type": "electric_scooter", "name": "ee2fb401e61dec1fe2e87e7a39672140", "is_disabled": 0, "rental_uris": {"ios": "https://dc.lft.to/lastmile_qr_scan", "android": "https://dc.lft.to/lastmile_qr_scan"}, "is_reserved": 0}, {"lon": -77.03654316666666, "bike_id": "6f29c1cbacca992a29104ce2d47c83ae", "lat": 38.9417835, "fusion_lon": 0.0, "fusion_lat": 0.0, "type": "electric_scooter", "name": "6f29c1cbacca992a29104ce2d47c83ae", "is_disabled": 0, "rental_uris": {"ios": "https://dc.lft.to/lastmile_qr_scan", "android": "https://dc.lft.to/lastmile_qr_scan"}, "is_reserved": 0}, {"lon": -76.98183683333333, "bike_id": "bd7b6002b52ad67257bdfaf6506acaab", "lat": 38.92605233333333, "fusion_lon": 0.0, "fusion_lat": 0.0, "type": "electric_scooter", "name": "bd7b6002b52ad67257bdfaf6506acaab", "is_disabled": 0, "rental_uris": {"ios": "https://dc.lft.to/lastmile_qr_scan", "android": "https://dc.lft.to/lastmile_qr_scan"}, "is_reserved": 0}, {"lon": -76.94291466666667, "bike_id": "659b51f992bac834ec30ee7b699a17c3", "lat": 38.938698, "fusion_lon": 0.0, "fusion_lat": 0.0, "type": "electric_bike", "name": "659b51f992bac834ec30ee7b699a17c3", "is_disabled": 0, "rental_uris": {"ios": "https://dc.lft.to/lastmile_qr_scan", "android": "https://dc.lft.to/lastmile_qr_scan"}, "is_reserved": 0}, {"lon": -77.02619783333333, "bike_id": "fb0739c7bac0a840426d8a0d89807ef0", "lat": 38.9622145, "fusion_lon": 0.0, "fusion_lat": 0.0, "type": "electric_bike", "name": "fb0739c7bac0a840426d8a0d89807ef0", "is_disabled": 0, "rental_uris": {"ios": "https://dc.lft.to/lastmile_qr_scan", "android": "https://dc.lft.to/lastmile_qr_scan"}, "is_reserved": 0}, {"lon": -77.00721, "bike_id": "2acd7762f59f1a7c3079ebb449091a5c", "lat": 38.87955783333334, "fusion_lon": 0.0, "fusion_lat": 0.0, "type": "electric_scooter", "name": "2acd7762f59f1a7c3079ebb449091a5c", "is_disabled": 0, "rental_uris": {"ios": "https://dc.lft.to/lastmile_qr_scan", "android": "https://dc.lft.to/lastmile_qr_scan"}, "is_reserved": 0}, {"lon": -76.95479816666666, "bike_id": "ff730a5398d649dd414d42e46fa87fc6", "lat": 38.8846615, "fusion_lon": 0.0, "fusion_lat": 0.0, "type": "electric_scooter", "name": "ff730a5398d649dd414d42e46fa87fc6", "is_disabled": 0, "rental_uris": {"ios": "https://dc.lft.to/lastmile_qr_scan", "android": "https://dc.lft.to/lastmile_qr_scan"}, "is_reserved": 0}, {"lon": -77.03871733333334, "bike_id": "72a9ed80ec7a90d9561c3c1a46dc3448", "lat": 38.933, "fusion_lon": 0.0, "fusion_lat": 0.0, "type": "electric_scooter", "name": "72a9ed80ec7a90d9561c3c1a46dc3448", "is_disabled": 0, "rental_uris": {"ios": "https://dc.lft.to/lastmile_qr_scan", "android": "https://dc.lft.to/lastmile_qr_scan"}, "is_reserved": 0}, {"lon": -76.9888565, "bike_id": "1636ecdbc7eac8a8c2424e917b36a254", "lat": 38.86655, "fusion_lon": 0.0, "fusion_lat": 0.0, "type": "electric_scooter", "name": "1636ecdbc7eac8a8c2424e917b36a254", "is_disabled": 0, "rental_uris": {"ios": "https://dc.lft.to/lastmile_qr_scan", "android": "https://dc.lft.to/lastmile_qr_scan"}, "is_reserved": 0}, {"lon": -77.00200533333333, "bike_id": "154e57091c6bc2e90c6c0778df6898cd", "lat": 38.900379666666666, "fusion_lon": 0.0, "fusion_lat": 0.0, "type": "electric_scooter", "name": "154e57091c6bc2e90c6c0778df6898cd", "is_disabled": 0, "rental_uris": {"ios": "https://dc.lft.to/lastmile_qr_scan", "android": "https://dc.lft.to/lastmile_qr_scan"}, "is_reserved": 0}, {"lon": -76.98260933333333, "bike_id": "5dfd8467d16f0c5d0db9458b7a0891c7", "lat": 38.90852316666667, "fusion_lon": 0.0, "fusion_lat": 0.0, "type": "electric_scooter", "name": "5dfd8467d16f0c5d0db9458b7a0891c7", "is_disabled": 0, "rental_uris": {"ios": "https://dc.lft.to/lastmile_qr_scan", "android": "https://dc.lft.to/lastmile_qr_scan"}, "is_reserved": 0}, {"lon": -76.98591883333333, "bike_id": "56ddd836cdf18ab48ee6255b7c98a46a", "lat": 38.90814666666667, "fusion_lon": 0.0, "fusion_lat": 0.0, "type": "electric_scooter", "name": "56ddd836cdf18ab48ee6255b7c98a46a", "is_disabled": 0, "rental_uris": {"ios": "https://dc.lft.to/lastmile_qr_scan", "android": "https://dc.lft.to/lastmile_qr_scan"}, "is_reserved": 0}, {"lon": -76.9948455, "bike_id": "9b46d0d68a90b577eb7d6544bb1c689d", "lat": 38.91571016666666, "fusion_lon": 0.0, "fusion_lat": 0.0, "type": "electric_scooter", "name": "9b46d0d68a90b577eb7d6544bb1c689d", "is_disabled": 0, "rental_uris": {"ios": "https://dc.lft.to/lastmile_qr_scan", "android": "https://dc.lft.to/lastmile_qr_scan"}, "is_reserved": 0}, {"lon": -77.10089783333333, "bike_id": "c64c91773a7e2225365820d3b90f922a", "lat": 38.95959783333333, "fusion_lon": 0.0, "fusion_lat": 0.0, "type": "electric_bike", "name": "c64c91773a7e2225365820d3b90f922a", "is_disabled": 0, "rental_uris": {"ios": "https://dc.lft.to/lastmile_qr_scan", "android": "https://dc.lft.to/lastmile_qr_scan"}, "is_reserved": 0}, {"lon": -77.064781, "bike_id": "5227a5a86fb7cf5739753fab117e1b2e", "lat": 38.946517, "fusion_lon": 0.0, "fusion_lat": 0.0, "type": "electric_scooter", "name": "5227a5a86fb7cf5739753fab117e1b2e", "is_disabled": 0, "rental_uris": {"ios": "https://dc.lft.to/lastmile_qr_scan", "android": "https://dc.lft.to/lastmile_qr_scan"}, "is_reserved": 0}, {"lon": -76.93369283333334, "bike_id": "9edb1f140da6260222f1b854944cdbe4", "lat": 38.899145833333336, "fusion_lon": 0.0, "fusion_lat": 0.0, "type": "electric_scooter", "name": "9edb1f140da6260222f1b854944cdbe4", "is_disabled": 0, "rental_uris": {"ios": "https://dc.lft.to/lastmile_qr_scan", "android": "https://dc.lft.to/lastmile_qr_scan"}, "is_reserved": 0}, {"lon": -77.04096833333334, "bike_id": "7e7bd07b0d22a197fd5101b4059d5637", "lat": 38.920300166666664, "fusion_lon": 0.0, "fusion_lat": 0.0, "type": "electric_scooter", "name": "7e7bd07b0d22a197fd5101b4059d5637", "is_disabled": 0, "rental_uris": {"ios": "https://dc.lft.to/lastmile_qr_scan", "android": "https://dc.lft.to/lastmile_qr_scan"}, "is_reserved": 0}, {"lon": -76.99403683333334, "bike_id": "8825510e82a684c69da97eddb8ebe659", "lat": 38.831386333333334, "fusion_lon": 0.0, "fusion_lat": 0.0, "type": "electric_bike", "name": "8825510e82a684c69da97eddb8ebe659", "is_disabled": 0, "rental_uris": {"ios": "https://dc.lft.to/lastmile_qr_scan", "android": "https://dc.lft.to/lastmile_qr_scan"}, "is_reserved": 0}, {"lon": -76.98903016666667, "bike_id": "12a69bdfb0de0586afc8f51923091d51", "lat": 38.913514166666666, "fusion_lon": 0.0, "fusion_lat": 0.0, "type": "electric_scooter", "name": "12a69bdfb0de0586afc8f51923091d51", "is_disabled": 0, "rental_uris": {"ios": "https://dc.lft.to/lastmile_qr_scan", "android": "https://dc.lft.to/lastmile_qr_scan"}, "is_reserved": 0}, {"lon": -77.02330066666667, "bike_id": "2e341d936aaea9a51a2f4d9b2793c702", "lat": 38.9352915, "fusion_lon": 0.0, "fusion_lat": 0.0, "type": "electric_scooter", "name": "2e341d936aaea9a51a2f4d9b2793c702", "is_disabled": 0, "rental_uris": {"ios": "https://dc.lft.to/lastmile_qr_scan", "android": "https://dc.lft.to/lastmile_qr_scan"}, "is_reserved": 0}, {"lon": -77.003996, "bike_id": "6cb86e054b919aa5567891da16c98354", "lat": 38.92133166666667, "fusion_lon": 0.0, "fusion_lat": 0.0, "type": "electric_scooter", "name": "6cb86e054b919aa5567891da16c98354", "is_disabled": 0, "rental_uris": {"ios": "https://dc.lft.to/lastmile_qr_scan", "android": "https://dc.lft.to/lastmile_qr_scan"}, "is_reserved": 0}, {"lon": -76.9974945, "bike_id": "be09e4d4ccca4b9f136ac104f83df4d2", "lat": 38.950078, "fusion_lon": 0.0, "fusion_lat": 0.0, "type": "electric_bike", "name": "be09e4d4ccca4b9f136ac104f83df4d2", "is_disabled": 0, "rental_uris": {"ios": "https://dc.lft.to/lastmile_qr_scan", "android": "https://dc.lft.to/lastmile_qr_scan"}, "is_reserved": 0}, {"lon": -76.95006416666666, "bike_id": "51d0e0de7e4905db2768a97be514ffe4", "lat": 38.89377866666667, "fusion_lon": 0.0, "fusion_lat": 0.0, "type": "electric_scooter", "name": "51d0e0de7e4905db2768a97be514ffe4", "is_disabled": 0, "rental_uris": {"ios": "https://dc.lft.to/lastmile_qr_scan", "android": "https://dc.lft.to/lastmile_qr_scan"}, "is_reserved": 0}, {"lon": -77.0160615, "bike_id": "84e9da258a0cf0e41576d79a2c45f9de", "lat": 38.8831955, "fusion_lon": 0.0, "fusion_lat": 0.0, "type": "electric_scooter", "name": "84e9da258a0cf0e41576d79a2c45f9de", "is_disabled": 0, "rental_uris": {"ios": "https://dc.lft.to/lastmile_qr_scan", "android": "https://dc.lft.to/lastmile_qr_scan"}, "is_reserved": 0}, {"lon": -77.0325695, "bike_id": "a3a76465d648d90b29be242eb9889ba6", "lat": 38.93772533333333, "fusion_lon": 0.0, "fusion_lat": 0.0, "type": "electric_scooter", "name": "a3a76465d648d90b29be242eb9889ba6", "is_disabled": 0, "rental_uris": {"ios": "https://dc.lft.to/lastmile_qr_scan", "android": "https://dc.lft.to/lastmile_qr_scan"}, "is_reserved": 0}, {"lon": -77.01095633333334, "bike_id": "a1f79e8dd10b65a09d3f384a102fef9a", "lat": 38.908545, "fusion_lon": 0.0, "fusion_lat": 0.0, "type": "electric_scooter", "name": "a1f79e8dd10b65a09d3f384a102fef9a", "is_disabled": 0, "rental_uris": {"ios": "https://dc.lft.to/lastmile_qr_scan", "android": "https://dc.lft.to/lastmile_qr_scan"}, "is_reserved": 0}, {"lon": -77.01440416666667, "bike_id": "e889afd99d23e97f51f6df0cc3df1f2b", "lat": 38.9053995, "fusion_lon": 0.0, "fusion_lat": 0.0, "type": "electric_scooter", "name": "e889afd99d23e97f51f6df0cc3df1f2b", "is_disabled": 0, "rental_uris": {"ios": "https://dc.lft.to/lastmile_qr_scan", "android": "https://dc.lft.to/lastmile_qr_scan"}, "is_reserved": 0}, {"lon": -77.03250516666667, "bike_id": "b2effa156697e213971496be820511c5", "lat": 38.93133183333333, "fusion_lon": 0.0, "fusion_lat": 0.0, "type": "electric_scooter", "name": "b2effa156697e213971496be820511c5", "is_disabled": 0, "rental_uris": {"ios": "https://dc.lft.to/lastmile_qr_scan", "android": "https://dc.lft.to/lastmile_qr_scan"}, "is_reserved": 0}, {"lon": -76.97858216666667, "bike_id": "f50d3e03e109e3079aee7458b6a6362b", "lat": 38.907215, "fusion_lon": 0.0, "fusion_lat": 0.0, "type": "electric_scooter", "name": "f50d3e03e109e3079aee7458b6a6362b", "is_disabled": 0, "rental_uris": {"ios": "https://dc.lft.to/lastmile_qr_scan", "android": "https://dc.lft.to/lastmile_qr_scan"}, "is_reserved": 0}, {"lon": -77.020916, "bike_id": "d1f3b3b238a7a66049d8cdc2bc61c760", "lat": 38.92918233333333, "fusion_lon": 0.0, "fusion_lat": 0.0, "type": "electric_scooter", "name": "d1f3b3b238a7a66049d8cdc2bc61c760", "is_disabled": 0, "rental_uris": {"ios": "https://dc.lft.to/lastmile_qr_scan", "android": "https://dc.lft.to/lastmile_qr_scan"}, "is_reserved": 0}, {"lon": -76.97560283333334, "bike_id": "360ec028222effb8815a8baad3ea4f6c", "lat": 38.92458716666667, "fusion_lon": 0.0, "fusion_lat": 0.0, "type": "electric_bike", "name": "360ec028222effb8815a8baad3ea4f6c", "is_disabled": 0, "rental_uris": {"ios": "https://dc.lft.to/lastmile_qr_scan", "android": "https://dc.lft.to/lastmile_qr_scan"}, "is_reserved": 0}, {"lon": -77.02755316666666, "bike_id": "59d272c291bc9d80e2786acd7ce69672", "lat": 38.89754516666667, "fusion_lon": 0.0, "fusion_lat": 0.0, "type": "electric_scooter", "name": "59d272c291bc9d80e2786acd7ce69672", "is_disabled": 0, "rental_uris": {"ios": "https://dc.lft.to/lastmile_qr_scan", "android": "https://dc.lft.to/lastmile_qr_scan"}, "is_reserved": 0}, {"lon": -77.03591316666666, "bike_id": "365b2b90be873b6b9f6c8d6dd32a4358", "lat": 38.91773633333333, "fusion_lon": 0.0, "fusion_lat": 0.0, "type": "electric_scooter", "name": "365b2b90be873b6b9f6c8d6dd32a4358", "is_disabled": 0, "rental_uris": {"ios": "https://dc.lft.to/lastmile_qr_scan", "android": "https://dc.lft.to/lastmile_qr_scan"}, "is_reserved": 0}, {"lon": -76.97010066666667, "bike_id": "bad3f6de21e3fda8d74c79d3c794e64a", "lat": 38.8637005, "fusion_lon": 0.0, "fusion_lat": 0.0, "type": "electric_bike", "name": "bad3f6de21e3fda8d74c79d3c794e64a", "is_disabled": 0, "rental_uris": {"ios": "https://dc.lft.to/lastmile_qr_scan", "android": "https://dc.lft.to/lastmile_qr_scan"}, "is_reserved": 0}, {"lon": -77.02389933333333, "bike_id": "ab0ef426850803edd9851360d1e5eddf", "lat": 38.90726316666667, "fusion_lon": 0.0, "fusion_lat": 0.0, "type": "electric_scooter", "name": "ab0ef426850803edd9851360d1e5eddf", "is_disabled": 0, "rental_uris": {"ios": "https://dc.lft.to/lastmile_qr_scan", "android": "https://dc.lft.to/lastmile_qr_scan"}, "is_reserved": 0}, {"lon": -76.978434, "bike_id": "e2e775c4469834a3e4964db85b2f4d61", "lat": 38.865700833333335, "fusion_lon": 0.0, "fusion_lat": 0.0, "type": "electric_scooter", "name": "e2e775c4469834a3e4964db85b2f4d61", "is_disabled": 0, "rental_uris": {"ios": "https://dc.lft.to/lastmile_qr_scan", "android": "https://dc.lft.to/lastmile_qr_scan"}, "is_reserved": 0}, {"lon": -77.01054216666667, "bike_id": "99076c9b2c0a0e00b65de6c42f2e1a45", "lat": 38.91191333333333, "fusion_lon": 0.0, "fusion_lat": 0.0, "type": "electric_scooter", "name": "99076c9b2c0a0e00b65de6c42f2e1a45", "is_disabled": 0, "rental_uris": {"ios": "https://dc.lft.to/lastmile_qr_scan", "android": "https://dc.lft.to/lastmile_qr_scan"}, "is_reserved": 0}, {"lon": -77.04359966666667, "bike_id": "cc28145dd848963557f9ae64c3626bc3", "lat": 39.015412833333336, "fusion_lon": 0.0, "fusion_lat": 0.0, "type": "electric_bike", "name": "cc28145dd848963557f9ae64c3626bc3", "is_disabled": 0, "rental_uris": {"ios": "https://dc.lft.to/lastmile_qr_scan", "android": "https://dc.lft.to/lastmile_qr_scan"}, "is_reserved": 0}, {"lon": -76.94890533333333, "bike_id": "f016419ba5b18ff15af16a4fee3deb41", "lat": 38.895272166666665, "fusion_lon": 0.0, "fusion_lat": 0.0, "type": "electric_scooter", "name": "f016419ba5b18ff15af16a4fee3deb41", "is_disabled": 0, "rental_uris": {"ios": "https://dc.lft.to/lastmile_qr_scan", "android": "https://dc.lft.to/lastmile_qr_scan"}, "is_reserved": 0}, {"lon": -77.02472533333334, "bike_id": "07069899f4cb14ffbf4a4de4f199af81", "lat": 38.92592283333333, "fusion_lon": 0.0, "fusion_lat": 0.0, "type": "electric_scooter", "name": "07069899f4cb14ffbf4a4de4f199af81", "is_disabled": 0, "rental_uris": {"ios": "https://dc.lft.to/lastmile_qr_scan", "android": "https://dc.lft.to/lastmile_qr_scan"}, "is_reserved": 0}, {"lon": -77.02441666666667, "bike_id": "0ac2496f74bf21dd22d339a942e51b62", "lat": 38.936003, "fusion_lon": 0.0, "fusion_lat": 0.0, "type": "electric_scooter", "name": "0ac2496f74bf21dd22d339a942e51b62", "is_disabled": 0, "rental_uris": {"ios": "https://dc.lft.to/lastmile_qr_scan", "android": "https://dc.lft.to/lastmile_qr_scan"}, "is_reserved": 0}, {"lon": -77.03896383333333, "bike_id": "411b38a3c3943344195272acf063134d", "lat": 38.923390833333336, "fusion_lon": 0.0, "fusion_lat": 0.0, "type": "electric_scooter", "name": "411b38a3c3943344195272acf063134d", "is_disabled": 0, "rental_uris": {"ios": "https://dc.lft.to/lastmile_qr_scan", "android": "https://dc.lft.to/lastmile_qr_scan"}, "is_reserved": 0}, {"lon": -77.028049, "bike_id": "7b0550491a72a76deed7b5a184e15cb7", "lat": 38.9418915, "fusion_lon": 0.0, "fusion_lat": 0.0, "type": "electric_scooter", "name": "7b0550491a72a76deed7b5a184e15cb7", "is_disabled": 0, "rental_uris": {"ios": "https://dc.lft.to/lastmile_qr_scan", "android": "https://dc.lft.to/lastmile_qr_scan"}, "is_reserved": 0}, {"lon": -77.02830466666667, "bike_id": "65540c732283e42ff07239e5d56e235a", "lat": 38.8952145, "fusion_lon": 0.0, "fusion_lat": 0.0, "type": "electric_scooter", "name": "65540c732283e42ff07239e5d56e235a", "is_disabled": 0, "rental_uris": {"ios": "https://dc.lft.to/lastmile_qr_scan", "android": "https://dc.lft.to/lastmile_qr_scan"}, "is_reserved": 0}, {"lon": -77.03889766666667, "bike_id": "c606c0648efebceef1dc9ce073b4e261", "lat": 38.91000916666667, "fusion_lon": 0.0, "fusion_lat": 0.0, "type": "electric_scooter", "name": "c606c0648efebceef1dc9ce073b4e261", "is_disabled": 0, "rental_uris": {"ios": "https://dc.lft.to/lastmile_qr_scan", "android": "https://dc.lft.to/lastmile_qr_scan"}, "is_reserved": 0}, {"lon": -77.038675, "bike_id": "abdbde96308c28512c0a8afaa6d764a4", "lat": 38.9450465, "fusion_lon": 0.0, "fusion_lat": 0.0, "type": "electric_scooter", "name": "abdbde96308c28512c0a8afaa6d764a4", "is_disabled": 0, "rental_uris": {"ios": "https://dc.lft.to/lastmile_qr_scan", "android": "https://dc.lft.to/lastmile_qr_scan"}, "is_reserved": 0}, {"lon": -77.03438816666667, "bike_id": "84e29e96f75a58b5fad8541baca82bde", "lat": 38.90279783333333, "fusion_lon": 0.0, "fusion_lat": 0.0, "type": "electric_scooter", "name": "84e29e96f75a58b5fad8541baca82bde", "is_disabled": 0, "rental_uris": {"ios": "https://dc.lft.to/lastmile_qr_scan", "android": "https://dc.lft.to/lastmile_qr_scan"}, "is_reserved": 0}, {"lon": -76.93533, "bike_id": "2f58f606fa3ceba6b911abfbaab53465", "lat": 38.896837166666664, "fusion_lon": 0.0, "fusion_lat": 0.0, "type": "electric_scooter", "name": "2f58f606fa3ceba6b911abfbaab53465", "is_disabled": 0, "rental_uris": {"ios": "https://dc.lft.to/lastmile_qr_scan", "android": "https://dc.lft.to/lastmile_qr_scan"}, "is_reserved": 0}, {"lon": -76.9810285, "bike_id": "8504f87dd79e3ca9a5b714cd8c19ffe6", "lat": 38.895593833333336, "fusion_lon": 0.0, "fusion_lat": 0.0, "type": "electric_scooter", "name": "8504f87dd79e3ca9a5b714cd8c19ffe6", "is_disabled": 0, "rental_uris": {"ios": "https://dc.lft.to/lastmile_qr_scan", "android": "https://dc.lft.to/lastmile_qr_scan"}, "is_reserved": 0}, {"lon": -77.0270985, "bike_id": "d7ec5a680f750db01f8d98bf235a0193", "lat": 38.9246095, "fusion_lon": 0.0, "fusion_lat": 0.0, "type": "electric_scooter", "name": "d7ec5a680f750db01f8d98bf235a0193", "is_disabled": 0, "rental_uris": {"ios": "https://dc.lft.to/lastmile_qr_scan", "android": "https://dc.lft.to/lastmile_qr_scan"}, "is_reserved": 0}, {"lon": -76.96149416666667, "bike_id": "00b8deee1771575b8d44f4201b5116b3", "lat": 38.88357666666667, "fusion_lon": 0.0, "fusion_lat": 0.0, "type": "electric_scooter", "name": "00b8deee1771575b8d44f4201b5116b3", "is_disabled": 0, "rental_uris": {"ios": "https://dc.lft.to/lastmile_qr_scan", "android": "https://dc.lft.to/lastmile_qr_scan"}, "is_reserved": 0}, {"lon": -77.03185566666667, "bike_id": "7aedf6fed6d1d52a28577f1fa12e148f", "lat": 38.919258666666664, "fusion_lon": 0.0, "fusion_lat": 0.0, "type": "electric_scooter", "name": "7aedf6fed6d1d52a28577f1fa12e148f", "is_disabled": 0, "rental_uris": {"ios": "https://dc.lft.to/lastmile_qr_scan", "android": "https://dc.lft.to/lastmile_qr_scan"}, "is_reserved": 0}, {"lon": -76.9904295, "bike_id": "4f680ef2b68b0dd3b4fb06ff89530e68", "lat": 38.887564833333336, "fusion_lon": 0.0, "fusion_lat": 0.0, "type": "electric_scooter", "name": "4f680ef2b68b0dd3b4fb06ff89530e68", "is_disabled": 0, "rental_uris": {"ios": "https://dc.lft.to/lastmile_qr_scan", "android": "https://dc.lft.to/lastmile_qr_scan"}, "is_reserved": 0}, {"lon": -76.96793683333334, "bike_id": "6c9e9b3a9427f4b9021239a3d08758a6", "lat": 38.8684485, "fusion_lon": 0.0, "fusion_lat": 0.0, "type": "electric_scooter", "name": "6c9e9b3a9427f4b9021239a3d08758a6", "is_disabled": 0, "rental_uris": {"ios": "https://dc.lft.to/lastmile_qr_scan", "android": "https://dc.lft.to/lastmile_qr_scan"}, "is_reserved": 0}, {"lon": -77.00825333333333, "bike_id": "bab0cdc6d26bddc0bb816f59b69442bd", "lat": 38.9059385, "fusion_lon": 0.0, "fusion_lat": 0.0, "type": "electric_scooter", "name": "bab0cdc6d26bddc0bb816f59b69442bd", "is_disabled": 0, "rental_uris": {"ios": "https://dc.lft.to/lastmile_qr_scan", "android": "https://dc.lft.to/lastmile_qr_scan"}, "is_reserved": 0}, {"lon": -77.01205116666667, "bike_id": "17b17cde4e79f9c2a25d067cdd939f73", "lat": 38.915935833333336, "fusion_lon": 0.0, "fusion_lat": 0.0, "type": "electric_scooter", "name": "17b17cde4e79f9c2a25d067cdd939f73", "is_disabled": 0, "rental_uris": {"ios": "https://dc.lft.to/lastmile_qr_scan", "android": "https://dc.lft.to/lastmile_qr_scan"}, "is_reserved": 0}, {"lon": -77.03164433333333, "bike_id": "47ec606db07aaaf7ddfeab3b643a7cac", "lat": 38.92091333333333, "fusion_lon": 0.0, "fusion_lat": 0.0, "type": "electric_scooter", "name": "47ec606db07aaaf7ddfeab3b643a7cac", "is_disabled": 0, "rental_uris": {"ios": "https://dc.lft.to/lastmile_qr_scan", "android": "https://dc.lft.to/lastmile_qr_scan"}, "is_reserved": 0}, {"lon": -77.03514383333334, "bike_id": "20ceb4d1c830b5ac767fc9090c14be58", "lat": 38.923371, "fusion_lon": 0.0, "fusion_lat": 0.0, "type": "electric_scooter", "name": "20ceb4d1c830b5ac767fc9090c14be58", "is_disabled": 0, "rental_uris": {"ios": "https://dc.lft.to/lastmile_qr_scan", "android": "https://dc.lft.to/lastmile_qr_scan"}, "is_reserved": 0}, {"lon": -76.9887805, "bike_id": "e795531c559cfd93fc7a582e3b7b5ced", "lat": 38.866483, "fusion_lon": 0.0, "fusion_lat": 0.0, "type": "electric_scooter", "name": "e795531c559cfd93fc7a582e3b7b5ced", "is_disabled": 0, "rental_uris": {"ios": "https://dc.lft.to/lastmile_qr_scan", "android": "https://dc.lft.to/lastmile_qr_scan"}, "is_reserved": 0}, {"lon": -77.0384585, "bike_id": "549c8bad4542ab9e36e8b4c8a88c6dc6", "lat": 38.903687, "fusion_lon": 0.0, "fusion_lat": 0.0, "type": "electric_scooter", "name": "549c8bad4542ab9e36e8b4c8a88c6dc6", "is_disabled": 0, "rental_uris": {"ios": "https://dc.lft.to/lastmile_qr_scan", "android": "https://dc.lft.to/lastmile_qr_scan"}, "is_reserved": 0}, {"lon": -77.01766133333334, "bike_id": "104d3768c726f98f6f5a39e6f7fa5949", "lat": 38.9027005, "fusion_lon": 0.0, "fusion_lat": 0.0, "type": "electric_scooter", "name": "104d3768c726f98f6f5a39e6f7fa5949", "is_disabled": 0, "rental_uris": {"ios": "https://dc.lft.to/lastmile_qr_scan", "android": "https://dc.lft.to/lastmile_qr_scan"}, "is_reserved": 0}, {"lon": -77.02123533333334, "bike_id": "98b7cbb6b91b3ecb63bd20d9b8aa2380", "lat": 38.93576683333333, "fusion_lon": 0.0, "fusion_lat": 0.0, "type": "electric_bike", "name": "98b7cbb6b91b3ecb63bd20d9b8aa2380", "is_disabled": 0, "rental_uris": {"ios": "https://dc.lft.to/lastmile_qr_scan", "android": "https://dc.lft.to/lastmile_qr_scan"}, "is_reserved": 0}, {"lon": -77.03193666666667, "bike_id": "82168dde0c4c82c575c9dc48f348fe69", "lat": 38.906999, "fusion_lon": 0.0, "fusion_lat": 0.0, "type": "electric_scooter", "name": "82168dde0c4c82c575c9dc48f348fe69", "is_disabled": 0, "rental_uris": {"ios": "https://dc.lft.to/lastmile_qr_scan", "android": "https://dc.lft.to/lastmile_qr_scan"}, "is_reserved": 0}, {"lon": -76.987117, "bike_id": "678617012b3a6549bbcb43cdd05de8b4", "lat": 38.8670135, "fusion_lon": 0.0, "fusion_lat": 0.0, "type": "electric_scooter", "name": "678617012b3a6549bbcb43cdd05de8b4", "is_disabled": 0, "rental_uris": {"ios": "https://dc.lft.to/lastmile_qr_scan", "android": "https://dc.lft.to/lastmile_qr_scan"}, "is_reserved": 0}, {"lon": -77.04022983333333, "bike_id": "b0971e2b367f4b49d6e451f2267dfb96", "lat": 38.924472333333334, "fusion_lon": 0.0, "fusion_lat": 0.0, "type": "electric_scooter", "name": "b0971e2b367f4b49d6e451f2267dfb96", "is_disabled": 0, "rental_uris": {"ios": "https://dc.lft.to/lastmile_qr_scan", "android": "https://dc.lft.to/lastmile_qr_scan"}, "is_reserved": 0}, {"lon": -76.9785725, "bike_id": "009c47c0f349fb4cd8dde880d6a29405", "lat": 38.870685, "fusion_lon": 0.0, "fusion_lat": 0.0, "type": "electric_scooter", "name": "009c47c0f349fb4cd8dde880d6a29405", "is_disabled": 0, "rental_uris": {"ios": "https://dc.lft.to/lastmile_qr_scan", "android": "https://dc.lft.to/lastmile_qr_scan"}, "is_reserved": 0}, {"lon": -77.02599366666666, "bike_id": "2641e3c8a7c46c8ddf8425606d4b1b2b", "lat": 38.92794983333334, "fusion_lon": 0.0, "fusion_lat": 0.0, "type": "electric_scooter", "name": "2641e3c8a7c46c8ddf8425606d4b1b2b", "is_disabled": 0, "rental_uris": {"ios": "https://dc.lft.to/lastmile_qr_scan", "android": "https://dc.lft.to/lastmile_qr_scan"}, "is_reserved": 0}, {"lon": -77.03032466666667, "bike_id": "346c1de416e0cb227192f93420a6959b", "lat": 38.91701116666667, "fusion_lon": 0.0, "fusion_lat": 0.0, "type": "electric_scooter", "name": "346c1de416e0cb227192f93420a6959b", "is_disabled": 0, "rental_uris": {"ios": "https://dc.lft.to/lastmile_qr_scan", "android": "https://dc.lft.to/lastmile_qr_scan"}, "is_reserved": 0}, {"lon": -77.02167666666666, "bike_id": "c36f490988622678f223629f239102c4", "lat": 38.89744183333333, "fusion_lon": 0.0, "fusion_lat": 0.0, "type": "electric_scooter", "name": "c36f490988622678f223629f239102c4", "is_disabled": 0, "rental_uris": {"ios": "https://dc.lft.to/lastmile_qr_scan", "android": "https://dc.lft.to/lastmile_qr_scan"}, "is_reserved": 0}, {"lon": -77.02591183333334, "bike_id": "a76bbceb56cf25ed2fe6bfef606ec84f", "lat": 38.9056445, "fusion_lon": 0.0, "fusion_lat": 0.0, "type": "electric_scooter", "name": "a76bbceb56cf25ed2fe6bfef606ec84f", "is_disabled": 0, "rental_uris": {"ios": "https://dc.lft.to/lastmile_qr_scan", "android": "https://dc.lft.to/lastmile_qr_scan"}, "is_reserved": 0}, {"lon": -77.052668, "bike_id": "dbd6d56b92e9bef55be934c6f3e7e0ae", "lat": 38.925586333333335, "fusion_lon": 0.0, "fusion_lat": 0.0, "type": "electric_scooter", "name": "dbd6d56b92e9bef55be934c6f3e7e0ae", "is_disabled": 0, "rental_uris": {"ios": "https://dc.lft.to/lastmile_qr_scan", "android": "https://dc.lft.to/lastmile_qr_scan"}, "is_reserved": 0}, {"lon": -77.0221155, "bike_id": "097b10ee69141456bf8bbe6a85e745ec", "lat": 38.893519, "fusion_lon": 0.0, "fusion_lat": 0.0, "type": "electric_scooter", "name": "097b10ee69141456bf8bbe6a85e745ec", "is_disabled": 0, "rental_uris": {"ios": "https://dc.lft.to/lastmile_qr_scan", "android": "https://dc.lft.to/lastmile_qr_scan"}, "is_reserved": 0}, {"lon": -77.050186, "bike_id": "8868a99962e9579a964f5bfc0a5e61ee", "lat": 38.9015225, "fusion_lon": 0.0, "fusion_lat": 0.0, "type": "electric_scooter", "name": "8868a99962e9579a964f5bfc0a5e61ee", "is_disabled": 0, "rental_uris": {"ios": "https://dc.lft.to/lastmile_qr_scan", "android": "https://dc.lft.to/lastmile_qr_scan"}, "is_reserved": 0}, {"lon": -76.95744233333333, "bike_id": "069defc9b24428eb5aa14db96443ff91", "lat": 38.88424, "fusion_lon": 0.0, "fusion_lat": 0.0, "type": "electric_scooter", "name": "069defc9b24428eb5aa14db96443ff91", "is_disabled": 0, "rental_uris": {"ios": "https://dc.lft.to/lastmile_qr_scan", "android": "https://dc.lft.to/lastmile_qr_scan"}, "is_reserved": 0}, {"lon": -76.98557366666667, "bike_id": "3a2c0d2c4c18d0eabc3f0e548221d8f9", "lat": 38.89620383333333, "fusion_lon": 0.0, "fusion_lat": 0.0, "type": "electric_scooter", "name": "3a2c0d2c4c18d0eabc3f0e548221d8f9", "is_disabled": 0, "rental_uris": {"ios": "https://dc.lft.to/lastmile_qr_scan", "android": "https://dc.lft.to/lastmile_qr_scan"}, "is_reserved": 0}, {"lon": -77.019591, "bike_id": "4cddc2b063f39126d648fcc65226ea31", "lat": 38.935835166666664, "fusion_lon": 0.0, "fusion_lat": 0.0, "type": "electric_scooter", "name": "4cddc2b063f39126d648fcc65226ea31", "is_disabled": 0, "rental_uris": {"ios": "https://dc.lft.to/lastmile_qr_scan", "android": "https://dc.lft.to/lastmile_qr_scan"}, "is_reserved": 0}, {"lon": -77.03039416666667, "bike_id": "a74a4c8328c6e79f1068267df3330b86", "lat": 38.8783845, "fusion_lon": 0.0, "fusion_lat": 0.0, "type": "electric_scooter", "name": "a74a4c8328c6e79f1068267df3330b86", "is_disabled": 0, "rental_uris": {"ios": "https://dc.lft.to/lastmile_qr_scan", "android": "https://dc.lft.to/lastmile_qr_scan"}, "is_reserved": 0}, {"lon": -77.02080016666666, "bike_id": "26827c8fc51d3e80e4b57a2933ef12e8", "lat": 38.926970833333336, "fusion_lon": 0.0, "fusion_lat": 0.0, "type": "electric_scooter", "name": "26827c8fc51d3e80e4b57a2933ef12e8", "is_disabled": 0, "rental_uris": {"ios": "https://dc.lft.to/lastmile_qr_scan", "android": "https://dc.lft.to/lastmile_qr_scan"}, "is_reserved": 0}, {"lon": -77.0257755, "bike_id": "bd8b1678f29710f21ed2ce86de5fe3a6", "lat": 38.88737366666667, "fusion_lon": 0.0, "fusion_lat": 0.0, "type": "electric_scooter", "name": "bd8b1678f29710f21ed2ce86de5fe3a6", "is_disabled": 0, "rental_uris": {"ios": "https://dc.lft.to/lastmile_qr_scan", "android": "https://dc.lft.to/lastmile_qr_scan"}, "is_reserved": 0}, {"lon": -77.02011183333333, "bike_id": "111c90806735106bf6fb423469e0fb0a", "lat": 38.92415283333333, "fusion_lon": 0.0, "fusion_lat": 0.0, "type": "electric_scooter", "name": "111c90806735106bf6fb423469e0fb0a", "is_disabled": 0, "rental_uris": {"ios": "https://dc.lft.to/lastmile_qr_scan", "android": "https://dc.lft.to/lastmile_qr_scan"}, "is_reserved": 0}, {"lon": -76.989998, "bike_id": "51a59439fb543481330f5f022fc1eada", "lat": 38.865037666666666, "fusion_lon": 0.0, "fusion_lat": 0.0, "type": "electric_scooter", "name": "51a59439fb543481330f5f022fc1eada", "is_disabled": 0, "rental_uris": {"ios": "https://dc.lft.to/lastmile_qr_scan", "android": "https://dc.lft.to/lastmile_qr_scan"}, "is_reserved": 0}, {"lon": -76.989395, "bike_id": "167b9f20995732cbebc6629cd52b60e5", "lat": 38.901876, "fusion_lon": 0.0, "fusion_lat": 0.0, "type": "electric_scooter", "name": "167b9f20995732cbebc6629cd52b60e5", "is_disabled": 0, "rental_uris": {"ios": "https://dc.lft.to/lastmile_qr_scan", "android": "https://dc.lft.to/lastmile_qr_scan"}, "is_reserved": 0}, {"lon": -76.937336, "bike_id": "18fe4bbea503d6112a3883778e862efd", "lat": 38.890155666666665, "fusion_lon": 0.0, "fusion_lat": 0.0, "type": "electric_scooter", "name": "18fe4bbea503d6112a3883778e862efd", "is_disabled": 0, "rental_uris": {"ios": "https://dc.lft.to/lastmile_qr_scan", "android": "https://dc.lft.to/lastmile_qr_scan"}, "is_reserved": 0}, {"lon": -77.02709683333333, "bike_id": "cfffd26e5fd7751a156eb84c4e19b328", "lat": 38.89774283333333, "fusion_lon": 0.0, "fusion_lat": 0.0, "type": "electric_scooter", "name": "cfffd26e5fd7751a156eb84c4e19b328", "is_disabled": 0, "rental_uris": {"ios": "https://dc.lft.to/lastmile_qr_scan", "android": "https://dc.lft.to/lastmile_qr_scan"}, "is_reserved": 0}, {"lon": -77.01512983333333, "bike_id": "ee44b6ad880bb0be2fcbcde7294b15d5", "lat": 38.91867166666667, "fusion_lon": 0.0, "fusion_lat": 0.0, "type": "electric_scooter", "name": "ee44b6ad880bb0be2fcbcde7294b15d5", "is_disabled": 0, "rental_uris": {"ios": "https://dc.lft.to/lastmile_qr_scan", "android": "https://dc.lft.to/lastmile_qr_scan"}, "is_reserved": 0}, {"lon": -77.0183435, "bike_id": "329f37eaed862ac7079cb3fb704777cf", "lat": 38.90931533333333, "fusion_lon": 0.0, "fusion_lat": 0.0, "type": "electric_scooter", "name": "329f37eaed862ac7079cb3fb704777cf", "is_disabled": 0, "rental_uris": {"ios": "https://dc.lft.to/lastmile_qr_scan", "android": "https://dc.lft.to/lastmile_qr_scan"}, "is_reserved": 0}, {"lon": -77.048567, "bike_id": "caedbbd41ba1f159e4d4e6aa29738b0c", "lat": 38.90596566666667, "fusion_lon": 0.0, "fusion_lat": 0.0, "type": "electric_scooter", "name": "caedbbd41ba1f159e4d4e6aa29738b0c", "is_disabled": 0, "rental_uris": {"ios": "https://dc.lft.to/lastmile_qr_scan", "android": "https://dc.lft.to/lastmile_qr_scan"}, "is_reserved": 0}, {"lon": -77.017096, "bike_id": "50ac9542733fa33afeb4e88cbe5be945", "lat": 38.904608333333336, "fusion_lon": 0.0, "fusion_lat": 0.0, "type": "electric_scooter", "name": "50ac9542733fa33afeb4e88cbe5be945", "is_disabled": 0, "rental_uris": {"ios": "https://dc.lft.to/lastmile_qr_scan", "android": "https://dc.lft.to/lastmile_qr_scan"}, "is_reserved": 0}, {"lon": -76.9907335, "bike_id": "3e6645ffa4bfd5550ea8aa2816c2ae7c", "lat": 38.898138333333335, "fusion_lon": 0.0, "fusion_lat": 0.0, "type": "electric_bike", "name": "3e6645ffa4bfd5550ea8aa2816c2ae7c", "is_disabled": 0, "rental_uris": {"ios": "https://dc.lft.to/lastmile_qr_scan", "android": "https://dc.lft.to/lastmile_qr_scan"}, "is_reserved": 0}, {"lon": -76.972423, "bike_id": "31c0a3ec5ac7344d9bf52fb298ddc117", "lat": 38.903430166666666, "fusion_lon": 0.0, "fusion_lat": 0.0, "type": "electric_scooter", "name": "31c0a3ec5ac7344d9bf52fb298ddc117", "is_disabled": 0, "rental_uris": {"ios": "https://dc.lft.to/lastmile_qr_scan", "android": "https://dc.lft.to/lastmile_qr_scan"}, "is_reserved": 0}, {"lon": -76.98331716666667, "bike_id": "e9794017478934fb919bab76b121d5f6", "lat": 38.89539533333333, "fusion_lon": 0.0, "fusion_lat": 0.0, "type": "electric_scooter", "name": "e9794017478934fb919bab76b121d5f6", "is_disabled": 0, "rental_uris": {"ios": "https://dc.lft.to/lastmile_qr_scan", "android": "https://dc.lft.to/lastmile_qr_scan"}, "is_reserved": 0}, {"lon": -77.0197605, "bike_id": "e4890ee9922ed83082f154bcc06e2c4c", "lat": 38.8857395, "fusion_lon": 0.0, "fusion_lat": 0.0, "type": "electric_scooter", "name": "e4890ee9922ed83082f154bcc06e2c4c", "is_disabled": 0, "rental_uris": {"ios": "https://dc.lft.to/lastmile_qr_scan", "android": "https://dc.lft.to/lastmile_qr_scan"}, "is_reserved": 0}, {"lon": -76.99710016666667, "bike_id": "d616c9578bc1c38b478dec97a7b3c906", "lat": 38.89252283333333, "fusion_lon": 0.0, "fusion_lat": 0.0, "type": "electric_scooter", "name": "d616c9578bc1c38b478dec97a7b3c906", "is_disabled": 0, "rental_uris": {"ios": "https://dc.lft.to/lastmile_qr_scan", "android": "https://dc.lft.to/lastmile_qr_scan"}, "is_reserved": 0}, {"lon": -77.0229045, "bike_id": "59760e4cfe66be24c2e4039572b47806", "lat": 38.916809, "fusion_lon": 0.0, "fusion_lat": 0.0, "type": "electric_scooter", "name": "59760e4cfe66be24c2e4039572b47806", "is_disabled": 0, "rental_uris": {"ios": "https://dc.lft.to/lastmile_qr_scan", "android": "https://dc.lft.to/lastmile_qr_scan"}, "is_reserved": 0}, {"lon": -77.02978233333333, "bike_id": "355a65bb8d57ce8b5719d195b3c6612d", "lat": 38.94520983333334, "fusion_lon": 0.0, "fusion_lat": 0.0, "type": "electric_scooter", "name": "355a65bb8d57ce8b5719d195b3c6612d", "is_disabled": 0, "rental_uris": {"ios": "https://dc.lft.to/lastmile_qr_scan", "android": "https://dc.lft.to/lastmile_qr_scan"}, "is_reserved": 0}, {"lon": -77.02403616666666, "bike_id": "7b1982c17f76a9344d36a6e07cbfc0da", "lat": 38.920841833333334, "fusion_lon": 0.0, "fusion_lat": 0.0, "type": "electric_scooter", "name": "7b1982c17f76a9344d36a6e07cbfc0da", "is_disabled": 0, "rental_uris": {"ios": "https://dc.lft.to/lastmile_qr_scan", "android": "https://dc.lft.to/lastmile_qr_scan"}, "is_reserved": 0}, {"lon": -77.03768166666667, "bike_id": "ec510ea8b833483f77dd6a42d6748c66", "lat": 38.92887833333333, "fusion_lon": 0.0, "fusion_lat": 0.0, "type": "electric_scooter", "name": "ec510ea8b833483f77dd6a42d6748c66", "is_disabled": 0, "rental_uris": {"ios": "https://dc.lft.to/lastmile_qr_scan", "android": "https://dc.lft.to/lastmile_qr_scan"}, "is_reserved": 0}, {"lon": -77.022204, "bike_id": "b3883666b3e954138c74d00d24130bd7", "lat": 38.92617083333333, "fusion_lon": 0.0, "fusion_lat": 0.0, "type": "electric_scooter", "name": "b3883666b3e954138c74d00d24130bd7", "is_disabled": 0, "rental_uris": {"ios": "https://dc.lft.to/lastmile_qr_scan", "android": "https://dc.lft.to/lastmile_qr_scan"}, "is_reserved": 0}, {"lon": -77.02236816666667, "bike_id": "38d463b699bf3bded3eee6904aef339d", "lat": 38.96216966666667, "fusion_lon": 0.0, "fusion_lat": 0.0, "type": "electric_bike", "name": "38d463b699bf3bded3eee6904aef339d", "is_disabled": 0, "rental_uris": {"ios": "https://dc.lft.to/lastmile_qr_scan", "android": "https://dc.lft.to/lastmile_qr_scan"}, "is_reserved": 0}, {"lon": -77.04389633333334, "bike_id": "f879cf9e5a02dfcd9843f5d291eed426", "lat": 39.04718366666667, "fusion_lon": 0.0, "fusion_lat": 0.0, "type": "electric_bike", "name": "f879cf9e5a02dfcd9843f5d291eed426", "is_disabled": 0, "rental_uris": {"ios": "https://dc.lft.to/lastmile_qr_scan", "android": "https://dc.lft.to/lastmile_qr_scan"}, "is_reserved": 0}, {"lon": -77.05266816666666, "bike_id": "0582b6698e146f637062a0be3962028e", "lat": 38.900048, "fusion_lon": 0.0, "fusion_lat": 0.0, "type": "electric_scooter", "name": "0582b6698e146f637062a0be3962028e", "is_disabled": 0, "rental_uris": {"ios": "https://dc.lft.to/lastmile_qr_scan", "android": "https://dc.lft.to/lastmile_qr_scan"}, "is_reserved": 0}, {"lon": -77.03225583333334, "bike_id": "13862bd2893726de3def372fd208036e", "lat": 38.90988316666667, "fusion_lon": 0.0, "fusion_lat": 0.0, "type": "electric_scooter", "name": "13862bd2893726de3def372fd208036e", "is_disabled": 0, "rental_uris": {"ios": "https://dc.lft.to/lastmile_qr_scan", "android": "https://dc.lft.to/lastmile_qr_scan"}, "is_reserved": 0}, {"lon": -77.02843866666667, "bike_id": "643ef522a824a5bbd31bcdceeed6d818", "lat": 38.925727333333334, "fusion_lon": 0.0, "fusion_lat": 0.0, "type": "electric_scooter", "name": "643ef522a824a5bbd31bcdceeed6d818", "is_disabled": 0, "rental_uris": {"ios": "https://dc.lft.to/lastmile_qr_scan", "android": "https://dc.lft.to/lastmile_qr_scan"}, "is_reserved": 0}, {"lon": -76.98923666666667, "bike_id": "6cd1f91dc00d045665caa28991eecb85", "lat": 38.8581035, "fusion_lon": 0.0, "fusion_lat": 0.0, "type": "electric_scooter", "name": "6cd1f91dc00d045665caa28991eecb85", "is_disabled": 0, "rental_uris": {"ios": "https://dc.lft.to/lastmile_qr_scan", "android": "https://dc.lft.to/lastmile_qr_scan"}, "is_reserved": 0}, {"lon": -76.97190883333333, "bike_id": "c859e6217919640d9ed2aa668c4532fa", "lat": 38.87390633333333, "fusion_lon": 0.0, "fusion_lat": 0.0, "type": "electric_scooter", "name": "c859e6217919640d9ed2aa668c4532fa", "is_disabled": 0, "rental_uris": {"ios": "https://dc.lft.to/lastmile_qr_scan", "android": "https://dc.lft.to/lastmile_qr_scan"}, "is_reserved": 0}, {"lon": -77.0211175, "bike_id": "57507802c022a7f58dcdb2e26cf99141", "lat": 38.90605516666667, "fusion_lon": 0.0, "fusion_lat": 0.0, "type": "electric_scooter", "name": "57507802c022a7f58dcdb2e26cf99141", "is_disabled": 0, "rental_uris": {"ios": "https://dc.lft.to/lastmile_qr_scan", "android": "https://dc.lft.to/lastmile_qr_scan"}, "is_reserved": 0}, {"lon": -77.03447883333334, "bike_id": "ef65d504b0985840c61e82d29b3fc358", "lat": 38.90949783333333, "fusion_lon": 0.0, "fusion_lat": 0.0, "type": "electric_scooter", "name": "ef65d504b0985840c61e82d29b3fc358", "is_disabled": 0, "rental_uris": {"ios": "https://dc.lft.to/lastmile_qr_scan", "android": "https://dc.lft.to/lastmile_qr_scan"}, "is_reserved": 0}, {"lon": -77.043261, "bike_id": "0afef535d829a258f7761ca39b19b605", "lat": 38.907302666666666, "fusion_lon": 0.0, "fusion_lat": 0.0, "type": "electric_scooter", "name": "0afef535d829a258f7761ca39b19b605", "is_disabled": 0, "rental_uris": {"ios": "https://dc.lft.to/lastmile_qr_scan", "android": "https://dc.lft.to/lastmile_qr_scan"}, "is_reserved": 0}, {"lon": -77.053074, "bike_id": "ad6585302db0bfd5b90dbaa2d202517e", "lat": 38.898857, "fusion_lon": 0.0, "fusion_lat": 0.0, "type": "electric_scooter", "name": "ad6585302db0bfd5b90dbaa2d202517e", "is_disabled": 0, "rental_uris": {"ios": "https://dc.lft.to/lastmile_qr_scan", "android": "https://dc.lft.to/lastmile_qr_scan"}, "is_reserved": 0}, {"lon": -77.0247895, "bike_id": "f807e9dd1a6220163a46d93488affb53", "lat": 38.93622033333333, "fusion_lon": 0.0, "fusion_lat": 0.0, "type": "electric_scooter", "name": "f807e9dd1a6220163a46d93488affb53", "is_disabled": 0, "rental_uris": {"ios": "https://dc.lft.to/lastmile_qr_scan", "android": "https://dc.lft.to/lastmile_qr_scan"}, "is_reserved": 0}, {"lon": -77.0236855, "bike_id": "2615006e55e4a352000777b741618276", "lat": 38.901918333333334, "fusion_lon": 0.0, "fusion_lat": 0.0, "type": "electric_scooter", "name": "2615006e55e4a352000777b741618276", "is_disabled": 0, "rental_uris": {"ios": "https://dc.lft.to/lastmile_qr_scan", "android": "https://dc.lft.to/lastmile_qr_scan"}, "is_reserved": 0}, {"lon": -77.0056455, "bike_id": "ff93801649ec6b9f7a02ee64777576f7", "lat": 38.876498, "fusion_lon": 0.0, "fusion_lat": 0.0, "type": "electric_scooter", "name": "ff93801649ec6b9f7a02ee64777576f7", "is_disabled": 0, "rental_uris": {"ios": "https://dc.lft.to/lastmile_qr_scan", "android": "https://dc.lft.to/lastmile_qr_scan"}, "is_reserved": 0}, {"lon": -76.94716716666667, "bike_id": "1bb2ab6351262d1fd7fbdaca48ead00d", "lat": 38.89734816666667, "fusion_lon": 0.0, "fusion_lat": 0.0, "type": "electric_scooter", "name": "1bb2ab6351262d1fd7fbdaca48ead00d", "is_disabled": 0, "rental_uris": {"ios": "https://dc.lft.to/lastmile_qr_scan", "android": "https://dc.lft.to/lastmile_qr_scan"}, "is_reserved": 0}, {"lon": -77.03286633333333, "bike_id": "ad03f814c3387eb955081d24849c9980", "lat": 38.93980766666667, "fusion_lon": 0.0, "fusion_lat": 0.0, "type": "electric_scooter", "name": "ad03f814c3387eb955081d24849c9980", "is_disabled": 0, "rental_uris": {"ios": "https://dc.lft.to/lastmile_qr_scan", "android": "https://dc.lft.to/lastmile_qr_scan"}, "is_reserved": 0}, {"lon": -77.0163375, "bike_id": "4558dd1d1838c4aceab79de586db6628", "lat": 38.96574866666667, "fusion_lon": 0.0, "fusion_lat": 0.0, "type": "electric_scooter", "name": "4558dd1d1838c4aceab79de586db6628", "is_disabled": 0, "rental_uris": {"ios": "https://dc.lft.to/lastmile_qr_scan", "android": "https://dc.lft.to/lastmile_qr_scan"}, "is_reserved": 0}, {"lon": -77.02015, "bike_id": "5f8b41322a0ed7a1138856b82ddc8725", "lat": 38.9242005, "fusion_lon": 0.0, "fusion_lat": 0.0, "type": "electric_scooter", "name": "5f8b41322a0ed7a1138856b82ddc8725", "is_disabled": 0, "rental_uris": {"ios": "https://dc.lft.to/lastmile_qr_scan", "android": "https://dc.lft.to/lastmile_qr_scan"}, "is_reserved": 0}, {"lon": -77.02945233333334, "bike_id": "b7b8f25d33691584546a9ae5c4227fb2", "lat": 38.90743766666667, "fusion_lon": 0.0, "fusion_lat": 0.0, "type": "electric_scooter", "name": "b7b8f25d33691584546a9ae5c4227fb2", "is_disabled": 0, "rental_uris": {"ios": "https://dc.lft.to/lastmile_qr_scan", "android": "https://dc.lft.to/lastmile_qr_scan"}, "is_reserved": 0}, {"lon": -77.032819, "bike_id": "60858270782bf71e1c877bfca720bf66", "lat": 38.932070833333334, "fusion_lon": 0.0, "fusion_lat": 0.0, "type": "electric_scooter", "name": "60858270782bf71e1c877bfca720bf66", "is_disabled": 0, "rental_uris": {"ios": "https://dc.lft.to/lastmile_qr_scan", "android": "https://dc.lft.to/lastmile_qr_scan"}, "is_reserved": 0}, {"lon": -77.03558983333333, "bike_id": "90991feff28deec4aef8fe686becf91b", "lat": 38.92732616666667, "fusion_lon": 0.0, "fusion_lat": 0.0, "type": "electric_scooter", "name": "90991feff28deec4aef8fe686becf91b", "is_disabled": 0, "rental_uris": {"ios": "https://dc.lft.to/lastmile_qr_scan", "android": "https://dc.lft.to/lastmile_qr_scan"}, "is_reserved": 0}, {"lon": -77.00542033333333, "bike_id": "305b2232af2172d31b7b2ffe7120b638", "lat": 38.91271, "fusion_lon": 0.0, "fusion_lat": 0.0, "type": "electric_scooter", "name": "305b2232af2172d31b7b2ffe7120b638", "is_disabled": 0, "rental_uris": {"ios": "https://dc.lft.to/lastmile_qr_scan", "android": "https://dc.lft.to/lastmile_qr_scan"}, "is_reserved": 0}, {"lon": -76.97696633333334, "bike_id": "1f4936f17de6a3237922737417947bf5", "lat": 38.94915183333333, "fusion_lon": 0.0, "fusion_lat": 0.0, "type": "electric_bike", "name": "1f4936f17de6a3237922737417947bf5", "is_disabled": 0, "rental_uris": {"ios": "https://dc.lft.to/lastmile_qr_scan", "android": "https://dc.lft.to/lastmile_qr_scan"}, "is_reserved": 0}, {"lon": -77.01205866666666, "bike_id": "d86ff80f6baacd815bd3666cfea53153", "lat": 38.8855525, "fusion_lon": 0.0, "fusion_lat": 0.0, "type": "electric_scooter", "name": "d86ff80f6baacd815bd3666cfea53153", "is_disabled": 0, "rental_uris": {"ios": "https://dc.lft.to/lastmile_qr_scan", "android": "https://dc.lft.to/lastmile_qr_scan"}, "is_reserved": 0}, {"lon": -77.360864, "bike_id": "45654f52f6180e371592c017d5d6a78f", "lat": 38.93960916666666, "fusion_lon": 0.0, "fusion_lat": 0.0, "type": "electric_bike", "name": "45654f52f6180e371592c017d5d6a78f", "is_disabled": 0, "rental_uris": {"ios": "https://dc.lft.to/lastmile_qr_scan", "android": "https://dc.lft.to/lastmile_qr_scan"}, "is_reserved": 0}, {"lon": -76.90484216666667, "bike_id": "582715c28c5efb09ff5f6d021334ab00", "lat": 39.0029655, "fusion_lon": 0.0, "fusion_lat": 0.0, "type": "electric_bike", "name": "582715c28c5efb09ff5f6d021334ab00", "is_disabled": 0, "rental_uris": {"ios": "https://dc.lft.to/lastmile_qr_scan", "android": "https://dc.lft.to/lastmile_qr_scan"}, "is_reserved": 0}, {"lon": -77.02626583333333, "bike_id": "643381951b64f23a835c6873fcb16ceb", "lat": 38.905717, "fusion_lon": 0.0, "fusion_lat": 0.0, "type": "electric_scooter", "name": "643381951b64f23a835c6873fcb16ceb", "is_disabled": 0, "rental_uris": {"ios": "https://dc.lft.to/lastmile_qr_scan", "android": "https://dc.lft.to/lastmile_qr_scan"}, "is_reserved": 0}, {"lon": -77.04168816666666, "bike_id": "74a387f1983ac884c8947c2fc228ab36", "lat": 38.9315045, "fusion_lon": 0.0, "fusion_lat": 0.0, "type": "electric_scooter", "name": "74a387f1983ac884c8947c2fc228ab36", "is_disabled": 0, "rental_uris": {"ios": "https://dc.lft.to/lastmile_qr_scan", "android": "https://dc.lft.to/lastmile_qr_scan"}, "is_reserved": 0}, {"lon": -77.034985, "bike_id": "c1c5b360d01d874754b266c8b02d4688", "lat": 38.932739, "fusion_lon": 0.0, "fusion_lat": 0.0, "type": "electric_scooter", "name": "c1c5b360d01d874754b266c8b02d4688", "is_disabled": 0, "rental_uris": {"ios": "https://dc.lft.to/lastmile_qr_scan", "android": "https://dc.lft.to/lastmile_qr_scan"}, "is_reserved": 0},