{"data": {"bikes": [{"lat": 38.93205583333334, "is_disabled": 0, "type": "electric_scooter", "lon": -76.97767416666667, "bike_id": "1114b002b1f8b2c45e4d422b4d93bf06", "fusion_lat": 0.0, "name": "1114b002b1f8b2c45e4d422b4d93bf06", "is_reserved": 0, "rental_uris": {"android": "https://dc.lft.to/lastmile_qr_scan", "ios": "https://dc.lft.to/lastmile_qr_scan"}, "fusion_lon": 0.0}, {"lat": 38.90286916666667, "is_disabled": 0, "type": "electric_scooter", "lon": -77.03661166666667, "bike_id": "4901047146e7c7cb9f53991af5e8377c", "fusion_lat": 0.0, "name": "4901047146e7c7cb9f53991af5e8377c", "is_reserved": 0, "rental_uris": {"android": "https://dc.lft.to/lastmile_qr_scan", "ios": "https://dc.lft.to/lastmile_qr_scan"}, "fusion_lon": 0.0}, {"lat": 38.917057666666665, "is_disabled": 0, "type": "electric_scooter", "lon": -77.03338133333334, "bike_id": "969e284198b79d5404eb37aab5c239c2", "fusion_lat": 0.0, "name": "969e284198b79d5404eb37aab5c239c2", "is_reserved": 0, "rental_uris": {"android": "https://dc.lft.to/lastmile_qr_scan", "ios": "https://dc.lft.to/lastmile_qr_scan"}, "fusion_lon": 0.0}, {"lat": 38.895868166666666, "is_disabled": 0, "type": "electric_bike", "lon": -77.12678633333333, "bike_id": "c73c9fad69b16ed8a907836eabfbe809", "fusion_lat": 0.0, "name": "c73c9fad69b16ed8a907836eabfbe809", "is_reserved": 0, "rental_uris": {"android": "https://dc.lft.to/lastmile_qr_scan", "ios": "https://dc.lft.to/lastmile_qr_scan"}, "fusion_lon": 0.0}, {"lat": 38.91004866666667, "is_disabled": 0, "type": "electric_scooter", "lon": -77.0442565, "bike_id": "b7977ff399235eab8e2bb37fa0fbdc81", "fusion_lat": 0.0, "name": "b7977ff399235eab8e2bb37fa0fbdc81", "is_reserved": 0, "rental_uris": {"android": "https://dc.lft.to/lastmile_qr_scan", "ios": "https://dc.lft.to/lastmile_qr_scan"}, "fusion_lon": 0.0}, {"lat": 38.91012933333333, "is_disabled": 0, "type": "electric_scooter", "lon": -77.04441766666666, "bike_id": "fb63540a3356318232a207975b259a47", "fusion_lat": 0.0, "name": "fb63540a3356318232a207975b259a47", "is_reserved": 0, "rental_uris": {"android": "https://dc.lft.to/lastmile_qr_scan", "ios": "https://dc.lft.to/lastmile_qr_scan"}, "fusion_lon": 0.0}, {"lat": 38.90958083333334, "is_disabled": 0, "type": "electric_scooter", "lon": -77.02278616666666, "bike_id": "15a1309e18d9d4bf4f77ff8bd88f4b56", "fusion_lat": 0.0, "name": "15a1309e18d9d4bf4f77ff8bd88f4b56", "is_reserved": 0, "rental_uris": {"android": "https://dc.lft.to/lastmile_qr_scan", "ios": "https://dc.lft.to/lastmile_qr_scan"}, "fusion_lon": 0.0}, {"lat": 38.865183, "is_disabled": 0, "type": "electric_scooter", "lon": -76.990312, "bike_id": "df46ea05198d06b41db0a7d6a6d058fa", "fusion_lat": 0.0, "name": "df46ea05198d06b41db0a7d6a6d058fa", "is_reserved": 0, "rental_uris": {"android": "https://dc.lft.to/lastmile_qr_scan", "ios": "https://dc.lft.to/lastmile_qr_scan"}, "fusion_lon": 0.0}, {"lat": 38.90147283333334, "is_disabled": 0, "type": "electric_scooter", "lon": -77.03925883333334, "bike_id": "839fdf8b30e44b43f8ecbeaf242d8d9e", "fusion_lat": 0.0, "name": "839fdf8b30e44b43f8ecbeaf242d8d9e", "is_reserved": 0, "rental_uris": {"android": "https://dc.lft.to/lastmile_qr_scan", "ios": "https://dc.lft.to/lastmile_qr_scan"}, "fusion_lon": 0.0}, {"lat": 38.93359133333333, "is_disabled": 0, "type": "electric_bike", "lon": -77.099566, "bike_id": "c108ddceb5711253f27d026312771918", "fusion_lat": 0.0, "name": "c108ddceb5711253f27d026312771918", "is_reserved": 0, "rental_uris": {"android": "https://dc.lft.to/lastmile_qr_scan", "ios": "https://dc.lft.to/lastmile_qr_scan"}, "fusion_lon": 0.0}, {"lat": 38.914191333333335, "is_disabled": 0, "type": "electric_scooter", "lon": -77.03181783333333, "bike_id": "aa55e24000e40d99e3539897aeb00d04", "fusion_lat": 0.0, "name": "aa55e24000e40d99e3539897aeb00d04", "is_reserved": 0, "rental_uris": {"android": "https://dc.lft.to/lastmile_qr_scan", "ios": "https://dc.lft.to/lastmile_qr_scan"}, "fusion_lon": 0.0}, {"lat": 38.88676933333333, "is_disabled": 0, "type": "electric_bike", "lon": -77.16247083333333, "bike_id": "c47a9c26d94756e2acbed04bf2832e2c", "fusion_lat": 0.0, "name": "c47a9c26d94756e2acbed04bf2832e2c", "is_reserved": 0, "rental_uris": {"android": "https://dc.lft.to/lastmile_qr_scan", "ios": "https://dc.lft.to/lastmile_qr_scan"}, "fusion_lon": 0.0}, {"lat": 38.90822716666667, "is_disabled": 0, "type": "electric_scooter", "lon": -77.02004616666666, "bike_id": "4690fd143e318a10dc2b72ec27079ab7", "fusion_lat": 0.0, "name": "4690fd143e318a10dc2b72ec27079ab7", "is_reserved": 0, "rental_uris": {"android": "https://dc.lft.to/lastmile_qr_scan", "ios": "https://dc.lft.to/lastmile_qr_scan"}, "fusion_lon": 0.0}, {"lat": 38.933743666666665, "is_disabled": 0, "type": "electric_scooter", "lon": -77.0355485, "bike_id": "72ebfa43d2796391d1fc10ccd8774a71", "fusion_lat": 0.0, "name": "72ebfa43d2796391d1fc10ccd8774a71", "is_reserved": 0, "rental_uris": {"android": "https://dc.lft.to/lastmile_qr_scan", "ios": "https://dc.lft.to/lastmile_qr_scan"}, "fusion_lon": 0.0}, {"lat": 38.90392033333333, "is_disabled": 0, "type": "electric_scooter", "lon": -76.99001116666666, "bike_id": "f90e26a937f2e8dc38b202dbca6656dc", "fusion_lat": 0.0, "name": "f90e26a937f2e8dc38b202dbca6656dc", "is_reserved": 0, "rental_uris": {"android": "https://dc.lft.to/lastmile_qr_scan", "ios": "https://dc.lft.to/lastmile_qr_scan"}, "fusion_lon": 0.0}, {"lat": 38.928966333333335, "is_disabled": 0, "type": "electric_scooter", "lon": -77.016498, "bike_id": "8a52198e7beb49787c92c12961993c9d", "fusion_lat": 0.0, "name": "8a52198e7beb49787c92c12961993c9d", "is_reserved": 0, "rental_uris": {"android": "https://dc.lft.to/lastmile_qr_scan", "ios": "https://dc.lft.to/lastmile_qr_scan"}, "fusion_lon": 0.0}, {"lat": 38.885946833333335, "is_disabled": 0, "type": "electric_scooter", "lon": -77.01890216666666, "bike_id": "38b6e2a8d6c0d4d36b4577f4c90a85eb", "fusion_lat": 0.0, "name": "38b6e2a8d6c0d4d36b4577f4c90a85eb", "is_reserved": 0, "rental_uris": {"android": "https://dc.lft.to/lastmile_qr_scan", "ios": "https://dc.lft.to/lastmile_qr_scan"}, "fusion_lon": 0.0}, {"lat": 38.95706066666666, "is_disabled": 0, "type": "electric_scooter", "lon": -77.02393166666667, "bike_id": "1db4e61e49df05737f2665e513826b69", "fusion_lat": 0.0, "name": "1db4e61e49df05737f2665e513826b69", "is_reserved": 0, "rental_uris": {"android": "https://dc.lft.to/lastmile_qr_scan", "ios": "https://dc.lft.to/lastmile_qr_scan"}, "fusion_lon": 0.0}, {"lat": 38.885470833333336, "is_disabled": 0, "type": "electric_bike", "lon": -77.117812, "bike_id": "884fc6e8f7846a15777d27982761b755", "fusion_lat": 0.0, "name": "884fc6e8f7846a15777d27982761b755", "is_reserved": 0, "rental_uris": {"android": "https://dc.lft.to/lastmile_qr_scan", "ios": "https://dc.lft.to/lastmile_qr_scan"}, "fusion_lon": 0.0}, {"lat": 38.94821366666667, "is_disabled": 0, "type": "electric_scooter", "lon": -76.9990295, "bike_id": "008cd155633a406363b157ae325f5929", "fusion_lat": 0.0, "name": "008cd155633a406363b157ae325f5929", "is_reserved": 0, "rental_uris": {"android": "https://dc.lft.to/lastmile_qr_scan", "ios": "https://dc.lft.to/lastmile_qr_scan"}, "fusion_lon": 0.0}, {"lat": 38.901544666666666, "is_disabled": 0, "type": "electric_scooter", "lon": -77.03990266666666, "bike_id": "413ba67a448fc4519b9b5fca211a18ed", "fusion_lat": 0.0, "name": "413ba67a448fc4519b9b5fca211a18ed", "is_reserved": 0, "rental_uris": {"android": "https://dc.lft.to/lastmile_qr_scan", "ios": "https://dc.lft.to/lastmile_qr_scan"}, "fusion_lon": 0.0}, {"lat": 38.90416066666667, "is_disabled": 0, "type": "electric_scooter", "lon": -77.050446, "bike_id": "91b245b792d387aa278b1623a91c542f", "fusion_lat": 0.0, "name": "91b245b792d387aa278b1623a91c542f", "is_reserved": 0, "rental_uris": {"android": "https://dc.lft.to/lastmile_qr_scan", "ios": "https://dc.lft.to/lastmile_qr_scan"}, "fusion_lon": 0.0}, {"lat": 38.906571666666665, "is_disabled": 0, "type": "electric_scooter", "lon": -77.00824566666667, "bike_id": "3310ccaa93e8f17ac7f3b212e5a340c5", "fusion_lat": 0.0, "name": "3310ccaa93e8f17ac7f3b212e5a340c5", "is_reserved": 0, "rental_uris": {"android": "https://dc.lft.to/lastmile_qr_scan", "ios": "https://dc.lft.to/lastmile_qr_scan"}, "fusion_lon": 0.0}, {"lat": 38.903492166666666, "is_disabled": 0, "type": "electric_scooter", "lon": -77.044685, "bike_id": "415050d0da58b60c9e9d9e508b57980a", "fusion_lat": 0.0, "name": "415050d0da58b60c9e9d9e508b57980a", "is_reserved": 0, "rental_uris": {"android": "https://dc.lft.to/lastmile_qr_scan", "ios": "https://dc.lft.to/lastmile_qr_scan"}, "fusion_lon": 0.0}, {"lat": 38.93357533333333, "is_disabled": 0, "type": "electric_bike", "lon": -77.09963983333333, "bike_id": "d7f53ee0869984bc4aaa8d395e5e651f", "fusion_lat": 0.0, "name": "d7f53ee0869984bc4aaa8d395e5e651f", "is_reserved": 0, "rental_uris": {"android": "https://dc.lft.to/lastmile_qr_scan", "ios": "https://dc.lft.to/lastmile_qr_scan"}, "fusion_lon": 0.0}, {"lat": 38.9026935, "is_disabled": 0, "type": "electric_scooter", "lon": -77.039605, "bike_id": "12b5fe136d5a474cfba3f7f704581454", "fusion_lat": 0.0, "name": "12b5fe136d5a474cfba3f7f704581454", "is_reserved": 0, "rental_uris": {"android": "https://dc.lft.to/lastmile_qr_scan", "ios": "https://dc.lft.to/lastmile_qr_scan"}, "fusion_lon": 0.0}, {"lat": 38.91124516666667, "is_disabled": 0, "type": "electric_scooter", "lon": -77.03203366666666, "bike_id": "39586bfb9532a1f8e022e42e71d1bbd4", "fusion_lat": 0.0, "name": "39586bfb9532a1f8e022e42e71d1bbd4", "is_reserved": 0, "rental_uris": {"android": "https://dc.lft.to/lastmile_qr_scan", "ios": "https://dc.lft.to/lastmile_qr_scan"}, "fusion_lon": 0.0}, {"lat": 38.95167766666667, "is_disabled": 0, "type": "electric_bike", "lon": -76.96882816666667, "bike_id": "6809d5e3658a57fc532285da2bb087df", "fusion_lat": 0.0, "name": "6809d5e3658a57fc532285da2bb087df", "is_reserved": 0, "rental_uris": {"android": "https://dc.lft.to/lastmile_qr_scan", "ios": "https://dc.lft.to/lastmile_qr_scan"}, "fusion_lon": 0.0}, {"lat": 38.9130095, "is_disabled": 0, "type": "electric_scooter", "lon": -77.02389866666667, "bike_id": "e9bbf7fd90e0465967ce866f30aa9909", "fusion_lat": 0.0, "name": "e9bbf7fd90e0465967ce866f30aa9909", "is_reserved": 0, "rental_uris": {"android": "https://dc.lft.to/lastmile_qr_scan", "ios": "https://dc.lft.to/lastmile_qr_scan"}, "fusion_lon": 0.0}, {"lat": 38.95822483333333, "is_disabled": 0, "type": "electric_bike", "lon": -76.94088483333333, "bike_id": "6373969ebec5cfff5cea012049f9599f", "fusion_lat": 0.0, "name": "6373969ebec5cfff5cea012049f9599f", "is_reserved": 0, "rental_uris": {"android": "https://dc.lft.to/lastmile_qr_scan", "ios": "https://dc.lft.to/lastmile_qr_scan"}, "fusion_lon": 0.0}, {"lat": 38.918763166666665, "is_disabled": 0, "type": "electric_scooter", "lon": -77.01209233333333, "bike_id": "ea690f6cd439a97e3aa3f99605c0e601", "fusion_lat": 0.0, "name": "ea690f6cd439a97e3aa3f99605c0e601", "is_reserved": 0, "rental_uris": {"android": "https://dc.lft.to/lastmile_qr_scan", "ios": "https://dc.lft.to/lastmile_qr_scan"}, "fusion_lon": 0.0}, {"lat": 38.900738, "is_disabled": 0, "type": "electric_scooter", "lon": -77.00208533333333, "bike_id": "43d8acabaf3c2191791e3528343a5fd3", "fusion_lat": 0.0, "name": "43d8acabaf3c2191791e3528343a5fd3", "is_reserved": 0, "rental_uris": {"android": "https://dc.lft.to/lastmile_qr_scan", "ios": "https://dc.lft.to/lastmile_qr_scan"}, "fusion_lon": 0.0}, {"lat": 38.928846666666665, "is_disabled": 0, "type": "electric_scooter", "lon": -77.013847, "bike_id": "82bbc44df19bb1c28f0a224380dd4c82", "fusion_lat": 0.0, "name": "82bbc44df19bb1c28f0a224380dd4c82", "is_reserved": 0, "rental_uris": {"android": "https://dc.lft.to/lastmile_qr_scan", "ios": "https://dc.lft.to/lastmile_qr_scan"}, "fusion_lon": 0.0}, {"lat": 38.89403816666667, "is_disabled": 0, "type": "electric_scooter", "lon": -76.98662133333333, "bike_id": "fdf538af07b288c8d4a007c3697d9753", "fusion_lat": 0.0, "name": "fdf538af07b288c8d4a007c3697d9753", "is_reserved": 0, "rental_uris": {"android": "https://dc.lft.to/lastmile_qr_scan", "ios": "https://dc.lft.to/lastmile_qr_scan"}, "fusion_lon": 0.0}, {"lat": 38.905275, "is_disabled": 0, "type": "electric_scooter", "lon": -77.06240516666666, "bike_id": "6e76bc324cac5e0dcd24961431dc5a55", "fusion_lat": 0.0, "name": "6e76bc324cac5e0dcd24961431dc5a55", "is_reserved": 0, "rental_uris": {"android": "https://dc.lft.to/lastmile_qr_scan", "ios": "https://dc.lft.to/lastmile_qr_scan"}, "fusion_lon": 0.0}, {"lat": 38.87627333333333, "is_disabled": 0, "type": "electric_scooter", "lon": -76.96522816666666, "bike_id": "211b4ed645fa68d96d9d6873bb32de56", "fusion_lat": 0.0, "name": "211b4ed645fa68d96d9d6873bb32de56", "is_reserved": 0, "rental_uris": {"android": "https://dc.lft.to/lastmile_qr_scan", "ios": "https://dc.lft.to/lastmile_qr_scan"}, "fusion_lon": 0.0}, {"lat": 38.9060975, "is_disabled": 0, "type": "electric_scooter", "lon": -76.98975816666666, "bike_id": "9e945d38f93cf7ac70f35320108e57bd", "fusion_lat": 0.0, "name": "9e945d38f93cf7ac70f35320108e57bd", "is_reserved": 0, "rental_uris": {"android": "https://dc.lft.to/lastmile_qr_scan", "ios": "https://dc.lft.to/lastmile_qr_scan"}, "fusion_lon": 0.0}, {"lat": 38.85928283333333, "is_disabled": 0, "type": "electric_scooter", "lon": -76.9971395, "bike_id": "2534450cb0e8a5ad7ccd4ec769de04ca", "fusion_lat": 0.0, "name": "2534450cb0e8a5ad7ccd4ec769de04ca", "is_reserved": 0, "rental_uris": {"android": "https://dc.lft.to/lastmile_qr_scan", "ios": "https://dc.lft.to/lastmile_qr_scan"}, "fusion_lon": 0.0}, {"lat": 38.86519533333333, "is_disabled": 0, "type": "electric_scooter", "lon": -76.9903435, "bike_id": "8c762191c1d2bf047a6fbbeb4e2fea3d", "fusion_lat": 0.0, "name": "8c762191c1d2bf047a6fbbeb4e2fea3d", "is_reserved": 0, "rental_uris": {"android": "https://dc.lft.to/lastmile_qr_scan", "ios": "https://dc.lft.to/lastmile_qr_scan"}, "fusion_lon": 0.0}, {"lat": 38.929674, "is_disabled": 0, "type": "electric_scooter", "lon": -77.0318355, "bike_id": "b6bfa6aab260721946bb7198a730654b", "fusion_lat": 0.0, "name": "b6bfa6aab260721946bb7198a730654b", "is_reserved": 0, "rental_uris": {"android": "https://dc.lft.to/lastmile_qr_scan", "ios": "https://dc.lft.to/lastmile_qr_scan"}, "fusion_lon": 0.0}, {"lat": 38.93437083333333, "is_disabled": 0, "type": "electric_scooter", "lon": -77.0309245, "bike_id": "c86cd4c3a9a2f3cea0e08748039f37e3", "fusion_lat": 0.0, "name": "c86cd4c3a9a2f3cea0e08748039f37e3", "is_reserved": 0, "rental_uris": {"android": "https://dc.lft.to/lastmile_qr_scan", "ios": "https://dc.lft.to/lastmile_qr_scan"}, "fusion_lon": 0.0}, {"lat": 38.901011833333335, "is_disabled": 0, "type": "electric_scooter", "lon": -77.0316215, "bike_id": "8d0f6e76aa38a0b403716593d13ff145", "fusion_lat": 0.0, "name": "8d0f6e76aa38a0b403716593d13ff145", "is_reserved": 0, "rental_uris": {"android": "https://dc.lft.to/lastmile_qr_scan", "ios": "https://dc.lft.to/lastmile_qr_scan"}, "fusion_lon": 0.0}, {"lat": 38.909696, "is_disabled": 0, "type": "electric_scooter", "lon": -77.04824966666666, "bike_id": "b622a9076171a8e2c5f82eedc8dc6918", "fusion_lat": 0.0, "name": "b622a9076171a8e2c5f82eedc8dc6918", "is_reserved": 0, "rental_uris": {"android": "https://dc.lft.to/lastmile_qr_scan", "ios": "https://dc.lft.to/lastmile_qr_scan"}, "fusion_lon": 0.0}, {"lat": 38.903810666666665, "is_disabled": 0, "type": "electric_scooter", "lon": -77.0423605, "bike_id": "47bf6668e55a73a82e1c7d433ecc18b8", "fusion_lat": 0.0, "name": "47bf6668e55a73a82e1c7d433ecc18b8", "is_reserved": 0, "rental_uris": {"android": "https://dc.lft.to/lastmile_qr_scan", "ios": "https://dc.lft.to/lastmile_qr_scan"}, "fusion_lon": 0.0}, {"lat": 38.86995666666667, "is_disabled": 0, "type": "electric_bike", "lon": -77.0656635, "bike_id": "bf830a01fbad9a5bf327e5bde5630819", "fusion_lat": 0.0, "name": "bf830a01fbad9a5bf327e5bde5630819", "is_reserved": 0, "rental_uris": {"android": "https://dc.lft.to/lastmile_qr_scan", "ios": "https://dc.lft.to/lastmile_qr_scan"}, "fusion_lon": 0.0}, {"lat": 38.924086833333334, "is_disabled": 0, "type": "electric_scooter", "lon": -77.02739966666667, "bike_id": "6a4825b0215622281480412573493854", "fusion_lat": 0.0, "name": "6a4825b0215622281480412573493854", "is_reserved": 0, "rental_uris": {"android": "https://dc.lft.to/lastmile_qr_scan", "ios": "https://dc.lft.to/lastmile_qr_scan"}, "fusion_lon": 0.0}, {"lat": 38.91779566666666, "is_disabled": 0, "type": "electric_scooter", "lon": -77.04336633333334, "bike_id": "14d34b40fd55bc5980d0f096926a7e9a", "fusion_lat": 0.0, "name": "14d34b40fd55bc5980d0f096926a7e9a", "is_reserved": 0, "rental_uris": {"android": "https://dc.lft.to/lastmile_qr_scan", "ios": "https://dc.lft.to/lastmile_qr_scan"}, "fusion_lon": 0.0}, {"lat": 38.903322, "is_disabled": 0, "type": "electric_scooter", "lon": -76.9759075, "bike_id": "5fd2e958cc45289cc69080e057473624", "fusion_lat": 0.0, "name": "5fd2e958cc45289cc69080e057473624", "is_reserved": 0, "rental_uris": {"android": "https://dc.lft.to/lastmile_qr_scan", "ios": "https://dc.lft.to/lastmile_qr_scan"}, "fusion_lon": 0.0}, {"lat": 38.92139183333333, "is_disabled": 0, "type": "electric_scooter", "lon": -77.04364383333333, "bike_id": "b81577dd5cd5ea1deb165e6c5640829f", "fusion_lat": 0.0, "name": "b81577dd5cd5ea1deb165e6c5640829f", "is_reserved": 0, "rental_uris": {"android": "https://dc.lft.to/lastmile_qr_scan", "ios": "https://dc.lft.to/lastmile_qr_scan"}, "fusion_lon": 0.0}, {"lat": 38.907609666666666, "is_disabled": 0, "type": "electric_scooter", "lon": -77.0702295, "bike_id": "65212a3e9376cd45b3610977bb8664ff", "fusion_lat": 0.0, "name": "65212a3e9376cd45b3610977bb8664ff", "is_reserved": 0, "rental_uris": {"android": "https://dc.lft.to/lastmile_qr_scan", "ios": "https://dc.lft.to/lastmile_qr_scan"}, "fusion_lon": 0.0}, {"lat": 38.903415333333335, "is_disabled": 0, "type": "electric_scooter", "lon": -77.02512233333333, "bike_id": "2b1f46f046474d35e39084b1e3812782", "fusion_lat": 0.0, "name": "2b1f46f046474d35e39084b1e3812782", "is_reserved": 0, "rental_uris": {"android": "https://dc.lft.to/lastmile_qr_scan", "ios": "https://dc.lft.to/lastmile_qr_scan"}, "fusion_lon": 0.0}, {"lat": 38.80681, "is_disabled": 0, "type": "electric_bike", "lon": -77.081142, "bike_id": "565d2ffa3e9783ce8c44fcdbac777eff", "fusion_lat": 0.0, "name": "565d2ffa3e9783ce8c44fcdbac777eff", "is_reserved": 0, "rental_uris": {"android": "https://dc.lft.to/lastmile_qr_scan", "ios": "https://dc.lft.to/lastmile_qr_scan"}, "fusion_lon": 0.0}, {"lat": 38.907323, "is_disabled": 0, "type": "electric_scooter", "lon": -76.93548166666666, "bike_id": "c32be9922992176d9006838cbb67649c", "fusion_lat": 0.0, "name": "c32be9922992176d9006838cbb67649c", "is_reserved": 0, "rental_uris": {"android": "https://dc.lft.to/lastmile_qr_scan", "ios": "https://dc.lft.to/lastmile_qr_scan"}, "fusion_lon": 0.0}, {"lat": 38.9167365, "is_disabled": 0, "type": "electric_scooter", "lon": -77.03656333333333, "bike_id": "1105955284b25cbdaf0232099cce06e8", "fusion_lat": 0.0, "name": "1105955284b25cbdaf0232099cce06e8", "is_reserved": 0, "rental_uris": {"android": "https://dc.lft.to/lastmile_qr_scan", "ios": "https://dc.lft.to/lastmile_qr_scan"}, "fusion_lon": 0.0}, {"lat": 38.897473833333336, "is_disabled": 0, "type": "electric_scooter", "lon": -77.04536516666667, "bike_id": "c2b7fdf2e15789e8b84edb9d820a2c84", "fusion_lat": 0.0, "name": "c2b7fdf2e15789e8b84edb9d820a2c84", "is_reserved": 0, "rental_uris": {"android": "https://dc.lft.to/lastmile_qr_scan", "ios": "https://dc.lft.to/lastmile_qr_scan"}, "fusion_lon": 0.0}, {"lat": 38.874066666666664, "is_disabled": 0, "type": "electric_scooter", "lon": -76.9730625, "bike_id": "334fd26ca610cf4d7d40649bb921ee21", "fusion_lat": 0.0, "name": "334fd26ca610cf4d7d40649bb921ee21", "is_reserved": 0, "rental_uris": {"android": "https://dc.lft.to/lastmile_qr_scan", "ios": "https://dc.lft.to/lastmile_qr_scan"}, "fusion_lon": 0.0}, {"lat": 38.925723833333336, "is_disabled": 0, "type": "electric_scooter", "lon": -77.05747733333334, "bike_id": "6620092cbf5ea177976b9a06c129c504", "fusion_lat": 0.0, "name": "6620092cbf5ea177976b9a06c129c504", "is_reserved": 0, "rental_uris": {"android": "https://dc.lft.to/lastmile_qr_scan", "ios": "https://dc.lft.to/lastmile_qr_scan"}, "fusion_lon": 0.0}, {"lat": 38.8665555, "is_disabled": 0, "type": "electric_scooter", "lon": -76.98883216666667, "bike_id": "338357ba9a5ad8ff298253a2ed1722bc", "fusion_lat": 0.0, "name": "338357ba9a5ad8ff298253a2ed1722bc", "is_reserved": 0, "rental_uris": {"android": "https://dc.lft.to/lastmile_qr_scan", "ios": "https://dc.lft.to/lastmile_qr_scan"}, "fusion_lon": 0.0}, {"lat": 38.9138925, "is_disabled": 0, "type": "electric_bike", "lon": -77.0384515, "bike_id": "d6759421fa2a5687196ae19e270b4dd8", "fusion_lat": 0.0, "name": "d6759421fa2a5687196ae19e270b4dd8", "is_reserved": 0, "rental_uris": {"android": "https://dc.lft.to/lastmile_qr_scan", "ios": "https://dc.lft.to/lastmile_qr_scan"}, "fusion_lon": 0.0}, {"lat": 38.90775033333333, "is_disabled": 0, "type": "electric_scooter", "lon": -77.03548, "bike_id": "6294431e61d0b29c2a30772dc2708399", "fusion_lat": 0.0, "name": "6294431e61d0b29c2a30772dc2708399", "is_reserved": 0, "rental_uris": {"android": "https://dc.lft.to/lastmile_qr_scan", "ios": "https://dc.lft.to/lastmile_qr_scan"}, "fusion_lon": 0.0}, {"lat": 38.91706933333333, "is_disabled": 0, "type": "electric_scooter", "lon": -77.03724433333333, "bike_id": "202c0a035eaa2e5eff3b5c209456d93a", "fusion_lat": 0.0, "name": "202c0a035eaa2e5eff3b5c209456d93a", "is_reserved": 0, "rental_uris": {"android": "https://dc.lft.to/lastmile_qr_scan", "ios": "https://dc.lft.to/lastmile_qr_scan"}, "fusion_lon": 0.0}, {"lat": 38.90772966666667, "is_disabled": 0, "type": "electric_scooter", "lon": -77.038601, "bike_id": "45824cbe1c2fb075e969f3543bcd41ef", "fusion_lat": 0.0, "name": "45824cbe1c2fb075e969f3543bcd41ef", "is_reserved": 0, "rental_uris": {"android": "https://dc.lft.to/lastmile_qr_scan", "ios": "https://dc.lft.to/lastmile_qr_scan"}, "fusion_lon": 0.0}, {"lat": 39.0304785, "is_disabled": 0, "type": "electric_bike", "lon": -77.0948145, "bike_id": "b752e6c5654c939b53e5505c1cb7ddd7", "fusion_lat": 0.0, "name": "b752e6c5654c939b53e5505c1cb7ddd7", "is_reserved": 0, "rental_uris": {"android": "https://dc.lft.to/lastmile_qr_scan", "ios": "https://dc.lft.to/lastmile_qr_scan"}, "fusion_lon": 0.0}, {"lat": 38.88511183333333, "is_disabled": 0, "type": "electric_scooter", "lon": -77.00681383333334, "bike_id": "c0f8c8453df368d0e6cbe44283e58d98", "fusion_lat": 0.0, "name": "c0f8c8453df368d0e6cbe44283e58d98", "is_reserved": 0, "rental_uris": {"android": "https://dc.lft.to/lastmile_qr_scan", "ios": "https://dc.lft.to/lastmile_qr_scan"}, "fusion_lon": 0.0}, {"lat": 38.91356066666667, "is_disabled": 0, "type": "electric_scooter", "lon": -77.04569016666666, "bike_id": "419d56e56c000f4650ed2df55d7fe643", "fusion_lat": 0.0, "name": "419d56e56c000f4650ed2df55d7fe643", "is_reserved": 0, "rental_uris": {"android": "https://dc.lft.to/lastmile_qr_scan", "ios": "https://dc.lft.to/lastmile_qr_scan"}, "fusion_lon": 0.0}, {"lat": 38.91598616666667, "is_disabled": 0, "type": "electric_scooter", "lon": -77.03844466666666, "bike_id": "5b07d007e16822c2684fe4926bfef176", "fusion_lat": 0.0, "name": "5b07d007e16822c2684fe4926bfef176", "is_reserved": 0, "rental_uris": {"android": "https://dc.lft.to/lastmile_qr_scan", "ios": "https://dc.lft.to/lastmile_qr_scan"}, "fusion_lon": 0.0}, {"lat": 38.92746433333333, "is_disabled": 0, "type": "electric_scooter", "lon": -76.9972005, "bike_id": "85691a0f12df8346b3bf1ec37e38ea42", "fusion_lat": 0.0, "name": "85691a0f12df8346b3bf1ec37e38ea42", "is_reserved": 0, "rental_uris": {"android": "https://dc.lft.to/lastmile_qr_scan", "ios": "https://dc.lft.to/lastmile_qr_scan"}, "fusion_lon": 0.0}, {"lat": 38.86370433333333, "is_disabled": 0, "type": "electric_scooter", "lon": -76.99028083333333, "bike_id": "f1e54545505d806c82d59ac97ffe946a", "fusion_lat": 0.0, "name": "f1e54545505d806c82d59ac97ffe946a", "is_reserved": 0, "rental_uris": {"android": "https://dc.lft.to/lastmile_qr_scan", "ios": "https://dc.lft.to/lastmile_qr_scan"}, "fusion_lon": 0.0}, {"lat": 38.918135666666664, "is_disabled": 0, "type": "electric_scooter", "lon": -77.02477566666667, "bike_id": "68a5c792eae8b0c0ce72901ed482f43b", "fusion_lat": 0.0, "name": "68a5c792eae8b0c0ce72901ed482f43b", "is_reserved": 0, "rental_uris": {"android": "https://dc.lft.to/lastmile_qr_scan", "ios": "https://dc.lft.to/lastmile_qr_scan"}, "fusion_lon": 0.0}, {"lat": 38.911050333333336, "is_disabled": 0, "type": "electric_scooter", "lon": -77.0423435, "bike_id": "7d3a7e3dbaba16afbe5277c899f4e8fb", "fusion_lat": 0.0, "name": "7d3a7e3dbaba16afbe5277c899f4e8fb", "is_reserved": 0, "rental_uris": {"android": "https://dc.lft.to/lastmile_qr_scan", "ios": "https://dc.lft.to/lastmile_qr_scan"}, "fusion_lon": 0.0}, {"lat": 38.921063, "is_disabled": 0, "type": "electric_scooter", "lon": -76.99414083333333, "bike_id": "3ccb11190f14631e703abc97a31095d4", "fusion_lat": 0.0, "name": "3ccb11190f14631e703abc97a31095d4", "is_reserved": 0, "rental_uris": {"android": "https://dc.lft.to/lastmile_qr_scan", "ios": "https://dc.lft.to/lastmile_qr_scan"}, "fusion_lon": 0.0}, {"lat": 38.944230833333336, "is_disabled": 0, "type": "electric_scooter", "lon": -77.06249866666667, "bike_id": "39f8b0c57718595753e62c6d73376a28", "fusion_lat": 0.0, "name": "39f8b0c57718595753e62c6d73376a28", "is_reserved": 0, "rental_uris": {"android": "https://dc.lft.to/lastmile_qr_scan", "ios": "https://dc.lft.to/lastmile_qr_scan"}, "fusion_lon": 0.0}, {"lat": 38.896543333333334, "is_disabled": 0, "type": "electric_scooter", "lon": -77.02409866666666, "bike_id": "866b2c23f9717306594ee100970f2111", "fusion_lat": 0.0, "name": "866b2c23f9717306594ee100970f2111", "is_reserved": 0, "rental_uris": {"android": "https://dc.lft.to/lastmile_qr_scan", "ios": "https://dc.lft.to/lastmile_qr_scan"}, "fusion_lon": 0.0}, {"lat": 38.9261635, "is_disabled": 0, "type": "electric_scooter", "lon": -77.04185766666667, "bike_id": "0be2e473bfc128133b0921d4353514e1", "fusion_lat": 0.0, "name": "0be2e473bfc128133b0921d4353514e1", "is_reserved": 0, "rental_uris": {"android": "https://dc.lft.to/lastmile_qr_scan", "ios": "https://dc.lft.to/lastmile_qr_scan"}, "fusion_lon": 0.0}, {"lat": 38.920318333333334, "is_disabled": 0, "type": "electric_scooter", "lon": -77.01321633333333, "bike_id": "ec6124890c9511ffc8e85ef441a912d2", "fusion_lat": 0.0, "name": "ec6124890c9511ffc8e85ef441a912d2", "is_reserved": 0, "rental_uris": {"android": "https://dc.lft.to/lastmile_qr_scan", "ios": "https://dc.lft.to/lastmile_qr_scan"}, "fusion_lon": 0.0}, {"lat": 38.936017666666665, "is_disabled": 0, "type": "electric_scooter", "lon": -77.03176, "bike_id": "f5e5b7986e63ff3ced94b9315442bff2", "fusion_lat": 0.0, "name": "f5e5b7986e63ff3ced94b9315442bff2", "is_reserved": 0, "rental_uris": {"android": "https://dc.lft.to/lastmile_qr_scan", "ios": "https://dc.lft.to/lastmile_qr_scan"}, "fusion_lon": 0.0}, {"lat": 38.896275833333334, "is_disabled": 0, "type": "electric_scooter", "lon": -77.04471633333333, "bike_id": "c1af606f8e36a96820f8bf00ad1f657b", "fusion_lat": 0.0, "name": "c1af606f8e36a96820f8bf00ad1f657b", "is_reserved": 0, "rental_uris": {"android": "https://dc.lft.to/lastmile_qr_scan", "ios": "https://dc.lft.to/lastmile_qr_scan"}, "fusion_lon": 0.0}, {"lat": 38.894969833333334, "is_disabled": 0, "type": "electric_scooter", "lon": -77.00208966666666, "bike_id": "1af09953c3bc788c9814d59761ef97c9", "fusion_lat": 0.0, "name": "1af09953c3bc788c9814d59761ef97c9", "is_reserved": 0, "rental_uris": {"android": "https://dc.lft.to/lastmile_qr_scan", "ios": "https://dc.lft.to/lastmile_qr_scan"}, "fusion_lon": 0.0}, {"lat": 38.94629533333333, "is_disabled": 0, "type": "electric_scooter", "lon": -77.01845766666666, "bike_id": "788b458a52fee6aae09203b645ccf50b", "fusion_lat": 0.0, "name": "788b458a52fee6aae09203b645ccf50b", "is_reserved": 0, "rental_uris": {"android": "https://dc.lft.to/lastmile_qr_scan", "ios": "https://dc.lft.to/lastmile_qr_scan"}, "fusion_lon": 0.0}, {"lat": 38.867496833333334, "is_disabled": 0, "type": "electric_scooter", "lon": -76.976632, "bike_id": "b96b74e25766a8c9b4075aecd8f6edb9", "fusion_lat": 0.0, "name": "b96b74e25766a8c9b4075aecd8f6edb9", "is_reserved": 0, "rental_uris": {"android": "https://dc.lft.to/lastmile_qr_scan", "ios": "https://dc.lft.to/lastmile_qr_scan"}, "fusion_lon": 0.0}, {"lat": 38.951816666666666, "is_disabled": 0, "type": "electric_bike", "lon": -76.9354125, "bike_id": "0b6fec5951703b5e38a71cf94109b6a0", "fusion_lat": 0.0, "name": "0b6fec5951703b5e38a71cf94109b6a0", "is_reserved": 0, "rental_uris": {"android": "https://dc.lft.to/lastmile_qr_scan", "ios": "https://dc.lft.to/lastmile_qr_scan"}, "fusion_lon": 0.0}, {"lat": 38.914896, "is_disabled": 0, "type": "electric_scooter", "lon": -77.0199895, "bike_id": "8876e069f0bbf50f23e28064939f05ad", "fusion_lat": 0.0, "name": "8876e069f0bbf50f23e28064939f05ad", "is_reserved": 0, "rental_uris": {"android": "https://dc.lft.to/lastmile_qr_scan", "ios": "https://dc.lft.to/lastmile_qr_scan"}, "fusion_lon": 0.0}, {"lat": 38.892944666666665, "is_disabled": 0, "type": "electric_scooter", "lon": -77.02025866666666, "bike_id": "e449f5cf4313ac6897e5268b2f8b2c93", "fusion_lat": 0.0, "name": "e449f5cf4313ac6897e5268b2f8b2c93", "is_reserved": 0, "rental_uris": {"android": "https://dc.lft.to/lastmile_qr_scan", "ios": "https://dc.lft.to/lastmile_qr_scan"}, "fusion_lon": 0.0}, {"lat": 38.905221, "is_disabled": 0, "type": "electric_scooter", "lon": -77.0346635, "bike_id": "e07b9a1d171ac55820e180eb03dfde66", "fusion_lat": 0.0, "name": "e07b9a1d171ac55820e180eb03dfde66", "is_reserved": 0, "rental_uris": {"android": "https://dc.lft.to/lastmile_qr_scan", "ios": "https://dc.lft.to/lastmile_qr_scan"}, "fusion_lon": 0.0}, {"lat": 38.911085166666666, "is_disabled": 0, "type": "electric_scooter", "lon": -77.02132433333334, "bike_id": "b36ff67dfb16622d2e4bc1dde1a8925d", "fusion_lat": 0.0, "name": "b36ff67dfb16622d2e4bc1dde1a8925d", "is_reserved": 0, "rental_uris": {"android": "https://dc.lft.to/lastmile_qr_scan", "ios": "https://dc.lft.to/lastmile_qr_scan"}, "fusion_lon": 0.0}, {"lat": 38.877327666666666, "is_disabled": 0, "type": "electric_bike", "lon": -77.1184845, "bike_id": "caf72b065eb285f048140a991365f903", "fusion_lat": 0.0, "name": "caf72b065eb285f048140a991365f903", "is_reserved": 0, "rental_uris": {"android": "https://dc.lft.to/lastmile_qr_scan", "ios": "https://dc.lft.to/lastmile_qr_scan"}, "fusion_lon": 0.0}, {"lat": 38.93205416666667, "is_disabled": 0, "type": "electric_scooter", "lon": -77.08492483333333, "bike_id": "8c6ca48d1c8f225ad9167372348c3026", "fusion_lat": 0.0, "name": "8c6ca48d1c8f225ad9167372348c3026", "is_reserved": 0, "rental_uris": {"android": "https://dc.lft.to/lastmile_qr_scan", "ios": "https://dc.lft.to/lastmile_qr_scan"}, "fusion_lon": 0.0}, {"lat": 38.8669825, "is_disabled": 0, "type": "electric_scooter", "lon": -76.98709016666666, "bike_id": "05b9f0d1a41eb498ddd54baf465c9626", "fusion_lat": 0.0, "name": "05b9f0d1a41eb498ddd54baf465c9626", "is_reserved": 0, "rental_uris": {"android": "https://dc.lft.to/lastmile_qr_scan", "ios": "https://dc.lft.to/lastmile_qr_scan"}, "fusion_lon": 0.0}, {"lat": 38.904026333333334, "is_disabled": 0, "type": "electric_scooter", "lon": -77.06769483333333, "bike_id": "ca675490811c53037089712fd94b3696", "fusion_lat": 0.0, "name": "ca675490811c53037089712fd94b3696", "is_reserved": 0, "rental_uris": {"android": "https://dc.lft.to/lastmile_qr_scan", "ios": "https://dc.lft.to/lastmile_qr_scan"}, "fusion_lon": 0.0}, {"lat": 38.90943716666666, "is_disabled": 0, "type": "electric_scooter", "lon": -76.9896055, "bike_id": "76506934c1fdad3c0c72e4a299383fee", "fusion_lat": 0.0, "name": "76506934c1fdad3c0c72e4a299383fee", "is_reserved": 0, "rental_uris": {"android": "https://dc.lft.to/lastmile_qr_scan", "ios": "https://dc.lft.to/lastmile_qr_scan"}, "fusion_lon": 0.0}, {"lat": 38.898315833333335, "is_disabled": 0, "type": "electric_scooter", "lon": -77.0259595, "bike_id": "5b406d7e7b443f0c92191bb777ae0064", "fusion_lat": 0.0, "name": "5b406d7e7b443f0c92191bb777ae0064", "is_reserved": 0, "rental_uris": {"android": "https://dc.lft.to/lastmile_qr_scan", "ios": "https://dc.lft.to/lastmile_qr_scan"}, "fusion_lon": 0.0}, {"lat": 38.9578495, "is_disabled": 0, "type": "electric_bike", "lon": -77.027477, "bike_id": "2427a24abacf931a3ee72667704835cc", "fusion_lat": 0.0, "name": "2427a24abacf931a3ee72667704835cc", "is_reserved": 0, "rental_uris": {"android": "https://dc.lft.to/lastmile_qr_scan", "ios": "https://dc.lft.to/lastmile_qr_scan"}, "fusion_lon": 0.0}, {"lat": 38.91113283333333, "is_disabled": 0, "type": "electric_scooter", "lon": -77.03812016666667, "bike_id": "c08fefb46dbf22bd752494dc6d62f5a9", "fusion_lat": 0.0, "name": "c08fefb46dbf22bd752494dc6d62f5a9", "is_reserved": 0, "rental_uris": {"android": "https://dc.lft.to/lastmile_qr_scan", "ios": "https://dc.lft.to/lastmile_qr_scan"}, "fusion_lon": 0.0}, {"lat": 38.90071666666667, "is_disabled": 0, "type": "electric_scooter", "lon": -77.02712533333333, "bike_id": "7472d169559a3bbdd83b7c1ee954cc83", "fusion_lat": 0.0, "name": "7472d169559a3bbdd83b7c1ee954cc83", "is_reserved": 0, "rental_uris": {"android": "https://dc.lft.to/lastmile_qr_scan", "ios": "https://dc.lft.to/lastmile_qr_scan"}, "fusion_lon": 0.0}, {"lat": 38.90028866666667, "is_disabled": 0, "type": "electric_scooter", "lon": -76.99896933333333, "bike_id": "7e93f38cb982daed0a48274851c9ded2", "fusion_lat": 0.0, "name": "7e93f38cb982daed0a48274851c9ded2", "is_reserved": 0, "rental_uris": {"android": "https://dc.lft.to/lastmile_qr_scan", "ios": "https://dc.lft.to/lastmile_qr_scan"}, "fusion_lon": 0.0}, {"lat": 38.90354833333333, "is_disabled": 0, "type": "electric_scooter", "lon": -77.01108966666666, "bike_id": "d199e3921e04183444fd0da04662d507", "fusion_lat": 0.0, "name": "d199e3921e04183444fd0da04662d507", "is_reserved": 0, "rental_uris": {"android": "https://dc.lft.to/lastmile_qr_scan", "ios": "https://dc.lft.to/lastmile_qr_scan"}, "fusion_lon": 0.0}, {"lat": 38.840294166666666, "is_disabled": 0, "type": "electric_bike", "lon": -76.97579716666667, "bike_id": "6c62827e4ab697e675116a2e59ebe738", "fusion_lat": 0.0, "name": "6c62827e4ab697e675116a2e59ebe738", "is_reserved": 0, "rental_uris": {"android": "https://dc.lft.to/lastmile_qr_scan", "ios": "https://dc.lft.to/lastmile_qr_scan"}, "fusion_lon": 0.0}, {"lat": 38.9308735, "is_disabled": 0, "type": "electric_scooter", "lon": -77.07747983333333, "bike_id": "e45dbc61e48ee115de6e5a2f1a9e6ea9", "fusion_lat": 0.0, "name": "e45dbc61e48ee115de6e5a2f1a9e6ea9", "is_reserved": 0, "rental_uris": {"android": "https://dc.lft.to/lastmile_qr_scan", "ios": "https://dc.lft.to/lastmile_qr_scan"}, "fusion_lon": 0.0}, {"lat": 38.909638666666666, "is_disabled": 0, "type": "electric_scooter", "lon": -77.04823316666666, "bike_id": "4dc9ec2d642bc645cd63b26a79e9f48d", "fusion_lat": 0.0, "name": "4dc9ec2d642bc645cd63b26a79e9f48d", "is_reserved": 0, "rental_uris": {"android": "https://dc.lft.to/lastmile_qr_scan", "ios": "https://dc.lft.to/lastmile_qr_scan"}, "fusion_lon": 0.0}, {"lat": 39.075000833333334, "is_disabled": 0, "type": "electric_bike", "lon": -77.1189855, "bike_id": "2a29b99e44264461cc60633e638e3337", "fusion_lat": 0.0, "name": "2a29b99e44264461cc60633e638e3337", "is_reserved": 0, "rental_uris": {"android": "https://dc.lft.to/lastmile_qr_scan", "ios": "https://dc.lft.to/lastmile_qr_scan"}, "fusion_lon": 0.0}, {"lat": 38.90299783333333, "is_disabled": 0, "type": "electric_bike", "lon": -77.01906333333334, "bike_id": "11d47c8f81366d7e7367aab2c04959d6", "fusion_lat": 0.0, "name": "11d47c8f81366d7e7367aab2c04959d6", "is_reserved": 0, "rental_uris": {"android": "https://dc.lft.to/lastmile_qr_scan", "ios": "https://dc.lft.to/lastmile_qr_scan"}, "fusion_lon": 0.0}, {"lat": 38.92655516666667, "is_disabled": 0, "type": "electric_scooter", "lon": -77.02415766666667, "bike_id": "0dce5fb0196e3e7b8f1e95fed4901cbf", "fusion_lat": 0.0, "name": "0dce5fb0196e3e7b8f1e95fed4901cbf", "is_reserved": 0, "rental_uris": {"android": "https://dc.lft.to/lastmile_qr_scan", "ios": "https://dc.lft.to/lastmile_qr_scan"}, "fusion_lon": 0.0}, {"lat": 38.9210715, "is_disabled": 0, "type": "electric_scooter", "lon": -77.04564433333333, "bike_id": "8fcd76263a4664a70ff046a077f28e1e", "fusion_lat": 0.0, "name": "8fcd76263a4664a70ff046a077f28e1e", "is_reserved": 0, "rental_uris": {"android": "https://dc.lft.to/lastmile_qr_scan", "ios": "https://dc.lft.to/lastmile_qr_scan"}, "fusion_lon": 0.0}, {"lat": 38.9126795, "is_disabled": 0, "type": "electric_scooter", "lon": -77.02249083333334, "bike_id": "7c441fe96641eb188c87f4c92cab39df", "fusion_lat": 0.0, "name": "7c441fe96641eb188c87f4c92cab39df", "is_reserved": 0, "rental_uris": {"android": "https://dc.lft.to/lastmile_qr_scan", "ios": "https://dc.lft.to/lastmile_qr_scan"}, "fusion_lon": 0.0}, {"lat": 38.91101483333333, "is_disabled": 0, "type": "electric_scooter", "lon": -77.03855483333334, "bike_id": "0d8dc57895e50bd448394ee2b7dd7ced", "fusion_lat": 0.0, "name": "0d8dc57895e50bd448394ee2b7dd7ced", "is_reserved": 0, "rental_uris": {"android": "https://dc.lft.to/lastmile_qr_scan", "ios": "https://dc.lft.to/lastmile_qr_scan"}, "fusion_lon": 0.0}, {"lat": 38.886705, "is_disabled": 0, "type": "electric_scooter", "lon": -76.990271, "bike_id": "5c6452e783b3df0e387c2b91dfc0eaac", "fusion_lat": 0.0, "name": "5c6452e783b3df0e387c2b91dfc0eaac", "is_reserved": 0, "rental_uris": {"android": "https://dc.lft.to/lastmile_qr_scan", "ios": "https://dc.lft.to/lastmile_qr_scan"}, "fusion_lon": 0.0}, {"lat": 38.91358116666667, "is_disabled": 0, "type": "electric_scooter", "lon": -77.06921866666667, "bike_id": "9a32c5b1f0c8aee5a1ef62ba286a81f3", "fusion_lat": 0.0, "name": "9a32c5b1f0c8aee5a1ef62ba286a81f3", "is_reserved": 0, "rental_uris": {"android": "https://dc.lft.to/lastmile_qr_scan", "ios": "https://dc.lft.to/lastmile_qr_scan"}, "fusion_lon": 0.0}, {"lat": 38.92308633333333, "is_disabled": 0, "type": "electric_scooter", "lon": -77.0396505, "bike_id": "2f581b1440aaae38d351b24988eee748", "fusion_lat": 0.0, "name": "2f581b1440aaae38d351b24988eee748", "is_reserved": 0, "rental_uris": {"android": "https://dc.lft.to/lastmile_qr_scan", "ios": "https://dc.lft.to/lastmile_qr_scan"}, "fusion_lon": 0.0}, {"lat": 38.9215145, "is_disabled": 0, "type": "electric_scooter", "lon": -77.0334065, "bike_id": "597221c07404523fd33bd5609e49594a", "fusion_lat": 0.0, "name": "597221c07404523fd33bd5609e49594a", "is_reserved": 0, "rental_uris": {"android": "https://dc.lft.to/lastmile_qr_scan", "ios": "https://dc.lft.to/lastmile_qr_scan"}, "fusion_lon": 0.0}, {"lat": 38.90531566666667, "is_disabled": 0, "type": "electric_scooter", "lon": -77.05713566666667, "bike_id": "c89ff3d4e9189d82378187f82cf0e0ff", "fusion_lat": 0.0, "name": "c89ff3d4e9189d82378187f82cf0e0ff", "is_reserved": 0, "rental_uris": {"android": "https://dc.lft.to/lastmile_qr_scan", "ios": "https://dc.lft.to/lastmile_qr_scan"}, "fusion_lon": 0.0}, {"lat": 38.914131166666664, "is_disabled": 0, "type": "electric_scooter", "lon": -77.0292245, "bike_id": "21c441c41d7d2869c91a26ced3f1a4af", "fusion_lat": 0.0, "name": "21c441c41d7d2869c91a26ced3f1a4af", "is_reserved": 0, "rental_uris": {"android": "https://dc.lft.to/lastmile_qr_scan", "ios": "https://dc.lft.to/lastmile_qr_scan"}, "fusion_lon": 0.0}, {"lat": 38.859275, "is_disabled": 0, "type": "electric_scooter", "lon": -76.98981233333333, "bike_id": "00ca7cd75e40b9c82aec97d7909a930a", "fusion_lat": 0.0, "name": "00ca7cd75e40b9c82aec97d7909a930a", "is_reserved": 0, "rental_uris": {"android": "https://dc.lft.to/lastmile_qr_scan", "ios": "https://dc.lft.to/lastmile_qr_scan"}, "fusion_lon": 0.0}, {"lat": 38.93146333333333, "is_disabled": 0, "type": "electric_scooter", "lon": -77.04142016666667, "bike_id": "e01492f87f5b3165bf345b93deab98e9", "fusion_lat": 0.0, "name": "e01492f87f5b3165bf345b93deab98e9", "is_reserved": 0, "rental_uris": {"android": "https://dc.lft.to/lastmile_qr_scan", "ios": "https://dc.lft.to/lastmile_qr_scan"}, "fusion_lon": 0.0}, {"lat": 38.900775, "is_disabled": 0, "type": "electric_scooter", "lon": -77.04955383333333, "bike_id": "7501738c79f51f4c9bdb54c4f084f727", "fusion_lat": 0.0, "name": "7501738c79f51f4c9bdb54c4f084f727", "is_reserved": 0, "rental_uris": {"android": "https://dc.lft.to/lastmile_qr_scan", "ios": "https://dc.lft.to/lastmile_qr_scan"}, "fusion_lon": 0.0}, {"lat": 38.880936166666665, "is_disabled": 0, "type": "electric_scooter", "lon": -76.99855933333333, "bike_id": "3eee68f40f7f64dfaf5cd44a828deeab", "fusion_lat": 0.0, "name": "3eee68f40f7f64dfaf5cd44a828deeab", "is_reserved": 0, "rental_uris": {"android": "https://dc.lft.to/lastmile_qr_scan", "ios": "https://dc.lft.to/lastmile_qr_scan"}, "fusion_lon": 0.0}, {"lat": 38.95641483333333, "is_disabled": 0, "type": "electric_bike", "lon": -76.93888433333333, "bike_id": "1dea801d348eacec29ef31a993ed3d3e", "fusion_lat": 0.0, "name": "1dea801d348eacec29ef31a993ed3d3e", "is_reserved": 0, "rental_uris": {"android": "https://dc.lft.to/lastmile_qr_scan", "ios": "https://dc.lft.to/lastmile_qr_scan"}, "fusion_lon": 0.0}, {"lat": 38.84277066666667, "is_disabled": 0, "type": "electric_bike", "lon": -76.988413, "bike_id": "82ed366e5dcb7e9b5dbb42b943e1340e", "fusion_lat": 0.0, "name": "82ed366e5dcb7e9b5dbb42b943e1340e", "is_reserved": 0, "rental_uris": {"android": "https://dc.lft.to/lastmile_qr_scan", "ios": "https://dc.lft.to/lastmile_qr_scan"}, "fusion_lon": 0.0}, {"lat": 38.9073145, "is_disabled": 0, "type": "electric_scooter", "lon": -77.03712916666667, "bike_id": "f859b8299a36ae995d0ae7b171b2d583", "fusion_lat": 0.0, "name": "f859b8299a36ae995d0ae7b171b2d583", "is_reserved": 0, "rental_uris": {"android": "https://dc.lft.to/lastmile_qr_scan", "ios": "https://dc.lft.to/lastmile_qr_scan"}, "fusion_lon": 0.0}, {"lat": 38.919645, "is_disabled": 0, "type": "electric_scooter", "lon": -77.01210483333334, "bike_id": "cfdbcd0b8dde1b33d9b1893b2a86e541", "fusion_lat": 0.0, "name": "cfdbcd0b8dde1b33d9b1893b2a86e541", "is_reserved": 0, "rental_uris": {"android": "https://dc.lft.to/lastmile_qr_scan", "ios": "https://dc.lft.to/lastmile_qr_scan"}, "fusion_lon": 0.0}, {"lat": 38.926688666666664, "is_disabled": 0, "type": "electric_scooter", "lon": -76.9952445, "bike_id": "27a3c139d59f49883a4a78736bab51eb", "fusion_lat": 0.0, "name": "27a3c139d59f49883a4a78736bab51eb", "is_reserved": 0, "rental_uris": {"android": "https://dc.lft.to/lastmile_qr_scan", "ios": "https://dc.lft.to/lastmile_qr_scan"}, "fusion_lon": 0.0}, {"lat": 38.90892933333333, "is_disabled": 0, "type": "electric_scooter", "lon": -77.023054, "bike_id": "315f1ba664ee12666dbfed979bc1fb8e", "fusion_lat": 0.0, "name": "315f1ba664ee12666dbfed979bc1fb8e", "is_reserved": 0, "rental_uris": {"android": "https://dc.lft.to/lastmile_qr_scan", "ios": "https://dc.lft.to/lastmile_qr_scan"}, "fusion_lon": 0.0}, {"lat": 38.92566766666667, "is_disabled": 0, "type": "electric_scooter", "lon": -77.05740666666667, "bike_id": "77ad2f400238636dac6b10e87acc66a4", "fusion_lat": 0.0, "name": "77ad2f400238636dac6b10e87acc66a4", "is_reserved": 0, "rental_uris": {"android": "https://dc.lft.to/lastmile_qr_scan", "ios": "https://dc.lft.to/lastmile_qr_scan"}, "fusion_lon": 0.0}, {"lat": 38.898003333333335, "is_disabled": 0, "type": "electric_scooter", "lon": -77.00055033333334, "bike_id": "d58edb9fcf9391e00023fa8799e3e986", "fusion_lat": 0.0, "name": "d58edb9fcf9391e00023fa8799e3e986", "is_reserved": 0, "rental_uris": {"android": "https://dc.lft.to/lastmile_qr_scan", "ios": "https://dc.lft.to/lastmile_qr_scan"}, "fusion_lon": 0.0}, {"lat": 38.89770516666667, "is_disabled": 0, "type": "electric_bike", "lon": -76.90438566666667, "bike_id": "1982c8c5d89eb48a82c5f303aeee5f88", "fusion_lat": 0.0, "name": "1982c8c5d89eb48a82c5f303aeee5f88", "is_reserved": 0, "rental_uris": {"android": "https://dc.lft.to/lastmile_qr_scan", "ios": "https://dc.lft.to/lastmile_qr_scan"}, "fusion_lon": 0.0}, {"lat": 38.913200333333336, "is_disabled": 0, "type": "electric_scooter", "lon": -77.044713, "bike_id": "8c98c5f06be9a0e073be8dbc03b03777", "fusion_lat": 0.0, "name": "8c98c5f06be9a0e073be8dbc03b03777", "is_reserved": 0, "rental_uris": {"android": "https://dc.lft.to/lastmile_qr_scan", "ios": "https://dc.lft.to/lastmile_qr_scan"}, "fusion_lon": 0.0}, {"lat": 38.88592, "is_disabled": 0, "type": "electric_scooter", "lon": -77.022057, "bike_id": "d69cd5eb4b651d93d04a91d6ead1a3ce", "fusion_lat": 0.0, "name": "d69cd5eb4b651d93d04a91d6ead1a3ce", "is_reserved": 0, "rental_uris": {"android": "https://dc.lft.to/lastmile_qr_scan", "ios": "https://dc.lft.to/lastmile_qr_scan"}, "fusion_lon": 0.0}, {"lat": 38.90422366666667, "is_disabled": 0, "type": "electric_scooter", "lon": -77.053207, "bike_id": "7a28ab7c3df5e0efa1f402b467889281", "fusion_lat": 0.0, "name": "7a28ab7c3df5e0efa1f402b467889281", "is_reserved": 0, "rental_uris": {"android": "https://dc.lft.to/lastmile_qr_scan", "ios": "https://dc.lft.to/lastmile_qr_scan"}, "fusion_lon": 0.0}, {"lat": 38.91690766666667, "is_disabled": 0, "type": "electric_scooter", "lon": -77.03743333333334, "bike_id": "1ca59cc71a6da33eb8b5beaa74222f83", "fusion_lat": 0.0, "name": "1ca59cc71a6da33eb8b5beaa74222f83", "is_reserved": 0, "rental_uris": {"android": "https://dc.lft.to/lastmile_qr_scan", "ios": "https://dc.lft.to/lastmile_qr_scan"}, "fusion_lon": 0.0}, {"lat": 38.92666033333333, "is_disabled": 0, "type": "electric_scooter", "lon": -77.01498383333333, "bike_id": "ff4a0c9741076615d4ca797407227339", "fusion_lat": 0.0, "name": "ff4a0c9741076615d4ca797407227339", "is_reserved": 0, "rental_uris": {"android": "https://dc.lft.to/lastmile_qr_scan", "ios": "https://dc.lft.to/lastmile_qr_scan"}, "fusion_lon": 0.0}, {"lat": 38.9141105, "is_disabled": 0, "type": "electric_scooter", "lon": -77.02945533333333, "bike_id": "28bb23c5c708126f14691cc0fe5e96b3", "fusion_lat": 0.0, "name": "28bb23c5c708126f14691cc0fe5e96b3", "is_reserved": 0, "rental_uris": {"android": "https://dc.lft.to/lastmile_qr_scan", "ios": "https://dc.lft.to/lastmile_qr_scan"}, "fusion_lon": 0.0}, {"lat": 38.902649333333336, "is_disabled": 0, "type": "electric_scooter", "lon": -77.0363415, "bike_id": "524846a6f2b48db5775b6a91f2b5e74f", "fusion_lat": 0.0, "name": "524846a6f2b48db5775b6a91f2b5e74f", "is_reserved": 0, "rental_uris": {"android": "https://dc.lft.to/lastmile_qr_scan", "ios": "https://dc.lft.to/lastmile_qr_scan"}, "fusion_lon": 0.0}, {"lat": 38.92317933333333, "is_disabled": 0, "type": "electric_scooter", "lon": -77.03637866666666, "bike_id": "d6a3b68172052544a15c03c8b96582a2", "fusion_lat": 0.0, "name": "d6a3b68172052544a15c03c8b96582a2", "is_reserved": 0, "rental_uris": {"android": "https://dc.lft.to/lastmile_qr_scan", "ios": "https://dc.lft.to/lastmile_qr_scan"}, "fusion_lon": 0.0}, {"lat": 38.902847666666666, "is_disabled": 0, "type": "electric_scooter", "lon": -77.04398183333333, "bike_id": "cb686376a32b3b91a9ae5dbe672eb9ca", "fusion_lat": 0.0, "name": "cb686376a32b3b91a9ae5dbe672eb9ca", "is_reserved": 0, "rental_uris": {"android": "https://dc.lft.to/lastmile_qr_scan", "ios": "https://dc.lft.to/lastmile_qr_scan"}, "fusion_lon": 0.0}, {"lat": 38.91173966666667, "is_disabled": 0, "type": "electric_scooter", "lon": -77.03185766666667, "bike_id": "1ead1740376dede7133987e7a5ccc8d2", "fusion_lat": 0.0, "name": "1ead1740376dede7133987e7a5ccc8d2", "is_reserved": 0, "rental_uris": {"android": "https://dc.lft.to/lastmile_qr_scan", "ios": "https://dc.lft.to/lastmile_qr_scan"}, "fusion_lon": 0.0}, {"lat": 38.9338515, "is_disabled": 0, "type": "electric_scooter", "lon": -77.032468, "bike_id": "8804dbb0f3029356d8d96534b29e5a8e", "fusion_lat": 0.0, "name": "8804dbb0f3029356d8d96534b29e5a8e", "is_reserved": 0, "rental_uris": {"android": "https://dc.lft.to/lastmile_qr_scan", "ios": "https://dc.lft.to/lastmile_qr_scan"}, "fusion_lon": 0.0}, {"lat": 38.9225475, "is_disabled": 0, "type": "electric_scooter", "lon": -77.02341016666666, "bike_id": "bd209f653faf88d33cd10a12064f8a5b", "fusion_lat": 0.0, "name": "bd209f653faf88d33cd10a12064f8a5b", "is_reserved": 0, "rental_uris": {"android": "https://dc.lft.to/lastmile_qr_scan", "ios": "https://dc.lft.to/lastmile_qr_scan"}, "fusion_lon": 0.0}, {"lat": 38.927335666666664, "is_disabled": 0, "type": "electric_scooter", "lon": -77.02245333333333, "bike_id": "760ea14baa035d28965f30ccddb7f4ec", "fusion_lat": 0.0, "name": "760ea14baa035d28965f30ccddb7f4ec", "is_reserved": 0, "rental_uris": {"android": "https://dc.lft.to/lastmile_qr_scan", "ios": "https://dc.lft.to/lastmile_qr_scan"}, "fusion_lon": 0.0}, {"lat": 38.92641733333333, "is_disabled": 0, "type": "electric_scooter", "lon": -77.04308333333333, "bike_id": "7621312df874faf3a650759e564342d6", "fusion_lat": 0.0, "name": "7621312df874faf3a650759e564342d6", "is_reserved": 0, "rental_uris": {"android": "https://dc.lft.to/lastmile_qr_scan", "ios": "https://dc.lft.to/lastmile_qr_scan"}, "fusion_lon": 0.0}, {"lat": 38.9085255, "is_disabled": 0, "type": "electric_scooter", "lon": -77.00623933333334, "bike_id": "6b97164d66ce9bc33345e772db2fd250", "fusion_lat": 0.0, "name": "6b97164d66ce9bc33345e772db2fd250", "is_reserved": 0, "rental_uris": {"android": "https://dc.lft.to/lastmile_qr_scan", "ios": "https://dc.lft.to/lastmile_qr_scan"}, "fusion_lon": 0.0}, {"lat": 38.937607666666665, "is_disabled": 0, "type": "electric_scooter", "lon": -77.02132566666667, "bike_id": "b3fe92e818f0981c19c7049ec197d035", "fusion_lat": 0.0, "name": "b3fe92e818f0981c19c7049ec197d035", "is_reserved": 0, "rental_uris": {"android": "https://dc.lft.to/lastmile_qr_scan", "ios": "https://dc.lft.to/lastmile_qr_scan"}, "fusion_lon": 0.0}, {"lat": 38.89678416666667, "is_disabled": 0, "type": "electric_scooter", "lon": -77.05124533333333, "bike_id": "e59255053d551bdd770c5afbbb135761", "fusion_lat": 0.0, "name": "e59255053d551bdd770c5afbbb135761", "is_reserved": 0, "rental_uris": {"android": "https://dc.lft.to/lastmile_qr_scan", "ios": "https://dc.lft.to/lastmile_qr_scan"}, "fusion_lon": 0.0}, {"lat": 38.9205845, "is_disabled": 0, "type": "electric_scooter", "lon": -77.029465, "bike_id": "8dfb63373672c4bc114ec17d619a9a97", "fusion_lat": 0.0, "name": "8dfb63373672c4bc114ec17d619a9a97", "is_reserved": 0, "rental_uris": {"android": "https://dc.lft.to/lastmile_qr_scan", "ios": "https://dc.lft.to/lastmile_qr_scan"}, "fusion_lon": 0.0}, {"lat": 38.918016, "is_disabled": 0, "type": "electric_bike", "lon": -77.223328, "bike_id": "f392ed9d92b161f51a4279f34f36ae41", "fusion_lat": 0.0, "name": "f392ed9d92b161f51a4279f34f36ae41", "is_reserved": 0, "rental_uris": {"android": "https://dc.lft.to/lastmile_qr_scan", "ios": "https://dc.lft.to/lastmile_qr_scan"}, "fusion_lon": 0.0}, {"lat": 38.900764, "is_disabled": 0, "type": "electric_scooter", "lon": -77.0020365, "bike_id": "49e7e2aa12dac6a5587006a72854c731", "fusion_lat": 0.0, "name": "49e7e2aa12dac6a5587006a72854c731", "is_reserved": 0, "rental_uris": {"android": "https://dc.lft.to/lastmile_qr_scan", "ios": "https://dc.lft.to/lastmile_qr_scan"}, "fusion_lon": 0.0}, {"lat": 38.930622166666666, "is_disabled": 0, "type": "electric_scooter", "lon": -77.03183383333334, "bike_id": "908ce989cbd39e22822012a134f191db", "fusion_lat": 0.0, "name": "908ce989cbd39e22822012a134f191db", "is_reserved": 0, "rental_uris": {"android": "https://dc.lft.to/lastmile_qr_scan", "ios": "https://dc.lft.to/lastmile_qr_scan"}, "fusion_lon": 0.0}, {"lat": 38.922541333333335, "is_disabled": 0, "type": "electric_scooter", "lon": -77.03385633333333, "bike_id": "22b095654daf83ad2153e01d0fbdeef4", "fusion_lat": 0.0, "name": "22b095654daf83ad2153e01d0fbdeef4", "is_reserved": 0, "rental_uris": {"android": "https://dc.lft.to/lastmile_qr_scan", "ios": "https://dc.lft.to/lastmile_qr_scan"}, "fusion_lon": 0.0}, {"lat": 38.905581166666664, "is_disabled": 0, "type": "electric_scooter", "lon": -77.019553, "bike_id": "f4a29c89b9a6c0fc4ba86cdca354d6c8", "fusion_lat": 0.0, "name": "f4a29c89b9a6c0fc4ba86cdca354d6c8", "is_reserved": 0, "rental_uris": {"android": "https://dc.lft.to/lastmile_qr_scan", "ios": "https://dc.lft.to/lastmile_qr_scan"}, "fusion_lon": 0.0}, {"lat": 38.9443615, "is_disabled": 0, "type": "electric_scooter", "lon": -77.01506, "bike_id": "85b1f0468be8c6b6e92d202be0d927f4", "fusion_lat": 0.0, "name": "85b1f0468be8c6b6e92d202be0d927f4", "is_reserved": 0, "rental_uris": {"android": "https://dc.lft.to/lastmile_qr_scan", "ios": "https://dc.lft.to/lastmile_qr_scan"}, "fusion_lon": 0.0}, {"lat": 38.943946333333336, "is_disabled": 0, "type": "electric_scooter", "lon": -77.01981916666666, "bike_id": "c00a26162cb94566bae4893189959713", "fusion_lat": 0.0, "name": "c00a26162cb94566bae4893189959713", "is_reserved": 0, "rental_uris": {"android": "https://dc.lft.to/lastmile_qr_scan", "ios": "https://dc.lft.to/lastmile_qr_scan"}, "fusion_lon": 0.0}, {"lat": 38.855085, "is_disabled": 0, "type": "electric_bike", "lon": -77.12006783333334, "bike_id": "bd4ea8eea49c4f3d1bf5937a9d116f5c", "fusion_lat": 0.0, "name": "bd4ea8eea49c4f3d1bf5937a9d116f5c", "is_reserved": 0, "rental_uris": {"android": "https://dc.lft.to/lastmile_qr_scan", "ios": "https://dc.lft.to/lastmile_qr_scan"}, "fusion_lon": 0.0}, {"lat": 38.91715933333333, "is_disabled": 0, "type": "electric_scooter", "lon": -77.04152383333333, "bike_id": "1faff4e7c8ae5f27282df25b218fd4be", "fusion_lat": 0.0, "name": "1faff4e7c8ae5f27282df25b218fd4be", "is_reserved": 0, "rental_uris": {"android": "https://dc.lft.to/lastmile_qr_scan", "ios": "https://dc.lft.to/lastmile_qr_scan"}, "fusion_lon": 0.0}, {"lat": 38.91108083333334, "is_disabled": 0, "type": "electric_scooter", "lon": -77.03827033333333, "bike_id": "b45c639cf2270d2cfc20610c337d7464", "fusion_lat": 0.0, "name": "b45c639cf2270d2cfc20610c337d7464", "is_reserved": 0, "rental_uris": {"android": "https://dc.lft.to/lastmile_qr_scan", "ios": "https://dc.lft.to/lastmile_qr_scan"}, "fusion_lon": 0.0}, {"lat": 38.9020335, "is_disabled": 0, "type": "electric_scooter", "lon": -77.02693516666666, "bike_id": "e3a8d04dfbc147c2bf731a010d25a650", "fusion_lat": 0.0, "name": "e3a8d04dfbc147c2bf731a010d25a650", "is_reserved": 0, "rental_uris": {"android": "https://dc.lft.to/lastmile_qr_scan", "ios": "https://dc.lft.to/lastmile_qr_scan"}, "fusion_lon": 0.0}, {"lat": 38.851891, "is_disabled": 0, "type": "electric_bike", "lon": -76.96109416666667, "bike_id": "ef12192ee9316aa5abed23458645a895", "fusion_lat": 0.0, "name": "ef12192ee9316aa5abed23458645a895", "is_reserved": 0, "rental_uris": {"android": "https://dc.lft.to/lastmile_qr_scan", "ios": "https://dc.lft.to/lastmile_qr_scan"}, "fusion_lon": 0.0}, {"lat": 38.90341816666667, "is_disabled": 0, "type": "electric_scooter", "lon": -77.04484866666667, "bike_id": "ecce93cbcf338ebbcdee635df28d5cc6", "fusion_lat": 0.0, "name": "ecce93cbcf338ebbcdee635df28d5cc6", "is_reserved": 0, "rental_uris": {"android": "https://dc.lft.to/lastmile_qr_scan", "ios": "https://dc.lft.to/lastmile_qr_scan"}, "fusion_lon": 0.0}, {"lat": 38.897062166666664, "is_disabled": 0, "type": "electric_scooter", "lon": -77.00843983333333, "bike_id": "023888da22a9223e721744baa924d347", "fusion_lat": 0.0, "name": "023888da22a9223e721744baa924d347", "is_reserved": 0, "rental_uris": {"android": "https://dc.lft.to/lastmile_qr_scan", "ios": "https://dc.lft.to/lastmile_qr_scan"}, "fusion_lon": 0.0}, {"lat": 38.93256483333333, "is_disabled": 0, "type": "electric_scooter", "lon": -77.034613, "bike_id": "50f53ef0646f48c93c3d719a79b0b191", "fusion_lat": 0.0, "name": "50f53ef0646f48c93c3d719a79b0b191", "is_reserved": 0, "rental_uris": {"android": "https://dc.lft.to/lastmile_qr_scan", "ios": "https://dc.lft.to/lastmile_qr_scan"}, "fusion_lon": 0.0}, {"lat": 38.930143666666666, "is_disabled": 0, "type": "electric_scooter", "lon": -77.0445045, "bike_id": "165e6fe11a710512bdb8f75c7f33675f", "fusion_lat": 0.0, "name": "165e6fe11a710512bdb8f75c7f33675f", "is_reserved": 0, "rental_uris": {"android": "https://dc.lft.to/lastmile_qr_scan", "ios": "https://dc.lft.to/lastmile_qr_scan"}, "fusion_lon": 0.0}, {"lat": 38.911091666666664, "is_disabled": 0, "type": "electric_scooter", "lon": -77.03717983333334, "bike_id": "02ee3cbf1816651226d35624f647c178", "fusion_lat": 0.0, "name": "02ee3cbf1816651226d35624f647c178", "is_reserved": 0, "rental_uris": {"android": "https://dc.lft.to/lastmile_qr_scan", "ios": "https://dc.lft.to/lastmile_qr_scan"}, "fusion_lon": 0.0}, {"lat": 38.914041, "is_disabled": 0, "type": "electric_scooter", "lon": -77.03157316666666, "bike_id": "08af3e272f840c97f3e992a6bee6fe3f", "fusion_lat": 0.0, "name": "08af3e272f840c97f3e992a6bee6fe3f", "is_reserved": 0, "rental_uris": {"android": "https://dc.lft.to/lastmile_qr_scan", "ios": "https://dc.lft.to/lastmile_qr_scan"}, "fusion_lon": 0.0}, {"lat": 38.895495, "is_disabled": 0, "type": "electric_scooter", "lon": -77.00909016666667, "bike_id": "8c6d7f9aed69ca859fb3435beeb8c601", "fusion_lat": 0.0, "name": "8c6d7f9aed69ca859fb3435beeb8c601", "is_reserved": 0, "rental_uris": {"android": "https://dc.lft.to/lastmile_qr_scan", "ios": "https://dc.lft.to/lastmile_qr_scan"}, "fusion_lon": 0.0}, {"lat": 38.91563216666667, "is_disabled": 0, "type": "electric_scooter", "lon": -77.03219416666667, "bike_id": "96803890eb8baf7146c5a0a61a8cab08", "fusion_lat": 0.0, "name": "96803890eb8baf7146c5a0a61a8cab08", "is_reserved": 0, "rental_uris": {"android": "https://dc.lft.to/lastmile_qr_scan", "ios": "https://dc.lft.to/lastmile_qr_scan"}, "fusion_lon": 0.0}, {"lat": 38.915290166666665, "is_disabled": 0, "type": "electric_scooter", "lon": -77.0320255, "bike_id": "8586129947dc0f7acc7e02ec633d2020", "fusion_lat": 0.0, "name": "8586129947dc0f7acc7e02ec633d2020", "is_reserved": 0, "rental_uris": {"android": "https://dc.lft.to/lastmile_qr_scan", "ios": "https://dc.lft.to/lastmile_qr_scan"}, "fusion_lon": 0.0}, {"lat": 38.93568166666667, "is_disabled": 0, "type": "electric_scooter", "lon": -77.03263666666666, "bike_id": "687dba6232c61052b5fe75561dace2ca", "fusion_lat": 0.0, "name": "687dba6232c61052b5fe75561dace2ca", "is_reserved": 0, "rental_uris": {"android": "https://dc.lft.to/lastmile_qr_scan", "ios": "https://dc.lft.to/lastmile_qr_scan"}, "fusion_lon": 0.0}, {"lat": 38.933849333333335, "is_disabled": 0, "type": "electric_scooter", "lon": -76.99514466666666, "bike_id": "bca5649d49b4807cc0139b3e6bd1657b", "fusion_lat": 0.0, "name": "bca5649d49b4807cc0139b3e6bd1657b", "is_reserved": 0, "rental_uris": {"android": "https://dc.lft.to/lastmile_qr_scan", "ios": "https://dc.lft.to/lastmile_qr_scan"}, "fusion_lon": 0.0}, {"lat": 38.899295333333335, "is_disabled": 0, "type": "electric_scooter", "lon": -77.00344933333334, "bike_id": "877d3697c6bdec070ddd7894c6a21605", "fusion_lat": 0.0, "name": "877d3697c6bdec070ddd7894c6a21605", "is_reserved": 0, "rental_uris": {"android": "https://dc.lft.to/lastmile_qr_scan", "ios": "https://dc.lft.to/lastmile_qr_scan"}, "fusion_lon": 0.0}, {"lat": 38.92640183333334, "is_disabled": 0, "type": "electric_scooter", "lon": -77.02502033333333, "bike_id": "6c23df6a27c4291e6ca1782a7bae57fa", "fusion_lat": 0.0, "name": "6c23df6a27c4291e6ca1782a7bae57fa", "is_reserved": 0, "rental_uris": {"android": "https://dc.lft.to/lastmile_qr_scan", "ios": "https://dc.lft.to/lastmile_qr_scan"}, "fusion_lon": 0.0}, {"lat": 38.924371666666666, "is_disabled": 0, "type": "electric_scooter", "lon": -77.03351266666667, "bike_id": "b787030e293724c3e8c4f801dd9159ec", "fusion_lat": 0.0, "name": "b787030e293724c3e8c4f801dd9159ec", "is_reserved": 0, "rental_uris": {"android": "https://dc.lft.to/lastmile_qr_scan", "ios": "https://dc.lft.to/lastmile_qr_scan"}, "fusion_lon": 0.0}, {"lat": 38.8665775, "is_disabled": 0, "type": "electric_scooter", "lon": -76.9889335, "bike_id": "27748c7b58a54f077967e626282fd500", "fusion_lat": 0.0, "name": "27748c7b58a54f077967e626282fd500", "is_reserved": 0, "rental_uris": {"android": "https://dc.lft.to/lastmile_qr_scan", "ios": "https://dc.lft.to/lastmile_qr_scan"}, "fusion_lon": 0.0}, {"lat": 38.92428616666667, "is_disabled": 0, "type": "electric_scooter", "lon": -77.03414766666667, "bike_id": "c2e7b14b93972aa2642cdc227787b609", "fusion_lat": 0.0, "name": "c2e7b14b93972aa2642cdc227787b609", "is_reserved": 0, "rental_uris": {"android": "https://dc.lft.to/lastmile_qr_scan", "ios": "https://dc.lft.to/lastmile_qr_scan"}, "fusion_lon": 0.0}, {"lat": 38.90147733333333, "is_disabled": 0, "type": "electric_scooter", "lon": -77.04978633333333, "bike_id": "148354555ba5ef988bb854e41d39a258", "fusion_lat": 0.0, "name": "148354555ba5ef988bb854e41d39a258", "is_reserved": 0, "rental_uris": {"android": "https://dc.lft.to/lastmile_qr_scan", "ios": "https://dc.lft.to/lastmile_qr_scan"}, "fusion_lon": 0.0}, {"lat": 38.91700433333333, "is_disabled": 0, "type": "electric_scooter", "lon": -77.03474, "bike_id": "a1a1aab7a6ddebf606d03b3d7e4bda19", "fusion_lat": 0.0, "name": "a1a1aab7a6ddebf606d03b3d7e4bda19", "is_reserved": 0, "rental_uris": {"android": "https://dc.lft.to/lastmile_qr_scan", "ios": "https://dc.lft.to/lastmile_qr_scan"}, "fusion_lon": 0.0}, {"lat": 38.901421666666664, "is_disabled": 0, "type": "electric_scooter", "lon": -77.0116065, "bike_id": "bf7c54e444f9ac2fd09890325c0c6b44", "fusion_lat": 0.0, "name": "bf7c54e444f9ac2fd09890325c0c6b44", "is_reserved": 0, "rental_uris": {"android": "https://dc.lft.to/lastmile_qr_scan", "ios": "https://dc.lft.to/lastmile_qr_scan"}, "fusion_lon": 0.0}, {"lat": 38.9059795, "is_disabled": 0, "type": "electric_scooter", "lon": -77.01602966666667, "bike_id": "32e6660b30ba512de21606f125d03205", "fusion_lat": 0.0, "name": "32e6660b30ba512de21606f125d03205", "is_reserved": 0, "rental_uris": {"android": "https://dc.lft.to/lastmile_qr_scan", "ios": "https://dc.lft.to/lastmile_qr_scan"}, "fusion_lon": 0.0}, {"lat": 38.948955, "is_disabled": 0, "type": "electric_scooter", "lon": -77.03044483333333, "bike_id": "1accf2181d0a7a4514358224504d95fd", "fusion_lat": 0.0, "name": "1accf2181d0a7a4514358224504d95fd", "is_reserved": 0, "rental_uris": {"android": "https://dc.lft.to/lastmile_qr_scan", "ios": "https://dc.lft.to/lastmile_qr_scan"}, "fusion_lon": 0.0}, {"lat": 38.97224283333333, "is_disabled": 0, "type": "electric_bike", "lon": -76.99344116666667, "bike_id": "fa43f86053afdea01f3b1626e4533000", "fusion_lat": 0.0, "name": "fa43f86053afdea01f3b1626e4533000", "is_reserved": 0, "rental_uris": {"android": "https://dc.lft.to/lastmile_qr_scan", "ios": "https://dc.lft.to/lastmile_qr_scan"}, "fusion_lon": 0.0}, {"lat": 38.908338, "is_disabled": 0, "type": "electric_scooter", "lon": -76.99696233333333, "bike_id": "23277cbb3d40d8b6797baa2e0391b150", "fusion_lat": 0.0, "name": "23277cbb3d40d8b6797baa2e0391b150", "is_reserved": 0, "rental_uris": {"android": "https://dc.lft.to/lastmile_qr_scan", "ios": "https://dc.lft.to/lastmile_qr_scan"}, "fusion_lon": 0.0}, {"lat": 38.90337516666666, "is_disabled": 0, "type": "electric_scooter", "lon": -77.037872, "bike_id": "edecff161bd5caa63e9452707c5840b0", "fusion_lat": 0.0, "name": "edecff161bd5caa63e9452707c5840b0", "is_reserved": 0, "rental_uris": {"android": "https://dc.lft.to/lastmile_qr_scan", "ios": "https://dc.lft.to/lastmile_qr_scan"}, "fusion_lon": 0.0}, {"lat": 38.922384666666666, "is_disabled": 0, "type": "electric_scooter", "lon": -77.04572916666666, "bike_id": "6efc15af173fefbab15e78a06b9e6c5e", "fusion_lat": 0.0, "name": "6efc15af173fefbab15e78a06b9e6c5e", "is_reserved": 0, "rental_uris": {"android": "https://dc.lft.to/lastmile_qr_scan", "ios": "https://dc.lft.to/lastmile_qr_scan"}, "fusion_lon": 0.0}, {"lat": 38.933201833333335, "is_disabled": 0, "type": "electric_scooter", "lon": -77.04523183333333, "bike_id": "912fc6016a029fe4c13eb9c9b42244be", "fusion_lat": 0.0, "name": "912fc6016a029fe4c13eb9c9b42244be", "is_reserved": 0, "rental_uris": {"android": "https://dc.lft.to/lastmile_qr_scan", "ios": "https://dc.lft.to/lastmile_qr_scan"}, "fusion_lon": 0.0}, {"lat": 38.871464833333334, "is_disabled": 0, "type": "electric_bike", "lon": -76.93670316666666, "bike_id": "6fef06e287567eb29f892bd96575ed57", "fusion_lat": 0.0, "name": "6fef06e287567eb29f892bd96575ed57", "is_reserved": 0, "rental_uris": {"android": "https://dc.lft.to/lastmile_qr_scan", "ios": "https://dc.lft.to/lastmile_qr_scan"}, "fusion_lon": 0.0}, {"lat": 38.8964325, "is_disabled": 0, "type": "electric_scooter", "lon": -77.00914416666667, "bike_id": "971b6037f0b9487b14b189bd3d4b9893", "fusion_lat": 0.0, "name": "971b6037f0b9487b14b189bd3d4b9893", "is_reserved": 0, "rental_uris": {"android": "https://dc.lft.to/lastmile_qr_scan", "ios": "https://dc.lft.to/lastmile_qr_scan"}, "fusion_lon": 0.0}, {"lat": 38.900277, "is_disabled": 0, "type": "electric_scooter", "lon": -76.98871183333333, "bike_id": "1cfefa2c7074c176efe1053d933854f4", "fusion_lat": 0.0, "name": "1cfefa2c7074c176efe1053d933854f4", "is_reserved": 0, "rental_uris": {"android": "https://dc.lft.to/lastmile_qr_scan", "ios": "https://dc.lft.to/lastmile_qr_scan"}, "fusion_lon": 0.0}, {"lat": 38.935763, "is_disabled": 0, "type": "electric_bike", "lon": -77.106822, "bike_id": "6cf53a9bf3f58c7647de9f14441ebdf9", "fusion_lat": 0.0, "name": "6cf53a9bf3f58c7647de9f14441ebdf9", "is_reserved": 0, "rental_uris": {"android": "https://dc.lft.to/lastmile_qr_scan", "ios": "https://dc.lft.to/lastmile_qr_scan"}, "fusion_lon": 0.0}, {"lat": 38.863698166666666, "is_disabled": 0, "type": "electric_scooter", "lon": -76.99027616666666, "bike_id": "4dd669ecb9b96e6bf0ca006a93798264", "fusion_lat": 0.0, "name": "4dd669ecb9b96e6bf0ca006a93798264", "is_reserved": 0, "rental_uris": {"android": "https://dc.lft.to/lastmile_qr_scan", "ios": "https://dc.lft.to/lastmile_qr_scan"}, "fusion_lon": 0.0}, {"lat": 38.895214, "is_disabled": 0, "type": "electric_scooter", "lon": -77.000508, "bike_id": "218c06ecb274988dde4e44a1efc34e37", "fusion_lat": 0.0, "name": "218c06ecb274988dde4e44a1efc34e37", "is_reserved": 0, "rental_uris": {"android": "https://dc.lft.to/lastmile_qr_scan", "ios": "https://dc.lft.to/lastmile_qr_scan"}, "fusion_lon": 0.0}, {"lat": 38.900104166666665, "is_disabled": 0, "type": "electric_scooter", "lon": -77.033202, "bike_id": "1bbc8f84e07af72988c1e2cfebec8ac7", "fusion_lat": 0.0, "name": "1bbc8f84e07af72988c1e2cfebec8ac7", "is_reserved": 0, "rental_uris": {"android": "https://dc.lft.to/lastmile_qr_scan", "ios": "https://dc.lft.to/lastmile_qr_scan"}, "fusion_lon": 0.0}, {"lat": 38.949468833333334, "is_disabled": 0, "type": "electric_scooter", "lon": -77.01580283333334, "bike_id": "db4451f1cac7ff9ebf2a6ff4373d6487", "fusion_lat": 0.0, "name": "db4451f1cac7ff9ebf2a6ff4373d6487", "is_reserved": 0, "rental_uris": {"android": "https://dc.lft.to/lastmile_qr_scan", "ios": "https://dc.lft.to/lastmile_qr_scan"}, "fusion_lon": 0.0}, {"lat": 38.91740583333333, "is_disabled": 0, "type": "electric_scooter", "lon": -77.03184716666667, "bike_id": "78cad20230808bcc22205959ad0c5ac4", "fusion_lat": 0.0, "name": "78cad20230808bcc22205959ad0c5ac4", "is_reserved": 0, "rental_uris": {"android": "https://dc.lft.to/lastmile_qr_scan", "ios": "https://dc.lft.to/lastmile_qr_scan"}, "fusion_lon": 0.0}, {"lat": 38.9094475, "is_disabled": 0, "type": "electric_scooter", "lon": -77.04655366666667, "bike_id": "f7ce4c053e4638b299b16e426c49509b", "fusion_lat": 0.0, "name": "f7ce4c053e4638b299b16e426c49509b", "is_reserved": 0, "rental_uris": {"android": "https://dc.lft.to/lastmile_qr_scan", "ios": "https://dc.lft.to/lastmile_qr_scan"}, "fusion_lon": 0.0}, {"lat": 38.923062, "is_disabled": 0, "type": "electric_scooter", "lon": -77.04213766666666, "bike_id": "f4a25ba026a1ce64e4e8ca8d05622a0b", "fusion_lat": 0.0, "name": "f4a25ba026a1ce64e4e8ca8d05622a0b", "is_reserved": 0, "rental_uris": {"android": "https://dc.lft.to/lastmile_qr_scan", "ios": "https://dc.lft.to/lastmile_qr_scan"}, "fusion_lon": 0.0}, {"lat": 38.900789, "is_disabled": 0, "type": "electric_scooter", "lon": -77.04472933333334, "bike_id": "c3a597a427a99138198eeced03aadd5c", "fusion_lat": 0.0, "name": "c3a597a427a99138198eeced03aadd5c", "is_reserved": 0, "rental_uris": {"android": "https://dc.lft.to/lastmile_qr_scan", "ios": "https://dc.lft.to/lastmile_qr_scan"}, "fusion_lon": 0.0}, {"lat": 38.900342, "is_disabled": 0, "type": "electric_scooter", "lon": -77.03338266666667, "bike_id": "ad6971fe5d4b1346fc8bfc4f06b97bc1", "fusion_lat": 0.0, "name": "ad6971fe5d4b1346fc8bfc4f06b97bc1", "is_reserved": 0, "rental_uris": {"android": "https://dc.lft.to/lastmile_qr_scan", "ios": "https://dc.lft.to/lastmile_qr_scan"}, "fusion_lon": 0.0}, {"lat": 38.91267666666667, "is_disabled": 0, "type": "electric_scooter", "lon": -77.02245116666667, "bike_id": "7188a3e2ccd815ec22fee2b7abb71072", "fusion_lat": 0.0, "name": "7188a3e2ccd815ec22fee2b7abb71072", "is_reserved": 0, "rental_uris": {"android": "https://dc.lft.to/lastmile_qr_scan", "ios": "https://dc.lft.to/lastmile_qr_scan"}, "fusion_lon": 0.0}, {"lat": 38.95000983333333, "is_disabled": 0, "type": "electric_scooter", "lon": -77.08192466666667, "bike_id": "9f21ec69b572db53265f2da6f883f6db", "fusion_lat": 0.0, "name": "9f21ec69b572db53265f2da6f883f6db", "is_reserved": 0, "rental_uris": {"android": "https://dc.lft.to/lastmile_qr_scan", "ios": "https://dc.lft.to/lastmile_qr_scan"}, "fusion_lon": 0.0}, {"lat": 38.914109833333335, "is_disabled": 0, "type": "electric_scooter", "lon": -77.033259, "bike_id": "ee232d7da451c66f716a9fd55c2c9f71", "fusion_lat": 0.0, "name": "ee232d7da451c66f716a9fd55c2c9f71", "is_reserved": 0, "rental_uris": {"android": "https://dc.lft.to/lastmile_qr_scan", "ios": "https://dc.lft.to/lastmile_qr_scan"}, "fusion_lon": 0.0}, {"lat": 38.91565333333333, "is_disabled": 0, "type": "electric_scooter", "lon": -77.03264133333333, "bike_id": "fb4c8d7bf7e081ee8d3f9af840cfebf2", "fusion_lat": 0.0, "name": "fb4c8d7bf7e081ee8d3f9af840cfebf2", "is_reserved": 0, "rental_uris": {"android": "https://dc.lft.to/lastmile_qr_scan", "ios": "https://dc.lft.to/lastmile_qr_scan"}, "fusion_lon": 0.0}, {"lat": 38.93090383333333, "is_disabled": 0, "type": "electric_scooter", "lon": -77.02351333333333, "bike_id": "dc5b1934713923fb87e7e5e009d7cfb8", "fusion_lat": 0.0, "name": "dc5b1934713923fb87e7e5e009d7cfb8", "is_reserved": 0, "rental_uris": {"android": "https://dc.lft.to/lastmile_qr_scan", "ios": "https://dc.lft.to/lastmile_qr_scan"}, "fusion_lon": 0.0}, {"lat": 38.920973833333335, "is_disabled": 0, "type": "electric_scooter", "lon": -77.0251145, "bike_id": "6a7bf4b9734b391d33917e76a052fd45", "fusion_lat": 0.0, "name": "6a7bf4b9734b391d33917e76a052fd45", "is_reserved": 0, "rental_uris": {"android": "https://dc.lft.to/lastmile_qr_scan", "ios": "https://dc.lft.to/lastmile_qr_scan"}, "fusion_lon": 0.0}, {"lat": 38.93145283333333, "is_disabled": 0, "type": "electric_scooter", "lon": -77.021337, "bike_id": "3b6d074ed0b1867f32a15555aa433640", "fusion_lat": 0.0, "name": "3b6d074ed0b1867f32a15555aa433640", "is_reserved": 0, "rental_uris": {"android": "https://dc.lft.to/lastmile_qr_scan", "ios": "https://dc.lft.to/lastmile_qr_scan"}, "fusion_lon": 0.0}, {"lat": 38.9056035, "is_disabled": 0, "type": "electric_scooter", "lon": -77.0130735, "bike_id": "859de540dc167b0e9c80c0d0f66991f5", "fusion_lat": 0.0, "name": "859de540dc167b0e9c80c0d0f66991f5", "is_reserved": 0, "rental_uris": {"android": "https://dc.lft.to/lastmile_qr_scan", "ios": "https://dc.lft.to/lastmile_qr_scan"}, "fusion_lon": 0.0}, {"lat": 38.9017865, "is_disabled": 0, "type": "electric_scooter", "lon": -77.02426816666667, "bike_id": "1c64b4a76629fc1c9d277dd5d42b8604", "fusion_lat": 0.0, "name": "1c64b4a76629fc1c9d277dd5d42b8604", "is_reserved": 0, "rental_uris": {"android": "https://dc.lft.to/lastmile_qr_scan", "ios": "https://dc.lft.to/lastmile_qr_scan"}, "fusion_lon": 0.0}, {"lat": 38.917461, "is_disabled": 0, "type": "electric_scooter", "lon": -77.03195683333334, "bike_id": "9012f40233a2701c63f9f969833aed21", "fusion_lat": 0.0, "name": "9012f40233a2701c63f9f969833aed21", "is_reserved": 0, "rental_uris": {"android": "https://dc.lft.to/lastmile_qr_scan", "ios": "https://dc.lft.to/lastmile_qr_scan"}, "fusion_lon": 0.0}, {"lat": 38.9027185, "is_disabled": 0, "type": "electric_scooter", "lon": -77.05256983333334, "bike_id": "110af8618a5a4447c7bf365474c5d077", "fusion_lat": 0.0, "name": "110af8618a5a4447c7bf365474c5d077", "is_reserved": 0, "rental_uris": {"android": "https://dc.lft.to/lastmile_qr_scan", "ios": "https://dc.lft.to/lastmile_qr_scan"}, "fusion_lon": 0.0}, {"lat": 38.884777666666665, "is_disabled": 0, "type": "electric_scooter", "lon": -76.94529116666666, "bike_id": "fd2c278c3ecdb88ac216c87f8f2da592", "fusion_lat": 0.0, "name": "fd2c278c3ecdb88ac216c87f8f2da592", "is_reserved": 0, "rental_uris": {"android": "https://dc.lft.to/lastmile_qr_scan", "ios": "https://dc.lft.to/lastmile_qr_scan"}, "fusion_lon": 0.0}, {"lat": 38.93071533333333, "is_disabled": 0, "type": "electric_scooter", "lon": -77.07769616666667, "bike_id": "b64d42173ccd93b4e99d108e1da8051e", "fusion_lat": 0.0, "name": "b64d42173ccd93b4e99d108e1da8051e", "is_reserved": 0, "rental_uris": {"android": "https://dc.lft.to/lastmile_qr_scan", "ios": "https://dc.lft.to/lastmile_qr_scan"}, "fusion_lon": 0.0}, {"lat": 38.90843316666667, "is_disabled": 0, "type": "electric_bike", "lon": -77.04019933333333, "bike_id": "7d9d14b9fe5be09a15cba068d89bc421", "fusion_lat": 0.0, "name": "7d9d14b9fe5be09a15cba068d89bc421", "is_reserved": 0, "rental_uris": {"android": "https://dc.lft.to/lastmile_qr_scan", "ios": "https://dc.lft.to/lastmile_qr_scan"}, "fusion_lon": 0.0}, {"lat": 38.9174315, "is_disabled": 0, "type": "electric_scooter", "lon": -77.03180916666666, "bike_id": "6a898f0ff95b188a92529e53f494862b", "fusion_lat": 0.0, "name": "6a898f0ff95b188a92529e53f494862b", "is_reserved": 0, "rental_uris": {"android": "https://dc.lft.to/lastmile_qr_scan", "ios": "https://dc.lft.to/lastmile_qr_scan"}, "fusion_lon": 0.0}, {"lat": 38.900267666666664, "is_disabled": 0, "type": "electric_scooter", "lon": -76.9836625, "bike_id": "f8e31066b094d3ec5f1cdf8ebf81c389", "fusion_lat": 0.0, "name": "f8e31066b094d3ec5f1cdf8ebf81c389", "is_reserved": 0, "rental_uris": {"android": "https://dc.lft.to/lastmile_qr_scan", "ios": "https://dc.lft.to/lastmile_qr_scan"}, "fusion_lon": 0.0}, {"lat": 38.917788, "is_disabled": 0, "type": "electric_scooter", "lon": -77.022268, "bike_id": "96ec81c6ce43f843f852650ee07528ee", "fusion_lat": 0.0, "name": "96ec81c6ce43f843f852650ee07528ee", "is_reserved": 0, "rental_uris": {"android": "https://dc.lft.to/lastmile_qr_scan", "ios": "https://dc.lft.to/lastmile_qr_scan"}, "fusion_lon": 0.0}, {"lat": 38.9094445, "is_disabled": 0, "type": "electric_scooter", "lon": -77.044104, "bike_id": "09611f4366eaf1f315a55f7047f37ea2", "fusion_lat": 0.0, "name": "09611f4366eaf1f315a55f7047f37ea2", "is_reserved": 0, "rental_uris": {"android": "https://dc.lft.to/lastmile_qr_scan", "ios": "https://dc.lft.to/lastmile_qr_scan"}, "fusion_lon": 0.0}, {"lat": 38.918223833333336, "is_disabled": 0, "type": "electric_scooter", "lon": -77.031694, "bike_id": "446d7c12983b166ae1057e755622dcdf", "fusion_lat": 0.0, "name": "446d7c12983b166ae1057e755622dcdf", "is_reserved": 0, "rental_uris": {"android": "https://dc.lft.to/lastmile_qr_scan", "ios": "https://dc.lft.to/lastmile_qr_scan"}, "fusion_lon": 0.0}, {"lat": 38.93424016666667, "is_disabled": 0, "type": "electric_scooter", "lon": -76.99346383333334, "bike_id": "658db3a23a53efcc48ce24be2adb1d05", "fusion_lat": 0.0, "name": "658db3a23a53efcc48ce24be2adb1d05", "is_reserved": 0, "rental_uris": {"android": "https://dc.lft.to/lastmile_qr_scan", "ios": "https://dc.lft.to/lastmile_qr_scan"}, "fusion_lon": 0.0}, {"lat": 38.918203, "is_disabled": 0, "type": "electric_scooter", "lon": -77.03445433333333, "bike_id": "bb8bc0cd2b935f3206d56ed50dfe66d4", "fusion_lat": 0.0, "name": "bb8bc0cd2b935f3206d56ed50dfe66d4", "is_reserved": 0, "rental_uris": {"android": "https://dc.lft.to/lastmile_qr_scan", "ios": "https://dc.lft.to/lastmile_qr_scan"}, "fusion_lon": 0.0}, {"lat": 38.917862, "is_disabled": 0, "type": "electric_scooter", "lon": -77.02602983333334, "bike_id": "96498c76aa16416c675b80f22716f3ee", "fusion_lat": 0.0, "name": "96498c76aa16416c675b80f22716f3ee", "is_reserved": 0, "rental_uris": {"android": "https://dc.lft.to/lastmile_qr_scan", "ios": "https://dc.lft.to/lastmile_qr_scan"}, "fusion_lon": 0.0}, {"lat": 38.89227966666667, "is_disabled": 0, "type": "electric_scooter", "lon": -77.02831133333333, "bike_id": "8663d18a1f1aa51b0465b28589943f4d", "fusion_lat": 0.0, "name": "8663d18a1f1aa51b0465b28589943f4d", "is_reserved": 0, "rental_uris": {"android": "https://dc.lft.to/lastmile_qr_scan", "ios": "https://dc.lft.to/lastmile_qr_scan"}, "fusion_lon": 0.0}, {"lat": 38.960695333333334, "is_disabled": 0, "type": "electric_scooter", "lon": -77.072979, "bike_id": "a32d575555185959ea396d860d8cff96", "fusion_lat": 0.0, "name": "a32d575555185959ea396d860d8cff96", "is_reserved": 0, "rental_uris": {"android": "https://dc.lft.to/lastmile_qr_scan", "ios": "https://dc.lft.to/lastmile_qr_scan"}, "fusion_lon": 0.0}, {"lat": 38.90363833333333, "is_disabled": 0, "type": "electric_scooter", "lon": -76.97653, "bike_id": "fec4f451e0a3e628abb39fbb4f15f407", "fusion_lat": 0.0, "name": "fec4f451e0a3e628abb39fbb4f15f407", "is_reserved": 0, "rental_uris": {"android": "https://dc.lft.to/lastmile_qr_scan", "ios": "https://dc.lft.to/lastmile_qr_scan"}, "fusion_lon": 0.0}, {"lat": 38.921184, "is_disabled": 0, "type": "electric_scooter", "lon": -77.04347466666667, "bike_id": "591afc908d5affe4a06558af48e92906", "fusion_lat": 0.0, "name": "591afc908d5affe4a06558af48e92906", "is_reserved": 0, "rental_uris": {"android": "https://dc.lft.to/lastmile_qr_scan", "ios": "https://dc.lft.to/lastmile_qr_scan"}, "fusion_lon": 0.0}, {"lat": 38.9260215, "is_disabled": 0, "type": "electric_scooter", "lon": -77.02492683333334, "bike_id": "993d89bfc1f173b3e80d4b8b515d5eab", "fusion_lat": 0.0, "name": "993d89bfc1f173b3e80d4b8b515d5eab", "is_reserved": 0, "rental_uris": {"android": "https://dc.lft.to/lastmile_qr_scan", "ios": "https://dc.lft.to/lastmile_qr_scan"}, "fusion_lon": 0.0}, {"lat": 38.914815, "is_disabled": 0, "type": "electric_scooter", "lon": -77.0321235, "bike_id": "29d586096c1e117ea0836ff3d53015f3", "fusion_lat": 0.0, "name": "29d586096c1e117ea0836ff3d53015f3", "is_reserved": 0, "rental_uris": {"android": "https://dc.lft.to/lastmile_qr_scan", "ios": "https://dc.lft.to/lastmile_qr_scan"}, "fusion_lon": 0.0}, {"lat": 38.90063416666667, "is_disabled": 0, "type": "electric_scooter", "lon": -77.04533933333333, "bike_id": "d24eff773924255499d7591b39298819", "fusion_lat": 0.0, "name": "d24eff773924255499d7591b39298819", "is_reserved": 0, "rental_uris": {"android": "https://dc.lft.to/lastmile_qr_scan", "ios": "https://dc.lft.to/lastmile_qr_scan"}, "fusion_lon": 0.0}, {"lat": 38.8747085, "is_disabled": 0, "type": "electric_scooter", "lon": -77.00516966666666, "bike_id": "212c03483ee6f1ecc89169bd47aa5fcc", "fusion_lat": 0.0, "name": "212c03483ee6f1ecc89169bd47aa5fcc", "is_reserved": 0, "rental_uris": {"android": "https://dc.lft.to/lastmile_qr_scan", "ios": "https://dc.lft.to/lastmile_qr_scan"}, "fusion_lon": 0.0}, {"lat": 38.88655083333333, "is_disabled": 0, "type": "electric_bike", "lon": -77.03387383333333, "bike_id": "e0d566215316867f2c39c2c2c4a2e499", "fusion_lat": 0.0, "name": "e0d566215316867f2c39c2c2c4a2e499", "is_reserved": 0, "rental_uris": {"android": "https://dc.lft.to/lastmile_qr_scan", "ios": "https://dc.lft.to/lastmile_qr_scan"}, "fusion_lon": 0.0}, {"lat": 38.9211325, "is_disabled": 0, "type": "electric_scooter", "lon": -77.03178083333333, "bike_id": "55099b7e52fe4e3703034a8fd6778a13", "fusion_lat": 0.0, "name": "55099b7e52fe4e3703034a8fd6778a13", "is_reserved": 0, "rental_uris": {"android": "https://dc.lft.to/lastmile_qr_scan", "ios": "https://dc.lft.to/lastmile_qr_scan"}, "fusion_lon": 0.0}, {"lat": 38.92661533333333, "is_disabled": 0, "type": "electric_scooter", "lon": -77.05592283333333, "bike_id": "2005641498d5122eddbaceeb07bab930", "fusion_lat": 0.0, "name": "2005641498d5122eddbaceeb07bab930", "is_reserved": 0, "rental_uris": {"android": "https://dc.lft.to/lastmile_qr_scan", "ios": "https://dc.lft.to/lastmile_qr_scan"}, "fusion_lon": 0.0}, {"lat": 38.8955045, "is_disabled": 0, "type": "electric_scooter", "lon": -76.93361683333333, "bike_id": "0036af1b747b9fdd2667559cc575e187", "fusion_lat": 0.0, "name": "0036af1b747b9fdd2667559cc575e187", "is_reserved": 0, "rental_uris": {"android": "https://dc.lft.to/lastmile_qr_scan", "ios": "https://dc.lft.to/lastmile_qr_scan"}, "fusion_lon": 0.0}, {"lat": 38.91242716666667, "is_disabled": 0, "type": "electric_scooter", "lon": -77.04664466666667, "bike_id": "1bc360717677deccceebf65deb657b2b", "fusion_lat": 0.0, "name": "1bc360717677deccceebf65deb657b2b", "is_reserved": 0, "rental_uris": {"android": "https://dc.lft.to/lastmile_qr_scan", "ios": "https://dc.lft.to/lastmile_qr_scan"}, "fusion_lon": 0.0}, {"lat": 38.9010305, "is_disabled": 0, "type": "electric_scooter", "lon": -77.05897116666667, "bike_id": "bbe3d6b47b671ba4cc4ee2dacbde4bda", "fusion_lat": 0.0, "name": "bbe3d6b47b671ba4cc4ee2dacbde4bda", "is_reserved": 0, "rental_uris": {"android": "https://dc.lft.to/lastmile_qr_scan", "ios": "https://dc.lft.to/lastmile_qr_scan"}, "fusion_lon": 0.0}, {"lat": 38.93296566666667, "is_disabled": 0, "type": "electric_scooter", "lon": -77.021973, "bike_id": "d877b09cdffced8d4c7594236d1b0124", "fusion_lat": 0.0, "name": "d877b09cdffced8d4c7594236d1b0124", "is_reserved": 0, "rental_uris": {"android": "https://dc.lft.to/lastmile_qr_scan", "ios": "https://dc.lft.to/lastmile_qr_scan"}, "fusion_lon": 0.0}, {"lat": 38.903394, "is_disabled": 0, "type": "electric_scooter", "lon": -77.04477233333333, "bike_id": "75e27fa118d1177bf197c26bb4d9f7a0", "fusion_lat": 0.0, "name": "75e27fa118d1177bf197c26bb4d9f7a0", "is_reserved": 0, "rental_uris": {"android": "https://dc.lft.to/lastmile_qr_scan", "ios": "https://dc.lft.to/lastmile_qr_scan"}, "fusion_lon": 0.0}, {"lat": 38.922996833333336, "is_disabled": 0, "type": "electric_scooter", "lon": -77.02333216666666, "bike_id": "a7f2c98d2f64d914151bad57c1a33996", "fusion_lat": 0.0, "name": "a7f2c98d2f64d914151bad57c1a33996", "is_reserved": 0, "rental_uris": {"android": "https://dc.lft.to/lastmile_qr_scan", "ios": "https://dc.lft.to/lastmile_qr_scan"}, "fusion_lon": 0.0}, {"lat": 38.9027005, "is_disabled": 0, "type": "electric_scooter", "lon": -77.03221483333333, "bike_id": "503ad0c12698c71665f1c7284b7a1380", "fusion_lat": 0.0, "name": "503ad0c12698c71665f1c7284b7a1380", "is_reserved": 0, "rental_uris": {"android": "https://dc.lft.to/lastmile_qr_scan", "ios": "https://dc.lft.to/lastmile_qr_scan"}, "fusion_lon": 0.0}, {"lat": 38.89893883333333, "is_disabled": 0, "type": "electric_scooter", "lon": -77.07232983333333, "bike_id": "2e9693b9207e2d868354249be214bbeb", "fusion_lat": 0.0, "name": "2e9693b9207e2d868354249be214bbeb", "is_reserved": 0, "rental_uris": {"android": "https://dc.lft.to/lastmile_qr_scan", "ios": "https://dc.lft.to/lastmile_qr_scan"}, "fusion_lon": 0.0}, {"lat": 38.939796666666666, "is_disabled": 0, "type": "electric_scooter", "lon": -77.026304, "bike_id": "d73053347f9cede86559ba152421ea31", "fusion_lat": 0.0, "name": "d73053347f9cede86559ba152421ea31", "is_reserved": 0, "rental_uris": {"android": "https://dc.lft.to/lastmile_qr_scan", "ios": "https://dc.lft.to/lastmile_qr_scan"}, "fusion_lon": 0.0}, {"lat": 38.887358166666665, "is_disabled": 0, "type": "electric_scooter", "lon": -77.03210283333334, "bike_id": "6afcfdbfbf06fdf6e1f7c38d8762ac96", "fusion_lat": 0.0, "name": "6afcfdbfbf06fdf6e1f7c38d8762ac96", "is_reserved": 0, "rental_uris": {"android": "https://dc.lft.to/lastmile_qr_scan", "ios": "https://dc.lft.to/lastmile_qr_scan"}, "fusion_lon": 0.0}, {"lat": 38.900659833333336, "is_disabled": 0, "type": "electric_scooter", "lon": -77.002067, "bike_id": "6796cd7a0146baedb238409ed0c836e7", "fusion_lat": 0.0, "name": "6796cd7a0146baedb238409ed0c836e7", "is_reserved": 0, "rental_uris": {"android": "https://dc.lft.to/lastmile_qr_scan", "ios": "https://dc.lft.to/lastmile_qr_scan"}, "fusion_lon": 0.0}, {"lat": 38.91772433333333, "is_disabled": 0, "type": "electric_scooter", "lon": -77.038476, "bike_id": "e5df82812ec3ee5741a060f77727c5b1", "fusion_lat": 0.0, "name": "e5df82812ec3ee5741a060f77727c5b1", "is_reserved": 0, "rental_uris": {"android": "https://dc.lft.to/lastmile_qr_scan", "ios": "https://dc.lft.to/lastmile_qr_scan"}, "fusion_lon": 0.0}, {"lat": 38.9167475, "is_disabled": 0, "type": "electric_scooter", "lon": -77.02716766666667, "bike_id": "045758d62664c966e81037c71dc74bf9", "fusion_lat": 0.0, "name": "045758d62664c966e81037c71dc74bf9", "is_reserved": 0, "rental_uris": {"android": "https://dc.lft.to/lastmile_qr_scan", "ios": "https://dc.lft.to/lastmile_qr_scan"}, "fusion_lon": 0.0}, {"lat": 38.898197833333334, "is_disabled": 0, "type": "electric_scooter", "lon": -77.03245083333333, "bike_id": "ecb3e775bb0f229ce910ebde64fd983b", "fusion_lat": 0.0, "name": "ecb3e775bb0f229ce910ebde64fd983b", "is_reserved": 0, "rental_uris": {"android": "https://dc.lft.to/lastmile_qr_scan", "ios": "https://dc.lft.to/lastmile_qr_scan"}, "fusion_lon": 0.0}, {"lat": 38.90088883333333, "is_disabled": 0, "type": "electric_scooter", "lon": -77.01217983333333, "bike_id": "9615b094873e61d328a220314fb6cdda", "fusion_lat": 0.0, "name": "9615b094873e61d328a220314fb6cdda", "is_reserved": 0, "rental_uris": {"android": "https://dc.lft.to/lastmile_qr_scan", "ios": "https://dc.lft.to/lastmile_qr_scan"}, "fusion_lon": 0.0}, {"lat": 38.90279133333333, "is_disabled": 0, "type": "electric_scooter", "lon": -77.038277, "bike_id": "fd71b5d14f166fe405a439c06fdff177", "fusion_lat": 0.0, "name": "fd71b5d14f166fe405a439c06fdff177", "is_reserved": 0, "rental_uris": {"android": "https://dc.lft.to/lastmile_qr_scan", "ios": "https://dc.lft.to/lastmile_qr_scan"}, "fusion_lon": 0.0}, {"lat": 38.906454, "is_disabled": 0, "type": "electric_scooter", "lon": -77.02961766666667, "bike_id": "160381b91e86ac053334934f8dd004e2", "fusion_lat": 0.0, "name": "160381b91e86ac053334934f8dd004e2", "is_reserved": 0, "rental_uris": {"android": "https://dc.lft.to/lastmile_qr_scan", "ios": "https://dc.lft.to/lastmile_qr_scan"}, "fusion_lon": 0.0}, {"lat": 38.90223483333333, "is_disabled": 0, "type": "electric_scooter", "lon": -77.02376233333334, "bike_id": "df4b346253391e543a7c5bcc07241723", "fusion_lat": 0.0, "name": "df4b346253391e543a7c5bcc07241723", "is_reserved": 0, "rental_uris": {"android": "https://dc.lft.to/lastmile_qr_scan", "ios": "https://dc.lft.to/lastmile_qr_scan"}, "fusion_lon": 0.0}, {"lat": 39.05202366666666, "is_disabled": 0, "type": "electric_bike", "lon": -77.10912833333333, "bike_id": "837fdfd17b03da02a8799d0644438f9a", "fusion_lat": 0.0, "name": "837fdfd17b03da02a8799d0644438f9a", "is_reserved": 0, "rental_uris": {"android": "https://dc.lft.to/lastmile_qr_scan", "ios": "https://dc.lft.to/lastmile_qr_scan"}, "fusion_lon": 0.0}, {"lat": 38.899673166666666, "is_disabled": 0, "type": "electric_scooter", "lon": -76.92655533333334, "bike_id": "92f6ec65834479e10778aed306a3a09d", "fusion_lat": 0.0, "name": "92f6ec65834479e10778aed306a3a09d", "is_reserved": 0, "rental_uris": {"android": "https://dc.lft.to/lastmile_qr_scan", "ios": "https://dc.lft.to/lastmile_qr_scan"}, "fusion_lon": 0.0}, {"lat": 38.9507365, "is_disabled": 0, "type": "electric_scooter", "lon": -77.02716683333334, "bike_id": "a8fb9c0f1951723027ad8caf6cd5f11a", "fusion_lat": 0.0, "name": "a8fb9c0f1951723027ad8caf6cd5f11a", "is_reserved": 0, "rental_uris": {"android": "https://dc.lft.to/lastmile_qr_scan", "ios": "https://dc.lft.to/lastmile_qr_scan"}, "fusion_lon": 0.0}, {"lat": 38.92664333333333, "is_disabled": 0, "type": "electric_scooter", "lon": -77.01468316666667, "bike_id": "aa3671db26a94129128a76ceadda35da", "fusion_lat": 0.0, "name": "aa3671db26a94129128a76ceadda35da", "is_reserved": 0, "rental_uris": {"android": "https://dc.lft.to/lastmile_qr_scan", "ios": "https://dc.lft.to/lastmile_qr_scan"}, "fusion_lon": 0.0}, {"lat": 38.92577033333333, "is_disabled": 0, "type": "electric_scooter", "lon": -77.0576005, "bike_id": "198c6b6735da88492c5deb74ecc4df7b", "fusion_lat": 0.0, "name": "198c6b6735da88492c5deb74ecc4df7b", "is_reserved": 0, "rental_uris": {"android": "https://dc.lft.to/lastmile_qr_scan", "ios": "https://dc.lft.to/lastmile_qr_scan"}, "fusion_lon": 0.0}, {"lat": 38.918344833333336, "is_disabled": 0, "type": "electric_scooter", "lon": -77.03513166666667, "bike_id": "88f7eba5c8132f575bbd982b05670910", "fusion_lat": 0.0, "name": "88f7eba5c8132f575bbd982b05670910", "is_reserved": 0, "rental_uris": {"android": "https://dc.lft.to/lastmile_qr_scan", "ios": "https://dc.lft.to/lastmile_qr_scan"}, "fusion_lon": 0.0}, {"lat": 38.8865665, "is_disabled": 0, "type": "electric_scooter", "lon": -77.02179783333334, "bike_id": "e3e7acd381e1c0bf8e6987471036383d", "fusion_lat": 0.0, "name": "e3e7acd381e1c0bf8e6987471036383d", "is_reserved": 0, "rental_uris": {"android": "https://dc.lft.to/lastmile_qr_scan", "ios": "https://dc.lft.to/lastmile_qr_scan"}, "fusion_lon": 0.0}, {"lat": 38.895103666666664, "is_disabled": 0, "type": "electric_scooter", "lon": -77.007341, "bike_id": "e0ead1f4da39f31430b456c7ae00225d", "fusion_lat": 0.0, "name": "e0ead1f4da39f31430b456c7ae00225d", "is_reserved": 0, "rental_uris": {"android": "https://dc.lft.to/lastmile_qr_scan", "ios": "https://dc.lft.to/lastmile_qr_scan"}, "fusion_lon": 0.0}, {"lat": 38.915586166666664, "is_disabled": 0, "type": "electric_scooter", "lon": -77.0366945, "bike_id": "b67f405e5dbe2c87ab33184df277d50a", "fusion_lat": 0.0, "name": "b67f405e5dbe2c87ab33184df277d50a", "is_reserved": 0, "rental_uris": {"android": "https://dc.lft.to/lastmile_qr_scan", "ios": "https://dc.lft.to/lastmile_qr_scan"}, "fusion_lon": 0.0}, {"lat": 38.913021666666666, "is_disabled": 0, "type": "electric_scooter", "lon": -77.01951683333333, "bike_id": "f478347af955dbc520f3948ebbfd9f5b", "fusion_lat": 0.0, "name": "f478347af955dbc520f3948ebbfd9f5b", "is_reserved": 0, "rental_uris": {"android": "https://dc.lft.to/lastmile_qr_scan", "ios": "https://dc.lft.to/lastmile_qr_scan"}, "fusion_lon": 0.0}, {"lat": 38.912457, "is_disabled": 0, "type": "electric_scooter", "lon": -77.019953, "bike_id": "3b3c854f04a8529eadff978447621e7d", "fusion_lat": 0.0, "name": "3b3c854f04a8529eadff978447621e7d", "is_reserved": 0, "rental_uris": {"android": "https://dc.lft.to/lastmile_qr_scan", "ios": "https://dc.lft.to/lastmile_qr_scan"}, "fusion_lon": 0.0}, {"lat": 38.909906666666664, "is_disabled": 0, "type": "electric_scooter", "lon": -77.03183816666666, "bike_id": "764e9d93b6afe3510237966ecb3ab689", "fusion_lat": 0.0, "name": "764e9d93b6afe3510237966ecb3ab689", "is_reserved": 0, "rental_uris": {"android": "https://dc.lft.to/lastmile_qr_scan", "ios": "https://dc.lft.to/lastmile_qr_scan"}, "fusion_lon": 0.0}, {"lat": 38.805727, "is_disabled": 0, "type": "electric_bike", "lon": -77.0685815, "bike_id": "b6c12c955effde5b4a7d9c83f7a7e057", "fusion_lat": 0.0, "name": "b6c12c955effde5b4a7d9c83f7a7e057", "is_reserved": 0, "rental_uris": {"android": "https://dc.lft.to/lastmile_qr_scan", "ios": "https://dc.lft.to/lastmile_qr_scan"}, "fusion_lon": 0.0}, {"lat": 38.98504483333333, "is_disabled": 0, "type": "electric_bike", "lon": -76.98204416666667, "bike_id": "a8dcba47889c1a016f61f1e1e2cdbc5a", "fusion_lat": 0.0, "name": "a8dcba47889c1a016f61f1e1e2cdbc5a", "is_reserved": 0, "rental_uris": {"android": "https://dc.lft.to/lastmile_qr_scan", "ios": "https://dc.lft.to/lastmile_qr_scan"}, "fusion_lon": 0.0}, {"lat": 38.91982433333333, "is_disabled": 0, "type": "electric_scooter", "lon": -77.02529416666667, "bike_id": "c8937db1765898c0069ffac040167d79", "fusion_lat": 0.0, "name": "c8937db1765898c0069ffac040167d79", "is_reserved": 0, "rental_uris": {"android": "https://dc.lft.to/lastmile_qr_scan", "ios": "https://dc.lft.to/lastmile_qr_scan"}, "fusion_lon": 0.0}, {"lat": 38.90018366666666, "is_disabled": 0, "type": "electric_scooter", "lon": -77.041694, "bike_id": "bd34d1a3d17804a299f23799692a73d6", "fusion_lat": 0.0, "name": "bd34d1a3d17804a299f23799692a73d6", "is_reserved": 0, "rental_uris": {"android": "https://dc.lft.to/lastmile_qr_scan", "ios": "https://dc.lft.to/lastmile_qr_scan"}, "fusion_lon": 0.0}, {"lat": 38.88828083333333, "is_disabled": 0, "type": "electric_scooter", "lon": -76.99413266666667, "bike_id": "84b9195f086910fe9871573cd4b8f7d0", "fusion_lat": 0.0, "name": "84b9195f086910fe9871573cd4b8f7d0", "is_reserved": 0, "rental_uris": {"android": "https://dc.lft.to/lastmile_qr_scan", "ios": "https://dc.lft.to/lastmile_qr_scan"}, "fusion_lon": 0.0}, {"lat": 38.91742083333333, "is_disabled": 0, "type": "electric_scooter", "lon": -77.03199133333334, "bike_id": "10d7c8097021c0179ed22e6221e34764", "fusion_lat": 0.0, "name": "10d7c8097021c0179ed22e6221e34764", "is_reserved": 0, "rental_uris": {"android": "https://dc.lft.to/lastmile_qr_scan", "ios": "https://dc.lft.to/lastmile_qr_scan"}, "fusion_lon": 0.0}, {"lat": 38.895464833333335, "is_disabled": 0, "type": "electric_scooter", "lon": -77.02278966666667, "bike_id": "aaf1913eb315d3451bd9316caedbba23", "fusion_lat": 0.0, "name": "aaf1913eb315d3451bd9316caedbba23", "is_reserved": 0, "rental_uris": {"android": "https://dc.lft.to/lastmile_qr_scan", "ios": "https://dc.lft.to/lastmile_qr_scan"}, "fusion_lon": 0.0}, {"lat": 38.914097, "is_disabled": 0, "type": "electric_scooter", "lon": -77.045021, "bike_id": "1f1483024209c4650f8f6137d835f856", "fusion_lat": 0.0, "name": "1f1483024209c4650f8f6137d835f856", "is_reserved": 0, "rental_uris": {"android": "https://dc.lft.to/lastmile_qr_scan", "ios": "https://dc.lft.to/lastmile_qr_scan"}, "fusion_lon": 0.0}, {"lat": 38.98271733333333, "is_disabled": 0, "type": "electric_bike", "lon": -77.01767583333333, "bike_id": "7d989ca3e68213a63e67eba28b87ff54", "fusion_lat": 0.0, "name": "7d989ca3e68213a63e67eba28b87ff54", "is_reserved": 0, "rental_uris": {"android": "https://dc.lft.to/lastmile_qr_scan", "ios": "https://dc.lft.to/lastmile_qr_scan"}, "fusion_lon": 0.0}, {"lat": 38.922948, "is_disabled": 0, "type": "electric_scooter", "lon": -77.04717333333333, "bike_id": "7b0aeac028ee90956d84b1e86ca1ac84", "fusion_lat": 0.0, "name": "7b0aeac028ee90956d84b1e86ca1ac84", "is_reserved": 0, "rental_uris": {"android": "https://dc.lft.to/lastmile_qr_scan", "ios": "https://dc.lft.to/lastmile_qr_scan"}, "fusion_lon": 0.0}, {"lat": 38.93078033333333, "is_disabled": 0, "type": "electric_scooter", "lon": -77.034138, "bike_id": "f528234056fceafccb5b8f11485b75e4", "fusion_lat": 0.0, "name": "f528234056fceafccb5b8f11485b75e4", "is_reserved": 0, "rental_uris": {"android": "https://dc.lft.to/lastmile_qr_scan", "ios": "https://dc.lft.to/lastmile_qr_scan"}, "fusion_lon": 0.0}, {"lat": 38.920157833333334, "is_disabled": 0, "type": "electric_scooter", "lon": -77.01957833333333, "bike_id": "cd34092f8e966dae272f88441d2ed3d9", "fusion_lat": 0.0, "name": "cd34092f8e966dae272f88441d2ed3d9", "is_reserved": 0, "rental_uris": {"android": "https://dc.lft.to/lastmile_qr_scan", "ios": "https://dc.lft.to/lastmile_qr_scan"}, "fusion_lon": 0.0}, {"lat": 38.946282333333336, "is_disabled": 0, "type": "electric_scooter", "lon": -77.025232, "bike_id": "1d0e8e0ba7d739241e5f5439094fa39a", "fusion_lat": 0.0, "name": "1d0e8e0ba7d739241e5f5439094fa39a", "is_reserved": 0, "rental_uris": {"android": "https://dc.lft.to/lastmile_qr_scan", "ios": "https://dc.lft.to/lastmile_qr_scan"}, "fusion_lon": 0.0}, {"lat": 38.901479, "is_disabled": 0, "type": "electric_scooter", "lon": -77.0007065, "bike_id": "0613f1039fb44450d4f56adf66a6aa6f", "fusion_lat": 0.0, "name": "0613f1039fb44450d4f56adf66a6aa6f", "is_reserved": 0, "rental_uris": {"android": "https://dc.lft.to/lastmile_qr_scan", "ios": "https://dc.lft.to/lastmile_qr_scan"}, "fusion_lon": 0.0}, {"lat": 38.902722, "is_disabled": 0, "type": "electric_scooter", "lon": -77.06231283333334, "bike_id": "3e9088eac316903c3f56fc70532bd9c7", "fusion_lat": 0.0, "name": "3e9088eac316903c3f56fc70532bd9c7", "is_reserved": 0, "rental_uris": {"android": "https://dc.lft.to/lastmile_qr_scan", "ios": "https://dc.lft.to/lastmile_qr_scan"}, "fusion_lon": 0.0}, {"lat": 38.9119175, "is_disabled": 0, "type": "electric_scooter", "lon": -77.0445, "bike_id": "c843f83db2ce4eb3f47abffc95e9ffac", "fusion_lat": 0.0, "name": "c843f83db2ce4eb3f47abffc95e9ffac", "is_reserved": 0, "rental_uris": {"android": "https://dc.lft.to/lastmile_qr_scan", "ios": "https://dc.lft.to/lastmile_qr_scan"}, "fusion_lon": 0.0}, {"lat": 38.9261145, "is_disabled": 0, "type": "electric_scooter", "lon": -77.02158666666666, "bike_id": "75bd9f04b763b5861353cdcd40f2b397", "fusion_lat": 0.0, "name": "75bd9f04b763b5861353cdcd40f2b397", "is_reserved": 0, "rental_uris": {"android": "https://dc.lft.to/lastmile_qr_scan", "ios": "https://dc.lft.to/lastmile_qr_scan"}, "fusion_lon": 0.0}, {"lat": 38.91805766666667, "is_disabled": 0, "type": "electric_scooter", "lon": -77.02694233333334, "bike_id": "f2ccb926e77cf17532417ac8b19bfd2b", "fusion_lat": 0.0, "name": "f2ccb926e77cf17532417ac8b19bfd2b", "is_reserved": 0, "rental_uris": {"android": "https://dc.lft.to/lastmile_qr_scan", "ios": "https://dc.lft.to/lastmile_qr_scan"}, "fusion_lon": 0.0}, {"lat": 38.917040166666666, "is_disabled": 0, "type": "electric_scooter", "lon": -77.04034716666666, "bike_id": "57ff3bb0f20bc4e15e17204de953d8a5", "fusion_lat": 0.0, "name": "57ff3bb0f20bc4e15e17204de953d8a5", "is_reserved": 0, "rental_uris": {"android": "https://dc.lft.to/lastmile_qr_scan", "ios": "https://dc.lft.to/lastmile_qr_scan"}, "fusion_lon": 0.0}, {"lat": 38.90529016666667, "is_disabled": 0, "type": "electric_scooter", "lon": -77.051451, "bike_id": "325ce2b090b0cbffa0651526b174a948", "fusion_lat": 0.0, "name": "325ce2b090b0cbffa0651526b174a948", "is_reserved": 0, "rental_uris": {"android": "https://dc.lft.to/lastmile_qr_scan", "ios": "https://dc.lft.to/lastmile_qr_scan"}, "fusion_lon": 0.0}, {"lat": 38.90419933333333, "is_disabled": 0, "type": "electric_scooter", "lon": -77.018301, "bike_id": "6b392707d0943ee5a3cf0d14057a2f7a", "fusion_lat": 0.0, "name": "6b392707d0943ee5a3cf0d14057a2f7a", "is_reserved": 0, "rental_uris": {"android": "https://dc.lft.to/lastmile_qr_scan", "ios": "https://dc.lft.to/lastmile_qr_scan"}, "fusion_lon": 0.0}, {"lat": 38.89606083333334, "is_disabled": 0, "type": "electric_scooter", "lon": -77.05466483333333, "bike_id": "4dcb90cb759de3aa4f09ca8e76eecb0e", "fusion_lat": 0.0, "name": "4dcb90cb759de3aa4f09ca8e76eecb0e", "is_reserved": 0, "rental_uris": {"android": "https://dc.lft.to/lastmile_qr_scan", "ios": "https://dc.lft.to/lastmile_qr_scan"}, "fusion_lon": 0.0}, {"lat": 38.900108, "is_disabled": 0, "type": "electric_scooter", "lon": -77.011984, "bike_id": "336a27f551fa41e5c5d2d272299253ef", "fusion_lat": 0.0, "name": "336a27f551fa41e5c5d2d272299253ef", "is_reserved": 0, "rental_uris": {"android": "https://dc.lft.to/lastmile_qr_scan", "ios": "https://dc.lft.to/lastmile_qr_scan"}, "fusion_lon": 0.0}, {"lat": 38.91692, "is_disabled": 0, "type": "electric_scooter", "lon": -77.03768183333334, "bike_id": "9f296d094968cf690a3e89a67d57e742", "fusion_lat": 0.0, "name": "9f296d094968cf690a3e89a67d57e742", "is_reserved": 0, "rental_uris": {"android": "https://dc.lft.to/lastmile_qr_scan", "ios": "https://dc.lft.to/lastmile_qr_scan"}, "fusion_lon": 0.0}, {"lat": 38.9331285, "is_disabled": 0, "type": "electric_scooter", "lon": -77.04518683333333, "bike_id": "cd53cd59f90d7d8f50be66223a8ab585", "fusion_lat": 0.0, "name": "cd53cd59f90d7d8f50be66223a8ab585", "is_reserved": 0, "rental_uris": {"android": "https://dc.lft.to/lastmile_qr_scan", "ios": "https://dc.lft.to/lastmile_qr_scan"}, "fusion_lon": 0.0}, {"lat": 38.892401, "is_disabled": 0, "type": "electric_scooter", "lon": -77.02611916666666, "bike_id": "853dff8f50ae4b232f3e6d13aacdc73e", "fusion_lat": 0.0, "name": "853dff8f50ae4b232f3e6d13aacdc73e", "is_reserved": 0, "rental_uris": {"android": "https://dc.lft.to/lastmile_qr_scan", "ios": "https://dc.lft.to/lastmile_qr_scan"}, "fusion_lon": 0.0},