{"data": {"bikes": [{"lon": -77.02326166666667, "bike_id": "d116481b480f5b540a68bd7da90dbe80", "lat": 38.93529316666667, "fusion_lon": 0.0, "fusion_lat": 0.0, "type": "electric_scooter", "name": "d116481b480f5b540a68bd7da90dbe80", "is_disabled": 0, "rental_uris": {"ios": "https://dc.lft.to/lastmile_qr_scan", "android": "https://dc.lft.to/lastmile_qr_scan"}, "is_reserved": 0}, {"lon": -77.02212116666666, "bike_id": "97e40dad436e48f866acedf25a1b6e1e", "lat": 38.91415283333333, "fusion_lon": 0.0, "fusion_lat": 0.0, "type": "electric_scooter", "name": "97e40dad436e48f866acedf25a1b6e1e", "is_disabled": 0, "rental_uris": {"ios": "https://dc.lft.to/lastmile_qr_scan", "android": "https://dc.lft.to/lastmile_qr_scan"}, "is_reserved": 0}, {"lon": -76.97558716666667, "bike_id": "b33ed46e1d686136d3c8dd5f3a38b4f3", "lat": 38.92455066666667, "fusion_lon": 0.0, "fusion_lat": 0.0, "type": "electric_bike", "name": "b33ed46e1d686136d3c8dd5f3a38b4f3", "is_disabled": 0, "rental_uris": {"ios": "https://dc.lft.to/lastmile_qr_scan", "android": "https://dc.lft.to/lastmile_qr_scan"}, "is_reserved": 0}, {"lon": -76.95002266666667, "bike_id": "4b53da0ef726a9f1c1fee21a643b2b8f", "lat": 38.8938375, "fusion_lon": 0.0, "fusion_lat": 0.0, "type": "electric_scooter", "name": "4b53da0ef726a9f1c1fee21a643b2b8f", "is_disabled": 0, "rental_uris": {"ios": "https://dc.lft.to/lastmile_qr_scan", "android": "https://dc.lft.to/lastmile_qr_scan"}, "is_reserved": 0}, {"lon": -77.03253283333333, "bike_id": "b10939a014301b17d3263e03fc90d35b", "lat": 38.931316333333335, "fusion_lon": 0.0, "fusion_lat": 0.0, "type": "electric_scooter", "name": "b10939a014301b17d3263e03fc90d35b", "is_disabled": 0, "rental_uris": {"ios": "https://dc.lft.to/lastmile_qr_scan", "android": "https://dc.lft.to/lastmile_qr_scan"}, "is_reserved": 0}, {"lon": -76.97859616666666, "bike_id": "4632628a51d6a421785c65b8473fcb7d", "lat": 38.907211, "fusion_lon": 0.0, "fusion_lat": 0.0, "type": "electric_scooter", "name": "4632628a51d6a421785c65b8473fcb7d", "is_disabled": 0, "rental_uris": {"ios": "https://dc.lft.to/lastmile_qr_scan", "android": "https://dc.lft.to/lastmile_qr_scan"}, "is_reserved": 0}, {"lon": -77.01096916666667, "bike_id": "a51c9d60fedf0a63486d41b98561f99e", "lat": 38.908384, "fusion_lon": 0.0, "fusion_lat": 0.0, "type": "electric_scooter", "name": "a51c9d60fedf0a63486d41b98561f99e", "is_disabled": 0, "rental_uris": {"ios": "https://dc.lft.to/lastmile_qr_scan", "android": "https://dc.lft.to/lastmile_qr_scan"}, "is_reserved": 0}, {"lon": -77.02088233333333, "bike_id": "1fc24abbe5e2ee80f6ef96322abe19ca", "lat": 38.92912233333333, "fusion_lon": 0.0, "fusion_lat": 0.0, "type": "electric_scooter", "name": "1fc24abbe5e2ee80f6ef96322abe19ca", "is_disabled": 0, "rental_uris": {"ios": "https://dc.lft.to/lastmile_qr_scan", "android": "https://dc.lft.to/lastmile_qr_scan"}, "is_reserved": 0}, {"lon": -77.0157135, "bike_id": "831ae347709d9587c0b705c043307768", "lat": 38.88295766666667, "fusion_lon": 0.0, "fusion_lat": 0.0, "type": "electric_scooter", "name": "831ae347709d9587c0b705c043307768", "is_disabled": 0, "rental_uris": {"ios": "https://dc.lft.to/lastmile_qr_scan", "android": "https://dc.lft.to/lastmile_qr_scan"}, "is_reserved": 0}, {"lon": -77.0326165, "bike_id": "2c18640833b81991333b4e6f8d9145c8", "lat": 38.9377375, "fusion_lon": 0.0, "fusion_lat": 0.0, "type": "electric_scooter", "name": "2c18640833b81991333b4e6f8d9145c8", "is_disabled": 0, "rental_uris": {"ios": "https://dc.lft.to/lastmile_qr_scan", "android": "https://dc.lft.to/lastmile_qr_scan"}, "is_reserved": 0}, {"lon": -76.99753683333333, "bike_id": "a415bd4dc0516922039389070ce957e2", "lat": 38.950095166666664, "fusion_lon": 0.0, "fusion_lat": 0.0, "type": "electric_bike", "name": "a415bd4dc0516922039389070ce957e2", "is_disabled": 0, "rental_uris": {"ios": "https://dc.lft.to/lastmile_qr_scan", "android": "https://dc.lft.to/lastmile_qr_scan"}, "is_reserved": 0}, {"lon": -77.06361133333333, "bike_id": "69ba7b13c0bdd7a76178b7d16c1bd6e9", "lat": 38.907869, "fusion_lon": 0.0, "fusion_lat": 0.0, "type": "electric_scooter", "name": "69ba7b13c0bdd7a76178b7d16c1bd6e9", "is_disabled": 0, "rental_uris": {"ios": "https://dc.lft.to/lastmile_qr_scan", "android": "https://dc.lft.to/lastmile_qr_scan"}, "is_reserved": 0}, {"lon": -76.93175666666667, "bike_id": "56458f66e24d0a5d096cbb07950c86b3", "lat": 38.89880733333333, "fusion_lon": 0.0, "fusion_lat": 0.0, "type": "electric_scooter", "name": "56458f66e24d0a5d096cbb07950c86b3", "is_disabled": 0, "rental_uris": {"ios": "https://dc.lft.to/lastmile_qr_scan", "android": "https://dc.lft.to/lastmile_qr_scan"}, "is_reserved": 0}, {"lon": -77.040531, "bike_id": "8edc9c8abdd370d15fa0af1216e36664", "lat": 38.8898495, "fusion_lon": 0.0, "fusion_lat": 0.0, "type": "electric_scooter", "name": "8edc9c8abdd370d15fa0af1216e36664", "is_disabled": 0, "rental_uris": {"ios": "https://dc.lft.to/lastmile_qr_scan", "android": "https://dc.lft.to/lastmile_qr_scan"}, "is_reserved": 0}, {"lon": -76.930168, "bike_id": "73666de7081209ac0546906cb148e6da", "lat": 38.896553, "fusion_lon": 0.0, "fusion_lat": 0.0, "type": "electric_bike", "name": "73666de7081209ac0546906cb148e6da", "is_disabled": 0, "rental_uris": {"ios": "https://dc.lft.to/lastmile_qr_scan", "android": "https://dc.lft.to/lastmile_qr_scan"}, "is_reserved": 0}, {"lon": -77.0342445, "bike_id": "ff118c30dea7c99138608972be584373", "lat": 38.93351966666667, "fusion_lon": 0.0, "fusion_lat": 0.0, "type": "electric_scooter", "name": "ff118c30dea7c99138608972be584373", "is_disabled": 0, "rental_uris": {"ios": "https://dc.lft.to/lastmile_qr_scan", "android": "https://dc.lft.to/lastmile_qr_scan"}, "is_reserved": 0}, {"lon": -76.9364515, "bike_id": "987e83b4b9fa8dc4aecc6b13a9fd43ac", "lat": 38.9006165, "fusion_lon": 0.0, "fusion_lat": 0.0, "type": "electric_scooter", "name": "987e83b4b9fa8dc4aecc6b13a9fd43ac", "is_disabled": 0, "rental_uris": {"ios": "https://dc.lft.to/lastmile_qr_scan", "android": "https://dc.lft.to/lastmile_qr_scan"}, "is_reserved": 0}, {"lon": -76.8749635, "bike_id": "b5e22046834b9acd2a31b61f05649ade", "lat": 38.990894833333336, "fusion_lon": 0.0, "fusion_lat": 0.0, "type": "electric_bike", "name": "b5e22046834b9acd2a31b61f05649ade", "is_disabled": 0, "rental_uris": {"ios": "https://dc.lft.to/lastmile_qr_scan", "android": "https://dc.lft.to/lastmile_qr_scan"}, "is_reserved": 0}, {"lon": -76.95751133333333, "bike_id": "c34d96f61a7a6786b17c46e439090b83", "lat": 38.884265166666665, "fusion_lon": 0.0, "fusion_lat": 0.0, "type": "electric_scooter", "name": "c34d96f61a7a6786b17c46e439090b83", "is_disabled": 0, "rental_uris": {"ios": "https://dc.lft.to/lastmile_qr_scan", "android": "https://dc.lft.to/lastmile_qr_scan"}, "is_reserved": 0}, {"lon": -77.02441116666667, "bike_id": "d3fe7ec2a926bbb59182f1497326268c", "lat": 38.93749316666667, "fusion_lon": 0.0, "fusion_lat": 0.0, "type": "electric_scooter", "name": "d3fe7ec2a926bbb59182f1497326268c", "is_disabled": 0, "rental_uris": {"ios": "https://dc.lft.to/lastmile_qr_scan", "android": "https://dc.lft.to/lastmile_qr_scan"}, "is_reserved": 0}, {"lon": -77.0328945, "bike_id": "b3136a28678a026c67c76c411c5dd2ec", "lat": 38.95645533333333, "fusion_lon": 0.0, "fusion_lat": 0.0, "type": "electric_scooter", "name": "b3136a28678a026c67c76c411c5dd2ec", "is_disabled": 0, "rental_uris": {"ios": "https://dc.lft.to/lastmile_qr_scan", "android": "https://dc.lft.to/lastmile_qr_scan"}, "is_reserved": 0}, {"lon": -77.0065305, "bike_id": "5f633928336ef66e61f07aa7e5d53076", "lat": 38.8388895, "fusion_lon": 0.0, "fusion_lat": 0.0, "type": "electric_scooter", "name": "5f633928336ef66e61f07aa7e5d53076", "is_disabled": 0, "rental_uris": {"ios": "https://dc.lft.to/lastmile_qr_scan", "android": "https://dc.lft.to/lastmile_qr_scan"}, "is_reserved": 0}, {"lon": -77.03873416666667, "bike_id": "a0bd58012466aab2f1a04dc1e11ab071", "lat": 38.9155955, "fusion_lon": 0.0, "fusion_lat": 0.0, "type": "electric_scooter", "name": "a0bd58012466aab2f1a04dc1e11ab071", "is_disabled": 0, "rental_uris": {"ios": "https://dc.lft.to/lastmile_qr_scan", "android": "https://dc.lft.to/lastmile_qr_scan"}, "is_reserved": 0}, {"lon": -77.10488083333334, "bike_id": "c51c6a7f5d757f0ad06199412dd76dd6", "lat": 38.8560785, "fusion_lon": 0.0, "fusion_lat": 0.0, "type": "electric_bike", "name": "c51c6a7f5d757f0ad06199412dd76dd6", "is_disabled": 0, "rental_uris": {"ios": "https://dc.lft.to/lastmile_qr_scan", "android": "https://dc.lft.to/lastmile_qr_scan"}, "is_reserved": 0}, {"lon": -77.0572595, "bike_id": "1bc07c4d8df9db8c35918cca026a8f43", "lat": 38.933647666666666, "fusion_lon": 0.0, "fusion_lat": 0.0, "type": "electric_scooter", "name": "1bc07c4d8df9db8c35918cca026a8f43", "is_disabled": 0, "rental_uris": {"ios": "https://dc.lft.to/lastmile_qr_scan", "android": "https://dc.lft.to/lastmile_qr_scan"}, "is_reserved": 0}, {"lon": -76.995317, "bike_id": "616b1d0b754bbbddaeac0e5a129a8175", "lat": 38.883695333333335, "fusion_lon": 0.0, "fusion_lat": 0.0, "type": "electric_scooter", "name": "616b1d0b754bbbddaeac0e5a129a8175", "is_disabled": 0, "rental_uris": {"ios": "https://dc.lft.to/lastmile_qr_scan", "android": "https://dc.lft.to/lastmile_qr_scan"}, "is_reserved": 0}, {"lon": -77.04412616666667, "bike_id": "7dda25b4b35f3a503be3ce3378823813", "lat": 38.921168333333334, "fusion_lon": 0.0, "fusion_lat": 0.0, "type": "electric_scooter", "name": "7dda25b4b35f3a503be3ce3378823813", "is_disabled": 0, "rental_uris": {"ios": "https://dc.lft.to/lastmile_qr_scan", "android": "https://dc.lft.to/lastmile_qr_scan"}, "is_reserved": 0}, {"lon": -77.00060816666667, "bike_id": "046430e5f2eef92fceed3b761d2141f5", "lat": 38.894952333333336, "fusion_lon": 0.0, "fusion_lat": 0.0, "type": "electric_scooter", "name": "046430e5f2eef92fceed3b761d2141f5", "is_disabled": 0, "rental_uris": {"ios": "https://dc.lft.to/lastmile_qr_scan", "android": "https://dc.lft.to/lastmile_qr_scan"}, "is_reserved": 0}, {"lon": -76.9951105, "bike_id": "5984d6ccbe36498834bc010775aa07e1", "lat": 38.877799, "fusion_lon": 0.0, "fusion_lat": 0.0, "type": "electric_scooter", "name": "5984d6ccbe36498834bc010775aa07e1", "is_disabled": 0, "rental_uris": {"ios": "https://dc.lft.to/lastmile_qr_scan", "android": "https://dc.lft.to/lastmile_qr_scan"}, "is_reserved": 0}, {"lon": -77.0376195, "bike_id": "b81409091a2410bd0500d6bd4ac61a18", "lat": 38.90779033333333, "fusion_lon": 0.0, "fusion_lat": 0.0, "type": "electric_scooter", "name": "b81409091a2410bd0500d6bd4ac61a18", "is_disabled": 0, "rental_uris": {"ios": "https://dc.lft.to/lastmile_qr_scan", "android": "https://dc.lft.to/lastmile_qr_scan"}, "is_reserved": 0}, {"lon": -77.05160583333333, "bike_id": "f4c00dc5e3ef7b87381d70ee75beab93", "lat": 39.043025666666665, "fusion_lon": 0.0, "fusion_lat": 0.0, "type": "electric_bike", "name": "f4c00dc5e3ef7b87381d70ee75beab93", "is_disabled": 0, "rental_uris": {"ios": "https://dc.lft.to/lastmile_qr_scan", "android": "https://dc.lft.to/lastmile_qr_scan"}, "is_reserved": 0}, {"lon": -77.04663816666667, "bike_id": "5d91c9ccadef0b6e0fce339b353aee2b", "lat": 38.9055665, "fusion_lon": 0.0, "fusion_lat": 0.0, "type": "electric_scooter", "name": "5d91c9ccadef0b6e0fce339b353aee2b", "is_disabled": 0, "rental_uris": {"ios": "https://dc.lft.to/lastmile_qr_scan", "android": "https://dc.lft.to/lastmile_qr_scan"}, "is_reserved": 0}, {"lon": -77.03092016666666, "bike_id": "fb1b4c6153b2357b4ac96416c45bd414", "lat": 38.928598666666666, "fusion_lon": 0.0, "fusion_lat": 0.0, "type": "electric_scooter", "name": "fb1b4c6153b2357b4ac96416c45bd414", "is_disabled": 0, "rental_uris": {"ios": "https://dc.lft.to/lastmile_qr_scan", "android": "https://dc.lft.to/lastmile_qr_scan"}, "is_reserved": 0}, {"lon": -77.07273483333333, "bike_id": "433851b9ce2866ecc142c385c61438df", "lat": 38.934834, "fusion_lon": 0.0, "fusion_lat": 0.0, "type": "electric_scooter", "name": "433851b9ce2866ecc142c385c61438df", "is_disabled": 0, "rental_uris": {"ios": "https://dc.lft.to/lastmile_qr_scan", "android": "https://dc.lft.to/lastmile_qr_scan"}, "is_reserved": 0}, {"lon": -77.03177233333334, "bike_id": "20aafa78981ae2c4249445ce9d0cc824", "lat": 38.93686366666667, "fusion_lon": 0.0, "fusion_lat": 0.0, "type": "electric_scooter", "name": "20aafa78981ae2c4249445ce9d0cc824", "is_disabled": 0, "rental_uris": {"ios": "https://dc.lft.to/lastmile_qr_scan", "android": "https://dc.lft.to/lastmile_qr_scan"}, "is_reserved": 0}, {"lon": -77.01210916666666, "bike_id": "90b50d0ff23685807a0ef9f3c0a3074f", "lat": 38.921187333333336, "fusion_lon": 0.0, "fusion_lat": 0.0, "type": "electric_scooter", "name": "90b50d0ff23685807a0ef9f3c0a3074f", "is_disabled": 0, "rental_uris": {"ios": "https://dc.lft.to/lastmile_qr_scan", "android": "https://dc.lft.to/lastmile_qr_scan"}, "is_reserved": 0}, {"lon": -77.02580116666667, "bike_id": "ed33f0e3bee6e396bafb6c368e8c66d7", "lat": 38.930844666666665, "fusion_lon": 0.0, "fusion_lat": 0.0, "type": "electric_scooter", "name": "ed33f0e3bee6e396bafb6c368e8c66d7", "is_disabled": 0, "rental_uris": {"ios": "https://dc.lft.to/lastmile_qr_scan", "android": "https://dc.lft.to/lastmile_qr_scan"}, "is_reserved": 0}, {"lon": -77.01871566666667, "bike_id": "f93671aa1c0dd69714370b7db0963807", "lat": 38.918242, "fusion_lon": 0.0, "fusion_lat": 0.0, "type": "electric_scooter", "name": "f93671aa1c0dd69714370b7db0963807", "is_disabled": 0, "rental_uris": {"ios": "https://dc.lft.to/lastmile_qr_scan", "android": "https://dc.lft.to/lastmile_qr_scan"}, "is_reserved": 0}, {"lon": -77.0569505, "bike_id": "a16485a7370fafb94cc124a2aa476866", "lat": 38.93714933333333, "fusion_lon": 0.0, "fusion_lat": 0.0, "type": "electric_scooter", "name": "a16485a7370fafb94cc124a2aa476866", "is_disabled": 0, "rental_uris": {"ios": "https://dc.lft.to/lastmile_qr_scan", "android": "https://dc.lft.to/lastmile_qr_scan"}, "is_reserved": 0}, {"lon": -77.00625616666666, "bike_id": "96c6c973b8eeda0e4093c0682a4d460e", "lat": 38.9125235, "fusion_lon": 0.0, "fusion_lat": 0.0, "type": "electric_scooter", "name": "96c6c973b8eeda0e4093c0682a4d460e", "is_disabled": 0, "rental_uris": {"ios": "https://dc.lft.to/lastmile_qr_scan", "android": "https://dc.lft.to/lastmile_qr_scan"}, "is_reserved": 0}, {"lon": -77.05508233333333, "bike_id": "077e92fedb998bfed6dbb78e6f95442d", "lat": 38.899724666666664, "fusion_lon": 0.0, "fusion_lat": 0.0, "type": "electric_scooter", "name": "077e92fedb998bfed6dbb78e6f95442d", "is_disabled": 0, "rental_uris": {"ios": "https://dc.lft.to/lastmile_qr_scan", "android": "https://dc.lft.to/lastmile_qr_scan"}, "is_reserved": 0}, {"lon": -76.930128, "bike_id": "e613584033d38cdcd5ff376486141a7e", "lat": 38.891923, "fusion_lon": 0.0, "fusion_lat": 0.0, "type": "electric_scooter", "name": "e613584033d38cdcd5ff376486141a7e", "is_disabled": 0, "rental_uris": {"ios": "https://dc.lft.to/lastmile_qr_scan", "android": "https://dc.lft.to/lastmile_qr_scan"}, "is_reserved": 0}, {"lon": -77.1115655, "bike_id": "a836ef013f23ee48fe06a53f7596b420", "lat": 38.855160833333336, "fusion_lon": 0.0, "fusion_lat": 0.0, "type": "electric_bike", "name": "a836ef013f23ee48fe06a53f7596b420", "is_disabled": 0, "rental_uris": {"ios": "https://dc.lft.to/lastmile_qr_scan", "android": "https://dc.lft.to/lastmile_qr_scan"}, "is_reserved": 0}, {"lon": -76.9823015, "bike_id": "b845253a3efce3e546ba50a75ba8ae99", "lat": 38.886440666666665, "fusion_lon": 0.0, "fusion_lat": 0.0, "type": "electric_scooter", "name": "b845253a3efce3e546ba50a75ba8ae99", "is_disabled": 0, "rental_uris": {"ios": "https://dc.lft.to/lastmile_qr_scan", "android": "https://dc.lft.to/lastmile_qr_scan"}, "is_reserved": 0}, {"lon": -77.043204, "bike_id": "80b3484ecf596345753dbda6a0fcb372", "lat": 38.90731533333334, "fusion_lon": 0.0, "fusion_lat": 0.0, "type": "electric_scooter", "name": "80b3484ecf596345753dbda6a0fcb372", "is_disabled": 0, "rental_uris": {"ios": "https://dc.lft.to/lastmile_qr_scan", "android": "https://dc.lft.to/lastmile_qr_scan"}, "is_reserved": 0}, {"lon": -77.04026233333333, "bike_id": "ccde3e8309563fe6d8a8b1dc453ccb80", "lat": 38.91110666666667, "fusion_lon": 0.0, "fusion_lat": 0.0, "type": "electric_scooter", "name": "ccde3e8309563fe6d8a8b1dc453ccb80", "is_disabled": 0, "rental_uris": {"ios": "https://dc.lft.to/lastmile_qr_scan", "android": "https://dc.lft.to/lastmile_qr_scan"}, "is_reserved": 0}, {"lon": -77.01417583333334, "bike_id": "52091bba40bf6be64d829b28582eccfa", "lat": 38.927907, "fusion_lon": 0.0, "fusion_lat": 0.0, "type": "electric_scooter", "name": "52091bba40bf6be64d829b28582eccfa", "is_disabled": 0, "rental_uris": {"ios": "https://dc.lft.to/lastmile_qr_scan", "android": "https://dc.lft.to/lastmile_qr_scan"}, "is_reserved": 0}, {"lon": -77.04512183333334, "bike_id": "6d920cac255ca92ea7a7375d2c3595b2", "lat": 38.886003, "fusion_lon": 0.0, "fusion_lat": 0.0, "type": "electric_scooter", "name": "6d920cac255ca92ea7a7375d2c3595b2", "is_disabled": 0, "rental_uris": {"ios": "https://dc.lft.to/lastmile_qr_scan", "android": "https://dc.lft.to/lastmile_qr_scan"}, "is_reserved": 0}, {"lon": -77.10922633333334, "bike_id": "1f0df88950e8fa3b50a1edee66dc4a10", "lat": 39.05201233333333, "fusion_lon": 0.0, "fusion_lat": 0.0, "type": "electric_bike", "name": "1f0df88950e8fa3b50a1edee66dc4a10", "is_disabled": 0, "rental_uris": {"ios": "https://dc.lft.to/lastmile_qr_scan", "android": "https://dc.lft.to/lastmile_qr_scan"}, "is_reserved": 0}, {"lon": -77.023042, "bike_id": "aadebfd1cfc5ad21baadcc975fc305ad", "lat": 38.9168305, "fusion_lon": 0.0, "fusion_lat": 0.0, "type": "electric_scooter", "name": "aadebfd1cfc5ad21baadcc975fc305ad", "is_disabled": 0, "rental_uris": {"ios": "https://dc.lft.to/lastmile_qr_scan", "android": "https://dc.lft.to/lastmile_qr_scan"}, "is_reserved": 0}, {"lon": -77.03882583333333, "bike_id": "109074445476d778d48a867e64d1b3d6", "lat": 38.920103, "fusion_lon": 0.0, "fusion_lat": 0.0, "type": "electric_scooter", "name": "109074445476d778d48a867e64d1b3d6", "is_disabled": 0, "rental_uris": {"ios": "https://dc.lft.to/lastmile_qr_scan", "android": "https://dc.lft.to/lastmile_qr_scan"}, "is_reserved": 0}, {"lon": -77.02713083333333, "bike_id": "f77ad8c73f2414b3eeda66de392f4e64", "lat": 38.927717333333334, "fusion_lon": 0.0, "fusion_lat": 0.0, "type": "electric_scooter", "name": "f77ad8c73f2414b3eeda66de392f4e64", "is_disabled": 0, "rental_uris": {"ios": "https://dc.lft.to/lastmile_qr_scan", "android": "https://dc.lft.to/lastmile_qr_scan"}, "is_reserved": 0}, {"lon": -77.03216366666666, "bike_id": "aa94c905f2b79b90de3a062f01f5b343", "lat": 38.896635, "fusion_lon": 0.0, "fusion_lat": 0.0, "type": "electric_scooter", "name": "aa94c905f2b79b90de3a062f01f5b343", "is_disabled": 0, "rental_uris": {"ios": "https://dc.lft.to/lastmile_qr_scan", "android": "https://dc.lft.to/lastmile_qr_scan"}, "is_reserved": 0}, {"lon": -76.92998483333334, "bike_id": "621d7e5d42616d4bb6c7c93e63887faa", "lat": 38.901869166666664, "fusion_lon": 0.0, "fusion_lat": 0.0, "type": "electric_scooter", "name": "621d7e5d42616d4bb6c7c93e63887faa", "is_disabled": 0, "rental_uris": {"ios": "https://dc.lft.to/lastmile_qr_scan", "android": "https://dc.lft.to/lastmile_qr_scan"}, "is_reserved": 0}, {"lon": -77.03582433333334, "bike_id": "6a1cdaf9ce2e074ddfac930c084734ab", "lat": 38.917608666666666, "fusion_lon": 0.0, "fusion_lat": 0.0, "type": "electric_scooter", "name": "6a1cdaf9ce2e074ddfac930c084734ab", "is_disabled": 0, "rental_uris": {"ios": "https://dc.lft.to/lastmile_qr_scan", "android": "https://dc.lft.to/lastmile_qr_scan"}, "is_reserved": 0}, {"lon": -77.049771, "bike_id": "53b35593c24885b8123e8667692118c8", "lat": 38.900171666666665, "fusion_lon": 0.0, "fusion_lat": 0.0, "type": "electric_scooter", "name": "53b35593c24885b8123e8667692118c8", "is_disabled": 0, "rental_uris": {"ios": "https://dc.lft.to/lastmile_qr_scan", "android": "https://dc.lft.to/lastmile_qr_scan"}, "is_reserved": 0}, {"lon": -76.9777185, "bike_id": "970fc6b32c87923519b09f2b06fde6b6", "lat": 38.8989945, "fusion_lon": 0.0, "fusion_lat": 0.0, "type": "electric_scooter", "name": "970fc6b32c87923519b09f2b06fde6b6", "is_disabled": 0, "rental_uris": {"ios": "https://dc.lft.to/lastmile_qr_scan", "android": "https://dc.lft.to/lastmile_qr_scan"}, "is_reserved": 0}, {"lon": -77.00129916666667, "bike_id": "af05d35bdb7d1b944b9f1f85c67d8337", "lat": 38.885236, "fusion_lon": 0.0, "fusion_lat": 0.0, "type": "electric_scooter", "name": "af05d35bdb7d1b944b9f1f85c67d8337", "is_disabled": 0, "rental_uris": {"ios": "https://dc.lft.to/lastmile_qr_scan", "android": "https://dc.lft.to/lastmile_qr_scan"}, "is_reserved": 0}, {"lon": -77.03667666666666, "bike_id": "edf3f17ae26c8bc0e0b3575c9f3f24f5", "lat": 38.92329, "fusion_lon": 0.0, "fusion_lat": 0.0, "type": "electric_scooter", "name": "edf3f17ae26c8bc0e0b3575c9f3f24f5", "is_disabled": 0, "rental_uris": {"ios": "https://dc.lft.to/lastmile_qr_scan", "android": "https://dc.lft.to/lastmile_qr_scan"}, "is_reserved": 0}, {"lon": -77.0253075, "bike_id": "3e779e6c119e405d9f7b53aa2a45b149", "lat": 38.94300283333333, "fusion_lon": 0.0, "fusion_lat": 0.0, "type": "electric_scooter", "name": "3e779e6c119e405d9f7b53aa2a45b149", "is_disabled": 0, "rental_uris": {"ios": "https://dc.lft.to/lastmile_qr_scan", "android": "https://dc.lft.to/lastmile_qr_scan"}, "is_reserved": 0}, {"lon": -76.97491966666666, "bike_id": "ef4e5a62af2c54ca363fb5fcfdb8edf0", "lat": 38.89065, "fusion_lon": 0.0, "fusion_lat": 0.0, "type": "electric_bike", "name": "ef4e5a62af2c54ca363fb5fcfdb8edf0", "is_disabled": 0, "rental_uris": {"ios": "https://dc.lft.to/lastmile_qr_scan", "android": "https://dc.lft.to/lastmile_qr_scan"}, "is_reserved": 0}, {"lon": -77.07794016666666, "bike_id": "02919545863bc37b38b500769b857879", "lat": 38.9960185, "fusion_lon": 0.0, "fusion_lat": 0.0, "type": "electric_bike", "name": "02919545863bc37b38b500769b857879", "is_disabled": 0, "rental_uris": {"ios": "https://dc.lft.to/lastmile_qr_scan", "android": "https://dc.lft.to/lastmile_qr_scan"}, "is_reserved": 0}, {"lon": -77.02465133333334, "bike_id": "be622e92af7f0d8a550fdbeeac0a8ac4", "lat": 38.884418833333335, "fusion_lon": 0.0, "fusion_lat": 0.0, "type": "electric_scooter", "name": "be622e92af7f0d8a550fdbeeac0a8ac4", "is_disabled": 0, "rental_uris": {"ios": "https://dc.lft.to/lastmile_qr_scan", "android": "https://dc.lft.to/lastmile_qr_scan"}, "is_reserved": 0}, {"lon": -76.969911, "bike_id": "cdc62393103db4b399f0cc0c5b9a6ce2", "lat": 38.87375633333333, "fusion_lon": 0.0, "fusion_lat": 0.0, "type": "electric_scooter", "name": "cdc62393103db4b399f0cc0c5b9a6ce2", "is_disabled": 0, "rental_uris": {"ios": "https://dc.lft.to/lastmile_qr_scan", "android": "https://dc.lft.to/lastmile_qr_scan"}, "is_reserved": 0}, {"lon": -77.06145233333334, "bike_id": "a2da01ef273532331666fc4a26b8cd2e", "lat": 38.9436095, "fusion_lon": 0.0, "fusion_lat": 0.0, "type": "electric_scooter", "name": "a2da01ef273532331666fc4a26b8cd2e", "is_disabled": 0, "rental_uris": {"ios": "https://dc.lft.to/lastmile_qr_scan", "android": "https://dc.lft.to/lastmile_qr_scan"}, "is_reserved": 0}, {"lon": -77.03474666666666, "bike_id": "69bfb09ac55a2269fab110a691efeda7", "lat": 38.92745216666667, "fusion_lon": 0.0, "fusion_lat": 0.0, "type": "electric_scooter", "name": "69bfb09ac55a2269fab110a691efeda7", "is_disabled": 0, "rental_uris": {"ios": "https://dc.lft.to/lastmile_qr_scan", "android": "https://dc.lft.to/lastmile_qr_scan"}, "is_reserved": 0}, {"lon": -77.03861016666667, "bike_id": "e558eab13292d569353ec4260a655df5", "lat": 38.916853833333334, "fusion_lon": 0.0, "fusion_lat": 0.0, "type": "electric_scooter", "name": "e558eab13292d569353ec4260a655df5", "is_disabled": 0, "rental_uris": {"ios": "https://dc.lft.to/lastmile_qr_scan", "android": "https://dc.lft.to/lastmile_qr_scan"}, "is_reserved": 0}, {"lon": -77.02539933333334, "bike_id": "fe3a19c3af5bc4ccbc86c1eb4019c60a", "lat": 38.903960833333336, "fusion_lon": 0.0, "fusion_lat": 0.0, "type": "electric_scooter", "name": "fe3a19c3af5bc4ccbc86c1eb4019c60a", "is_disabled": 0, "rental_uris": {"ios": "https://dc.lft.to/lastmile_qr_scan", "android": "https://dc.lft.to/lastmile_qr_scan"}, "is_reserved": 0}, {"lon": -77.042131, "bike_id": "ccfbffd83dc75449ac29e97d307dbc76", "lat": 38.907796166666664, "fusion_lon": 0.0, "fusion_lat": 0.0, "type": "electric_scooter", "name": "ccfbffd83dc75449ac29e97d307dbc76", "is_disabled": 0, "rental_uris": {"ios": "https://dc.lft.to/lastmile_qr_scan", "android": "https://dc.lft.to/lastmile_qr_scan"}, "is_reserved": 0}, {"lon": -77.031401, "bike_id": "a88de361c850a9ad0cbd936ae3471fa5", "lat": 38.915642, "fusion_lon": 0.0, "fusion_lat": 0.0, "type": "electric_scooter", "name": "a88de361c850a9ad0cbd936ae3471fa5", "is_disabled": 0, "rental_uris": {"ios": "https://dc.lft.to/lastmile_qr_scan", "android": "https://dc.lft.to/lastmile_qr_scan"}, "is_reserved": 0}, {"lon": -77.03183066666666, "bike_id": "93a1dcb16eecf45199dc3d22c9a853ff", "lat": 38.8957485, "fusion_lon": 0.0, "fusion_lat": 0.0, "type": "electric_scooter", "name": "93a1dcb16eecf45199dc3d22c9a853ff", "is_disabled": 0, "rental_uris": {"ios": "https://dc.lft.to/lastmile_qr_scan", "android": "https://dc.lft.to/lastmile_qr_scan"}, "is_reserved": 0}, {"lon": -77.022111, "bike_id": "c00c2688c21fbde5f1ff2e64b131f06d", "lat": 38.91414783333333, "fusion_lon": 0.0, "fusion_lat": 0.0, "type": "electric_scooter", "name": "c00c2688c21fbde5f1ff2e64b131f06d", "is_disabled": 0, "rental_uris": {"ios": "https://dc.lft.to/lastmile_qr_scan", "android": "https://dc.lft.to/lastmile_qr_scan"}, "is_reserved": 0}, {"lon": -76.994582, "bike_id": "981250202639b07e02f783c4854e6ce4", "lat": 38.9662075, "fusion_lon": 0.0, "fusion_lat": 0.0, "type": "electric_bike", "name": "981250202639b07e02f783c4854e6ce4", "is_disabled": 0, "rental_uris": {"ios": "https://dc.lft.to/lastmile_qr_scan", "android": "https://dc.lft.to/lastmile_qr_scan"}, "is_reserved": 0}, {"lon": -77.043295, "bike_id": "440a4c125a62bd8510fb75a91e0a358c", "lat": 38.90723533333333, "fusion_lon": 0.0, "fusion_lat": 0.0, "type": "electric_scooter", "name": "440a4c125a62bd8510fb75a91e0a358c", "is_disabled": 0, "rental_uris": {"ios": "https://dc.lft.to/lastmile_qr_scan", "android": "https://dc.lft.to/lastmile_qr_scan"}, "is_reserved": 0}, {"lon": -76.99031516666666, "bike_id": "f58e20500e4677e303afc3fed43f4ce6", "lat": 38.89853566666667, "fusion_lon": 0.0, "fusion_lat": 0.0, "type": "electric_scooter", "name": "f58e20500e4677e303afc3fed43f4ce6", "is_disabled": 0, "rental_uris": {"ios": "https://dc.lft.to/lastmile_qr_scan", "android": "https://dc.lft.to/lastmile_qr_scan"}, "is_reserved": 0}, {"lon": -76.97921316666667, "bike_id": "62db321d873e2cf3f88a5839751e8604", "lat": 38.90496516666666, "fusion_lon": 0.0, "fusion_lat": 0.0, "type": "electric_scooter", "name": "62db321d873e2cf3f88a5839751e8604", "is_disabled": 0, "rental_uris": {"ios": "https://dc.lft.to/lastmile_qr_scan", "android": "https://dc.lft.to/lastmile_qr_scan"}, "is_reserved": 0}, {"lon": -76.9937185, "bike_id": "5d373f4608b14096a4bc32c2008c689e", "lat": 38.87970266666667, "fusion_lon": 0.0, "fusion_lat": 0.0, "type": "electric_scooter", "name": "5d373f4608b14096a4bc32c2008c689e", "is_disabled": 0, "rental_uris": {"ios": "https://dc.lft.to/lastmile_qr_scan", "android": "https://dc.lft.to/lastmile_qr_scan"}, "is_reserved": 0}, {"lon": -77.02769333333333, "bike_id": "87d6a696509fcfa5d24a4280d3aa8a1d", "lat": 38.89219933333333, "fusion_lon": 0.0, "fusion_lat": 0.0, "type": "electric_scooter", "name": "87d6a696509fcfa5d24a4280d3aa8a1d", "is_disabled": 0, "rental_uris": {"ios": "https://dc.lft.to/lastmile_qr_scan", "android": "https://dc.lft.to/lastmile_qr_scan"}, "is_reserved": 0}, {"lon": -77.098635, "bike_id": "b100fe4acd08459ae35cea1c7831176c", "lat": 38.949643333333334, "fusion_lon": 0.0, "fusion_lat": 0.0, "type": "electric_scooter", "name": "b100fe4acd08459ae35cea1c7831176c", "is_disabled": 0, "rental_uris": {"ios": "https://dc.lft.to/lastmile_qr_scan", "android": "https://dc.lft.to/lastmile_qr_scan"}, "is_reserved": 0}, {"lon": -77.013182, "bike_id": "472ab5768976b6e28fe949aa7f691920", "lat": 38.871536666666664, "fusion_lon": 0.0, "fusion_lat": 0.0, "type": "electric_scooter", "name": "472ab5768976b6e28fe949aa7f691920", "is_disabled": 0, "rental_uris": {"ios": "https://dc.lft.to/lastmile_qr_scan", "android": "https://dc.lft.to/lastmile_qr_scan"}, "is_reserved": 0}, {"lon": -76.990019, "bike_id": "5cc7068f71567d93a87d82c11ca80ea7", "lat": 38.865073, "fusion_lon": 0.0, "fusion_lat": 0.0, "type": "electric_scooter", "name": "5cc7068f71567d93a87d82c11ca80ea7", "is_disabled": 0, "rental_uris": {"ios": "https://dc.lft.to/lastmile_qr_scan", "android": "https://dc.lft.to/lastmile_qr_scan"}, "is_reserved": 0}, {"lon": -77.0374285, "bike_id": "4f913b56bc223fcc31ad780c0e9ab09a", "lat": 38.91811383333334, "fusion_lon": 0.0, "fusion_lat": 0.0, "type": "electric_scooter", "name": "4f913b56bc223fcc31ad780c0e9ab09a", "is_disabled": 0, "rental_uris": {"ios": "https://dc.lft.to/lastmile_qr_scan", "android": "https://dc.lft.to/lastmile_qr_scan"}, "is_reserved": 0}, {"lon": -77.02724683333334, "bike_id": "ab787190cd18d4f7f12a613339dcd8fa", "lat": 38.913373666666665, "fusion_lon": 0.0, "fusion_lat": 0.0, "type": "electric_scooter", "name": "ab787190cd18d4f7f12a613339dcd8fa", "is_disabled": 0, "rental_uris": {"ios": "https://dc.lft.to/lastmile_qr_scan", "android": "https://dc.lft.to/lastmile_qr_scan"}, "is_reserved": 0}, {"lon": -77.02712033333333, "bike_id": "bd36e4a69e8786928412253829184e69", "lat": 38.89724433333333, "fusion_lon": 0.0, "fusion_lat": 0.0, "type": "electric_scooter", "name": "bd36e4a69e8786928412253829184e69", "is_disabled": 0, "rental_uris": {"ios": "https://dc.lft.to/lastmile_qr_scan", "android": "https://dc.lft.to/lastmile_qr_scan"}, "is_reserved": 0}, {"lon": -77.00668766666666, "bike_id": "7936147857bee5a1e2e899153d7dbc49", "lat": 38.900131333333334, "fusion_lon": 0.0, "fusion_lat": 0.0, "type": "electric_scooter", "name": "7936147857bee5a1e2e899153d7dbc49", "is_disabled": 0, "rental_uris": {"ios": "https://dc.lft.to/lastmile_qr_scan", "android": "https://dc.lft.to/lastmile_qr_scan"}, "is_reserved": 0}, {"lon": -77.039206, "bike_id": "6f12cc6d8cad015ef777ad3ce928f496", "lat": 38.9279175, "fusion_lon": 0.0, "fusion_lat": 0.0, "type": "electric_scooter", "name": "6f12cc6d8cad015ef777ad3ce928f496", "is_disabled": 0, "rental_uris": {"ios": "https://dc.lft.to/lastmile_qr_scan", "android": "https://dc.lft.to/lastmile_qr_scan"}, "is_reserved": 0}, {"lon": -77.03639183333334, "bike_id": "b74f7bcf806c4c66e2faa5dc6553e7ed", "lat": 38.924607333333334, "fusion_lon": 0.0, "fusion_lat": 0.0, "type": "electric_scooter", "name": "b74f7bcf806c4c66e2faa5dc6553e7ed", "is_disabled": 0, "rental_uris": {"ios": "https://dc.lft.to/lastmile_qr_scan", "android": "https://dc.lft.to/lastmile_qr_scan"}, "is_reserved": 0}, {"lon": -76.95234, "bike_id": "0b8f82e63e8cb64c2b3ed04e221f4a3e", "lat": 38.890989833333336, "fusion_lon": 0.0, "fusion_lat": 0.0, "type": "electric_scooter", "name": "0b8f82e63e8cb64c2b3ed04e221f4a3e", "is_disabled": 0, "rental_uris": {"ios": "https://dc.lft.to/lastmile_qr_scan", "android": "https://dc.lft.to/lastmile_qr_scan"}, "is_reserved": 0}, {"lon": -77.088112, "bike_id": "37e922acb3c3d304067b4de9bc1acba9", "lat": 38.91175633333334, "fusion_lon": 0.0, "fusion_lat": 0.0, "type": "electric_bike", "name": "37e922acb3c3d304067b4de9bc1acba9", "is_disabled": 0, "rental_uris": {"ios": "https://dc.lft.to/lastmile_qr_scan", "android": "https://dc.lft.to/lastmile_qr_scan"}, "is_reserved": 0}, {"lon": -77.03193916666666, "bike_id": "a614e68930921eb2b8548c8c87d01238", "lat": 38.905213333333336, "fusion_lon": 0.0, "fusion_lat": 0.0, "type": "electric_scooter", "name": "a614e68930921eb2b8548c8c87d01238", "is_disabled": 0, "rental_uris": {"ios": "https://dc.lft.to/lastmile_qr_scan", "android": "https://dc.lft.to/lastmile_qr_scan"}, "is_reserved": 0}, {"lon": -76.9761785, "bike_id": "f4ee376c72a542978955aeb94283233a", "lat": 38.926510666666665, "fusion_lon": 0.0, "fusion_lat": 0.0, "type": "electric_scooter", "name": "f4ee376c72a542978955aeb94283233a", "is_disabled": 0, "rental_uris": {"ios": "https://dc.lft.to/lastmile_qr_scan", "android": "https://dc.lft.to/lastmile_qr_scan"}, "is_reserved": 0}, {"lon": -77.01866116666666, "bike_id": "d51d0ff00c92579ecd6e8389e5501d77", "lat": 38.9515115, "fusion_lon": 0.0, "fusion_lat": 0.0, "type": "electric_scooter", "name": "d51d0ff00c92579ecd6e8389e5501d77", "is_disabled": 0, "rental_uris": {"ios": "https://dc.lft.to/lastmile_qr_scan", "android": "https://dc.lft.to/lastmile_qr_scan"}, "is_reserved": 0}, {"lon": -77.046031, "bike_id": "638c444941ad132211abfb9411036dd9", "lat": 38.9137555, "fusion_lon": 0.0, "fusion_lat": 0.0, "type": "electric_scooter", "name": "638c444941ad132211abfb9411036dd9", "is_disabled": 0, "rental_uris": {"ios": "https://dc.lft.to/lastmile_qr_scan", "android": "https://dc.lft.to/lastmile_qr_scan"}, "is_reserved": 0}, {"lon": -76.99103966666667, "bike_id": "f6963d0d9715c35a328b851639a8b25e", "lat": 38.90321566666667, "fusion_lon": 0.0, "fusion_lat": 0.0, "type": "electric_scooter", "name": "f6963d0d9715c35a328b851639a8b25e", "is_disabled": 0, "rental_uris": {"ios": "https://dc.lft.to/lastmile_qr_scan", "android": "https://dc.lft.to/lastmile_qr_scan"}, "is_reserved": 0}, {"lon": -77.0019925, "bike_id": "6d0226d81b106589bc47e95d679c8ba8", "lat": 38.902384, "fusion_lon": 0.0, "fusion_lat": 0.0, "type": "electric_scooter", "name": "6d0226d81b106589bc47e95d679c8ba8", "is_disabled": 0, "rental_uris": {"ios": "https://dc.lft.to/lastmile_qr_scan", "android": "https://dc.lft.to/lastmile_qr_scan"}, "is_reserved": 0}, {"lon": -77.0447915, "bike_id": "d34dde5e14473bfc966639a9f2e657ce", "lat": 38.92426316666667, "fusion_lon": 0.0, "fusion_lat": 0.0, "type": "electric_scooter", "name": "d34dde5e14473bfc966639a9f2e657ce", "is_disabled": 0, "rental_uris": {"ios": "https://dc.lft.to/lastmile_qr_scan", "android": "https://dc.lft.to/lastmile_qr_scan"}, "is_reserved": 0}, {"lon": -77.05200983333333, "bike_id": "87a2800e9d59daffd005b100fb692015", "lat": 38.8995335, "fusion_lon": 0.0, "fusion_lat": 0.0, "type": "electric_scooter", "name": "87a2800e9d59daffd005b100fb692015", "is_disabled": 0, "rental_uris": {"ios": "https://dc.lft.to/lastmile_qr_scan", "android": "https://dc.lft.to/lastmile_qr_scan"}, "is_reserved": 0}, {"lon": -77.0323905, "bike_id": "0ccd1034a26434f7d0b293f1222f3d25", "lat": 38.91479616666667, "fusion_lon": 0.0, "fusion_lat": 0.0, "type": "electric_scooter", "name": "0ccd1034a26434f7d0b293f1222f3d25", "is_disabled": 0, "rental_uris": {"ios": "https://dc.lft.to/lastmile_qr_scan", "android": "https://dc.lft.to/lastmile_qr_scan"}, "is_reserved": 0}, {"lon": -77.02749866666667, "bike_id": "a594d5b14354638e131f020672233617", "lat": 38.941767666666664, "fusion_lon": 0.0, "fusion_lat": 0.0, "type": "electric_scooter", "name": "a594d5b14354638e131f020672233617", "is_disabled": 0, "rental_uris": {"ios": "https://dc.lft.to/lastmile_qr_scan", "android": "https://dc.lft.to/lastmile_qr_scan"}, "is_reserved": 0}, {"lon": -77.03174883333334, "bike_id": "c1db7776ba59ee191a8b6b5de96ff4b0", "lat": 38.89956766666667, "fusion_lon": 0.0, "fusion_lat": 0.0, "type": "electric_scooter", "name": "c1db7776ba59ee191a8b6b5de96ff4b0", "is_disabled": 0, "rental_uris": {"ios": "https://dc.lft.to/lastmile_qr_scan", "android": "https://dc.lft.to/lastmile_qr_scan"}, "is_reserved": 0}, {"lon": -77.019837, "bike_id": "2dc4c70ee7a0cc7e7b93913daae44dbc", "lat": 38.92545916666667, "fusion_lon": 0.0, "fusion_lat": 0.0, "type": "electric_bike", "name": "2dc4c70ee7a0cc7e7b93913daae44dbc", "is_disabled": 0, "rental_uris": {"ios": "https://dc.lft.to/lastmile_qr_scan", "android": "https://dc.lft.to/lastmile_qr_scan"}, "is_reserved": 0}, {"lon": -77.00679016666666, "bike_id": "7c68c90e641c23b61483fdcbaf060907", "lat": 38.83493933333333, "fusion_lon": 0.0, "fusion_lat": 0.0, "type": "electric_scooter", "name": "7c68c90e641c23b61483fdcbaf060907", "is_disabled": 0, "rental_uris": {"ios": "https://dc.lft.to/lastmile_qr_scan", "android": "https://dc.lft.to/lastmile_qr_scan"}, "is_reserved": 0}, {"lon": -76.99375233333333, "bike_id": "7d25e0cd357d9122ca3f8c1cc39351fd", "lat": 38.89373533333333, "fusion_lon": 0.0, "fusion_lat": 0.0, "type": "electric_scooter", "name": "7d25e0cd357d9122ca3f8c1cc39351fd", "is_disabled": 0, "rental_uris": {"ios": "https://dc.lft.to/lastmile_qr_scan", "android": "https://dc.lft.to/lastmile_qr_scan"}, "is_reserved": 0}, {"lon": -77.05288416666667, "bike_id": "cf19c2aa3b61ace0d80d23bf825a4573", "lat": 38.903360166666666, "fusion_lon": 0.0, "fusion_lat": 0.0, "type": "electric_scooter", "name": "cf19c2aa3b61ace0d80d23bf825a4573", "is_disabled": 0, "rental_uris": {"ios": "https://dc.lft.to/lastmile_qr_scan", "android": "https://dc.lft.to/lastmile_qr_scan"}, "is_reserved": 0}, {"lon": -77.0176745, "bike_id": "ed66292dee380bf0e066ece16d654f7c", "lat": 38.8873965, "fusion_lon": 0.0, "fusion_lat": 0.0, "type": "electric_scooter", "name": "ed66292dee380bf0e066ece16d654f7c", "is_disabled": 0, "rental_uris": {"ios": "https://dc.lft.to/lastmile_qr_scan", "android": "https://dc.lft.to/lastmile_qr_scan"}, "is_reserved": 0}, {"lon": -76.9488065, "bike_id": "613ca2846299e251301b3e4be70ceb3e", "lat": 38.89423466666667, "fusion_lon": 0.0, "fusion_lat": 0.0, "type": "electric_scooter", "name": "613ca2846299e251301b3e4be70ceb3e", "is_disabled": 0, "rental_uris": {"ios": "https://dc.lft.to/lastmile_qr_scan", "android": "https://dc.lft.to/lastmile_qr_scan"}, "is_reserved": 0}, {"lon": -76.996256, "bike_id": "4d4ac84184f947cedf782974f7fd53e3", "lat": 38.88797516666666, "fusion_lon": 0.0, "fusion_lat": 0.0, "type": "electric_scooter", "name": "4d4ac84184f947cedf782974f7fd53e3", "is_disabled": 0, "rental_uris": {"ios": "https://dc.lft.to/lastmile_qr_scan", "android": "https://dc.lft.to/lastmile_qr_scan"}, "is_reserved": 0}, {"lon": -77.0441755, "bike_id": "766eac7db30f6acbf5840b2f427222a7", "lat": 38.91130033333334, "fusion_lon": 0.0, "fusion_lat": 0.0, "type": "electric_scooter", "name": "766eac7db30f6acbf5840b2f427222a7", "is_disabled": 0, "rental_uris": {"ios": "https://dc.lft.to/lastmile_qr_scan", "android": "https://dc.lft.to/lastmile_qr_scan"}, "is_reserved": 0}, {"lon": -77.01818666666667, "bike_id": "76b645eb4f64bf70c6bedb2620f18016", "lat": 38.90129783333333, "fusion_lon": 0.0, "fusion_lat": 0.0, "type": "electric_scooter", "name": "76b645eb4f64bf70c6bedb2620f18016", "is_disabled": 0, "rental_uris": {"ios": "https://dc.lft.to/lastmile_qr_scan", "android": "https://dc.lft.to/lastmile_qr_scan"}, "is_reserved": 0}, {"lon": -76.94125516666666, "bike_id": "757d9039ca42883fcd88826be2006eaa", "lat": 38.90816733333333, "fusion_lon": 0.0, "fusion_lat": 0.0, "type": "electric_scooter", "name": "757d9039ca42883fcd88826be2006eaa", "is_disabled": 0, "rental_uris": {"ios": "https://dc.lft.to/lastmile_qr_scan", "android": "https://dc.lft.to/lastmile_qr_scan"}, "is_reserved": 0}, {"lon": -77.04461883333333, "bike_id": "0e375a36999799705c69b1b6471c4419", "lat": 38.9111705, "fusion_lon": 0.0, "fusion_lat": 0.0, "type": "electric_scooter", "name": "0e375a36999799705c69b1b6471c4419", "is_disabled": 0, "rental_uris": {"ios": "https://dc.lft.to/lastmile_qr_scan", "android": "https://dc.lft.to/lastmile_qr_scan"}, "is_reserved": 0}, {"lon": -77.04484766666667, "bike_id": "5bececbf1f139fc5d9e2c602025d8c57", "lat": 38.919319333333334, "fusion_lon": 0.0, "fusion_lat": 0.0, "type": "electric_scooter", "name": "5bececbf1f139fc5d9e2c602025d8c57", "is_disabled": 0, "rental_uris": {"ios": "https://dc.lft.to/lastmile_qr_scan", "android": "https://dc.lft.to/lastmile_qr_scan"}, "is_reserved": 0}, {"lon": -77.022408, "bike_id": "a005baabe258fb7bf839ecd784a212c5", "lat": 38.95523716666667, "fusion_lon": 0.0, "fusion_lat": 0.0, "type": "electric_scooter", "name": "a005baabe258fb7bf839ecd784a212c5", "is_disabled": 0, "rental_uris": {"ios": "https://dc.lft.to/lastmile_qr_scan", "android": "https://dc.lft.to/lastmile_qr_scan"}, "is_reserved": 0}, {"lon": -76.99050916666667, "bike_id": "554ca8d7997dd869abc08dd3b212a746", "lat": 38.86376766666667, "fusion_lon": 0.0, "fusion_lat": 0.0, "type": "electric_scooter", "name": "554ca8d7997dd869abc08dd3b212a746", "is_disabled": 0, "rental_uris": {"ios": "https://dc.lft.to/lastmile_qr_scan", "android": "https://dc.lft.to/lastmile_qr_scan"}, "is_reserved": 0}, {"lon": -77.02770766666667, "bike_id": "ea9e147f4c67bab36d5c5d1910b8ef26", "lat": 38.89221783333333, "fusion_lon": 0.0, "fusion_lat": 0.0, "type": "electric_scooter", "name": "ea9e147f4c67bab36d5c5d1910b8ef26", "is_disabled": 0, "rental_uris": {"ios": "https://dc.lft.to/lastmile_qr_scan", "android": "https://dc.lft.to/lastmile_qr_scan"}, "is_reserved": 0}, {"lon": -77.01606366666667, "bike_id": "ce9169e0d3493290f892dbc96ab480cb", "lat": 38.91757366666667, "fusion_lon": 0.0, "fusion_lat": 0.0, "type": "electric_scooter", "name": "ce9169e0d3493290f892dbc96ab480cb", "is_disabled": 0, "rental_uris": {"ios": "https://dc.lft.to/lastmile_qr_scan", "android": "https://dc.lft.to/lastmile_qr_scan"}, "is_reserved": 0}, {"lon": -77.00058966666667, "bike_id": "47437bb677ada7029f161b681336c250", "lat": 38.90082016666667, "fusion_lon": 0.0, "fusion_lat": 0.0, "type": "electric_scooter", "name": "47437bb677ada7029f161b681336c250", "is_disabled": 0, "rental_uris": {"ios": "https://dc.lft.to/lastmile_qr_scan", "android": "https://dc.lft.to/lastmile_qr_scan"}, "is_reserved": 0}, {"lon": -77.02582566666666, "bike_id": "14ed5c25bc4e099b1a2a17bbd0fa3bd0", "lat": 38.88737666666667, "fusion_lon": 0.0, "fusion_lat": 0.0, "type": "electric_scooter", "name": "14ed5c25bc4e099b1a2a17bbd0fa3bd0", "is_disabled": 0, "rental_uris": {"ios": "https://dc.lft.to/lastmile_qr_scan", "android": "https://dc.lft.to/lastmile_qr_scan"}, "is_reserved": 0}, {"lon": -76.98658266666666, "bike_id": "e0461a62427c146df6c14890b5cc9364", "lat": 38.912509, "fusion_lon": 0.0, "fusion_lat": 0.0, "type": "electric_scooter", "name": "e0461a62427c146df6c14890b5cc9364", "is_disabled": 0, "rental_uris": {"ios": "https://dc.lft.to/lastmile_qr_scan", "android": "https://dc.lft.to/lastmile_qr_scan"}, "is_reserved": 0}, {"lon": -77.0278145, "bike_id": "51d8a293781758a6bd25f1b5e4ab60b6", "lat": 38.927736833333334, "fusion_lon": 0.0, "fusion_lat": 0.0, "type": "electric_scooter", "name": "51d8a293781758a6bd25f1b5e4ab60b6", "is_disabled": 0, "rental_uris": {"ios": "https://dc.lft.to/lastmile_qr_scan", "android": "https://dc.lft.to/lastmile_qr_scan"}, "is_reserved": 0}, {"lon": -77.03646116666667, "bike_id": "e69f8a37089519817b9fecc07fa6289b", "lat": 38.903475, "fusion_lon": 0.0, "fusion_lat": 0.0, "type": "electric_scooter", "name": "e69f8a37089519817b9fecc07fa6289b", "is_disabled": 0, "rental_uris": {"ios": "https://dc.lft.to/lastmile_qr_scan", "android": "https://dc.lft.to/lastmile_qr_scan"}, "is_reserved": 0}, {"lon": -77.04878166666667, "bike_id": "1c5cfb74cd1aabf4c1e61de34165019e", "lat": 38.89231, "fusion_lon": 0.0, "fusion_lat": 0.0, "type": "electric_scooter", "name": "1c5cfb74cd1aabf4c1e61de34165019e", "is_disabled": 0, "rental_uris": {"ios": "https://dc.lft.to/lastmile_qr_scan", "android": "https://dc.lft.to/lastmile_qr_scan"}, "is_reserved": 0}, {"lon": -77.03202583333334, "bike_id": "f30ca85b7f4a1c45d4521e2814b5a450", "lat": 38.93044883333334, "fusion_lon": 0.0, "fusion_lat": 0.0, "type": "electric_scooter", "name": "f30ca85b7f4a1c45d4521e2814b5a450", "is_disabled": 0, "rental_uris": {"ios": "https://dc.lft.to/lastmile_qr_scan", "android": "https://dc.lft.to/lastmile_qr_scan"}, "is_reserved": 0}, {"lon": -77.023873, "bike_id": "45a941254e6e6916520dbbf773ef5229", "lat": 38.907867833333334, "fusion_lon": 0.0, "fusion_lat": 0.0, "type": "electric_scooter", "name": "45a941254e6e6916520dbbf773ef5229", "is_disabled": 0, "rental_uris": {"ios": "https://dc.lft.to/lastmile_qr_scan", "android": "https://dc.lft.to/lastmile_qr_scan"}, "is_reserved": 0}, {"lon": -77.04486466666667, "bike_id": "34acb345479bb5b868ebcce31b9f30b3", "lat": 38.9193605, "fusion_lon": 0.0, "fusion_lat": 0.0, "type": "electric_scooter", "name": "34acb345479bb5b868ebcce31b9f30b3", "is_disabled": 0, "rental_uris": {"ios": "https://dc.lft.to/lastmile_qr_scan", "android": "https://dc.lft.to/lastmile_qr_scan"}, "is_reserved": 0}, {"lon": -76.98838, "bike_id": "78b34310afa8b3df6e0f78bdcaf8b1c2", "lat": 38.901227166666665, "fusion_lon": 0.0, "fusion_lat": 0.0, "type": "electric_scooter", "name": "78b34310afa8b3df6e0f78bdcaf8b1c2", "is_disabled": 0, "rental_uris": {"ios": "https://dc.lft.to/lastmile_qr_scan", "android": "https://dc.lft.to/lastmile_qr_scan"}, "is_reserved": 0}, {"lon": -77.024095, "bike_id": "293434a21714d118f1550e235a506a2b", "lat": 38.92160033333333, "fusion_lon": 0.0, "fusion_lat": 0.0, "type": "electric_scooter", "name": "293434a21714d118f1550e235a506a2b", "is_disabled": 0, "rental_uris": {"ios": "https://dc.lft.to/lastmile_qr_scan", "android": "https://dc.lft.to/lastmile_qr_scan"}, "is_reserved": 0}, {"lon": -77.04660816666667, "bike_id": "42de1c224bdab8f8bd8a4caab7be15e2", "lat": 38.90556183333333, "fusion_lon": 0.0, "fusion_lat": 0.0, "type": "electric_scooter", "name": "42de1c224bdab8f8bd8a4caab7be15e2", "is_disabled": 0, "rental_uris": {"ios": "https://dc.lft.to/lastmile_qr_scan", "android": "https://dc.lft.to/lastmile_qr_scan"}, "is_reserved": 0}, {"lon": -77.03789716666667, "bike_id": "1174795504b6f44f0fb7bc621cf49c41", "lat": 38.93601233333333, "fusion_lon": 0.0, "fusion_lat": 0.0, "type": "electric_scooter", "name": "1174795504b6f44f0fb7bc621cf49c41", "is_disabled": 0, "rental_uris": {"ios": "https://dc.lft.to/lastmile_qr_scan", "android": "https://dc.lft.to/lastmile_qr_scan"}, "is_reserved": 0}, {"lon": -77.02403533333333, "bike_id": "e8b7831a51a29f9d992a6fb8a0d18511", "lat": 38.88285283333333, "fusion_lon": 0.0, "fusion_lat": 0.0, "type": "electric_scooter", "name": "e8b7831a51a29f9d992a6fb8a0d18511", "is_disabled": 0, "rental_uris": {"ios": "https://dc.lft.to/lastmile_qr_scan", "android": "https://dc.lft.to/lastmile_qr_scan"}, "is_reserved": 0}, {"lon": -77.03667, "bike_id": "3d84c16084e38743ab98e23288d3524a", "lat": 38.918139, "fusion_lon": 0.0, "fusion_lat": 0.0, "type": "electric_scooter", "name": "3d84c16084e38743ab98e23288d3524a", "is_disabled": 0, "rental_uris": {"ios": "https://dc.lft.to/lastmile_qr_scan", "android": "https://dc.lft.to/lastmile_qr_scan"}, "is_reserved": 0}, {"lon": -77.036768, "bike_id": "ad5f1ed5f8586edd165142269bcabac2", "lat": 38.90842266666667, "fusion_lon": 0.0, "fusion_lat": 0.0, "type": "electric_scooter", "name": "ad5f1ed5f8586edd165142269bcabac2", "is_disabled": 0, "rental_uris": {"ios": "https://dc.lft.to/lastmile_qr_scan", "android": "https://dc.lft.to/lastmile_qr_scan"}, "is_reserved": 0}, {"lon": -77.01032483333333, "bike_id": "c96cccd66e15fbfa652185d3d1187145", "lat": 38.9212655, "fusion_lon": 0.0, "fusion_lat": 0.0, "type": "electric_scooter", "name": "c96cccd66e15fbfa652185d3d1187145", "is_disabled": 0, "rental_uris": {"ios": "https://dc.lft.to/lastmile_qr_scan", "android": "https://dc.lft.to/lastmile_qr_scan"}, "is_reserved": 0}, {"lon": -76.96603533333334, "bike_id": "c4b3f50f900d43fdefb039c0e9e396da", "lat": 38.871109833333335, "fusion_lon": 0.0, "fusion_lat": 0.0, "type": "electric_scooter", "name": "c4b3f50f900d43fdefb039c0e9e396da", "is_disabled": 0, "rental_uris": {"ios": "https://dc.lft.to/lastmile_qr_scan", "android": "https://dc.lft.to/lastmile_qr_scan"}, "is_reserved": 0}, {"lon": -77.02168383333333, "bike_id": "4e9bc37433b4ce34f829c82e4844477e", "lat": 38.89734633333333, "fusion_lon": 0.0, "fusion_lat": 0.0, "type": "electric_scooter", "name": "4e9bc37433b4ce34f829c82e4844477e", "is_disabled": 0, "rental_uris": {"ios": "https://dc.lft.to/lastmile_qr_scan", "android": "https://dc.lft.to/lastmile_qr_scan"}, "is_reserved": 0}, {"lon": -77.03216833333333, "bike_id": "813bda4e4cd9313fbd79ae6d327f9bc0", "lat": 38.90729283333334, "fusion_lon": 0.0, "fusion_lat": 0.0, "type": "electric_scooter", "name": "813bda4e4cd9313fbd79ae6d327f9bc0", "is_disabled": 0, "rental_uris": {"ios": "https://dc.lft.to/lastmile_qr_scan", "android": "https://dc.lft.to/lastmile_qr_scan"}, "is_reserved": 0}, {"lon": -77.02189283333334, "bike_id": "205233a38dfc282cc918d285c102db6f", "lat": 38.90934383333333, "fusion_lon": 0.0, "fusion_lat": 0.0, "type": "electric_scooter", "name": "205233a38dfc282cc918d285c102db6f", "is_disabled": 0, "rental_uris": {"ios": "https://dc.lft.to/lastmile_qr_scan", "android": "https://dc.lft.to/lastmile_qr_scan"}, "is_reserved": 0}, {"lon": -77.05042383333333, "bike_id": "9034dee6c1eab2c1a523017b2d6363c8", "lat": 38.9240445, "fusion_lon": 0.0, "fusion_lat": 0.0, "type": "electric_bike", "name": "9034dee6c1eab2c1a523017b2d6363c8", "is_disabled": 0, "rental_uris": {"ios": "https://dc.lft.to/lastmile_qr_scan", "android": "https://dc.lft.to/lastmile_qr_scan"}, "is_reserved": 0}, {"lon": -77.031096, "bike_id": "429926795133402acec2b027b3bc069c", "lat": 38.915578333333336, "fusion_lon": 0.0, "fusion_lat": 0.0, "type": "electric_scooter", "name": "429926795133402acec2b027b3bc069c", "is_disabled": 0, "rental_uris": {"ios": "https://dc.lft.to/lastmile_qr_scan", "android": "https://dc.lft.to/lastmile_qr_scan"}, "is_reserved": 0}, {"lon": -77.0058245, "bike_id": "c06ea1f09f34b73b89531e4b2de19948", "lat": 38.905581166666664, "fusion_lon": 0.0, "fusion_lat": 0.0, "type": "electric_scooter", "name": "c06ea1f09f34b73b89531e4b2de19948", "is_disabled": 0, "rental_uris": {"ios": "https://dc.lft.to/lastmile_qr_scan", "android": "https://dc.lft.to/lastmile_qr_scan"}, "is_reserved": 0}, {"lon": -76.97300516666667, "bike_id": "f09f805a257274c025f067486d078004", "lat": 38.916457, "fusion_lon": 0.0, "fusion_lat": 0.0, "type": "electric_scooter", "name": "f09f805a257274c025f067486d078004", "is_disabled": 0, "rental_uris": {"ios": "https://dc.lft.to/lastmile_qr_scan", "android": "https://dc.lft.to/lastmile_qr_scan"}, "is_reserved": 0}, {"lon": -77.05228566666666, "bike_id": "8472c653a7f1b4dace018732a1abf29c", "lat": 38.92458966666667, "fusion_lon": 0.0, "fusion_lat": 0.0, "type": "electric_scooter", "name": "8472c653a7f1b4dace018732a1abf29c", "is_disabled": 0, "rental_uris": {"ios": "https://dc.lft.to/lastmile_qr_scan", "android": "https://dc.lft.to/lastmile_qr_scan"}, "is_reserved": 0}, {"lon": -77.01533166666667, "bike_id": "5ccd3f944f8e6b4b0542b24af65640df", "lat": 38.8873575, "fusion_lon": 0.0, "fusion_lat": 0.0, "type": "electric_scooter", "name": "5ccd3f944f8e6b4b0542b24af65640df", "is_disabled": 0, "rental_uris": {"ios": "https://dc.lft.to/lastmile_qr_scan", "android": "https://dc.lft.to/lastmile_qr_scan"}, "is_reserved": 0}, {"lon": -76.99353333333333, "bike_id": "a3ccc6e41a94b1f2189a3d6d11e7e54a", "lat": 38.845029333333336, "fusion_lon": 0.0, "fusion_lat": 0.0, "type": "electric_bike", "name": "a3ccc6e41a94b1f2189a3d6d11e7e54a", "is_disabled": 0, "rental_uris": {"ios": "https://dc.lft.to/lastmile_qr_scan", "android": "https://dc.lft.to/lastmile_qr_scan"}, "is_reserved": 0}, {"lon": -76.99885033333334, "bike_id": "31dcaa416ec7f179bebba4feab60b854", "lat": 38.92053816666667, "fusion_lon": 0.0, "fusion_lat": 0.0, "type": "electric_scooter", "name": "31dcaa416ec7f179bebba4feab60b854", "is_disabled": 0, "rental_uris": {"ios": "https://dc.lft.to/lastmile_qr_scan", "android": "https://dc.lft.to/lastmile_qr_scan"}, "is_reserved": 0}, {"lon": -77.02283283333334, "bike_id": "505efc566cd1fdee130d38dd85962e30", "lat": 38.91216933333333, "fusion_lon": 0.0, "fusion_lat": 0.0, "type": "electric_scooter", "name": "505efc566cd1fdee130d38dd85962e30", "is_disabled": 0, "rental_uris": {"ios": "https://dc.lft.to/lastmile_qr_scan", "android": "https://dc.lft.to/lastmile_qr_scan"}, "is_reserved": 0}, {"lon": -77.0331415, "bike_id": "2c25bcb8382f12161cce35e102e1b211", "lat": 38.900731, "fusion_lon": 0.0, "fusion_lat": 0.0, "type": "electric_scooter", "name": "2c25bcb8382f12161cce35e102e1b211", "is_disabled": 0, "rental_uris": {"ios": "https://dc.lft.to/lastmile_qr_scan", "android": "https://dc.lft.to/lastmile_qr_scan"}, "is_reserved": 0}, {"lon": -77.01058533333334, "bike_id": "1a00765c53f5daff8a3468d5124ea9a4", "lat": 38.878680833333334, "fusion_lon": 0.0, "fusion_lat": 0.0, "type": "electric_scooter", "name": "1a00765c53f5daff8a3468d5124ea9a4", "is_disabled": 0, "rental_uris": {"ios": "https://dc.lft.to/lastmile_qr_scan", "android": "https://dc.lft.to/lastmile_qr_scan"}, "is_reserved": 0}, {"lon": -77.02711883333333, "bike_id": "69770df69e493268b60e51f3a7f432f6", "lat": 38.9121795, "fusion_lon": 0.0, "fusion_lat": 0.0, "type": "electric_scooter", "name": "69770df69e493268b60e51f3a7f432f6", "is_disabled": 0, "rental_uris": {"ios": "https://dc.lft.to/lastmile_qr_scan", "android": "https://dc.lft.to/lastmile_qr_scan"}, "is_reserved": 0}, {"lon": -77.05904733333334, "bike_id": "0fe60d4c63ff03cb92d72a1f11f4e62d", "lat": 38.8626545, "fusion_lon": 0.0, "fusion_lat": 0.0, "type": "electric_scooter", "name": "0fe60d4c63ff03cb92d72a1f11f4e62d", "is_disabled": 0, "rental_uris": {"ios": "https://dc.lft.to/lastmile_qr_scan", "android": "https://dc.lft.to/lastmile_qr_scan"}, "is_reserved": 0}, {"lon": -77.0442005, "bike_id": "16294eaabb77b39bc28e16677f525e75", "lat": 38.91753933333333, "fusion_lon": 0.0, "fusion_lat": 0.0, "type": "electric_scooter", "name": "16294eaabb77b39bc28e16677f525e75", "is_disabled": 0, "rental_uris": {"ios": "https://dc.lft.to/lastmile_qr_scan", "android": "https://dc.lft.to/lastmile_qr_scan"}, "is_reserved": 0}, {"lon": -77.05319866666666, "bike_id": "847a59ea5c6c1cac98dc113d3317af6a", "lat": 38.90193683333333, "fusion_lon": 0.0, "fusion_lat": 0.0, "type": "electric_scooter", "name": "847a59ea5c6c1cac98dc113d3317af6a", "is_disabled": 0, "rental_uris": {"ios": "https://dc.lft.to/lastmile_qr_scan", "android": "https://dc.lft.to/lastmile_qr_scan"}, "is_reserved": 0}, {"lon": -77.03443183333333, "bike_id": "11d30a320e0168ea8732d2921d9bbf85", "lat": 38.90982116666667, "fusion_lon": 0.0, "fusion_lat": 0.0, "type": "electric_scooter", "name": "11d30a320e0168ea8732d2921d9bbf85", "is_disabled": 0, "rental_uris": {"ios": "https://dc.lft.to/lastmile_qr_scan", "android": "https://dc.lft.to/lastmile_qr_scan"}, "is_reserved": 0}, {"lon": -77.03448116666667, "bike_id": "0e8307f72f1ba9d1152da15f1c79f8c8", "lat": 38.914927, "fusion_lon": 0.0, "fusion_lat": 0.0, "type": "electric_scooter", "name": "0e8307f72f1ba9d1152da15f1c79f8c8", "is_disabled": 0, "rental_uris": {"ios": "https://dc.lft.to/lastmile_qr_scan", "android": "https://dc.lft.to/lastmile_qr_scan"}, "is_reserved": 0}, {"lon": -77.03848966666666, "bike_id": "40b0c9f2d5217bd545504f8ce5abcf79", "lat": 38.916646666666665, "fusion_lon": 0.0, "fusion_lat": 0.0, "type": "electric_scooter", "name": "40b0c9f2d5217bd545504f8ce5abcf79", "is_disabled": 0, "rental_uris": {"ios": "https://dc.lft.to/lastmile_qr_scan", "android": "https://dc.lft.to/lastmile_qr_scan"}, "is_reserved": 0}, {"lon": -77.00539866666666, "bike_id": "dfb6640899f757fe0ef699f1b62fff5e", "lat": 38.90037483333333, "fusion_lon": 0.0, "fusion_lat": 0.0, "type": "electric_scooter", "name": "dfb6640899f757fe0ef699f1b62fff5e", "is_disabled": 0, "rental_uris": {"ios": "https://dc.lft.to/lastmile_qr_scan", "android": "https://dc.lft.to/lastmile_qr_scan"}, "is_reserved": 0}, {"lon": -77.0383115, "bike_id": "367bbb8269e4c2bed174b0014052a10a", "lat": 38.90675533333334, "fusion_lon": 0.0, "fusion_lat": 0.0, "type": "electric_scooter", "name": "367bbb8269e4c2bed174b0014052a10a", "is_disabled": 0, "rental_uris": {"ios": "https://dc.lft.to/lastmile_qr_scan", "android": "https://dc.lft.to/lastmile_qr_scan"}, "is_reserved": 0}, {"lon": -77.031943, "bike_id": "0f81af531f9bb333ea6e5c563d593b79", "lat": 38.919029333333334, "fusion_lon": 0.0, "fusion_lat": 0.0, "type": "electric_scooter", "name": "0f81af531f9bb333ea6e5c563d593b79", "is_disabled": 0, "rental_uris": {"ios": "https://dc.lft.to/lastmile_qr_scan", "android": "https://dc.lft.to/lastmile_qr_scan"}, "is_reserved": 0}, {"lon": -76.98898066666666, "bike_id": "707bc367c0f80115e6136431ecbf6697", "lat": 38.91346383333333, "fusion_lon": 0.0, "fusion_lat": 0.0, "type": "electric_scooter", "name": "707bc367c0f80115e6136431ecbf6697", "is_disabled": 0, "rental_uris": {"ios": "https://dc.lft.to/lastmile_qr_scan", "android": "https://dc.lft.to/lastmile_qr_scan"}, "is_reserved": 0}, {"lon": -77.008404, "bike_id": "8a309bbe6b89b38ec48dfd4dd7fd2b04", "lat": 38.9162475, "fusion_lon": 0.0, "fusion_lat": 0.0, "type": "electric_scooter", "name": "8a309bbe6b89b38ec48dfd4dd7fd2b04", "is_disabled": 0, "rental_uris": {"ios": "https://dc.lft.to/lastmile_qr_scan", "android": "https://dc.lft.to/lastmile_qr_scan"}, "is_reserved": 0}, {"lon": -77.03653916666667, "bike_id": "52ce50cb8155a04370dd2f4be0ef9244", "lat": 38.941764666666664, "fusion_lon": 0.0, "fusion_lat": 0.0, "type": "electric_scooter", "name": "52ce50cb8155a04370dd2f4be0ef9244", "is_disabled": 0, "rental_uris": {"ios": "https://dc.lft.to/lastmile_qr_scan", "android": "https://dc.lft.to/lastmile_qr_scan"}, "is_reserved": 0}, {"lon": -76.98192816666666, "bike_id": "e132f787f3ff43027e740a0624fb3f66", "lat": 38.9260505, "fusion_lon": 0.0, "fusion_lat": 0.0, "type": "electric_scooter", "name": "e132f787f3ff43027e740a0624fb3f66", "is_disabled": 0, "rental_uris": {"ios": "https://dc.lft.to/lastmile_qr_scan", "android": "https://dc.lft.to/lastmile_qr_scan"}, "is_reserved": 0}, {"lon": -77.10087483333334, "bike_id": "b047ac5c8463ce166b87b0c64991d0aa", "lat": 38.9595605, "fusion_lon": 0.0, "fusion_lat": 0.0, "type": "electric_bike", "name": "b047ac5c8463ce166b87b0c64991d0aa", "is_disabled": 0, "rental_uris": {"ios": "https://dc.lft.to/lastmile_qr_scan", "android": "https://dc.lft.to/lastmile_qr_scan"}, "is_reserved": 0}, {"lon": -76.95473033333333, "bike_id": "9a9cf8827e6e85adcc8083ca85c2c187", "lat": 38.88462766666667, "fusion_lon": 0.0, "fusion_lat": 0.0, "type": "electric_scooter", "name": "9a9cf8827e6e85adcc8083ca85c2c187", "is_disabled": 0, "rental_uris": {"ios": "https://dc.lft.to/lastmile_qr_scan", "android": "https://dc.lft.to/lastmile_qr_scan"}, "is_reserved": 0}, {"lon": -76.988809, "bike_id": "4a38ca9e8ec38ae893b87d5b68190d8f", "lat": 38.86653066666667, "fusion_lon": 0.0, "fusion_lat": 0.0, "type": "electric_scooter", "name": "4a38ca9e8ec38ae893b87d5b68190d8f", "is_disabled": 0, "rental_uris": {"ios": "https://dc.lft.to/lastmile_qr_scan", "android": "https://dc.lft.to/lastmile_qr_scan"}, "is_reserved": 0}, {"lon": -76.98852933333333, "bike_id": "33a7cc1ebfd64f359f1ba36285e3684d", "lat": 38.90026016666667, "fusion_lon": 0.0, "fusion_lat": 0.0, "type": "electric_scooter", "name": "33a7cc1ebfd64f359f1ba36285e3684d", "is_disabled": 0, "rental_uris": {"ios": "https://dc.lft.to/lastmile_qr_scan", "android": "https://dc.lft.to/lastmile_qr_scan"}, "is_reserved": 0}, {"lon": -77.06367483333334, "bike_id": "72d4dc03d9009ce08aed11de714bd039", "lat": 38.944635166666664, "fusion_lon": 0.0, "fusion_lat": 0.0, "type": "electric_scooter", "name": "72d4dc03d9009ce08aed11de714bd039", "is_disabled": 0, "rental_uris": {"ios": "https://dc.lft.to/lastmile_qr_scan", "android": "https://dc.lft.to/lastmile_qr_scan"}, "is_reserved": 0}, {"lon": -77.02289366666666, "bike_id": "99bdd8bad0a25930e6d56b83e762dac9", "lat": 38.89059866666667, "fusion_lon": 0.0, "fusion_lat": 0.0, "type": "electric_scooter", "name": "99bdd8bad0a25930e6d56b83e762dac9", "is_disabled": 0, "rental_uris": {"ios": "https://dc.lft.to/lastmile_qr_scan", "android": "https://dc.lft.to/lastmile_qr_scan"}, "is_reserved": 0}, {"lon": -77.002157, "bike_id": "170877cf6c32a6436c7e6bc8c1b9ba17", "lat": 38.900331666666666, "fusion_lon": 0.0, "fusion_lat": 0.0, "type": "electric_scooter", "name": "170877cf6c32a6436c7e6bc8c1b9ba17", "is_disabled": 0, "rental_uris": {"ios": "https://dc.lft.to/lastmile_qr_scan", "android": "https://dc.lft.to/lastmile_qr_scan"}, "is_reserved": 0}, {"lon": -77.0321, "bike_id": "f35ff0af2495096c344c8ba00199c173", "lat": 38.918324, "fusion_lon": 0.0, "fusion_lat": 0.0, "type": "electric_scooter", "name": "f35ff0af2495096c344c8ba00199c173", "is_disabled": 0, "rental_uris": {"ios": "https://dc.lft.to/lastmile_qr_scan", "android": "https://dc.lft.to/lastmile_qr_scan"}, "is_reserved": 0}, {"lon": -76.94291016666666, "bike_id": "620ad6877dfd28a04e96c0fc927a795b", "lat": 38.93867733333333, "fusion_lon": 0.0, "fusion_lat": 0.0, "type": "electric_bike", "name": "620ad6877dfd28a04e96c0fc927a795b", "is_disabled": 0, "rental_uris": {"ios": "https://dc.lft.to/lastmile_qr_scan", "android": "https://dc.lft.to/lastmile_qr_scan"}, "is_reserved": 0}, {"lon": -77.02625333333333, "bike_id": "7fd695b7eee7ad7af74baa683146d822", "lat": 38.96217816666667, "fusion_lon": 0.0, "fusion_lat": 0.0, "type": "electric_bike", "name": "7fd695b7eee7ad7af74baa683146d822", "is_disabled": 0, "rental_uris": {"ios": "https://dc.lft.to/lastmile_qr_scan", "android": "https://dc.lft.to/lastmile_qr_scan"}, "is_reserved": 0}, {"lon": -76.988968, "bike_id": "31daf3c5e7d698a3cdfdfe71014634e2", "lat": 38.91344216666667, "fusion_lon": 0.0, "fusion_lat": 0.0, "type": "electric_scooter", "name": "31daf3c5e7d698a3cdfdfe71014634e2", "is_disabled": 0, "rental_uris": {"ios": "https://dc.lft.to/lastmile_qr_scan", "android": "https://dc.lft.to/lastmile_qr_scan"}, "is_reserved": 0}, {"lon": -76.985913, "bike_id": "e869c9190d29dce927d71413afda737c", "lat": 38.908114166666664, "fusion_lon": 0.0, "fusion_lat": 0.0, "type": "electric_scooter", "name": "e869c9190d29dce927d71413afda737c", "is_disabled": 0, "rental_uris": {"ios": "https://dc.lft.to/lastmile_qr_scan", "android": "https://dc.lft.to/lastmile_qr_scan"}, "is_reserved": 0}, {"lon": -76.98263683333333, "bike_id": "78881ba4ad74ccaf17482dd17c178eba", "lat": 38.908538, "fusion_lon": 0.0, "fusion_lat": 0.0, "type": "electric_scooter", "name": "78881ba4ad74ccaf17482dd17c178eba", "is_disabled": 0, "rental_uris": {"ios": "https://dc.lft.to/lastmile_qr_scan", "android": "https://dc.lft.to/lastmile_qr_scan"}, "is_reserved": 0}, {"lon": -77.0116645, "bike_id": "82b7f1505bd91daef97dec9137c2013f", "lat": 38.87234933333333, "fusion_lon": 0.0, "fusion_lat": 0.0, "type": "electric_bike", "name": "82b7f1505bd91daef97dec9137c2013f", "is_disabled": 0, "rental_uris": {"ios": "https://dc.lft.to/lastmile_qr_scan", "android": "https://dc.lft.to/lastmile_qr_scan"}, "is_reserved": 0}, {"lon": -76.994862, "bike_id": "c5199b21a1c54683a771853fa8e87b2e", "lat": 38.915707833333336, "fusion_lon": 0.0, "fusion_lat": 0.0, "type": "electric_scooter", "name": "c5199b21a1c54683a771853fa8e87b2e", "is_disabled": 0, "rental_uris": {"ios": "https://dc.lft.to/lastmile_qr_scan", "android": "https://dc.lft.to/lastmile_qr_scan"}, "is_reserved": 0}, {"lon": -76.93370633333333, "bike_id": "10da9e9e3adc0a20f8fa76791ac199e4", "lat": 38.89911433333333, "fusion_lon": 0.0, "fusion_lat": 0.0, "type": "electric_scooter", "name": "10da9e9e3adc0a20f8fa76791ac199e4", "is_disabled": 0, "rental_uris": {"ios": "https://dc.lft.to/lastmile_qr_scan", "android": "https://dc.lft.to/lastmile_qr_scan"}, "is_reserved": 0}, {"lon": -77.04098166666667, "bike_id": "967d8a628092080f8e0d717b162643a7", "lat": 38.920369, "fusion_lon": 0.0, "fusion_lat": 0.0, "type": "electric_scooter", "name": "967d8a628092080f8e0d717b162643a7", "is_disabled": 0, "rental_uris": {"ios": "https://dc.lft.to/lastmile_qr_scan", "android": "https://dc.lft.to/lastmile_qr_scan"}, "is_reserved": 0}, {"lon": -76.96543216666667, "bike_id": "bb1857b6bb6f46ac5c33cf477d3601b2", "lat": 38.91843383333333, "fusion_lon": 0.0, "fusion_lat": 0.0, "type": "electric_scooter", "name": "bb1857b6bb6f46ac5c33cf477d3601b2", "is_disabled": 0, "rental_uris": {"ios": "https://dc.lft.to/lastmile_qr_scan", "android": "https://dc.lft.to/lastmile_qr_scan"}, "is_reserved": 0}, {"lon": -76.98878616666667, "bike_id": "b616ec6569116e8d129fb005e32b1b46", "lat": 38.86656716666667, "fusion_lon": 0.0, "fusion_lat": 0.0, "type": "electric_scooter", "name": "b616ec6569116e8d129fb005e32b1b46", "is_disabled": 0, "rental_uris": {"ios": "https://dc.lft.to/lastmile_qr_scan", "android": "https://dc.lft.to/lastmile_qr_scan"}, "is_reserved": 0}, {"lon": -76.972974, "bike_id": "ac96e171e4f76c9764470b01bd7136ce", "lat": 38.9165135, "fusion_lon": 0.0, "fusion_lat": 0.0, "type": "electric_bike", "name": "ac96e171e4f76c9764470b01bd7136ce", "is_disabled": 0, "rental_uris": {"ios": "https://dc.lft.to/lastmile_qr_scan", "android": "https://dc.lft.to/lastmile_qr_scan"}, "is_reserved": 0}, {"lon": -77.00890583333333, "bike_id": "2d96e830fb629ff8d6d6054600aaec11", "lat": 38.92279416666667, "fusion_lon": 0.0, "fusion_lat": 0.0, "type": "electric_scooter", "name": "2d96e830fb629ff8d6d6054600aaec11", "is_disabled": 0, "rental_uris": {"ios": "https://dc.lft.to/lastmile_qr_scan", "android": "https://dc.lft.to/lastmile_qr_scan"}, "is_reserved": 0}, {"lon": -77.0009765, "bike_id": "3fb08f5f99417f18635fffa8f25588c2", "lat": 38.912451, "fusion_lon": 0.0, "fusion_lat": 0.0, "type": "electric_scooter", "name": "3fb08f5f99417f18635fffa8f25588c2", "is_disabled": 0, "rental_uris": {"ios": "https://dc.lft.to/lastmile_qr_scan", "android": "https://dc.lft.to/lastmile_qr_scan"}, "is_reserved": 0}, {"lon": -77.027966, "bike_id": "1947b7ae6cc77ccc21737aef0b745af0", "lat": 38.92962216666667, "fusion_lon": 0.0, "fusion_lat": 0.0, "type": "electric_scooter", "name": "1947b7ae6cc77ccc21737aef0b745af0", "is_disabled": 0, "rental_uris": {"ios": "https://dc.lft.to/lastmile_qr_scan", "android": "https://dc.lft.to/lastmile_qr_scan"}, "is_reserved": 0}, {"lon": -77.23330916666667, "bike_id": "c7e4cb3a4ef4462caa4e3ea839403815", "lat": 38.87274033333333, "fusion_lon": 0.0, "fusion_lat": 0.0, "type": "electric_bike", "name": "c7e4cb3a4ef4462caa4e3ea839403815", "is_disabled": 0, "rental_uris": {"ios": "https://dc.lft.to/lastmile_qr_scan", "android": "https://dc.lft.to/lastmile_qr_scan"}, "is_reserved": 0}, {"lon": -76.98525716666667, "bike_id": "efd2958c9694e0bc67d0c028865c3d59", "lat": 38.866803, "fusion_lon": 0.0, "fusion_lat": 0.0, "type": "electric_scooter", "name": "efd2958c9694e0bc67d0c028865c3d59", "is_disabled": 0, "rental_uris": {"ios": "https://dc.lft.to/lastmile_qr_scan", "android": "https://dc.lft.to/lastmile_qr_scan"}, "is_reserved": 0}, {"lon": -77.03069366666666, "bike_id": "63fbaa7cf3a5858106e998cd61f1bb72", "lat": 38.883851166666666, "fusion_lon": 0.0, "fusion_lat": 0.0, "type": "electric_scooter", "name": "63fbaa7cf3a5858106e998cd61f1bb72", "is_disabled": 0, "rental_uris": {"ios": "https://dc.lft.to/lastmile_qr_scan", "android": "https://dc.lft.to/lastmile_qr_scan"}, "is_reserved": 0}, {"lon": -77.03974, "bike_id": "22807cebd44272f78c671356c010b8d4", "lat": 38.928013, "fusion_lon": 0.0, "fusion_lat": 0.0, "type": "electric_scooter", "name": "22807cebd44272f78c671356c010b8d4", "is_disabled": 0, "rental_uris": {"ios": "https://dc.lft.to/lastmile_qr_scan", "android": "https://dc.lft.to/lastmile_qr_scan"}, "is_reserved": 0}, {"lon": -77.03176583333334, "bike_id": "84c10d115b92e7c2c35f2c94d1347af2", "lat": 38.9036085, "fusion_lon": 0.0, "fusion_lat": 0.0, "type": "electric_scooter", "name": "84c10d115b92e7c2c35f2c94d1347af2", "is_disabled": 0, "rental_uris": {"ios": "https://dc.lft.to/lastmile_qr_scan", "android": "https://dc.lft.to/lastmile_qr_scan"}, "is_reserved": 0}, {"lon": -77.03851016666667, "bike_id": "ce587a1d6e5f277534bf4943ae72353b", "lat": 38.91661283333333, "fusion_lon": 0.0, "fusion_lat": 0.0, "type": "electric_scooter", "name": "ce587a1d6e5f277534bf4943ae72353b", "is_disabled": 0, "rental_uris": {"ios": "https://dc.lft.to/lastmile_qr_scan", "android": "https://dc.lft.to/lastmile_qr_scan"}, "is_reserved": 0}, {"lon": -77.0254245, "bike_id": "9fc7844023f1e5feb6ad1a3123521c3e", "lat": 38.90718783333333, "fusion_lon": 0.0, "fusion_lat": 0.0, "type": "electric_scooter", "name": "9fc7844023f1e5feb6ad1a3123521c3e", "is_disabled": 0, "rental_uris": {"ios": "https://dc.lft.to/lastmile_qr_scan", "android": "https://dc.lft.to/lastmile_qr_scan"}, "is_reserved": 0}, {"lon": -76.95005133333333, "bike_id": "636c917d41544c356905588bacdb8935", "lat": 38.893817166666665, "fusion_lon": 0.0, "fusion_lat": 0.0, "type": "electric_scooter", "name": "636c917d41544c356905588bacdb8935", "is_disabled": 0, "rental_uris": {"ios": "https://dc.lft.to/lastmile_qr_scan", "android": "https://dc.lft.to/lastmile_qr_scan"}, "is_reserved": 0}, {"lon": -76.99451716666667, "bike_id": "9a8c9e997e075ad872654f04d009d8f7", "lat": 38.862822333333334, "fusion_lon": 0.0, "fusion_lat": 0.0, "type": "electric_scooter", "name": "9a8c9e997e075ad872654f04d009d8f7", "is_disabled": 0, "rental_uris": {"ios": "https://dc.lft.to/lastmile_qr_scan", "android": "https://dc.lft.to/lastmile_qr_scan"}, "is_reserved": 0}, {"lon": -77.23321483333334, "bike_id": "f20bdf857733d168707076eefbedbe01", "lat": 38.872817, "fusion_lon": 0.0, "fusion_lat": 0.0, "type": "electric_bike", "name": "f20bdf857733d168707076eefbedbe01", "is_disabled": 0, "rental_uris": {"ios": "https://dc.lft.to/lastmile_qr_scan", "android": "https://dc.lft.to/lastmile_qr_scan"}, "is_reserved": 0}, {"lon": -77.03658533333333, "bike_id": "33ee96d7fe1df1fae1eb8985578468dd", "lat": 38.92090266666666, "fusion_lon": 0.0, "fusion_lat": 0.0, "type": "electric_scooter", "name": "33ee96d7fe1df1fae1eb8985578468dd", "is_disabled": 0, "rental_uris": {"ios": "https://dc.lft.to/lastmile_qr_scan", "android": "https://dc.lft.to/lastmile_qr_scan"}, "is_reserved": 0}, {"lon": -77.03768366666667, "bike_id": "6ba5f7ef210499063e0538bd3974f87f", "lat": 38.929431666666666, "fusion_lon": 0.0, "fusion_lat": 0.0, "type": "electric_scooter", "name": "6ba5f7ef210499063e0538bd3974f87f", "is_disabled": 0, "rental_uris": {"ios": "https://dc.lft.to/lastmile_qr_scan", "android": "https://dc.lft.to/lastmile_qr_scan"}, "is_reserved": 0}, {"lon": -77.03182616666666, "bike_id": "c6817feee66fef8d780c4da751ca98b7", "lat": 38.895716166666666, "fusion_lon": 0.0, "fusion_lat": 0.0, "type": "electric_scooter", "name": "c6817feee66fef8d780c4da751ca98b7", "is_disabled": 0, "rental_uris": {"ios": "https://dc.lft.to/lastmile_qr_scan", "android": "https://dc.lft.to/lastmile_qr_scan"}, "is_reserved": 0}, {"lon": -77.024464, "bike_id": "998d3483c81e37ab714f391db6874d74", "lat": 38.914134833333335, "fusion_lon": 0.0, "fusion_lat": 0.0, "type": "electric_scooter", "name": "998d3483c81e37ab714f391db6874d74", "is_disabled": 0, "rental_uris": {"ios": "https://dc.lft.to/lastmile_qr_scan", "android": "https://dc.lft.to/lastmile_qr_scan"}, "is_reserved": 0}, {"lon": -77.0237045, "bike_id": "d8659cf1ffcc8c014f6c15ef0a0c064f", "lat": 38.90201616666667, "fusion_lon": 0.0, "fusion_lat": 0.0, "type": "electric_scooter", "name": "d8659cf1ffcc8c014f6c15ef0a0c064f", "is_disabled": 0, "rental_uris": {"ios": "https://dc.lft.to/lastmile_qr_scan", "android": "https://dc.lft.to/lastmile_qr_scan"}, "is_reserved": 0}, {"lon": -77.03459616666666, "bike_id": "e667a104aea87645519e4758fcd82686", "lat": 38.90855, "fusion_lon": 0.0, "fusion_lat": 0.0, "type": "electric_scooter", "name": "e667a104aea87645519e4758fcd82686", "is_disabled": 0, "rental_uris": {"ios": "https://dc.lft.to/lastmile_qr_scan", "android": "https://dc.lft.to/lastmile_qr_scan"}, "is_reserved": 0}, {"lon": -77.0054715, "bike_id": "8df000ac941a0134079a5247e2befa9d", "lat": 38.874581666666664, "fusion_lon": 0.0, "fusion_lat": 0.0, "type": "electric_scooter", "name": "8df000ac941a0134079a5247e2befa9d", "is_disabled": 0, "rental_uris": {"ios": "https://dc.lft.to/lastmile_qr_scan", "android": "https://dc.lft.to/lastmile_qr_scan"}, "is_reserved": 0}, {"lon": -77.000684, "bike_id": "a256eba0590f17d0229ef85e230ff2e0", "lat": 38.897239166666665, "fusion_lon": 0.0, "fusion_lat": 0.0, "type": "electric_scooter", "name": "a256eba0590f17d0229ef85e230ff2e0", "is_disabled": 0, "rental_uris": {"ios": "https://dc.lft.to/lastmile_qr_scan", "android": "https://dc.lft.to/lastmile_qr_scan"}, "is_reserved": 0}, {"lon": -77.05412833333334, "bike_id": "6e0885942574d978caa9f7c4f5750f08", "lat": 38.901431, "fusion_lon": 0.0, "fusion_lat": 0.0, "type": "electric_scooter", "name": "6e0885942574d978caa9f7c4f5750f08", "is_disabled": 0, "rental_uris": {"ios": "https://dc.lft.to/lastmile_qr_scan", "android": "https://dc.lft.to/lastmile_qr_scan"}, "is_reserved": 0}, {"lon": -77.034384, "bike_id": "fbd0c580d73c1bfb1ae3eb51235fed5f", "lat": 38.91802916666666, "fusion_lon": 0.0, "fusion_lat": 0.0, "type": "electric_scooter", "name": "fbd0c580d73c1bfb1ae3eb51235fed5f", "is_disabled": 0, "rental_uris": {"ios": "https://dc.lft.to/lastmile_qr_scan", "android": "https://dc.lft.to/lastmile_qr_scan"}, "is_reserved": 0}, {"lon": -77.00027216666666, "bike_id": "40b98488827ecfd1f56c168b7bc3dcbe", "lat": 38.96822516666667, "fusion_lon": 0.0, "fusion_lat": 0.0, "type": "electric_bike", "name": "40b98488827ecfd1f56c168b7bc3dcbe", "is_disabled": 0, "rental_uris": {"ios": "https://dc.lft.to/lastmile_qr_scan", "android": "https://dc.lft.to/lastmile_qr_scan"}, "is_reserved": 0}, {"lon": -77.03352266666667, "bike_id": "f2455379805fdda389179bcc846195fc", "lat": 38.897265166666664, "fusion_lon": 0.0, "fusion_lat": 0.0, "type": "electric_scooter", "name": "f2455379805fdda389179bcc846195fc", "is_disabled": 0, "rental_uris": {"ios": "https://dc.lft.to/lastmile_qr_scan", "android": "https://dc.lft.to/lastmile_qr_scan"}, "is_reserved": 0}, {"lon": -77.03437916666667, "bike_id": "a6d41123d3eea8377a4c33ad4f4d8aab", "lat": 38.909693, "fusion_lon": 0.0, "fusion_lat": 0.0, "type": "electric_scooter", "name": "a6d41123d3eea8377a4c33ad4f4d8aab", "is_disabled": 0, "rental_uris": {"ios": "https://dc.lft.to/lastmile_qr_scan", "android": "https://dc.lft.to/lastmile_qr_scan"}, "is_reserved": 0}, {"lon": -77.03443783333333, "bike_id": "1197d467352622ab5c92353a20ce6efb", "lat": 38.9180485, "fusion_lon": 0.0, "fusion_lat": 0.0, "type": "electric_scooter", "name": "1197d467352622ab5c92353a20ce6efb", "is_disabled": 0, "rental_uris": {"ios": "https://dc.lft.to/lastmile_qr_scan", "android": "https://dc.lft.to/lastmile_qr_scan"}, "is_reserved": 0}, {"lon": -77.0320485, "bike_id": "3958e479830e10b550796d8c612d1cac", "lat": 38.94405866666666, "fusion_lon": 0.0, "fusion_lat": 0.0, "type": "electric_scooter", "name": "3958e479830e10b550796d8c612d1cac", "is_disabled": 0, "rental_uris": {"ios": "https://dc.lft.to/lastmile_qr_scan", "android": "https://dc.lft.to/lastmile_qr_scan"}, "is_reserved": 0}, {"lon": -77.04178466666667, "bike_id": "dbc823f995c4f21a359069c795ebc92c", "lat": 38.906335, "fusion_lon": 0.0, "fusion_lat": 0.0, "type": "electric_scooter", "name": "dbc823f995c4f21a359069c795ebc92c", "is_disabled": 0, "rental_uris": {"ios": "https://dc.lft.to/lastmile_qr_scan", "android": "https://dc.lft.to/lastmile_qr_scan"}, "is_reserved": 0}, {"lon": -77.11576916666667, "bike_id": "570423dd544c6a1add416eec700f664a", "lat": 38.9934615, "fusion_lon": 0.0, "fusion_lat": 0.0, "type": "electric_bike", "name": "570423dd544c6a1add416eec700f664a", "is_disabled": 0, "rental_uris": {"ios": "https://dc.lft.to/lastmile_qr_scan", "android": "https://dc.lft.to/lastmile_qr_scan"}, "is_reserved": 0}, {"lon": -77.00199016666667, "bike_id": "44559595596bc5019520493aff21e013", "lat": 38.902398, "fusion_lon": 0.0, "fusion_lat": 0.0, "type": "electric_scooter", "name": "44559595596bc5019520493aff21e013", "is_disabled": 0, "rental_uris": {"ios": "https://dc.lft.to/lastmile_qr_scan", "android": "https://dc.lft.to/lastmile_qr_scan"}, "is_reserved": 0}, {"lon": -77.05935483333333, "bike_id": "668cd6451b1402946bda2bb897306c49", "lat": 38.90529133333333, "fusion_lon": 0.0, "fusion_lat": 0.0, "type": "electric_bike", "name": "668cd6451b1402946bda2bb897306c49", "is_disabled": 0, "rental_uris": {"ios": "https://dc.lft.to/lastmile_qr_scan", "android": "https://dc.lft.to/lastmile_qr_scan"}, "is_reserved": 0}, {"lon": -77.02909233333334, "bike_id": "584a5784e6a13558f3198280499913bb", "lat": 38.916853333333336, "fusion_lon": 0.0, "fusion_lat": 0.0, "type": "electric_scooter", "name": "584a5784e6a13558f3198280499913bb", "is_disabled": 0, "rental_uris": {"ios": "https://dc.lft.to/lastmile_qr_scan", "android": "https://dc.lft.to/lastmile_qr_scan"}, "is_reserved": 0}, {"lon": -77.05912166666667, "bike_id": "0067fc45ba3d2dfcb05e44aaa2db0710", "lat": 38.903843, "fusion_lon": 0.0, "fusion_lat": 0.0, "type": "electric_scooter", "name": "0067fc45ba3d2dfcb05e44aaa2db0710", "is_disabled": 0, "rental_uris": {"ios": "https://dc.lft.to/lastmile_qr_scan", "android": "https://dc.lft.to/lastmile_qr_scan"}, "is_reserved": 0}, {"lon": -77.07384333333333, "bike_id": "93c9a3fd784f8f9c6ffd456b9457c593", "lat": 38.9621625, "fusion_lon": 0.0, "fusion_lat": 0.0, "type": "electric_scooter", "name": "93c9a3fd784f8f9c6ffd456b9457c593", "is_disabled": 0, "rental_uris": {"ios": "https://dc.lft.to/lastmile_qr_scan", "android": "https://dc.lft.to/lastmile_qr_scan"}, "is_reserved": 0}, {"lon": -77.02966216666667, "bike_id": "92d61d800141f41ed8618ab8aa1eecbe", "lat": 38.916607666666664, "fusion_lon": 0.0, "fusion_lat": 0.0, "type": "electric_scooter", "name": "92d61d800141f41ed8618ab8aa1eecbe", "is_disabled": 0, "rental_uris": {"ios": "https://dc.lft.to/lastmile_qr_scan", "android": "https://dc.lft.to/lastmile_qr_scan"}, "is_reserved": 0}, {"lon": -76.985271, "bike_id": "52646eb2e0f328ee8909b19ebfef2e0f", "lat": 38.866866333333334, "fusion_lon": 0.0, "fusion_lat": 0.0, "type": "electric_scooter", "name": "52646eb2e0f328ee8909b19ebfef2e0f", "is_disabled": 0, "rental_uris": {"ios": "https://dc.lft.to/lastmile_qr_scan", "android": "https://dc.lft.to/lastmile_qr_scan"}, "is_reserved": 0}, {"lon": -77.02677133333333, "bike_id": "2ccbf4a4844b8b9c992430d05b85be81", "lat": 38.902687666666665, "fusion_lon": 0.0, "fusion_lat": 0.0, "type": "electric_scooter", "name": "2ccbf4a4844b8b9c992430d05b85be81", "is_disabled": 0, "rental_uris": {"ios": "https://dc.lft.to/lastmile_qr_scan", "android": "https://dc.lft.to/lastmile_qr_scan"}, "is_reserved": 0}, {"lon": -77.0148125, "bike_id": "93ae734a96b2de3ea3d39c413c4a0fa7", "lat": 38.958715, "fusion_lon": 0.0, "fusion_lat": 0.0, "type": "electric_scooter", "name": "93ae734a96b2de3ea3d39c413c4a0fa7", "is_disabled": 0, "rental_uris": {"ios": "https://dc.lft.to/lastmile_qr_scan", "android": "https://dc.lft.to/lastmile_qr_scan"}, "is_reserved": 0}, {"lon": -77.03448683333333, "bike_id": "d45947a13585dea355a4c55d6b2b948c", "lat": 38.93610983333333, "fusion_lon": 0.0, "fusion_lat": 0.0, "type": "electric_scooter", "name": "d45947a13585dea355a4c55d6b2b948c", "is_disabled": 0, "rental_uris": {"ios": "https://dc.lft.to/lastmile_qr_scan", "android": "https://dc.lft.to/lastmile_qr_scan"}, "is_reserved": 0}, {"lon": -77.01347616666666, "bike_id": "f81a28e9ae99f9cbf91f1801638daa7a", "lat": 38.8781285, "fusion_lon": 0.0, "fusion_lat": 0.0, "type": "electric_scooter", "name": "f81a28e9ae99f9cbf91f1801638daa7a", "is_disabled": 0, "rental_uris": {"ios": "https://dc.lft.to/lastmile_qr_scan", "android": "https://dc.lft.to/lastmile_qr_scan"}, "is_reserved": 0}, {"lon": -77.020841, "bike_id": "a62584fbd61f02ad6812c44aa85a7c9e", "lat": 38.88184416666667, "fusion_lon": 0.0, "fusion_lat": 0.0, "type": "electric_scooter", "name": "a62584fbd61f02ad6812c44aa85a7c9e", "is_disabled": 0, "rental_uris": {"ios": "https://dc.lft.to/lastmile_qr_scan", "android": "https://dc.lft.to/lastmile_qr_scan"}, "is_reserved": 0}, {"lon": -77.02529933333334, "bike_id": "26517b7d83e8d0a45f9f7442866ee022", "lat": 38.928943, "fusion_lon": 0.0, "fusion_lat": 0.0, "type": "electric_scooter", "name": "26517b7d83e8d0a45f9f7442866ee022", "is_disabled": 0, "rental_uris": {"ios": "https://dc.lft.to/lastmile_qr_scan", "android": "https://dc.lft.to/lastmile_qr_scan"}, "is_reserved": 0}, {"lon": -76.9652555, "bike_id": "8973b6ff86eb8676b0a111fe29d92506", "lat": 38.8762695, "fusion_lon": 0.0, "fusion_lat": 0.0, "type": "electric_scooter", "name": "8973b6ff86eb8676b0a111fe29d92506", "is_disabled": 0, "rental_uris": {"ios": "https://dc.lft.to/lastmile_qr_scan", "android": "https://dc.lft.to/lastmile_qr_scan"}, "is_reserved": 0}, {"lon": -77.0249265, "bike_id": "210290ef5e5c94cbd5677fba03647e80", "lat": 38.918057833333336, "fusion_lon": 0.0, "fusion_lat": 0.0, "type": "electric_scooter", "name": "210290ef5e5c94cbd5677fba03647e80", "is_disabled": 0, "rental_uris": {"ios": "https://dc.lft.to/lastmile_qr_scan", "android": "https://dc.lft.to/lastmile_qr_scan"}, "is_reserved": 0}, {"lon": -77.00591466666667, "bike_id": "6c7f45a1a38d3b56ce6178e76678c296", "lat": 38.90553033333333, "fusion_lon": 0.0, "fusion_lat": 0.0, "type": "electric_scooter", "name": "6c7f45a1a38d3b56ce6178e76678c296", "is_disabled": 0, "rental_uris": {"ios": "https://dc.lft.to/lastmile_qr_scan", "android": "https://dc.lft.to/lastmile_qr_scan"}, "is_reserved": 0}, {"lon": -77.0287485, "bike_id": "eb506cbe0f5858e6464a3035412b65fb", "lat": 38.916870833333334, "fusion_lon": 0.0, "fusion_lat": 0.0, "type": "electric_scooter", "name": "eb506cbe0f5858e6464a3035412b65fb", "is_disabled": 0, "rental_uris": {"ios": "https://dc.lft.to/lastmile_qr_scan", "android": "https://dc.lft.to/lastmile_qr_scan"}, "is_reserved": 0}, {"lon": -77.02841466666666, "bike_id": "7fcc41a031f24d01a87d34ce6026852b", "lat": 38.93418233333333, "fusion_lon": 0.0, "fusion_lat": 0.0, "type": "electric_scooter", "name": "7fcc41a031f24d01a87d34ce6026852b", "is_disabled": 0, "rental_uris": {"ios": "https://dc.lft.to/lastmile_qr_scan", "android": "https://dc.lft.to/lastmile_qr_scan"}, "is_reserved": 0}, {"lon": -77.03761016666667, "bike_id": "857e78acde5e57592efb8dee54ca175a", "lat": 38.907780833333334, "fusion_lon": 0.0, "fusion_lat": 0.0, "type": "electric_scooter", "name": "857e78acde5e57592efb8dee54ca175a", "is_disabled": 0, "rental_uris": {"ios": "https://dc.lft.to/lastmile_qr_scan", "android": "https://dc.lft.to/lastmile_qr_scan"}, "is_reserved": 0}, {"lon": -77.10027466666666, "bike_id": "12941c78d4cec5c803f75a2b2bad483d", "lat": 38.87135883333333, "fusion_lon": 0.0, "fusion_lat": 0.0, "type": "electric_bike", "name": "12941c78d4cec5c803f75a2b2bad483d", "is_disabled": 0, "rental_uris": {"ios": "https://dc.lft.to/lastmile_qr_scan", "android": "https://dc.lft.to/lastmile_qr_scan"}, "is_reserved": 0}, {"lon": -77.03342216666667, "bike_id": "73fffbe82cd2bf61af93be81f1a4d9de", "lat": 38.898283166666666, "fusion_lon": 0.0, "fusion_lat": 0.0, "type": "electric_scooter", "name": "73fffbe82cd2bf61af93be81f1a4d9de", "is_disabled": 0, "rental_uris": {"ios": "https://dc.lft.to/lastmile_qr_scan", "android": "https://dc.lft.to/lastmile_qr_scan"}, "is_reserved": 0}, {"lon": -77.08490483333334, "bike_id": "b73d2e97a2efde3d769b8eac35ca6a76", "lat": 38.84848083333333, "fusion_lon": 0.0, "fusion_lat": 0.0, "type": "electric_bike", "name": "b73d2e97a2efde3d769b8eac35ca6a76", "is_disabled": 0, "rental_uris": {"ios": "https://dc.lft.to/lastmile_qr_scan", "android": "https://dc.lft.to/lastmile_qr_scan"}, "is_reserved": 0}, {"lon": -77.02700583333333, "bike_id": "9bb8db9ef71217c64279dcaebd804bd4", "lat": 38.904147333333334, "fusion_lon": 0.0, "fusion_lat": 0.0, "type": "electric_scooter", "name": "9bb8db9ef71217c64279dcaebd804bd4", "is_disabled": 0, "rental_uris": {"ios": "https://dc.lft.to/lastmile_qr_scan", "android": "https://dc.lft.to/lastmile_qr_scan"}, "is_reserved": 0}, {"lon": -76.94591833333334, "bike_id": "992a0f9ae1aa1575db66a9934ade3371", "lat": 38.901558666666666, "fusion_lon": 0.0, "fusion_lat": 0.0, "type": "electric_scooter", "name": "992a0f9ae1aa1575db66a9934ade3371", "is_disabled": 0, "rental_uris": {"ios": "https://dc.lft.to/lastmile_qr_scan", "android": "https://dc.lft.to/lastmile_qr_scan"}, "is_reserved": 0}, {"lon": -76.931892, "bike_id": "c72c1d16e8e1210d32e72266fa610dd6", "lat": 38.898771833333335, "fusion_lon": 0.0, "fusion_lat": 0.0, "type": "electric_scooter", "name": "c72c1d16e8e1210d32e72266fa610dd6", "is_disabled": 0, "rental_uris": {"ios": "https://dc.lft.to/lastmile_qr_scan", "android": "https://dc.lft.to/lastmile_qr_scan"}, "is_reserved": 0}, {"lon": -77.02173133333334, "bike_id": "127faf6dfca9917b396ee535509cfa35", "lat": 38.89718383333334, "fusion_lon": 0.0, "fusion_lat": 0.0, "type": "electric_scooter", "name": "127faf6dfca9917b396ee535509cfa35", "is_disabled": 0, "rental_uris": {"ios": "https://dc.lft.to/lastmile_qr_scan", "android": "https://dc.lft.to/lastmile_qr_scan"}, "is_reserved": 0}, {"lon": -77.0239475, "bike_id": "5f85dd9f7f40bcb8f4a26c6fd5358136", "lat": 38.91987133333333, "fusion_lon": 0.0, "fusion_lat": 0.0, "type": "electric_scooter", "name": "5f85dd9f7f40bcb8f4a26c6fd5358136", "is_disabled": 0, "rental_uris": {"ios": "https://dc.lft.to/lastmile_qr_scan", "android": "https://dc.lft.to/lastmile_qr_scan"}, "is_reserved": 0}, {"lon": -77.04001466666666, "bike_id": "dff9d0e47e668b58c13c34cf821ccbdc", "lat": 38.9342535, "fusion_lon": 0.0, "fusion_lat": 0.0, "type": "electric_scooter", "name": "dff9d0e47e668b58c13c34cf821ccbdc", "is_disabled": 0, "rental_uris": {"ios": "https://dc.lft.to/lastmile_qr_scan", "android": "https://dc.lft.to/lastmile_qr_scan"}, "is_reserved": 0}, {"lon": -76.97397316666667, "bike_id": "02a0b7c5f4f394810b06b1e213dc7fc1", "lat": 38.90296766666667, "fusion_lon": 0.0, "fusion_lat": 0.0, "type": "electric_scooter", "name": "02a0b7c5f4f394810b06b1e213dc7fc1", "is_disabled": 0, "rental_uris": {"ios": "https://dc.lft.to/lastmile_qr_scan", "android": "https://dc.lft.to/lastmile_qr_scan"}, "is_reserved": 0}, {"lon": -77.03039916666667, "bike_id": "1ebf598938851a746405203d79261f96", "lat": 38.937173333333334, "fusion_lon": 0.0, "fusion_lat": 0.0, "type": "electric_scooter", "name": "1ebf598938851a746405203d79261f96", "is_disabled": 0, "rental_uris": {"ios": "https://dc.lft.to/lastmile_qr_scan", "android": "https://dc.lft.to/lastmile_qr_scan"}, "is_reserved": 0}, {"lon": -77.02715816666667, "bike_id": "0fffa3ad5dc962f0792aa7a68106f8f7", "lat": 38.92463516666667, "fusion_lon": 0.0, "fusion_lat": 0.0, "type": "electric_scooter", "name": "0fffa3ad5dc962f0792aa7a68106f8f7", "is_disabled": 0, "rental_uris": {"ios": "https://dc.lft.to/lastmile_qr_scan", "android": "https://dc.lft.to/lastmile_qr_scan"}, "is_reserved": 0}, {"lon": -76.98923266666667, "bike_id": "37f6972cf3faf14a87fcabb226d68f28", "lat": 38.864903166666664, "fusion_lon": 0.0, "fusion_lat": 0.0, "type": "electric_scooter", "name": "37f6972cf3faf14a87fcabb226d68f28", "is_disabled": 0, "rental_uris": {"ios": "https://dc.lft.to/lastmile_qr_scan", "android": "https://dc.lft.to/lastmile_qr_scan"}, "is_reserved": 0}, {"lon": -77.027189, "bike_id": "3e8a2feedbd1361dafda6f9fa49acfcb", "lat": 38.922850833333335, "fusion_lon": 0.0, "fusion_lat": 0.0, "type": "electric_scooter", "name": "3e8a2feedbd1361dafda6f9fa49acfcb", "is_disabled": 0, "rental_uris": {"ios": "https://dc.lft.to/lastmile_qr_scan", "android": "https://dc.lft.to/lastmile_qr_scan"}, "is_reserved": 0}, {"lon": -77.043337, "bike_id": "d7eb9d325fe0cdce5b54bf7f0d0a6003", "lat": 38.9221615, "fusion_lon": 0.0, "fusion_lat": 0.0, "type": "electric_scooter", "name": "d7eb9d325fe0cdce5b54bf7f0d0a6003", "is_disabled": 0, "rental_uris": {"ios": "https://dc.lft.to/lastmile_qr_scan", "android": "https://dc.lft.to/lastmile_qr_scan"}, "is_reserved": 0}, {"lon": -77.02816416666667, "bike_id": "4208e26bb0dd4a8bf54c30100d59542a", "lat": 38.89526583333333, "fusion_lon": 0.0, "fusion_lat": 0.0, "type": "electric_scooter", "name": "4208e26bb0dd4a8bf54c30100d59542a", "is_disabled": 0, "rental_uris": {"ios": "https://dc.lft.to/lastmile_qr_scan", "android": "https://dc.lft.to/lastmile_qr_scan"}, "is_reserved": 0}, {"lon": -77.04712283333333, "bike_id": "563aee750014132178c12e2fbdb6fe04", "lat": 38.90312266666667, "fusion_lon": 0.0, "fusion_lat": 0.0, "type": "electric_scooter", "name": "563aee750014132178c12e2fbdb6fe04", "is_disabled": 0, "rental_uris": {"ios": "https://dc.lft.to/lastmile_qr_scan", "android": "https://dc.lft.to/lastmile_qr_scan"}, "is_reserved": 0}, {"lon": -77.03820616666667, "bike_id": "8503e6f643499769f5e6d92c4094c9d0", "lat": 38.90972033333333, "fusion_lon": 0.0, "fusion_lat": 0.0, "type": "electric_scooter", "name": "8503e6f643499769f5e6d92c4094c9d0", "is_disabled": 0, "rental_uris": {"ios": "https://dc.lft.to/lastmile_qr_scan", "android": "https://dc.lft.to/lastmile_qr_scan"}, "is_reserved": 0}, {"lon": -77.03424933333334, "bike_id": "7b985b2b0001e9e901bb17833ace2f76", "lat": 38.91927466666667, "fusion_lon": 0.0, "fusion_lat": 0.0, "type": "electric_scooter", "name": "7b985b2b0001e9e901bb17833ace2f76", "is_disabled": 0, "rental_uris": {"ios": "https://dc.lft.to/lastmile_qr_scan", "android": "https://dc.lft.to/lastmile_qr_scan"}, "is_reserved": 0}, {"lon": -77.04464133333333, "bike_id": "7d8fb19ea8f512fa309cf737f7e790b8", "lat": 38.92430933333333, "fusion_lon": 0.0, "fusion_lat": 0.0, "type": "electric_scooter", "name": "7d8fb19ea8f512fa309cf737f7e790b8", "is_disabled": 0, "rental_uris": {"ios": "https://dc.lft.to/lastmile_qr_scan", "android": "https://dc.lft.to/lastmile_qr_scan"}, "is_reserved": 0}, {"lon": -77.04252433333333, "bike_id": "56116b120954079e5578f8bfc0a7c09d", "lat": 38.9077625, "fusion_lon": 0.0, "fusion_lat": 0.0, "type": "electric_scooter", "name": "56116b120954079e5578f8bfc0a7c09d", "is_disabled": 0, "rental_uris": {"ios": "https://dc.lft.to/lastmile_qr_scan", "android": "https://dc.lft.to/lastmile_qr_scan"}, "is_reserved": 0}, {"lon": -77.080035, "bike_id": "8d7d0121ce97fbc925d3fb988954bd2a", "lat": 38.96486633333333, "fusion_lon": 0.0, "fusion_lat": 0.0, "type": "electric_scooter", "name": "8d7d0121ce97fbc925d3fb988954bd2a", "is_disabled": 0, "rental_uris": {"ios": "https://dc.lft.to/lastmile_qr_scan", "android": "https://dc.lft.to/lastmile_qr_scan"}, "is_reserved": 0}, {"lon": -77.07748466666666, "bike_id": "ba2302439cc69678c0c24b49d273972d", "lat": 38.8419305, "fusion_lon": 0.0, "fusion_lat": 0.0, "type": "electric_bike", "name": "ba2302439cc69678c0c24b49d273972d", "is_disabled": 0, "rental_uris": {"ios": "https://dc.lft.to/lastmile_qr_scan", "android": "https://dc.lft.to/lastmile_qr_scan"}, "is_reserved": 0}, {"lon": -76.9220275, "bike_id": "7d2646d7e00ab017fe5555d66981195b", "lat": 38.89497, "fusion_lon": 0.0, "fusion_lat": 0.0, "type": "electric_bike", "name": "7d2646d7e00ab017fe5555d66981195b", "is_disabled": 0, "rental_uris": {"ios": "https://dc.lft.to/lastmile_qr_scan", "android": "https://dc.lft.to/lastmile_qr_scan"}, "is_reserved": 0}, {"lon": -77.0335875, "bike_id": "cfddf6e92880715fd49367d4aea05c76", "lat": 38.92342433333334, "fusion_lon": 0.0, "fusion_lat": 0.0, "type": "electric_scooter", "name": "cfddf6e92880715fd49367d4aea05c76", "is_disabled": 0, "rental_uris": {"ios": "https://dc.lft.to/lastmile_qr_scan", "android": "https://dc.lft.to/lastmile_qr_scan"}, "is_reserved": 0}, {"lon": -77.03638733333334, "bike_id": "c5849bbe8342bee5f8c711875b802147", "lat": 38.92743516666667, "fusion_lon": 0.0, "fusion_lat": 0.0, "type": "electric_scooter", "name": "c5849bbe8342bee5f8c711875b802147", "is_disabled": 0, "rental_uris": {"ios": "https://dc.lft.to/lastmile_qr_scan", "android": "https://dc.lft.to/lastmile_qr_scan"}, "is_reserved": 0}, {"lon": -76.9803655, "bike_id": "63eebaa8c8c4e63545dadeba65728bd0", "lat": 38.88963483333333, "fusion_lon": 0.0, "fusion_lat": 0.0, "type": "electric_scooter", "name": "63eebaa8c8c4e63545dadeba65728bd0", "is_disabled": 0, "rental_uris": {"ios": "https://dc.lft.to/lastmile_qr_scan", "android": "https://dc.lft.to/lastmile_qr_scan"}, "is_reserved": 0}, {"lon": -77.03440466666666, "bike_id": "7c2ebeb619ac0853fd228606c755fdbf", "lat": 38.910122, "fusion_lon": 0.0, "fusion_lat": 0.0, "type": "electric_scooter", "name": "7c2ebeb619ac0853fd228606c755fdbf", "is_disabled": 0, "rental_uris": {"ios": "https://dc.lft.to/lastmile_qr_scan", "android": "https://dc.lft.to/lastmile_qr_scan"}, "is_reserved": 0}, {"lon": -77.02574216666666, "bike_id": "5ada11296f9a3ff184ff2a6fb913ff83", "lat": 38.914172, "fusion_lon": 0.0, "fusion_lat": 0.0, "type": "electric_scooter", "name": "5ada11296f9a3ff184ff2a6fb913ff83", "is_disabled": 0, "rental_uris": {"ios": "https://dc.lft.to/lastmile_qr_scan", "android": "https://dc.lft.to/lastmile_qr_scan"}, "is_reserved": 0}, {"lon": -76.98341083333334, "bike_id": "8437d2e487ce4b049e56c1c09c0fef78", "lat": 38.866421333333335, "fusion_lon": 0.0, "fusion_lat": 0.0, "type": "electric_scooter", "name": "8437d2e487ce4b049e56c1c09c0fef78", "is_disabled": 0, "rental_uris": {"ios": "https://dc.lft.to/lastmile_qr_scan", "android": "https://dc.lft.to/lastmile_qr_scan"}, "is_reserved": 0}, {"lon": -76.93189216666667, "bike_id": "e727ad6eb483079c3f53f87a9143dbb7", "lat": 38.89877416666667, "fusion_lon": 0.0, "fusion_lat": 0.0, "type": "electric_scooter", "name": "e727ad6eb483079c3f53f87a9143dbb7", "is_disabled": 0, "rental_uris": {"ios": "https://dc.lft.to/lastmile_qr_scan", "android": "https://dc.lft.to/lastmile_qr_scan"}, "is_reserved": 0}, {"lon": -76.99498133333333, "bike_id": "7db3dd81d51bc9c4fdfe55cca9a860b8", "lat": 38.881958833333336, "fusion_lon": 0.0, "fusion_lat": 0.0, "type": "electric_scooter", "name": "7db3dd81d51bc9c4fdfe55cca9a860b8", "is_disabled": 0, "rental_uris": {"ios": "https://dc.lft.to/lastmile_qr_scan", "android": "https://dc.lft.to/lastmile_qr_scan"}, "is_reserved": 0}, {"lon": -77.00375033333333, "bike_id": "8d816e4f469a3c9eaddc6e713fb0de2f", "lat": 38.897319333333336, "fusion_lon": 0.0, "fusion_lat": 0.0, "type": "electric_scooter", "name": "8d816e4f469a3c9eaddc6e713fb0de2f", "is_disabled": 0, "rental_uris": {"ios": "https://dc.lft.to/lastmile_qr_scan", "android": "https://dc.lft.to/lastmile_qr_scan"}, "is_reserved": 0}, {"lon": -77.02361916666666, "bike_id": "df51e90b01c78693e4e3fec11ea08d6e", "lat": 38.922231, "fusion_lon": 0.0, "fusion_lat": 0.0, "type": "electric_scooter", "name": "df51e90b01c78693e4e3fec11ea08d6e", "is_disabled": 0, "rental_uris": {"ios": "https://dc.lft.to/lastmile_qr_scan", "android": "https://dc.lft.to/lastmile_qr_scan"}, "is_reserved": 0}, {"lon": -77.00335466666667, "bike_id": "ff8ff267f72a13319b193d203b82b362", "lat": 38.8918775, "fusion_lon": 0.0, "fusion_lat": 0.0, "type": "electric_scooter", "name": "ff8ff267f72a13319b193d203b82b362", "is_disabled": 0, "rental_uris": {"ios": "https://dc.lft.to/lastmile_qr_scan", "android": "https://dc.lft.to/lastmile_qr_scan"}, "is_reserved": 0}, {"lon": -77.11709116666667, "bike_id": "8eafa9e745f57351e5d8a433c392cc4a", "lat": 38.867453166666664, "fusion_lon": 0.0, "fusion_lat": 0.0, "type": "electric_bike", "name": "8eafa9e745f57351e5d8a433c392cc4a", "is_disabled": 0, "rental_uris": {"ios": "https://dc.lft.to/lastmile_qr_scan", "android": "https://dc.lft.to/lastmile_qr_scan"}, "is_reserved": 0}, {"lon": -77.0458425, "bike_id": "4c82b95b0ac0c6d364bb47a57e602afe", "lat": 38.91360533333334, "fusion_lon": 0.0, "fusion_lat": 0.0, "type": "electric_scooter", "name": "4c82b95b0ac0c6d364bb47a57e602afe", "is_disabled": 0, "rental_uris": {"ios": "https://dc.lft.to/lastmile_qr_scan", "android": "https://dc.lft.to/lastmile_qr_scan"}, "is_reserved": 0}, {"lon": -77.02653516666666, "bike_id": "730d51d16a0cd484d379e30dbd82a8ad", "lat": 38.8811125, "fusion_lon": 0.0, "fusion_lat": 0.0, "type": "electric_scooter", "name": "730d51d16a0cd484d379e30dbd82a8ad", "is_disabled": 0, "rental_uris": {"ios": "https://dc.lft.to/lastmile_qr_scan", "android": "https://dc.lft.to/lastmile_qr_scan"}, "is_reserved": 0}, {"lon": -77.03185516666667, "bike_id": "008d46aa6cb3f8986e65235775fbe882", "lat": 38.89758966666667, "fusion_lon": 0.0, "fusion_lat": 0.0, "type": "electric_scooter", "name": "008d46aa6cb3f8986e65235775fbe882", "is_disabled": 0, "rental_uris": {"ios": "https://dc.lft.to/lastmile_qr_scan", "android": "https://dc.lft.to/lastmile_qr_scan"}, "is_reserved": 0}, {"lon": -77.04051066666666, "bike_id": "069e0c3beae9925f940c8e6451e5f5dd", "lat": 38.928762166666665, "fusion_lon": 0.0, "fusion_lat": 0.0, "type": "electric_scooter", "name": "069e0c3beae9925f940c8e6451e5f5dd", "is_disabled": 0, "rental_uris": {"ios": "https://dc.lft.to/lastmile_qr_scan", "android": "https://dc.lft.to/lastmile_qr_scan"}, "is_reserved": 0}, {"lon": -77.03214183333333, "bike_id": "4f4fac31b113028d689e107bf5178969", "lat": 38.90721116666667, "fusion_lon": 0.0, "fusion_lat": 0.0, "type": "electric_scooter", "name": "4f4fac31b113028d689e107bf5178969", "is_disabled": 0, "rental_uris": {"ios": "https://dc.lft.to/lastmile_qr_scan", "android": "https://dc.lft.to/lastmile_qr_scan"}, "is_reserved": 0}, {"lon": -77.032047, "bike_id": "85bf745b76c39f42dd193e9d1ff792d5", "lat": 38.909783833333336, "fusion_lon": 0.0, "fusion_lat": 0.0, "type": "electric_scooter", "name": "85bf745b76c39f42dd193e9d1ff792d5", "is_disabled": 0, "rental_uris": {"ios": "https://dc.lft.to/lastmile_qr_scan", "android": "https://dc.lft.to/lastmile_qr_scan"}, "is_reserved": 0}, {"lon": -76.98083433333333, "bike_id": "1124067d1f2b6d885dc6d6304e443e66", "lat": 38.87935783333333, "fusion_lon": 0.0, "fusion_lat": 0.0, "type": "electric_bike", "name": "1124067d1f2b6d885dc6d6304e443e66", "is_disabled": 0, "rental_uris": {"ios": "https://dc.lft.to/lastmile_qr_scan", "android": "https://dc.lft.to/lastmile_qr_scan"}, "is_reserved": 0}, {"lon": -77.00047966666666, "bike_id": "1935f6626c4ce85ad0fb200b23cf1702", "lat": 38.92397283333333, "fusion_lon": 0.0, "fusion_lat": 0.0, "type": "electric_scooter", "name": "1935f6626c4ce85ad0fb200b23cf1702", "is_disabled": 0, "rental_uris": {"ios": "https://dc.lft.to/lastmile_qr_scan", "android": "https://dc.lft.to/lastmile_qr_scan"}, "is_reserved": 0}, {"lon": -77.0231725, "bike_id": "da84534374776e4baf69ad9cadf489d7", "lat": 38.894747833333334, "fusion_lon": 0.0, "fusion_lat": 0.0, "type": "electric_scooter", "name": "da84534374776e4baf69ad9cadf489d7", "is_disabled": 0, "rental_uris": {"ios": "https://dc.lft.to/lastmile_qr_scan", "android": "https://dc.lft.to/lastmile_qr_scan"}, "is_reserved": 0}, {"lon": -77.04764883333333, "bike_id": "0b16241fc41742ee332174653b7d2a25", "lat": 38.917599833333334, "fusion_lon": 0.0, "fusion_lat": 0.0, "type": "electric_scooter", "name": "0b16241fc41742ee332174653b7d2a25", "is_disabled": 0, "rental_uris": {"ios": "https://dc.lft.to/lastmile_qr_scan", "android": "https://dc.lft.to/lastmile_qr_scan"}, "is_reserved": 0}, {"lon": -77.001502, "bike_id": "8a224d6c6a16fe65e4834040f9aad0aa", "lat": 38.91078733333333, "fusion_lon": 0.0, "fusion_lat": 0.0, "type": "electric_scooter", "name": "8a224d6c6a16fe65e4834040f9aad0aa", "is_disabled": 0, "rental_uris": {"ios": "https://dc.lft.to/lastmile_qr_scan", "android": "https://dc.lft.to/lastmile_qr_scan"}, "is_reserved": 0}, {"lon": -76.98540883333334, "bike_id": "6f8f5aaaef3573c3e74abfec199a4c0a", "lat": 38.904562, "fusion_lon": 0.0, "fusion_lat": 0.0, "type": "electric_scooter", "name": "6f8f5aaaef3573c3e74abfec199a4c0a", "is_disabled": 0, "rental_uris": {"ios": "https://dc.lft.to/lastmile_qr_scan", "android": "https://dc.lft.to/lastmile_qr_scan"}, "is_reserved": 0}, {"lon": -77.011992, "bike_id": "31431b81f2c0c9a0bd6317ea76d479fc", "lat": 38.82404183333333, "fusion_lon": 0.0, "fusion_lat": 0.0, "type": "electric_bike", "name": "31431b81f2c0c9a0bd6317ea76d479fc", "is_disabled": 0, "rental_uris": {"ios": "https://dc.lft.to/lastmile_qr_scan", "android": "https://dc.lft.to/lastmile_qr_scan"}, "is_reserved": 0}, {"lon": -76.95749216666667, "bike_id": "cffa85d0a722f2674b64b45d7f90e0a4", "lat": 38.884264333333334, "fusion_lon": 0.0, "fusion_lat": 0.0, "type": "electric_scooter", "name": "cffa85d0a722f2674b64b45d7f90e0a4", "is_disabled": 0, "rental_uris": {"ios": "https://dc.lft.to/lastmile_qr_scan", "android": "https://dc.lft.to/lastmile_qr_scan"}, "is_reserved": 0}, {"lon": -77.032165, "bike_id": "83655600db35d914e8a10f209d3e4ab2", "lat": 38.91924266666667, "fusion_lon": 0.0, "fusion_lat": 0.0, "type": "electric_scooter", "name": "83655600db35d914e8a10f209d3e4ab2", "is_disabled": 0, "rental_uris": {"ios": "https://dc.lft.to/lastmile_qr_scan", "android": "https://dc.lft.to/lastmile_qr_scan"}, "is_reserved": 0},