{"data": {"bikes": [{"lon": -77.01786566666667, "bike_id": "8d2c61a1e41b0fa82e6701b8c4c6836a", "lat": 38.90133566666667, "fusion_lon": 0.0, "fusion_lat": 0.0, "type": "electric_scooter", "name": "8d2c61a1e41b0fa82e6701b8c4c6836a", "is_disabled": 0, "rental_uris": {"ios": "https://dc.lft.to/lastmile_qr_scan", "android": "https://dc.lft.to/lastmile_qr_scan"}, "is_reserved": 0}, {"lon": -77.004789, "bike_id": "a9b28ca23953ac7650b83bb3b04d6433", "lat": 38.92065916666667, "fusion_lon": 0.0, "fusion_lat": 0.0, "type": "electric_scooter", "name": "a9b28ca23953ac7650b83bb3b04d6433", "is_disabled": 0, "rental_uris": {"ios": "https://dc.lft.to/lastmile_qr_scan", "android": "https://dc.lft.to/lastmile_qr_scan"}, "is_reserved": 0}, {"lon": -77.039011, "bike_id": "991d8f45e7c726e4c08d2d44d34e18db", "lat": 38.922169333333336, "fusion_lon": 0.0, "fusion_lat": 0.0, "type": "electric_scooter", "name": "991d8f45e7c726e4c08d2d44d34e18db", "is_disabled": 0, "rental_uris": {"ios": "https://dc.lft.to/lastmile_qr_scan", "android": "https://dc.lft.to/lastmile_qr_scan"}, "is_reserved": 0}, {"lon": -77.02383716666667, "bike_id": "9bcb40941ce97ae01eb2f9c8fd30c080", "lat": 38.900924, "fusion_lon": 0.0, "fusion_lat": 0.0, "type": "electric_scooter", "name": "9bcb40941ce97ae01eb2f9c8fd30c080", "is_disabled": 0, "rental_uris": {"ios": "https://dc.lft.to/lastmile_qr_scan", "android": "https://dc.lft.to/lastmile_qr_scan"}, "is_reserved": 0}, {"lon": -77.026666, "bike_id": "7137094e1053a96aa61205aa9df14463", "lat": 38.9310125, "fusion_lon": 0.0, "fusion_lat": 0.0, "type": "electric_scooter", "name": "7137094e1053a96aa61205aa9df14463", "is_disabled": 0, "rental_uris": {"ios": "https://dc.lft.to/lastmile_qr_scan", "android": "https://dc.lft.to/lastmile_qr_scan"}, "is_reserved": 0}, {"lon": -77.03642016666667, "bike_id": "c6546b92cdd1fd0e04178a5e64f2ecbf", "lat": 38.923366333333334, "fusion_lon": 0.0, "fusion_lat": 0.0, "type": "electric_scooter", "name": "c6546b92cdd1fd0e04178a5e64f2ecbf", "is_disabled": 0, "rental_uris": {"ios": "https://dc.lft.to/lastmile_qr_scan", "android": "https://dc.lft.to/lastmile_qr_scan"}, "is_reserved": 0}, {"lon": -77.02453466666667, "bike_id": "bf659b2c9e2c6a94ce5820d409ad6f3a", "lat": 38.89956883333333, "fusion_lon": 0.0, "fusion_lat": 0.0, "type": "electric_scooter", "name": "bf659b2c9e2c6a94ce5820d409ad6f3a", "is_disabled": 0, "rental_uris": {"ios": "https://dc.lft.to/lastmile_qr_scan", "android": "https://dc.lft.to/lastmile_qr_scan"}, "is_reserved": 0}, {"lon": -77.036557, "bike_id": "2b79c16d6329e580c2f1c5da10cbf15c", "lat": 38.93610316666667, "fusion_lon": 0.0, "fusion_lat": 0.0, "type": "electric_scooter", "name": "2b79c16d6329e580c2f1c5da10cbf15c", "is_disabled": 0, "rental_uris": {"ios": "https://dc.lft.to/lastmile_qr_scan", "android": "https://dc.lft.to/lastmile_qr_scan"}, "is_reserved": 0}, {"lon": -77.023787, "bike_id": "0f8972353a95ead80c05a8e5b4921b47", "lat": 38.9205435, "fusion_lon": 0.0, "fusion_lat": 0.0, "type": "electric_scooter", "name": "0f8972353a95ead80c05a8e5b4921b47", "is_disabled": 0, "rental_uris": {"ios": "https://dc.lft.to/lastmile_qr_scan", "android": "https://dc.lft.to/lastmile_qr_scan"}, "is_reserved": 0}, {"lon": -76.97858866666667, "bike_id": "0b07a0b9472fe7f8f5fc0b000b9392fa", "lat": 38.87070516666667, "fusion_lon": 0.0, "fusion_lat": 0.0, "type": "electric_scooter", "name": "0b07a0b9472fe7f8f5fc0b000b9392fa", "is_disabled": 0, "rental_uris": {"ios": "https://dc.lft.to/lastmile_qr_scan", "android": "https://dc.lft.to/lastmile_qr_scan"}, "is_reserved": 0}, {"lon": -77.02167216666666, "bike_id": "5468af262b5b14663a7d08ce379999b2", "lat": 38.88743983333333, "fusion_lon": 0.0, "fusion_lat": 0.0, "type": "electric_scooter", "name": "5468af262b5b14663a7d08ce379999b2", "is_disabled": 0, "rental_uris": {"ios": "https://dc.lft.to/lastmile_qr_scan", "android": "https://dc.lft.to/lastmile_qr_scan"}, "is_reserved": 0}, {"lon": -77.06399266666666, "bike_id": "c481928bcb92f2e36a5aa7d2ed642453", "lat": 38.84060733333333, "fusion_lon": 0.0, "fusion_lat": 0.0, "type": "electric_bike", "name": "c481928bcb92f2e36a5aa7d2ed642453", "is_disabled": 0, "rental_uris": {"ios": "https://dc.lft.to/lastmile_qr_scan", "android": "https://dc.lft.to/lastmile_qr_scan"}, "is_reserved": 0}, {"lon": -77.03638616666667, "bike_id": "ad3fc2920104f45de8ae44106dcc03e7", "lat": 38.92183083333333, "fusion_lon": 0.0, "fusion_lat": 0.0, "type": "electric_scooter", "name": "ad3fc2920104f45de8ae44106dcc03e7", "is_disabled": 0, "rental_uris": {"ios": "https://dc.lft.to/lastmile_qr_scan", "android": "https://dc.lft.to/lastmile_qr_scan"}, "is_reserved": 0}, {"lon": -77.02951233333333, "bike_id": "b2d322241a220863c5eba8f7e77866f5", "lat": 38.92174933333333, "fusion_lon": 0.0, "fusion_lat": 0.0, "type": "electric_scooter", "name": "b2d322241a220863c5eba8f7e77866f5", "is_disabled": 0, "rental_uris": {"ios": "https://dc.lft.to/lastmile_qr_scan", "android": "https://dc.lft.to/lastmile_qr_scan"}, "is_reserved": 0}, {"lon": -77.00194533333334, "bike_id": "56cb8f0b76844465f20b74714fe8fb64", "lat": 38.91478466666667, "fusion_lon": 0.0, "fusion_lat": 0.0, "type": "electric_scooter", "name": "56cb8f0b76844465f20b74714fe8fb64", "is_disabled": 0, "rental_uris": {"ios": "https://dc.lft.to/lastmile_qr_scan", "android": "https://dc.lft.to/lastmile_qr_scan"}, "is_reserved": 0}, {"lon": -77.02968466666667, "bike_id": "ea3b6779a1f0e362da36e8a80fc311de", "lat": 38.92292916666667, "fusion_lon": 0.0, "fusion_lat": 0.0, "type": "electric_scooter", "name": "ea3b6779a1f0e362da36e8a80fc311de", "is_disabled": 0, "rental_uris": {"ios": "https://dc.lft.to/lastmile_qr_scan", "android": "https://dc.lft.to/lastmile_qr_scan"}, "is_reserved": 0}, {"lon": -76.97886366666667, "bike_id": "e00c53b047477d29ec91acb747c552b8", "lat": 38.885401, "fusion_lon": 0.0, "fusion_lat": 0.0, "type": "electric_scooter", "name": "e00c53b047477d29ec91acb747c552b8", "is_disabled": 0, "rental_uris": {"ios": "https://dc.lft.to/lastmile_qr_scan", "android": "https://dc.lft.to/lastmile_qr_scan"}, "is_reserved": 0}, {"lon": -76.98333116666667, "bike_id": "f91cc7bcd02fedd6e881561904af97f3", "lat": 38.895448333333334, "fusion_lon": 0.0, "fusion_lat": 0.0, "type": "electric_scooter", "name": "f91cc7bcd02fedd6e881561904af97f3", "is_disabled": 0, "rental_uris": {"ios": "https://dc.lft.to/lastmile_qr_scan", "android": "https://dc.lft.to/lastmile_qr_scan"}, "is_reserved": 0}, {"lon": -77.032509, "bike_id": "ec3b4eb7063e885959ba513958a5ce72", "lat": 38.927669, "fusion_lon": 0.0, "fusion_lat": 0.0, "type": "electric_scooter", "name": "ec3b4eb7063e885959ba513958a5ce72", "is_disabled": 0, "rental_uris": {"ios": "https://dc.lft.to/lastmile_qr_scan", "android": "https://dc.lft.to/lastmile_qr_scan"}, "is_reserved": 0}, {"lon": -77.03162233333333, "bike_id": "fae8669cb6abb05f6f4949b5ab7c8257", "lat": 38.89223366666667, "fusion_lon": 0.0, "fusion_lat": 0.0, "type": "electric_scooter", "name": "fae8669cb6abb05f6f4949b5ab7c8257", "is_disabled": 0, "rental_uris": {"ios": "https://dc.lft.to/lastmile_qr_scan", "android": "https://dc.lft.to/lastmile_qr_scan"}, "is_reserved": 0}, {"lon": -77.026932, "bike_id": "8903d428bbb2c55f364bea54b919882e", "lat": 38.90238983333333, "fusion_lon": 0.0, "fusion_lat": 0.0, "type": "electric_scooter", "name": "8903d428bbb2c55f364bea54b919882e", "is_disabled": 0, "rental_uris": {"ios": "https://dc.lft.to/lastmile_qr_scan", "android": "https://dc.lft.to/lastmile_qr_scan"}, "is_reserved": 0}, {"lon": -76.9950035, "bike_id": "bff994457c51ec2032638a181f4cf9b9", "lat": 38.897593666666666, "fusion_lon": 0.0, "fusion_lat": 0.0, "type": "electric_scooter", "name": "bff994457c51ec2032638a181f4cf9b9", "is_disabled": 0, "rental_uris": {"ios": "https://dc.lft.to/lastmile_qr_scan", "android": "https://dc.lft.to/lastmile_qr_scan"}, "is_reserved": 0}, {"lon": -77.01758883333333, "bike_id": "b8a8434512a94cda12e9a2e5782a8955", "lat": 38.881955166666664, "fusion_lon": 0.0, "fusion_lat": 0.0, "type": "electric_scooter", "name": "b8a8434512a94cda12e9a2e5782a8955", "is_disabled": 0, "rental_uris": {"ios": "https://dc.lft.to/lastmile_qr_scan", "android": "https://dc.lft.to/lastmile_qr_scan"}, "is_reserved": 0}, {"lon": -76.99705416666667, "bike_id": "b5c8f353661f95c2fc692329f5882c94", "lat": 38.84428116666667, "fusion_lon": 0.0, "fusion_lat": 0.0, "type": "electric_scooter", "name": "b5c8f353661f95c2fc692329f5882c94", "is_disabled": 0, "rental_uris": {"ios": "https://dc.lft.to/lastmile_qr_scan", "android": "https://dc.lft.to/lastmile_qr_scan"}, "is_reserved": 0}, {"lon": -77.00532916666667, "bike_id": "3c0f94ed75e97e4d0f24b0505847228d", "lat": 38.875456166666666, "fusion_lon": 0.0, "fusion_lat": 0.0, "type": "electric_scooter", "name": "3c0f94ed75e97e4d0f24b0505847228d", "is_disabled": 0, "rental_uris": {"ios": "https://dc.lft.to/lastmile_qr_scan", "android": "https://dc.lft.to/lastmile_qr_scan"}, "is_reserved": 0}, {"lon": -77.011503, "bike_id": "d595f846d261ee615f9e62e62a948595", "lat": 38.895830333333336, "fusion_lon": 0.0, "fusion_lat": 0.0, "type": "electric_scooter", "name": "d595f846d261ee615f9e62e62a948595", "is_disabled": 0, "rental_uris": {"ios": "https://dc.lft.to/lastmile_qr_scan", "android": "https://dc.lft.to/lastmile_qr_scan"}, "is_reserved": 0}, {"lon": -77.11798383333333, "bike_id": "ff816e25fe0f779afbac94955a159f22", "lat": 38.873752333333336, "fusion_lon": 0.0, "fusion_lat": 0.0, "type": "electric_bike", "name": "ff816e25fe0f779afbac94955a159f22", "is_disabled": 0, "rental_uris": {"ios": "https://dc.lft.to/lastmile_qr_scan", "android": "https://dc.lft.to/lastmile_qr_scan"}, "is_reserved": 0}, {"lon": -77.02516916666667, "bike_id": "067833768e717de764db8a277f401de3", "lat": 38.94205083333333, "fusion_lon": 0.0, "fusion_lat": 0.0, "type": "electric_scooter", "name": "067833768e717de764db8a277f401de3", "is_disabled": 0, "rental_uris": {"ios": "https://dc.lft.to/lastmile_qr_scan", "android": "https://dc.lft.to/lastmile_qr_scan"}, "is_reserved": 0}, {"lon": -76.97607883333333, "bike_id": "7f937c7497c3a21e6c694cfcd83e60d4", "lat": 38.897512666666664, "fusion_lon": 0.0, "fusion_lat": 0.0, "type": "electric_scooter", "name": "7f937c7497c3a21e6c694cfcd83e60d4", "is_disabled": 0, "rental_uris": {"ios": "https://dc.lft.to/lastmile_qr_scan", "android": "https://dc.lft.to/lastmile_qr_scan"}, "is_reserved": 0}, {"lon": -76.949923, "bike_id": "f812550808f2b0e8e89f5ca95fa668e1", "lat": 38.893860333333336, "fusion_lon": 0.0, "fusion_lat": 0.0, "type": "electric_scooter", "name": "f812550808f2b0e8e89f5ca95fa668e1", "is_disabled": 0, "rental_uris": {"ios": "https://dc.lft.to/lastmile_qr_scan", "android": "https://dc.lft.to/lastmile_qr_scan"}, "is_reserved": 0}, {"lon": -77.0743445, "bike_id": "9b61ea2f63fa7639cde5be5563528ea3", "lat": 38.99945366666667, "fusion_lon": 0.0, "fusion_lat": 0.0, "type": "electric_bike", "name": "9b61ea2f63fa7639cde5be5563528ea3", "is_disabled": 0, "rental_uris": {"ios": "https://dc.lft.to/lastmile_qr_scan", "android": "https://dc.lft.to/lastmile_qr_scan"}, "is_reserved": 0}, {"lon": -77.02427966666667, "bike_id": "709b8b8f3dcb0662ae21d12814d94913", "lat": 38.914026, "fusion_lon": 0.0, "fusion_lat": 0.0, "type": "electric_scooter", "name": "709b8b8f3dcb0662ae21d12814d94913", "is_disabled": 0, "rental_uris": {"ios": "https://dc.lft.to/lastmile_qr_scan", "android": "https://dc.lft.to/lastmile_qr_scan"}, "is_reserved": 0}, {"lon": -76.980182, "bike_id": "bd9e34fdc329b38f54243a92d8d742ed", "lat": 38.8988895, "fusion_lon": 0.0, "fusion_lat": 0.0, "type": "electric_scooter", "name": "bd9e34fdc329b38f54243a92d8d742ed", "is_disabled": 0, "rental_uris": {"ios": "https://dc.lft.to/lastmile_qr_scan", "android": "https://dc.lft.to/lastmile_qr_scan"}, "is_reserved": 0}, {"lon": -77.01445666666666, "bike_id": "c7988367efe1a433fc7aad2c7136d342", "lat": 38.879368, "fusion_lon": 0.0, "fusion_lat": 0.0, "type": "electric_scooter", "name": "c7988367efe1a433fc7aad2c7136d342", "is_disabled": 0, "rental_uris": {"ios": "https://dc.lft.to/lastmile_qr_scan", "android": "https://dc.lft.to/lastmile_qr_scan"}, "is_reserved": 0}, {"lon": -77.00738083333333, "bike_id": "ce25d0053b22b42128d8484aec1dabf3", "lat": 38.916253166666664, "fusion_lon": 0.0, "fusion_lat": 0.0, "type": "electric_scooter", "name": "ce25d0053b22b42128d8484aec1dabf3", "is_disabled": 0, "rental_uris": {"ios": "https://dc.lft.to/lastmile_qr_scan", "android": "https://dc.lft.to/lastmile_qr_scan"}, "is_reserved": 0}, {"lon": -77.01427433333333, "bike_id": "b77829e8f8ceebaafab94f07aa3a685d", "lat": 38.91460716666667, "fusion_lon": 0.0, "fusion_lat": 0.0, "type": "electric_scooter", "name": "b77829e8f8ceebaafab94f07aa3a685d", "is_disabled": 0, "rental_uris": {"ios": "https://dc.lft.to/lastmile_qr_scan", "android": "https://dc.lft.to/lastmile_qr_scan"}, "is_reserved": 0}, {"lon": -77.03258716666667, "bike_id": "73b80a79a35d686f987cd1a851109904", "lat": 38.9356335, "fusion_lon": 0.0, "fusion_lat": 0.0, "type": "electric_scooter", "name": "73b80a79a35d686f987cd1a851109904", "is_disabled": 0, "rental_uris": {"ios": "https://dc.lft.to/lastmile_qr_scan", "android": "https://dc.lft.to/lastmile_qr_scan"}, "is_reserved": 0}, {"lon": -76.98715816666666, "bike_id": "7879b23a29c79d4d3b1eac2ee853f1f2", "lat": 38.866197666666665, "fusion_lon": 0.0, "fusion_lat": 0.0, "type": "electric_scooter", "name": "7879b23a29c79d4d3b1eac2ee853f1f2", "is_disabled": 0, "rental_uris": {"ios": "https://dc.lft.to/lastmile_qr_scan", "android": "https://dc.lft.to/lastmile_qr_scan"}, "is_reserved": 0}, {"lon": -77.05858766666667, "bike_id": "b91f2e090732b28faa73bee396bf3359", "lat": 38.936023, "fusion_lon": 0.0, "fusion_lat": 0.0, "type": "electric_scooter", "name": "b91f2e090732b28faa73bee396bf3359", "is_disabled": 0, "rental_uris": {"ios": "https://dc.lft.to/lastmile_qr_scan", "android": "https://dc.lft.to/lastmile_qr_scan"}, "is_reserved": 0}, {"lon": -77.00164133333334, "bike_id": "445ec824e30254175087686a3613786a", "lat": 38.875164, "fusion_lon": 0.0, "fusion_lat": 0.0, "type": "electric_scooter", "name": "445ec824e30254175087686a3613786a", "is_disabled": 0, "rental_uris": {"ios": "https://dc.lft.to/lastmile_qr_scan", "android": "https://dc.lft.to/lastmile_qr_scan"}, "is_reserved": 0}, {"lon": -76.9914175, "bike_id": "f1ac955ba769e4b61d307b957f66953f", "lat": 38.901192333333334, "fusion_lon": 0.0, "fusion_lat": 0.0, "type": "electric_scooter", "name": "f1ac955ba769e4b61d307b957f66953f", "is_disabled": 0, "rental_uris": {"ios": "https://dc.lft.to/lastmile_qr_scan", "android": "https://dc.lft.to/lastmile_qr_scan"}, "is_reserved": 0}, {"lon": -77.02401633333334, "bike_id": "f97364f80747f32cd21ab364fee9ee92", "lat": 38.915249, "fusion_lon": 0.0, "fusion_lat": 0.0, "type": "electric_scooter", "name": "f97364f80747f32cd21ab364fee9ee92", "is_disabled": 0, "rental_uris": {"ios": "https://dc.lft.to/lastmile_qr_scan", "android": "https://dc.lft.to/lastmile_qr_scan"}, "is_reserved": 0}, {"lon": -77.03356966666666, "bike_id": "151ea8d8ecec3654dba5728935b63d69", "lat": 38.886946, "fusion_lon": 0.0, "fusion_lat": 0.0, "type": "electric_scooter", "name": "151ea8d8ecec3654dba5728935b63d69", "is_disabled": 0, "rental_uris": {"ios": "https://dc.lft.to/lastmile_qr_scan", "android": "https://dc.lft.to/lastmile_qr_scan"}, "is_reserved": 0}, {"lon": -77.12528216666666, "bike_id": "ea149e02b6625e5eb1225283287a9dc2", "lat": 39.05637383333333, "fusion_lon": 0.0, "fusion_lat": 0.0, "type": "electric_bike", "name": "ea149e02b6625e5eb1225283287a9dc2", "is_disabled": 0, "rental_uris": {"ios": "https://dc.lft.to/lastmile_qr_scan", "android": "https://dc.lft.to/lastmile_qr_scan"}, "is_reserved": 0}, {"lon": -77.0745265, "bike_id": "9eba424f29fd6b34d740edad48dbf92c", "lat": 38.94510366666667, "fusion_lon": 0.0, "fusion_lat": 0.0, "type": "electric_scooter", "name": "9eba424f29fd6b34d740edad48dbf92c", "is_disabled": 0, "rental_uris": {"ios": "https://dc.lft.to/lastmile_qr_scan", "android": "https://dc.lft.to/lastmile_qr_scan"}, "is_reserved": 0}, {"lon": -76.97629183333333, "bike_id": "254c4c0d55b4fb260d9eaf1154f0744d", "lat": 38.90571933333333, "fusion_lon": 0.0, "fusion_lat": 0.0, "type": "electric_scooter", "name": "254c4c0d55b4fb260d9eaf1154f0744d", "is_disabled": 0, "rental_uris": {"ios": "https://dc.lft.to/lastmile_qr_scan", "android": "https://dc.lft.to/lastmile_qr_scan"}, "is_reserved": 0}, {"lon": -77.05911033333334, "bike_id": "a17f617fa026a6c461b38f7a70e0945f", "lat": 38.903545, "fusion_lon": 0.0, "fusion_lat": 0.0, "type": "electric_scooter", "name": "a17f617fa026a6c461b38f7a70e0945f", "is_disabled": 0, "rental_uris": {"ios": "https://dc.lft.to/lastmile_qr_scan", "android": "https://dc.lft.to/lastmile_qr_scan"}, "is_reserved": 0}, {"lon": -77.0385245, "bike_id": "b3f740cdbdbda325f2ed7637c957c002", "lat": 38.9011895, "fusion_lon": 0.0, "fusion_lat": 0.0, "type": "electric_scooter", "name": "b3f740cdbdbda325f2ed7637c957c002", "is_disabled": 0, "rental_uris": {"ios": "https://dc.lft.to/lastmile_qr_scan", "android": "https://dc.lft.to/lastmile_qr_scan"}, "is_reserved": 0}, {"lon": -77.044854, "bike_id": "c0340b1f964df7cb058a4947ea240a54", "lat": 38.89261783333333, "fusion_lon": 0.0, "fusion_lat": 0.0, "type": "electric_scooter", "name": "c0340b1f964df7cb058a4947ea240a54", "is_disabled": 0, "rental_uris": {"ios": "https://dc.lft.to/lastmile_qr_scan", "android": "https://dc.lft.to/lastmile_qr_scan"}, "is_reserved": 0}, {"lon": -77.07543933333334, "bike_id": "65ebee59440e64aa445a903c0bbbd93d", "lat": 38.894694666666666, "fusion_lon": 0.0, "fusion_lat": 0.0, "type": "electric_scooter", "name": "65ebee59440e64aa445a903c0bbbd93d", "is_disabled": 0, "rental_uris": {"ios": "https://dc.lft.to/lastmile_qr_scan", "android": "https://dc.lft.to/lastmile_qr_scan"}, "is_reserved": 0}, {"lon": -77.03622633333333, "bike_id": "a775774c31c29154a87155ef83223865", "lat": 38.93163666666667, "fusion_lon": 0.0, "fusion_lat": 0.0, "type": "electric_scooter", "name": "a775774c31c29154a87155ef83223865", "is_disabled": 0, "rental_uris": {"ios": "https://dc.lft.to/lastmile_qr_scan", "android": "https://dc.lft.to/lastmile_qr_scan"}, "is_reserved": 0}, {"lon": -77.02572216666667, "bike_id": "90d40489970f05930031a0e2d1289d86", "lat": 38.92460466666667, "fusion_lon": 0.0, "fusion_lat": 0.0, "type": "electric_scooter", "name": "90d40489970f05930031a0e2d1289d86", "is_disabled": 0, "rental_uris": {"ios": "https://dc.lft.to/lastmile_qr_scan", "android": "https://dc.lft.to/lastmile_qr_scan"}, "is_reserved": 0}, {"lon": -77.0538455, "bike_id": "0e8263bbf2a66a61e2c1fbeec73e12ee", "lat": 38.92729766666667, "fusion_lon": 0.0, "fusion_lat": 0.0, "type": "electric_scooter", "name": "0e8263bbf2a66a61e2c1fbeec73e12ee", "is_disabled": 0, "rental_uris": {"ios": "https://dc.lft.to/lastmile_qr_scan", "android": "https://dc.lft.to/lastmile_qr_scan"}, "is_reserved": 0}, {"lon": -77.03035866666667, "bike_id": "480d849bb46da212658a1809c5a7f339", "lat": 38.89828833333333, "fusion_lon": 0.0, "fusion_lat": 0.0, "type": "electric_scooter", "name": "480d849bb46da212658a1809c5a7f339", "is_disabled": 0, "rental_uris": {"ios": "https://dc.lft.to/lastmile_qr_scan", "android": "https://dc.lft.to/lastmile_qr_scan"}, "is_reserved": 0}, {"lon": -77.01366383333334, "bike_id": "87e8fcbbb196114d86308834be5e3a3f", "lat": 38.8870365, "fusion_lon": 0.0, "fusion_lat": 0.0, "type": "electric_scooter", "name": "87e8fcbbb196114d86308834be5e3a3f", "is_disabled": 0, "rental_uris": {"ios": "https://dc.lft.to/lastmile_qr_scan", "android": "https://dc.lft.to/lastmile_qr_scan"}, "is_reserved": 0}, {"lon": -77.0258145, "bike_id": "51532d2b9d085c30d785fb2cea9ebe06", "lat": 38.92734, "fusion_lon": 0.0, "fusion_lat": 0.0, "type": "electric_scooter", "name": "51532d2b9d085c30d785fb2cea9ebe06", "is_disabled": 0, "rental_uris": {"ios": "https://dc.lft.to/lastmile_qr_scan", "android": "https://dc.lft.to/lastmile_qr_scan"}, "is_reserved": 0}, {"lon": -77.0239185, "bike_id": "066b515c8a7824be2b2fc143600db7d8", "lat": 38.919963, "fusion_lon": 0.0, "fusion_lat": 0.0, "type": "electric_scooter", "name": "066b515c8a7824be2b2fc143600db7d8", "is_disabled": 0, "rental_uris": {"ios": "https://dc.lft.to/lastmile_qr_scan", "android": "https://dc.lft.to/lastmile_qr_scan"}, "is_reserved": 0}, {"lon": -77.04598733333333, "bike_id": "36dfc13a7b06e69aabd8433ec916edb6", "lat": 38.91605166666667, "fusion_lon": 0.0, "fusion_lat": 0.0, "type": "electric_scooter", "name": "36dfc13a7b06e69aabd8433ec916edb6", "is_disabled": 0, "rental_uris": {"ios": "https://dc.lft.to/lastmile_qr_scan", "android": "https://dc.lft.to/lastmile_qr_scan"}, "is_reserved": 0}, {"lon": -76.98828916666666, "bike_id": "e9d8d96210e09dd2fea6322ec6f4ccae", "lat": 38.8907515, "fusion_lon": 0.0, "fusion_lat": 0.0, "type": "electric_scooter", "name": "e9d8d96210e09dd2fea6322ec6f4ccae", "is_disabled": 0, "rental_uris": {"ios": "https://dc.lft.to/lastmile_qr_scan", "android": "https://dc.lft.to/lastmile_qr_scan"}, "is_reserved": 0}, {"lon": -77.0293205, "bike_id": "4425bee02632282b2326e55b1e800c12", "lat": 38.898299, "fusion_lon": 0.0, "fusion_lat": 0.0, "type": "electric_scooter", "name": "4425bee02632282b2326e55b1e800c12", "is_disabled": 0, "rental_uris": {"ios": "https://dc.lft.to/lastmile_qr_scan", "android": "https://dc.lft.to/lastmile_qr_scan"}, "is_reserved": 0}, {"lon": -77.01961633333333, "bike_id": "7f0a2552acf3e1c7151ac90f4feb0205", "lat": 38.952267666666664, "fusion_lon": 0.0, "fusion_lat": 0.0, "type": "electric_scooter", "name": "7f0a2552acf3e1c7151ac90f4feb0205", "is_disabled": 0, "rental_uris": {"ios": "https://dc.lft.to/lastmile_qr_scan", "android": "https://dc.lft.to/lastmile_qr_scan"}, "is_reserved": 0}, {"lon": -77.00554616666666, "bike_id": "00b2bac9bed477882a6669dc3c746e59", "lat": 38.87470016666666, "fusion_lon": 0.0, "fusion_lat": 0.0, "type": "electric_scooter", "name": "00b2bac9bed477882a6669dc3c746e59", "is_disabled": 0, "rental_uris": {"ios": "https://dc.lft.to/lastmile_qr_scan", "android": "https://dc.lft.to/lastmile_qr_scan"}, "is_reserved": 0}, {"lon": -77.007551, "bike_id": "2b7c2738cd3ab5635816d584650030e2", "lat": 38.8765555, "fusion_lon": 0.0, "fusion_lat": 0.0, "type": "electric_scooter", "name": "2b7c2738cd3ab5635816d584650030e2", "is_disabled": 0, "rental_uris": {"ios": "https://dc.lft.to/lastmile_qr_scan", "android": "https://dc.lft.to/lastmile_qr_scan"}, "is_reserved": 0}, {"lon": -76.99599166666667, "bike_id": "bf2e53e4616d313a47951b35af5a6460", "lat": 38.85698933333333, "fusion_lon": 0.0, "fusion_lat": 0.0, "type": "electric_scooter", "name": "bf2e53e4616d313a47951b35af5a6460", "is_disabled": 0, "rental_uris": {"ios": "https://dc.lft.to/lastmile_qr_scan", "android": "https://dc.lft.to/lastmile_qr_scan"}, "is_reserved": 0}, {"lon": -77.038663, "bike_id": "b26aed2567142a9c709c816ece47035e", "lat": 38.9125515, "fusion_lon": 0.0, "fusion_lat": 0.0, "type": "electric_scooter", "name": "b26aed2567142a9c709c816ece47035e", "is_disabled": 0, "rental_uris": {"ios": "https://dc.lft.to/lastmile_qr_scan", "android": "https://dc.lft.to/lastmile_qr_scan"}, "is_reserved": 0}, {"lon": -77.03327833333333, "bike_id": "d5cf081c604c1358e972238af8705a81", "lat": 38.938998833333336, "fusion_lon": 0.0, "fusion_lat": 0.0, "type": "electric_scooter", "name": "d5cf081c604c1358e972238af8705a81", "is_disabled": 0, "rental_uris": {"ios": "https://dc.lft.to/lastmile_qr_scan", "android": "https://dc.lft.to/lastmile_qr_scan"}, "is_reserved": 0}, {"lon": -77.03866233333333, "bike_id": "2c4455e345b317a105ec9bf74a8ce371", "lat": 38.915548666666666, "fusion_lon": 0.0, "fusion_lat": 0.0, "type": "electric_scooter", "name": "2c4455e345b317a105ec9bf74a8ce371", "is_disabled": 0, "rental_uris": {"ios": "https://dc.lft.to/lastmile_qr_scan", "android": "https://dc.lft.to/lastmile_qr_scan"}, "is_reserved": 0}, {"lon": -77.04545233333333, "bike_id": "f4687ba5644067e090854214394be39c", "lat": 38.93408383333333, "fusion_lon": 0.0, "fusion_lat": 0.0, "type": "electric_scooter", "name": "f4687ba5644067e090854214394be39c", "is_disabled": 0, "rental_uris": {"ios": "https://dc.lft.to/lastmile_qr_scan", "android": "https://dc.lft.to/lastmile_qr_scan"}, "is_reserved": 0}, {"lon": -77.02341683333333, "bike_id": "ee40c4dfffe8c0b0adae29ea1379e169", "lat": 38.917699666666664, "fusion_lon": 0.0, "fusion_lat": 0.0, "type": "electric_scooter", "name": "ee40c4dfffe8c0b0adae29ea1379e169", "is_disabled": 0, "rental_uris": {"ios": "https://dc.lft.to/lastmile_qr_scan", "android": "https://dc.lft.to/lastmile_qr_scan"}, "is_reserved": 0}, {"lon": -77.01753233333334, "bike_id": "04617d05cddbe29470ea6196ba709efc", "lat": 38.903977, "fusion_lon": 0.0, "fusion_lat": 0.0, "type": "electric_scooter", "name": "04617d05cddbe29470ea6196ba709efc", "is_disabled": 0, "rental_uris": {"ios": "https://dc.lft.to/lastmile_qr_scan", "android": "https://dc.lft.to/lastmile_qr_scan"}, "is_reserved": 0}, {"lon": -77.03341616666667, "bike_id": "c763b90398a032041854e5015392c221", "lat": 38.898405833333335, "fusion_lon": 0.0, "fusion_lat": 0.0, "type": "electric_scooter", "name": "c763b90398a032041854e5015392c221", "is_disabled": 0, "rental_uris": {"ios": "https://dc.lft.to/lastmile_qr_scan", "android": "https://dc.lft.to/lastmile_qr_scan"}, "is_reserved": 0}, {"lon": -77.022813, "bike_id": "4f5a6ec3fe4e20398f9e04d0a771e678", "lat": 38.9268285, "fusion_lon": 0.0, "fusion_lat": 0.0, "type": "electric_scooter", "name": "4f5a6ec3fe4e20398f9e04d0a771e678", "is_disabled": 0, "rental_uris": {"ios": "https://dc.lft.to/lastmile_qr_scan", "android": "https://dc.lft.to/lastmile_qr_scan"}, "is_reserved": 0}, {"lon": -76.96217833333333, "bike_id": "60c144fcf322330f8b2281ffa86ffe40", "lat": 38.87782033333333, "fusion_lon": 0.0, "fusion_lat": 0.0, "type": "electric_scooter", "name": "60c144fcf322330f8b2281ffa86ffe40", "is_disabled": 0, "rental_uris": {"ios": "https://dc.lft.to/lastmile_qr_scan", "android": "https://dc.lft.to/lastmile_qr_scan"}, "is_reserved": 0}, {"lon": -77.07322533333334, "bike_id": "56efea6bf127e06f0a1643933a7ebd79", "lat": 38.91402433333333, "fusion_lon": 0.0, "fusion_lat": 0.0, "type": "electric_scooter", "name": "56efea6bf127e06f0a1643933a7ebd79", "is_disabled": 0, "rental_uris": {"ios": "https://dc.lft.to/lastmile_qr_scan", "android": "https://dc.lft.to/lastmile_qr_scan"}, "is_reserved": 0}, {"lon": -77.03362916666667, "bike_id": "79f5a209fa726cf42572f6a763d53b45", "lat": 38.935309333333336, "fusion_lon": 0.0, "fusion_lat": 0.0, "type": "electric_scooter", "name": "79f5a209fa726cf42572f6a763d53b45", "is_disabled": 0, "rental_uris": {"ios": "https://dc.lft.to/lastmile_qr_scan", "android": "https://dc.lft.to/lastmile_qr_scan"}, "is_reserved": 0}, {"lon": -77.04250916666666, "bike_id": "91af0e7839fdee20a57d2a217a176dff", "lat": 38.9243635, "fusion_lon": 0.0, "fusion_lat": 0.0, "type": "electric_scooter", "name": "91af0e7839fdee20a57d2a217a176dff", "is_disabled": 0, "rental_uris": {"ios": "https://dc.lft.to/lastmile_qr_scan", "android": "https://dc.lft.to/lastmile_qr_scan"}, "is_reserved": 0}, {"lon": -77.0323955, "bike_id": "fb54b087d60187efbecf6637b1e04f19", "lat": 38.92689, "fusion_lon": 0.0, "fusion_lat": 0.0, "type": "electric_scooter", "name": "fb54b087d60187efbecf6637b1e04f19", "is_disabled": 0, "rental_uris": {"ios": "https://dc.lft.to/lastmile_qr_scan", "android": "https://dc.lft.to/lastmile_qr_scan"}, "is_reserved": 0}, {"lon": -77.02819416666667, "bike_id": "7cbff4a4c05556488a6044d0cc49f43c", "lat": 38.965054, "fusion_lon": 0.0, "fusion_lat": 0.0, "type": "electric_bike", "name": "7cbff4a4c05556488a6044d0cc49f43c", "is_disabled": 0, "rental_uris": {"ios": "https://dc.lft.to/lastmile_qr_scan", "android": "https://dc.lft.to/lastmile_qr_scan"}, "is_reserved": 0}, {"lon": -76.93175066666667, "bike_id": "97d4e61af2be055ac130d0a4a0076180", "lat": 38.898821, "fusion_lon": 0.0, "fusion_lat": 0.0, "type": "electric_scooter", "name": "97d4e61af2be055ac130d0a4a0076180", "is_disabled": 0, "rental_uris": {"ios": "https://dc.lft.to/lastmile_qr_scan", "android": "https://dc.lft.to/lastmile_qr_scan"}, "is_reserved": 0}, {"lon": -77.01723883333334, "bike_id": "0d7daf23bda6890ae0f5876913f966b4", "lat": 38.94312383333333, "fusion_lon": 0.0, "fusion_lat": 0.0, "type": "electric_scooter", "name": "0d7daf23bda6890ae0f5876913f966b4", "is_disabled": 0, "rental_uris": {"ios": "https://dc.lft.to/lastmile_qr_scan", "android": "https://dc.lft.to/lastmile_qr_scan"}, "is_reserved": 0}, {"lon": -76.930138, "bike_id": "658a35504857daacac58a4a77e472296", "lat": 38.89655283333333, "fusion_lon": 0.0, "fusion_lat": 0.0, "type": "electric_bike", "name": "658a35504857daacac58a4a77e472296", "is_disabled": 0, "rental_uris": {"ios": "https://dc.lft.to/lastmile_qr_scan", "android": "https://dc.lft.to/lastmile_qr_scan"}, "is_reserved": 0}, {"lon": -77.03291016666667, "bike_id": "ca8ff6df08f8160a396902a102957223", "lat": 38.956508166666666, "fusion_lon": 0.0, "fusion_lat": 0.0, "type": "electric_scooter", "name": "ca8ff6df08f8160a396902a102957223", "is_disabled": 0, "rental_uris": {"ios": "https://dc.lft.to/lastmile_qr_scan", "android": "https://dc.lft.to/lastmile_qr_scan"}, "is_reserved": 0}, {"lon": -77.02655083333333, "bike_id": "5e85687e22164612583621b9347bf9ff", "lat": 38.975633333333334, "fusion_lon": 0.0, "fusion_lat": 0.0, "type": "electric_scooter", "name": "5e85687e22164612583621b9347bf9ff", "is_disabled": 0, "rental_uris": {"ios": "https://dc.lft.to/lastmile_qr_scan", "android": "https://dc.lft.to/lastmile_qr_scan"}, "is_reserved": 0}, {"lon": -76.93645133333334, "bike_id": "47b8c293a2573e372647e56108e5a9cc", "lat": 38.900628, "fusion_lon": 0.0, "fusion_lat": 0.0, "type": "electric_scooter", "name": "47b8c293a2573e372647e56108e5a9cc", "is_disabled": 0, "rental_uris": {"ios": "https://dc.lft.to/lastmile_qr_scan", "android": "https://dc.lft.to/lastmile_qr_scan"}, "is_reserved": 0}, {"lon": -77.01329816666667, "bike_id": "3a9a71e08201a25124ec3f8de3d0a921", "lat": 38.9007115, "fusion_lon": 0.0, "fusion_lat": 0.0, "type": "electric_scooter", "name": "3a9a71e08201a25124ec3f8de3d0a921", "is_disabled": 0, "rental_uris": {"ios": "https://dc.lft.to/lastmile_qr_scan", "android": "https://dc.lft.to/lastmile_qr_scan"}, "is_reserved": 0}, {"lon": -76.99900683333334, "bike_id": "a1e985228bc729276183628d45477139", "lat": 38.90950616666667, "fusion_lon": 0.0, "fusion_lat": 0.0, "type": "electric_scooter", "name": "a1e985228bc729276183628d45477139", "is_disabled": 0, "rental_uris": {"ios": "https://dc.lft.to/lastmile_qr_scan", "android": "https://dc.lft.to/lastmile_qr_scan"}, "is_reserved": 0}, {"lon": -77.038093, "bike_id": "129851537ead0305b372c7ebee5e0b73", "lat": 38.9205755, "fusion_lon": 0.0, "fusion_lat": 0.0, "type": "electric_scooter", "name": "129851537ead0305b372c7ebee5e0b73", "is_disabled": 0, "rental_uris": {"ios": "https://dc.lft.to/lastmile_qr_scan", "android": "https://dc.lft.to/lastmile_qr_scan"}, "is_reserved": 0}, {"lon": -77.04199233333334, "bike_id": "4b45bc687a470d0b83509b6a6ae99017", "lat": 38.926224166666664, "fusion_lon": 0.0, "fusion_lat": 0.0, "type": "electric_scooter", "name": "4b45bc687a470d0b83509b6a6ae99017", "is_disabled": 0, "rental_uris": {"ios": "https://dc.lft.to/lastmile_qr_scan", "android": "https://dc.lft.to/lastmile_qr_scan"}, "is_reserved": 0}, {"lon": -76.9981275, "bike_id": "fa5c1415122550d27dc6778bbed545a2", "lat": 38.9072225, "fusion_lon": 0.0, "fusion_lat": 0.0, "type": "electric_scooter", "name": "fa5c1415122550d27dc6778bbed545a2", "is_disabled": 0, "rental_uris": {"ios": "https://dc.lft.to/lastmile_qr_scan", "android": "https://dc.lft.to/lastmile_qr_scan"}, "is_reserved": 0}, {"lon": -77.03658266666666, "bike_id": "074ca8243a88f2372a7157ccc840ba39", "lat": 38.92296916666667, "fusion_lon": 0.0, "fusion_lat": 0.0, "type": "electric_scooter", "name": "074ca8243a88f2372a7157ccc840ba39", "is_disabled": 0, "rental_uris": {"ios": "https://dc.lft.to/lastmile_qr_scan", "android": "https://dc.lft.to/lastmile_qr_scan"}, "is_reserved": 0}, {"lon": -76.9911675, "bike_id": "f4f324dcb3cd7b6ef23465518a193320", "lat": 38.9335965, "fusion_lon": 0.0, "fusion_lat": 0.0, "type": "electric_scooter", "name": "f4f324dcb3cd7b6ef23465518a193320", "is_disabled": 0, "rental_uris": {"ios": "https://dc.lft.to/lastmile_qr_scan", "android": "https://dc.lft.to/lastmile_qr_scan"}, "is_reserved": 0}, {"lon": -77.048647, "bike_id": "c73fe6a32ddfb459d527d2c7a0efb456", "lat": 38.8922185, "fusion_lon": 0.0, "fusion_lat": 0.0, "type": "electric_scooter", "name": "c73fe6a32ddfb459d527d2c7a0efb456", "is_disabled": 0, "rental_uris": {"ios": "https://dc.lft.to/lastmile_qr_scan", "android": "https://dc.lft.to/lastmile_qr_scan"}, "is_reserved": 0}, {"lon": -77.04598816666666, "bike_id": "a7a08cb53ed1350c2c49798786a012d7", "lat": 38.918674, "fusion_lon": 0.0, "fusion_lat": 0.0, "type": "electric_scooter", "name": "a7a08cb53ed1350c2c49798786a012d7", "is_disabled": 0, "rental_uris": {"ios": "https://dc.lft.to/lastmile_qr_scan", "android": "https://dc.lft.to/lastmile_qr_scan"}, "is_reserved": 0}, {"lon": -76.97430866666667, "bike_id": "d072b521bcec9552197e6bb17de4ba2e", "lat": 38.865306333333336, "fusion_lon": 0.0, "fusion_lat": 0.0, "type": "electric_scooter", "name": "d072b521bcec9552197e6bb17de4ba2e", "is_disabled": 0, "rental_uris": {"ios": "https://dc.lft.to/lastmile_qr_scan", "android": "https://dc.lft.to/lastmile_qr_scan"}, "is_reserved": 0}, {"lon": -76.9854625, "bike_id": "b5888e290d23c59a0e2399369d35c50c", "lat": 38.88346216666667, "fusion_lon": 0.0, "fusion_lat": 0.0, "type": "electric_scooter", "name": "b5888e290d23c59a0e2399369d35c50c", "is_disabled": 0, "rental_uris": {"ios": "https://dc.lft.to/lastmile_qr_scan", "android": "https://dc.lft.to/lastmile_qr_scan"}, "is_reserved": 0}, {"lon": -77.0510905, "bike_id": "8cd1a4c1151df33a8226a0203061eaea", "lat": 39.036683333333336, "fusion_lon": 0.0, "fusion_lat": 0.0, "type": "electric_bike", "name": "8cd1a4c1151df33a8226a0203061eaea", "is_disabled": 0, "rental_uris": {"ios": "https://dc.lft.to/lastmile_qr_scan", "android": "https://dc.lft.to/lastmile_qr_scan"}, "is_reserved": 0}, {"lon": -77.0485575, "bike_id": "731e83c4063e6f63eaf5f6a03951f80d", "lat": 38.904244, "fusion_lon": 0.0, "fusion_lat": 0.0, "type": "electric_scooter", "name": "731e83c4063e6f63eaf5f6a03951f80d", "is_disabled": 0, "rental_uris": {"ios": "https://dc.lft.to/lastmile_qr_scan", "android": "https://dc.lft.to/lastmile_qr_scan"}, "is_reserved": 0}, {"lon": -77.025298, "bike_id": "201ebfb48d5db36e04c60078a07f7875", "lat": 38.9374705, "fusion_lon": 0.0, "fusion_lat": 0.0, "type": "electric_scooter", "name": "201ebfb48d5db36e04c60078a07f7875", "is_disabled": 0, "rental_uris": {"ios": "https://dc.lft.to/lastmile_qr_scan", "android": "https://dc.lft.to/lastmile_qr_scan"}, "is_reserved": 0}, {"lon": -77.0304525, "bike_id": "e946440494c60888edefd31376846caa", "lat": 38.91327666666667, "fusion_lon": 0.0, "fusion_lat": 0.0, "type": "electric_scooter", "name": "e946440494c60888edefd31376846caa", "is_disabled": 0, "rental_uris": {"ios": "https://dc.lft.to/lastmile_qr_scan", "android": "https://dc.lft.to/lastmile_qr_scan"}, "is_reserved": 0}, {"lon": -76.98723283333334, "bike_id": "0ba6f4130bbb8e7717f7f876d2021431", "lat": 38.867117, "fusion_lon": 0.0, "fusion_lat": 0.0, "type": "electric_scooter", "name": "0ba6f4130bbb8e7717f7f876d2021431", "is_disabled": 0, "rental_uris": {"ios": "https://dc.lft.to/lastmile_qr_scan", "android": "https://dc.lft.to/lastmile_qr_scan"}, "is_reserved": 0}, {"lon": -76.991803, "bike_id": "2e97d25afc43f8fd3890a50619bb533e", "lat": 38.905045, "fusion_lon": 0.0, "fusion_lat": 0.0, "type": "electric_scooter", "name": "2e97d25afc43f8fd3890a50619bb533e", "is_disabled": 0, "rental_uris": {"ios": "https://dc.lft.to/lastmile_qr_scan", "android": "https://dc.lft.to/lastmile_qr_scan"}, "is_reserved": 0}, {"lon": -77.1060005, "bike_id": "4e71b683ecd2e702c31a3208c7f63442", "lat": 38.928930333333334, "fusion_lon": 0.0, "fusion_lat": 0.0, "type": "electric_bike", "name": "4e71b683ecd2e702c31a3208c7f63442", "is_disabled": 0, "rental_uris": {"ios": "https://dc.lft.to/lastmile_qr_scan", "android": "https://dc.lft.to/lastmile_qr_scan"}, "is_reserved": 0}, {"lon": -77.03120116666666, "bike_id": "05082adcf45ea1fefb4fdfa82f1cea40", "lat": 38.9170445, "fusion_lon": 0.0, "fusion_lat": 0.0, "type": "electric_scooter", "name": "05082adcf45ea1fefb4fdfa82f1cea40", "is_disabled": 0, "rental_uris": {"ios": "https://dc.lft.to/lastmile_qr_scan", "android": "https://dc.lft.to/lastmile_qr_scan"}, "is_reserved": 0}, {"lon": -77.0320335, "bike_id": "0a3780e480f9a0fd71072eef8647b7ea", "lat": 38.920625, "fusion_lon": 0.0, "fusion_lat": 0.0, "type": "electric_scooter", "name": "0a3780e480f9a0fd71072eef8647b7ea", "is_disabled": 0, "rental_uris": {"ios": "https://dc.lft.to/lastmile_qr_scan", "android": "https://dc.lft.to/lastmile_qr_scan"}, "is_reserved": 0}, {"lon": -77.02978416666667, "bike_id": "973306a03892bbcdf91c928d5c36e66f", "lat": 38.947418166666665, "fusion_lon": 0.0, "fusion_lat": 0.0, "type": "electric_scooter", "name": "973306a03892bbcdf91c928d5c36e66f", "is_disabled": 0, "rental_uris": {"ios": "https://dc.lft.to/lastmile_qr_scan", "android": "https://dc.lft.to/lastmile_qr_scan"}, "is_reserved": 0}, {"lon": -76.985951, "bike_id": "0e8b8d16a9726022d5010eaa012affee", "lat": 38.860612, "fusion_lon": 0.0, "fusion_lat": 0.0, "type": "electric_scooter", "name": "0e8b8d16a9726022d5010eaa012affee", "is_disabled": 0, "rental_uris": {"ios": "https://dc.lft.to/lastmile_qr_scan", "android": "https://dc.lft.to/lastmile_qr_scan"}, "is_reserved": 0}, {"lon": -77.0441175, "bike_id": "80721d014b1f0d814982da0047365e7f", "lat": 38.93420616666667, "fusion_lon": 0.0, "fusion_lat": 0.0, "type": "electric_scooter", "name": "80721d014b1f0d814982da0047365e7f", "is_disabled": 0, "rental_uris": {"ios": "https://dc.lft.to/lastmile_qr_scan", "android": "https://dc.lft.to/lastmile_qr_scan"}, "is_reserved": 0}, {"lon": -77.04697083333333, "bike_id": "a2cbbf1b39ba4a24275de28e61ea96b0", "lat": 38.92120216666667, "fusion_lon": 0.0, "fusion_lat": 0.0, "type": "electric_scooter", "name": "a2cbbf1b39ba4a24275de28e61ea96b0", "is_disabled": 0, "rental_uris": {"ios": "https://dc.lft.to/lastmile_qr_scan", "android": "https://dc.lft.to/lastmile_qr_scan"}, "is_reserved": 0}, {"lon": -76.96153633333333, "bike_id": "ecf56fee7b49b645d3387b934289776d", "lat": 38.88358233333334, "fusion_lon": 0.0, "fusion_lat": 0.0, "type": "electric_scooter", "name": "ecf56fee7b49b645d3387b934289776d", "is_disabled": 0, "rental_uris": {"ios": "https://dc.lft.to/lastmile_qr_scan", "android": "https://dc.lft.to/lastmile_qr_scan"}, "is_reserved": 0}, {"lon": -76.9853375, "bike_id": "be5f938c586002e78228b2bf9a9075a5", "lat": 38.9102355, "fusion_lon": 0.0, "fusion_lat": 0.0, "type": "electric_scooter", "name": "be5f938c586002e78228b2bf9a9075a5", "is_disabled": 0, "rental_uris": {"ios": "https://dc.lft.to/lastmile_qr_scan", "android": "https://dc.lft.to/lastmile_qr_scan"}, "is_reserved": 0}, {"lon": -77.0340415, "bike_id": "e5e5b8fdbe078eaf56721470d4ba6b1a", "lat": 38.93421433333334, "fusion_lon": 0.0, "fusion_lat": 0.0, "type": "electric_scooter", "name": "e5e5b8fdbe078eaf56721470d4ba6b1a", "is_disabled": 0, "rental_uris": {"ios": "https://dc.lft.to/lastmile_qr_scan", "android": "https://dc.lft.to/lastmile_qr_scan"}, "is_reserved": 0}, {"lon": -77.02971516666666, "bike_id": "76d01cdd08c1277f6838d04694009a57", "lat": 38.93193516666667, "fusion_lon": 0.0, "fusion_lat": 0.0, "type": "electric_scooter", "name": "76d01cdd08c1277f6838d04694009a57", "is_disabled": 0, "rental_uris": {"ios": "https://dc.lft.to/lastmile_qr_scan", "android": "https://dc.lft.to/lastmile_qr_scan"}, "is_reserved": 0}, {"lon": -77.01761066666667, "bike_id": "316ed167aefd626872ca02747b893645", "lat": 38.885873, "fusion_lon": 0.0, "fusion_lat": 0.0, "type": "electric_scooter", "name": "316ed167aefd626872ca02747b893645", "is_disabled": 0, "rental_uris": {"ios": "https://dc.lft.to/lastmile_qr_scan", "android": "https://dc.lft.to/lastmile_qr_scan"}, "is_reserved": 0}, {"lon": -77.03665716666667, "bike_id": "71c4d607c1c37bf1ab26e3fc77a96fd8", "lat": 38.93630983333333, "fusion_lon": 0.0, "fusion_lat": 0.0, "type": "electric_scooter", "name": "71c4d607c1c37bf1ab26e3fc77a96fd8", "is_disabled": 0, "rental_uris": {"ios": "https://dc.lft.to/lastmile_qr_scan", "android": "https://dc.lft.to/lastmile_qr_scan"}, "is_reserved": 0}, {"lon": -77.043823, "bike_id": "aa0e12c286e8110fc58daea7b7ae3034", "lat": 38.921103333333335, "fusion_lon": 0.0, "fusion_lat": 0.0, "type": "electric_scooter", "name": "aa0e12c286e8110fc58daea7b7ae3034", "is_disabled": 0, "rental_uris": {"ios": "https://dc.lft.to/lastmile_qr_scan", "android": "https://dc.lft.to/lastmile_qr_scan"}, "is_reserved": 0}, {"lon": -77.03264983333334, "bike_id": "7cb96f3d755975f9ad7208e532f1bc93", "lat": 38.927557, "fusion_lon": 0.0, "fusion_lat": 0.0, "type": "electric_scooter", "name": "7cb96f3d755975f9ad7208e532f1bc93", "is_disabled": 0, "rental_uris": {"ios": "https://dc.lft.to/lastmile_qr_scan", "android": "https://dc.lft.to/lastmile_qr_scan"}, "is_reserved": 0}, {"lon": -77.0309335, "bike_id": "70b9a8dfd99b2d82bc892977997f83e9", "lat": 38.933933833333334, "fusion_lon": 0.0, "fusion_lat": 0.0, "type": "electric_scooter", "name": "70b9a8dfd99b2d82bc892977997f83e9", "is_disabled": 0, "rental_uris": {"ios": "https://dc.lft.to/lastmile_qr_scan", "android": "https://dc.lft.to/lastmile_qr_scan"}, "is_reserved": 0}, {"lon": -77.03343633333333, "bike_id": "fb866aff85ef29b698f00380d87efe1a", "lat": 38.920600666666665, "fusion_lon": 0.0, "fusion_lat": 0.0, "type": "electric_scooter", "name": "fb866aff85ef29b698f00380d87efe1a", "is_disabled": 0, "rental_uris": {"ios": "https://dc.lft.to/lastmile_qr_scan", "android": "https://dc.lft.to/lastmile_qr_scan"}, "is_reserved": 0}, {"lon": -76.999407, "bike_id": "ce19001a11f5de0736d6931d9826be19", "lat": 38.9036135, "fusion_lon": 0.0, "fusion_lat": 0.0, "type": "electric_scooter", "name": "ce19001a11f5de0736d6931d9826be19", "is_disabled": 0, "rental_uris": {"ios": "https://dc.lft.to/lastmile_qr_scan", "android": "https://dc.lft.to/lastmile_qr_scan"}, "is_reserved": 0}, {"lon": -76.9878615, "bike_id": "07faf0bdf708a65912b481a4d9faf0a2", "lat": 38.87846316666667, "fusion_lon": 0.0, "fusion_lat": 0.0, "type": "electric_scooter", "name": "07faf0bdf708a65912b481a4d9faf0a2", "is_disabled": 0, "rental_uris": {"ios": "https://dc.lft.to/lastmile_qr_scan", "android": "https://dc.lft.to/lastmile_qr_scan"}, "is_reserved": 0}, {"lon": -77.03621066666666, "bike_id": "ef5930d5dda92ac5a630261d7751c748", "lat": 38.9126145, "fusion_lon": 0.0, "fusion_lat": 0.0, "type": "electric_scooter", "name": "ef5930d5dda92ac5a630261d7751c748", "is_disabled": 0, "rental_uris": {"ios": "https://dc.lft.to/lastmile_qr_scan", "android": "https://dc.lft.to/lastmile_qr_scan"}, "is_reserved": 0}, {"lon": -77.03421233333333, "bike_id": "fdec3b63a8201ecad77f6e19670e6f6e", "lat": 38.92750133333333, "fusion_lon": 0.0, "fusion_lat": 0.0, "type": "electric_scooter", "name": "fdec3b63a8201ecad77f6e19670e6f6e", "is_disabled": 0, "rental_uris": {"ios": "https://dc.lft.to/lastmile_qr_scan", "android": "https://dc.lft.to/lastmile_qr_scan"}, "is_reserved": 0}, {"lon": -77.01512083333333, "bike_id": "0aee27d6a1e0f3e236a3a2cefcc9a4ce", "lat": 38.89247916666667, "fusion_lon": 0.0, "fusion_lat": 0.0, "type": "electric_scooter", "name": "0aee27d6a1e0f3e236a3a2cefcc9a4ce", "is_disabled": 0, "rental_uris": {"ios": "https://dc.lft.to/lastmile_qr_scan", "android": "https://dc.lft.to/lastmile_qr_scan"}, "is_reserved": 0}, {"lon": -77.067179, "bike_id": "366d3e34a5d6d406981e8076725c287a", "lat": 38.9034345, "fusion_lon": 0.0, "fusion_lat": 0.0, "type": "electric_scooter", "name": "366d3e34a5d6d406981e8076725c287a", "is_disabled": 0, "rental_uris": {"ios": "https://dc.lft.to/lastmile_qr_scan", "android": "https://dc.lft.to/lastmile_qr_scan"}, "is_reserved": 0}, {"lon": -77.0272985, "bike_id": "aea81d4750b1e3b1ebec6e82d24d3c48", "lat": 38.90558733333334, "fusion_lon": 0.0, "fusion_lat": 0.0, "type": "electric_scooter", "name": "aea81d4750b1e3b1ebec6e82d24d3c48", "is_disabled": 0, "rental_uris": {"ios": "https://dc.lft.to/lastmile_qr_scan", "android": "https://dc.lft.to/lastmile_qr_scan"}, "is_reserved": 0}, {"lon": -77.04732933333334, "bike_id": "37476615da53dea6d106f12caa55f0ec", "lat": 38.90968516666667, "fusion_lon": 0.0, "fusion_lat": 0.0, "type": "electric_scooter", "name": "37476615da53dea6d106f12caa55f0ec", "is_disabled": 0, "rental_uris": {"ios": "https://dc.lft.to/lastmile_qr_scan", "android": "https://dc.lft.to/lastmile_qr_scan"}, "is_reserved": 0}, {"lon": -77.00042533333334, "bike_id": "f658ae370e0b5a04c56df18d3047acef", "lat": 38.90012466666667, "fusion_lon": 0.0, "fusion_lat": 0.0, "type": "electric_scooter", "name": "f658ae370e0b5a04c56df18d3047acef", "is_disabled": 0, "rental_uris": {"ios": "https://dc.lft.to/lastmile_qr_scan", "android": "https://dc.lft.to/lastmile_qr_scan"}, "is_reserved": 0}, {"lon": -77.0298805, "bike_id": "860681dd8cad1e2b266df60cf06f0e53", "lat": 38.9743905, "fusion_lon": 0.0, "fusion_lat": 0.0, "type": "electric_bike", "name": "860681dd8cad1e2b266df60cf06f0e53", "is_disabled": 0, "rental_uris": {"ios": "https://dc.lft.to/lastmile_qr_scan", "android": "https://dc.lft.to/lastmile_qr_scan"}, "is_reserved": 0}, {"lon": -77.04864833333333, "bike_id": "f687c07bc7c2e764b5fcf96aa4e90f61", "lat": 38.89221233333333, "fusion_lon": 0.0, "fusion_lat": 0.0, "type": "electric_scooter", "name": "f687c07bc7c2e764b5fcf96aa4e90f61", "is_disabled": 0, "rental_uris": {"ios": "https://dc.lft.to/lastmile_qr_scan", "android": "https://dc.lft.to/lastmile_qr_scan"}, "is_reserved": 0}, {"lon": -77.01884133333333, "bike_id": "5647a3d9100857b69ba17afc6a4c2cdc", "lat": 38.91486183333333, "fusion_lon": 0.0, "fusion_lat": 0.0, "type": "electric_scooter", "name": "5647a3d9100857b69ba17afc6a4c2cdc", "is_disabled": 0, "rental_uris": {"ios": "https://dc.lft.to/lastmile_qr_scan", "android": "https://dc.lft.to/lastmile_qr_scan"}, "is_reserved": 0}, {"lon": -76.99770666666667, "bike_id": "25644ad153106fdc4f37008849d1e723", "lat": 38.92452466666667, "fusion_lon": 0.0, "fusion_lat": 0.0, "type": "electric_scooter", "name": "25644ad153106fdc4f37008849d1e723", "is_disabled": 0, "rental_uris": {"ios": "https://dc.lft.to/lastmile_qr_scan", "android": "https://dc.lft.to/lastmile_qr_scan"}, "is_reserved": 0}, {"lon": -77.023029, "bike_id": "ce58e563f262ed332e2945e560533756", "lat": 38.9096775, "fusion_lon": 0.0, "fusion_lat": 0.0, "type": "electric_scooter", "name": "ce58e563f262ed332e2945e560533756", "is_disabled": 0, "rental_uris": {"ios": "https://dc.lft.to/lastmile_qr_scan", "android": "https://dc.lft.to/lastmile_qr_scan"}, "is_reserved": 0}, {"lon": -77.05127083333333, "bike_id": "dd11bd1284ff3687c9d38ceecac2399b", "lat": 38.923631, "fusion_lon": 0.0, "fusion_lat": 0.0, "type": "electric_scooter", "name": "dd11bd1284ff3687c9d38ceecac2399b", "is_disabled": 0, "rental_uris": {"ios": "https://dc.lft.to/lastmile_qr_scan", "android": "https://dc.lft.to/lastmile_qr_scan"}, "is_reserved": 0}, {"lon": -77.058611, "bike_id": "0da136142a038cf6b6a8cf23b32280c4", "lat": 38.9360545, "fusion_lon": 0.0, "fusion_lat": 0.0, "type": "electric_scooter", "name": "0da136142a038cf6b6a8cf23b32280c4", "is_disabled": 0, "rental_uris": {"ios": "https://dc.lft.to/lastmile_qr_scan", "android": "https://dc.lft.to/lastmile_qr_scan"}, "is_reserved": 0}, {"lon": -77.00341716666667, "bike_id": "abc5d48f720cd8285e88731dea1c89cd", "lat": 38.8952395, "fusion_lon": 0.0, "fusion_lat": 0.0, "type": "electric_scooter", "name": "abc5d48f720cd8285e88731dea1c89cd", "is_disabled": 0, "rental_uris": {"ios": "https://dc.lft.to/lastmile_qr_scan", "android": "https://dc.lft.to/lastmile_qr_scan"}, "is_reserved": 0}, {"lon": -77.0306925, "bike_id": "ca8a289b8ffe5a1db298216aa31dcb92", "lat": 38.885933, "fusion_lon": 0.0, "fusion_lat": 0.0, "type": "electric_scooter", "name": "ca8a289b8ffe5a1db298216aa31dcb92", "is_disabled": 0, "rental_uris": {"ios": "https://dc.lft.to/lastmile_qr_scan", "android": "https://dc.lft.to/lastmile_qr_scan"}, "is_reserved": 0}, {"lon": -77.05025333333333, "bike_id": "9aa37ea34c2b2c0994d1f70d90d4b456", "lat": 38.8978075, "fusion_lon": 0.0, "fusion_lat": 0.0, "type": "electric_scooter", "name": "9aa37ea34c2b2c0994d1f70d90d4b456", "is_disabled": 0, "rental_uris": {"ios": "https://dc.lft.to/lastmile_qr_scan", "android": "https://dc.lft.to/lastmile_qr_scan"}, "is_reserved": 0}, {"lon": -77.0211205, "bike_id": "ce96a9024cce20c54f6a4f3f0145c2ae", "lat": 38.9300165, "fusion_lon": 0.0, "fusion_lat": 0.0, "type": "electric_scooter", "name": "ce96a9024cce20c54f6a4f3f0145c2ae", "is_disabled": 0, "rental_uris": {"ios": "https://dc.lft.to/lastmile_qr_scan", "android": "https://dc.lft.to/lastmile_qr_scan"}, "is_reserved": 0}, {"lon": -77.02460333333333, "bike_id": "cecb490611b4eb740fc08c5fe0961bda", "lat": 38.93877166666667, "fusion_lon": 0.0, "fusion_lat": 0.0, "type": "electric_scooter", "name": "cecb490611b4eb740fc08c5fe0961bda", "is_disabled": 0, "rental_uris": {"ios": "https://dc.lft.to/lastmile_qr_scan", "android": "https://dc.lft.to/lastmile_qr_scan"}, "is_reserved": 0}, {"lon": -77.03440566666667, "bike_id": "bff4a2ee00dac840fdebf617aca08ee2", "lat": 38.91744333333333, "fusion_lon": 0.0, "fusion_lat": 0.0, "type": "electric_scooter", "name": "bff4a2ee00dac840fdebf617aca08ee2", "is_disabled": 0, "rental_uris": {"ios": "https://dc.lft.to/lastmile_qr_scan", "android": "https://dc.lft.to/lastmile_qr_scan"}, "is_reserved": 0}, {"lon": -77.00207183333333, "bike_id": "5117e95166750e664d7926f2178a31c4", "lat": 38.895389333333334, "fusion_lon": 0.0, "fusion_lat": 0.0, "type": "electric_scooter", "name": "5117e95166750e664d7926f2178a31c4", "is_disabled": 0, "rental_uris": {"ios": "https://dc.lft.to/lastmile_qr_scan", "android": "https://dc.lft.to/lastmile_qr_scan"}, "is_reserved": 0}, {"lon": -77.005369, "bike_id": "a80cd70e1e5b4579c45dd358acbd10a2", "lat": 38.92976983333333, "fusion_lon": 0.0, "fusion_lat": 0.0, "type": "electric_scooter", "name": "a80cd70e1e5b4579c45dd358acbd10a2", "is_disabled": 0, "rental_uris": {"ios": "https://dc.lft.to/lastmile_qr_scan", "android": "https://dc.lft.to/lastmile_qr_scan"}, "is_reserved": 0}, {"lon": -77.02203766666666, "bike_id": "65d4ba1b7f971083572ede9626810779", "lat": 38.913038, "fusion_lon": 0.0, "fusion_lat": 0.0, "type": "electric_scooter", "name": "65d4ba1b7f971083572ede9626810779", "is_disabled": 0, "rental_uris": {"ios": "https://dc.lft.to/lastmile_qr_scan", "android": "https://dc.lft.to/lastmile_qr_scan"}, "is_reserved": 0}, {"lon": -77.0464475, "bike_id": "7ee00285ad62353cd0a4c62be99eb8ad", "lat": 38.909702833333334, "fusion_lon": 0.0, "fusion_lat": 0.0, "type": "electric_scooter", "name": "7ee00285ad62353cd0a4c62be99eb8ad", "is_disabled": 0, "rental_uris": {"ios": "https://dc.lft.to/lastmile_qr_scan", "android": "https://dc.lft.to/lastmile_qr_scan"}, "is_reserved": 0}, {"lon": -76.93734366666666, "bike_id": "5a2eb389d97b7852d499f418ab6bf100", "lat": 38.890107, "fusion_lon": 0.0, "fusion_lat": 0.0, "type": "electric_scooter", "name": "5a2eb389d97b7852d499f418ab6bf100", "is_disabled": 0, "rental_uris": {"ios": "https://dc.lft.to/lastmile_qr_scan", "android": "https://dc.lft.to/lastmile_qr_scan"}, "is_reserved": 0}, {"lon": -77.001014, "bike_id": "e281df9bc84d1cc5867e98d3dfca100f", "lat": 38.9000635, "fusion_lon": 0.0, "fusion_lat": 0.0, "type": "electric_scooter", "name": "e281df9bc84d1cc5867e98d3dfca100f", "is_disabled": 0, "rental_uris": {"ios": "https://dc.lft.to/lastmile_qr_scan", "android": "https://dc.lft.to/lastmile_qr_scan"}, "is_reserved": 0}, {"lon": -77.02610383333334, "bike_id": "4156a691fd249e1a29adf7dd0b580fc3", "lat": 38.900258, "fusion_lon": 0.0, "fusion_lat": 0.0, "type": "electric_scooter", "name": "4156a691fd249e1a29adf7dd0b580fc3", "is_disabled": 0, "rental_uris": {"ios": "https://dc.lft.to/lastmile_qr_scan", "android": "https://dc.lft.to/lastmile_qr_scan"}, "is_reserved": 0}, {"lon": -76.99512433333334, "bike_id": "921a2bf8c11d38edc503b5065efd06d0", "lat": 38.92261966666667, "fusion_lon": 0.0, "fusion_lat": 0.0, "type": "electric_scooter", "name": "921a2bf8c11d38edc503b5065efd06d0", "is_disabled": 0, "rental_uris": {"ios": "https://dc.lft.to/lastmile_qr_scan", "android": "https://dc.lft.to/lastmile_qr_scan"}, "is_reserved": 0}, {"lon": -77.0647365, "bike_id": "38fb26863d54434bcd37fb5e40490b7e", "lat": 38.9464845, "fusion_lon": 0.0, "fusion_lat": 0.0, "type": "electric_scooter", "name": "38fb26863d54434bcd37fb5e40490b7e", "is_disabled": 0, "rental_uris": {"ios": "https://dc.lft.to/lastmile_qr_scan", "android": "https://dc.lft.to/lastmile_qr_scan"}, "is_reserved": 0}, {"lon": -77.0074925, "bike_id": "a70f8e12cecaaa5d40f13553d7056920", "lat": 38.897355833333336, "fusion_lon": 0.0, "fusion_lat": 0.0, "type": "electric_scooter", "name": "a70f8e12cecaaa5d40f13553d7056920", "is_disabled": 0, "rental_uris": {"ios": "https://dc.lft.to/lastmile_qr_scan", "android": "https://dc.lft.to/lastmile_qr_scan"}, "is_reserved": 0}, {"lon": -77.028236, "bike_id": "f4547e2b379162241df6f65b636ee258", "lat": 38.887321166666666, "fusion_lon": 0.0, "fusion_lat": 0.0, "type": "electric_scooter", "name": "f4547e2b379162241df6f65b636ee258", "is_disabled": 0, "rental_uris": {"ios": "https://dc.lft.to/lastmile_qr_scan", "android": "https://dc.lft.to/lastmile_qr_scan"}, "is_reserved": 0}, {"lon": -76.98693716666666, "bike_id": "5fdc7f46858c7c1af0215b803b8cd840", "lat": 38.862479, "fusion_lon": 0.0, "fusion_lat": 0.0, "type": "electric_scooter", "name": "5fdc7f46858c7c1af0215b803b8cd840", "is_disabled": 0, "rental_uris": {"ios": "https://dc.lft.to/lastmile_qr_scan", "android": "https://dc.lft.to/lastmile_qr_scan"}, "is_reserved": 0}, {"lon": -76.97599333333334, "bike_id": "aa1e6f9b4c53148504cfeeefde431a63", "lat": 38.90563983333333, "fusion_lon": 0.0, "fusion_lat": 0.0, "type": "electric_scooter", "name": "aa1e6f9b4c53148504cfeeefde431a63", "is_disabled": 0, "rental_uris": {"ios": "https://dc.lft.to/lastmile_qr_scan", "android": "https://dc.lft.to/lastmile_qr_scan"}, "is_reserved": 0}, {"lon": -77.01112133333334, "bike_id": "605a0ebb83d849042f3ac84cf7ed4870", "lat": 38.9035045, "fusion_lon": 0.0, "fusion_lat": 0.0, "type": "electric_scooter", "name": "605a0ebb83d849042f3ac84cf7ed4870", "is_disabled": 0, "rental_uris": {"ios": "https://dc.lft.to/lastmile_qr_scan", "android": "https://dc.lft.to/lastmile_qr_scan"}, "is_reserved": 0}, {"lon": -77.038882, "bike_id": "8c0cbf18181b03ad2d533c4fedbbd060", "lat": 38.92521133333334, "fusion_lon": 0.0, "fusion_lat": 0.0, "type": "electric_scooter", "name": "8c0cbf18181b03ad2d533c4fedbbd060", "is_disabled": 0, "rental_uris": {"ios": "https://dc.lft.to/lastmile_qr_scan", "android": "https://dc.lft.to/lastmile_qr_scan"}, "is_reserved": 0}, {"lon": -77.08509866666667, "bike_id": "643de483efb7c70e093c5f29ce4c0d4c", "lat": 38.95926466666667, "fusion_lon": 0.0, "fusion_lat": 0.0, "type": "electric_scooter", "name": "643de483efb7c70e093c5f29ce4c0d4c", "is_disabled": 0, "rental_uris": {"ios": "https://dc.lft.to/lastmile_qr_scan", "android": "https://dc.lft.to/lastmile_qr_scan"}, "is_reserved": 0}, {"lon": -77.02013666666667, "bike_id": "2d937e83604c2e2b397a89a7145a7187", "lat": 38.924159, "fusion_lon": 0.0, "fusion_lat": 0.0, "type": "electric_scooter", "name": "2d937e83604c2e2b397a89a7145a7187", "is_disabled": 0, "rental_uris": {"ios": "https://dc.lft.to/lastmile_qr_scan", "android": "https://dc.lft.to/lastmile_qr_scan"}, "is_reserved": 0}, {"lon": -77.04134716666667, "bike_id": "06773db530fc09c278055de463abd560", "lat": 38.90627466666667, "fusion_lon": 0.0, "fusion_lat": 0.0, "type": "electric_scooter", "name": "06773db530fc09c278055de463abd560", "is_disabled": 0, "rental_uris": {"ios": "https://dc.lft.to/lastmile_qr_scan", "android": "https://dc.lft.to/lastmile_qr_scan"}, "is_reserved": 0}, {"lon": -77.02493616666666, "bike_id": "597d94b045a0331e41f88ab3645a2381", "lat": 38.90728416666666, "fusion_lon": 0.0, "fusion_lat": 0.0, "type": "electric_scooter", "name": "597d94b045a0331e41f88ab3645a2381", "is_disabled": 0, "rental_uris": {"ios": "https://dc.lft.to/lastmile_qr_scan", "android": "https://dc.lft.to/lastmile_qr_scan"}, "is_reserved": 0}, {"lon": -77.03041833333333, "bike_id": "e081f3ccfeb7dcd2c20e0af9d6382424", "lat": 38.878367833333336, "fusion_lon": 0.0, "fusion_lat": 0.0, "type": "electric_scooter", "name": "e081f3ccfeb7dcd2c20e0af9d6382424", "is_disabled": 0, "rental_uris": {"ios": "https://dc.lft.to/lastmile_qr_scan", "android": "https://dc.lft.to/lastmile_qr_scan"}, "is_reserved": 0}, {"lon": -77.018177, "bike_id": "c204f13523d01b9b206e31dbae90ef06", "lat": 38.923669333333336, "fusion_lon": 0.0, "fusion_lat": 0.0, "type": "electric_scooter", "name": "c204f13523d01b9b206e31dbae90ef06", "is_disabled": 0, "rental_uris": {"ios": "https://dc.lft.to/lastmile_qr_scan", "android": "https://dc.lft.to/lastmile_qr_scan"}, "is_reserved": 0}, {"lon": -77.051039, "bike_id": "1f32ff7c98a8863dcdc9ce755086f471", "lat": 38.9231125, "fusion_lon": 0.0, "fusion_lat": 0.0, "type": "electric_scooter", "name": "1f32ff7c98a8863dcdc9ce755086f471", "is_disabled": 0, "rental_uris": {"ios": "https://dc.lft.to/lastmile_qr_scan", "android": "https://dc.lft.to/lastmile_qr_scan"}, "is_reserved": 0}, {"lon": -77.01312216666666, "bike_id": "cb63e7408266ec1dcbaa20a449d716d2", "lat": 38.907347, "fusion_lon": 0.0, "fusion_lat": 0.0, "type": "electric_scooter", "name": "cb63e7408266ec1dcbaa20a449d716d2", "is_disabled": 0, "rental_uris": {"ios": "https://dc.lft.to/lastmile_qr_scan", "android": "https://dc.lft.to/lastmile_qr_scan"}, "is_reserved": 0}, {"lon": -77.005519, "bike_id": "c8da1cf603a37eaaa8b08c15e6fb30f4", "lat": 38.88753466666667, "fusion_lon": 0.0, "fusion_lat": 0.0, "type": "electric_scooter", "name": "c8da1cf603a37eaaa8b08c15e6fb30f4", "is_disabled": 0, "rental_uris": {"ios": "https://dc.lft.to/lastmile_qr_scan", "android": "https://dc.lft.to/lastmile_qr_scan"}, "is_reserved": 0}, {"lon": -77.02575716666666, "bike_id": "29c07f4b63ed39983da246727c7a2c5a", "lat": 38.91405616666667, "fusion_lon": 0.0, "fusion_lat": 0.0, "type": "electric_scooter", "name": "29c07f4b63ed39983da246727c7a2c5a", "is_disabled": 0, "rental_uris": {"ios": "https://dc.lft.to/lastmile_qr_scan", "android": "https://dc.lft.to/lastmile_qr_scan"}, "is_reserved": 0}, {"lon": -77.010584, "bike_id": "84c2396a51c8e60e1ec55bf2ef7be595", "lat": 38.86662183333333, "fusion_lon": 0.0, "fusion_lat": 0.0, "type": "electric_scooter", "name": "84c2396a51c8e60e1ec55bf2ef7be595", "is_disabled": 0, "rental_uris": {"ios": "https://dc.lft.to/lastmile_qr_scan", "android": "https://dc.lft.to/lastmile_qr_scan"}, "is_reserved": 0}, {"lon": -77.03973666666667, "bike_id": "922910f0e9e7daa1ecb2f74fed7e28d2", "lat": 38.9207605, "fusion_lon": 0.0, "fusion_lat": 0.0, "type": "electric_scooter", "name": "922910f0e9e7daa1ecb2f74fed7e28d2", "is_disabled": 0, "rental_uris": {"ios": "https://dc.lft.to/lastmile_qr_scan", "android": "https://dc.lft.to/lastmile_qr_scan"}, "is_reserved": 0}, {"lon": -77.02636166666667, "bike_id": "67b7f4f31e79de1f9bfa5d5c22301be3", "lat": 38.90425616666667, "fusion_lon": 0.0, "fusion_lat": 0.0, "type": "electric_scooter", "name": "67b7f4f31e79de1f9bfa5d5c22301be3", "is_disabled": 0, "rental_uris": {"ios": "https://dc.lft.to/lastmile_qr_scan", "android": "https://dc.lft.to/lastmile_qr_scan"}, "is_reserved": 0}, {"lon": -77.00310466666667, "bike_id": "e4e1833da7e1ce2454b23c859f05f3b4", "lat": 38.89497683333333, "fusion_lon": 0.0, "fusion_lat": 0.0, "type": "electric_scooter", "name": "e4e1833da7e1ce2454b23c859f05f3b4", "is_disabled": 0, "rental_uris": {"ios": "https://dc.lft.to/lastmile_qr_scan", "android": "https://dc.lft.to/lastmile_qr_scan"}, "is_reserved": 0}, {"lon": -77.0586295, "bike_id": "de6cc7bb8db3613fb86a7c15b40dc693", "lat": 38.93606716666667, "fusion_lon": 0.0, "fusion_lat": 0.0, "type": "electric_scooter", "name": "de6cc7bb8db3613fb86a7c15b40dc693", "is_disabled": 0, "rental_uris": {"ios": "https://dc.lft.to/lastmile_qr_scan", "android": "https://dc.lft.to/lastmile_qr_scan"}, "is_reserved": 0}, {"lon": -77.04597033333333, "bike_id": "044cb950f23bc0016b235e34aefbed3a", "lat": 38.919286166666666, "fusion_lon": 0.0, "fusion_lat": 0.0, "type": "electric_scooter", "name": "044cb950f23bc0016b235e34aefbed3a", "is_disabled": 0, "rental_uris": {"ios": "https://dc.lft.to/lastmile_qr_scan", "android": "https://dc.lft.to/lastmile_qr_scan"}, "is_reserved": 0}, {"lon": -77.03438216666666, "bike_id": "e8daafd49e334f3ce038b8ec7eafa81b", "lat": 38.9072665, "fusion_lon": 0.0, "fusion_lat": 0.0, "type": "electric_scooter", "name": "e8daafd49e334f3ce038b8ec7eafa81b", "is_disabled": 0, "rental_uris": {"ios": "https://dc.lft.to/lastmile_qr_scan", "android": "https://dc.lft.to/lastmile_qr_scan"}, "is_reserved": 0}, {"lon": -77.05337916666667, "bike_id": "ce2d6fdd3ce08dd2ec6a6be8531c21f7", "lat": 38.9014545, "fusion_lon": 0.0, "fusion_lat": 0.0, "type": "electric_scooter", "name": "ce2d6fdd3ce08dd2ec6a6be8531c21f7", "is_disabled": 0, "rental_uris": {"ios": "https://dc.lft.to/lastmile_qr_scan", "android": "https://dc.lft.to/lastmile_qr_scan"}, "is_reserved": 0}, {"lon": -77.0221315, "bike_id": "cb2fd5e904f6ce82a0bb9fb8ffd80682", "lat": 38.900412333333335, "fusion_lon": 0.0, "fusion_lat": 0.0, "type": "electric_scooter", "name": "cb2fd5e904f6ce82a0bb9fb8ffd80682", "is_disabled": 0, "rental_uris": {"ios": "https://dc.lft.to/lastmile_qr_scan", "android": "https://dc.lft.to/lastmile_qr_scan"}, "is_reserved": 0}, {"lon": -77.105985, "bike_id": "48353dc24b236aa1b39935e50fcea731", "lat": 38.903865833333334, "fusion_lon": 0.0, "fusion_lat": 0.0, "type": "electric_bike", "name": "48353dc24b236aa1b39935e50fcea731", "is_disabled": 0, "rental_uris": {"ios": "https://dc.lft.to/lastmile_qr_scan", "android": "https://dc.lft.to/lastmile_qr_scan"}, "is_reserved": 0}, {"lon": -77.03520883333333, "bike_id": "52b463e6ebb23bde72802ed19ccb6824", "lat": 38.92337883333333, "fusion_lon": 0.0, "fusion_lat": 0.0, "type": "electric_scooter", "name": "52b463e6ebb23bde72802ed19ccb6824", "is_disabled": 0, "rental_uris": {"ios": "https://dc.lft.to/lastmile_qr_scan", "android": "https://dc.lft.to/lastmile_qr_scan"}, "is_reserved": 0}, {"lon": -77.01199916666667, "bike_id": "a0d7dd4d29bf4c3d13a6af3272cd42f5", "lat": 38.919129166666664, "fusion_lon": 0.0, "fusion_lat": 0.0, "type": "electric_scooter", "name": "a0d7dd4d29bf4c3d13a6af3272cd42f5", "is_disabled": 0, "rental_uris": {"ios": "https://dc.lft.to/lastmile_qr_scan", "android": "https://dc.lft.to/lastmile_qr_scan"}, "is_reserved": 0}, {"lon": -77.02743083333333, "bike_id": "751180a2fcf637babec485171d9dcdb0", "lat": 38.9439135, "fusion_lon": 0.0, "fusion_lat": 0.0, "type": "electric_scooter", "name": "751180a2fcf637babec485171d9dcdb0", "is_disabled": 0, "rental_uris": {"ios": "https://dc.lft.to/lastmile_qr_scan", "android": "https://dc.lft.to/lastmile_qr_scan"}, "is_reserved": 0}, {"lon": -77.02374716666667, "bike_id": "5cd14faa8ea19fe39d36ab71a042719d", "lat": 38.904278833333336, "fusion_lon": 0.0, "fusion_lat": 0.0, "type": "electric_scooter", "name": "5cd14faa8ea19fe39d36ab71a042719d", "is_disabled": 0, "rental_uris": {"ios": "https://dc.lft.to/lastmile_qr_scan", "android": "https://dc.lft.to/lastmile_qr_scan"}, "is_reserved": 0}, {"lon": -77.011301, "bike_id": "47a6afe2d8cb1c4b5c2e15e0835fd91f", "lat": 38.88521983333333, "fusion_lon": 0.0, "fusion_lat": 0.0, "type": "electric_scooter", "name": "47a6afe2d8cb1c4b5c2e15e0835fd91f", "is_disabled": 0, "rental_uris": {"ios": "https://dc.lft.to/lastmile_qr_scan", "android": "https://dc.lft.to/lastmile_qr_scan"}, "is_reserved": 0}, {"lon": -77.07421483333333, "bike_id": "6dc1d6e2397edf47bbabbf4acf18c766", "lat": 38.9627265, "fusion_lon": 0.0, "fusion_lat": 0.0, "type": "electric_scooter", "name": "6dc1d6e2397edf47bbabbf4acf18c766", "is_disabled": 0, "rental_uris": {"ios": "https://dc.lft.to/lastmile_qr_scan", "android": "https://dc.lft.to/lastmile_qr_scan"}, "is_reserved": 0}, {"lon": -77.02588183333333, "bike_id": "a75a5accdd256bc1d3a5b45cfe7b6bad", "lat": 38.89227, "fusion_lon": 0.0, "fusion_lat": 0.0, "type": "electric_scooter", "name": "a75a5accdd256bc1d3a5b45cfe7b6bad", "is_disabled": 0, "rental_uris": {"ios": "https://dc.lft.to/lastmile_qr_scan", "android": "https://dc.lft.to/lastmile_qr_scan"}, "is_reserved": 0}, {"lon": -77.04772316666667, "bike_id": "c1c15382b5802ece0f45adcac654af62", "lat": 38.912274333333336, "fusion_lon": 0.0, "fusion_lat": 0.0, "type": "electric_scooter", "name": "c1c15382b5802ece0f45adcac654af62", "is_disabled": 0, "rental_uris": {"ios": "https://dc.lft.to/lastmile_qr_scan", "android": "https://dc.lft.to/lastmile_qr_scan"}, "is_reserved": 0}, {"lon": -77.03661516666666, "bike_id": "7f6d0319bd09c1c07e26a43a1b889a56", "lat": 38.917509, "fusion_lon": 0.0, "fusion_lat": 0.0, "type": "electric_scooter", "name": "7f6d0319bd09c1c07e26a43a1b889a56", "is_disabled": 0, "rental_uris": {"ios": "https://dc.lft.to/lastmile_qr_scan", "android": "https://dc.lft.to/lastmile_qr_scan"}, "is_reserved": 0}, {"lon": -77.024242, "bike_id": "1ff8298b0d5ac66602cf92cd906ef40b", "lat": 38.926543833333334, "fusion_lon": 0.0, "fusion_lat": 0.0, "type": "electric_scooter", "name": "1ff8298b0d5ac66602cf92cd906ef40b", "is_disabled": 0, "rental_uris": {"ios": "https://dc.lft.to/lastmile_qr_scan", "android": "https://dc.lft.to/lastmile_qr_scan"}, "is_reserved": 0}, {"lon": -77.04122433333333, "bike_id": "60691759a3aee3d508d5d7165468932b", "lat": 38.90613916666667, "fusion_lon": 0.0, "fusion_lat": 0.0, "type": "electric_scooter", "name": "60691759a3aee3d508d5d7165468932b", "is_disabled": 0, "rental_uris": {"ios": "https://dc.lft.to/lastmile_qr_scan", "android": "https://dc.lft.to/lastmile_qr_scan"}, "is_reserved": 0}, {"lon": -76.97329033333334, "bike_id": "e65dba01fef33591e09436010f081bf9", "lat": 38.9040835, "fusion_lon": 0.0, "fusion_lat": 0.0, "type": "electric_scooter", "name": "e65dba01fef33591e09436010f081bf9", "is_disabled": 0, "rental_uris": {"ios": "https://dc.lft.to/lastmile_qr_scan", "android": "https://dc.lft.to/lastmile_qr_scan"}, "is_reserved": 0}, {"lon": -77.11917166666667, "bike_id": "b3cb57d96f1f39d9f036e93c2349a487", "lat": 38.876336333333334, "fusion_lon": 0.0, "fusion_lat": 0.0, "type": "electric_bike", "name": "b3cb57d96f1f39d9f036e93c2349a487", "is_disabled": 0, "rental_uris": {"ios": "https://dc.lft.to/lastmile_qr_scan", "android": "https://dc.lft.to/lastmile_qr_scan"}, "is_reserved": 0}, {"lon": -77.07009416666666, "bike_id": "3706e969a32dc195a676fe1482cc8d3e", "lat": 38.90597866666667, "fusion_lon": 0.0, "fusion_lat": 0.0, "type": "electric_bike", "name": "3706e969a32dc195a676fe1482cc8d3e", "is_disabled": 0, "rental_uris": {"ios": "https://dc.lft.to/lastmile_qr_scan", "android": "https://dc.lft.to/lastmile_qr_scan"}, "is_reserved": 0}, {"lon": -77.03965733333334, "bike_id": "55b5d95bd0136c2e2df9931b1bf23ac8", "lat": 38.9232315, "fusion_lon": 0.0, "fusion_lat": 0.0, "type": "electric_scooter", "name": "55b5d95bd0136c2e2df9931b1bf23ac8", "is_disabled": 0, "rental_uris": {"ios": "https://dc.lft.to/lastmile_qr_scan", "android": "https://dc.lft.to/lastmile_qr_scan"}, "is_reserved": 0}, {"lon": -77.07811516666666, "bike_id": "eb496383736eae3802418cb6d9b1fd08", "lat": 38.9245855, "fusion_lon": 0.0, "fusion_lat": 0.0, "type": "electric_scooter", "name": "eb496383736eae3802418cb6d9b1fd08", "is_disabled": 0, "rental_uris": {"ios": "https://dc.lft.to/lastmile_qr_scan", "android": "https://dc.lft.to/lastmile_qr_scan"}, "is_reserved": 0}, {"lon": -77.00920566666667, "bike_id": "8a903c8e934f2437d8df7cad20a2d987", "lat": 38.9106595, "fusion_lon": 0.0, "fusion_lat": 0.0, "type": "electric_scooter", "name": "8a903c8e934f2437d8df7cad20a2d987", "is_disabled": 0, "rental_uris": {"ios": "https://dc.lft.to/lastmile_qr_scan", "android": "https://dc.lft.to/lastmile_qr_scan"}, "is_reserved": 0}, {"lon": -77.03446466666666, "bike_id": "5c3114f2fb8bc4329ee337819047d44f", "lat": 38.9170955, "fusion_lon": 0.0, "fusion_lat": 0.0, "type": "electric_scooter", "name": "5c3114f2fb8bc4329ee337819047d44f", "is_disabled": 0, "rental_uris": {"ios": "https://dc.lft.to/lastmile_qr_scan", "android": "https://dc.lft.to/lastmile_qr_scan"}, "is_reserved": 0}, {"lon": -77.00220616666667, "bike_id": "13695a9bb132bb41f62080599e9b1e54", "lat": 38.902440166666665, "fusion_lon": 0.0, "fusion_lat": 0.0, "type": "electric_scooter", "name": "13695a9bb132bb41f62080599e9b1e54", "is_disabled": 0, "rental_uris": {"ios": "https://dc.lft.to/lastmile_qr_scan", "android": "https://dc.lft.to/lastmile_qr_scan"}, "is_reserved": 0}, {"lon": -77.0533385, "bike_id": "de84684a851167119485aa3b42ab17cc", "lat": 38.898748, "fusion_lon": 0.0, "fusion_lat": 0.0, "type": "electric_scooter", "name": "de84684a851167119485aa3b42ab17cc", "is_disabled": 0, "rental_uris": {"ios": "https://dc.lft.to/lastmile_qr_scan", "android": "https://dc.lft.to/lastmile_qr_scan"}, "is_reserved": 0}, {"lon": -77.01760316666666, "bike_id": "ebf0ea1b0c7ac0782d372d0e3a70b60a", "lat": 38.8721615, "fusion_lon": 0.0, "fusion_lat": 0.0, "type": "electric_scooter", "name": "ebf0ea1b0c7ac0782d372d0e3a70b60a", "is_disabled": 0, "rental_uris": {"ios": "https://dc.lft.to/lastmile_qr_scan", "android": "https://dc.lft.to/lastmile_qr_scan"}, "is_reserved": 0}, {"lon": -77.0105185, "bike_id": "a74f18b2a5aff5e92a1b5a6bfb3e0fc1", "lat": 38.96353383333334, "fusion_lon": 0.0, "fusion_lat": 0.0, "type": "electric_scooter", "name": "a74f18b2a5aff5e92a1b5a6bfb3e0fc1", "is_disabled": 0, "rental_uris": {"ios": "https://dc.lft.to/lastmile_qr_scan", "android": "https://dc.lft.to/lastmile_qr_scan"}, "is_reserved": 0}, {"lon": -77.0260155, "bike_id": "4dce857e4ef97fb105b4bcf16a1e7717", "lat": 38.927980833333336, "fusion_lon": 0.0, "fusion_lat": 0.0, "type": "electric_scooter", "name": "4dce857e4ef97fb105b4bcf16a1e7717", "is_disabled": 0, "rental_uris": {"ios": "https://dc.lft.to/lastmile_qr_scan", "android": "https://dc.lft.to/lastmile_qr_scan"}, "is_reserved": 0}, {"lon": -77.00566466666666, "bike_id": "a49b6ef7c0caa1fcb2a43765133f9d47", "lat": 38.877044, "fusion_lon": 0.0, "fusion_lat": 0.0, "type": "electric_scooter", "name": "a49b6ef7c0caa1fcb2a43765133f9d47", "is_disabled": 0, "rental_uris": {"ios": "https://dc.lft.to/lastmile_qr_scan", "android": "https://dc.lft.to/lastmile_qr_scan"}, "is_reserved": 0}, {"lon": -77.028178, "bike_id": "7a64654a3f4cf8fb19e0c23b958e9447", "lat": 38.92477016666667, "fusion_lon": 0.0, "fusion_lat": 0.0, "type": "electric_scooter", "name": "7a64654a3f4cf8fb19e0c23b958e9447", "is_disabled": 0, "rental_uris": {"ios": "https://dc.lft.to/lastmile_qr_scan", "android": "https://dc.lft.to/lastmile_qr_scan"}, "is_reserved": 0}, {"lon": -77.01907766666666, "bike_id": "73492212116ada96896cd813c1b7f3cc", "lat": 38.885961333333334, "fusion_lon": 0.0, "fusion_lat": 0.0, "type": "electric_scooter", "name": "73492212116ada96896cd813c1b7f3cc", "is_disabled": 0, "rental_uris": {"ios": "https://dc.lft.to/lastmile_qr_scan", "android": "https://dc.lft.to/lastmile_qr_scan"}, "is_reserved": 0}, {"lon": -77.039783, "bike_id": "d2c3a225b7d00630fc2f4648634eaac0", "lat": 38.9231425, "fusion_lon": 0.0, "fusion_lat": 0.0, "type": "electric_scooter", "name": "d2c3a225b7d00630fc2f4648634eaac0", "is_disabled": 0, "rental_uris": {"ios": "https://dc.lft.to/lastmile_qr_scan", "android": "https://dc.lft.to/lastmile_qr_scan"}, "is_reserved": 0}, {"lon": -77.02481533333334, "bike_id": "11c84a3c9d29d6a5cb2b6c405960639f", "lat": 38.89738283333333, "fusion_lon": 0.0, "fusion_lat": 0.0, "type": "electric_scooter", "name": "11c84a3c9d29d6a5cb2b6c405960639f", "is_disabled": 0, "rental_uris": {"ios": "https://dc.lft.to/lastmile_qr_scan", "android": "https://dc.lft.to/lastmile_qr_scan"}, "is_reserved": 0}, {"lon": -77.05349533333333, "bike_id": "94a965922acca6aa1418e23c28c0ef46", "lat": 38.92707516666667, "fusion_lon": 0.0, "fusion_lat": 0.0, "type": "electric_scooter", "name": "94a965922acca6aa1418e23c28c0ef46", "is_disabled": 0, "rental_uris": {"ios": "https://dc.lft.to/lastmile_qr_scan", "android": "https://dc.lft.to/lastmile_qr_scan"}, "is_reserved": 0}, {"lon": -77.03466983333334, "bike_id": "d2dc80abb50352c05dcbf1522d7c4265", "lat": 38.9186925, "fusion_lon": 0.0, "fusion_lat": 0.0, "type": "electric_scooter", "name": "d2dc80abb50352c05dcbf1522d7c4265", "is_disabled": 0, "rental_uris": {"ios": "https://dc.lft.to/lastmile_qr_scan", "android": "https://dc.lft.to/lastmile_qr_scan"}, "is_reserved": 0}, {"lon": -77.09064433333333, "bike_id": "95e819faf214e94f1804ee5a32d509ae", "lat": 38.862568, "fusion_lon": 0.0, "fusion_lat": 0.0, "type": "electric_bike", "name": "95e819faf214e94f1804ee5a32d509ae", "is_disabled": 0, "rental_uris": {"ios": "https://dc.lft.to/lastmile_qr_scan", "android": "https://dc.lft.to/lastmile_qr_scan"}, "is_reserved": 0}, {"lon": -77.04164533333334, "bike_id": "d3cbfcb3bba842e4e611c013c60515fa", "lat": 38.91484833333333, "fusion_lon": 0.0, "fusion_lat": 0.0, "type": "electric_scooter", "name": "d3cbfcb3bba842e4e611c013c60515fa", "is_disabled": 0, "rental_uris": {"ios": "https://dc.lft.to/lastmile_qr_scan", "android": "https://dc.lft.to/lastmile_qr_scan"}, "is_reserved": 0}, {"lon": -76.94383066666667, "bike_id": "fedccd5f89f3f5313f39c103d2c8abe1", "lat": 38.893247, "fusion_lon": 0.0, "fusion_lat": 0.0, "type": "electric_scooter", "name": "fedccd5f89f3f5313f39c103d2c8abe1", "is_disabled": 0, "rental_uris": {"ios": "https://dc.lft.to/lastmile_qr_scan", "android": "https://dc.lft.to/lastmile_qr_scan"}, "is_reserved": 0}, {"lon": -76.982646, "bike_id": "1a62945de3e3793c3c06fb11b0e49917", "lat": 38.901347333333334, "fusion_lon": 0.0, "fusion_lat": 0.0, "type": "electric_scooter", "name": "1a62945de3e3793c3c06fb11b0e49917", "is_disabled": 0, "rental_uris": {"ios": "https://dc.lft.to/lastmile_qr_scan", "android": "https://dc.lft.to/lastmile_qr_scan"}, "is_reserved": 0}, {"lon": -77.0260565, "bike_id": "b9df4d64915dc6b45a15ca59dbc8523e", "lat": 38.903335166666665, "fusion_lon": 0.0, "fusion_lat": 0.0, "type": "electric_scooter", "name": "b9df4d64915dc6b45a15ca59dbc8523e", "is_disabled": 0, "rental_uris": {"ios": "https://dc.lft.to/lastmile_qr_scan", "android": "https://dc.lft.to/lastmile_qr_scan"}, "is_reserved": 0}, {"lon": -76.97422266666666, "bike_id": "deb8eabcf64e5c743ea4b74905e1d2d8", "lat": 38.904051, "fusion_lon": 0.0, "fusion_lat": 0.0, "type": "electric_scooter", "name": "deb8eabcf64e5c743ea4b74905e1d2d8", "is_disabled": 0, "rental_uris": {"ios": "https://dc.lft.to/lastmile_qr_scan", "android": "https://dc.lft.to/lastmile_qr_scan"}, "is_reserved": 0}, {"lon": -76.97824416666667, "bike_id": "976ddef19cb4c35be4a22ed08c1093f1", "lat": 38.8436945, "fusion_lon": 0.0, "fusion_lat": 0.0, "type": "electric_bike", "name": "976ddef19cb4c35be4a22ed08c1093f1", "is_disabled": 0, "rental_uris": {"ios": "https://dc.lft.to/lastmile_qr_scan", "android": "https://dc.lft.to/lastmile_qr_scan"}, "is_reserved": 0}, {"lon": -77.02406466666666, "bike_id": "c9ad292cf8feeeed933bd14e52a1fdc1", "lat": 38.901073333333336, "fusion_lon": 0.0, "fusion_lat": 0.0, "type": "electric_scooter", "name": "c9ad292cf8feeeed933bd14e52a1fdc1", "is_disabled": 0, "rental_uris": {"ios": "https://dc.lft.to/lastmile_qr_scan", "android": "https://dc.lft.to/lastmile_qr_scan"}, "is_reserved": 0}, {"lon": -76.98879066666667, "bike_id": "7fa60a9707c014d59ead1f980c190925", "lat": 38.86662, "fusion_lon": 0.0, "fusion_lat": 0.0, "type": "electric_scooter", "name": "7fa60a9707c014d59ead1f980c190925", "is_disabled": 0, "rental_uris": {"ios": "https://dc.lft.to/lastmile_qr_scan", "android": "https://dc.lft.to/lastmile_qr_scan"}, "is_reserved": 0}, {"lon": -77.00890233333334, "bike_id": "d7bf3ec0db1c047d77cd3113ff5637c0", "lat": 38.922756, "fusion_lon": 0.0, "fusion_lat": 0.0, "type": "electric_scooter", "name": "d7bf3ec0db1c047d77cd3113ff5637c0", "is_disabled": 0, "rental_uris": {"ios": "https://dc.lft.to/lastmile_qr_scan", "android": "https://dc.lft.to/lastmile_qr_scan"}, "is_reserved": 0}, {"lon": -76.965509, "bike_id": "3a696742e15d9013924a726b31c7d6d2", "lat": 38.91852883333333, "fusion_lon": 0.0, "fusion_lat": 0.0, "type": "electric_scooter", "name": "3a696742e15d9013924a726b31c7d6d2", "is_disabled": 0, "rental_uris": {"ios": "https://dc.lft.to/lastmile_qr_scan", "android": "https://dc.lft.to/lastmile_qr_scan"}, "is_reserved": 0}, {"lon": -77.02380516666666, "bike_id": "88ba72832e6d8d33b153bea88b9582c3", "lat": 38.91743816666666, "fusion_lon": 0.0, "fusion_lat": 0.0, "type": "electric_scooter", "name": "88ba72832e6d8d33b153bea88b9582c3", "is_disabled": 0, "rental_uris": {"ios": "https://dc.lft.to/lastmile_qr_scan", "android": "https://dc.lft.to/lastmile_qr_scan"}, "is_reserved": 0}, {"lon": -77.03407016666667, "bike_id": "549f409c7f30e43276605889c3096e6b", "lat": 38.926356, "fusion_lon": 0.0, "fusion_lat": 0.0, "type": "electric_scooter", "name": "549f409c7f30e43276605889c3096e6b", "is_disabled": 0, "rental_uris": {"ios": "https://dc.lft.to/lastmile_qr_scan", "android": "https://dc.lft.to/lastmile_qr_scan"}, "is_reserved": 0}, {"lon": -77.0119185, "bike_id": "36f744502124c57a4e4777d332f3f207", "lat": 38.9154735, "fusion_lon": 0.0, "fusion_lat": 0.0, "type": "electric_scooter", "name": "36f744502124c57a4e4777d332f3f207", "is_disabled": 0, "rental_uris": {"ios": "https://dc.lft.to/lastmile_qr_scan", "android": "https://dc.lft.to/lastmile_qr_scan"}, "is_reserved": 0}, {"lon": -77.01908883333333, "bike_id": "57699960e457158f2a20e480884be029", "lat": 38.903024, "fusion_lon": 0.0, "fusion_lat": 0.0, "type": "electric_bike", "name": "57699960e457158f2a20e480884be029", "is_disabled": 0, "rental_uris": {"ios": "https://dc.lft.to/lastmile_qr_scan", "android": "https://dc.lft.to/lastmile_qr_scan"}, "is_reserved": 0}, {"lon": -77.02897, "bike_id": "e4ec01704a54fe63b8e1040f73df1c87", "lat": 38.904474666666665, "fusion_lon": 0.0, "fusion_lat": 0.0, "type": "electric_scooter", "name": "e4ec01704a54fe63b8e1040f73df1c87", "is_disabled": 0, "rental_uris": {"ios": "https://dc.lft.to/lastmile_qr_scan", "android": "https://dc.lft.to/lastmile_qr_scan"}, "is_reserved": 0}, {"lon": -77.23327033333334, "bike_id": "1a6773b4a34f0e49c981a69723ebdf7a", "lat": 38.87275666666667, "fusion_lon": 0.0, "fusion_lat": 0.0, "type": "electric_bike", "name": "1a6773b4a34f0e49c981a69723ebdf7a", "is_disabled": 0, "rental_uris": {"ios": "https://dc.lft.to/lastmile_qr_scan", "android": "https://dc.lft.to/lastmile_qr_scan"}, "is_reserved": 0}, {"lon": -77.058971, "bike_id": "43fcf0b988397c91e71ac6944fdf78b4", "lat": 38.93610283333334, "fusion_lon": 0.0, "fusion_lat": 0.0, "type": "electric_scooter", "name": "43fcf0b988397c91e71ac6944fdf78b4", "is_disabled": 0, "rental_uris": {"ios": "https://dc.lft.to/lastmile_qr_scan", "android": "https://dc.lft.to/lastmile_qr_scan"}, "is_reserved": 0}, {"lon": -77.027021, "bike_id": "1a3ab571a1e07df05eccf1cd4720833d", "lat": 38.92776683333334, "fusion_lon": 0.0, "fusion_lat": 0.0, "type": "electric_scooter", "name": "1a3ab571a1e07df05eccf1cd4720833d", "is_disabled": 0, "rental_uris": {"ios": "https://dc.lft.to/lastmile_qr_scan", "android": "https://dc.lft.to/lastmile_qr_scan"}, "is_reserved": 0}, {"lon": -77.03625866666667, "bike_id": "973c3946eec6ac9b5d59a0e58b87c3d6", "lat": 38.9481525, "fusion_lon": 0.0, "fusion_lat": 0.0, "type": "electric_scooter", "name": "973c3946eec6ac9b5d59a0e58b87c3d6", "is_disabled": 0, "rental_uris": {"ios": "https://dc.lft.to/lastmile_qr_scan", "android": "https://dc.lft.to/lastmile_qr_scan"}, "is_reserved": 0}, {"lon": -76.97300616666666, "bike_id": "9260ea2ec207b61cd2c68f2cb599bff9", "lat": 38.91645916666667, "fusion_lon": 0.0, "fusion_lat": 0.0, "type": "electric_bike", "name": "9260ea2ec207b61cd2c68f2cb599bff9", "is_disabled": 0, "rental_uris": {"ios": "https://dc.lft.to/lastmile_qr_scan", "android": "https://dc.lft.to/lastmile_qr_scan"}, "is_reserved": 0}, {"lon": -77.032833, "bike_id": "b83ac47e0113ffbc32e6d8f6e6ecde5c", "lat": 38.9039005, "fusion_lon": 0.0, "fusion_lat": 0.0, "type": "electric_scooter", "name": "b83ac47e0113ffbc32e6d8f6e6ecde5c", "is_disabled": 0, "rental_uris": {"ios": "https://dc.lft.to/lastmile_qr_scan", "android": "https://dc.lft.to/lastmile_qr_scan"}, "is_reserved": 0}, {"lon": -77.23320166666667, "bike_id": "32ad5b69ad04f583391852fe4c200d47", "lat": 38.872836166666666, "fusion_lon": 0.0, "fusion_lat": 0.0, "type": "electric_bike", "name": "32ad5b69ad04f583391852fe4c200d47", "is_disabled": 0, "rental_uris": {"ios": "https://dc.lft.to/lastmile_qr_scan", "android": "https://dc.lft.to/lastmile_qr_scan"}, "is_reserved": 0}, {"lon": -77.02838433333334, "bike_id": "9f13b7e8bfad6832072fbd99a6d43847", "lat": 38.887671166666664, "fusion_lon": 0.0, "fusion_lat": 0.0, "type": "electric_scooter", "name": "9f13b7e8bfad6832072fbd99a6d43847", "is_disabled": 0, "rental_uris": {"ios": "https://dc.lft.to/lastmile_qr_scan", "android": "https://dc.lft.to/lastmile_qr_scan"}, "is_reserved": 0}, {"lon": -77.01856233333334, "bike_id": "85767acf69ccaaa2862bd59612b7dbbe", "lat": 38.92025116666667, "fusion_lon": 0.0, "fusion_lat": 0.0, "type": "electric_scooter", "name": "85767acf69ccaaa2862bd59612b7dbbe", "is_disabled": 0, "rental_uris": {"ios": "https://dc.lft.to/lastmile_qr_scan", "android": "https://dc.lft.to/lastmile_qr_scan"}, "is_reserved": 0}, {"lon": -76.94996283333333, "bike_id": "bc815004615ac4943dd64d730199c36d", "lat": 38.89379983333333, "fusion_lon": 0.0, "fusion_lat": 0.0, "type": "electric_scooter", "name": "bc815004615ac4943dd64d730199c36d", "is_disabled": 0, "rental_uris": {"ios": "https://dc.lft.to/lastmile_qr_scan", "android": "https://dc.lft.to/lastmile_qr_scan"}, "is_reserved": 0}, {"lon": -77.028748, "bike_id": "902a0b22c438dafd01e3c97c9fd8e0ea", "lat": 38.88492933333333, "fusion_lon": 0.0, "fusion_lat": 0.0, "type": "electric_scooter", "name": "902a0b22c438dafd01e3c97c9fd8e0ea", "is_disabled": 0, "rental_uris": {"ios": "https://dc.lft.to/lastmile_qr_scan", "android": "https://dc.lft.to/lastmile_qr_scan"}, "is_reserved": 0}, {"lon": -76.97237833333334, "bike_id": "d71c1f0308c90514051c1eaf2010a362", "lat": 38.949039, "fusion_lon": 0.0, "fusion_lat": 0.0, "type": "electric_bike", "name": "d71c1f0308c90514051c1eaf2010a362", "is_disabled": 0, "rental_uris": {"ios": "https://dc.lft.to/lastmile_qr_scan", "android": "https://dc.lft.to/lastmile_qr_scan"}, "is_reserved": 0}, {"lon": -77.006776, "bike_id": "a45e4c5037d0d39eb16a620f83184f13", "lat": 38.900081666666665, "fusion_lon": 0.0, "fusion_lat": 0.0, "type": "electric_scooter", "name": "a45e4c5037d0d39eb16a620f83184f13", "is_disabled": 0, "rental_uris": {"ios": "https://dc.lft.to/lastmile_qr_scan", "android": "https://dc.lft.to/lastmile_qr_scan"}, "is_reserved": 0}, {"lon": -77.0433515, "bike_id": "cf18e0da03ad12fbf84baef3350078cb", "lat": 38.9133035, "fusion_lon": 0.0, "fusion_lat": 0.0, "type": "electric_scooter", "name": "cf18e0da03ad12fbf84baef3350078cb", "is_disabled": 0, "rental_uris": {"ios": "https://dc.lft.to/lastmile_qr_scan", "android": "https://dc.lft.to/lastmile_qr_scan"}, "is_reserved": 0}, {"lon": -77.054549, "bike_id": "783d555f11f54daf022496b67a823708", "lat": 38.855335833333335, "fusion_lon": 0.0, "fusion_lat": 0.0, "type": "electric_bike", "name": "783d555f11f54daf022496b67a823708", "is_disabled": 0, "rental_uris": {"ios": "https://dc.lft.to/lastmile_qr_scan", "android": "https://dc.lft.to/lastmile_qr_scan"}, "is_reserved": 0}, {"lon": -77.126497, "bike_id": "724ccd5b0f11a9a1a1012c9f18ff9562", "lat": 38.8151045, "fusion_lon": 0.0, "fusion_lat": 0.0, "type": "electric_bike", "name": "724ccd5b0f11a9a1a1012c9f18ff9562", "is_disabled": 0, "rental_uris": {"ios": "https://dc.lft.to/lastmile_qr_scan", "android": "https://dc.lft.to/lastmile_qr_scan"}, "is_reserved": 0}, {"lon": -77.01445533333333, "bike_id": "169d067e6fe44c10f8f582c60f818069", "lat": 38.876709, "fusion_lon": 0.0, "fusion_lat": 0.0, "type": "electric_bike", "name": "169d067e6fe44c10f8f582c60f818069", "is_disabled": 0, "rental_uris": {"ios": "https://dc.lft.to/lastmile_qr_scan", "android": "https://dc.lft.to/lastmile_qr_scan"}, "is_reserved": 0}, {"lon": -77.03438166666666, "bike_id": "61f20dc7775d38f5abcec376ad0c53ff", "lat": 38.919393666666664, "fusion_lon": 0.0, "fusion_lat": 0.0, "type": "electric_scooter", "name": "61f20dc7775d38f5abcec376ad0c53ff", "is_disabled": 0, "rental_uris": {"ios": "https://dc.lft.to/lastmile_qr_scan", "android": "https://dc.lft.to/lastmile_qr_scan"}, "is_reserved": 0}, {"lon": -77.0293195, "bike_id": "3c4c2fb8bf433a4d74cc685fd966587b", "lat": 38.934632666666666, "fusion_lon": 0.0, "fusion_lat": 0.0, "type": "electric_scooter", "name": "3c4c2fb8bf433a4d74cc685fd966587b", "is_disabled": 0, "rental_uris": {"ios": "https://dc.lft.to/lastmile_qr_scan", "android": "https://dc.lft.to/lastmile_qr_scan"}, "is_reserved": 0}, {"lon": -77.00659633333333, "bike_id": "93eafbbc5b984829b06eb85306117c3f", "lat": 38.94463233333333, "fusion_lon": 0.0, "fusion_lat": 0.0, "type": "electric_scooter", "name": "93eafbbc5b984829b06eb85306117c3f", "is_disabled": 0, "rental_uris": {"ios": "https://dc.lft.to/lastmile_qr_scan", "android": "https://dc.lft.to/lastmile_qr_scan"}, "is_reserved": 0}, {"lon": -77.03336933333334, "bike_id": "d7bf973e675bda4293b96c2a3990a1a5", "lat": 38.902827333333335, "fusion_lon": 0.0, "fusion_lat": 0.0, "type": "electric_scooter", "name": "d7bf973e675bda4293b96c2a3990a1a5", "is_disabled": 0, "rental_uris": {"ios": "https://dc.lft.to/lastmile_qr_scan", "android": "https://dc.lft.to/lastmile_qr_scan"}, "is_reserved": 0}, {"lon": -77.029695, "bike_id": "3a6d65ec664a63ad2d315e6d66214dbb", "lat": 38.908023, "fusion_lon": 0.0, "fusion_lat": 0.0, "type": "electric_scooter", "name": "3a6d65ec664a63ad2d315e6d66214dbb", "is_disabled": 0, "rental_uris": {"ios": "https://dc.lft.to/lastmile_qr_scan", "android": "https://dc.lft.to/lastmile_qr_scan"}, "is_reserved": 0}, {"lon": -77.0192705, "bike_id": "fe408c332a986fc2b26cb016003f9283", "lat": 38.93465, "fusion_lon": 0.0, "fusion_lat": 0.0, "type": "electric_scooter", "name": "fe408c332a986fc2b26cb016003f9283", "is_disabled": 0, "rental_uris": {"ios": "https://dc.lft.to/lastmile_qr_scan", "android": "https://dc.lft.to/lastmile_qr_scan"}, "is_reserved": 0}, {"lon": -77.05245183333334, "bike_id": "ad58b099e27987d3771cfe8caddd92dc", "lat": 38.927346666666665, "fusion_lon": 0.0, "fusion_lat": 0.0, "type": "electric_scooter", "name": "ad58b099e27987d3771cfe8caddd92dc", "is_disabled": 0, "rental_uris": {"ios": "https://dc.lft.to/lastmile_qr_scan", "android": "https://dc.lft.to/lastmile_qr_scan"}, "is_reserved": 0}, {"lon": -77.02208033333334, "bike_id": "ed10b0cabf7d335a9621efdcc44ce9a1", "lat": 38.91416683333333, "fusion_lon": 0.0, "fusion_lat": 0.0, "type": "electric_scooter", "name": "ed10b0cabf7d335a9621efdcc44ce9a1", "is_disabled": 0, "rental_uris": {"ios": "https://dc.lft.to/lastmile_qr_scan", "android": "https://dc.lft.to/lastmile_qr_scan"}, "is_reserved": 0}, {"lon": -76.982287, "bike_id": "3ce87e1bfd78566410df24d89017c035", "lat": 38.88644933333333, "fusion_lon": 0.0, "fusion_lat": 0.0, "type": "electric_scooter", "name": "3ce87e1bfd78566410df24d89017c035", "is_disabled": 0, "rental_uris": {"ios": "https://dc.lft.to/lastmile_qr_scan", "android": "https://dc.lft.to/lastmile_qr_scan"}, "is_reserved": 0}, {"lon": -77.05726116666666, "bike_id": "065e94c2bec1a15497eca88e1969e300", "lat": 38.933591, "fusion_lon": 0.0, "fusion_lat": 0.0, "type": "electric_scooter", "name": "065e94c2bec1a15497eca88e1969e300", "is_disabled": 0, "rental_uris": {"ios": "https://dc.lft.to/lastmile_qr_scan", "android": "https://dc.lft.to/lastmile_qr_scan"}, "is_reserved": 0}, {"lon": -77.07295366666666, "bike_id": "919860b4cd9159e41ac4f5c8bb4952df", "lat": 38.924660333333335, "fusion_lon": 0.0, "fusion_lat": 0.0, "type": "electric_scooter", "name": "919860b4cd9159e41ac4f5c8bb4952df", "is_disabled": 0, "rental_uris": {"ios": "https://dc.lft.to/lastmile_qr_scan", "android": "https://dc.lft.to/lastmile_qr_scan"}, "is_reserved": 0}, {"lon": -77.16627166666666, "bike_id": "83134879940057b2e5c5715141725a17", "lat": 38.88838783333333, "fusion_lon": 0.0, "fusion_lat": 0.0, "type": "electric_bike", "name": "83134879940057b2e5c5715141725a17", "is_disabled": 0, "rental_uris": {"ios": "https://dc.lft.to/lastmile_qr_scan", "android": "https://dc.lft.to/lastmile_qr_scan"}, "is_reserved": 0}, {"lon": -76.9729745, "bike_id": "4995521e3f802804f2b9f2152a6deeb1", "lat": 38.8655905, "fusion_lon": 0.0, "fusion_lat": 0.0, "type": "electric_scooter", "name": "4995521e3f802804f2b9f2152a6deeb1", "is_disabled": 0, "rental_uris": {"ios": "https://dc.lft.to/lastmile_qr_scan", "android": "https://dc.lft.to/lastmile_qr_scan"}, "is_reserved": 0}, {"lon": -77.10486883333333, "bike_id": "f94f894c60550889647a4513f11fc5a2", "lat": 38.856062666666666, "fusion_lon": 0.0, "fusion_lat": 0.0, "type": "electric_bike", "name": "f94f894c60550889647a4513f11fc5a2", "is_disabled": 0, "rental_uris": {"ios": "https://dc.lft.to/lastmile_qr_scan", "android": "https://dc.lft.to/lastmile_qr_scan"}, "is_reserved": 0}, {"lon": -77.01583166666667, "bike_id": "f97a08f3148fb0fad33e3a73e55843ee", "lat": 38.88613333333333, "fusion_lon": 0.0, "fusion_lat": 0.0, "type": "electric_scooter", "name": "f97a08f3148fb0fad33e3a73e55843ee", "is_disabled": 0, "rental_uris": {"ios": "https://dc.lft.to/lastmile_qr_scan", "android": "https://dc.lft.to/lastmile_qr_scan"}, "is_reserved": 0}, {"lon": -77.04460383333333, "bike_id": "426a20d51d36779de2d4a65011d4ac98", "lat": 38.91583933333333, "fusion_lon": 0.0, "fusion_lat": 0.0, "type": "electric_scooter", "name": "426a20d51d36779de2d4a65011d4ac98", "is_disabled": 0, "rental_uris": {"ios": "https://dc.lft.to/lastmile_qr_scan", "android": "https://dc.lft.to/lastmile_qr_scan"}, "is_reserved": 0}, {"lon": -77.111584, "bike_id": "46adce84a5cd9bc27b8d820d7ae64094", "lat": 38.85506216666667, "fusion_lon": 0.0, "fusion_lat": 0.0, "type": "electric_bike", "name": "46adce84a5cd9bc27b8d820d7ae64094", "is_disabled": 0, "rental_uris": {"ios": "https://dc.lft.to/lastmile_qr_scan", "android": "https://dc.lft.to/lastmile_qr_scan"}, "is_reserved": 0}, {"lon": -77.02376833333334, "bike_id": "5bec6694f67318529b633e5d8744803f", "lat": 38.902047, "fusion_lon": 0.0, "fusion_lat": 0.0, "type": "electric_scooter", "name": "5bec6694f67318529b633e5d8744803f", "is_disabled": 0, "rental_uris": {"ios": "https://dc.lft.to/lastmile_qr_scan", "android": "https://dc.lft.to/lastmile_qr_scan"}, "is_reserved": 0}, {"lon": -77.04690566666666, "bike_id": "1e7ea61b73562673aae4e877dc0f38fb", "lat": 39.02392016666667, "fusion_lon": 0.0, "fusion_lat": 0.0, "type": "electric_bike", "name": "1e7ea61b73562673aae4e877dc0f38fb", "is_disabled": 0, "rental_uris": {"ios": "https://dc.lft.to/lastmile_qr_scan", "android": "https://dc.lft.to/lastmile_qr_scan"}, "is_reserved": 0}, {"lon": -77.02855683333334, "bike_id": "0f1c11d84f5b9f18d1c9cee1b9280c10", "lat": 38.887382, "fusion_lon": 0.0, "fusion_lat": 0.0, "type": "electric_scooter", "name": "0f1c11d84f5b9f18d1c9cee1b9280c10", "is_disabled": 0, "rental_uris": {"ios": "https://dc.lft.to/lastmile_qr_scan", "android": "https://dc.lft.to/lastmile_qr_scan"}, "is_reserved": 0}, {"lon": -77.02449316666667, "bike_id": "9d8bb4325078c41a5e1124e4119522f0", "lat": 38.937954500000004, "fusion_lon": 0.0, "fusion_lat": 0.0, "type": "electric_scooter", "name": "9d8bb4325078c41a5e1124e4119522f0", "is_disabled": 0, "rental_uris": {"ios": "https://dc.lft.to/lastmile_qr_scan", "android": "https://dc.lft.to/lastmile_qr_scan"}, "is_reserved": 0}, {"lon": -77.00061883333333, "bike_id": "b54b5b96c040e10c79afdfd61679b4b3", "lat": 38.876634333333335, "fusion_lon": 0.0, "fusion_lat": 0.0, "type": "electric_scooter", "name": "b54b5b96c040e10c79afdfd61679b4b3", "is_disabled": 0, "rental_uris": {"ios": "https://dc.lft.to/lastmile_qr_scan", "android": "https://dc.lft.to/lastmile_qr_scan"}, "is_reserved": 0}, {"lon": -77.02783766666667, "bike_id": "b6218ffc24b1dac1b6986eab86a9cd80", "lat": 38.941939166666664, "fusion_lon": 0.0, "fusion_lat": 0.0, "type": "electric_scooter", "name": "b6218ffc24b1dac1b6986eab86a9cd80", "is_disabled": 0, "rental_uris": {"ios": "https://dc.lft.to/lastmile_qr_scan", "android": "https://dc.lft.to/lastmile_qr_scan"}, "is_reserved": 0}, {"lon": -77.02794166666666, "bike_id": "c6d5c858fa40e18fb4151303b6fd53b9", "lat": 38.93425, "fusion_lon": 0.0, "fusion_lat": 0.0, "type": "electric_scooter", "name": "c6d5c858fa40e18fb4151303b6fd53b9", "is_disabled": 0, "rental_uris": {"ios": "https://dc.lft.to/lastmile_qr_scan", "android": "https://dc.lft.to/lastmile_qr_scan"}, "is_reserved": 0}, {"lon": -77.012227, "bike_id": "f25433604d6ce76d9f621aea0052a0f0", "lat": 38.871823, "fusion_lon": 0.0, "fusion_lat": 0.0, "type": "electric_scooter", "name": "f25433604d6ce76d9f621aea0052a0f0", "is_disabled": 0, "rental_uris": {"ios": "https://dc.lft.to/lastmile_qr_scan", "android": "https://dc.lft.to/lastmile_qr_scan"}, "is_reserved": 0}, {"lon": -76.999118, "bike_id": "12fbcf168b256fd346c14b19e0773638", "lat": 38.9246085, "fusion_lon": 0.0, "fusion_lat": 0.0, "type": "electric_scooter", "name": "12fbcf168b256fd346c14b19e0773638", "is_disabled": 0, "rental_uris": {"ios": "https://dc.lft.to/lastmile_qr_scan", "android": "https://dc.lft.to/lastmile_qr_scan"}, "is_reserved": 0}, {"lon": -77.04894883333333, "bike_id": "5bb62b36f1a88787ad24897279da129a", "lat": 38.903499333333336, "fusion_lon": 0.0, "fusion_lat": 0.0, "type": "electric_scooter", "name": "5bb62b36f1a88787ad24897279da129a", "is_disabled": 0, "rental_uris": {"ios": "https://dc.lft.to/lastmile_qr_scan", "android": "https://dc.lft.to/lastmile_qr_scan"}, "is_reserved": 0}, {"lon": -77.03347916666667, "bike_id": "21e80a45f34b11b1eac3213e2e056cd5", "lat": 38.90285183333334, "fusion_lon": 0.0, "fusion_lat": 0.0, "type": "electric_scooter", "name": "21e80a45f34b11b1eac3213e2e056cd5", "is_disabled": 0, "rental_uris": {"ios": "https://dc.lft.to/lastmile_qr_scan", "android": "https://dc.lft.to/lastmile_qr_scan"}, "is_reserved": 0}, {"lon": -76.9373475, "bike_id": "dbc023e13bbae628558eefdc6a4f850d", "lat": 38.890178, "fusion_lon": 0.0, "fusion_lat": 0.0, "type": "electric_scooter", "name": "dbc023e13bbae628558eefdc6a4f850d", "is_disabled": 0, "rental_uris": {"ios": "https://dc.lft.to/lastmile_qr_scan", "android": "https://dc.lft.to/lastmile_qr_scan"}, "is_reserved": 0}, {"lon": -77.016089, "bike_id": "97f215e63a75d02ebf7e53b21c9a8da9", "lat": 38.91946, "fusion_lon": 0.0, "fusion_lat": 0.0, "type": "electric_scooter", "name": "97f215e63a75d02ebf7e53b21c9a8da9", "is_disabled": 0, "rental_uris": {"ios": "https://dc.lft.to/lastmile_qr_scan", "android": "https://dc.lft.to/lastmile_qr_scan"}, "is_reserved": 0}, {"lon": -77.04718066666666, "bike_id": "6991cab8d5672ba8c5cc717fdc479e8a", "lat": 38.9111615, "fusion_lon": 0.0, "fusion_lat": 0.0, "type": "electric_scooter", "name": "6991cab8d5672ba8c5cc717fdc479e8a", "is_disabled": 0, "rental_uris": {"ios": "https://dc.lft.to/lastmile_qr_scan", "android": "https://dc.lft.to/lastmile_qr_scan"}, "is_reserved": 0}, {"lon": -77.03635433333334, "bike_id": "80081da1a75a5859bf3af6502299ddae", "lat": 38.9317295, "fusion_lon": 0.0, "fusion_lat": 0.0, "type": "electric_scooter", "name": "80081da1a75a5859bf3af6502299ddae", "is_disabled": 0, "rental_uris": {"ios": "https://dc.lft.to/lastmile_qr_scan", "android": "https://dc.lft.to/lastmile_qr_scan"}, "is_reserved": 0}, {"lon": -77.00456283333334, "bike_id": "d49583a1aa21d75598852de5c41038aa", "lat": 38.91065966666667, "fusion_lon": 0.0, "fusion_lat": 0.0, "type": "electric_scooter", "name": "d49583a1aa21d75598852de5c41038aa", "is_disabled": 0, "rental_uris": {"ios": "https://dc.lft.to/lastmile_qr_scan", "android": "https://dc.lft.to/lastmile_qr_scan"}, "is_reserved": 0}, {"lon": -77.00348183333334, "bike_id": "4d32c61241ce72d1b2ebdaefe4dd5b80", "lat": 38.902719166666664, "fusion_lon": 0.0, "fusion_lat": 0.0, "type": "electric_scooter", "name": "4d32c61241ce72d1b2ebdaefe4dd5b80", "is_disabled": 0, "rental_uris": {"ios": "https://dc.lft.to/lastmile_qr_scan", "android": "https://dc.lft.to/lastmile_qr_scan"}, "is_reserved": 0}, {"lon": -77.0009705, "bike_id": "39e211ca30eaeb7da7dd3b31372c483a", "lat": 38.9075555, "fusion_lon": 0.0, "fusion_lat": 0.0, "type": "electric_scooter", "name": "39e211ca30eaeb7da7dd3b31372c483a", "is_disabled": 0, "rental_uris": {"ios": "https://dc.lft.to/lastmile_qr_scan", "android": "https://dc.lft.to/lastmile_qr_scan"}, "is_reserved": 0}, {"lon": -77.02374066666667, "bike_id": "a704754f7ee318820dcdd4728444db44", "lat": 38.92057633333334, "fusion_lon": 0.0, "fusion_lat": 0.0, "type": "electric_scooter", "name": "a704754f7ee318820dcdd4728444db44", "is_disabled": 0, "rental_uris": {"ios": "https://dc.lft.to/lastmile_qr_scan", "android": "https://dc.lft.to/lastmile_qr_scan"}, "is_reserved": 0}, {"lon": -76.94877116666666, "bike_id": "9e670f21e8c598d65b5ba6300d628651", "lat": 38.895498333333336, "fusion_lon": 0.0, "fusion_lat": 0.0, "type": "electric_scooter", "name": "9e670f21e8c598d65b5ba6300d628651", "is_disabled": 0, "rental_uris": {"ios": "https://dc.lft.to/lastmile_qr_scan", "android": "https://dc.lft.to/lastmile_qr_scan"}, "is_reserved": 0}, {"lon": -77.0179905, "bike_id": "d6c30338f75d54bb90169c0504f9d5d1", "lat": 38.921096666666664, "fusion_lon": 0.0, "fusion_lat": 0.0, "type": "electric_scooter", "name": "d6c30338f75d54bb90169c0504f9d5d1", "is_disabled": 0, "rental_uris": {"ios": "https://dc.lft.to/lastmile_qr_scan", "android": "https://dc.lft.to/lastmile_qr_scan"}, "is_reserved": 0}, {"lon": -77.05074116666667, "bike_id": "8e8c6a30d2fecc81a800831cb1682089", "lat": 38.89681433333333, "fusion_lon": 0.0, "fusion_lat": 0.0, "type": "electric_scooter", "name": "8e8c6a30d2fecc81a800831cb1682089", "is_disabled": 0, "rental_uris": {"ios": "https://dc.lft.to/lastmile_qr_scan", "android": "https://dc.lft.to/lastmile_qr_scan"}, "is_reserved": 0}, {"lon": -76.98721066666667, "bike_id": "b9ba7cd825411a9f503b1cd77894e54c", "lat": 38.86683216666667, "fusion_lon": 0.0, "fusion_lat": 0.0, "type": "electric_scooter", "name": "b9ba7cd825411a9f503b1cd77894e54c", "is_disabled": 0, "rental_uris": {"ios": "https://dc.lft.to/lastmile_qr_scan", "android": "https://dc.lft.to/lastmile_qr_scan"}, "is_reserved": 0}, {"lon": -77.03888083333334, "bike_id": "9f84162a854a25b8e2e265f474326e1c", "lat": 38.91005083333334, "fusion_lon": 0.0, "fusion_lat": 0.0, "type": "electric_scooter", "name": "9f84162a854a25b8e2e265f474326e1c", "is_disabled": 0, "rental_uris": {"ios": "https://dc.lft.to/lastmile_qr_scan", "android": "https://dc.lft.to/lastmile_qr_scan"}, "is_reserved": 0}, {"lon": -76.95372916666666, "bike_id": "25ae920a81996e0122b9c42eb4c1a67a", "lat": 38.8920585, "fusion_lon": 0.0, "fusion_lat": 0.0, "type": "electric_scooter", "name": "25ae920a81996e0122b9c42eb4c1a67a", "is_disabled": 0, "rental_uris": {"ios": "https://dc.lft.to/lastmile_qr_scan", "android": "https://dc.lft.to/lastmile_qr_scan"}, "is_reserved": 0}, {"lon": -76.9984685, "bike_id": "c1312c7a6ca8540ca3230fb72b5ef971", "lat": 38.90213266666667, "fusion_lon": 0.0, "fusion_lat": 0.0, "type": "electric_scooter", "name": "c1312c7a6ca8540ca3230fb72b5ef971", "is_disabled": 0, "rental_uris": {"ios": "https://dc.lft.to/lastmile_qr_scan", "android": "https://dc.lft.to/lastmile_qr_scan"}, "is_reserved": 0}, {"lon": -77.03480133333333, "bike_id": "94095c36b721bc605305dc9910563e75", "lat": 38.928692166666664, "fusion_lon": 0.0, "fusion_lat": 0.0, "type": "electric_scooter", "name": "94095c36b721bc605305dc9910563e75", "is_disabled": 0, "rental_uris": {"ios": "https://dc.lft.to/lastmile_qr_scan", "android": "https://dc.lft.to/lastmile_qr_scan"}, "is_reserved": 0}, {"lon": -77.03538266666666, "bike_id": "a9680007785b31bb10e77be453cc299e", "lat": 38.924104166666666, "fusion_lon": 0.0, "fusion_lat": 0.0, "type": "electric_bike", "name": "a9680007785b31bb10e77be453cc299e", "is_disabled": 0, "rental_uris": {"ios": "https://dc.lft.to/lastmile_qr_scan", "android": "https://dc.lft.to/lastmile_qr_scan"},