{"data": {"bikes": [{"lon": -77.01889766666666, "is_disabled": 0, "lat": 38.939863833333334, "fusion_lat": 0.0, "is_reserved": 0, "rental_uris": {"ios": "https://dc.lft.to/lastmile_qr_scan", "android": "https://dc.lft.to/lastmile_qr_scan"}, "fusion_lon": 0.0, "type": "electric_scooter", "bike_id": "1846e3f06fa6c3f1d96d7a69e00c1cce", "name": "1846e3f06fa6c3f1d96d7a69e00c1cce"}, {"lon": -77.04041216666667, "is_disabled": 0, "lat": 38.905555, "fusion_lat": 0.0, "is_reserved": 0, "rental_uris": {"ios": "https://dc.lft.to/lastmile_qr_scan", "android": "https://dc.lft.to/lastmile_qr_scan"}, "fusion_lon": 0.0, "type": "electric_scooter", "bike_id": "2427e2ab7861c28e26c28d29f2c2a480", "name": "2427e2ab7861c28e26c28d29f2c2a480"}, {"lon": -77.05091683333333, "is_disabled": 0, "lat": 38.923415166666665, "fusion_lat": 0.0, "is_reserved": 0, "rental_uris": {"ios": "https://dc.lft.to/lastmile_qr_scan", "android": "https://dc.lft.to/lastmile_qr_scan"}, "fusion_lon": 0.0, "type": "electric_scooter", "bike_id": "3bef9b9b8f723eda0104f17f0d5c54f5", "name": "3bef9b9b8f723eda0104f17f0d5c54f5"}, {"lon": -77.00062016666666, "is_disabled": 0, "lat": 38.8768455, "fusion_lat": 0.0, "is_reserved": 0, "rental_uris": {"ios": "https://dc.lft.to/lastmile_qr_scan", "android": "https://dc.lft.to/lastmile_qr_scan"}, "fusion_lon": 0.0, "type": "electric_scooter", "bike_id": "4e6bf6f85fe2d9f8b7da59cd0a501284", "name": "4e6bf6f85fe2d9f8b7da59cd0a501284"}, {"lon": -77.04455283333333, "is_disabled": 0, "lat": 38.897315666666664, "fusion_lat": 0.0, "is_reserved": 0, "rental_uris": {"ios": "https://dc.lft.to/lastmile_qr_scan", "android": "https://dc.lft.to/lastmile_qr_scan"}, "fusion_lon": 0.0, "type": "electric_scooter", "bike_id": "35ef78588cec06271ca18af314de17ac", "name": "35ef78588cec06271ca18af314de17ac"}, {"lon": -77.02386466666667, "is_disabled": 0, "lat": 38.89735966666667, "fusion_lat": 0.0, "is_reserved": 0, "rental_uris": {"ios": "https://dc.lft.to/lastmile_qr_scan", "android": "https://dc.lft.to/lastmile_qr_scan"}, "fusion_lon": 0.0, "type": "electric_scooter", "bike_id": "b021714912163b06a3cc117ef142b309", "name": "b021714912163b06a3cc117ef142b309"}, {"lon": -77.08704916666667, "is_disabled": 0, "lat": 38.93520266666667, "fusion_lat": 0.0, "is_reserved": 0, "rental_uris": {"ios": "https://dc.lft.to/lastmile_qr_scan", "android": "https://dc.lft.to/lastmile_qr_scan"}, "fusion_lon": 0.0, "type": "electric_scooter", "bike_id": "db6bdd78260e948f5a115135ed491604", "name": "db6bdd78260e948f5a115135ed491604"}, {"lon": -77.03444466666667, "is_disabled": 0, "lat": 38.904233833333336, "fusion_lat": 0.0, "is_reserved": 0, "rental_uris": {"ios": "https://dc.lft.to/lastmile_qr_scan", "android": "https://dc.lft.to/lastmile_qr_scan"}, "fusion_lon": 0.0, "type": "electric_scooter", "bike_id": "7dce65ebe4756eaffd69e0fe12479767", "name": "7dce65ebe4756eaffd69e0fe12479767"}, {"lon": -77.033833, "is_disabled": 0, "lat": 38.921550833333335, "fusion_lat": 0.0, "is_reserved": 0, "rental_uris": {"ios": "https://dc.lft.to/lastmile_qr_scan", "android": "https://dc.lft.to/lastmile_qr_scan"}, "fusion_lon": 0.0, "type": "electric_scooter", "bike_id": "48e7b11b931199079dc79810da7d73f4", "name": "48e7b11b931199079dc79810da7d73f4"}, {"lon": -77.00337183333333, "is_disabled": 0, "lat": 38.893504, "fusion_lat": 0.0, "is_reserved": 0, "rental_uris": {"ios": "https://dc.lft.to/lastmile_qr_scan", "android": "https://dc.lft.to/lastmile_qr_scan"}, "fusion_lon": 0.0, "type": "electric_scooter", "bike_id": "3e7e9839cb96d5c6db9b7339f0f41481", "name": "3e7e9839cb96d5c6db9b7339f0f41481"}, {"lon": -76.98236916666667, "is_disabled": 0, "lat": 38.90890066666667, "fusion_lat": 0.0, "is_reserved": 0, "rental_uris": {"ios": "https://dc.lft.to/lastmile_qr_scan", "android": "https://dc.lft.to/lastmile_qr_scan"}, "fusion_lon": 0.0, "type": "electric_scooter", "bike_id": "dc3ebf59467ce9f021b636b8ebf6d72b", "name": "dc3ebf59467ce9f021b636b8ebf6d72b"}, {"lon": -77.02761483333333, "is_disabled": 0, "lat": 38.916895333333336, "fusion_lat": 0.0, "is_reserved": 0, "rental_uris": {"ios": "https://dc.lft.to/lastmile_qr_scan", "android": "https://dc.lft.to/lastmile_qr_scan"}, "fusion_lon": 0.0, "type": "electric_scooter", "bike_id": "d99fc7295aec1bbd010acf62b1e059bb", "name": "d99fc7295aec1bbd010acf62b1e059bb"}, {"lon": -77.02619366666667, "is_disabled": 0, "lat": 38.907276333333336, "fusion_lat": 0.0, "is_reserved": 0, "rental_uris": {"ios": "https://dc.lft.to/lastmile_qr_scan", "android": "https://dc.lft.to/lastmile_qr_scan"}, "fusion_lon": 0.0, "type": "electric_scooter", "bike_id": "aa5568bd06d0ff434b009926aa7719ef", "name": "aa5568bd06d0ff434b009926aa7719ef"}, {"lon": -77.00710216666667, "is_disabled": 0, "lat": 38.884914, "fusion_lat": 0.0, "is_reserved": 0, "rental_uris": {"ios": "https://dc.lft.to/lastmile_qr_scan", "android": "https://dc.lft.to/lastmile_qr_scan"}, "fusion_lon": 0.0, "type": "electric_scooter", "bike_id": "f43abf3503e83fa4340c74996afeaffc", "name": "f43abf3503e83fa4340c74996afeaffc"}, {"lon": -77.02408033333333, "is_disabled": 0, "lat": 38.91396733333333, "fusion_lat": 0.0, "is_reserved": 0, "rental_uris": {"ios": "https://dc.lft.to/lastmile_qr_scan", "android": "https://dc.lft.to/lastmile_qr_scan"}, "fusion_lon": 0.0, "type": "electric_scooter", "bike_id": "05631be231dd53913a296fc1f2b573d7", "name": "05631be231dd53913a296fc1f2b573d7"}, {"lon": -77.00622983333334, "is_disabled": 0, "lat": 38.87173666666666, "fusion_lat": 0.0, "is_reserved": 0, "rental_uris": {"ios": "https://dc.lft.to/lastmile_qr_scan", "android": "https://dc.lft.to/lastmile_qr_scan"}, "fusion_lon": 0.0, "type": "electric_scooter", "bike_id": "9a7d7440db3a3cdde2e3526950690a48", "name": "9a7d7440db3a3cdde2e3526950690a48"}, {"lon": -77.02952183333333, "is_disabled": 0, "lat": 38.916829, "fusion_lat": 0.0, "is_reserved": 0, "rental_uris": {"ios": "https://dc.lft.to/lastmile_qr_scan", "android": "https://dc.lft.to/lastmile_qr_scan"}, "fusion_lon": 0.0, "type": "electric_scooter", "bike_id": "a701e29e5732d14b8e089a199741e79f", "name": "a701e29e5732d14b8e089a199741e79f"}, {"lon": -76.9518565, "is_disabled": 0, "lat": 38.8913135, "fusion_lat": 0.0, "is_reserved": 0, "rental_uris": {"ios": "https://dc.lft.to/lastmile_qr_scan", "android": "https://dc.lft.to/lastmile_qr_scan"}, "fusion_lon": 0.0, "type": "electric_scooter", "bike_id": "1191ed49a0307e407d1728293bc86a9e", "name": "1191ed49a0307e407d1728293bc86a9e"}, {"lon": -77.02279366666667, "is_disabled": 0, "lat": 38.9095805, "fusion_lat": 0.0, "is_reserved": 0, "rental_uris": {"ios": "https://dc.lft.to/lastmile_qr_scan", "android": "https://dc.lft.to/lastmile_qr_scan"}, "fusion_lon": 0.0, "type": "electric_scooter", "bike_id": "9e489d46aff93329b768d16611d1bb53", "name": "9e489d46aff93329b768d16611d1bb53"}, {"lon": -77.00913066666666, "is_disabled": 0, "lat": 38.896376, "fusion_lat": 0.0, "is_reserved": 0, "rental_uris": {"ios": "https://dc.lft.to/lastmile_qr_scan", "android": "https://dc.lft.to/lastmile_qr_scan"}, "fusion_lon": 0.0, "type": "electric_scooter", "bike_id": "879f84da4b4c0c8a5c39a58d81310cd7", "name": "879f84da4b4c0c8a5c39a58d81310cd7"}, {"lon": -77.04294183333333, "is_disabled": 0, "lat": 38.906560166666665, "fusion_lat": 0.0, "is_reserved": 0, "rental_uris": {"ios": "https://dc.lft.to/lastmile_qr_scan", "android": "https://dc.lft.to/lastmile_qr_scan"}, "fusion_lon": 0.0, "type": "electric_scooter", "bike_id": "5ef5827907bcc9839e6cff1830d9ca16", "name": "5ef5827907bcc9839e6cff1830d9ca16"}, {"lon": -77.01210383333333, "is_disabled": 0, "lat": 38.917981, "fusion_lat": 0.0, "is_reserved": 0, "rental_uris": {"ios": "https://dc.lft.to/lastmile_qr_scan", "android": "https://dc.lft.to/lastmile_qr_scan"}, "fusion_lon": 0.0, "type": "electric_scooter", "bike_id": "9171c01eda93de11c2738c0632cfe659", "name": "9171c01eda93de11c2738c0632cfe659"}, {"lon": -77.003243, "is_disabled": 0, "lat": 38.87724166666667, "fusion_lat": 0.0, "is_reserved": 0, "rental_uris": {"ios": "https://dc.lft.to/lastmile_qr_scan", "android": "https://dc.lft.to/lastmile_qr_scan"}, "fusion_lon": 0.0, "type": "electric_scooter", "bike_id": "69e26c236b3bc9597d7d28f8684635f3", "name": "69e26c236b3bc9597d7d28f8684635f3"}, {"lon": -77.043325, "is_disabled": 0, "lat": 38.87386, "fusion_lat": 0.0, "is_reserved": 0, "rental_uris": {"ios": "https://dc.lft.to/lastmile_qr_scan", "android": "https://dc.lft.to/lastmile_qr_scan"}, "fusion_lon": 0.0, "type": "electric_scooter", "bike_id": "e74bb3378867c61bc4f8d2453ea88f0f", "name": "e74bb3378867c61bc4f8d2453ea88f0f"}, {"lon": -77.0503075, "is_disabled": 0, "lat": 38.92363833333334, "fusion_lat": 0.0, "is_reserved": 0, "rental_uris": {"ios": "https://dc.lft.to/lastmile_qr_scan", "android": "https://dc.lft.to/lastmile_qr_scan"}, "fusion_lon": 0.0, "type": "electric_scooter", "bike_id": "ca19c19dc0b3b8ba2c990d92a680a6ab", "name": "ca19c19dc0b3b8ba2c990d92a680a6ab"}, {"lon": -77.046968, "is_disabled": 0, "lat": 38.89739016666667, "fusion_lat": 0.0, "is_reserved": 0, "rental_uris": {"ios": "https://dc.lft.to/lastmile_qr_scan", "android": "https://dc.lft.to/lastmile_qr_scan"}, "fusion_lon": 0.0, "type": "electric_scooter", "bike_id": "82b1ef266328de4230398586a451d62e", "name": "82b1ef266328de4230398586a451d62e"}, {"lon": -77.03419583333333, "is_disabled": 0, "lat": 38.90370633333333, "fusion_lat": 0.0, "is_reserved": 0, "rental_uris": {"ios": "https://dc.lft.to/lastmile_qr_scan", "android": "https://dc.lft.to/lastmile_qr_scan"}, "fusion_lon": 0.0, "type": "electric_scooter", "bike_id": "8ff96d4d4c576d66c2177f125184b051", "name": "8ff96d4d4c576d66c2177f125184b051"}, {"lon": -77.04395433333333, "is_disabled": 0, "lat": 38.92228566666667, "fusion_lat": 0.0, "is_reserved": 0, "rental_uris": {"ios": "https://dc.lft.to/lastmile_qr_scan", "android": "https://dc.lft.to/lastmile_qr_scan"}, "fusion_lon": 0.0, "type": "electric_scooter", "bike_id": "3d0206656d82c374f655455c30cb176c", "name": "3d0206656d82c374f655455c30cb176c"}, {"lon": -77.00338466666666, "is_disabled": 0, "lat": 38.895265, "fusion_lat": 0.0, "is_reserved": 0, "rental_uris": {"ios": "https://dc.lft.to/lastmile_qr_scan", "android": "https://dc.lft.to/lastmile_qr_scan"}, "fusion_lon": 0.0, "type": "electric_scooter", "bike_id": "831ab23e38f84b32dd92fc121ab5fef5", "name": "831ab23e38f84b32dd92fc121ab5fef5"}, {"lon": -77.01967616666667, "is_disabled": 0, "lat": 38.893545333333336, "fusion_lat": 0.0, "is_reserved": 0, "rental_uris": {"ios": "https://dc.lft.to/lastmile_qr_scan", "android": "https://dc.lft.to/lastmile_qr_scan"}, "fusion_lon": 0.0, "type": "electric_scooter", "bike_id": "dcc14002b8a4508c456ade952bba9c21", "name": "dcc14002b8a4508c456ade952bba9c21"}, {"lon": -77.050888, "is_disabled": 0, "lat": 38.92342883333333, "fusion_lat": 0.0, "is_reserved": 0, "rental_uris": {"ios": "https://dc.lft.to/lastmile_qr_scan", "android": "https://dc.lft.to/lastmile_qr_scan"}, "fusion_lon": 0.0, "type": "electric_scooter", "bike_id": "de07416e226bd578d14722e2f35dd098", "name": "de07416e226bd578d14722e2f35dd098"}, {"lon": -77.03047783333334, "is_disabled": 0, "lat": 38.90021466666666, "fusion_lat": 0.0, "is_reserved": 0, "rental_uris": {"ios": "https://dc.lft.to/lastmile_qr_scan", "android": "https://dc.lft.to/lastmile_qr_scan"}, "fusion_lon": 0.0, "type": "electric_scooter", "bike_id": "3be512af1063783517281e650c64b8c7", "name": "3be512af1063783517281e650c64b8c7"}, {"lon": -76.98696283333334, "is_disabled": 0, "lat": 38.86723033333333, "fusion_lat": 0.0, "is_reserved": 0, "rental_uris": {"ios": "https://dc.lft.to/lastmile_qr_scan", "android": "https://dc.lft.to/lastmile_qr_scan"}, "fusion_lon": 0.0, "type": "electric_scooter", "bike_id": "cb3f4e8757b524b3a2490a03d46740e4", "name": "cb3f4e8757b524b3a2490a03d46740e4"}, {"lon": -77.02712716666667, "is_disabled": 0, "lat": 38.881343666666666, "fusion_lat": 0.0, "is_reserved": 0, "rental_uris": {"ios": "https://dc.lft.to/lastmile_qr_scan", "android": "https://dc.lft.to/lastmile_qr_scan"}, "fusion_lon": 0.0, "type": "electric_scooter", "bike_id": "0a290ab58f5f1226fa292d033030b903", "name": "0a290ab58f5f1226fa292d033030b903"}, {"lon": -77.0525555, "is_disabled": 0, "lat": 38.927813, "fusion_lat": 0.0, "is_reserved": 0, "rental_uris": {"ios": "https://dc.lft.to/lastmile_qr_scan", "android": "https://dc.lft.to/lastmile_qr_scan"}, "fusion_lon": 0.0, "type": "electric_scooter", "bike_id": "f17c6ae90cf7b87ee07df18a86978034", "name": "f17c6ae90cf7b87ee07df18a86978034"}, {"lon": -76.9914735, "is_disabled": 0, "lat": 38.9086225, "fusion_lat": 0.0, "is_reserved": 0, "rental_uris": {"ios": "https://dc.lft.to/lastmile_qr_scan", "android": "https://dc.lft.to/lastmile_qr_scan"}, "fusion_lon": 0.0, "type": "electric_bike", "bike_id": "ae0fc07b5cf35fcfe22991d40c1fef28", "name": "ae0fc07b5cf35fcfe22991d40c1fef28"}, {"lon": -76.99479366666667, "is_disabled": 0, "lat": 38.89176416666667, "fusion_lat": 0.0, "is_reserved": 0, "rental_uris": {"ios": "https://dc.lft.to/lastmile_qr_scan", "android": "https://dc.lft.to/lastmile_qr_scan"}, "fusion_lon": 0.0, "type": "electric_scooter", "bike_id": "214a5d8bee6335ea543777294104a615", "name": "214a5d8bee6335ea543777294104a615"}, {"lon": -77.0527355, "is_disabled": 0, "lat": 38.90520433333333, "fusion_lat": 0.0, "is_reserved": 0, "rental_uris": {"ios": "https://dc.lft.to/lastmile_qr_scan", "android": "https://dc.lft.to/lastmile_qr_scan"}, "fusion_lon": 0.0, "type": "electric_scooter", "bike_id": "98d3e97ba3227183c7c4421c47f1505d", "name": "98d3e97ba3227183c7c4421c47f1505d"}, {"lon": -76.94889483333333, "is_disabled": 0, "lat": 38.89531916666667, "fusion_lat": 0.0, "is_reserved": 0, "rental_uris": {"ios": "https://dc.lft.to/lastmile_qr_scan", "android": "https://dc.lft.to/lastmile_qr_scan"}, "fusion_lon": 0.0, "type": "electric_scooter", "bike_id": "9cae24603bdb672a2003561f767562ab", "name": "9cae24603bdb672a2003561f767562ab"}, {"lon": -77.03178133333333, "is_disabled": 0, "lat": 38.89246983333334, "fusion_lat": 0.0, "is_reserved": 0, "rental_uris": {"ios": "https://dc.lft.to/lastmile_qr_scan", "android": "https://dc.lft.to/lastmile_qr_scan"}, "fusion_lon": 0.0, "type": "electric_scooter", "bike_id": "ce3ed36450a651ff816b6fa7dc681261", "name": "ce3ed36450a651ff816b6fa7dc681261"}, {"lon": -77.032112, "is_disabled": 0, "lat": 38.892290333333335, "fusion_lat": 0.0, "is_reserved": 0, "rental_uris": {"ios": "https://dc.lft.to/lastmile_qr_scan", "android": "https://dc.lft.to/lastmile_qr_scan"}, "fusion_lon": 0.0, "type": "electric_scooter", "bike_id": "0573b9c0149e2314763ab6280a32a339", "name": "0573b9c0149e2314763ab6280a32a339"}, {"lon": -77.04001716666667, "is_disabled": 0, "lat": 38.93426516666667, "fusion_lat": 0.0, "is_reserved": 0, "rental_uris": {"ios": "https://dc.lft.to/lastmile_qr_scan", "android": "https://dc.lft.to/lastmile_qr_scan"}, "fusion_lon": 0.0, "type": "electric_scooter", "bike_id": "a367134cdda6b7b275f5beafac76794f", "name": "a367134cdda6b7b275f5beafac76794f"}, {"lon": -77.04422416666667, "is_disabled": 0, "lat": 38.89406283333334, "fusion_lat": 0.0, "is_reserved": 0, "rental_uris": {"ios": "https://dc.lft.to/lastmile_qr_scan", "android": "https://dc.lft.to/lastmile_qr_scan"}, "fusion_lon": 0.0, "type": "electric_scooter", "bike_id": "017da99934b9f37f1f1ae3737cdc3674", "name": "017da99934b9f37f1f1ae3737cdc3674"}, {"lon": -76.98558016666667, "is_disabled": 0, "lat": 38.899913166666664, "fusion_lat": 0.0, "is_reserved": 0, "rental_uris": {"ios": "https://dc.lft.to/lastmile_qr_scan", "android": "https://dc.lft.to/lastmile_qr_scan"}, "fusion_lon": 0.0, "type": "electric_scooter", "bike_id": "0242b0effc982b54ffc18eaacfba2eb0", "name": "0242b0effc982b54ffc18eaacfba2eb0"}, {"lon": -77.05002166666667, "is_disabled": 0, "lat": 38.892321833333334, "fusion_lat": 0.0, "is_reserved": 0, "rental_uris": {"ios": "https://dc.lft.to/lastmile_qr_scan", "android": "https://dc.lft.to/lastmile_qr_scan"}, "fusion_lon": 0.0, "type": "electric_scooter", "bike_id": "742a3a286a83e78104baa9f8effc30c8", "name": "742a3a286a83e78104baa9f8effc30c8"}, {"lon": -77.01387133333333, "is_disabled": 0, "lat": 38.89219083333333, "fusion_lat": 0.0, "is_reserved": 0, "rental_uris": {"ios": "https://dc.lft.to/lastmile_qr_scan", "android": "https://dc.lft.to/lastmile_qr_scan"}, "fusion_lon": 0.0, "type": "electric_scooter", "bike_id": "c92121b3677e915d8946493817eb0886", "name": "c92121b3677e915d8946493817eb0886"}, {"lon": -77.024775, "is_disabled": 0, "lat": 38.938505, "fusion_lat": 0.0, "is_reserved": 0, "rental_uris": {"ios": "https://dc.lft.to/lastmile_qr_scan", "android": "https://dc.lft.to/lastmile_qr_scan"}, "fusion_lon": 0.0, "type": "electric_scooter", "bike_id": "69e77b2c1ecf9001c8db7252bfd34e43", "name": "69e77b2c1ecf9001c8db7252bfd34e43"}, {"lon": -77.041525, "is_disabled": 0, "lat": 38.916304, "fusion_lat": 0.0, "is_reserved": 0, "rental_uris": {"ios": "https://dc.lft.to/lastmile_qr_scan", "android": "https://dc.lft.to/lastmile_qr_scan"}, "fusion_lon": 0.0, "type": "electric_scooter", "bike_id": "57bdef9082b87e8843ee52b099aaf977", "name": "57bdef9082b87e8843ee52b099aaf977"}, {"lon": -77.00114366666666, "is_disabled": 0, "lat": 38.873739, "fusion_lat": 0.0, "is_reserved": 0, "rental_uris": {"ios": "https://dc.lft.to/lastmile_qr_scan", "android": "https://dc.lft.to/lastmile_qr_scan"}, "fusion_lon": 0.0, "type": "electric_scooter", "bike_id": "bcd0e5bb640acec234b0e311f1672f80", "name": "bcd0e5bb640acec234b0e311f1672f80"}, {"lon": -77.18123016666667, "is_disabled": 0, "lat": 38.932246166666665, "fusion_lat": 0.0, "is_reserved": 0, "rental_uris": {"ios": "https://dc.lft.to/lastmile_qr_scan", "android": "https://dc.lft.to/lastmile_qr_scan"}, "fusion_lon": 0.0, "type": "electric_bike", "bike_id": "71cccca6379513cf17cb294ad1461409", "name": "71cccca6379513cf17cb294ad1461409"}, {"lon": -77.04230333333334, "is_disabled": 0, "lat": 38.899460166666664, "fusion_lat": 0.0, "is_reserved": 0, "rental_uris": {"ios": "https://dc.lft.to/lastmile_qr_scan", "android": "https://dc.lft.to/lastmile_qr_scan"}, "fusion_lon": 0.0, "type": "electric_scooter", "bike_id": "68d61e69c05b2798d44048b46dce59e3", "name": "68d61e69c05b2798d44048b46dce59e3"}, {"lon": -77.029437, "is_disabled": 0, "lat": 38.90503616666667, "fusion_lat": 0.0, "is_reserved": 0, "rental_uris": {"ios": "https://dc.lft.to/lastmile_qr_scan", "android": "https://dc.lft.to/lastmile_qr_scan"}, "fusion_lon": 0.0, "type": "electric_scooter", "bike_id": "aca746ff5d49df7ba74a339b0711f2e2", "name": "aca746ff5d49df7ba74a339b0711f2e2"}, {"lon": -77.03875033333334, "is_disabled": 0, "lat": 38.91710616666667, "fusion_lat": 0.0, "is_reserved": 0, "rental_uris": {"ios": "https://dc.lft.to/lastmile_qr_scan", "android": "https://dc.lft.to/lastmile_qr_scan"}, "fusion_lon": 0.0, "type": "electric_scooter", "bike_id": "b2d84f2e0f51edd07dc8c5f62ff4d5d9", "name": "b2d84f2e0f51edd07dc8c5f62ff4d5d9"}, {"lon": -77.01651616666666, "is_disabled": 0, "lat": 38.881163, "fusion_lat": 0.0, "is_reserved": 0, "rental_uris": {"ios": "https://dc.lft.to/lastmile_qr_scan", "android": "https://dc.lft.to/lastmile_qr_scan"}, "fusion_lon": 0.0, "type": "electric_scooter", "bike_id": "62749519f7f2c3c5d9416c3b12761830", "name": "62749519f7f2c3c5d9416c3b12761830"}, {"lon": -77.04323583333333, "is_disabled": 0, "lat": 38.900460833333334, "fusion_lat": 0.0, "is_reserved": 0, "rental_uris": {"ios": "https://dc.lft.to/lastmile_qr_scan", "android": "https://dc.lft.to/lastmile_qr_scan"}, "fusion_lon": 0.0, "type": "electric_scooter", "bike_id": "ff4f73ff26449ec54ee5b8ff8f67ba43", "name": "ff4f73ff26449ec54ee5b8ff8f67ba43"}, {"lon": -76.980014, "is_disabled": 0, "lat": 38.906778, "fusion_lat": 0.0, "is_reserved": 0, "rental_uris": {"ios": "https://dc.lft.to/lastmile_qr_scan", "android": "https://dc.lft.to/lastmile_qr_scan"}, "fusion_lon": 0.0, "type": "electric_scooter", "bike_id": "d8cf225ce9903862584bbe741e5b401a", "name": "d8cf225ce9903862584bbe741e5b401a"}, {"lon": -77.02364666666666, "is_disabled": 0, "lat": 38.929122166666666, "fusion_lat": 0.0, "is_reserved": 0, "rental_uris": {"ios": "https://dc.lft.to/lastmile_qr_scan", "android": "https://dc.lft.to/lastmile_qr_scan"}, "fusion_lon": 0.0, "type": "electric_scooter", "bike_id": "de7d674f075ed84e85ac78b9bcf11d15", "name": "de7d674f075ed84e85ac78b9bcf11d15"}, {"lon": -77.02121333333334, "is_disabled": 0, "lat": 38.92467383333333, "fusion_lat": 0.0, "is_reserved": 0, "rental_uris": {"ios": "https://dc.lft.to/lastmile_qr_scan", "android": "https://dc.lft.to/lastmile_qr_scan"}, "fusion_lon": 0.0, "type": "electric_scooter", "bike_id": "b28910284362df38c9c6060c0dc23916", "name": "b28910284362df38c9c6060c0dc23916"}, {"lon": -77.00134433333334, "is_disabled": 0, "lat": 38.9051125, "fusion_lat": 0.0, "is_reserved": 0, "rental_uris": {"ios": "https://dc.lft.to/lastmile_qr_scan", "android": "https://dc.lft.to/lastmile_qr_scan"}, "fusion_lon": 0.0, "type": "electric_scooter", "bike_id": "15b0689cc88655e085ae207b8aaf82cf", "name": "15b0689cc88655e085ae207b8aaf82cf"}, {"lon": -77.033291, "is_disabled": 0, "lat": 38.8922515, "fusion_lat": 0.0, "is_reserved": 0, "rental_uris": {"ios": "https://dc.lft.to/lastmile_qr_scan", "android": "https://dc.lft.to/lastmile_qr_scan"}, "fusion_lon": 0.0, "type": "electric_scooter", "bike_id": "3e6fd091d5c590b8c209a2ea41d5b5d9", "name": "3e6fd091d5c590b8c209a2ea41d5b5d9"}, {"lon": -76.95622966666667, "is_disabled": 0, "lat": 38.885255666666666, "fusion_lat": 0.0, "is_reserved": 0, "rental_uris": {"ios": "https://dc.lft.to/lastmile_qr_scan", "android": "https://dc.lft.to/lastmile_qr_scan"}, "fusion_lon": 0.0, "type": "electric_bike", "bike_id": "ca7bd0acec20131629dee6caa002dfb1", "name": "ca7bd0acec20131629dee6caa002dfb1"}, {"lon": -77.11791216666667, "is_disabled": 0, "lat": 39.05494483333333, "fusion_lat": 0.0, "is_reserved": 0, "rental_uris": {"ios": "https://dc.lft.to/lastmile_qr_scan", "android": "https://dc.lft.to/lastmile_qr_scan"}, "fusion_lon": 0.0, "type": "electric_bike", "bike_id": "b06c69b4e1227cd4623120a06b750715", "name": "b06c69b4e1227cd4623120a06b750715"}, {"lon": -77.026435, "is_disabled": 0, "lat": 38.898508166666666, "fusion_lat": 0.0, "is_reserved": 0, "rental_uris": {"ios": "https://dc.lft.to/lastmile_qr_scan", "android": "https://dc.lft.to/lastmile_qr_scan"}, "fusion_lon": 0.0, "type": "electric_scooter", "bike_id": "1dfe096768a487013a484e35f7388e09", "name": "1dfe096768a487013a484e35f7388e09"}, {"lon": -77.00610116666667, "is_disabled": 0, "lat": 38.871763333333334, "fusion_lat": 0.0, "is_reserved": 0, "rental_uris": {"ios": "https://dc.lft.to/lastmile_qr_scan", "android": "https://dc.lft.to/lastmile_qr_scan"}, "fusion_lon": 0.0, "type": "electric_scooter", "bike_id": "006136e9f33d54575bd0719c587e4ebd", "name": "006136e9f33d54575bd0719c587e4ebd"}, {"lon": -77.02817716666667, "is_disabled": 0, "lat": 38.902465166666666, "fusion_lat": 0.0, "is_reserved": 0, "rental_uris": {"ios": "https://dc.lft.to/lastmile_qr_scan", "android": "https://dc.lft.to/lastmile_qr_scan"}, "fusion_lon": 0.0, "type": "electric_scooter", "bike_id": "c568ca82b3575fa6913c3167c4331f65", "name": "c568ca82b3575fa6913c3167c4331f65"}, {"lon": -77.01696683333333, "is_disabled": 0, "lat": 38.974977333333335, "fusion_lat": 0.0, "is_reserved": 0, "rental_uris": {"ios": "https://dc.lft.to/lastmile_qr_scan", "android": "https://dc.lft.to/lastmile_qr_scan"}, "fusion_lon": 0.0, "type": "electric_scooter", "bike_id": "1ba971704394824f34c7f21c56917647", "name": "1ba971704394824f34c7f21c56917647"}, {"lon": -77.02831533333334, "is_disabled": 0, "lat": 38.89364833333333, "fusion_lat": 0.0, "is_reserved": 0, "rental_uris": {"ios": "https://dc.lft.to/lastmile_qr_scan", "android": "https://dc.lft.to/lastmile_qr_scan"}, "fusion_lon": 0.0, "type": "electric_scooter", "bike_id": "212ce27587920afc27cb792a846ee828", "name": "212ce27587920afc27cb792a846ee828"}, {"lon": -77.0395955, "is_disabled": 0, "lat": 38.898598666666665, "fusion_lat": 0.0, "is_reserved": 0, "rental_uris": {"ios": "https://dc.lft.to/lastmile_qr_scan", "android": "https://dc.lft.to/lastmile_qr_scan"}, "fusion_lon": 0.0, "type": "electric_scooter", "bike_id": "1acacb726c5b6002ecfbd95e55bc95b2", "name": "1acacb726c5b6002ecfbd95e55bc95b2"}, {"lon": -77.0324305, "is_disabled": 0, "lat": 38.92380033333333, "fusion_lat": 0.0, "is_reserved": 0, "rental_uris": {"ios": "https://dc.lft.to/lastmile_qr_scan", "android": "https://dc.lft.to/lastmile_qr_scan"}, "fusion_lon": 0.0, "type": "electric_scooter", "bike_id": "a6eddd698e13587f51049205a27404b7", "name": "a6eddd698e13587f51049205a27404b7"}, {"lon": -77.05742433333333, "is_disabled": 0, "lat": 38.9339035, "fusion_lat": 0.0, "is_reserved": 0, "rental_uris": {"ios": "https://dc.lft.to/lastmile_qr_scan", "android": "https://dc.lft.to/lastmile_qr_scan"}, "fusion_lon": 0.0, "type": "electric_scooter", "bike_id": "6e8f0fe2caa3f3fe60a6801afd983648", "name": "6e8f0fe2caa3f3fe60a6801afd983648"}, {"lon": -77.0247, "is_disabled": 0, "lat": 38.89720366666667, "fusion_lat": 0.0, "is_reserved": 0, "rental_uris": {"ios": "https://dc.lft.to/lastmile_qr_scan", "android": "https://dc.lft.to/lastmile_qr_scan"}, "fusion_lon": 0.0, "type": "electric_scooter", "bike_id": "6f26e69a4413d0146d260f329eadf1f1", "name": "6f26e69a4413d0146d260f329eadf1f1"}, {"lon": -77.00457833333333, "is_disabled": 0, "lat": 38.87658716666667, "fusion_lat": 0.0, "is_reserved": 0, "rental_uris": {"ios": "https://dc.lft.to/lastmile_qr_scan", "android": "https://dc.lft.to/lastmile_qr_scan"}, "fusion_lon": 0.0, "type": "electric_scooter", "bike_id": "a193348f6ec22cf35de6693bbd5bddd1", "name": "a193348f6ec22cf35de6693bbd5bddd1"}, {"lon": -77.039491, "is_disabled": 0, "lat": 38.90633316666667, "fusion_lat": 0.0, "is_reserved": 0, "rental_uris": {"ios": "https://dc.lft.to/lastmile_qr_scan", "android": "https://dc.lft.to/lastmile_qr_scan"}, "fusion_lon": 0.0, "type": "electric_scooter", "bike_id": "410e79bc9be92f42934d015bbca8af0a", "name": "410e79bc9be92f42934d015bbca8af0a"}, {"lon": -77.03426383333333, "is_disabled": 0, "lat": 38.90566166666667, "fusion_lat": 0.0, "is_reserved": 0, "rental_uris": {"ios": "https://dc.lft.to/lastmile_qr_scan", "android": "https://dc.lft.to/lastmile_qr_scan"}, "fusion_lon": 0.0, "type": "electric_scooter", "bike_id": "bb8d7f357c978e75edd39217a0e62919", "name": "bb8d7f357c978e75edd39217a0e62919"}, {"lon": -77.04175733333334, "is_disabled": 0, "lat": 38.913925666666664, "fusion_lat": 0.0, "is_reserved": 0, "rental_uris": {"ios": "https://dc.lft.to/lastmile_qr_scan", "android": "https://dc.lft.to/lastmile_qr_scan"}, "fusion_lon": 0.0, "type": "electric_scooter", "bike_id": "99f4de4d0753d98da5a0ed1663376f15", "name": "99f4de4d0753d98da5a0ed1663376f15"}, {"lon": -77.03359066666667, "is_disabled": 0, "lat": 38.925785166666664, "fusion_lat": 0.0, "is_reserved": 0, "rental_uris": {"ios": "https://dc.lft.to/lastmile_qr_scan", "android": "https://dc.lft.to/lastmile_qr_scan"}, "fusion_lon": 0.0, "type": "electric_scooter", "bike_id": "3110716ff35e9660f6937b1e8689c551", "name": "3110716ff35e9660f6937b1e8689c551"}, {"lon": -76.94046316666666, "is_disabled": 0, "lat": 38.978571, "fusion_lat": 0.0, "is_reserved": 0, "rental_uris": {"ios": "https://dc.lft.to/lastmile_qr_scan", "android": "https://dc.lft.to/lastmile_qr_scan"}, "fusion_lon": 0.0, "type": "electric_bike", "bike_id": "d3e194b967c75057947c1fe374b324cd", "name": "d3e194b967c75057947c1fe374b324cd"}, {"lon": -77.03978033333334, "is_disabled": 0, "lat": 38.9181195, "fusion_lat": 0.0, "is_reserved": 0, "rental_uris": {"ios": "https://dc.lft.to/lastmile_qr_scan", "android": "https://dc.lft.to/lastmile_qr_scan"}, "fusion_lon": 0.0, "type": "electric_scooter", "bike_id": "3e20a3c25acaac80bcc683fbb3c8f433", "name": "3e20a3c25acaac80bcc683fbb3c8f433"}, {"lon": -77.03068683333333, "is_disabled": 0, "lat": 38.9026695, "fusion_lat": 0.0, "is_reserved": 0, "rental_uris": {"ios": "https://dc.lft.to/lastmile_qr_scan", "android": "https://dc.lft.to/lastmile_qr_scan"}, "fusion_lon": 0.0, "type": "electric_scooter", "bike_id": "f553ac9e2a6b4a0e26c2340187e09b40", "name": "f553ac9e2a6b4a0e26c2340187e09b40"}, {"lon": -77.0240735, "is_disabled": 0, "lat": 38.9154225, "fusion_lat": 0.0, "is_reserved": 0, "rental_uris": {"ios": "https://dc.lft.to/lastmile_qr_scan", "android": "https://dc.lft.to/lastmile_qr_scan"}, "fusion_lon": 0.0, "type": "electric_scooter", "bike_id": "d906ab94000be2d88429c0522c02dfde", "name": "d906ab94000be2d88429c0522c02dfde"}, {"lon": -77.03355966666666, "is_disabled": 0, "lat": 38.88695033333333, "fusion_lat": 0.0, "is_reserved": 0, "rental_uris": {"ios": "https://dc.lft.to/lastmile_qr_scan", "android": "https://dc.lft.to/lastmile_qr_scan"}, "fusion_lon": 0.0, "type": "electric_scooter", "bike_id": "9b56d90a934f61cf149f37d398e4f5ba", "name": "9b56d90a934f61cf149f37d398e4f5ba"}, {"lon": -77.02959233333333, "is_disabled": 0, "lat": 38.93455316666667, "fusion_lat": 0.0, "is_reserved": 0, "rental_uris": {"ios": "https://dc.lft.to/lastmile_qr_scan", "android": "https://dc.lft.to/lastmile_qr_scan"}, "fusion_lon": 0.0, "type": "electric_scooter", "bike_id": "a814e3b65f0de0a3368ef2252746ec1d", "name": "a814e3b65f0de0a3368ef2252746ec1d"}, {"lon": -76.98712583333334, "is_disabled": 0, "lat": 38.86697683333333, "fusion_lat": 0.0, "is_reserved": 0, "rental_uris": {"ios": "https://dc.lft.to/lastmile_qr_scan", "android": "https://dc.lft.to/lastmile_qr_scan"}, "fusion_lon": 0.0, "type": "electric_scooter", "bike_id": "927aec0adf37e2e2ca0a3e83124f2c8b", "name": "927aec0adf37e2e2ca0a3e83124f2c8b"}, {"lon": -76.94638083333334, "is_disabled": 0, "lat": 38.89867316666667, "fusion_lat": 0.0, "is_reserved": 0, "rental_uris": {"ios": "https://dc.lft.to/lastmile_qr_scan", "android": "https://dc.lft.to/lastmile_qr_scan"}, "fusion_lon": 0.0, "type": "electric_scooter", "bike_id": "4e06e4a6fcb063d76d1fa45f19101da0", "name": "4e06e4a6fcb063d76d1fa45f19101da0"}, {"lon": -77.04500933333334, "is_disabled": 0, "lat": 38.903632333333334, "fusion_lat": 0.0, "is_reserved": 0, "rental_uris": {"ios": "https://dc.lft.to/lastmile_qr_scan", "android": "https://dc.lft.to/lastmile_qr_scan"}, "fusion_lon": 0.0, "type": "electric_scooter", "bike_id": "ab7ab5b236d5e09024e83efefe9f7da2", "name": "ab7ab5b236d5e09024e83efefe9f7da2"}, {"lon": -77.03958883333334, "is_disabled": 0, "lat": 38.9024205, "fusion_lat": 0.0, "is_reserved": 0, "rental_uris": {"ios": "https://dc.lft.to/lastmile_qr_scan", "android": "https://dc.lft.to/lastmile_qr_scan"}, "fusion_lon": 0.0, "type": "electric_scooter", "bike_id": "a1719decf5aef54042e21a39d3f2027d", "name": "a1719decf5aef54042e21a39d3f2027d"}, {"lon": -77.0186215, "is_disabled": 0, "lat": 38.94918083333334, "fusion_lat": 0.0, "is_reserved": 0, "rental_uris": {"ios": "https://dc.lft.to/lastmile_qr_scan", "android": "https://dc.lft.to/lastmile_qr_scan"}, "fusion_lon": 0.0, "type": "electric_scooter", "bike_id": "27561d40e045b013b92c2b7080e6c18b", "name": "27561d40e045b013b92c2b7080e6c18b"}, {"lon": -77.03973116666667, "is_disabled": 0, "lat": 38.89431833333333, "fusion_lat": 0.0, "is_reserved": 0, "rental_uris": {"ios": "https://dc.lft.to/lastmile_qr_scan", "android": "https://dc.lft.to/lastmile_qr_scan"}, "fusion_lon": 0.0, "type": "electric_scooter", "bike_id": "6383cc1e2ee533e937c38b12acb903db", "name": "6383cc1e2ee533e937c38b12acb903db"}, {"lon": -77.0327825, "is_disabled": 0, "lat": 38.92639366666667, "fusion_lat": 0.0, "is_reserved": 0, "rental_uris": {"ios": "https://dc.lft.to/lastmile_qr_scan", "android": "https://dc.lft.to/lastmile_qr_scan"}, "fusion_lon": 0.0, "type": "electric_scooter", "bike_id": "4c1f77b41b2aeaba6722edecb5def175", "name": "4c1f77b41b2aeaba6722edecb5def175"}, {"lon": -77.02213566666667, "is_disabled": 0, "lat": 38.897181, "fusion_lat": 0.0, "is_reserved": 0, "rental_uris": {"ios": "https://dc.lft.to/lastmile_qr_scan", "android": "https://dc.lft.to/lastmile_qr_scan"}, "fusion_lon": 0.0, "type": "electric_scooter", "bike_id": "9fba49e7c586d537b28d3d12fb66a040", "name": "9fba49e7c586d537b28d3d12fb66a040"}, {"lon": -77.040878, "is_disabled": 0, "lat": 38.90552116666667, "fusion_lat": 0.0, "is_reserved": 0, "rental_uris": {"ios": "https://dc.lft.to/lastmile_qr_scan", "android": "https://dc.lft.to/lastmile_qr_scan"}, "fusion_lon": 0.0, "type": "electric_scooter", "bike_id": "90f6d67e39d7671154d271c4df824b71", "name": "90f6d67e39d7671154d271c4df824b71"}, {"lon": -77.00597016666667, "is_disabled": 0, "lat": 38.89816583333333, "fusion_lat": 0.0, "is_reserved": 0, "rental_uris": {"ios": "https://dc.lft.to/lastmile_qr_scan", "android": "https://dc.lft.to/lastmile_qr_scan"}, "fusion_lon": 0.0, "type": "electric_bike", "bike_id": "11685ad884316666471c01957ae5de75", "name": "11685ad884316666471c01957ae5de75"}, {"lon": -77.04978633333333, "is_disabled": 0, "lat": 38.90070033333333, "fusion_lat": 0.0, "is_reserved": 0, "rental_uris": {"ios": "https://dc.lft.to/lastmile_qr_scan", "android": "https://dc.lft.to/lastmile_qr_scan"}, "fusion_lon": 0.0, "type": "electric_scooter", "bike_id": "4079c3c52c794d6597de363c02b8ad64", "name": "4079c3c52c794d6597de363c02b8ad64"}, {"lon": -76.93338216666666, "is_disabled": 0, "lat": 38.9086515, "fusion_lat": 0.0, "is_reserved": 0, "rental_uris": {"ios": "https://dc.lft.to/lastmile_qr_scan", "android": "https://dc.lft.to/lastmile_qr_scan"}, "fusion_lon": 0.0, "type": "electric_scooter", "bike_id": "663a318062f32d9e98bcb0427fc83a8e", "name": "663a318062f32d9e98bcb0427fc83a8e"}, {"lon": -77.021801, "is_disabled": 0, "lat": 38.9068235, "fusion_lat": 0.0, "is_reserved": 0, "rental_uris": {"ios": "https://dc.lft.to/lastmile_qr_scan", "android": "https://dc.lft.to/lastmile_qr_scan"}, "fusion_lon": 0.0, "type": "electric_scooter", "bike_id": "59b838ff30027507a44a2f18b3d7fe52", "name": "59b838ff30027507a44a2f18b3d7fe52"}, {"lon": -77.03125783333333, "is_disabled": 0, "lat": 38.930875666666665, "fusion_lat": 0.0, "is_reserved": 0, "rental_uris": {"ios": "https://dc.lft.to/lastmile_qr_scan", "android": "https://dc.lft.to/lastmile_qr_scan"}, "fusion_lon": 0.0, "type": "electric_scooter", "bike_id": "ce42b526f8bd76a8f8d894aa41b0cfe6", "name": "ce42b526f8bd76a8f8d894aa41b0cfe6"}, {"lon": -77.02004533333333, "is_disabled": 0, "lat": 38.93081016666667, "fusion_lat": 0.0, "is_reserved": 0, "rental_uris": {"ios": "https://dc.lft.to/lastmile_qr_scan", "android": "https://dc.lft.to/lastmile_qr_scan"}, "fusion_lon": 0.0, "type": "electric_scooter", "bike_id": "5f2d8dd9ab5c005556bbe42874a0f3fc", "name": "5f2d8dd9ab5c005556bbe42874a0f3fc"}, {"lon": -77.023672, "is_disabled": 0, "lat": 38.91786183333333, "fusion_lat": 0.0, "is_reserved": 0, "rental_uris": {"ios": "https://dc.lft.to/lastmile_qr_scan", "android": "https://dc.lft.to/lastmile_qr_scan"}, "fusion_lon": 0.0, "type": "electric_scooter", "bike_id": "3754a1b47e0d76b2d0e8761db681d244", "name": "3754a1b47e0d76b2d0e8761db681d244"}, {"lon": -77.02114533333334, "is_disabled": 0, "lat": 38.914178666666665, "fusion_lat": 0.0, "is_reserved": 0, "rental_uris": {"ios": "https://dc.lft.to/lastmile_qr_scan", "android": "https://dc.lft.to/lastmile_qr_scan"}, "fusion_lon": 0.0, "type": "electric_scooter", "bike_id": "8c51603d476c4b5d8a074c080f65aeb9", "name": "8c51603d476c4b5d8a074c080f65aeb9"}, {"lon": -77.045266, "is_disabled": 0, "lat": 38.903730833333334, "fusion_lat": 0.0, "is_reserved": 0, "rental_uris": {"ios": "https://dc.lft.to/lastmile_qr_scan", "android": "https://dc.lft.to/lastmile_qr_scan"}, "fusion_lon": 0.0, "type": "electric_scooter", "bike_id": "1726a85db7d1e88a1d68d368ddfdb83b", "name": "1726a85db7d1e88a1d68d368ddfdb83b"}, {"lon": -77.097176, "is_disabled": 0, "lat": 38.950971833333334, "fusion_lat": 0.0, "is_reserved": 0, "rental_uris": {"ios": "https://dc.lft.to/lastmile_qr_scan", "android": "https://dc.lft.to/lastmile_qr_scan"}, "fusion_lon": 0.0, "type": "electric_scooter", "bike_id": "297686729d7151d067b38d28de3226be", "name": "297686729d7151d067b38d28de3226be"}, {"lon": -76.96706516666667, "is_disabled": 0, "lat": 38.86036383333333, "fusion_lat": 0.0, "is_reserved": 0, "rental_uris": {"ios": "https://dc.lft.to/lastmile_qr_scan", "android": "https://dc.lft.to/lastmile_qr_scan"}, "fusion_lon": 0.0, "type": "electric_scooter", "bike_id": "6b1e82b9308d315263ba8b8263ad4fc3", "name": "6b1e82b9308d315263ba8b8263ad4fc3"}, {"lon": -76.98702533333334, "is_disabled": 0, "lat": 38.900113833333336, "fusion_lat": 0.0, "is_reserved": 0, "rental_uris": {"ios": "https://dc.lft.to/lastmile_qr_scan", "android": "https://dc.lft.to/lastmile_qr_scan"}, "fusion_lon": 0.0, "type": "electric_scooter", "bike_id": "52c0b976ce3b0517e8f17431a31945fe", "name": "52c0b976ce3b0517e8f17431a31945fe"}, {"lon": -77.02179383333333, "is_disabled": 0, "lat": 38.899699, "fusion_lat": 0.0, "is_reserved": 0, "rental_uris": {"ios": "https://dc.lft.to/lastmile_qr_scan", "android": "https://dc.lft.to/lastmile_qr_scan"}, "fusion_lon": 0.0, "type": "electric_scooter", "bike_id": "5b8a4ae0d0fbf4419c86fd286864cb12", "name": "5b8a4ae0d0fbf4419c86fd286864cb12"}, {"lon": -77.038062, "is_disabled": 0, "lat": 38.906592333333336, "fusion_lat": 0.0, "is_reserved": 0, "rental_uris": {"ios": "https://dc.lft.to/lastmile_qr_scan", "android": "https://dc.lft.to/lastmile_qr_scan"}, "fusion_lon": 0.0, "type": "electric_scooter", "bike_id": "1c13a7cc0b986f5f0947d8997cd36857", "name": "1c13a7cc0b986f5f0947d8997cd36857"}, {"lon": -77.01782433333334, "is_disabled": 0, "lat": 38.877118833333334, "fusion_lat": 0.0, "is_reserved": 0, "rental_uris": {"ios": "https://dc.lft.to/lastmile_qr_scan", "android": "https://dc.lft.to/lastmile_qr_scan"}, "fusion_lon": 0.0, "type": "electric_scooter", "bike_id": "f732207ba61002f4ec5e0eb70044507a", "name": "f732207ba61002f4ec5e0eb70044507a"}, {"lon": -77.02537633333333, "is_disabled": 0, "lat": 38.946223833333335, "fusion_lat": 0.0, "is_reserved": 0, "rental_uris": {"ios": "https://dc.lft.to/lastmile_qr_scan", "android": "https://dc.lft.to/lastmile_qr_scan"}, "fusion_lon": 0.0, "type": "electric_scooter", "bike_id": "6ee67dfd1b288ab67d6d662cf8d0d730", "name": "6ee67dfd1b288ab67d6d662cf8d0d730"}, {"lon": -77.03377483333334, "is_disabled": 0, "lat": 38.9028285, "fusion_lat": 0.0, "is_reserved": 0, "rental_uris": {"ios": "https://dc.lft.to/lastmile_qr_scan", "android": "https://dc.lft.to/lastmile_qr_scan"}, "fusion_lon": 0.0, "type": "electric_scooter", "bike_id": "195dda6de660e2e4fa76262c391ef8ad", "name": "195dda6de660e2e4fa76262c391ef8ad"}, {"lon": -77.021966, "is_disabled": 0, "lat": 38.89609, "fusion_lat": 0.0, "is_reserved": 0, "rental_uris": {"ios": "https://dc.lft.to/lastmile_qr_scan", "android": "https://dc.lft.to/lastmile_qr_scan"}, "fusion_lon": 0.0, "type": "electric_scooter", "bike_id": "90ecb1e74c2fdc7fb42329d5ac4e9c28", "name": "90ecb1e74c2fdc7fb42329d5ac4e9c28"}, {"lon": -76.99158316666667, "is_disabled": 0, "lat": 38.859679, "fusion_lat": 0.0, "is_reserved": 0, "rental_uris": {"ios": "https://dc.lft.to/lastmile_qr_scan", "android": "https://dc.lft.to/lastmile_qr_scan"}, "fusion_lon": 0.0, "type": "electric_scooter", "bike_id": "746c5d6f6f8061ec76e82496ac32c9fc", "name": "746c5d6f6f8061ec76e82496ac32c9fc"}, {"lon": -77.02203616666667, "is_disabled": 0, "lat": 38.91543583333333, "fusion_lat": 0.0, "is_reserved": 0, "rental_uris": {"ios": "https://dc.lft.to/lastmile_qr_scan", "android": "https://dc.lft.to/lastmile_qr_scan"}, "fusion_lon": 0.0, "type": "electric_scooter", "bike_id": "4e01b99292d5972b375f34ea53dde3c5", "name": "4e01b99292d5972b375f34ea53dde3c5"}, {"lon": -77.02481916666666, "is_disabled": 0, "lat": 38.897938333333336, "fusion_lat": 0.0, "is_reserved": 0, "rental_uris": {"ios": "https://dc.lft.to/lastmile_qr_scan", "android": "https://dc.lft.to/lastmile_qr_scan"}, "fusion_lon": 0.0, "type": "electric_scooter", "bike_id": "55018e14365978a1058011313bdac544", "name": "55018e14365978a1058011313bdac544"}, {"lon": -77.03206916666667, "is_disabled": 0, "lat": 38.912007, "fusion_lat": 0.0, "is_reserved": 0, "rental_uris": {"ios": "https://dc.lft.to/lastmile_qr_scan", "android": "https://dc.lft.to/lastmile_qr_scan"}, "fusion_lon": 0.0, "type": "electric_scooter", "bike_id": "124621b981a08715a21c03f932e7dd5f", "name": "124621b981a08715a21c03f932e7dd5f"}, {"lon": -77.02489, "is_disabled": 0, "lat": 38.94184766666667, "fusion_lat": 0.0, "is_reserved": 0, "rental_uris": {"ios": "https://dc.lft.to/lastmile_qr_scan", "android": "https://dc.lft.to/lastmile_qr_scan"}, "fusion_lon": 0.0, "type": "electric_scooter", "bike_id": "a5446f64cd77b9fe34cf08618f242ed6", "name": "a5446f64cd77b9fe34cf08618f242ed6"}, {"lon": -77.01958266666666, "is_disabled": 0, "lat": 38.95651, "fusion_lat": 0.0, "is_reserved": 0, "rental_uris": {"ios": "https://dc.lft.to/lastmile_qr_scan", "android": "https://dc.lft.to/lastmile_qr_scan"}, "fusion_lon": 0.0, "type": "electric_scooter", "bike_id": "10e74840caff63aa5af5c1d9fe68c9b2", "name": "10e74840caff63aa5af5c1d9fe68c9b2"}, {"lon": -77.03976483333334, "is_disabled": 0, "lat": 38.905982, "fusion_lat": 0.0, "is_reserved": 0, "rental_uris": {"ios": "https://dc.lft.to/lastmile_qr_scan", "android": "https://dc.lft.to/lastmile_qr_scan"}, "fusion_lon": 0.0, "type": "electric_scooter", "bike_id": "d852c3ba0c28cd7c5f17281e158ab4f1", "name": "d852c3ba0c28cd7c5f17281e158ab4f1"}, {"lon": -77.075326, "is_disabled": 0, "lat": 38.908828166666666, "fusion_lat": 0.0, "is_reserved": 0, "rental_uris": {"ios": "https://dc.lft.to/lastmile_qr_scan", "android": "https://dc.lft.to/lastmile_qr_scan"}, "fusion_lon": 0.0, "type": "electric_scooter", "bike_id": "42f7cbf0a17519e968335393503b1afa", "name": "42f7cbf0a17519e968335393503b1afa"}, {"lon": -77.028423, "is_disabled": 0, "lat": 38.942559333333335, "fusion_lat": 0.0, "is_reserved": 0, "rental_uris": {"ios": "https://dc.lft.to/lastmile_qr_scan", "android": "https://dc.lft.to/lastmile_qr_scan"}, "fusion_lon": 0.0, "type": "electric_scooter", "bike_id": "5293cf524e83fc34b71919a490ceae5d", "name": "5293cf524e83fc34b71919a490ceae5d"}, {"lon": -77.04230033333333, "is_disabled": 0, "lat": 38.9110275, "fusion_lat": 0.0, "is_reserved": 0, "rental_uris": {"ios": "https://dc.lft.to/lastmile_qr_scan", "android": "https://dc.lft.to/lastmile_qr_scan"}, "fusion_lon": 0.0, "type": "electric_scooter", "bike_id": "c701e0901099f8b7dae3cdbf54394646", "name": "c701e0901099f8b7dae3cdbf54394646"}, {"lon": -77.02950333333334, "is_disabled": 0, "lat": 38.896271666666664, "fusion_lat": 0.0, "is_reserved": 0, "rental_uris": {"ios": "https://dc.lft.to/lastmile_qr_scan", "android": "https://dc.lft.to/lastmile_qr_scan"}, "fusion_lon": 0.0, "type": "electric_scooter", "bike_id": "267353cc2f6ed0a06b6f2fef889541eb", "name": "267353cc2f6ed0a06b6f2fef889541eb"}, {"lon": -77.01189366666667, "is_disabled": 0, "lat": 38.8979195, "fusion_lat": 0.0, "is_reserved": 0, "rental_uris": {"ios": "https://dc.lft.to/lastmile_qr_scan", "android": "https://dc.lft.to/lastmile_qr_scan"}, "fusion_lon": 0.0, "type": "electric_scooter", "bike_id": "6faa678ece7400f7260e6ad4b978c560", "name": "6faa678ece7400f7260e6ad4b978c560"}, {"lon": -77.050285, "is_disabled": 0, "lat": 38.923639333333334, "fusion_lat": 0.0, "is_reserved": 0, "rental_uris": {"ios": "https://dc.lft.to/lastmile_qr_scan", "android": "https://dc.lft.to/lastmile_qr_scan"}, "fusion_lon": 0.0, "type": "electric_scooter", "bike_id": "985a6846aa1ab3a62fdf9455d1fd3af6", "name": "985a6846aa1ab3a62fdf9455d1fd3af6"}, {"lon": -77.03172533333333, "is_disabled": 0, "lat": 38.89736633333333, "fusion_lat": 0.0, "is_reserved": 0, "rental_uris": {"ios": "https://dc.lft.to/lastmile_qr_scan", "android": "https://dc.lft.to/lastmile_qr_scan"}, "fusion_lon": 0.0, "type": "electric_scooter", "bike_id": "62e8cb84568fbbfff4aaec11b077ea48", "name": "62e8cb84568fbbfff4aaec11b077ea48"}, {"lon": -77.03219733333333, "is_disabled": 0, "lat": 38.892231833333334, "fusion_lat": 0.0, "is_reserved": 0, "rental_uris": {"ios": "https://dc.lft.to/lastmile_qr_scan", "android": "https://dc.lft.to/lastmile_qr_scan"}, "fusion_lon": 0.0, "type": "electric_scooter", "bike_id": "9eccb69ed4f11578ff07970065ca1ec5", "name": "9eccb69ed4f11578ff07970065ca1ec5"}, {"lon": -76.99011233333333, "is_disabled": 0, "lat": 38.86506883333333, "fusion_lat": 0.0, "is_reserved": 0, "rental_uris": {"ios": "https://dc.lft.to/lastmile_qr_scan", "android": "https://dc.lft.to/lastmile_qr_scan"}, "fusion_lon": 0.0, "type": "electric_scooter", "bike_id": "e1321f264aa463b0c98567757d5ebd1d", "name": "e1321f264aa463b0c98567757d5ebd1d"}, {"lon": -77.00584066666667, "is_disabled": 0, "lat": 38.90524716666667, "fusion_lat": 0.0, "is_reserved": 0, "rental_uris": {"ios": "https://dc.lft.to/lastmile_qr_scan", "android": "https://dc.lft.to/lastmile_qr_scan"}, "fusion_lon": 0.0, "type": "electric_scooter", "bike_id": "c53370482193dd7ffdafbb3fbe8a9027", "name": "c53370482193dd7ffdafbb3fbe8a9027"}, {"lon": -77.0359215, "is_disabled": 0, "lat": 38.90382733333333, "fusion_lat": 0.0, "is_reserved": 0, "rental_uris": {"ios": "https://dc.lft.to/lastmile_qr_scan", "android": "https://dc.lft.to/lastmile_qr_scan"}, "fusion_lon": 0.0, "type": "electric_scooter", "bike_id": "48eb46d6307603e4f4b97a9de0db4cad", "name": "48eb46d6307603e4f4b97a9de0db4cad"}, {"lon": -77.0450385, "is_disabled": 0, "lat": 38.89623483333333, "fusion_lat": 0.0, "is_reserved": 0, "rental_uris": {"ios": "https://dc.lft.to/lastmile_qr_scan", "android": "https://dc.lft.to/lastmile_qr_scan"}, "fusion_lon": 0.0, "type": "electric_scooter", "bike_id": "ed537965905604b147bbbd1a149df066", "name": "ed537965905604b147bbbd1a149df066"}, {"lon": -77.03170083333333, "is_disabled": 0, "lat": 38.914166, "fusion_lat": 0.0, "is_reserved": 0, "rental_uris": {"ios": "https://dc.lft.to/lastmile_qr_scan", "android": "https://dc.lft.to/lastmile_qr_scan"}, "fusion_lon": 0.0, "type": "electric_scooter", "bike_id": "39dd7ead6140b2e53e71bb5a7af2f3b9", "name": "39dd7ead6140b2e53e71bb5a7af2f3b9"}, {"lon": -77.0390035, "is_disabled": 0, "lat": 38.906516, "fusion_lat": 0.0, "is_reserved": 0, "rental_uris": {"ios": "https://dc.lft.to/lastmile_qr_scan", "android": "https://dc.lft.to/lastmile_qr_scan"}, "fusion_lon": 0.0, "type": "electric_scooter", "bike_id": "1e12dea5fc0cc7611aa806d4fea2c170", "name": "1e12dea5fc0cc7611aa806d4fea2c170"}, {"lon": -77.02569783333334, "is_disabled": 0, "lat": 38.887465166666665, "fusion_lat": 0.0, "is_reserved": 0, "rental_uris": {"ios": "https://dc.lft.to/lastmile_qr_scan", "android": "https://dc.lft.to/lastmile_qr_scan"}, "fusion_lon": 0.0, "type": "electric_scooter", "bike_id": "42642e12c3773bd9087f833f900b2f07", "name": "42642e12c3773bd9087f833f900b2f07"}, {"lon": -76.946422, "is_disabled": 0, "lat": 38.89863716666667, "fusion_lat": 0.0, "is_reserved": 0, "rental_uris": {"ios": "https://dc.lft.to/lastmile_qr_scan", "android": "https://dc.lft.to/lastmile_qr_scan"}, "fusion_lon": 0.0, "type": "electric_scooter", "bike_id": "13ac8a807037e8f421a37bc55549b8da", "name": "13ac8a807037e8f421a37bc55549b8da"}, {"lon": -77.03272766666667, "is_disabled": 0, "lat": 38.90967283333333, "fusion_lat": 0.0, "is_reserved": 0, "rental_uris": {"ios": "https://dc.lft.to/lastmile_qr_scan", "android": "https://dc.lft.to/lastmile_qr_scan"}, "fusion_lon": 0.0, "type": "electric_scooter", "bike_id": "40eb9f51c071653d42d8ec44b041e535", "name": "40eb9f51c071653d42d8ec44b041e535"}, {"lon": -77.035759, "is_disabled": 0, "lat": 38.9111605, "fusion_lat": 0.0, "is_reserved": 0, "rental_uris": {"ios": "https://dc.lft.to/lastmile_qr_scan", "android": "https://dc.lft.to/lastmile_qr_scan"}, "fusion_lon": 0.0, "type": "electric_scooter", "bike_id": "616c5c254b0142d6af9c3811dd4c5b60", "name": "616c5c254b0142d6af9c3811dd4c5b60"}, {"lon": -77.03730483333334, "is_disabled": 0, "lat": 38.92656233333334, "fusion_lat": 0.0, "is_reserved": 0, "rental_uris": {"ios": "https://dc.lft.to/lastmile_qr_scan", "android": "https://dc.lft.to/lastmile_qr_scan"}, "fusion_lon": 0.0, "type": "electric_scooter", "bike_id": "b652288687796d7e778d426404c8040e", "name": "b652288687796d7e778d426404c8040e"}, {"lon": -77.02588183333333, "is_disabled": 0, "lat": 38.892357833333335, "fusion_lat": 0.0, "is_reserved": 0, "rental_uris": {"ios": "https://dc.lft.to/lastmile_qr_scan", "android": "https://dc.lft.to/lastmile_qr_scan"}, "fusion_lon": 0.0, "type": "electric_scooter", "bike_id": "8f5be624e10bcfca2c5d5a34016200a7", "name": "8f5be624e10bcfca2c5d5a34016200a7"}, {"lon": -77.05493966666667, "is_disabled": 0, "lat": 39.014762, "fusion_lat": 0.0, "is_reserved": 0, "rental_uris": {"ios": "https://dc.lft.to/lastmile_qr_scan", "android": "https://dc.lft.to/lastmile_qr_scan"}, "fusion_lon": 0.0, "type": "electric_bike", "bike_id": "80e7034b8252b8340d0b31d2c360b134", "name": "80e7034b8252b8340d0b31d2c360b134"}, {"lon": -77.04560116666667, "is_disabled": 0, "lat": 38.914800666666665, "fusion_lat": 0.0, "is_reserved": 0, "rental_uris": {"ios": "https://dc.lft.to/lastmile_qr_scan", "android": "https://dc.lft.to/lastmile_qr_scan"}, "fusion_lon": 0.0, "type": "electric_scooter", "bike_id": "a574812fcbcb3e84d561824222d23679", "name": "a574812fcbcb3e84d561824222d23679"}, {"lon": -77.02491083333334, "is_disabled": 0, "lat": 38.957784, "fusion_lat": 0.0, "is_reserved": 0, "rental_uris": {"ios": "https://dc.lft.to/lastmile_qr_scan", "android": "https://dc.lft.to/lastmile_qr_scan"}, "fusion_lon": 0.0, "type": "electric_scooter", "bike_id": "51d8fdbcb50805716f344f0fead05b4a", "name": "51d8fdbcb50805716f344f0fead05b4a"}, {"lon": -77.041799, "is_disabled": 0, "lat": 38.9002115, "fusion_lat": 0.0, "is_reserved": 0, "rental_uris": {"ios": "https://dc.lft.to/lastmile_qr_scan", "android": "https://dc.lft.to/lastmile_qr_scan"}, "fusion_lon": 0.0, "type": "electric_scooter", "bike_id": "4a277c4c83d79472e043986ff449ed54", "name": "4a277c4c83d79472e043986ff449ed54"}, {"lon": -77.02119116666667, "is_disabled": 0, "lat": 38.923574333333335, "fusion_lat": 0.0, "is_reserved": 0, "rental_uris": {"ios": "https://dc.lft.to/lastmile_qr_scan", "android": "https://dc.lft.to/lastmile_qr_scan"}, "fusion_lon": 0.0, "type": "electric_scooter", "bike_id": "d924d5de6fc989059d4b959a612474cb", "name": "d924d5de6fc989059d4b959a612474cb"}, {"lon": -77.00056333333333, "is_disabled": 0, "lat": 38.87686816666667, "fusion_lat": 0.0, "is_reserved": 0, "rental_uris": {"ios": "https://dc.lft.to/lastmile_qr_scan", "android": "https://dc.lft.to/lastmile_qr_scan"}, "fusion_lon": 0.0, "type": "electric_scooter", "bike_id": "13f14c7f10f0ab6e15565460706b3d31", "name": "13f14c7f10f0ab6e15565460706b3d31"}, {"lon": -77.03184333333333, "is_disabled": 0, "lat": 38.90976533333333, "fusion_lat": 0.0, "is_reserved": 0, "rental_uris": {"ios": "https://dc.lft.to/lastmile_qr_scan", "android": "https://dc.lft.to/lastmile_qr_scan"}, "fusion_lon": 0.0, "type": "electric_scooter", "bike_id": "65fc6d6a1146ed8aecfab45c469c5f90", "name": "65fc6d6a1146ed8aecfab45c469c5f90"}, {"lon": -77.02093533333333, "is_disabled": 0, "lat": 38.884986166666664, "fusion_lat": 0.0, "is_reserved": 0, "rental_uris": {"ios": "https://dc.lft.to/lastmile_qr_scan", "android": "https://dc.lft.to/lastmile_qr_scan"}, "fusion_lon": 0.0, "type": "electric_scooter", "bike_id": "0b2471a792d4879316fec6d3b88362c5", "name": "0b2471a792d4879316fec6d3b88362c5"}, {"lon": -77.0294495, "is_disabled": 0, "lat": 38.90146883333333, "fusion_lat": 0.0, "is_reserved": 0, "rental_uris": {"ios": "https://dc.lft.to/lastmile_qr_scan", "android": "https://dc.lft.to/lastmile_qr_scan"}, "fusion_lon": 0.0, "type": "electric_scooter", "bike_id": "46536a6fab72c7e73d74e69f9672cb96", "name": "46536a6fab72c7e73d74e69f9672cb96"}, {"lon": -76.95418183333334, "is_disabled": 0, "lat": 38.884217666666665, "fusion_lat": 0.0, "is_reserved": 0, "rental_uris": {"ios": "https://dc.lft.to/lastmile_qr_scan", "android": "https://dc.lft.to/lastmile_qr_scan"}, "fusion_lon": 0.0, "type": "electric_bike", "bike_id": "e14e59bebca2fae1a8a1aacb3e424012", "name": "e14e59bebca2fae1a8a1aacb3e424012"}, {"lon": -77.041742, "is_disabled": 0, "lat": 38.9189865, "fusion_lat": 0.0, "is_reserved": 0, "rental_uris": {"ios": "https://dc.lft.to/lastmile_qr_scan", "android": "https://dc.lft.to/lastmile_qr_scan"}, "fusion_lon": 0.0, "type": "electric_scooter", "bike_id": "7ababc2ed5615db1dd1d4b5511ad5358", "name": "7ababc2ed5615db1dd1d4b5511ad5358"}, {"lon": -77.00336666666666, "is_disabled": 0, "lat": 38.887387833333335, "fusion_lat": 0.0, "is_reserved": 0, "rental_uris": {"ios": "https://dc.lft.to/lastmile_qr_scan", "android": "https://dc.lft.to/lastmile_qr_scan"}, "fusion_lon": 0.0, "type": "electric_scooter", "bike_id": "7ec018e0992ec97fb7eace1d8dd503d5", "name": "7ec018e0992ec97fb7eace1d8dd503d5"}, {"lon": -77.06185833333333, "is_disabled": 0, "lat": 38.903402, "fusion_lat": 0.0, "is_reserved": 0, "rental_uris": {"ios": "https://dc.lft.to/lastmile_qr_scan", "android": "https://dc.lft.to/lastmile_qr_scan"}, "fusion_lon": 0.0, "type": "electric_scooter", "bike_id": "4f84d8fae403363809eb71a136dc1429", "name": "4f84d8fae403363809eb71a136dc1429"}, {"lon": -76.998027, "is_disabled": 0, "lat": 38.908696166666665, "fusion_lat": 0.0, "is_reserved": 0, "rental_uris": {"ios": "https://dc.lft.to/lastmile_qr_scan", "android": "https://dc.lft.to/lastmile_qr_scan"}, "fusion_lon": 0.0, "type": "electric_scooter", "bike_id": "735deb1a28c1d20c32ca40bb690b6a04", "name": "735deb1a28c1d20c32ca40bb690b6a04"}, {"lon": -77.02641316666667, "is_disabled": 0, "lat": 38.89860783333334, "fusion_lat": 0.0, "is_reserved": 0, "rental_uris": {"ios": "https://dc.lft.to/lastmile_qr_scan", "android": "https://dc.lft.to/lastmile_qr_scan"}, "fusion_lon": 0.0, "type": "electric_scooter", "bike_id": "037ecc2ed2575aeb0248a2cbc592e15d", "name": "037ecc2ed2575aeb0248a2cbc592e15d"}, {"lon": -76.98061733333333, "is_disabled": 0, "lat": 38.901150666666666, "fusion_lat": 0.0, "is_reserved": 0, "rental_uris": {"ios": "https://dc.lft.to/lastmile_qr_scan", "android": "https://dc.lft.to/lastmile_qr_scan"}, "fusion_lon": 0.0, "type": "electric_bike", "bike_id": "7922ae064b10a60eae292194647aeecb", "name": "7922ae064b10a60eae292194647aeecb"}, {"lon": -77.03263716666666, "is_disabled": 0, "lat": 38.90964566666667, "fusion_lat": 0.0, "is_reserved": 0, "rental_uris": {"ios": "https://dc.lft.to/lastmile_qr_scan", "android": "https://dc.lft.to/lastmile_qr_scan"}, "fusion_lon": 0.0, "type": "electric_scooter", "bike_id": "b8ae4a0b1026747352e9d1cd26d8e8d5", "name": "b8ae4a0b1026747352e9d1cd26d8e8d5"}, {"lon": -77.00557966666666, "is_disabled": 0, "lat": 38.87468883333333, "fusion_lat": 0.0, "is_reserved": 0, "rental_uris": {"ios": "https://dc.lft.to/lastmile_qr_scan", "android": "https://dc.lft.to/lastmile_qr_scan"}, "fusion_lon": 0.0, "type": "electric_scooter", "bike_id": "01314702138028661a190d33b4b7e103", "name": "01314702138028661a190d33b4b7e103"}, {"lon": -77.0351865, "is_disabled": 0, "lat": 38.92169783333333, "fusion_lat": 0.0, "is_reserved": 0, "rental_uris": {"ios": "https://dc.lft.to/lastmile_qr_scan", "android": "https://dc.lft.to/lastmile_qr_scan"}, "fusion_lon": 0.0, "type": "electric_scooter", "bike_id": "6bb19b5eb6d4985d06da1c1aefd5da44", "name": "6bb19b5eb6d4985d06da1c1aefd5da44"}, {"lon": -77.0412155, "is_disabled": 0, "lat": 38.905712333333334, "fusion_lat": 0.0, "is_reserved": 0, "rental_uris": {"ios": "https://dc.lft.to/lastmile_qr_scan", "android": "https://dc.lft.to/lastmile_qr_scan"}, "fusion_lon": 0.0, "type": "electric_scooter", "bike_id": "0523a6b76f000eeb5af6053e423c9378", "name": "0523a6b76f000eeb5af6053e423c9378"}, {"lon": -77.01735816666667, "is_disabled": 0, "lat": 38.88742166666667, "fusion_lat": 0.0, "is_reserved": 0, "rental_uris": {"ios": "https://dc.lft.to/lastmile_qr_scan", "android": "https://dc.lft.to/lastmile_qr_scan"}, "fusion_lon": 0.0, "type": "electric_scooter", "bike_id": "10da6de284a6a7be395b6a5c14f1d7ae", "name": "10da6de284a6a7be395b6a5c14f1d7ae"}, {"lon": -77.03234733333333, "is_disabled": 0, "lat": 38.901283666666664, "fusion_lat": 0.0, "is_reserved": 0, "rental_uris": {"ios": "https://dc.lft.to/lastmile_qr_scan", "android": "https://dc.lft.to/lastmile_qr_scan"}, "fusion_lon": 0.0, "type": "electric_scooter", "bike_id": "748d86c03dafb62fc783b52e3f64df38", "name": "748d86c03dafb62fc783b52e3f64df38"}, {"lon": -77.04211633333334, "is_disabled": 0, "lat": 38.92068483333333, "fusion_lat": 0.0, "is_reserved": 0, "rental_uris": {"ios": "https://dc.lft.to/lastmile_qr_scan", "android": "https://dc.lft.to/lastmile_qr_scan"}, "fusion_lon": 0.0, "type": "electric_scooter", "bike_id": "572545d6d2ebc1dd33c7f9d3b74d5013", "name": "572545d6d2ebc1dd33c7f9d3b74d5013"}, {"lon": -77.01777016666666, "is_disabled": 0, "lat": 38.88713766666667, "fusion_lat": 0.0, "is_reserved": 0, "rental_uris": {"ios": "https://dc.lft.to/lastmile_qr_scan", "android": "https://dc.lft.to/lastmile_qr_scan"}, "fusion_lon": 0.0, "type": "electric_scooter", "bike_id": "ed99686d944d25b9f6b0ee45e974ebed", "name": "ed99686d944d25b9f6b0ee45e974ebed"}, {"lon": -77.03667483333334, "is_disabled": 0, "lat": 38.9225905, "fusion_lat": 0.0, "is_reserved": 0, "rental_uris": {"ios": "https://dc.lft.to/lastmile_qr_scan", "android": "https://dc.lft.to/lastmile_qr_scan"}, "fusion_lon": 0.0, "type": "electric_scooter", "bike_id": "33915af1d295c663aecb4a09946f59d2", "name": "33915af1d295c663aecb4a09946f59d2"}, {"lon": -77.08865233333333, "is_disabled": 0, "lat": 38.916362, "fusion_lat": 0.0, "is_reserved": 0, "rental_uris": {"ios": "https://dc.lft.to/lastmile_qr_scan", "android": "https://dc.lft.to/lastmile_qr_scan"}, "fusion_lon": 0.0, "type": "electric_scooter", "bike_id": "ce35f9b9cbf693500c55213ae25fe6f3", "name": "ce35f9b9cbf693500c55213ae25fe6f3"}, {"lon": -77.025063, "is_disabled": 0, "lat": 38.919143, "fusion_lat": 0.0, "is_reserved": 0, "rental_uris": {"ios": "https://dc.lft.to/lastmile_qr_scan", "android": "https://dc.lft.to/lastmile_qr_scan"}, "fusion_lon": 0.0, "type": "electric_scooter", "bike_id": "6fc1e5320198396da785fad8f25f8412", "name": "6fc1e5320198396da785fad8f25f8412"}, {"lon": -77.0724375, "is_disabled": 0, "lat": 38.939489, "fusion_lat": 0.0, "is_reserved": 0, "rental_uris": {"ios": "https://dc.lft.to/lastmile_qr_scan", "android": "https://dc.lft.to/lastmile_qr_scan"}, "fusion_lon": 0.0, "type": "electric_scooter", "bike_id": "ee3549229747c87694bff94b2876cc04", "name": "ee3549229747c87694bff94b2876cc04"}, {"lon": -77.03333233333333, "is_disabled": 0, "lat": 38.91714666666667, "fusion_lat": 0.0, "is_reserved": 0, "rental_uris": {"ios": "https://dc.lft.to/lastmile_qr_scan", "android": "https://dc.lft.to/lastmile_qr_scan"}, "fusion_lon": 0.0, "type": "electric_scooter", "bike_id": "3802764c02260a6576a7c792da680bce", "name": "3802764c02260a6576a7c792da680bce"}, {"lon": -77.0335165, "is_disabled": 0, "lat": 38.8923695, "fusion_lat": 0.0, "is_reserved": 0, "rental_uris": {"ios": "https://dc.lft.to/lastmile_qr_scan", "android": "https://dc.lft.to/lastmile_qr_scan"}, "fusion_lon": 0.0, "type": "electric_scooter", "bike_id": "221ffea9c0ea472352cf9179600f55d9", "name": "221ffea9c0ea472352cf9179600f55d9"}, {"lon": -77.02227, "is_disabled": 0, "lat": 38.91270133333333, "fusion_lat": 0.0, "is_reserved": 0, "rental_uris": {"ios": "https://dc.lft.to/lastmile_qr_scan", "android": "https://dc.lft.to/lastmile_qr_scan"}, "fusion_lon": 0.0, "type": "electric_scooter", "bike_id": "e8d706c47a36cbd8fb428c413012e696", "name": "e8d706c47a36cbd8fb428c413012e696"}, {"lon": -77.00886566666667, "is_disabled": 0, "lat": 38.90066216666666, "fusion_lat": 0.0, "is_reserved": 0, "rental_uris": {"ios": "https://dc.lft.to/lastmile_qr_scan", "android": "https://dc.lft.to/lastmile_qr_scan"}, "fusion_lon": 0.0, "type": "electric_scooter", "bike_id": "9cf9b7187489338748ec4cb7bb89ec98", "name": "9cf9b7187489338748ec4cb7bb89ec98"}, {"lon": -77.03187966666667, "is_disabled": 0, "lat": 38.899577666666666, "fusion_lat": 0.0, "is_reserved": 0, "rental_uris": {"ios": "https://dc.lft.to/lastmile_qr_scan", "android": "https://dc.lft.to/lastmile_qr_scan"}, "fusion_lon": 0.0, "type": "electric_scooter", "bike_id": "f6a0b6461268bed14f34012a7cc66ffe", "name": "f6a0b6461268bed14f34012a7cc66ffe"}, {"lon": -77.03176116666667, "is_disabled": 0, "lat": 38.9159005, "fusion_lat": 0.0, "is_reserved": 0, "rental_uris": {"ios": "https://dc.lft.to/lastmile_qr_scan", "android": "https://dc.lft.to/lastmile_qr_scan"}, "fusion_lon": 0.0, "type": "electric_scooter", "bike_id": "89f9e7adf4ccbbf790657594f8e4ac77", "name": "89f9e7adf4ccbbf790657594f8e4ac77"}, {"lon": -77.04026533333334, "is_disabled": 0, "lat": 38.91711883333333, "fusion_lat": 0.0, "is_reserved": 0, "rental_uris": {"ios": "https://dc.lft.to/lastmile_qr_scan", "android": "https://dc.lft.to/lastmile_qr_scan"}, "fusion_lon": 0.0, "type": "electric_scooter", "bike_id": "d1736a09a6b46ef39ad219f3812587c9", "name": "d1736a09a6b46ef39ad219f3812587c9"}, {"lon": -77.04294666666667, "is_disabled": 0, "lat": 38.92339233333333, "fusion_lat": 0.0, "is_reserved": 0, "rental_uris": {"ios": "https://dc.lft.to/lastmile_qr_scan", "android": "https://dc.lft.to/lastmile_qr_scan"}, "fusion_lon": 0.0, "type": "electric_scooter", "bike_id": "78e8cf3af57f38442a24acd5eea2d884", "name": "78e8cf3af57f38442a24acd5eea2d884"}, {"lon": -76.9204675, "is_disabled": 0, "lat": 38.8973645, "fusion_lat": 0.0, "is_reserved": 0, "rental_uris": {"ios": "https://dc.lft.to/lastmile_qr_scan", "android": "https://dc.lft.to/lastmile_qr_scan"}, "fusion_lon": 0.0, "type": "electric_bike", "bike_id": "5f853ecfe515776ecad78b85847d7aad", "name": "5f853ecfe515776ecad78b85847d7aad"}, {"lon": -77.02116933333333, "is_disabled": 0, "lat": 38.917377, "fusion_lat": 0.0, "is_reserved": 0, "rental_uris": {"ios": "https://dc.lft.to/lastmile_qr_scan", "android": "https://dc.lft.to/lastmile_qr_scan"}, "fusion_lon": 0.0, "type": "electric_scooter", "bike_id": "3ee8c9a7925f2b62673a847f934bebb3", "name": "3ee8c9a7925f2b62673a847f934bebb3"}, {"lon": -77.02769866666667, "is_disabled": 0, "lat": 38.8962055, "fusion_lat": 0.0, "is_reserved": 0, "rental_uris": {"ios": "https://dc.lft.to/lastmile_qr_scan", "android": "https://dc.lft.to/lastmile_qr_scan"}, "fusion_lon": 0.0, "type": "electric_scooter", "bike_id": "5ed8baa0710170cd6c2465a0a137f908", "name": "5ed8baa0710170cd6c2465a0a137f908"}, {"lon": -77.032105, "is_disabled": 0, "lat": 38.914709, "fusion_lat": 0.0, "is_reserved": 0, "rental_uris": {"ios": "https://dc.lft.to/lastmile_qr_scan", "android": "https://dc.lft.to/lastmile_qr_scan"}, "fusion_lon": 0.0, "type": "electric_scooter", "bike_id": "646c92cbe3026b49edfcfd5ff14f6ae0", "name": "646c92cbe3026b49edfcfd5ff14f6ae0"}, {"lon": -77.01355166666667, "is_disabled": 0, "lat": 38.9191485, "fusion_lat": 0.0, "is_reserved": 0, "rental_uris": {"ios": "https://dc.lft.to/lastmile_qr_scan", "android": "https://dc.lft.to/lastmile_qr_scan"}, "fusion_lon": 0.0, "type": "electric_scooter", "bike_id": "6de0f5e5201aa83516d7c4395b7db0c9", "name": "6de0f5e5201aa83516d7c4395b7db0c9"}, {"lon": -77.04188716666667, "is_disabled": 0, "lat": 38.898016, "fusion_lat": 0.0, "is_reserved": 0, "rental_uris": {"ios": "https://dc.lft.to/lastmile_qr_scan", "android": "https://dc.lft.to/lastmile_qr_scan"}, "fusion_lon": 0.0, "type": "electric_scooter", "bike_id": "e176ed2d694a8ab01f698a2093900c18", "name": "e176ed2d694a8ab01f698a2093900c18"}, {"lon": -77.02240466666667, "is_disabled": 0, "lat": 38.891936333333334, "fusion_lat": 0.0, "is_reserved": 0, "rental_uris": {"ios": "https://dc.lft.to/lastmile_qr_scan", "android": "https://dc.lft.to/lastmile_qr_scan"}, "fusion_lon": 0.0, "type": "electric_scooter", "bike_id": "084c5da24a13b35d8b035d5ad87fb77c", "name": "084c5da24a13b35d8b035d5ad87fb77c"}, {"lon": -77.02633433333334, "is_disabled": 0, "lat": 38.896664, "fusion_lat": 0.0, "is_reserved": 0, "rental_uris": {"ios": "https://dc.lft.to/lastmile_qr_scan", "android": "https://dc.lft.to/lastmile_qr_scan"}, "fusion_lon": 0.0, "type": "electric_scooter", "bike_id": "5a688c7c96019148acbf7a48fe354d95", "name": "5a688c7c96019148acbf7a48fe354d95"}, {"lon": -77.0449425, "is_disabled": 0, "lat": 38.90358283333333, "fusion_lat": 0.0, "is_reserved": 0, "rental_uris": {"ios": "https://dc.lft.to/lastmile_qr_scan", "android": "https://dc.lft.to/lastmile_qr_scan"}, "fusion_lon": 0.0, "type": "electric_scooter", "bike_id": "be86b051552e2d7afdaa92cebed9b69f", "name": "be86b051552e2d7afdaa92cebed9b69f"}, {"lon": -77.04170866666666, "is_disabled": 0, "lat": 38.91832333333333, "fusion_lat": 0.0, "is_reserved": 0, "rental_uris": {"ios": "https://dc.lft.to/lastmile_qr_scan", "android": "https://dc.lft.to/lastmile_qr_scan"}, "fusion_lon": 0.0, "type": "electric_scooter", "bike_id": "af97e014afd6284bbb22a3f0de3b037b", "name": "af97e014afd6284bbb22a3f0de3b037b"}, {"lon": -77.0440165, "is_disabled": 0, "lat": 38.900111333333335, "fusion_lat": 0.0, "is_reserved": 0, "rental_uris": {"ios": "https://dc.lft.to/lastmile_qr_scan", "android": "https://dc.lft.to/lastmile_qr_scan"}, "fusion_lon": 0.0, "type": "electric_scooter", "bike_id": "c3d2a3e385870abd8f86a15b1e51db6c", "name": "c3d2a3e385870abd8f86a15b1e51db6c"}, {"lon": -76.98111, "is_disabled": 0, "lat": 38.914707166666666, "fusion_lat": 0.0, "is_reserved": 0, "rental_uris": {"ios": "https://dc.lft.to/lastmile_qr_scan", "android": "https://dc.lft.to/lastmile_qr_scan"}, "fusion_lon": 0.0, "type": "electric_scooter", "bike_id": "1edf75b62e089e3d6358c86f2d9e4b69", "name": "1edf75b62e089e3d6358c86f2d9e4b69"}, {"lon": -77.03182333333334, "is_disabled": 0, "lat": 38.916379, "fusion_lat": 0.0, "is_reserved": 0, "rental_uris": {"ios": "https://dc.lft.to/lastmile_qr_scan", "android": "https://dc.lft.to/lastmile_qr_scan"}, "fusion_lon": 0.0, "type": "electric_scooter", "bike_id": "7f9754571cdb865f52088b03b16e521f", "name": "7f9754571cdb865f52088b03b16e521f"}, {"lon": -77.02606066666667, "is_disabled": 0, "lat": 38.91716233333333, "fusion_lat": 0.0, "is_reserved": 0, "rental_uris": {"ios": "https://dc.lft.to/lastmile_qr_scan", "android": "https://dc.lft.to/lastmile_qr_scan"}, "fusion_lon": 0.0, "type": "electric_scooter", "bike_id": "2ad3bde9d931cc1409f70c43782444ed", "name": "2ad3bde9d931cc1409f70c43782444ed"}, {"lon": -77.03429783333333, "is_disabled": 0, "lat": 38.91914766666667, "fusion_lat": 0.0, "is_reserved": 0, "rental_uris": {"ios": "https://dc.lft.to/lastmile_qr_scan", "android": "https://dc.lft.to/lastmile_qr_scan"}, "fusion_lon": 0.0, "type": "electric_scooter", "bike_id": "2f6cbac9ca0a280faabfd7b098dd6311", "name": "2f6cbac9ca0a280faabfd7b098dd6311"}, {"lon": -77.035648, "is_disabled": 0, "lat": 38.90824683333334, "fusion_lat": 0.0, "is_reserved": 0, "rental_uris": {"ios": "https://dc.lft.to/lastmile_qr_scan", "android": "https://dc.lft.to/lastmile_qr_scan"}, "fusion_lon": 0.0, "type": "electric_scooter", "bike_id": "65dea04af88e4434d495e8d3ff9d2982", "name": "65dea04af88e4434d495e8d3ff9d2982"}, {"lon": -76.994033, "is_disabled": 0, "lat": 38.91004683333333, "fusion_lat": 0.0, "is_reserved": 0, "rental_uris": {"ios": "https://dc.lft.to/lastmile_qr_scan", "android": "https://dc.lft.to/lastmile_qr_scan"}, "fusion_lon": 0.0, "type": "electric_scooter", "bike_id": "6e32d3a5bbbcb97dc85894d2c05340ad", "name": "6e32d3a5bbbcb97dc85894d2c05340ad"}, {"lon": -77.021401, "is_disabled": 0, "lat": 38.8962185, "fusion_lat": 0.0, "is_reserved": 0, "rental_uris": {"ios": "https://dc.lft.to/lastmile_qr_scan", "android": "https://dc.lft.to/lastmile_qr_scan"}, "fusion_lon": 0.0, "type": "electric_scooter", "bike_id": "82a46c8d4101127b6eced96f68853fd8", "name": "82a46c8d4101127b6eced96f68853fd8"}, {"lon": -76.9763925, "is_disabled": 0, "lat": 38.88685733333333, "fusion_lat": 0.0, "is_reserved": 0, "rental_uris": {"ios": "https://dc.lft.to/lastmile_qr_scan", "android": "https://dc.lft.to/lastmile_qr_scan"}, "fusion_lon": 0.0, "type": "electric_scooter", "bike_id": "e3511ed307583727fcf4fa645fa8d026", "name": "e3511ed307583727fcf4fa645fa8d026"}, {"lon": -77.0079615, "is_disabled": 0, "lat": 38.94916516666667, "fusion_lat": 0.0, "is_reserved": 0, "rental_uris": {"ios": "https://dc.lft.to/lastmile_qr_scan", "android": "https://dc.lft.to/lastmile_qr_scan"}, "fusion_lon": 0.0, "type": "electric_bike", "bike_id": "40d1f92ab84661ff528c7639d4474172", "name": "40d1f92ab84661ff528c7639d4474172"}, {"lon": -76.946396, "is_disabled": 0, "lat": 38.89857683333334, "fusion_lat": 0.0, "is_reserved": 0, "rental_uris": {"ios": "https://dc.lft.to/lastmile_qr_scan", "android": "https://dc.lft.to/lastmile_qr_scan"}, "fusion_lon": 0.0, "type": "electric_scooter", "bike_id": "ff8eea6fb0ecf27f5f07f1e7f575e27a", "name": "ff8eea6fb0ecf27f5f07f1e7f575e27a"}, {"lon": -77.041448, "is_disabled": 0, "lat": 38.92293633333333, "fusion_lat": 0.0, "is_reserved": 0, "rental_uris": {"ios": "https://dc.lft.to/lastmile_qr_scan", "android": "https://dc.lft.to/lastmile_qr_scan"}, "fusion_lon": 0.0, "type": "electric_scooter", "bike_id": "9f028dc57526cb7bc4d8efa33235cff9", "name": "9f028dc57526cb7bc4d8efa33235cff9"}, {"lon": -77.0359615, "is_disabled": 0, "lat": 38.90384433333333, "fusion_lat": 0.0, "is_reserved": 0, "rental_uris": {"ios": "https://dc.lft.to/lastmile_qr_scan", "android": "https://dc.lft.to/lastmile_qr_scan"}, "fusion_lon": 0.0, "type": "electric_scooter", "bike_id": "98f01b5ddfceac93a85084922905e041", "name": "98f01b5ddfceac93a85084922905e041"}, {"lon": -76.96528816666667, "is_disabled": 0, "lat": 38.87626566666667, "fusion_lat": 0.0, "is_reserved": 0, "rental_uris": {"ios": "https://dc.lft.to/lastmile_qr_scan", "android": "https://dc.lft.to/lastmile_qr_scan"}, "fusion_lon": 0.0, "type": "electric_scooter", "bike_id": "d6c2404f0319964af8045d731d670183", "name": "d6c2404f0319964af8045d731d670183"}, {"lon": -77.03983283333334, "is_disabled": 0, "lat": 38.8986095, "fusion_lat": 0.0, "is_reserved": 0, "rental_uris": {"ios": "https://dc.lft.to/lastmile_qr_scan", "android": "https://dc.lft.to/lastmile_qr_scan"}, "fusion_lon": 0.0, "type": "electric_bike", "bike_id": "c053b17e5d14c332e749849e9d5a19b2", "name": "c053b17e5d14c332e749849e9d5a19b2"}, {"lon": -76.988257, "is_disabled": 0, "lat": 38.9007085, "fusion_lat": 0.0, "is_reserved": 0, "rental_uris": {"ios": "https://dc.lft.to/lastmile_qr_scan", "android": "https://dc.lft.to/lastmile_qr_scan"}, "fusion_lon": 0.0, "type": "electric_scooter", "bike_id": "fc03c4bea8effda53f98ec3c47050a41", "name": "fc03c4bea8effda53f98ec3c47050a41"}, {"lon": -77.0208655, "is_disabled": 0, "lat": 38.88183333333333, "fusion_lat": 0.0, "is_reserved": 0, "rental_uris": {"ios": "https://dc.lft.to/lastmile_qr_scan", "android": "https://dc.lft.to/lastmile_qr_scan"}, "fusion_lon": 0.0, "type": "electric_scooter", "bike_id": "180fe3fca4a08d67a47c4f38284494d4", "name": "180fe3fca4a08d67a47c4f38284494d4"}, {"lon": -77.0451605, "is_disabled": 0, "lat": 38.903635333333334, "fusion_lat": 0.0, "is_reserved": 0, "rental_uris": {"ios": "https://dc.lft.to/lastmile_qr_scan", "android": "https://dc.lft.to/lastmile_qr_scan"}, "fusion_lon": 0.0, "type": "electric_scooter", "bike_id": "21e2a7f4bd6710ae64b84c570b829da7", "name": "21e2a7f4bd6710ae64b84c570b829da7"}, {"lon": -77.00195966666666, "is_disabled": 0, "lat": 38.878256, "fusion_lat": 0.0, "is_reserved": 0, "rental_uris": {"ios": "https://dc.lft.to/lastmile_qr_scan", "android": "https://dc.lft.to/lastmile_qr_scan"}, "fusion_lon": 0.0, "type": "electric_scooter", "bike_id": "08b86c9e0cbb967e59f8d4da188f1df2", "name": "08b86c9e0cbb967e59f8d4da188f1df2"}, {"lon": -76.986022, "is_disabled": 0, "lat": 38.90009333333333, "fusion_lat": 0.0, "is_reserved": 0, "rental_uris": {"ios": "https://dc.lft.to/lastmile_qr_scan", "android": "https://dc.lft.to/lastmile_qr_scan"}, "fusion_lon": 0.0, "type": "electric_scooter", "bike_id": "0332ef1ffea555bf7220feaae2a7a585", "name": "0332ef1ffea555bf7220feaae2a7a585"}, {"lon": -77.038214, "is_disabled": 0, "lat": 38.90292316666667, "fusion_lat": 0.0, "is_reserved": 0, "rental_uris": {"ios": "https://dc.lft.to/lastmile_qr_scan", "android": "https://dc.lft.to/lastmile_qr_scan"}, "fusion_lon": 0.0, "type": "electric_scooter", "bike_id": "30a911d20c6f91f5612eed4c06b33ef6", "name": "30a911d20c6f91f5612eed4c06b33ef6"}, {"lon": -77.04084816666666, "is_disabled": 0, "lat": 38.83058916666667, "fusion_lat": 0.0, "is_reserved": 0, "rental_uris": {"ios": "https://dc.lft.to/lastmile_qr_scan", "android": "https://dc.lft.to/lastmile_qr_scan"}, "fusion_lon": 0.0, "type": "electric_bike", "bike_id": "2a45b886e54fbc73f00177df09abbf56", "name": "2a45b886e54fbc73f00177df09abbf56"}, {"lon": -77.028601, "is_disabled": 0, "lat": 39.0369545, "fusion_lat": 0.0, "is_reserved": 0, "rental_uris": {"ios": "https://dc.lft.to/lastmile_qr_scan", "android": "https://dc.lft.to/lastmile_qr_scan"}, "fusion_lon": 0.0, "type": "electric_bike", "bike_id": "8e514e68d6dba397c704fc755f8e6a43", "name": "8e514e68d6dba397c704fc755f8e6a43"}, {"lon": -77.02611216666666, "is_disabled": 0, "lat": 38.914139666666664, "fusion_lat": 0.0, "is_reserved": 0, "rental_uris": {"ios": "https://dc.lft.to/lastmile_qr_scan", "android": "https://dc.lft.to/lastmile_qr_scan"}, "fusion_lon": 0.0, "type": "electric_scooter", "bike_id": "9f0074dca8a77c7c08c6f72d5efb37d7", "name": "9f0074dca8a77c7c08c6f72d5efb37d7"}, {"lon": -76.96378283333334, "is_disabled": 0, "lat": 38.9489475, "fusion_lat": 0.0, "is_reserved": 0, "rental_uris": {"ios": "https://dc.lft.to/lastmile_qr_scan", "android": "https://dc.lft.to/lastmile_qr_scan"}, "fusion_lon": 0.0, "type": "electric_bike", "bike_id": "f3d84ab507c2e68bbc4fffee8f7f586c", "name": "f3d84ab507c2e68bbc4fffee8f7f586c"}, {"lon": -77.02294716666667, "is_disabled": 0, "lat": 38.91587583333333, "fusion_lat": 0.0, "is_reserved": 0, "rental_uris": {"ios": "https://dc.lft.to/lastmile_qr_scan", "android": "https://dc.lft.to/lastmile_qr_scan"}, "fusion_lon": 0.0, "type": "electric_scooter", "bike_id": "ce1f32343f999de26bf46284b097fc96", "name": "ce1f32343f999de26bf46284b097fc96"}, {"lon": -77.04829316666667, "is_disabled": 0, "lat": 38.8983405, "fusion_lat": 0.0, "is_reserved": 0, "rental_uris": {"ios": "https://dc.lft.to/lastmile_qr_scan", "android": "https://dc.lft.to/lastmile_qr_scan"}, "fusion_lon": 0.0, "type": "electric_scooter", "bike_id": "a92278ccb7f6c345745e9129b6ee7747", "name": "a92278ccb7f6c345745e9129b6ee7747"}, {"lon": -77.06395116666667, "is_disabled": 0, "lat": 38.94416416666667, "fusion_lat": 0.0, "is_reserved": 0, "rental_uris": {"ios": "https://dc.lft.to/lastmile_qr_scan", "android": "https://dc.lft.to/lastmile_qr_scan"}, "fusion_lon": 0.0, "type": "electric_scooter", "bike_id": "a1a524f1ae253a8e8f8d141ee4cc0eb2", "name": "a1a524f1ae253a8e8f8d141ee4cc0eb2"}, {"lon": -77.00062466666667, "is_disabled": 0, "lat": 38.90030766666667, "fusion_lat": 0.0, "is_reserved": 0, "rental_uris": {"ios": "https://dc.lft.to/lastmile_qr_scan", "android": "https://dc.lft.to/lastmile_qr_scan"}, "fusion_lon": 0.0, "type": "electric_scooter", "bike_id": "a4d4268b19a4473a1403d9a96a6e4cfd", "name": "a4d4268b19a4473a1403d9a96a6e4cfd"}, {"lon": -77.00652116666667, "is_disabled": 0, "lat": 38.900989333333335, "fusion_lat": 0.0, "is_reserved": 0, "rental_uris": {"ios": "https://dc.lft.to/lastmile_qr_scan", "android": "https://dc.lft.to/lastmile_qr_scan"}, "fusion_lon": 0.0, "type": "electric_scooter", "bike_id": "b93e14ac04569a1b5574ed9ce88c6bec", "name": "b93e14ac04569a1b5574ed9ce88c6bec"}, {"lon": -77.029762, "is_disabled": 0, "lat": 38.917194333333335, "fusion_lat": 0.0, "is_reserved": 0, "rental_uris": {"ios": "https://dc.lft.to/lastmile_qr_scan", "android": "https://dc.lft.to/lastmile_qr_scan"}, "fusion_lon": 0.0, "type": "electric_scooter", "bike_id": "f1172b267be7f5900b756be62a4e22be", "name": "f1172b267be7f5900b756be62a4e22be"}, {"lon": -77.04094633333334, "is_disabled": 0, "lat": 38.925206333333335, "fusion_lat": 0.0, "is_reserved": 0, "rental_uris": {"ios": "https://dc.lft.to/lastmile_qr_scan", "android": "https://dc.lft.to/lastmile_qr_scan"}, "fusion_lon": 0.0, "type": "electric_scooter", "bike_id": "6bcb0b4eeb5addfc31a535d655dbee06", "name": "6bcb0b4eeb5addfc31a535d655dbee06"}, {"lon": -77.03408266666666, "is_disabled": 0, "lat": 38.91109016666667, "fusion_lat": 0.0, "is_reserved": 0, "rental_uris": {"ios": "https://dc.lft.to/lastmile_qr_scan", "android": "https://dc.lft.to/lastmile_qr_scan"}, "fusion_lon": 0.0, "type": "electric_scooter", "bike_id": "7c76a77c3aff7368180b0230b44d8a1e", "name": "7c76a77c3aff7368180b0230b44d8a1e"}, {"lon": -77.08091833333333, "is_disabled": 0, "lat": 38.9508995, "fusion_lat": 0.0, "is_reserved": 0, "rental_uris": {"ios": "https://dc.lft.to/lastmile_qr_scan", "android": "https://dc.lft.to/lastmile_qr_scan"}, "fusion_lon": 0.0, "type": "electric_bike", "bike_id": "84cdbb2eaa8c3fa8c554cfb622d15677", "name": "84cdbb2eaa8c3fa8c554cfb622d15677"}, {"lon": -76.98787266666666, "is_disabled": 0, "lat": 38.912311333333335, "fusion_lat": 0.0, "is_reserved": 0, "rental_uris": {"ios": "https://dc.lft.to/lastmile_qr_scan", "android": "https://dc.lft.to/lastmile_qr_scan"}, "fusion_lon": 0.0, "type": "electric_scooter", "bike_id": "6043e9aa8cee3660ec22910ca5924942", "name": "6043e9aa8cee3660ec22910ca5924942"}, {"lon": -77.02276366666666, "is_disabled": 0, "lat": 38.89496033333333, "fusion_lat": 0.0, "is_reserved": 0, "rental_uris": {"ios": "https://dc.lft.to/lastmile_qr_scan", "android": "https://dc.lft.to/lastmile_qr_scan"}, "fusion_lon": 0.0, "type": "electric_scooter", "bike_id": "01a0669aac30300c6857b3cb7f1c5931", "name": "01a0669aac30300c6857b3cb7f1c5931"}, {"lon": -77.0263345, "is_disabled": 0, "lat": 38.98468166666667, "fusion_lat": 0.0, "is_reserved": 0, "rental_uris": {"ios": "https://dc.lft.to/lastmile_qr_scan", "android": "https://dc.lft.to/lastmile_qr_scan"}, "fusion_lon": 0.0, "type": "electric_scooter", "bike_id": "1747b06bbbbe02c7baed2533fb6ca361", "name": "1747b06bbbbe02c7baed2533fb6ca361"}, {"lon": -77.043907, "is_disabled": 0, "lat": 38.90017566666667, "fusion_lat": 0.0, "is_reserved": 0, "rental_uris": {"ios": "https://dc.lft.to/lastmile_qr_scan", "android": "https://dc.lft.to/lastmile_qr_scan"}, "fusion_lon": 0.0, "type": "electric_scooter", "bike_id": "4a787e5988c90a652af6d9a6b7823d47", "name": "4a787e5988c90a652af6d9a6b7823d47"}, {"lon": -77.02382883333334, "is_disabled": 0, "lat": 38.916657666666666, "fusion_lat": 0.0, "is_reserved": 0, "rental_uris": {"ios": "https://dc.lft.to/lastmile_qr_scan", "android": "https://dc.lft.to/lastmile_qr_scan"}, "fusion_lon": 0.0, "type": "electric_scooter", "bike_id": "f3e058cde1c444848d668529d32d55eb", "name": "f3e058cde1c444848d668529d32d55eb"}, {"lon": -77.04345716666667, "is_disabled": 0, "lat": 38.9060035, "fusion_lat": 0.0, "is_reserved": 0, "rental_uris": {"ios": "https://dc.lft.to/lastmile_qr_scan", "android": "https://dc.lft.to/lastmile_qr_scan"}, "fusion_lon": 0.0, "type": "electric_scooter", "bike_id": "cc7e85dcf6e302bac2dd1991d64cf5b5", "name": "cc7e85dcf6e302bac2dd1991d64cf5b5"}, {"lon": -77.05557466666667, "is_disabled": 0, "lat": 38.89972516666667, "fusion_lat": 0.0, "is_reserved": 0, "rental_uris": {"ios": "https://dc.lft.to/lastmile_qr_scan", "android": "https://dc.lft.to/lastmile_qr_scan"}, "fusion_lon": 0.0, "type": "electric_scooter", "bike_id": "22e12f66d8b58997d83d82351936b8c6", "name": "22e12f66d8b58997d83d82351936b8c6"}, {"lon": -77.03285916666667, "is_disabled": 0, "lat": 38.928778333333334, "fusion_lat": 0.0, "is_reserved": 0, "rental_uris": {"ios": "https://dc.lft.to/lastmile_qr_scan", "android": "https://dc.lft.to/lastmile_qr_scan"}, "fusion_lon": 0.0, "type": "electric_scooter", "bike_id": "7d3a9d27f3fedcce7791ba9df19b0121", "name": "7d3a9d27f3fedcce7791ba9df19b0121"}, {"lon": -77.0346625, "is_disabled": 0, "lat": 38.909786833333335, "fusion_lat": 0.0, "is_reserved": 0, "rental_uris": {"ios": "https://dc.lft.to/lastmile_qr_scan", "android": "https://dc.lft.to/lastmile_qr_scan"}, "fusion_lon": 0.0, "type": "electric_scooter", "bike_id": "8832a09dde104683ca9ebb66f728c4aa", "name": "8832a09dde104683ca9ebb66f728c4aa"}, {"lon": -77.03455916666667, "is_disabled": 0, "lat": 38.90944316666667, "fusion_lat": 0.0, "is_reserved": 0, "rental_uris": {"ios": "https://dc.lft.to/lastmile_qr_scan", "android": "https://dc.lft.to/lastmile_qr_scan"}, "fusion_lon": 0.0, "type": "electric_scooter", "bike_id": "99300cbeccd30c9f47a822c4b912f835", "name": "99300cbeccd30c9f47a822c4b912f835"}, {"lon": -77.0250395, "is_disabled": 0, "lat": 38.94268533333333, "fusion_lat": 0.0, "is_reserved": 0, "rental_uris": {"ios": "https://dc.lft.to/lastmile_qr_scan", "android": "https://dc.lft.to/lastmile_qr_scan"}, "fusion_lon": 0.0, "type": "electric_scooter", "bike_id": "7371a73a6184917fa33ced421f01ca67", "name": "7371a73a6184917fa33ced421f01ca67"}, {"lon": -76.993023, "is_disabled": 0, "lat": 38.857607, "fusion_lat": 0.0, "is_reserved": 0, "rental_uris": {"ios": "https://dc.lft.to/lastmile_qr_scan", "android": "https://dc.lft.to/lastmile_qr_scan"}, "fusion_lon": 0.0, "type": "electric_scooter", "bike_id": "064596c8bbc31f96589bb294b1f2ed9c", "name": "064596c8bbc31f96589bb294b1f2ed9c"}, {"lon": -77.03378916666666, "is_disabled": 0, "lat": 38.9190815, "fusion_lat": 0.0, "is_reserved": 0, "rental_uris": {"ios": "https://dc.lft.to/lastmile_qr_scan", "android": "https://dc.lft.to/lastmile_qr_scan"}, "fusion_lon": 0.0, "type": "electric_scooter", "bike_id": "5e07589bb84b34f977b622b464ef4dde", "name": "5e07589bb84b34f977b622b464ef4dde"}, {"lon": -77.0431255, "is_disabled": 0, "lat": 38.90555916666667, "fusion_lat": 0.0, "is_reserved": 0, "rental_uris": {"ios": "https://dc.lft.to/lastmile_qr_scan", "android": "https://dc.lft.to/lastmile_qr_scan"}, "fusion_lon": 0.0, "type": "electric_scooter", "bike_id": "54339ae5bdd70cf5bcaaa7fadca1d166", "name": "54339ae5bdd70cf5bcaaa7fadca1d166"}, {"lon": -77.04132266666667, "is_disabled": 0, "lat": 38.92489116666667, "fusion_lat": 0.0, "is_reserved": 0, "rental_uris": {"ios": "https://dc.lft.to/lastmile_qr_scan", "android": "https://dc.lft.to/lastmile_qr_scan"}, "fusion_lon": 0.0, "type": "electric_scooter", "bike_id": "1b4d829aad69ad43948a4bec70616042", "name": "1b4d829aad69ad43948a4bec70616042"}, {"lon": -77.04499116666666, "is_disabled": 0, "lat": 38.914037666666665, "fusion_lat": 0.0, "is_reserved": 0, "rental_uris": {"ios": "https://dc.lft.to/lastmile_qr_scan", "android": "https://dc.lft.to/lastmile_qr_scan"}, "fusion_lon": 0.0, "type": "electric_scooter", "bike_id": "fc58b6befd5cb52b08046b4e93816b65", "name": "fc58b6befd5cb52b08046b4e93816b65"}, {"lon": -77.03788233333333, "is_disabled": 0, "lat": 38.92621183333333, "fusion_lat": 0.0, "is_reserved": 0, "rental_uris": {"ios": "https://dc.lft.to/lastmile_qr_scan", "android": "https://dc.lft.to/lastmile_qr_scan"}, "fusion_lon": 0.0, "type": "electric_scooter", "bike_id": "d87e87118218ba9af5090de7ce813ffb", "name": "d87e87118218ba9af5090de7ce813ffb"}, {"lon": -77.03352566666666, "is_disabled": 0, "lat": 38.898476, "fusion_lat": 0.0, "is_reserved": 0, "rental_uris": {"ios": "https://dc.lft.to/lastmile_qr_scan", "android": "https://dc.lft.to/lastmile_qr_scan"}, "fusion_lon": 0.0, "type": "electric_scooter", "bike_id": "90079c737ddd83fcb736cb778cbecaed", "name": "90079c737ddd83fcb736cb778cbecaed"}, {"lon": -77.03171116666667, "is_disabled": 0, "lat": 38.90107416666667, "fusion_lat": 0.0, "is_reserved": 0, "rental_uris": {"ios": "https://dc.lft.to/lastmile_qr_scan", "android": "https://dc.lft.to/lastmile_qr_scan"}, "fusion_lon": 0.0, "type": "electric_scooter", "bike_id": "d145747ef7158e6ec873a4b9f8d15809", "name": "d145747ef7158e6ec873a4b9f8d15809"}, {"lon": -77.044197, "is_disabled": 0, "lat": 38.90940466666667, "fusion_lat": 0.0, "is_reserved": 0, "rental_uris": {"ios": "https://dc.lft.to/lastmile_qr_scan", "android": "https://dc.lft.to/lastmile_qr_scan"}, "fusion_lon": 0.0, "type": "electric_scooter", "bike_id": "ed7907d6ca145030a156ff932496dbdb", "name": "ed7907d6ca145030a156ff932496dbdb"}, {"lon": -77.0072995, "is_disabled": 0, "lat": 38.884953833333334, "fusion_lat": 0.0, "is_reserved": 0, "rental_uris": {"ios": "https://dc.lft.to/lastmile_qr_scan", "android": "https://dc.lft.to/lastmile_qr_scan"}, "fusion_lon": 0.0, "type": "electric_scooter", "bike_id": "3b5a3ce3b8c66a6c16845bb0e4011d5f", "name": "3b5a3ce3b8c66a6c16845bb0e4011d5f"}, {"lon": -76.99367766666667, "is_disabled": 0, "lat": 38.99093383333334, "fusion_lat": 0.0, "is_reserved": 0, "rental_uris": {"ios": "https://dc.lft.to/lastmile_qr_scan", "android": "https://dc.lft.to/lastmile_qr_scan"}, "fusion_lon": 0.0, "type": "electric_bike", "bike_id": "3722ea68fe83c5423ab8949c312b098f", "name": "3722ea68fe83c5423ab8949c312b098f"}, {"lon": -77.04265583333333, "is_disabled": 0, "lat": 38.909827166666666, "fusion_lat": 0.0, "is_reserved": 0, "rental_uris": {"ios": "https://dc.lft.to/lastmile_qr_scan", "android": "https://dc.lft.to/lastmile_qr_scan"}, "fusion_lon": 0.0, "type": "electric_scooter", "bike_id": "a9642d66dc231cfbfcb53e4071e75715", "name": "a9642d66dc231cfbfcb53e4071e75715"}, {"lon": -77.04502833333333, "is_disabled": 0, "lat": 38.892968333333336, "fusion_lat": 0.0, "is_reserved": 0, "rental_uris": {"ios": "https://dc.lft.to/lastmile_qr_scan", "android": "https://dc.lft.to/lastmile_qr_scan"}, "fusion_lon": 0.0, "type": "electric_scooter", "bike_id": "d5217a8bf92383f9229cd1fb80b953fe", "name": "d5217a8bf92383f9229cd1fb80b953fe"}, {"lon": -76.97170633333333, "is_disabled": 0, "lat": 38.878149, "fusion_lat": 0.0, "is_reserved": 0, "rental_uris": {"ios": "https://dc.lft.to/lastmile_qr_scan", "android": "https://dc.lft.to/lastmile_qr_scan"}, "fusion_lon": 0.0, "type": "electric_scooter", "bike_id": "bbcbef411719cc4e7f52255ac76ea5e4", "name": "bbcbef411719cc4e7f52255ac76ea5e4"}, {"lon": -76.9817205, "is_disabled": 0, "lat": 38.91665033333334, "fusion_lat": 0.0, "is_reserved": 0, "rental_uris": {"ios": "https://dc.lft.to/lastmile_qr_scan", "android": "https://dc.lft.to/lastmile_qr_scan"}, "fusion_lon": 0.0, "type": "electric_scooter", "bike_id": "0cf861048ada1b26587bbc13be234985", "name": "0cf861048ada1b26587bbc13be234985"}, {"lon": -77.0329695, "is_disabled": 0, "lat": 38.9288125, "fusion_lat": 0.0, "is_reserved": 0, "rental_uris": {"ios": "https://dc.lft.to/lastmile_qr_scan", "android": "https://dc.lft.to/lastmile_qr_scan"}, "fusion_lon": 0.0, "type": "electric_scooter", "bike_id": "e18400424059dbeab095902326e09f76", "name": "e18400424059dbeab095902326e09f76"}, {"lon": -77.02269733333333, "is_disabled": 0, "lat": 38.925019166666665, "fusion_lat": 0.0, "is_reserved": 0, "rental_uris": {"ios": "https://dc.lft.to/lastmile_qr_scan", "android": "https://dc.lft.to/lastmile_qr_scan"}, "fusion_lon": 0.0, "type": "electric_scooter", "bike_id": "9be984f04040d7f4f3bdf99643573c32", "name": "9be984f04040d7f4f3bdf99643573c32"}, {"lon": -77.029784, "is_disabled": 0, "lat": 38.922309166666665, "fusion_lat": 0.0, "is_reserved": 0, "rental_uris": {"ios": "https://dc.lft.to/lastmile_qr_scan", "android": "https://dc.lft.to/lastmile_qr_scan"}, "fusion_lon": 0.0, "type": "electric_scooter", "bike_id": "43253e25ea2b47685cdab2509919a29f", "name": "43253e25ea2b47685cdab2509919a29f"}, {"lon": -77.0383765, "is_disabled": 0, "lat": 38.90282216666667, "fusion_lat": 0.0, "is_reserved": 0, "rental_uris": {"ios": "https://dc.lft.to/lastmile_qr_scan", "android": "https://dc.lft.to/lastmile_qr_scan"}, "fusion_lon": 0.0, "type": "electric_scooter", "bike_id": "6d98758b5b254c3fcb34287f1d843a3b", "name": "6d98758b5b254c3fcb34287f1d843a3b"}, {"lon": -77.028816, "is_disabled": 0, "lat": 38.90067166666667, "fusion_lat": 0.0, "is_reserved": 0, "rental_uris": {"ios": "https://dc.lft.to/lastmile_qr_scan", "android": "https://dc.lft.to/lastmile_qr_scan"}, "fusion_lon": 0.0, "type": "electric_scooter", "bike_id": "5eb7f5f7b07072f526272b8bff91c5f4", "name": "5eb7f5f7b07072f526272b8bff91c5f4"}, {"lon": -77.03445433333333, "is_disabled": 0, "lat": 38.90482983333333, "fusion_lat": 0.0, "is_reserved": 0, "rental_uris": {"ios": "https://dc.lft.to/lastmile_qr_scan", "android": "https://dc.lft.to/lastmile_qr_scan"}, "fusion_lon": 0.0, "type": "electric_scooter", "bike_id": "fa3d62804461afa6add1e616f41d76e6", "name": "fa3d62804461afa6add1e616f41d76e6"}, {"lon": -77.02977183333333, "is_disabled": 0, "lat": 38.924596666666666, "fusion_lat": 0.0, "is_reserved": 0, "rental_uris": {"ios": "https://dc.lft.to/lastmile_qr_scan", "android": "https://dc.lft.to/lastmile_qr_scan"}, "fusion_lon": 0.0, "type": "electric_scooter", "bike_id": "561e04766987daec04d354dd564234cc", "name": "561e04766987daec04d354dd564234cc"}, {"lon": -77.02306283333333, "is_disabled": 0, "lat": 38.917066166666665, "fusion_lat": 0.0, "is_reserved": 0, "rental_uris": {"ios": "https://dc.lft.to/lastmile_qr_scan", "android": "https://dc.lft.to/lastmile_qr_scan"}, "fusion_lon": 0.0, "type": "electric_scooter", "bike_id": "4d2a606139ac69586a416e2af61fa184", "name": "4d2a606139ac69586a416e2af61fa184"}, {"lon": -77.05062916666667, "is_disabled": 0, "lat": 38.90074666666667, "fusion_lat": 0.0, "is_reserved": 0, "rental_uris": {"ios": "https://dc.lft.to/lastmile_qr_scan", "android": "https://dc.lft.to/lastmile_qr_scan"}, "fusion_lon": 0.0, "type": "electric_scooter", "bike_id": "da7f0233d3fc2edd559e3bac34e7c52c", "name": "da7f0233d3fc2edd559e3bac34e7c52c"}, {"lon": -77.00678366666666, "is_disabled": 0, "lat": 38.90002466666667, "fusion_lat": 0.0, "is_reserved": 0, "rental_uris": {"ios": "https://dc.lft.to/lastmile_qr_scan", "android": "https://dc.lft.to/lastmile_qr_scan"}, "fusion_lon": 0.0, "type": "electric_scooter", "bike_id": "8ef1ff9e5e46b88a4c40074ccdfe2853", "name": "8ef1ff9e5e46b88a4c40074ccdfe2853"}, {"lon": -77.043612, "is_disabled": 0, "lat": 38.911158666666665, "fusion_lat": 0.0, "is_reserved": 0, "rental_uris": {"ios": "https://dc.lft.to/lastmile_qr_scan", "android": "https://dc.lft.to/lastmile_qr_scan"}, "fusion_lon": 0.0, "type": "electric_scooter", "bike_id": "6f6f8981fd923dfe98646710e6abf80a", "name": "6f6f8981fd923dfe98646710e6abf80a"}, {"lon": -77.00784433333334, "is_disabled": 0, "lat": 38.905707, "fusion_lat": 0.0, "is_reserved": 0, "rental_uris": {"ios": "https://dc.lft.to/lastmile_qr_scan", "android": "https://dc.lft.to/lastmile_qr_scan"}, "fusion_lon": 0.0, "type": "electric_scooter", "bike_id": "0207cb6245a6663820b6c359fa22e464", "name": "0207cb6245a6663820b6c359fa22e464"}, {"lon": -76.99062733333334, "is_disabled": 0, "lat": 38.86370066666667, "fusion_lat": 0.0, "is_reserved": 0, "rental_uris": {"ios": "https://dc.lft.to/lastmile_qr_scan", "android": "https://dc.lft.to/lastmile_qr_scan"}, "fusion_lon": 0.0, "type": "electric_scooter", "bike_id": "0e11fbf693d4f1bc6acb26ad883eaf72", "name": "0e11fbf693d4f1bc6acb26ad883eaf72"}, {"lon": -77.01103016666667, "is_disabled": 0, "lat": 38.90966016666667, "fusion_lat": 0.0, "is_reserved": 0, "rental_uris": {"ios": "https://dc.lft.to/lastmile_qr_scan", "android": "https://dc.lft.to/lastmile_qr_scan"}, "fusion_lon": 0.0, "type": "electric_scooter", "bike_id": "7dc647d523713c6f576addbb6ed0f51a", "name": "7dc647d523713c6f576addbb6ed0f51a"}, {"lon": -77.02502733333333, "is_disabled": 0, "lat": 38.919207166666666, "fusion_lat": 0.0, "is_reserved": 0, "rental_uris": {"ios": "https://dc.lft.to/lastmile_qr_scan", "android": "https://dc.lft.to/lastmile_qr_scan"}, "fusion_lon": 0.0, "type": "electric_scooter", "bike_id": "5c4ba87feb9cf1eb6e52db6811522e6b", "name": "5c4ba87feb9cf1eb6e52db6811522e6b"}, {"lon": -77.01214666666667, "is_disabled": 0, "lat": 38.90086733333333, "fusion_lat": 0.0, "is_reserved": 0, "rental_uris": {"ios": "https://dc.lft.to/lastmile_qr_scan", "android": "https://dc.lft.to/lastmile_qr_scan"}, "fusion_lon": 0.0, "type": "electric_scooter", "bike_id": "afc8e7842e87e8f6d986e491c8aa7ef8", "name": "afc8e7842e87e8f6d986e491c8aa7ef8"}, {"lon": -76.99994783333334, "is_disabled": 0, "lat": 38.875026, "fusion_lat": 0.0, "is_reserved": 0, "rental_uris": {"ios": "https://dc.lft.to/lastmile_qr_scan", "android": "https://dc.lft.to/lastmile_qr_scan"}, "fusion_lon": 0.0, "type": "electric_scooter", "bike_id": "c77111d50a95100cda06f329aa277d13", "name": "c77111d50a95100cda06f329aa277d13"}, {"lon": -77.00134983333334, "is_disabled": 0, "lat": 38.892708166666665, "fusion_lat": 0.0, "is_reserved": 0, "rental_uris": {"ios": "https://dc.lft.to/lastmile_qr_scan", "android": "https://dc.lft.to/lastmile_qr_scan"}, "fusion_lon": 0.0, "type": "electric_scooter", "bike_id": "518857435964366d421d10c520414077", "name": "518857435964366d421d10c520414077"}, {"lon": -77.04498983333333, "is_disabled": 0, "lat": 38.903678166666666, "fusion_lat": 0.0, "is_reserved": 0, "rental_uris": {"ios": "https://dc.lft.to/lastmile_qr_scan", "android": "https://dc.lft.to/lastmile_qr_scan"}, "fusion_lon": 0.0, "type": "electric_scooter", "bike_id": "64dacdef396a8229e6b8bcc5e7f72075", "name": "64dacdef396a8229e6b8bcc5e7f72075"}, {"lon": -77.03210116666666, "is_disabled": 0, "lat": 38.90521616666667, "fusion_lat": 0.0, "is_reserved": 0, "rental_uris": {"ios": "https://dc.lft.to/lastmile_qr_scan", "android": "https://dc.lft.to/lastmile_qr_scan"}, "fusion_lon": 0.0, "type": "electric_scooter", "bike_id": "2fe16462502b63f163048cbd8a436cec", "name": "2fe16462502b63f163048cbd8a436cec"}, {"lon": -77.00883866666666, "is_disabled": 0, "lat": 38.92325566666667, "fusion_lat": 0.0, "is_reserved": 0, "rental_uris": {"ios": "https://dc.lft.to/lastmile_qr_scan", "android": "https://dc.lft.to/lastmile_qr_scan"}, "fusion_lon": 0.0, "type": "electric_scooter", "bike_id": "30dcb4fecf127684890a1de60718aa57", "name": "30dcb4fecf127684890a1de60718aa57"}, {"lon": -77.03229, "is_disabled": 0, "lat": 38.91851066666667, "fusion_lat": 0.0, "is_reserved": 0, "rental_uris": {"ios": "https://dc.lft.to/lastmile_qr_scan", "android": "https://dc.lft.to/lastmile_qr_scan"}, "fusion_lon": 0.0, "type": "electric_scooter", "bike_id": "00eed3f5c2b0708c6e49e9d1b183bfa6", "name": "00eed3f5c2b0708c6e49e9d1b183bfa6"}, {"lon": -77.00726933333333, "is_disabled": 0, "lat": 38.884939, "fusion_lat": 0.0, "is_reserved": 0, "rental_uris": {"ios": "https://dc.lft.to/lastmile_qr_scan", "android": "https://dc.lft.to/lastmile_qr_scan"}, "fusion_lon": 0.0, "type": "electric_scooter", "bike_id": "0f754ea8dc1b72c91c4d76cce9b1396c", "name": "0f754ea8dc1b72c91c4d76cce9b1396c"}, {"lon": -77.03237266666666, "is_disabled": 0, "lat": 38.912572833333336, "fusion_lat": 0.0, "is_reserved": 0, "rental_uris": {"ios": "https://dc.lft.to/lastmile_qr_scan", "android": "https://dc.lft.to/lastmile_qr_scan"}, "fusion_lon": 0.0, "type": "electric_scooter", "bike_id": "91cabbd817e1c6fcc80350ab2d206683", "name": "91cabbd817e1c6fcc80350ab2d206683"}, {"lon": -76.98694966666666, "is_disabled": 0, "lat": 38.867222, "fusion_lat": 0.0, "is_reserved": 0, "rental_uris": {"ios": "https://dc.lft.to/lastmile_qr_scan", "android": "https://dc.lft.to/lastmile_qr_scan"}, "fusion_lon": 0.0, "type": "electric_scooter", "bike_id": "38f34c14d44a81917d6381d660e83c03", "name": "38f34c14d44a81917d6381d660e83c03"}, {"lon": -77.00303766666667, "is_disabled": 0, "lat": 38.92032316666667, "fusion_lat": 0.0, "is_reserved": 0, "rental_uris": {"ios": "https://dc.lft.to/lastmile_qr_scan", "android": "https://dc.lft.to/lastmile_qr_scan"}, "fusion_lon": 0.0, "type": "electric_scooter", "bike_id": "4bdd456473ae1d4b75bc02adfeae8ffa", "name": "4bdd456473ae1d4b75bc02adfeae8ffa"}, {"lon": -77.02303466666666, "is_disabled": 0, "lat": 38.91589116666667, "fusion_lat": 0.0, "is_reserved": 0, "rental_uris": {"ios": "https://dc.lft.to/lastmile_qr_scan", "android": "https://dc.lft.to/lastmile_qr_scan"}, "fusion_lon": 0.0, "type": "electric_scooter", "bike_id": "8ad81b0dd06c4143339749d652d7f86a", "name": "8ad81b0dd06c4143339749d652d7f86a"}, {"lon": -77.14060116666667, "is_disabled": 0, "lat": 38.98765683333333, "fusion_lat": 0.0, "is_reserved": 0, "rental_uris": {"ios": "https://dc.lft.to/lastmile_qr_scan", "android": "https://dc.lft.to/lastmile_qr_scan"}, "fusion_lon": 0.0, "type": "electric_bike", "bike_id": "bb1f2733e526d994e714fdc3ba02734a", "name": "bb1f2733e526d994e714fdc3ba02734a"}, {"lon": -77.02328683333333, "is_disabled": 0, "lat": 38.89473433333333, "fusion_lat": 0.0, "is_reserved": 0, "rental_uris": {"ios": "https://dc.lft.to/lastmile_qr_scan", "android": "https://dc.lft.to/lastmile_qr_scan"}, "fusion_lon": 0.0, "type": "electric_bike", "bike_id": "4043c93b75454d70db15930c16da8c89", "name": "4043c93b75454d70db15930c16da8c89"}, {"lon": -77.02790233333333, "is_disabled": 0, "lat": 38.9011895, "fusion_lat": 0.0, "is_reserved": 0, "rental_uris": {"ios": "https://dc.lft.to/lastmile_qr_scan", "android": "https://dc.lft.to/lastmile_qr_scan"}, "fusion_lon": 0.0, "type": "electric_scooter", "bike_id": "13c011b071e31a828ccab7b4b0f40335", "name": "13c011b071e31a828ccab7b4b0f40335"}, {"lon": -77.023095, "is_disabled": 0, "lat": 38.9161925, "fusion_lat": 0.0, "is_reserved": 0, "rental_uris": {"ios": "https://dc.lft.to/lastmile_qr_scan", "android": "https://dc.lft.to/lastmile_qr_scan"}, "fusion_lon": 0.0, "type": "electric_scooter", "bike_id": "70a15a0210138595fe5a5177e7f06ba0", "name": "70a15a0210138595fe5a5177e7f06ba0"}, {"lon": -77.01615583333333, "is_disabled": 0, "lat": 38.89924883333333, "fusion_lat": 0.0, "is_reserved": 0, "rental_uris": {"ios": "https://dc.lft.to/lastmile_qr_scan", "android": "https://dc.lft.to/lastmile_qr_scan"}, "fusion_lon": 0.0, "type": "electric_scooter", "bike_id": "1f663afd323e6b6500ceb0fa132155d0", "name": "1f663afd323e6b6500ceb0fa132155d0"}, {"lon": -77.03195183333334, "is_disabled": 0, "lat": 38.916390166666666, "fusion_lat": 0.0, "is_reserved": 0, "rental_uris": {"ios": "https://dc.lft.to/lastmile_qr_scan", "android": "https://dc.lft.to/lastmile_qr_scan"}, "fusion_lon": 0.0, "type": "electric_scooter", "bike_id": "a6c3a5ed4cf4e5857d2d04207fb53b5c", "name": "a6c3a5ed4cf4e5857d2d04207fb53b5c"}, {"lon": -77.02895333333333, "is_disabled": 0, "lat": 38.917053333333335, "fusion_lat": 0.0, "is_reserved": 0, "rental_uris": {"ios": "https://dc.lft.to/lastmile_qr_scan", "android": "https://dc.lft.to/lastmile_qr_scan"}, "fusion_lon": 0.0, "type": "electric_scooter", "bike_id": "5b425a222ebbe4f51e73359880741a82", "name": "5b425a222ebbe4f51e73359880741a82"}, {"lon": -77.02492566666666, "is_disabled": 0, "lat": 38.884598, "fusion_lat": 0.0, "is_reserved": 0, "rental_uris": {"ios": "https://dc.lft.to/lastmile_qr_scan", "android": "https://dc.lft.to/lastmile_qr_scan"}, "fusion_lon": 0.0, "type": "electric_scooter", "bike_id": "191ce1f588a3188ab2c4a36bc0d8a163", "name": "191ce1f588a3188ab2c4a36bc0d8a163"}, {"lon": -76.9463335, "is_disabled": 0, "lat": 38.898624166666664, "fusion_lat": 0.0, "is_reserved": 0, "rental_uris": {"ios": "https://dc.lft.to/lastmile_qr_scan", "android": "https://dc.lft.to/lastmile_qr_scan"}, "fusion_lon": 0.0, "type": "electric_scooter", "bike_id": "569dbdfefc4ccd6a35ebc31f5927a984", "name": "569dbdfefc4ccd6a35ebc31f5927a984"}, {"lon": -77.02463316666666, "is_disabled": 0, "lat": 38.897249, "fusion_lat": 0.0, "is_reserved": 0, "rental_uris": {"ios": "https://dc.lft.to/lastmile_qr_scan", "android": "https://dc.lft.to/lastmile_qr_scan"}, "fusion_lon": 0.0, "type": "electric_scooter", "bike_id": "17e1372111cd0afeeac9db5ef82b9b6a", "name": "17e1372111cd0afeeac9db5ef82b9b6a"}, {"lon": -76.99503816666666, "is_disabled": 0, "lat": 38.86244416666667, "fusion_lat": 0.0, "is_reserved": 0, "rental_uris": {"ios": "https://dc.lft.to/lastmile_qr_scan", "android": "https://dc.lft.to/lastmile_qr_scan"}, "fusion_lon": 0.0, "type": "electric_scooter", "bike_id": "a85b9c1c6e9bcb52523e1fd638440550", "name": "a85b9c1c6e9bcb52523e1fd638440550"}, {"lon": -77.02388033333334, "is_disabled": 0, "lat": 38.912773666666666, "fusion_lat": 0.0, "is_reserved": 0, "rental_uris": {"ios": "https://dc.lft.to/lastmile_qr_scan", "android": "https://dc.lft.to/lastmile_qr_scan"}, "fusion_lon": 0.0, "type": "electric_scooter", "bike_id": "c666ac3696d51cef3ca223aa3397d4e5", "name": "c666ac3696d51cef3ca223aa3397d4e5"}, {"lon": -76.998283, "is_disabled": 0, "lat": 38.885277333333335, "fusion_lat": 0.0, "is_reserved": 0, "rental_uris": {"ios": "https://dc.lft.to/lastmile_qr_scan", "android": "https://dc.lft.to/lastmile_qr_scan"}, "fusion_lon": 0.0, "type": "electric_scooter", "bike_id": "5d9ff32c7e4ee7e14bc6734e2beb6c38", "name": "5d9ff32c7e4ee7e14bc6734e2beb6c38"},