{"data": {"bikes": [{"type": "electric_scooter", "fusion_lon": 0.0, "name": "bbb422d0b9b43fbaa88d4fa3b4a815a3", "lon": -76.965477, "fusion_lat": 0.0, "is_disabled": 0, "is_reserved": 0, "rental_uris": {"ios": "https://dc.lft.to/lastmile_qr_scan", "android": "https://dc.lft.to/lastmile_qr_scan"}, "bike_id": "bbb422d0b9b43fbaa88d4fa3b4a815a3", "lat": 38.878897333333335}, {"type": "electric_scooter", "fusion_lon": 0.0, "name": "3456280515baa1d49ad03f0bdf5f2f5f", "lon": -77.03963883333333, "fusion_lat": 0.0, "is_disabled": 0, "is_reserved": 0, "rental_uris": {"ios": "https://dc.lft.to/lastmile_qr_scan", "android": "https://dc.lft.to/lastmile_qr_scan"}, "bike_id": "3456280515baa1d49ad03f0bdf5f2f5f", "lat": 38.902651166666665}, {"type": "electric_scooter", "fusion_lon": 0.0, "name": "df032d685c9917eae12de030d5bd0328", "lon": -77.03793583333334, "fusion_lat": 0.0, "is_disabled": 0, "is_reserved": 0, "rental_uris": {"ios": "https://dc.lft.to/lastmile_qr_scan", "android": "https://dc.lft.to/lastmile_qr_scan"}, "bike_id": "df032d685c9917eae12de030d5bd0328", "lat": 38.925113333333336}, {"type": "electric_bike", "fusion_lon": 0.0, "name": "66923392503d860ce69fe9216ec1c185", "lon": -76.90752533333334, "fusion_lat": 0.0, "is_disabled": 0, "is_reserved": 0, "rental_uris": {"ios": "https://dc.lft.to/lastmile_qr_scan", "android": "https://dc.lft.to/lastmile_qr_scan"}, "bike_id": "66923392503d860ce69fe9216ec1c185", "lat": 38.896222}, {"type": "electric_bike", "fusion_lon": 0.0, "name": "93be522224772d2a25549f43735b8b36", "lon": -77.014034, "fusion_lat": 0.0, "is_disabled": 0, "is_reserved": 0, "rental_uris": {"ios": "https://dc.lft.to/lastmile_qr_scan", "android": "https://dc.lft.to/lastmile_qr_scan"}, "bike_id": "93be522224772d2a25549f43735b8b36", "lat": 38.95876633333334}, {"type": "electric_scooter", "fusion_lon": 0.0, "name": "6c9df05169b38d129e071a78e7b1f994", "lon": -77.02308616666667, "fusion_lat": 0.0, "is_disabled": 0, "is_reserved": 0, "rental_uris": {"ios": "https://dc.lft.to/lastmile_qr_scan", "android": "https://dc.lft.to/lastmile_qr_scan"}, "bike_id": "6c9df05169b38d129e071a78e7b1f994", "lat": 38.917831}, {"type": "electric_scooter", "fusion_lon": 0.0, "name": "85f90eecb4c749dfa09c846aa8240b05", "lon": -77.01916233333333, "fusion_lat": 0.0, "is_disabled": 0, "is_reserved": 0, "rental_uris": {"ios": "https://dc.lft.to/lastmile_qr_scan", "android": "https://dc.lft.to/lastmile_qr_scan"}, "bike_id": "85f90eecb4c749dfa09c846aa8240b05", "lat": 38.917781833333336}, {"type": "electric_scooter", "fusion_lon": 0.0, "name": "8d44942ae237f6db7db8b38f483162c6", "lon": -77.0223505, "fusion_lat": 0.0, "is_disabled": 0, "is_reserved": 0, "rental_uris": {"ios": "https://dc.lft.to/lastmile_qr_scan", "android": "https://dc.lft.to/lastmile_qr_scan"}, "bike_id": "8d44942ae237f6db7db8b38f483162c6", "lat": 38.956908}, {"type": "electric_scooter", "fusion_lon": 0.0, "name": "fa2ec101f78215f8a78dcc46d2de95b6", "lon": -77.04680883333333, "fusion_lat": 0.0, "is_disabled": 0, "is_reserved": 0, "rental_uris": {"ios": "https://dc.lft.to/lastmile_qr_scan", "android": "https://dc.lft.to/lastmile_qr_scan"}, "bike_id": "fa2ec101f78215f8a78dcc46d2de95b6", "lat": 38.916644}, {"type": "electric_scooter", "fusion_lon": 0.0, "name": "714c950e91b61f62aef4e23dcb54b289", "lon": -77.03093, "fusion_lat": 0.0, "is_disabled": 0, "is_reserved": 0, "rental_uris": {"ios": "https://dc.lft.to/lastmile_qr_scan", "android": "https://dc.lft.to/lastmile_qr_scan"}, "bike_id": "714c950e91b61f62aef4e23dcb54b289", "lat": 38.910321833333334}, {"type": "electric_scooter", "fusion_lon": 0.0, "name": "5ae4111dc4bc72acb9932e1747ee6913", "lon": -77.03402216666667, "fusion_lat": 0.0, "is_disabled": 0, "is_reserved": 0, "rental_uris": {"ios": "https://dc.lft.to/lastmile_qr_scan", "android": "https://dc.lft.to/lastmile_qr_scan"}, "bike_id": "5ae4111dc4bc72acb9932e1747ee6913", "lat": 38.9224955}, {"type": "electric_scooter", "fusion_lon": 0.0, "name": "53540c0dfd0fdca0be1d902aab285342", "lon": -77.02281, "fusion_lat": 0.0, "is_disabled": 0, "is_reserved": 0, "rental_uris": {"ios": "https://dc.lft.to/lastmile_qr_scan", "android": "https://dc.lft.to/lastmile_qr_scan"}, "bike_id": "53540c0dfd0fdca0be1d902aab285342", "lat": 38.925158}, {"type": "electric_scooter", "fusion_lon": 0.0, "name": "fec57fef30dfb619dd95508efe67be35", "lon": -77.03348283333334, "fusion_lat": 0.0, "is_disabled": 0, "is_reserved": 0, "rental_uris": {"ios": "https://dc.lft.to/lastmile_qr_scan", "android": "https://dc.lft.to/lastmile_qr_scan"}, "bike_id": "fec57fef30dfb619dd95508efe67be35", "lat": 38.9223455}, {"type": "electric_scooter", "fusion_lon": 0.0, "name": "1eff623e7504459070116a9b942cd100", "lon": -77.04050533333333, "fusion_lat": 0.0, "is_disabled": 0, "is_reserved": 0, "rental_uris": {"ios": "https://dc.lft.to/lastmile_qr_scan", "android": "https://dc.lft.to/lastmile_qr_scan"}, "bike_id": "1eff623e7504459070116a9b942cd100", "lat": 38.904108666666666}, {"type": "electric_scooter", "fusion_lon": 0.0, "name": "de56c85ae99899466d00727c5bfd5ddc", "lon": -77.02795616666667, "fusion_lat": 0.0, "is_disabled": 0, "is_reserved": 0, "rental_uris": {"ios": "https://dc.lft.to/lastmile_qr_scan", "android": "https://dc.lft.to/lastmile_qr_scan"}, "bike_id": "de56c85ae99899466d00727c5bfd5ddc", "lat": 38.91006466666666}, {"type": "electric_bike", "fusion_lon": 0.0, "name": "61851330ec2a686c097e8b1858c0b8ec", "lon": -76.92335983333334, "fusion_lat": 0.0, "is_disabled": 0, "is_reserved": 0, "rental_uris": {"ios": "https://dc.lft.to/lastmile_qr_scan", "android": "https://dc.lft.to/lastmile_qr_scan"}, "bike_id": "61851330ec2a686c097e8b1858c0b8ec", "lat": 38.91039516666667}, {"type": "electric_scooter", "fusion_lon": 0.0, "name": "beddaca710a07c6e44fbfa885a7c9a3e", "lon": -77.0320955, "fusion_lat": 0.0, "is_disabled": 0, "is_reserved": 0, "rental_uris": {"ios": "https://dc.lft.to/lastmile_qr_scan", "android": "https://dc.lft.to/lastmile_qr_scan"}, "bike_id": "beddaca710a07c6e44fbfa885a7c9a3e", "lat": 38.9258375}, {"type": "electric_scooter", "fusion_lon": 0.0, "name": "8a21411a6105703beb642b788de00129", "lon": -77.03309283333333, "fusion_lat": 0.0, "is_disabled": 0, "is_reserved": 0, "rental_uris": {"ios": "https://dc.lft.to/lastmile_qr_scan", "android": "https://dc.lft.to/lastmile_qr_scan"}, "bike_id": "8a21411a6105703beb642b788de00129", "lat": 38.92880483333333}, {"type": "electric_scooter", "fusion_lon": 0.0, "name": "9a944ffd6ed555dc5d781ad7e766c2b5", "lon": -77.0240215, "fusion_lat": 0.0, "is_disabled": 0, "is_reserved": 0, "rental_uris": {"ios": "https://dc.lft.to/lastmile_qr_scan", "android": "https://dc.lft.to/lastmile_qr_scan"}, "bike_id": "9a944ffd6ed555dc5d781ad7e766c2b5", "lat": 38.896558}, {"type": "electric_scooter", "fusion_lon": 0.0, "name": "b265169af5fb3fc2fd1526eaf31e8b56", "lon": -77.04887766666667, "fusion_lat": 0.0, "is_disabled": 0, "is_reserved": 0, "rental_uris": {"ios": "https://dc.lft.to/lastmile_qr_scan", "android": "https://dc.lft.to/lastmile_qr_scan"}, "bike_id": "b265169af5fb3fc2fd1526eaf31e8b56", "lat": 38.90072033333333}, {"type": "electric_scooter", "fusion_lon": 0.0, "name": "b442d68bc4fc4853daa7dab041f98d76", "lon": -77.01966433333334, "fusion_lat": 0.0, "is_disabled": 0, "is_reserved": 0, "rental_uris": {"ios": "https://dc.lft.to/lastmile_qr_scan", "android": "https://dc.lft.to/lastmile_qr_scan"}, "bike_id": "b442d68bc4fc4853daa7dab041f98d76", "lat": 38.89053583333333}, {"type": "electric_scooter", "fusion_lon": 0.0, "name": "6b66feb1b64836358200ad9720ec6d70", "lon": -77.03664283333333, "fusion_lat": 0.0, "is_disabled": 0, "is_reserved": 0, "rental_uris": {"ios": "https://dc.lft.to/lastmile_qr_scan", "android": "https://dc.lft.to/lastmile_qr_scan"}, "bike_id": "6b66feb1b64836358200ad9720ec6d70", "lat": 38.91833233333333}, {"type": "electric_bike", "fusion_lon": 0.0, "name": "6875ec07becf36fa0fc94f2083602789", "lon": -77.23413266666667, "fusion_lat": 0.0, "is_disabled": 0, "is_reserved": 0, "rental_uris": {"ios": "https://dc.lft.to/lastmile_qr_scan", "android": "https://dc.lft.to/lastmile_qr_scan"}, "bike_id": "6875ec07becf36fa0fc94f2083602789", "lat": 38.87581816666667}, {"type": "electric_scooter", "fusion_lon": 0.0, "name": "cfebb441a0001e7318fc283a2c46da3b", "lon": -77.0111045, "fusion_lat": 0.0, "is_disabled": 0, "is_reserved": 0, "rental_uris": {"ios": "https://dc.lft.to/lastmile_qr_scan", "android": "https://dc.lft.to/lastmile_qr_scan"}, "bike_id": "cfebb441a0001e7318fc283a2c46da3b", "lat": 38.8954865}, {"type": "electric_scooter", "fusion_lon": 0.0, "name": "0c5e4143589bc14dde5ec87a2386e7f8", "lon": -77.04244133333333, "fusion_lat": 0.0, "is_disabled": 0, "is_reserved": 0, "rental_uris": {"ios": "https://dc.lft.to/lastmile_qr_scan", "android": "https://dc.lft.to/lastmile_qr_scan"}, "bike_id": "0c5e4143589bc14dde5ec87a2386e7f8", "lat": 38.9224105}, {"type": "electric_scooter", "fusion_lon": 0.0, "name": "2109907a9ee3f9174f1ec9390df472d5", "lon": -76.97979133333334, "fusion_lat": 0.0, "is_disabled": 0, "is_reserved": 0, "rental_uris": {"ios": "https://dc.lft.to/lastmile_qr_scan", "android": "https://dc.lft.to/lastmile_qr_scan"}, "bike_id": "2109907a9ee3f9174f1ec9390df472d5", "lat": 38.87072}, {"type": "electric_scooter", "fusion_lon": 0.0, "name": "477aea55093ca20e7ee8acd49b79d264", "lon": -77.0630795, "fusion_lat": 0.0, "is_disabled": 0, "is_reserved": 0, "rental_uris": {"ios": "https://dc.lft.to/lastmile_qr_scan", "android": "https://dc.lft.to/lastmile_qr_scan"}, "bike_id": "477aea55093ca20e7ee8acd49b79d264", "lat": 38.906912166666665}, {"type": "electric_scooter", "fusion_lon": 0.0, "name": "24708e6dde2d102c082f1f0e13e9d975", "lon": -77.03865733333333, "fusion_lat": 0.0, "is_disabled": 0, "is_reserved": 0, "rental_uris": {"ios": "https://dc.lft.to/lastmile_qr_scan", "android": "https://dc.lft.to/lastmile_qr_scan"}, "bike_id": "24708e6dde2d102c082f1f0e13e9d975", "lat": 38.912547333333336}, {"type": "electric_scooter", "fusion_lon": 0.0, "name": "8db9923ba38022909f12e1d3d525de53", "lon": -76.9272325, "fusion_lat": 0.0, "is_disabled": 0, "is_reserved": 0, "rental_uris": {"ios": "https://dc.lft.to/lastmile_qr_scan", "android": "https://dc.lft.to/lastmile_qr_scan"}, "bike_id": "8db9923ba38022909f12e1d3d525de53", "lat": 38.880424833333336}, {"type": "electric_scooter", "fusion_lon": 0.0, "name": "0cd69638d3a3e21fd9f372e5c7c86473", "lon": -77.0124205, "fusion_lat": 0.0, "is_disabled": 0, "is_reserved": 0, "rental_uris": {"ios": "https://dc.lft.to/lastmile_qr_scan", "android": "https://dc.lft.to/lastmile_qr_scan"}, "bike_id": "0cd69638d3a3e21fd9f372e5c7c86473", "lat": 38.89852033333333}, {"type": "electric_scooter", "fusion_lon": 0.0, "name": "2bb39106c0e6503d339fe409673d2a9e", "lon": -77.05060566666667, "fusion_lat": 0.0, "is_disabled": 0, "is_reserved": 0, "rental_uris": {"ios": "https://dc.lft.to/lastmile_qr_scan", "android": "https://dc.lft.to/lastmile_qr_scan"}, "bike_id": "2bb39106c0e6503d339fe409673d2a9e", "lat": 38.916189333333335}, {"type": "electric_scooter", "fusion_lon": 0.0, "name": "c91879dc158e7482e6ca6de710b73b51", "lon": -76.97321783333334, "fusion_lat": 0.0, "is_disabled": 0, "is_reserved": 0, "rental_uris": {"ios": "https://dc.lft.to/lastmile_qr_scan", "android": "https://dc.lft.to/lastmile_qr_scan"}, "bike_id": "c91879dc158e7482e6ca6de710b73b51", "lat": 38.86515}, {"type": "electric_scooter", "fusion_lon": 0.0, "name": "93bda08d8477efaa9df7b4595ac1dadc", "lon": -77.01928033333333, "fusion_lat": 0.0, "is_disabled": 0, "is_reserved": 0, "rental_uris": {"ios": "https://dc.lft.to/lastmile_qr_scan", "android": "https://dc.lft.to/lastmile_qr_scan"}, "bike_id": "93bda08d8477efaa9df7b4595ac1dadc", "lat": 38.922589333333335}, {"type": "electric_scooter", "fusion_lon": 0.0, "name": "5199489b7c8e7fd7b90fe01dab013c79", "lon": -77.04518583333333, "fusion_lat": 0.0, "is_disabled": 0, "is_reserved": 0, "rental_uris": {"ios": "https://dc.lft.to/lastmile_qr_scan", "android": "https://dc.lft.to/lastmile_qr_scan"}, "bike_id": "5199489b7c8e7fd7b90fe01dab013c79", "lat": 38.9078705}, {"type": "electric_scooter", "fusion_lon": 0.0, "name": "44d8064672b07d7c952d6949c5cfc9c5", "lon": -77.02713316666667, "fusion_lat": 0.0, "is_disabled": 0, "is_reserved": 0, "rental_uris": {"ios": "https://dc.lft.to/lastmile_qr_scan", "android": "https://dc.lft.to/lastmile_qr_scan"}, "bike_id": "44d8064672b07d7c952d6949c5cfc9c5", "lat": 38.90682916666667}, {"type": "electric_scooter", "fusion_lon": 0.0, "name": "8b130fecfa8a0fb11713b035cc0c8764", "lon": -77.0769035, "fusion_lat": 0.0, "is_disabled": 0, "is_reserved": 0, "rental_uris": {"ios": "https://dc.lft.to/lastmile_qr_scan", "android": "https://dc.lft.to/lastmile_qr_scan"}, "bike_id": "8b130fecfa8a0fb11713b035cc0c8764", "lat": 38.942926}, {"type": "electric_scooter", "fusion_lon": 0.0, "name": "54322b2dbe5a132fc1a7afda3e1abb0c", "lon": -77.05258833333333, "fusion_lat": 0.0, "is_disabled": 0, "is_reserved": 0, "rental_uris": {"ios": "https://dc.lft.to/lastmile_qr_scan", "android": "https://dc.lft.to/lastmile_qr_scan"}, "bike_id": "54322b2dbe5a132fc1a7afda3e1abb0c", "lat": 38.92780116666667}, {"type": "electric_scooter", "fusion_lon": 0.0, "name": "aa313ca34e0ee24663e7e96ebb341a1f", "lon": -77.03779633333333, "fusion_lat": 0.0, "is_disabled": 0, "is_reserved": 0, "rental_uris": {"ios": "https://dc.lft.to/lastmile_qr_scan", "android": "https://dc.lft.to/lastmile_qr_scan"}, "bike_id": "aa313ca34e0ee24663e7e96ebb341a1f", "lat": 38.902495333333334}, {"type": "electric_scooter", "fusion_lon": 0.0, "name": "11bec9e1f52424bf0eab175e9032044e", "lon": -77.03376866666666, "fusion_lat": 0.0, "is_disabled": 0, "is_reserved": 0, "rental_uris": {"ios": "https://dc.lft.to/lastmile_qr_scan", "android": "https://dc.lft.to/lastmile_qr_scan"}, "bike_id": "11bec9e1f52424bf0eab175e9032044e", "lat": 38.938787833333336}, {"type": "electric_scooter", "fusion_lon": 0.0, "name": "dbd34bd34b1fce28094c0197f206967a", "lon": -76.98311933333333, "fusion_lat": 0.0, "is_disabled": 0, "is_reserved": 0, "rental_uris": {"ios": "https://dc.lft.to/lastmile_qr_scan", "android": "https://dc.lft.to/lastmile_qr_scan"}, "bike_id": "dbd34bd34b1fce28094c0197f206967a", "lat": 38.92557016666667}, {"type": "electric_scooter", "fusion_lon": 0.0, "name": "45f14b66f7d4d5e2d7de4157ea892795", "lon": -77.044162, "fusion_lat": 0.0, "is_disabled": 0, "is_reserved": 0, "rental_uris": {"ios": "https://dc.lft.to/lastmile_qr_scan", "android": "https://dc.lft.to/lastmile_qr_scan"}, "bike_id": "45f14b66f7d4d5e2d7de4157ea892795", "lat": 38.89603016666667}, {"type": "electric_scooter", "fusion_lon": 0.0, "name": "de63a9b6f9caa2908a424342b982824e", "lon": -77.03489333333333, "fusion_lat": 0.0, "is_disabled": 0, "is_reserved": 0, "rental_uris": {"ios": "https://dc.lft.to/lastmile_qr_scan", "android": "https://dc.lft.to/lastmile_qr_scan"}, "bike_id": "de63a9b6f9caa2908a424342b982824e", "lat": 38.918961833333334}, {"type": "electric_scooter", "fusion_lon": 0.0, "name": "15a2795acdb6a8dddd07049cb3ec8e7f", "lon": -77.00924216666667, "fusion_lat": 0.0, "is_disabled": 0, "is_reserved": 0, "rental_uris": {"ios": "https://dc.lft.to/lastmile_qr_scan", "android": "https://dc.lft.to/lastmile_qr_scan"}, "bike_id": "15a2795acdb6a8dddd07049cb3ec8e7f", "lat": 38.897298}, {"type": "electric_scooter", "fusion_lon": 0.0, "name": "dbea8b49cf31918a012bc64de83550bb", "lon": -77.031691, "fusion_lat": 0.0, "is_disabled": 0, "is_reserved": 0, "rental_uris": {"ios": "https://dc.lft.to/lastmile_qr_scan", "android": "https://dc.lft.to/lastmile_qr_scan"}, "bike_id": "dbea8b49cf31918a012bc64de83550bb", "lat": 38.91819516666666}, {"type": "electric_bike", "fusion_lon": 0.0, "name": "b32dde506916295661cd26305a9412b8", "lon": -76.96982416666667, "fusion_lat": 0.0, "is_disabled": 0, "is_reserved": 0, "rental_uris": {"ios": "https://dc.lft.to/lastmile_qr_scan", "android": "https://dc.lft.to/lastmile_qr_scan"}, "bike_id": "b32dde506916295661cd26305a9412b8", "lat": 38.86493516666667}, {"type": "electric_scooter", "fusion_lon": 0.0, "name": "1a5a27eee749eadba23eb3d09ab4bca8", "lon": -77.00590483333333, "fusion_lat": 0.0, "is_disabled": 0, "is_reserved": 0, "rental_uris": {"ios": "https://dc.lft.to/lastmile_qr_scan", "android": "https://dc.lft.to/lastmile_qr_scan"}, "bike_id": "1a5a27eee749eadba23eb3d09ab4bca8", "lat": 38.90700616666667}, {"type": "electric_scooter", "fusion_lon": 0.0, "name": "d96a07215c6f900f61189e3c70d83615", "lon": -77.0389795, "fusion_lat": 0.0, "is_disabled": 0, "is_reserved": 0, "rental_uris": {"ios": "https://dc.lft.to/lastmile_qr_scan", "android": "https://dc.lft.to/lastmile_qr_scan"}, "bike_id": "d96a07215c6f900f61189e3c70d83615", "lat": 38.9222335}, {"type": "electric_scooter", "fusion_lon": 0.0, "name": "c06605db0587a8773985e1992811025c", "lon": -77.02314183333333, "fusion_lat": 0.0, "is_disabled": 0, "is_reserved": 0, "rental_uris": {"ios": "https://dc.lft.to/lastmile_qr_scan", "android": "https://dc.lft.to/lastmile_qr_scan"}, "bike_id": "c06605db0587a8773985e1992811025c", "lat": 38.91790983333333}, {"type": "electric_scooter", "fusion_lon": 0.0, "name": "70ed37953b13d8ecec5090e02f2c834b", "lon": -77.04221683333333, "fusion_lat": 0.0, "is_disabled": 0, "is_reserved": 0, "rental_uris": {"ios": "https://dc.lft.to/lastmile_qr_scan", "android": "https://dc.lft.to/lastmile_qr_scan"}, "bike_id": "70ed37953b13d8ecec5090e02f2c834b", "lat": 38.921567833333334}, {"type": "electric_scooter", "fusion_lon": 0.0, "name": "80ffb4d075d2264ea38a775e42617b32", "lon": -76.93532316666666, "fusion_lat": 0.0, "is_disabled": 0, "is_reserved": 0, "rental_uris": {"ios": "https://dc.lft.to/lastmile_qr_scan", "android": "https://dc.lft.to/lastmile_qr_scan"}, "bike_id": "80ffb4d075d2264ea38a775e42617b32", "lat": 38.878957166666666}, {"type": "electric_scooter", "fusion_lon": 0.0, "name": "ab186cf6aae948bca01ecbdf87f0b473", "lon": -76.9890935, "fusion_lat": 0.0, "is_disabled": 0, "is_reserved": 0, "rental_uris": {"ios": "https://dc.lft.to/lastmile_qr_scan", "android": "https://dc.lft.to/lastmile_qr_scan"}, "bike_id": "ab186cf6aae948bca01ecbdf87f0b473", "lat": 38.858170333333334}, {"type": "electric_scooter", "fusion_lon": 0.0, "name": "2f9adb47435b3fb4aebf7ee9b67321e1", "lon": -77.03916333333333, "fusion_lat": 0.0, "is_disabled": 0, "is_reserved": 0, "rental_uris": {"ios": "https://dc.lft.to/lastmile_qr_scan", "android": "https://dc.lft.to/lastmile_qr_scan"}, "bike_id": "2f9adb47435b3fb4aebf7ee9b67321e1", "lat": 38.912576}, {"type": "electric_scooter", "fusion_lon": 0.0, "name": "2203901b6b78f85157dc44f506e5db22", "lon": -77.00917966666667, "fusion_lat": 0.0, "is_disabled": 0, "is_reserved": 0, "rental_uris": {"ios": "https://dc.lft.to/lastmile_qr_scan", "android": "https://dc.lft.to/lastmile_qr_scan"}, "bike_id": "2203901b6b78f85157dc44f506e5db22", "lat": 38.89549383333333}, {"type": "electric_scooter", "fusion_lon": 0.0, "name": "e03174054bd4bc0a920726bdfb644d8a", "lon": -76.99003933333333, "fusion_lat": 0.0, "is_disabled": 0, "is_reserved": 0, "rental_uris": {"ios": "https://dc.lft.to/lastmile_qr_scan", "android": "https://dc.lft.to/lastmile_qr_scan"}, "bike_id": "e03174054bd4bc0a920726bdfb644d8a", "lat": 38.8689105}, {"type": "electric_scooter", "fusion_lon": 0.0, "name": "226d80bac585221bcfa38b468a39c795", "lon": -77.02833583333333, "fusion_lat": 0.0, "is_disabled": 0, "is_reserved": 0, "rental_uris": {"ios": "https://dc.lft.to/lastmile_qr_scan", "android": "https://dc.lft.to/lastmile_qr_scan"}, "bike_id": "226d80bac585221bcfa38b468a39c795", "lat": 38.8865455}, {"type": "electric_scooter", "fusion_lon": 0.0, "name": "77f9320b14df15f6f086ff25c4094ad9", "lon": -77.00576866666667, "fusion_lat": 0.0, "is_disabled": 0, "is_reserved": 0, "rental_uris": {"ios": "https://dc.lft.to/lastmile_qr_scan", "android": "https://dc.lft.to/lastmile_qr_scan"}, "bike_id": "77f9320b14df15f6f086ff25c4094ad9", "lat": 38.874686}, {"type": "electric_scooter", "fusion_lon": 0.0, "name": "9d5831a4f18fb6eb241790e621500083", "lon": -76.98322816666666, "fusion_lat": 0.0, "is_disabled": 0, "is_reserved": 0, "rental_uris": {"ios": "https://dc.lft.to/lastmile_qr_scan", "android": "https://dc.lft.to/lastmile_qr_scan"}, "bike_id": "9d5831a4f18fb6eb241790e621500083", "lat": 38.89602933333333}, {"type": "electric_scooter", "fusion_lon": 0.0, "name": "20ba381f6463bb2b99d6dff6efe32da4", "lon": -77.06387216666667, "fusion_lat": 0.0, "is_disabled": 0, "is_reserved": 0, "rental_uris": {"ios": "https://dc.lft.to/lastmile_qr_scan", "android": "https://dc.lft.to/lastmile_qr_scan"}, "bike_id": "20ba381f6463bb2b99d6dff6efe32da4", "lat": 38.90511733333334}, {"type": "electric_scooter", "fusion_lon": 0.0, "name": "0e6aafcbe856436af7c63ebd20914eff", "lon": -77.03150016666666, "fusion_lat": 0.0, "is_disabled": 0, "is_reserved": 0, "rental_uris": {"ios": "https://dc.lft.to/lastmile_qr_scan", "android": "https://dc.lft.to/lastmile_qr_scan"}, "bike_id": "0e6aafcbe856436af7c63ebd20914eff", "lat": 38.9162615}, {"type": "electric_scooter", "fusion_lon": 0.0, "name": "c0c19b35d74e0db9bab3619b5a0af0b8", "lon": -77.05045816666667, "fusion_lat": 0.0, "is_disabled": 0, "is_reserved": 0, "rental_uris": {"ios": "https://dc.lft.to/lastmile_qr_scan", "android": "https://dc.lft.to/lastmile_qr_scan"}, "bike_id": "c0c19b35d74e0db9bab3619b5a0af0b8", "lat": 38.91579616666667}, {"type": "electric_scooter", "fusion_lon": 0.0, "name": "5b2b0e91d55525a9c1c1044c6792f80a", "lon": -77.04355066666666, "fusion_lat": 0.0, "is_disabled": 0, "is_reserved": 0, "rental_uris": {"ios": "https://dc.lft.to/lastmile_qr_scan", "android": "https://dc.lft.to/lastmile_qr_scan"}, "bike_id": "5b2b0e91d55525a9c1c1044c6792f80a", "lat": 38.8962305}, {"type": "electric_scooter", "fusion_lon": 0.0, "name": "a0e94be285fe10b6642019dbf062f7d9", "lon": -77.02252733333333, "fusion_lat": 0.0, "is_disabled": 0, "is_reserved": 0, "rental_uris": {"ios": "https://dc.lft.to/lastmile_qr_scan", "android": "https://dc.lft.to/lastmile_qr_scan"}, "bike_id": "a0e94be285fe10b6642019dbf062f7d9", "lat": 38.924270666666665}, {"type": "electric_scooter", "fusion_lon": 0.0, "name": "89af4e3303bc9d2a318b1b2a7af8bc20", "lon": -77.04213516666667, "fusion_lat": 0.0, "is_disabled": 0, "is_reserved": 0, "rental_uris": {"ios": "https://dc.lft.to/lastmile_qr_scan", "android": "https://dc.lft.to/lastmile_qr_scan"}, "bike_id": "89af4e3303bc9d2a318b1b2a7af8bc20", "lat": 38.909194}, {"type": "electric_scooter", "fusion_lon": 0.0, "name": "d52c27d1358adccf393f278421c50aac", "lon": -77.02162066666666, "fusion_lat": 0.0, "is_disabled": 0, "is_reserved": 0, "rental_uris": {"ios": "https://dc.lft.to/lastmile_qr_scan", "android": "https://dc.lft.to/lastmile_qr_scan"}, "bike_id": "d52c27d1358adccf393f278421c50aac", "lat": 38.92615216666667}, {"type": "electric_scooter", "fusion_lon": 0.0, "name": "fe8f7f5b3c6ecaab9499663cc7af6e33", "lon": -77.04389716666667, "fusion_lat": 0.0, "is_disabled": 0, "is_reserved": 0, "rental_uris": {"ios": "https://dc.lft.to/lastmile_qr_scan", "android": "https://dc.lft.to/lastmile_qr_scan"}, "bike_id": "fe8f7f5b3c6ecaab9499663cc7af6e33", "lat": 38.89202}, {"type": "electric_scooter", "fusion_lon": 0.0, "name": "16050d07061cb3651dee5292afec2237", "lon": -77.04782583333333, "fusion_lat": 0.0, "is_disabled": 0, "is_reserved": 0, "rental_uris": {"ios": "https://dc.lft.to/lastmile_qr_scan", "android": "https://dc.lft.to/lastmile_qr_scan"}, "bike_id": "16050d07061cb3651dee5292afec2237", "lat": 38.900794}, {"type": "electric_scooter", "fusion_lon": 0.0, "name": "620d5a87daeb15c3932826483f7434de", "lon": -77.0151385, "fusion_lat": 0.0, "is_disabled": 0, "is_reserved": 0, "rental_uris": {"ios": "https://dc.lft.to/lastmile_qr_scan", "android": "https://dc.lft.to/lastmile_qr_scan"}, "bike_id": "620d5a87daeb15c3932826483f7434de", "lat": 38.926747166666665}, {"type": "electric_bike", "fusion_lon": 0.0, "name": "c6e997efb375940f7dbe8c36f76d1fb9", "lon": -76.9835315, "fusion_lat": 0.0, "is_disabled": 0, "is_reserved": 0, "rental_uris": {"ios": "https://dc.lft.to/lastmile_qr_scan", "android": "https://dc.lft.to/lastmile_qr_scan"}, "bike_id": "c6e997efb375940f7dbe8c36f76d1fb9", "lat": 38.86267183333333}, {"type": "electric_scooter", "fusion_lon": 0.0, "name": "72293a2f693f053d4f546ca803e26aaf", "lon": -77.0486465, "fusion_lat": 0.0, "is_disabled": 0, "is_reserved": 0, "rental_uris": {"ios": "https://dc.lft.to/lastmile_qr_scan", "android": "https://dc.lft.to/lastmile_qr_scan"}, "bike_id": "72293a2f693f053d4f546ca803e26aaf", "lat": 38.9113395}, {"type": "electric_scooter", "fusion_lon": 0.0, "name": "53d7b3785cb985c5fbb84b226235ba36", "lon": -77.02498583333333, "fusion_lat": 0.0, "is_disabled": 0, "is_reserved": 0, "rental_uris": {"ios": "https://dc.lft.to/lastmile_qr_scan", "android": "https://dc.lft.to/lastmile_qr_scan"}, "bike_id": "53d7b3785cb985c5fbb84b226235ba36", "lat": 38.91968583333333}, {"type": "electric_scooter", "fusion_lon": 0.0, "name": "7b92ed9eed24e4410158f1d5bc141618", "lon": -77.01632383333333, "fusion_lat": 0.0, "is_disabled": 0, "is_reserved": 0, "rental_uris": {"ios": "https://dc.lft.to/lastmile_qr_scan", "android": "https://dc.lft.to/lastmile_qr_scan"}, "bike_id": "7b92ed9eed24e4410158f1d5bc141618", "lat": 38.89978333333333}, {"type": "electric_scooter", "fusion_lon": 0.0, "name": "f27f99111b252387ca15f37ad9cc47fc", "lon": -77.0428295, "fusion_lat": 0.0, "is_disabled": 0, "is_reserved": 0, "rental_uris": {"ios": "https://dc.lft.to/lastmile_qr_scan", "android": "https://dc.lft.to/lastmile_qr_scan"}, "bike_id": "f27f99111b252387ca15f37ad9cc47fc", "lat": 38.9119345}, {"type": "electric_bike", "fusion_lon": 0.0, "name": "2bb35440dd55720d4e2f7e870d86fe16", "lon": -77.02721966666667, "fusion_lat": 0.0, "is_disabled": 0, "is_reserved": 0, "rental_uris": {"ios": "https://dc.lft.to/lastmile_qr_scan", "android": "https://dc.lft.to/lastmile_qr_scan"}, "bike_id": "2bb35440dd55720d4e2f7e870d86fe16", "lat": 38.931044166666666}, {"type": "electric_scooter", "fusion_lon": 0.0, "name": "3fcba708eb0bbdb3473bbdd612f0f5b9", "lon": -77.01286783333333, "fusion_lat": 0.0, "is_disabled": 0, "is_reserved": 0, "rental_uris": {"ios": "https://dc.lft.to/lastmile_qr_scan", "android": "https://dc.lft.to/lastmile_qr_scan"}, "bike_id": "3fcba708eb0bbdb3473bbdd612f0f5b9", "lat": 38.89744433333333}, {"type": "electric_scooter", "fusion_lon": 0.0, "name": "bdb4a3629180fe7f876393d1fc261039", "lon": -77.02813983333333, "fusion_lat": 0.0, "is_disabled": 0, "is_reserved": 0, "rental_uris": {"ios": "https://dc.lft.to/lastmile_qr_scan", "android": "https://dc.lft.to/lastmile_qr_scan"}, "bike_id": "bdb4a3629180fe7f876393d1fc261039", "lat": 38.89714166666667}, {"type": "electric_scooter", "fusion_lon": 0.0, "name": "64fddf36092790d41b9a0b15bfdf7b2f", "lon": -77.04001433333333, "fusion_lat": 0.0, "is_disabled": 0, "is_reserved": 0, "rental_uris": {"ios": "https://dc.lft.to/lastmile_qr_scan", "android": "https://dc.lft.to/lastmile_qr_scan"}, "bike_id": "64fddf36092790d41b9a0b15bfdf7b2f", "lat": 38.9343025}, {"type": "electric_scooter", "fusion_lon": 0.0, "name": "29aff120c412e1ea9afe5c20938656ae", "lon": -77.05027083333333, "fusion_lat": 0.0, "is_disabled": 0, "is_reserved": 0, "rental_uris": {"ios": "https://dc.lft.to/lastmile_qr_scan", "android": "https://dc.lft.to/lastmile_qr_scan"}, "bike_id": "29aff120c412e1ea9afe5c20938656ae", "lat": 38.896512666666666}, {"type": "electric_scooter", "fusion_lon": 0.0, "name": "654ac0b6803f0344994cec612051ea07", "lon": -77.01991933333333, "fusion_lat": 0.0, "is_disabled": 0, "is_reserved": 0, "rental_uris": {"ios": "https://dc.lft.to/lastmile_qr_scan", "android": "https://dc.lft.to/lastmile_qr_scan"}, "bike_id": "654ac0b6803f0344994cec612051ea07", "lat": 38.90009883333333}, {"type": "electric_scooter", "fusion_lon": 0.0, "name": "ef5d10c535b8e8fd0d3515397c2a49d0", "lon": -77.02400616666667, "fusion_lat": 0.0, "is_disabled": 0, "is_reserved": 0, "rental_uris": {"ios": "https://dc.lft.to/lastmile_qr_scan", "android": "https://dc.lft.to/lastmile_qr_scan"}, "bike_id": "ef5d10c535b8e8fd0d3515397c2a49d0", "lat": 38.93702783333333}, {"type": "electric_scooter", "fusion_lon": 0.0, "name": "d2e5b4731d575670be9a989b34dbaa90", "lon": -77.03790716666667, "fusion_lat": 0.0, "is_disabled": 0, "is_reserved": 0, "rental_uris": {"ios": "https://dc.lft.to/lastmile_qr_scan", "android": "https://dc.lft.to/lastmile_qr_scan"}, "bike_id": "d2e5b4731d575670be9a989b34dbaa90", "lat": 38.928249666666666}, {"type": "electric_scooter", "fusion_lon": 0.0, "name": "49f5f6b15e3d1b0de570cd1f125b4486", "lon": -77.03163566666667, "fusion_lat": 0.0, "is_disabled": 0, "is_reserved": 0, "rental_uris": {"ios": "https://dc.lft.to/lastmile_qr_scan", "android": "https://dc.lft.to/lastmile_qr_scan"}, "bike_id": "49f5f6b15e3d1b0de570cd1f125b4486", "lat": 38.89225116666667}, {"type": "electric_scooter", "fusion_lon": 0.0, "name": "e66b110429cbf1cddf3d19f94163bb8a", "lon": -76.991547, "fusion_lat": 0.0, "is_disabled": 0, "is_reserved": 0, "rental_uris": {"ios": "https://dc.lft.to/lastmile_qr_scan", "android": "https://dc.lft.to/lastmile_qr_scan"}, "bike_id": "e66b110429cbf1cddf3d19f94163bb8a", "lat": 38.900474833333334}, {"type": "electric_scooter", "fusion_lon": 0.0, "name": "fa44862855eea72fbc8cb17d2e494530", "lon": -77.02595083333334, "fusion_lat": 0.0, "is_disabled": 0, "is_reserved": 0, "rental_uris": {"ios": "https://dc.lft.to/lastmile_qr_scan", "android": "https://dc.lft.to/lastmile_qr_scan"}, "bike_id": "fa44862855eea72fbc8cb17d2e494530", "lat": 38.896204166666664}, {"type": "electric_scooter", "fusion_lon": 0.0, "name": "6f04a3ff74f36eaaacdb0abb5914d7bb", "lon": -77.03183566666667, "fusion_lat": 0.0, "is_disabled": 0, "is_reserved": 0, "rental_uris": {"ios": "https://dc.lft.to/lastmile_qr_scan", "android": "https://dc.lft.to/lastmile_qr_scan"}, "bike_id": "6f04a3ff74f36eaaacdb0abb5914d7bb", "lat": 38.89244716666666}, {"type": "electric_scooter", "fusion_lon": 0.0, "name": "ff08b3c5b0fe83c8e8757f67d26d013e", "lon": -77.03499933333333, "fusion_lat": 0.0, "is_disabled": 0, "is_reserved": 0, "rental_uris": {"ios": "https://dc.lft.to/lastmile_qr_scan", "android": "https://dc.lft.to/lastmile_qr_scan"}, "bike_id": "ff08b3c5b0fe83c8e8757f67d26d013e", "lat": 38.92855083333333}, {"type": "electric_scooter", "fusion_lon": 0.0, "name": "af6a98679156eeebcdaba1e7788ed05c", "lon": -77.02153183333333, "fusion_lat": 0.0, "is_disabled": 0, "is_reserved": 0, "rental_uris": {"ios": "https://dc.lft.to/lastmile_qr_scan", "android": "https://dc.lft.to/lastmile_qr_scan"}, "bike_id": "af6a98679156eeebcdaba1e7788ed05c", "lat": 38.924443}, {"type": "electric_scooter", "fusion_lon": 0.0, "name": "a8d8790a017ead448da03f159d005c41", "lon": -77.02419866666666, "fusion_lat": 0.0, "is_disabled": 0, "is_reserved": 0, "rental_uris": {"ios": "https://dc.lft.to/lastmile_qr_scan", "android": "https://dc.lft.to/lastmile_qr_scan"}, "bike_id": "a8d8790a017ead448da03f159d005c41", "lat": 38.89226133333333}, {"type": "electric_scooter", "fusion_lon": 0.0, "name": "c8c19c7b32dafe665620b4bb696cb5e1", "lon": -77.04125966666666, "fusion_lat": 0.0, "is_disabled": 0, "is_reserved": 0, "rental_uris": {"ios": "https://dc.lft.to/lastmile_qr_scan", "android": "https://dc.lft.to/lastmile_qr_scan"}, "bike_id": "c8c19c7b32dafe665620b4bb696cb5e1", "lat": 38.905371833333334}, {"type": "electric_scooter", "fusion_lon": 0.0, "name": "cd5b1bed274f0b74a677c6e6940bcb1d", "lon": -77.03662433333334, "fusion_lat": 0.0, "is_disabled": 0, "is_reserved": 0, "rental_uris": {"ios": "https://dc.lft.to/lastmile_qr_scan", "android": "https://dc.lft.to/lastmile_qr_scan"}, "bike_id": "cd5b1bed274f0b74a677c6e6940bcb1d", "lat": 38.91834266666667}, {"type": "electric_scooter", "fusion_lon": 0.0, "name": "b0f9c3a2e59653e13c04159db19bf736", "lon": -77.0440925, "fusion_lat": 0.0, "is_disabled": 0, "is_reserved": 0, "rental_uris": {"ios": "https://dc.lft.to/lastmile_qr_scan", "android": "https://dc.lft.to/lastmile_qr_scan"}, "bike_id": "b0f9c3a2e59653e13c04159db19bf736", "lat": 38.8961765}, {"type": "electric_scooter", "fusion_lon": 0.0, "name": "8283cf66c07529f597b14f6f7bdfee26", "lon": -77.037156, "fusion_lat": 0.0, "is_disabled": 0, "is_reserved": 0, "rental_uris": {"ios": "https://dc.lft.to/lastmile_qr_scan", "android": "https://dc.lft.to/lastmile_qr_scan"}, "bike_id": "8283cf66c07529f597b14f6f7bdfee26", "lat": 38.9263665}, {"type": "electric_scooter", "fusion_lon": 0.0, "name": "ed6d814f3dbe217aee410ca594456ab2", "lon": -77.0230955, "fusion_lat": 0.0, "is_disabled": 0, "is_reserved": 0, "rental_uris": {"ios": "https://dc.lft.to/lastmile_qr_scan", "android": "https://dc.lft.to/lastmile_qr_scan"}, "bike_id": "ed6d814f3dbe217aee410ca594456ab2", "lat": 38.9029055}, {"type": "electric_scooter", "fusion_lon": 0.0, "name": "f0b249591c3d8cc618b85c728345e682", "lon": -77.04145083333333, "fusion_lat": 0.0, "is_disabled": 0, "is_reserved": 0, "rental_uris": {"ios": "https://dc.lft.to/lastmile_qr_scan", "android": "https://dc.lft.to/lastmile_qr_scan"}, "bike_id": "f0b249591c3d8cc618b85c728345e682", "lat": 38.923010166666664}, {"type": "electric_scooter", "fusion_lon": 0.0, "name": "87d691a107c767bfa4c2e6cfadd43adf", "lon": -77.03257533333333, "fusion_lat": 0.0, "is_disabled": 0, "is_reserved": 0, "rental_uris": {"ios": "https://dc.lft.to/lastmile_qr_scan", "android": "https://dc.lft.to/lastmile_qr_scan"}, "bike_id": "87d691a107c767bfa4c2e6cfadd43adf", "lat": 38.91194333333333}, {"type": "electric_scooter", "fusion_lon": 0.0, "name": "ed9548bc9583f53f48045f891269fc2e", "lon": -77.05153383333334, "fusion_lat": 0.0, "is_disabled": 0, "is_reserved": 0, "rental_uris": {"ios": "https://dc.lft.to/lastmile_qr_scan", "android": "https://dc.lft.to/lastmile_qr_scan"}, "bike_id": "ed9548bc9583f53f48045f891269fc2e", "lat": 38.92144916666667}, {"type": "electric_scooter", "fusion_lon": 0.0, "name": "6d7e96e715bbdb74df871840119dae07", "lon": -76.93275216666666, "fusion_lat": 0.0, "is_disabled": 0, "is_reserved": 0, "rental_uris": {"ios": "https://dc.lft.to/lastmile_qr_scan", "android": "https://dc.lft.to/lastmile_qr_scan"}, "bike_id": "6d7e96e715bbdb74df871840119dae07", "lat": 38.9045795}, {"type": "electric_scooter", "fusion_lon": 0.0, "name": "d215a9986f58705e5d82dc2f76a2ce42", "lon": -77.04376766666667, "fusion_lat": 0.0, "is_disabled": 0, "is_reserved": 0, "rental_uris": {"ios": "https://dc.lft.to/lastmile_qr_scan", "android": "https://dc.lft.to/lastmile_qr_scan"}, "bike_id": "d215a9986f58705e5d82dc2f76a2ce42", "lat": 38.896102}, {"type": "electric_scooter", "fusion_lon": 0.0, "name": "9ef4c4ab25a1c0e316d82b6def6e57e9", "lon": -77.04514433333334, "fusion_lat": 0.0, "is_disabled": 0, "is_reserved": 0, "rental_uris": {"ios": "https://dc.lft.to/lastmile_qr_scan", "android": "https://dc.lft.to/lastmile_qr_scan"}, "bike_id": "9ef4c4ab25a1c0e316d82b6def6e57e9", "lat": 38.912816166666666}, {"type": "electric_scooter", "fusion_lon": 0.0, "name": "60dd752b7d6916c96e3ab18a63858e0f", "lon": -77.0336945, "fusion_lat": 0.0, "is_disabled": 0, "is_reserved": 0, "rental_uris": {"ios": "https://dc.lft.to/lastmile_qr_scan", "android": "https://dc.lft.to/lastmile_qr_scan"}, "bike_id": "60dd752b7d6916c96e3ab18a63858e0f", "lat": 38.9236255}, {"type": "electric_scooter", "fusion_lon": 0.0, "name": "2f6b6e03daec52eb2bb4142af3a91456", "lon": -76.99451066666667, "fusion_lat": 0.0, "is_disabled": 0, "is_reserved": 0, "rental_uris": {"ios": "https://dc.lft.to/lastmile_qr_scan", "android": "https://dc.lft.to/lastmile_qr_scan"}, "bike_id": "2f6b6e03daec52eb2bb4142af3a91456", "lat": 38.90829933333333}, {"type": "electric_scooter", "fusion_lon": 0.0, "name": "e9e406fa1df0d7341ee581f67cd4e66c", "lon": -77.0436545, "fusion_lat": 0.0, "is_disabled": 0, "is_reserved": 0, "rental_uris": {"ios": "https://dc.lft.to/lastmile_qr_scan", "android": "https://dc.lft.to/lastmile_qr_scan"}, "bike_id": "e9e406fa1df0d7341ee581f67cd4e66c", "lat": 38.902604}, {"type": "electric_scooter", "fusion_lon": 0.0, "name": "7d3b89664c5799af98e6319981a3d337", "lon": -77.03429566666667, "fusion_lat": 0.0, "is_disabled": 0, "is_reserved": 0, "rental_uris": {"ios": "https://dc.lft.to/lastmile_qr_scan", "android": "https://dc.lft.to/lastmile_qr_scan"}, "bike_id": "7d3b89664c5799af98e6319981a3d337", "lat": 38.91916583333333}, {"type": "electric_scooter", "fusion_lon": 0.0, "name": "5c004b29b491f3b2a69b7b04462b8cae", "lon": -77.02929316666666, "fusion_lat": 0.0, "is_disabled": 0, "is_reserved": 0, "rental_uris": {"ios": "https://dc.lft.to/lastmile_qr_scan", "android": "https://dc.lft.to/lastmile_qr_scan"}, "bike_id": "5c004b29b491f3b2a69b7b04462b8cae", "lat": 38.884524166666665}, {"type": "electric_scooter", "fusion_lon": 0.0, "name": "4523840dfc7452be223b22729e5d640f", "lon": -77.01358966666666, "fusion_lat": 0.0, "is_disabled": 0, "is_reserved": 0, "rental_uris": {"ios": "https://dc.lft.to/lastmile_qr_scan", "android": "https://dc.lft.to/lastmile_qr_scan"}, "bike_id": "4523840dfc7452be223b22729e5d640f", "lat": 38.87164966666667}, {"type": "electric_scooter", "fusion_lon": 0.0, "name": "b4defd9625a1d534c210da8daa74e532", "lon": -77.02201066666667, "fusion_lat": 0.0, "is_disabled": 0, "is_reserved": 0, "rental_uris": {"ios": "https://dc.lft.to/lastmile_qr_scan", "android": "https://dc.lft.to/lastmile_qr_scan"}, "bike_id": "b4defd9625a1d534c210da8daa74e532", "lat": 38.89618733333333}, {"type": "electric_scooter", "fusion_lon": 0.0, "name": "6af2565e3e729324c7aa9ddea98f781b", "lon": -77.03751666666666, "fusion_lat": 0.0, "is_disabled": 0, "is_reserved": 0, "rental_uris": {"ios": "https://dc.lft.to/lastmile_qr_scan", "android": "https://dc.lft.to/lastmile_qr_scan"}, "bike_id": "6af2565e3e729324c7aa9ddea98f781b", "lat": 38.91691433333333}, {"type": "electric_bike", "fusion_lon": 0.0, "name": "834db53d59ae8434648b47ad7dfcb3bd", "lon": -77.07750916666667, "fusion_lat": 0.0, "is_disabled": 0, "is_reserved": 0, "rental_uris": {"ios": "https://dc.lft.to/lastmile_qr_scan", "android": "https://dc.lft.to/lastmile_qr_scan"}, "bike_id": "834db53d59ae8434648b47ad7dfcb3bd", "lat": 38.84193883333333}, {"type": "electric_scooter", "fusion_lon": 0.0, "name": "a9a85efc8bc218d40abc685bd8333324", "lon": -76.94931683333333, "fusion_lat": 0.0, "is_disabled": 0, "is_reserved": 0, "rental_uris": {"ios": "https://dc.lft.to/lastmile_qr_scan", "android": "https://dc.lft.to/lastmile_qr_scan"}, "bike_id": "a9a85efc8bc218d40abc685bd8333324", "lat": 38.89530933333333}, {"type": "electric_scooter", "fusion_lon": 0.0, "name": "2b86e16b9e4591f9ddd588fa0b49ae27", "lon": -77.02160483333333, "fusion_lat": 0.0, "is_disabled": 0, "is_reserved": 0, "rental_uris": {"ios": "https://dc.lft.to/lastmile_qr_scan", "android": "https://dc.lft.to/lastmile_qr_scan"}, "bike_id": "2b86e16b9e4591f9ddd588fa0b49ae27", "lat": 38.926129833333334}, {"type": "electric_scooter", "fusion_lon": 0.0, "name": "85bccac1d8804fb8346df6d4ec6c1ef5", "lon": -77.0424055, "fusion_lat": 0.0, "is_disabled": 0, "is_reserved": 0, "rental_uris": {"ios": "https://dc.lft.to/lastmile_qr_scan", "android": "https://dc.lft.to/lastmile_qr_scan"}, "bike_id": "85bccac1d8804fb8346df6d4ec6c1ef5", "lat": 38.922245333333336}, {"type": "electric_scooter", "fusion_lon": 0.0, "name": "f00b096df2648d1c599dbf3cc3f62c99", "lon": -76.98771816666667, "fusion_lat": 0.0, "is_disabled": 0, "is_reserved": 0, "rental_uris": {"ios": "https://dc.lft.to/lastmile_qr_scan", "android": "https://dc.lft.to/lastmile_qr_scan"}, "bike_id": "f00b096df2648d1c599dbf3cc3f62c99", "lat": 38.9120435}, {"type": "electric_scooter", "fusion_lon": 0.0, "name": "17ddd00df3d3dc39e3a2d5813e6ae554", "lon": -77.02208816666666, "fusion_lat": 0.0, "is_disabled": 0, "is_reserved": 0, "rental_uris": {"ios": "https://dc.lft.to/lastmile_qr_scan", "android": "https://dc.lft.to/lastmile_qr_scan"}, "bike_id": "17ddd00df3d3dc39e3a2d5813e6ae554", "lat": 38.90026116666667}, {"type": "electric_scooter", "fusion_lon": 0.0, "name": "a50ec7e77d0ce0ed7385a8c567b38ec2", "lon": -77.01976583333334, "fusion_lat": 0.0, "is_disabled": 0, "is_reserved": 0, "rental_uris": {"ios": "https://dc.lft.to/lastmile_qr_scan", "android": "https://dc.lft.to/lastmile_qr_scan"}, "bike_id": "a50ec7e77d0ce0ed7385a8c567b38ec2", "lat": 38.8858025}, {"type": "electric_scooter", "fusion_lon": 0.0, "name": "5ded9ec45d47ea205b3c1ad77ebc9e13", "lon": -77.06604233333333, "fusion_lat": 0.0, "is_disabled": 0, "is_reserved": 0, "rental_uris": {"ios": "https://dc.lft.to/lastmile_qr_scan", "android": "https://dc.lft.to/lastmile_qr_scan"}, "bike_id": "5ded9ec45d47ea205b3c1ad77ebc9e13", "lat": 38.905282666666665}, {"type": "electric_scooter", "fusion_lon": 0.0, "name": "db408a60adfe8edc74f6dccdfd60e359", "lon": -77.02270383333334, "fusion_lat": 0.0, "is_disabled": 0, "is_reserved": 0, "rental_uris": {"ios": "https://dc.lft.to/lastmile_qr_scan", "android": "https://dc.lft.to/lastmile_qr_scan"}, "bike_id": "db408a60adfe8edc74f6dccdfd60e359", "lat": 38.88139833333334}, {"type": "electric_scooter", "fusion_lon": 0.0, "name": "16665838315178bb6d41aab891307afe", "lon": -77.03870366666666, "fusion_lat": 0.0, "is_disabled": 0, "is_reserved": 0, "rental_uris": {"ios": "https://dc.lft.to/lastmile_qr_scan", "android": "https://dc.lft.to/lastmile_qr_scan"}, "bike_id": "16665838315178bb6d41aab891307afe", "lat": 38.92149766666667}, {"type": "electric_scooter", "fusion_lon": 0.0, "name": "8868b28b0c0a7f00e35656900225b50c", "lon": -77.03937533333334, "fusion_lat": 0.0, "is_disabled": 0, "is_reserved": 0, "rental_uris": {"ios": "https://dc.lft.to/lastmile_qr_scan", "android": "https://dc.lft.to/lastmile_qr_scan"}, "bike_id": "8868b28b0c0a7f00e35656900225b50c", "lat": 38.90195516666667}, {"type": "electric_scooter", "fusion_lon": 0.0, "name": "ff80f5f149a9dfd75e5a8e506085cc4b", "lon": -76.949755, "fusion_lat": 0.0, "is_disabled": 0, "is_reserved": 0, "rental_uris": {"ios": "https://dc.lft.to/lastmile_qr_scan", "android": "https://dc.lft.to/lastmile_qr_scan"}, "bike_id": "ff80f5f149a9dfd75e5a8e506085cc4b", "lat": 38.90066616666667}, {"type": "electric_scooter", "fusion_lon": 0.0, "name": "31cd8704d6edb09d8a85543f14df59cd", "lon": -77.0180985, "fusion_lat": 0.0, "is_disabled": 0, "is_reserved": 0, "rental_uris": {"ios": "https://dc.lft.to/lastmile_qr_scan", "android": "https://dc.lft.to/lastmile_qr_scan"}, "bike_id": "31cd8704d6edb09d8a85543f14df59cd", "lat": 38.89611716666667}, {"type": "electric_scooter", "fusion_lon": 0.0, "name": "198990e9d218fdc7e090e94249d0cb3c", "lon": -77.03939083333333, "fusion_lat": 0.0, "is_disabled": 0, "is_reserved": 0, "rental_uris": {"ios": "https://dc.lft.to/lastmile_qr_scan", "android": "https://dc.lft.to/lastmile_qr_scan"}, "bike_id": "198990e9d218fdc7e090e94249d0cb3c", "lat": 38.930640833333335}, {"type": "electric_scooter", "fusion_lon": 0.0, "name": "144fb32544c23f5d4a0d831523ea2f48", "lon": -77.00891833333333, "fusion_lat": 0.0, "is_disabled": 0, "is_reserved": 0, "rental_uris": {"ios": "https://dc.lft.to/lastmile_qr_scan", "android": "https://dc.lft.to/lastmile_qr_scan"}, "bike_id": "144fb32544c23f5d4a0d831523ea2f48", "lat": 38.92483133333333}, {"type": "electric_scooter", "fusion_lon": 0.0, "name": "4897512e05a4343b1742ec0ddd3a4659", "lon": -76.99156416666666, "fusion_lat": 0.0, "is_disabled": 0, "is_reserved": 0, "rental_uris": {"ios": "https://dc.lft.to/lastmile_qr_scan", "android": "https://dc.lft.to/lastmile_qr_scan"}, "bike_id": "4897512e05a4343b1742ec0ddd3a4659", "lat": 38.90051183333333}, {"type": "electric_scooter", "fusion_lon": 0.0, "name": "b5c3f684fe9015b6183a9fb9c1a5839a", "lon": -76.98533883333333, "fusion_lat": 0.0, "is_disabled": 0, "is_reserved": 0, "rental_uris": {"ios": "https://dc.lft.to/lastmile_qr_scan", "android": "https://dc.lft.to/lastmile_qr_scan"}, "bike_id": "b5c3f684fe9015b6183a9fb9c1a5839a", "lat": 38.899475333333335}, {"type": "electric_scooter", "fusion_lon": 0.0, "name": "1cd96d656286b9986b54cf766403e538", "lon": -76.99519966666666, "fusion_lat": 0.0, "is_disabled": 0, "is_reserved": 0, "rental_uris": {"ios": "https://dc.lft.to/lastmile_qr_scan", "android": "https://dc.lft.to/lastmile_qr_scan"}, "bike_id": "1cd96d656286b9986b54cf766403e538", "lat": 38.8837495}, {"type": "electric_scooter", "fusion_lon": 0.0, "name": "a727b3eb045a6223c98f1fb0438dd77f", "lon": -77.02005716666666, "fusion_lat": 0.0, "is_disabled": 0, "is_reserved": 0, "rental_uris": {"ios": "https://dc.lft.to/lastmile_qr_scan", "android": "https://dc.lft.to/lastmile_qr_scan"}, "bike_id": "a727b3eb045a6223c98f1fb0438dd77f", "lat": 38.9158655}, {"type": "electric_scooter", "fusion_lon": 0.0, "name": "977ecd32649e77c383011d5f75072a82", "lon": -77.04335833333333, "fusion_lat": 0.0, "is_disabled": 0, "is_reserved": 0, "rental_uris": {"ios": "https://dc.lft.to/lastmile_qr_scan", "android": "https://dc.lft.to/lastmile_qr_scan"}, "bike_id": "977ecd32649e77c383011d5f75072a82", "lat": 38.9004055}, {"type": "electric_scooter", "fusion_lon": 0.0, "name": "041acc5691bdb481ead568bea4d52144", "lon": -77.02097133333334, "fusion_lat": 0.0, "is_disabled": 0, "is_reserved": 0, "rental_uris": {"ios": "https://dc.lft.to/lastmile_qr_scan", "android": "https://dc.lft.to/lastmile_qr_scan"}, "bike_id": "041acc5691bdb481ead568bea4d52144", "lat": 38.9327035}, {"type": "electric_scooter", "fusion_lon": 0.0, "name": "c3baa2775181d3a020d6af2f2a6caad9", "lon": -77.006568, "fusion_lat": 0.0, "is_disabled": 0, "is_reserved": 0, "rental_uris": {"ios": "https://dc.lft.to/lastmile_qr_scan", "android": "https://dc.lft.to/lastmile_qr_scan"}, "bike_id": "c3baa2775181d3a020d6af2f2a6caad9", "lat": 38.87677383333333}, {"type": "electric_scooter", "fusion_lon": 0.0, "name": "b3c0c6003313b2fbead65457c3822e37", "lon": -77.0376395, "fusion_lat": 0.0, "is_disabled": 0, "is_reserved": 0, "rental_uris": {"ios": "https://dc.lft.to/lastmile_qr_scan", "android": "https://dc.lft.to/lastmile_qr_scan"}, "bike_id": "b3c0c6003313b2fbead65457c3822e37", "lat": 38.916921}, {"type": "electric_scooter", "fusion_lon": 0.0, "name": "49dd00dd3df14787d5d5f4cc3c64858a", "lon": -77.02519933333333, "fusion_lat": 0.0, "is_disabled": 0, "is_reserved": 0, "rental_uris": {"ios": "https://dc.lft.to/lastmile_qr_scan", "android": "https://dc.lft.to/lastmile_qr_scan"}, "bike_id": "49dd00dd3df14787d5d5f4cc3c64858a", "lat": 38.89762416666667}, {"type": "electric_scooter", "fusion_lon": 0.0, "name": "7e9edf64511c25ca61270437f115274e", "lon": -77.05590866666667, "fusion_lat": 0.0, "is_disabled": 0, "is_reserved": 0, "rental_uris": {"ios": "https://dc.lft.to/lastmile_qr_scan", "android": "https://dc.lft.to/lastmile_qr_scan"}, "bike_id": "7e9edf64511c25ca61270437f115274e", "lat": 38.927938166666664}, {"type": "electric_scooter", "fusion_lon": 0.0, "name": "e52aeb1d71a8e6737dadec51680c8bb6", "lon": -77.0324795, "fusion_lat": 0.0, "is_disabled": 0, "is_reserved": 0, "rental_uris": {"ios": "https://dc.lft.to/lastmile_qr_scan", "android": "https://dc.lft.to/lastmile_qr_scan"}, "bike_id": "e52aeb1d71a8e6737dadec51680c8bb6", "lat": 38.91992966666667}, {"type": "electric_scooter", "fusion_lon": 0.0, "name": "90740159935aa12235b1f505cbd92017", "lon": -77.0296135, "fusion_lat": 0.0, "is_disabled": 0, "is_reserved": 0, "rental_uris": {"ios": "https://dc.lft.to/lastmile_qr_scan", "android": "https://dc.lft.to/lastmile_qr_scan"}, "bike_id": "90740159935aa12235b1f505cbd92017", "lat": 38.89828833333333}, {"type": "electric_scooter", "fusion_lon": 0.0, "name": "95c0253dc337dacbeb450c6f7a635c3b", "lon": -77.02794766666666, "fusion_lat": 0.0, "is_disabled": 0, "is_reserved": 0, "rental_uris": {"ios": "https://dc.lft.to/lastmile_qr_scan", "android": "https://dc.lft.to/lastmile_qr_scan"}, "bike_id": "95c0253dc337dacbeb450c6f7a635c3b", "lat": 38.90719583333333}, {"type": "electric_scooter", "fusion_lon": 0.0, "name": "2203c9650074309d70286ef619011025", "lon": -77.03752433333334, "fusion_lat": 0.0, "is_disabled": 0, "is_reserved": 0, "rental_uris": {"ios": "https://dc.lft.to/lastmile_qr_scan", "android": "https://dc.lft.to/lastmile_qr_scan"}, "bike_id": "2203c9650074309d70286ef619011025", "lat": 38.92873483333333}, {"type": "electric_scooter", "fusion_lon": 0.0, "name": "b8fe70f1d795111bb763c3548615b257", "lon": -77.036699, "fusion_lat": 0.0, "is_disabled": 0, "is_reserved": 0, "rental_uris": {"ios": "https://dc.lft.to/lastmile_qr_scan", "android": "https://dc.lft.to/lastmile_qr_scan"}, "bike_id": "b8fe70f1d795111bb763c3548615b257", "lat": 38.9227495}, {"type": "electric_scooter", "fusion_lon": 0.0, "name": "8578df06e5f51f0d5c4e562d9ba6b258", "lon": -76.98038416666667, "fusion_lat": 0.0, "is_disabled": 0, "is_reserved": 0, "rental_uris": {"ios": "https://dc.lft.to/lastmile_qr_scan", "android": "https://dc.lft.to/lastmile_qr_scan"}, "bike_id": "8578df06e5f51f0d5c4e562d9ba6b258", "lat": 38.8896925}, {"type": "electric_scooter", "fusion_lon": 0.0, "name": "1a45e54cc78367685e592ec85efd2440", "lon": -77.04216616666666, "fusion_lat": 0.0, "is_disabled": 0, "is_reserved": 0, "rental_uris": {"ios": "https://dc.lft.to/lastmile_qr_scan", "android": "https://dc.lft.to/lastmile_qr_scan"}, "bike_id": "1a45e54cc78367685e592ec85efd2440", "lat": 38.91123066666667}, {"type": "electric_scooter", "fusion_lon": 0.0, "name": "6f4a46b1e8d5372bc13ee1d8cf003f35", "lon": -77.02274133333333, "fusion_lat": 0.0, "is_disabled": 0, "is_reserved": 0, "rental_uris": {"ios": "https://dc.lft.to/lastmile_qr_scan", "android": "https://dc.lft.to/lastmile_qr_scan"}, "bike_id": "6f4a46b1e8d5372bc13ee1d8cf003f35", "lat": 38.88737283333333}, {"type": "electric_scooter", "fusion_lon": 0.0, "name": "4c673eaf07d4d472d2f0c3530e7b96d9", "lon": -77.05106833333333, "fusion_lat": 0.0, "is_disabled": 0, "is_reserved": 0, "rental_uris": {"ios": "https://dc.lft.to/lastmile_qr_scan", "android": "https://dc.lft.to/lastmile_qr_scan"}, "bike_id": "4c673eaf07d4d472d2f0c3530e7b96d9", "lat": 38.915654333333336}, {"type": "electric_scooter", "fusion_lon": 0.0, "name": "8b4045ab96dd91b09777e033d32c3ab9", "lon": -77.01005333333333, "fusion_lat": 0.0, "is_disabled": 0, "is_reserved": 0, "rental_uris": {"ios": "https://dc.lft.to/lastmile_qr_scan", "android": "https://dc.lft.to/lastmile_qr_scan"}, "bike_id": "8b4045ab96dd91b09777e033d32c3ab9", "lat": 38.91031133333333}, {"type": "electric_bike", "fusion_lon": 0.0, "name": "762b163a23a652b98fc0463101af6082", "lon": -77.139343, "fusion_lat": 0.0, "is_disabled": 0, "is_reserved": 0, "rental_uris": {"ios": "https://dc.lft.to/lastmile_qr_scan", "android": "https://dc.lft.to/lastmile_qr_scan"}, "bike_id": "762b163a23a652b98fc0463101af6082", "lat": 38.846774}, {"type": "electric_scooter", "fusion_lon": 0.0, "name": "a8db691ca063644bb970399c6ac1d836", "lon": -77.03445466666666, "fusion_lat": 0.0, "is_disabled": 0, "is_reserved": 0, "rental_uris": {"ios": "https://dc.lft.to/lastmile_qr_scan", "android": "https://dc.lft.to/lastmile_qr_scan"}, "bike_id": "a8db691ca063644bb970399c6ac1d836", "lat": 38.919126}, {"type": "electric_scooter", "fusion_lon": 0.0, "name": "85a2cecc783f35d6f21f97aacb000d38", "lon": -77.0226715, "fusion_lat": 0.0, "is_disabled": 0, "is_reserved": 0, "rental_uris": {"ios": "https://dc.lft.to/lastmile_qr_scan", "android": "https://dc.lft.to/lastmile_qr_scan"}, "bike_id": "85a2cecc783f35d6f21f97aacb000d38", "lat": 38.92485083333333}, {"type": "electric_scooter", "fusion_lon": 0.0, "name": "9470c394b57bb784b3a6c993c4e0792e", "lon": -77.02230583333333, "fusion_lat": 0.0, "is_disabled": 0, "is_reserved": 0, "rental_uris": {"ios": "https://dc.lft.to/lastmile_qr_scan", "android": "https://dc.lft.to/lastmile_qr_scan"}, "bike_id": "9470c394b57bb784b3a6c993c4e0792e", "lat": 38.914196833333335}, {"type": "electric_scooter", "fusion_lon": 0.0, "name": "4fb0cd1908472a7bb4e3a24b4a031744", "lon": -77.02616733333333, "fusion_lat": 0.0, "is_disabled": 0, "is_reserved": 0, "rental_uris": {"ios": "https://dc.lft.to/lastmile_qr_scan", "android": "https://dc.lft.to/lastmile_qr_scan"}, "bike_id": "4fb0cd1908472a7bb4e3a24b4a031744", "lat": 38.892277666666665}, {"type": "electric_scooter", "fusion_lon": 0.0, "name": "5b295ddab5a47ca7aa9dd375e0506ee3", "lon": -77.05417466666667, "fusion_lat": 0.0, "is_disabled": 0, "is_reserved": 0, "rental_uris": {"ios": "https://dc.lft.to/lastmile_qr_scan", "android": "https://dc.lft.to/lastmile_qr_scan"}, "bike_id": "5b295ddab5a47ca7aa9dd375e0506ee3", "lat": 38.928405}, {"type": "electric_scooter", "fusion_lon": 0.0, "name": "b5b69265e0a0dcf9ca45b6a39a9dec6d", "lon": -77.03281933333334, "fusion_lat": 0.0, "is_disabled": 0, "is_reserved": 0, "rental_uris": {"ios": "https://dc.lft.to/lastmile_qr_scan", "android": "https://dc.lft.to/lastmile_qr_scan"}, "bike_id": "b5b69265e0a0dcf9ca45b6a39a9dec6d", "lat": 38.93115616666667}, {"type": "electric_bike", "fusion_lon": 0.0, "name": "98001609f0dbd23047d27ec0fe068f7a", "lon": -76.93177033333333, "fusion_lat": 0.0, "is_disabled": 0, "is_reserved": 0, "rental_uris": {"ios": "https://dc.lft.to/lastmile_qr_scan", "android": "https://dc.lft.to/lastmile_qr_scan"}, "bike_id": "98001609f0dbd23047d27ec0fe068f7a", "lat": 38.90223733333333}, {"type": "electric_scooter", "fusion_lon": 0.0, "name": "90387623777f2acd0321eb2343f1f0ce", "lon": -77.04188066666667, "fusion_lat": 0.0, "is_disabled": 0, "is_reserved": 0, "rental_uris": {"ios": "https://dc.lft.to/lastmile_qr_scan", "android": "https://dc.lft.to/lastmile_qr_scan"}, "bike_id": "90387623777f2acd0321eb2343f1f0ce", "lat": 38.9052895}, {"type": "electric_scooter", "fusion_lon": 0.0, "name": "e100f16e0e448cd9fc14a503f6c8a9af", "lon": -77.06046766666667, "fusion_lat": 0.0, "is_disabled": 0, "is_reserved": 0, "rental_uris": {"ios": "https://dc.lft.to/lastmile_qr_scan", "android": "https://dc.lft.to/lastmile_qr_scan"}, "bike_id": "e100f16e0e448cd9fc14a503f6c8a9af", "lat": 38.90518333333333}, {"type": "electric_bike", "fusion_lon": 0.0, "name": "c16e0d6b0f8a886755dec57f85c2d541", "lon": -76.9969515, "fusion_lat": 0.0, "is_disabled": 0, "is_reserved": 0, "rental_uris": {"ios": "https://dc.lft.to/lastmile_qr_scan", "android": "https://dc.lft.to/lastmile_qr_scan"}, "bike_id": "c16e0d6b0f8a886755dec57f85c2d541", "lat": 38.838652}, {"type": "electric_scooter", "fusion_lon": 0.0, "name": "e6ef33dd1a757c923342cd780353b89b", "lon": -77.05548233333333, "fusion_lat": 0.0, "is_disabled": 0, "is_reserved": 0, "rental_uris": {"ios": "https://dc.lft.to/lastmile_qr_scan", "android": "https://dc.lft.to/lastmile_qr_scan"}, "bike_id": "e6ef33dd1a757c923342cd780353b89b", "lat": 38.90017666666667}, {"type": "electric_bike", "fusion_lon": 0.0, "name": "52d99d4e1c4c7d5710ce259117a32b50", "lon": -77.0027905, "fusion_lat": 0.0, "is_disabled": 0, "is_reserved": 0, "rental_uris": {"ios": "https://dc.lft.to/lastmile_qr_scan", "android": "https://dc.lft.to/lastmile_qr_scan"}, "bike_id": "52d99d4e1c4c7d5710ce259117a32b50", "lat": 38.91168166666667}, {"type": "electric_scooter", "fusion_lon": 0.0, "name": "97283aedbe57cf6608221fba1ba1c959", "lon": -77.023578, "fusion_lat": 0.0, "is_disabled": 0, "is_reserved": 0, "rental_uris": {"ios": "https://dc.lft.to/lastmile_qr_scan", "android": "https://dc.lft.to/lastmile_qr_scan"}, "bike_id": "97283aedbe57cf6608221fba1ba1c959", "lat": 38.9352635}, {"type": "electric_scooter", "fusion_lon": 0.0, "name": "e549b1ac5b13d27a45db0a13079ad407", "lon": -77.04151266666666, "fusion_lat": 0.0, "is_disabled": 0, "is_reserved": 0, "rental_uris": {"ios": "https://dc.lft.to/lastmile_qr_scan", "android": "https://dc.lft.to/lastmile_qr_scan"}, "bike_id": "e549b1ac5b13d27a45db0a13079ad407", "lat": 38.882261166666666}, {"type": "electric_scooter", "fusion_lon": 0.0, "name": "ff399f62185ff3f6bab485c933b03ff2", "lon": -76.9793405, "fusion_lat": 0.0, "is_disabled": 0, "is_reserved": 0, "rental_uris": {"ios": "https://dc.lft.to/lastmile_qr_scan", "android": "https://dc.lft.to/lastmile_qr_scan"}, "bike_id": "ff399f62185ff3f6bab485c933b03ff2", "lat": 38.90679883333333}, {"type": "electric_scooter", "fusion_lon": 0.0, "name": "091af4d6b7f34d90b8b5f10d398af887", "lon": -77.02711833333333, "fusion_lat": 0.0, "is_disabled": 0, "is_reserved": 0, "rental_uris": {"ios": "https://dc.lft.to/lastmile_qr_scan", "android": "https://dc.lft.to/lastmile_qr_scan"}, "bike_id": "091af4d6b7f34d90b8b5f10d398af887", "lat": 38.924725333333335}, {"type": "electric_scooter", "fusion_lon": 0.0, "name": "eb43890507d1f79f698681ba853386e4", "lon": -77.038201, "fusion_lat": 0.0, "is_disabled": 0, "is_reserved": 0, "rental_uris": {"ios": "https://dc.lft.to/lastmile_qr_scan", "android": "https://dc.lft.to/lastmile_qr_scan"}, "bike_id": "eb43890507d1f79f698681ba853386e4", "lat": 38.92467466666667}, {"type": "electric_scooter", "fusion_lon": 0.0, "name": "f5f28ec0d1d06dd760c001cdb4bcf0ea", "lon": -77.0240195, "fusion_lat": 0.0, "is_disabled": 0, "is_reserved": 0, "rental_uris": {"ios": "https://dc.lft.to/lastmile_qr_scan", "android": "https://dc.lft.to/lastmile_qr_scan"}, "bike_id": "f5f28ec0d1d06dd760c001cdb4bcf0ea", "lat": 38.9207085}, {"type": "electric_scooter", "fusion_lon": 0.0, "name": "9b24859b04abe5524452f5294f74b966", "lon": -77.00565616666667, "fusion_lat": 0.0, "is_disabled": 0, "is_reserved": 0, "rental_uris": {"ios": "https://dc.lft.to/lastmile_qr_scan", "android": "https://dc.lft.to/lastmile_qr_scan"}, "bike_id": "9b24859b04abe5524452f5294f74b966", "lat": 38.88506783333333}, {"type": "electric_bike", "fusion_lon": 0.0, "name": "caaa23877b9b53fb2fdf2fe24bfc29ba", "lon": -77.128879, "fusion_lat": 0.0, "is_disabled": 0, "is_reserved": 0, "rental_uris": {"ios": "https://dc.lft.to/lastmile_qr_scan", "android": "https://dc.lft.to/lastmile_qr_scan"}, "bike_id": "caaa23877b9b53fb2fdf2fe24bfc29ba", "lat": 38.90601433333333}, {"type": "electric_scooter", "fusion_lon": 0.0, "name": "a3db8b569c797c7b7a46d47d403b4bc9", "lon": -77.03164416666667, "fusion_lat": 0.0, "is_disabled": 0, "is_reserved": 0, "rental_uris": {"ios": "https://dc.lft.to/lastmile_qr_scan", "android": "https://dc.lft.to/lastmile_qr_scan"}, "bike_id": "a3db8b569c797c7b7a46d47d403b4bc9", "lat": 38.920291166666665}, {"type": "electric_scooter", "fusion_lon": 0.0, "name": "6079904bb51902f2284bb73e2f58a64b", "lon": -77.0279575, "fusion_lat": 0.0, "is_disabled": 0, "is_reserved": 0, "rental_uris": {"ios": "https://dc.lft.to/lastmile_qr_scan", "android": "https://dc.lft.to/lastmile_qr_scan"}, "bike_id": "6079904bb51902f2284bb73e2f58a64b", "lat": 38.9071925}, {"type": "electric_scooter", "fusion_lon": 0.0, "name": "c730f4c03fa09c89e3213dd104c21e73", "lon": -77.00191116666667, "fusion_lat": 0.0, "is_disabled": 0, "is_reserved": 0, "rental_uris": {"ios": "https://dc.lft.to/lastmile_qr_scan", "android": "https://dc.lft.to/lastmile_qr_scan"}, "bike_id": "c730f4c03fa09c89e3213dd104c21e73", "lat": 38.887707166666665}, {"type": "electric_scooter", "fusion_lon": 0.0, "name": "21b33630fb9046ff4537467f0364d945", "lon": -77.0279915, "fusion_lat": 0.0, "is_disabled": 0, "is_reserved": 0, "rental_uris": {"ios": "https://dc.lft.to/lastmile_qr_scan", "android": "https://dc.lft.to/lastmile_qr_scan"}, "bike_id": "21b33630fb9046ff4537467f0364d945", "lat": 38.90345533333333}, {"type": "electric_scooter", "fusion_lon": 0.0, "name": "59ec3b7d0791617b79113932d07053b9", "lon": -77.02977483333333, "fusion_lat": 0.0, "is_disabled": 0, "is_reserved": 0, "rental_uris": {"ios": "https://dc.lft.to/lastmile_qr_scan", "android": "https://dc.lft.to/lastmile_qr_scan"}, "bike_id": "59ec3b7d0791617b79113932d07053b9", "lat": 38.934505}, {"type": "electric_scooter", "fusion_lon": 0.0, "name": "2a3e73503ccdd7970fbf804fcbea18f8", "lon": -77.03963566666667, "fusion_lat": 0.0, "is_disabled": 0, "is_reserved": 0, "rental_uris": {"ios": "https://dc.lft.to/lastmile_qr_scan", "android": "https://dc.lft.to/lastmile_qr_scan"}, "bike_id": "2a3e73503ccdd7970fbf804fcbea18f8", "lat": 38.902677833333335}, {"type": "electric_scooter", "fusion_lon": 0.0, "name": "b0c420663ad7ff814f756c603f1e4915", "lon": -77.024197, "fusion_lat": 0.0, "is_disabled": 0, "is_reserved": 0, "rental_uris": {"ios": "https://dc.lft.to/lastmile_qr_scan", "android": "https://dc.lft.to/lastmile_qr_scan"}, "bike_id": "b0c420663ad7ff814f756c603f1e4915", "lat": 38.8922125}, {"type": "electric_scooter", "fusion_lon": 0.0, "name": "28bdb23d609e8e62970c21599d3f628c", "lon": -77.05139533333333, "fusion_lat": 0.0, "is_disabled": 0, "is_reserved": 0, "rental_uris": {"ios": "https://dc.lft.to/lastmile_qr_scan", "android": "https://dc.lft.to/lastmile_qr_scan"}, "bike_id": "28bdb23d609e8e62970c21599d3f628c", "lat": 38.90506033333333}, {"type": "electric_scooter", "fusion_lon": 0.0, "name": "12120db2409b69467842d7a076583555", "lon": -77.03441083333334, "fusion_lat": 0.0, "is_disabled": 0, "is_reserved": 0, "rental_uris": {"ios": "https://dc.lft.to/lastmile_qr_scan", "android": "https://dc.lft.to/lastmile_qr_scan"}, "bike_id": "12120db2409b69467842d7a076583555", "lat": 38.918112}, {"type": "electric_scooter", "fusion_lon": 0.0, "name": "9b080728790e5540e163bd30aae448d1", "lon": -77.01977833333333, "fusion_lat": 0.0, "is_disabled": 0, "is_reserved": 0, "rental_uris": {"ios": "https://dc.lft.to/lastmile_qr_scan", "android": "https://dc.lft.to/lastmile_qr_scan"}, "bike_id": "9b080728790e5540e163bd30aae448d1", "lat": 38.895204}, {"type": "electric_scooter", "fusion_lon": 0.0, "name": "088742cbf39449ed9ae2f8c61353e5c4", "lon": -77.02191816666667, "fusion_lat": 0.0, "is_disabled": 0, "is_reserved": 0, "rental_uris": {"ios": "https://dc.lft.to/lastmile_qr_scan", "android": "https://dc.lft.to/lastmile_qr_scan"}, "bike_id": "088742cbf39449ed9ae2f8c61353e5c4", "lat": 38.914217}, {"type": "electric_scooter", "fusion_lon": 0.0, "name": "9bbcd2f914c725b44b995bb38a00a32b", "lon": -77.0403095, "fusion_lat": 0.0, "is_disabled": 0, "is_reserved": 0, "rental_uris": {"ios": "https://dc.lft.to/lastmile_qr_scan", "android": "https://dc.lft.to/lastmile_qr_scan"}, "bike_id": "9bbcd2f914c725b44b995bb38a00a32b", "lat": 38.930722833333334}, {"type": "electric_scooter", "fusion_lon": 0.0, "name": "560f047ea6def4aee29bf385629aa8fe", "lon": -77.03839633333334, "fusion_lat": 0.0, "is_disabled": 0, "is_reserved": 0, "rental_uris": {"ios": "https://dc.lft.to/lastmile_qr_scan", "android": "https://dc.lft.to/lastmile_qr_scan"}, "bike_id": "560f047ea6def4aee29bf385629aa8fe", "lat": 38.9085405}, {"type": "electric_scooter", "fusion_lon": 0.0, "name": "953150eb5075e61849c79ddfb3bfcf08", "lon": -77.00227983333333, "fusion_lat": 0.0, "is_disabled": 0, "is_reserved": 0, "rental_uris": {"ios": "https://dc.lft.to/lastmile_qr_scan", "android": "https://dc.lft.to/lastmile_qr_scan"}, "bike_id": "953150eb5075e61849c79ddfb3bfcf08", "lat": 38.92510733333334}, {"type": "electric_scooter", "fusion_lon": 0.0, "name": "21b1f6381a719ab3da541b656e72796f", "lon": -77.03447716666666, "fusion_lat": 0.0, "is_disabled": 0, "is_reserved": 0, "rental_uris": {"ios": "https://dc.lft.to/lastmile_qr_scan", "android": "https://dc.lft.to/lastmile_qr_scan"}, "bike_id": "21b1f6381a719ab3da541b656e72796f", "lat": 38.92159766666666}, {"type": "electric_scooter", "fusion_lon": 0.0, "name": "faef6fb4f83be75cec4783403773a15a", "lon": -77.06608016666667, "fusion_lat": 0.0, "is_disabled": 0, "is_reserved": 0, "rental_uris": {"ios": "https://dc.lft.to/lastmile_qr_scan", "android": "https://dc.lft.to/lastmile_qr_scan"}, "bike_id": "faef6fb4f83be75cec4783403773a15a", "lat": 38.936653}, {"type": "electric_scooter", "fusion_lon": 0.0, "name": "95b73b2af23d141563fe62436b3d378b", "lon": -77.00632433333334, "fusion_lat": 0.0, "is_disabled": 0, "is_reserved": 0, "rental_uris": {"ios": "https://dc.lft.to/lastmile_qr_scan", "android": "https://dc.lft.to/lastmile_qr_scan"}, "bike_id": "95b73b2af23d141563fe62436b3d378b", "lat": 38.87171933333333}, {"type": "electric_scooter", "fusion_lon": 0.0, "name": "53a9f18c3557391e3cd18355a81986fe", "lon": -77.00067316666667, "fusion_lat": 0.0, "is_disabled": 0, "is_reserved": 0, "rental_uris": {"ios": "https://dc.lft.to/lastmile_qr_scan", "android": "https://dc.lft.to/lastmile_qr_scan"}, "bike_id": "53a9f18c3557391e3cd18355a81986fe", "lat": 38.88263833333333}, {"type": "electric_scooter", "fusion_lon": 0.0, "name": "c08f9f631a62d95996dbf75d5178560b", "lon": -77.03470766666666, "fusion_lat": 0.0, "is_disabled": 0, "is_reserved": 0, "rental_uris": {"ios": "https://dc.lft.to/lastmile_qr_scan", "android": "https://dc.lft.to/lastmile_qr_scan"}, "bike_id": "c08f9f631a62d95996dbf75d5178560b", "lat": 38.92255333333333}, {"type": "electric_scooter", "fusion_lon": 0.0, "name": "3229931549e1168053571991ba2b60b2", "lon": -77.03776733333333, "fusion_lat": 0.0, "is_disabled": 0, "is_reserved": 0, "rental_uris": {"ios": "https://dc.lft.to/lastmile_qr_scan", "android": "https://dc.lft.to/lastmile_qr_scan"}, "bike_id": "3229931549e1168053571991ba2b60b2", "lat": 38.92381116666667}, {"type": "electric_scooter", "fusion_lon": 0.0, "name": "b1d7b6e0980329ac9e7cbf5dc1c487fc", "lon": -77.01976433333333, "fusion_lat": 0.0, "is_disabled": 0, "is_reserved": 0, "rental_uris": {"ios": "https://dc.lft.to/lastmile_qr_scan", "android": "https://dc.lft.to/lastmile_qr_scan"}, "bike_id": "b1d7b6e0980329ac9e7cbf5dc1c487fc", "lat": 38.88393683333334}, {"type": "electric_scooter", "fusion_lon": 0.0, "name": "abeded1195d9164beb2a055cd5d66a65", "lon": -77.04411983333334, "fusion_lat": 0.0, "is_disabled": 0, "is_reserved": 0, "rental_uris": {"ios": "https://dc.lft.to/lastmile_qr_scan", "android": "https://dc.lft.to/lastmile_qr_scan"}, "bike_id": "abeded1195d9164beb2a055cd5d66a65", "lat": 38.9098045}, {"type": "electric_scooter", "fusion_lon": 0.0, "name": "974f8faf9b0f6482d5b5fd1b8e056884", "lon": -77.02285483333333, "fusion_lat": 0.0, "is_disabled": 0, "is_reserved": 0, "rental_uris": {"ios": "https://dc.lft.to/lastmile_qr_scan", "android": "https://dc.lft.to/lastmile_qr_scan"}, "bike_id": "974f8faf9b0f6482d5b5fd1b8e056884", "lat": 38.916882}, {"type": "electric_bike", "fusion_lon": 0.0, "name": "d21deefc70610c4b9c5f80f712974667", "lon": -76.99651983333334, "fusion_lat": 0.0, "is_disabled": 0, "is_reserved": 0, "rental_uris": {"ios": "https://dc.lft.to/lastmile_qr_scan", "android": "https://dc.lft.to/lastmile_qr_scan"}, "bike_id": "d21deefc70610c4b9c5f80f712974667", "lat": 38.967799166666666}, {"type": "electric_scooter", "fusion_lon": 0.0, "name": "dd6005139a3a731cde9f8729ce31bcaa", "lon": -77.02394216666667, "fusion_lat": 0.0, "is_disabled": 0, "is_reserved": 0, "rental_uris": {"ios": "https://dc.lft.to/lastmile_qr_scan", "android": "https://dc.lft.to/lastmile_qr_scan"}, "bike_id": "dd6005139a3a731cde9f8729ce31bcaa", "lat": 38.91706583333333}, {"type": "electric_scooter", "fusion_lon": 0.0, "name": "b6f11b60341f476c0a8f784ef878c030", "lon": -77.02774916666667, "fusion_lat": 0.0, "is_disabled": 0, "is_reserved": 0, "rental_uris": {"ios": "https://dc.lft.to/lastmile_qr_scan", "android": "https://dc.lft.to/lastmile_qr_scan"}, "bike_id": "b6f11b60341f476c0a8f784ef878c030", "lat": 38.9026515}, {"type": "electric_scooter", "fusion_lon": 0.0, "name": "6d2dfacc77db9be15c25f848cef5ff30", "lon": -77.046846, "fusion_lat": 0.0, "is_disabled": 0, "is_reserved": 0, "rental_uris": {"ios": "https://dc.lft.to/lastmile_qr_scan", "android": "https://dc.lft.to/lastmile_qr_scan"}, "bike_id": "6d2dfacc77db9be15c25f848cef5ff30", "lat": 38.8922745}, {"type": "electric_scooter", "fusion_lon": 0.0, "name": "41d2b3342662c55e29ca1d6df7d199d0", "lon": -77.03214533333333, "fusion_lat": 0.0, "is_disabled": 0, "is_reserved": 0, "rental_uris": {"ios": "https://dc.lft.to/lastmile_qr_scan", "android": "https://dc.lft.to/lastmile_qr_scan"}, "bike_id": "41d2b3342662c55e29ca1d6df7d199d0", "lat": 38.892340833333336}, {"type": "electric_scooter", "fusion_lon": 0.0, "name": "443d7f93f8260b81e547dd90e7e304a7", "lon": -77.04877583333334, "fusion_lat": 0.0, "is_disabled": 0, "is_reserved": 0, "rental_uris": {"ios": "https://dc.lft.to/lastmile_qr_scan", "android": "https://dc.lft.to/lastmile_qr_scan"}, "bike_id": "443d7f93f8260b81e547dd90e7e304a7", "lat": 38.90417}, {"type": "electric_bike", "fusion_lon": 0.0, "name": "96e25294a52ad5c043ad66864c4ce722", "lon": -77.05373716666666, "fusion_lat": 0.0, "is_disabled": 0, "is_reserved": 0, "rental_uris": {"ios": "https://dc.lft.to/lastmile_qr_scan", "android": "https://dc.lft.to/lastmile_qr_scan"}, "bike_id": "96e25294a52ad5c043ad66864c4ce722", "lat": 38.84761116666667}, {"type": "electric_scooter", "fusion_lon": 0.0, "name": "40d1aeb44a906ddb235ad272a3178fb1", "lon": -77.0503295, "fusion_lat": 0.0, "is_disabled": 0, "is_reserved": 0, "rental_uris": {"ios": "https://dc.lft.to/lastmile_qr_scan", "android": "https://dc.lft.to/lastmile_qr_scan"}, "bike_id": "40d1aeb44a906ddb235ad272a3178fb1", "lat": 38.90211133333333}, {"type": "electric_scooter", "fusion_lon": 0.0, "name": "0dc4b22b93b12439969b431178dfa744", "lon": -76.94155866666667, "fusion_lat": 0.0, "is_disabled": 0, "is_reserved": 0, "rental_uris": {"ios": "https://dc.lft.to/lastmile_qr_scan", "android": "https://dc.lft.to/lastmile_qr_scan"}, "bike_id": "0dc4b22b93b12439969b431178dfa744", "lat": 38.90173733333334}, {"type": "electric_scooter", "fusion_lon": 0.0, "name": "4cd1f574c9d92800ee220fe633d1ab68", "lon": -77.02176566666667, "fusion_lat": 0.0, "is_disabled": 0, "is_reserved": 0, "rental_uris": {"ios": "https://dc.lft.to/lastmile_qr_scan", "android": "https://dc.lft.to/lastmile_qr_scan"}, "bike_id": "4cd1f574c9d92800ee220fe633d1ab68", "lat": 38.91990666666667}, {"type": "electric_scooter", "fusion_lon": 0.0, "name": "259b2de9917fe52eb9af41cb1457380c", "lon": -77.00762133333333, "fusion_lat": 0.0, "is_disabled": 0, "is_reserved": 0, "rental_uris": {"ios": "https://dc.lft.to/lastmile_qr_scan", "android": "https://dc.lft.to/lastmile_qr_scan"}, "bike_id": "259b2de9917fe52eb9af41cb1457380c", "lat": 38.9268585}, {"type": "electric_scooter", "fusion_lon": 0.0, "name": "bcd7d700a800d59d9d5fe4686aecb3ff", "lon": -77.0385595, "fusion_lat": 0.0, "is_disabled": 0, "is_reserved": 0, "rental_uris": {"ios": "https://dc.lft.to/lastmile_qr_scan", "android": "https://dc.lft.to/lastmile_qr_scan"}, "bike_id": "bcd7d700a800d59d9d5fe4686aecb3ff", "lat": 38.913786}, {"type": "electric_scooter", "fusion_lon": 0.0, "name": "071137c23610a39dba974f676b529630", "lon": -77.06249966666667, "fusion_lat": 0.0, "is_disabled": 0, "is_reserved": 0, "rental_uris": {"ios": "https://dc.lft.to/lastmile_qr_scan", "android": "https://dc.lft.to/lastmile_qr_scan"}, "bike_id": "071137c23610a39dba974f676b529630", "lat": 38.902251166666666}, {"type": "electric_scooter", "fusion_lon": 0.0, "name": "4459740feb6b23e6e78562623e2b01ac", "lon": -77.02452733333334, "fusion_lat": 0.0, "is_disabled": 0, "is_reserved": 0, "rental_uris": {"ios": "https://dc.lft.to/lastmile_qr_scan", "android": "https://dc.lft.to/lastmile_qr_scan"}, "bike_id": "4459740feb6b23e6e78562623e2b01ac", "lat": 38.931983333333335}, {"type": "electric_scooter", "fusion_lon": 0.0, "name": "b4777f3be6d9878f6e697073e87336e7", "lon": -77.02979283333333, "fusion_lat": 0.0, "is_disabled": 0, "is_reserved": 0, "rental_uris": {"ios": "https://dc.lft.to/lastmile_qr_scan", "android": "https://dc.lft.to/lastmile_qr_scan"}, "bike_id": "b4777f3be6d9878f6e697073e87336e7", "lat": 38.906024333333335}, {"type": "electric_scooter", "fusion_lon": 0.0, "name": "e73c87a924e29a0142440dde9a5b9094", "lon": -77.04691516666666, "fusion_lat": 0.0, "is_disabled": 0, "is_reserved": 0, "rental_uris": {"ios": "https://dc.lft.to/lastmile_qr_scan", "android": "https://dc.lft.to/lastmile_qr_scan"}, "bike_id": "e73c87a924e29a0142440dde9a5b9094", "lat": 38.8922605}, {"type": "electric_bike", "fusion_lon": 0.0, "name": "ed920b318d4a726c21110d8475621b27", "lon": -77.0990435, "fusion_lat": 0.0, "is_disabled": 0, "is_reserved": 0, "rental_uris": {"ios": "https://dc.lft.to/lastmile_qr_scan", "android": "https://dc.lft.to/lastmile_qr_scan"}, "bike_id": "ed920b318d4a726c21110d8475621b27", "lat": 38.96185966666667}, {"type": "electric_scooter", "fusion_lon": 0.0, "name": "e4c001a3ae2d879bc7d36842aafeee15", "lon": -77.036751, "fusion_lat": 0.0, "is_disabled": 0, "is_reserved": 0, "rental_uris": {"ios": "https://dc.lft.to/lastmile_qr_scan", "android": "https://dc.lft.to/lastmile_qr_scan"}, "bike_id": "e4c001a3ae2d879bc7d36842aafeee15", "lat": 38.91567916666666}, {"type": "electric_scooter", "fusion_lon": 0.0, "name": "325c5e3583c9eb6dc48c82a6d74eecae", "lon": -77.02513916666666, "fusion_lat": 0.0, "is_disabled": 0, "is_reserved": 0, "rental_uris": {"ios": "https://dc.lft.to/lastmile_qr_scan", "android": "https://dc.lft.to/lastmile_qr_scan"}, "bike_id": "325c5e3583c9eb6dc48c82a6d74eecae", "lat": 38.90197166666667}, {"type": "electric_scooter", "fusion_lon": 0.0, "name": "9b32f60e215bcd17be8bacc5ef6fabef", "lon": -77.00958183333333, "fusion_lat": 0.0, "is_disabled": 0, "is_reserved": 0, "rental_uris": {"ios": "https://dc.lft.to/lastmile_qr_scan", "android": "https://dc.lft.to/lastmile_qr_scan"}, "bike_id": "9b32f60e215bcd17be8bacc5ef6fabef", "lat": 38.876624}, {"type": "electric_scooter", "fusion_lon": 0.0, "name": "696648bd31367cd41705cc5e8d99e6f4", "lon": -77.02963916666667, "fusion_lat": 0.0, "is_disabled": 0, "is_reserved": 0, "rental_uris": {"ios": "https://dc.lft.to/lastmile_qr_scan", "android": "https://dc.lft.to/lastmile_qr_scan"}, "bike_id": "696648bd31367cd41705cc5e8d99e6f4", "lat": 38.9252455}, {"type": "electric_scooter", "fusion_lon": 0.0, "name": "b0f7d767abdce08acfd7da08f785f0a8", "lon": -77.04077583333333, "fusion_lat": 0.0, "is_disabled": 0, "is_reserved": 0, "rental_uris": {"ios": "https://dc.lft.to/lastmile_qr_scan", "android": "https://dc.lft.to/lastmile_qr_scan"}, "bike_id": "b0f7d767abdce08acfd7da08f785f0a8", "lat": 38.901277666666665}, {"type": "electric_scooter", "fusion_lon": 0.0, "name": "c23b9f3db6c505fcffd23548ca6954df", "lon": -77.00297266666666, "fusion_lat": 0.0, "is_disabled": 0, "is_reserved": 0, "rental_uris": {"ios": "https://dc.lft.to/lastmile_qr_scan", "android": "https://dc.lft.to/lastmile_qr_scan"}, "bike_id": "c23b9f3db6c505fcffd23548ca6954df", "lat": 38.892007666666665}, {"type": "electric_bike", "fusion_lon": 0.0, "name": "2f39f7278c1c437b24e599ccbbfec36f", "lon": -76.9886045, "fusion_lat": 0.0, "is_disabled": 0, "is_reserved": 0, "rental_uris": {"ios": "https://dc.lft.to/lastmile_qr_scan", "android": "https://dc.lft.to/lastmile_qr_scan"}, "bike_id": "2f39f7278c1c437b24e599ccbbfec36f", "lat": 38.8403445}, {"type": "electric_bike", "fusion_lon": 0.0, "name": "dce7fb1b15dd7dee7789dbfae87a1f14", "lon": -77.11686283333333, "fusion_lat": 0.0, "is_disabled": 0, "is_reserved": 0, "rental_uris": {"ios": "https://dc.lft.to/lastmile_qr_scan", "android": "https://dc.lft.to/lastmile_qr_scan"}, "bike_id": "dce7fb1b15dd7dee7789dbfae87a1f14", "lat": 38.885473}, {"type": "electric_scooter", "fusion_lon": 0.0, "name": "50e228fc9d36914738084b7aa295be40", "lon": -77.04061366666667, "fusion_lat": 0.0, "is_disabled": 0, "is_reserved": 0, "rental_uris": {"ios": "https://dc.lft.to/lastmile_qr_scan", "android": "https://dc.lft.to/lastmile_qr_scan"}, "bike_id": "50e228fc9d36914738084b7aa295be40", "lat": 38.89656683333333}, {"type": "electric_scooter", "fusion_lon": 0.0, "name": "ee235e1655610c65badb4b8587736ea8", "lon": -77.05221633333333, "fusion_lat": 0.0, "is_disabled": 0, "is_reserved": 0, "rental_uris": {"ios": "https://dc.lft.to/lastmile_qr_scan", "android": "https://dc.lft.to/lastmile_qr_scan"}, "bike_id": "ee235e1655610c65badb4b8587736ea8", "lat": 38.924531}, {"type": "electric_scooter", "fusion_lon": 0.0, "name": "343351d0215361758d3cd8d51f372792", "lon": -77.0191195, "fusion_lat": 0.0, "is_disabled": 0, "is_reserved": 0, "rental_uris": {"ios": "https://dc.lft.to/lastmile_qr_scan", "android": "https://dc.lft.to/lastmile_qr_scan"}, "bike_id": "343351d0215361758d3cd8d51f372792", "lat": 38.92340816666667}, {"type": "electric_scooter", "fusion_lon": 0.0, "name": "3722e9a595027afd0c3506c32a5a846d", "lon": -77.02975683333334, "fusion_lat": 0.0, "is_disabled": 0, "is_reserved": 0, "rental_uris": {"ios": "https://dc.lft.to/lastmile_qr_scan", "android": "https://dc.lft.to/lastmile_qr_scan"}, "bike_id": "3722e9a595027afd0c3506c32a5a846d", "lat": 38.925629}, {"type": "electric_scooter", "fusion_lon": 0.0, "name": "c58478b0b4a44c2c8de9939129d12ba5", "lon": -77.02956816666666, "fusion_lat": 0.0, "is_disabled": 0, "is_reserved": 0, "rental_uris": {"ios": "https://dc.lft.to/lastmile_qr_scan", "android": "https://dc.lft.to/lastmile_qr_scan"}, "bike_id": "c58478b0b4a44c2c8de9939129d12ba5", "lat": 38.9191225}, {"type": "electric_scooter", "fusion_lon": 0.0, "name": "c5bc909a70a75aa5c4f87aa6607018d7", "lon": -77.03200833333334, "fusion_lat": 0.0, "is_disabled": 0, "is_reserved": 0, "rental_uris": {"ios": "https://dc.lft.to/lastmile_qr_scan", "android": "https://dc.lft.to/lastmile_qr_scan"}, "bike_id": "c5bc909a70a75aa5c4f87aa6607018d7", "lat": 38.89237683333333}, {"type": "electric_scooter", "fusion_lon": 0.0, "name": "481ae287486d7ae805a914e4be46cf36", "lon": -77.03753166666667, "fusion_lat": 0.0, "is_disabled": 0, "is_reserved": 0, "rental_uris": {"ios": "https://dc.lft.to/lastmile_qr_scan", "android": "https://dc.lft.to/lastmile_qr_scan"}, "bike_id": "481ae287486d7ae805a914e4be46cf36", "lat": 38.9169155}, {"type": "electric_scooter", "fusion_lon": 0.0, "name": "0cbaa85622839d7f0c8218f16c29c81b", "lon": -76.99958966666667, "fusion_lat": 0.0, "is_disabled": 0, "is_reserved": 0, "rental_uris": {"ios": "https://dc.lft.to/lastmile_qr_scan", "android": "https://dc.lft.to/lastmile_qr_scan"}, "bike_id": "0cbaa85622839d7f0c8218f16c29c81b", "lat": 38.893008333333334}, {"type": "electric_scooter", "fusion_lon": 0.0, "name": "c75e099c77ea68225e056cb9b67b7d7b", "lon": -76.93238233333334, "fusion_lat": 0.0, "is_disabled": 0, "is_reserved": 0, "rental_uris": {"ios": "https://dc.lft.to/lastmile_qr_scan", "android": "https://dc.lft.to/lastmile_qr_scan"}, "bike_id": "c75e099c77ea68225e056cb9b67b7d7b", "lat": 38.89883116666667}, {"type": "electric_scooter", "fusion_lon": 0.0, "name": "cf0c3c9a3b6a0a8b99375afb978b403f", "lon": -77.03366733333333, "fusion_lat": 0.0, "is_disabled": 0, "is_reserved": 0, "rental_uris": {"ios": "https://dc.lft.to/lastmile_qr_scan", "android": "https://dc.lft.to/lastmile_qr_scan"}, "bike_id": "cf0c3c9a3b6a0a8b99375afb978b403f", "lat": 38.917206}, {"type": "electric_scooter", "fusion_lon": 0.0, "name": "574b7358fd63c5fe99471228d0d59c66", "lon": -77.04509, "fusion_lat": 0.0, "is_disabled": 0, "is_reserved": 0, "rental_uris": {"ios": "https://dc.lft.to/lastmile_qr_scan", "android": "https://dc.lft.to/lastmile_qr_scan"}, "bike_id": "574b7358fd63c5fe99471228d0d59c66", "lat": 38.903799}, {"type": "electric_scooter", "fusion_lon": 0.0, "name": "9dccdffec676fe3bbb165c701c971086", "lon": -77.00458066666667, "fusion_lat": 0.0, "is_disabled": 0, "is_reserved": 0, "rental_uris": {"ios": "https://dc.lft.to/lastmile_qr_scan", "android": "https://dc.lft.to/lastmile_qr_scan"}, "bike_id": "9dccdffec676fe3bbb165c701c971086", "lat": 38.909088}, {"type": "electric_scooter", "fusion_lon": 0.0, "name": "0ab1a7ff1a99c216dc80bd4ec1558a9c", "lon": -77.005836, "fusion_lat": 0.0, "is_disabled": 0, "is_reserved": 0, "rental_uris": {"ios": "https://dc.lft.to/lastmile_qr_scan", "android": "https://dc.lft.to/lastmile_qr_scan"}, "bike_id": "0ab1a7ff1a99c216dc80bd4ec1558a9c", "lat": 38.90702133333333}, {"type": "electric_scooter", "fusion_lon": 0.0, "name": "d3db1ca037dca2d4e1855d13e7353800", "lon": -77.03507833333333, "fusion_lat": 0.0, "is_disabled": 0, "is_reserved": 0, "rental_uris": {"ios": "https://dc.lft.to/lastmile_qr_scan", "android": "https://dc.lft.to/lastmile_qr_scan"}, "bike_id": "d3db1ca037dca2d4e1855d13e7353800", "lat": 38.921565666666666}, {"type": "electric_scooter", "fusion_lon": 0.0, "name": "5cb1b52130b34a686ad34ab5ec2a4bff", "lon": -77.0087585, "fusion_lat": 0.0, "is_disabled": 0, "is_reserved": 0, "rental_uris": {"ios": "https://dc.lft.to/lastmile_qr_scan", "android": "https://dc.lft.to/lastmile_qr_scan"}, "bike_id": "5cb1b52130b34a686ad34ab5ec2a4bff", "lat": 38.88375816666667}, {"type": "electric_scooter", "fusion_lon": 0.0, "name": "f394d1c97b4ee7dcfce51fa5e1733adf", "lon": -77.0400745, "fusion_lat": 0.0, "is_disabled": 0, "is_reserved": 0, "rental_uris": {"ios": "https://dc.lft.to/lastmile_qr_scan", "android": "https://dc.lft.to/lastmile_qr_scan"}, "bike_id": "f394d1c97b4ee7dcfce51fa5e1733adf", "lat": 38.92247416666667}, {"type": "electric_scooter", "fusion_lon": 0.0, "name": "6efe13af394c8b736cb4875b92412102", "lon": -77.04351416666667, "fusion_lat": 0.0, "is_disabled": 0, "is_reserved": 0, "rental_uris": {"ios": "https://dc.lft.to/lastmile_qr_scan", "android": "https://dc.lft.to/lastmile_qr_scan"}, "bike_id": "6efe13af394c8b736cb4875b92412102", "lat": 38.9012945}, {"type": "electric_scooter", "fusion_lon": 0.0, "name": "d20248d70f8c9216951e0eaab9f59bed", "lon": -76.926018, "fusion_lat": 0.0, "is_disabled": 0, "is_reserved": 0, "rental_uris": {"ios": "https://dc.lft.to/lastmile_qr_scan", "android": "https://dc.lft.to/lastmile_qr_scan"}, "bike_id": "d20248d70f8c9216951e0eaab9f59bed", "lat": 38.898359166666665}, {"type": "electric_scooter", "fusion_lon": 0.0, "name": "09bef59436064eaea282afb14b110223", "lon": -77.03209333333334, "fusion_lat": 0.0, "is_disabled": 0, "is_reserved": 0, "rental_uris": {"ios": "https://dc.lft.to/lastmile_qr_scan", "android": "https://dc.lft.to/lastmile_qr_scan"}, "bike_id": "09bef59436064eaea282afb14b110223", "lat": 38.90043933333333}, {"type": "electric_scooter", "fusion_lon": 0.0, "name": "6d58a531519cae07e28044e597da7c9e", "lon": -77.02982466666667, "fusion_lat": 0.0, "is_disabled": 0, "is_reserved": 0, "rental_uris": {"ios": "https://dc.lft.to/lastmile_qr_scan", "android": "https://dc.lft.to/lastmile_qr_scan"}, "bike_id": "6d58a531519cae07e28044e597da7c9e", "lat": 38.94051666666667}, {"type": "electric_bike", "fusion_lon": 0.0, "name": "1ba4073a948296ec7cb50867df47d49d", "lon": -76.98752066666667, "fusion_lat": 0.0, "is_disabled": 0, "is_reserved": 0, "rental_uris": {"ios": "https://dc.lft.to/lastmile_qr_scan", "android": "https://dc.lft.to/lastmile_qr_scan"}, "bike_id": "1ba4073a948296ec7cb50867df47d49d", "lat": 38.857995}, {"type": "electric_scooter", "fusion_lon": 0.0, "name": "b6bd2c6d9d666fb95d02577635c7d6c0", "lon": -77.03248066666667, "fusion_lat": 0.0, "is_disabled": 0, "is_reserved": 0, "rental_uris": {"ios": "https://dc.lft.to/lastmile_qr_scan", "android": "https://dc.lft.to/lastmile_qr_scan"}, "bike_id": "b6bd2c6d9d666fb95d02577635c7d6c0", "lat": 38.9199555}, {"type": "electric_bike", "fusion_lon": 0.0, "name": "92490a5dcfcd67c09fffe162f523775f", "lon": -77.038818, "fusion_lat": 0.0, "is_disabled": 0, "is_reserved": 0, "rental_uris": {"ios": "https://dc.lft.to/lastmile_qr_scan", "android": "https://dc.lft.to/lastmile_qr_scan"}, "bike_id": "92490a5dcfcd67c09fffe162f523775f", "lat": 39.02625966666667}, {"type": "electric_scooter", "fusion_lon": 0.0, "name": "244021f0c1ea0be332673a674229b099", "lon": -77.0512405, "fusion_lat": 0.0, "is_disabled": 0, "is_reserved": 0, "rental_uris": {"ios": "https://dc.lft.to/lastmile_qr_scan", "android": "https://dc.lft.to/lastmile_qr_scan"}, "bike_id": "244021f0c1ea0be332673a674229b099", "lat": 38.90210233333333}, {"type": "electric_scooter", "fusion_lon": 0.0, "name": "d1d8174360e2be4cb6bddf76752700cf", "lon": -77.019817, "fusion_lat": 0.0, "is_disabled": 0, "is_reserved": 0, "rental_uris": {"ios": "https://dc.lft.to/lastmile_qr_scan", "android": "https://dc.lft.to/lastmile_qr_scan"}, "bike_id": "d1d8174360e2be4cb6bddf76752700cf", "lat": 38.89688783333333}, {"type": "electric_scooter", "fusion_lon": 0.0, "name": "d528dcd9231a0c2471c13d8994dc7879", "lon": -77.03902216666667, "fusion_lat": 0.0, "is_disabled": 0, "is_reserved": 0, "rental_uris": {"ios": "https://dc.lft.to/lastmile_qr_scan", "android": "https://dc.lft.to/lastmile_qr_scan"}, "bike_id": "d528dcd9231a0c2471c13d8994dc7879", "lat": 38.9038765}, {"type": "electric_scooter", "fusion_lon": 0.0, "name": "6d1e42781c0b03602d606a7280d0c62a", "lon": -77.03773866666667, "fusion_lat": 0.0, "is_disabled": 0, "is_reserved": 0, "rental_uris": {"ios": "https://dc.lft.to/lastmile_qr_scan", "android": "https://dc.lft.to/lastmile_qr_scan"}, "bike_id": "6d1e42781c0b03602d606a7280d0c62a", "lat": 38.916900166666665}, {"type": "electric_scooter", "fusion_lon": 0.0, "name": "e6f8b9eeddf912359c22912cb2eb095b", "lon": -77.03276466666667, "fusion_lat": 0.0, "is_disabled": 0, "is_reserved": 0, "rental_uris": {"ios": "https://dc.lft.to/lastmile_qr_scan", "android": "https://dc.lft.to/lastmile_qr_scan"}, "bike_id": "e6f8b9eeddf912359c22912cb2eb095b", "lat": 38.9293835}, {"type": "electric_scooter", "fusion_lon": 0.0, "name": "6fffd09038e6ded59d5cc75927b83d25", "lon": -77.039269, "fusion_lat": 0.0, "is_disabled": 0, "is_reserved": 0, "rental_uris": {"ios": "https://dc.lft.to/lastmile_qr_scan", "android": "https://dc.lft.to/lastmile_qr_scan"}, "bike_id": "6fffd09038e6ded59d5cc75927b83d25", "lat": 38.9013005}, {"type": "electric_scooter", "fusion_lon": 0.0, "name": "7a94fec8c1c60dd442ae793f922b2bcf", "lon": -77.036482, "fusion_lat": 0.0, "is_disabled": 0, "is_reserved": 0, "rental_uris": {"ios": "https://dc.lft.to/lastmile_qr_scan", "android": "https://dc.lft.to/lastmile_qr_scan"}, "bike_id": "7a94fec8c1c60dd442ae793f922b2bcf", "lat": 38.91754516666666}, {"type": "electric_scooter", "fusion_lon": 0.0, "name": "1160780084aa443a7098473058fb7505", "lon": -77.0398135, "fusion_lat": 0.0, "is_disabled": 0, "is_reserved": 0, "rental_uris": {"ios": "https://dc.lft.to/lastmile_qr_scan", "android": "https://dc.lft.to/lastmile_qr_scan"}, "bike_id": "1160780084aa443a7098473058fb7505", "lat": 38.90574466666666}, {"type": "electric_scooter", "fusion_lon": 0.0, "name": "ecdf515b21d2ac29264997edbd25d05d", "lon": -77.03781816666667, "fusion_lat": 0.0, "is_disabled": 0, "is_reserved": 0, "rental_uris": {"ios": "https://dc.lft.to/lastmile_qr_scan", "android": "https://dc.lft.to/lastmile_qr_scan"}, "bike_id": "ecdf515b21d2ac29264997edbd25d05d", "lat": 38.91685116666667}, {"type": "electric_scooter", "fusion_lon": 0.0, "name": "9a04a0fa5846160b1e79b6116c14f265", "lon": -77.0746605, "fusion_lat": 0.0, "is_disabled": 0, "is_reserved": 0, "rental_uris": {"ios": "https://dc.lft.to/lastmile_qr_scan", "android": "https://dc.lft.to/lastmile_qr_scan"}, "bike_id": "9a04a0fa5846160b1e79b6116c14f265", "lat": 38.935657166666665}, {"type": "electric_scooter", "fusion_lon": 0.0, "name": "fd4c4acff863e2d42042ddbde6bc1f3c", "lon": -77.034026, "fusion_lat": 0.0, "is_disabled": 0, "is_reserved": 0, "rental_uris": {"ios": "https://dc.lft.to/lastmile_qr_scan", "android": "https://dc.lft.to/lastmile_qr_scan"}, "bike_id": "fd4c4acff863e2d42042ddbde6bc1f3c", "lat": 38.923073333333335}, {"type": "electric_bike", "fusion_lon": 0.0, "name": "8fce3caae05694f0d3ac6772c570cbe9", "lon": -76.93205466666667, "fusion_lat": 0.0, "is_disabled": 0, "is_reserved": 0, "rental_uris": {"ios": "https://dc.lft.to/lastmile_qr_scan", "android": "https://dc.lft.to/lastmile_qr_scan"}, "bike_id": "8fce3caae05694f0d3ac6772c570cbe9", "lat": 38.896715666666665}, {"type": "electric_bike", "fusion_lon": 0.0, "name": "81145c75255e8e9942bff8dfaeac5c39", "lon": -77.0959025, "fusion_lat": 0.0, "is_disabled": 0, "is_reserved": 0, "rental_uris": {"ios": "https://dc.lft.to/lastmile_qr_scan", "android": "https://dc.lft.to/lastmile_qr_scan"}, "bike_id": "81145c75255e8e9942bff8dfaeac5c39", "lat": 38.974425833333335}, {"type": "electric_scooter", "fusion_lon": 0.0, "name": "9bf8006e77dcf4cbe206104cedff82be", "lon": -77.02941966666667, "fusion_lat": 0.0, "is_disabled": 0, "is_reserved": 0, "rental_uris": {"ios": "https://dc.lft.to/lastmile_qr_scan", "android": "https://dc.lft.to/lastmile_qr_scan"}, "bike_id": "9bf8006e77dcf4cbe206104cedff82be", "lat": 38.917696666666664}, {"type": "electric_scooter", "fusion_lon": 0.0, "name": "06306b6747288454c0e36edb8686b5bd", "lon": -77.04334166666666, "fusion_lat": 0.0, "is_disabled": 0, "is_reserved": 0, "rental_uris": {"ios": "https://dc.lft.to/lastmile_qr_scan", "android": "https://dc.lft.to/lastmile_qr_scan"}, "bike_id": "06306b6747288454c0e36edb8686b5bd", "lat": 38.89654566666667}, {"type": "electric_scooter", "fusion_lon": 0.0, "name": "07c13201ed265202b1068940eff2481b", "lon": -76.99008833333333, "fusion_lat": 0.0, "is_disabled": 0, "is_reserved": 0, "rental_uris": {"ios": "https://dc.lft.to/lastmile_qr_scan", "android": "https://dc.lft.to/lastmile_qr_scan"}, "bike_id": "07c13201ed265202b1068940eff2481b", "lat": 38.90396966666667}, {"type": "electric_scooter", "fusion_lon": 0.0, "name": "8fdc1aa58066fc2b1fa84ec767a0072e", "lon": -77.00064916666666, "fusion_lat": 0.0, "is_disabled": 0, "is_reserved": 0, "rental_uris": {"ios": "https://dc.lft.to/lastmile_qr_scan", "android": "https://dc.lft.to/lastmile_qr_scan"}, "bike_id": "8fdc1aa58066fc2b1fa84ec767a0072e", "lat": 38.92400416666667}, {"type": "electric_scooter", "fusion_lon": 0.0, "name": "0e44165cbf20712aefd8dbd73574affb", "lon": -77.0186685, "fusion_lat": 0.0, "is_disabled": 0, "is_reserved": 0, "rental_uris": {"ios": "https://dc.lft.to/lastmile_qr_scan", "android": "https://dc.lft.to/lastmile_qr_scan"}, "bike_id": "0e44165cbf20712aefd8dbd73574affb", "lat": 38.898599833333336}, {"type": "electric_scooter", "fusion_lon": 0.0, "name": "609aafae9d1ac9512875227a27a5c470", "lon": -77.0338365, "fusion_lat": 0.0, "is_disabled": 0, "is_reserved": 0, "rental_uris": {"ios": "https://dc.lft.to/lastmile_qr_scan", "android": "https://dc.lft.to/lastmile_qr_scan"}, "bike_id": "609aafae9d1ac9512875227a27a5c470", "lat": 38.90981266666667}, {"type": "electric_scooter", "fusion_lon": 0.0, "name": "70c3f5ab6e5787caf800d9a5099b1313", "lon": -77.02805683333334, "fusion_lat": 0.0, "is_disabled": 0, "is_reserved": 0, "rental_uris": {"ios": "https://dc.lft.to/lastmile_qr_scan", "android": "https://dc.lft.to/lastmile_qr_scan"}, "bike_id": "70c3f5ab6e5787caf800d9a5099b1313", "lat": 38.8923045}, {"type": "electric_scooter", "fusion_lon": 0.0, "name": "828d8457571b43b6e8b367de182e4fbd", "lon": -77.0533365, "fusion_lat": 0.0, "is_disabled": 0, "is_reserved": 0, "rental_uris": {"ios": "https://dc.lft.to/lastmile_qr_scan", "android": "https://dc.lft.to/lastmile_qr_scan"}, "bike_id": "828d8457571b43b6e8b367de182e4fbd", "lat": 38.90413233333334}, {"type": "electric_scooter", "fusion_lon": 0.0, "name": "d59a832e660ca0c0e965d3a0692bfb65", "lon": -77.026834, "fusion_lat": 0.0, "is_disabled": 0, "is_reserved": 0, "rental_uris": {"ios": "https://dc.lft.to/lastmile_qr_scan", "android": "https://dc.lft.to/lastmile_qr_scan"}, "bike_id": "d59a832e660ca0c0e965d3a0692bfb65", "lat": 38.89692}, {"type": "electric_scooter", "fusion_lon": 0.0, "name": "346b9b76325bf92fe23dbcfb4d47b59a", "lon": -77.043362, "fusion_lat": 0.0, "is_disabled": 0, "is_reserved": 0, "rental_uris": {"ios": "https://dc.lft.to/lastmile_qr_scan", "android": "https://dc.lft.to/lastmile_qr_scan"}, "bike_id": "346b9b76325bf92fe23dbcfb4d47b59a", "lat": 38.89226933333333}, {"type": "electric_scooter", "fusion_lon": 0.0, "name": "908895312330d5015ba76ca7da24e523", "lon": -77.03167133333334, "fusion_lat": 0.0, "is_disabled": 0, "is_reserved": 0, "rental_uris": {"ios": "https://dc.lft.to/lastmile_qr_scan", "android": "https://dc.lft.to/lastmile_qr_scan"}, "bike_id": "908895312330d5015ba76ca7da24e523", "lat": 38.89226216666667}, {"type": "electric_scooter", "fusion_lon": 0.0, "name": "a0cf0928f6988437afd160bbe5ce875c", "lon": -77.02175566666666, "fusion_lat": 0.0, "is_disabled": 0, "is_reserved": 0, "rental_uris": {"ios": "https://dc.lft.to/lastmile_qr_scan", "android": "https://dc.lft.to/lastmile_qr_scan"}, "bike_id": "a0cf0928f6988437afd160bbe5ce875c", "lat": 38.9424995}, {"type": "electric_scooter", "fusion_lon": 0.0, "name": "beff0b253a17cec5ae56669eced44bcf", "lon": -77.04532366666666, "fusion_lat": 0.0, "is_disabled": 0, "is_reserved": 0, "rental_uris": {"ios": "https://dc.lft.to/lastmile_qr_scan", "android": "https://dc.lft.to/lastmile_qr_scan"}, "bike_id": "beff0b253a17cec5ae56669eced44bcf", "lat": 38.9006305}, {"type": "electric_scooter", "fusion_lon": 0.0, "name": "9aea09ac917c06e034970806aad3f96a", "lon": -76.97931566666666, "fusion_lat": 0.0, "is_disabled": 0, "is_reserved": 0, "rental_uris": {"ios": "https://dc.lft.to/lastmile_qr_scan", "android": "https://dc.lft.to/lastmile_qr_scan"}, "bike_id": "9aea09ac917c06e034970806aad3f96a", "lat": 38.906757166666665}, {"type": "electric_scooter", "fusion_lon": 0.0, "name": "f1b6b545e6d850ccb78cf680f4a92183", "lon": -77.0309205, "fusion_lat": 0.0, "is_disabled": 0, "is_reserved": 0, "rental_uris": {"ios": "https://dc.lft.to/lastmile_qr_scan", "android": "https://dc.lft.to/lastmile_qr_scan"}, "bike_id": "f1b6b545e6d850ccb78cf680f4a92183", "lat": 38.95927983333333}, {"type": "electric_scooter", "fusion_lon": 0.0, "name": "81dac166b05c2644d89913802b8f4184", "lon": -77.03264966666667, "fusion_lat": 0.0, "is_disabled": 0, "is_reserved": 0, "rental_uris": {"ios": "https://dc.lft.to/lastmile_qr_scan", "android": "https://dc.lft.to/lastmile_qr_scan"}, "bike_id": "81dac166b05c2644d89913802b8f4184", "lat": 38.93529}, {"type": "electric_scooter", "fusion_lon": 0.0, "name": "6c77ddfa8302ea9d71467967347e54a9", "lon": -77.00564283333334, "fusion_lat": 0.0, "is_disabled": 0, "is_reserved": 0, "rental_uris": {"ios": "https://dc.lft.to/lastmile_qr_scan", "android": "https://dc.lft.to/lastmile_qr_scan"}, "bike_id": "6c77ddfa8302ea9d71467967347e54a9", "lat": 38.885076833333336}, {"type": "electric_scooter", "fusion_lon": 0.0, "name": "3e691a9ef109ece35a15f93440da9c35", "lon": -77.04836133333333, "fusion_lat": 0.0, "is_disabled": 0, "is_reserved": 0, "rental_uris": {"ios": "https://dc.lft.to/lastmile_qr_scan", "android": "https://dc.lft.to/lastmile_qr_scan"}, "bike_id": "3e691a9ef109ece35a15f93440da9c35", "lat": 38.900439666666664}, {"type": "electric_scooter", "fusion_lon": 0.0, "name": "ce88c35797c71a284376c843beddc543", "lon": -77.0467375, "fusion_lat": 0.0, "is_disabled": 0, "is_reserved": 0, "rental_uris": {"ios": "https://dc.lft.to/lastmile_qr_scan", "android": "https://dc.lft.to/lastmile_qr_scan"}, "bike_id": "ce88c35797c71a284376c843beddc543", "lat": 38.90970766666667}, {"type": "electric_scooter", "fusion_lon": 0.0, "name": "1c7a3d61215cb51b481f3f54cbc075e0", "lon": -76.97942316666666, "fusion_lat": 0.0, "is_disabled": 0, "is_reserved": 0, "rental_uris": {"ios": "https://dc.lft.to/lastmile_qr_scan", "android": "https://dc.lft.to/lastmile_qr_scan"}, "bike_id": "1c7a3d61215cb51b481f3f54cbc075e0", "lat": 38.90653366666667}, {"type": "electric_scooter", "fusion_lon": 0.0, "name": "7b5819d3aff9ebef99a7f8c7dd9a54c4", "lon": -77.041893, "fusion_lat": 0.0, "is_disabled": 0, "is_reserved": 0, "rental_uris": {"ios": "https://dc.lft.to/lastmile_qr_scan", "android": "https://dc.lft.to/lastmile_qr_scan"}, "bike_id": "7b5819d3aff9ebef99a7f8c7dd9a54c4", "lat": 38.923363}, {"type": "electric_scooter", "fusion_lon": 0.0, "name": "3d3802a419d7b886afc990aebc5918ce", "lon": -77.07305683333334, "fusion_lat": 0.0, "is_disabled": 0, "is_reserved": 0, "rental_uris": {"ios": "https://dc.lft.to/lastmile_qr_scan", "android": "https://dc.lft.to/lastmile_qr_scan"}, "bike_id": "3d3802a419d7b886afc990aebc5918ce", "lat": 38.9354955}, {"type": "electric_scooter", "fusion_lon": 0.0, "name": "782926aa16780c2f3c2b02442960efaf", "lon": -77.01984866666666, "fusion_lat": 0.0, "is_disabled": 0, "is_reserved": 0, "rental_uris": {"ios": "https://dc.lft.to/lastmile_qr_scan", "android": "https://dc.lft.to/lastmile_qr_scan"}, "bike_id": "782926aa16780c2f3c2b02442960efaf", "lat": 38.893850666666665}, {"type": "electric_scooter", "fusion_lon": 0.0, "name": "0e586999aad4c90b1ea6f90a6b83dfa7", "lon": -77.0311535, "fusion_lat": 0.0, "is_disabled": 0, "is_reserved": 0, "rental_uris": {"ios": "https://dc.lft.to/lastmile_qr_scan", "android": "https://dc.lft.to/lastmile_qr_scan"}, "bike_id": "0e586999aad4c90b1ea6f90a6b83dfa7", "lat": 38.92392366666667}, {"type": "electric_scooter", "fusion_lon": 0.0, "name": "82ce1fd845ca207e93541641fb00edea", "lon": -77.01885466666667, "fusion_lat": 0.0, "is_disabled": 0, "is_reserved": 0, "rental_uris": {"ios": "https://dc.lft.to/lastmile_qr_scan", "android": "https://dc.lft.to/lastmile_qr_scan"}, "bike_id": "82ce1fd845ca207e93541641fb00edea", "lat": 38.9178685}, {"type": "electric_scooter", "fusion_lon": 0.0, "name": "fa9c931e065b03eeb57f649a18072f19", "lon": -77.03284266666667, "fusion_lat": 0.0, "is_disabled": 0, "is_reserved": 0, "rental_uris": {"ios": "https://dc.lft.to/lastmile_qr_scan", "android": "https://dc.lft.to/lastmile_qr_scan"}, "bike_id": "fa9c931e065b03eeb57f649a18072f19", "lat": 38.92838166666667}, {"type": "electric_scooter", "fusion_lon": 0.0, "name": "443bed6536d0fd145b8c7bc969a249c5", "lon": -77.026654, "fusion_lat": 0.0, "is_disabled": 0, "is_reserved": 0, "rental_uris": {"ios": "https://dc.lft.to/lastmile_qr_scan", "android": "https://dc.lft.to/lastmile_qr_scan"}, "bike_id": "443bed6536d0fd145b8c7bc969a249c5", "lat": 38.9755555}, {"type": "electric_scooter", "fusion_lon": 0.0, "name": "58e0e0f0e063d5283be47f43c28d210d", "lon": -77.07515266666667, "fusion_lat": 0.0, "is_disabled": 0, "is_reserved": 0, "rental_uris": {"ios": "https://dc.lft.to/lastmile_qr_scan", "android": "https://dc.lft.to/lastmile_qr_scan"}, "bike_id": "58e0e0f0e063d5283be47f43c28d210d", "lat": 38.906702833333334}, {"type": "electric_bike", "fusion_lon": 0.0, "name": "973ba34264892ca5ad516b268a88f319", "lon": -76.9451675, "fusion_lat": 0.0, "is_disabled": 0, "is_reserved": 0, "rental_uris": {"ios": "https://dc.lft.to/lastmile_qr_scan", "android": "https://dc.lft.to/lastmile_qr_scan"}, "bike_id": "973ba34264892ca5ad516b268a88f319", "lat": 38.8628375}, {"type": "electric_scooter", "fusion_lon": 0.0, "name": "cb6e7de8f9f9dd926319c71d6c61b716", "lon": -77.04183583333334, "fusion_lat": 0.0, "is_disabled": 0, "is_reserved": 0, "rental_uris": {"ios": "https://dc.lft.to/lastmile_qr_scan", "android": "https://dc.lft.to/lastmile_qr_scan"}, "bike_id": "cb6e7de8f9f9dd926319c71d6c61b716", "lat": 38.89998966666667}, {"type": "electric_scooter", "fusion_lon": 0.0, "name": "8de725db3c45ebee11442f54c1ad4aea", "lon": -77.04157233333333, "fusion_lat": 0.0, "is_disabled": 0, "is_reserved": 0, "rental_uris": {"ios": "https://dc.lft.to/lastmile_qr_scan", "android": "https://dc.lft.to/lastmile_qr_scan"}, "bike_id": "8de725db3c45ebee11442f54c1ad4aea", "lat": 38.894924333333336}, {"type": "electric_scooter", "fusion_lon": 0.0, "name": "c1b058a79f3311a39244d7577cec1e12", "lon": -77.03854983333333, "fusion_lat": 0.0, "is_disabled": 0, "is_reserved": 0, "rental_uris": {"ios": "https://dc.lft.to/lastmile_qr_scan", "android": "https://dc.lft.to/lastmile_qr_scan"}, "bike_id": "c1b058a79f3311a39244d7577cec1e12", "lat": 38.93205866666667}, {"type": "electric_scooter", "fusion_lon": 0.0, "name": "309bb722f640deb234c3f96a97b3dc67", "lon": -77.03635316666667, "fusion_lat": 0.0, "is_disabled": 0, "is_reserved": 0, "rental_uris": {"ios": "https://dc.lft.to/lastmile_qr_scan", "android": "https://dc.lft.to/lastmile_qr_scan"}, "bike_id": "309bb722f640deb234c3f96a97b3dc67", "lat": 38.92748916666667}, {"type": "electric_scooter", "fusion_lon": 0.0, "name": "794862ff69e1bb73d30ce8438215b716", "lon": -77.05674283333333, "fusion_lat": 0.0, "is_disabled": 0, "is_reserved": 0, "rental_uris": {"ios": "https://dc.lft.to/lastmile_qr_scan", "android": "https://dc.lft.to/lastmile_qr_scan"}, "bike_id": "794862ff69e1bb73d30ce8438215b716", "lat": 38.923401166666665}, {"type": "electric_scooter", "fusion_lon": 0.0, "name": "6ffafe19828ca6caf74282145325f04b", "lon": -77.05934266666667, "fusion_lat": 0.0, "is_disabled": 0, "is_reserved": 0, "rental_uris": {"ios": "https://dc.lft.to/lastmile_qr_scan", "android": "https://dc.lft.to/lastmile_qr_scan"}, "bike_id": "6ffafe19828ca6caf74282145325f04b", "lat": 38.94303333333333}, {"type": "electric_bike", "fusion_lon": 0.0, "name": "b32bea8cc3df93105bc10e4b4c31eecd", "lon": -76.98849933333334, "fusion_lat": 0.0, "is_disabled": 0, "is_reserved": 0, "rental_uris": {"ios": "https://dc.lft.to/lastmile_qr_scan", "android": "https://dc.lft.to/lastmile_qr_scan"}, "bike_id": "b32bea8cc3df93105bc10e4b4c31eecd", "lat": 38.983671},