{"data": {"bikes": [{"lon": -76.931746, "bike_id": "0b3ae11d17c89d8f3dae2930a1233d66", "lat": 38.89884766666667, "fusion_lon": 0.0, "fusion_lat": 0.0, "type": "electric_scooter", "name": "0b3ae11d17c89d8f3dae2930a1233d66", "is_disabled": 0, "rental_uris": {"ios": "https://dc.lft.to/lastmile_qr_scan", "android": "https://dc.lft.to/lastmile_qr_scan"}, "is_reserved": 0}, {"lon": -77.02593033333333, "bike_id": "31be1cc5898e3b6b50794b2f7e2d6d17", "lat": 38.96397066666667, "fusion_lon": 0.0, "fusion_lat": 0.0, "type": "electric_scooter", "name": "31be1cc5898e3b6b50794b2f7e2d6d17", "is_disabled": 0, "rental_uris": {"ios": "https://dc.lft.to/lastmile_qr_scan", "android": "https://dc.lft.to/lastmile_qr_scan"}, "is_reserved": 0}, {"lon": -76.92995733333333, "bike_id": "dede7bd559620c21fdf20047fe9947be", "lat": 38.896663333333336, "fusion_lon": 0.0, "fusion_lat": 0.0, "type": "electric_bike", "name": "dede7bd559620c21fdf20047fe9947be", "is_disabled": 0, "rental_uris": {"ios": "https://dc.lft.to/lastmile_qr_scan", "android": "https://dc.lft.to/lastmile_qr_scan"}, "is_reserved": 0}, {"lon": -77.04367283333333, "bike_id": "b1e36499f7284c08ee4e2909b358b07b", "lat": 38.90237283333333, "fusion_lon": 0.0, "fusion_lat": 0.0, "type": "electric_scooter", "name": "b1e36499f7284c08ee4e2909b358b07b", "is_disabled": 0, "rental_uris": {"ios": "https://dc.lft.to/lastmile_qr_scan", "android": "https://dc.lft.to/lastmile_qr_scan"}, "is_reserved": 0}, {"lon": -77.03294883333334, "bike_id": "c78b298ffce5a651c03caacdb821b04d", "lat": 38.95651733333333, "fusion_lon": 0.0, "fusion_lat": 0.0, "type": "electric_scooter", "name": "c78b298ffce5a651c03caacdb821b04d", "is_disabled": 0, "rental_uris": {"ios": "https://dc.lft.to/lastmile_qr_scan", "android": "https://dc.lft.to/lastmile_qr_scan"}, "is_reserved": 0}, {"lon": -77.02507516666667, "bike_id": "77d1ed072b69d3d02a66acb0d0b8e555", "lat": 38.905250333333335, "fusion_lon": 0.0, "fusion_lat": 0.0, "type": "electric_scooter", "name": "77d1ed072b69d3d02a66acb0d0b8e555", "is_disabled": 0, "rental_uris": {"ios": "https://dc.lft.to/lastmile_qr_scan", "android": "https://dc.lft.to/lastmile_qr_scan"}, "is_reserved": 0}, {"lon": -77.03268816666667, "bike_id": "bc37f9b2fcb95b11157df75ea8296e3a", "lat": 38.919899, "fusion_lon": 0.0, "fusion_lat": 0.0, "type": "electric_scooter", "name": "bc37f9b2fcb95b11157df75ea8296e3a", "is_disabled": 0, "rental_uris": {"ios": "https://dc.lft.to/lastmile_qr_scan", "android": "https://dc.lft.to/lastmile_qr_scan"}, "is_reserved": 0}, {"lon": -76.93643416666667, "bike_id": "9f3c0729680ebec1a8653ed00fecfe0b", "lat": 38.90061866666667, "fusion_lon": 0.0, "fusion_lat": 0.0, "type": "electric_scooter", "name": "9f3c0729680ebec1a8653ed00fecfe0b", "is_disabled": 0, "rental_uris": {"ios": "https://dc.lft.to/lastmile_qr_scan", "android": "https://dc.lft.to/lastmile_qr_scan"}, "is_reserved": 0}, {"lon": -77.021139, "bike_id": "555e6e8e80df12c86622b26c32670f5b", "lat": 38.9029215, "fusion_lon": 0.0, "fusion_lat": 0.0, "type": "electric_scooter", "name": "555e6e8e80df12c86622b26c32670f5b", "is_disabled": 0, "rental_uris": {"ios": "https://dc.lft.to/lastmile_qr_scan", "android": "https://dc.lft.to/lastmile_qr_scan"}, "is_reserved": 0}, {"lon": -77.02530216666666, "bike_id": "6c3468557370b25a2bdfe4976f196668", "lat": 38.91688883333333, "fusion_lon": 0.0, "fusion_lat": 0.0, "type": "electric_scooter", "name": "6c3468557370b25a2bdfe4976f196668", "is_disabled": 0, "rental_uris": {"ios": "https://dc.lft.to/lastmile_qr_scan", "android": "https://dc.lft.to/lastmile_qr_scan"}, "is_reserved": 0}, {"lon": -77.0318795, "bike_id": "ae8cc8bdc1cc45054915407a6b55d47f", "lat": 38.91623833333333, "fusion_lon": 0.0, "fusion_lat": 0.0, "type": "electric_scooter", "name": "ae8cc8bdc1cc45054915407a6b55d47f", "is_disabled": 0, "rental_uris": {"ios": "https://dc.lft.to/lastmile_qr_scan", "android": "https://dc.lft.to/lastmile_qr_scan"}, "is_reserved": 0}, {"lon": -77.00891516666667, "bike_id": "b4c5dc3ba05aad184ec6c9193e512a50", "lat": 38.92492883333333, "fusion_lon": 0.0, "fusion_lat": 0.0, "type": "electric_scooter", "name": "b4c5dc3ba05aad184ec6c9193e512a50", "is_disabled": 0, "rental_uris": {"ios": "https://dc.lft.to/lastmile_qr_scan", "android": "https://dc.lft.to/lastmile_qr_scan"}, "is_reserved": 0}, {"lon": -77.03183366666667, "bike_id": "408c07e4ec3754b3b940e39fcd7cf296", "lat": 38.914262, "fusion_lon": 0.0, "fusion_lat": 0.0, "type": "electric_scooter", "name": "408c07e4ec3754b3b940e39fcd7cf296", "is_disabled": 0, "rental_uris": {"ios": "https://dc.lft.to/lastmile_qr_scan", "android": "https://dc.lft.to/lastmile_qr_scan"}, "is_reserved": 0}, {"lon": -77.03567833333334, "bike_id": "508493f020f1d99c14e0193d6bcf0f21", "lat": 38.904852166666664, "fusion_lon": 0.0, "fusion_lat": 0.0, "type": "electric_scooter", "name": "508493f020f1d99c14e0193d6bcf0f21", "is_disabled": 0, "rental_uris": {"ios": "https://dc.lft.to/lastmile_qr_scan", "android": "https://dc.lft.to/lastmile_qr_scan"}, "is_reserved": 0}, {"lon": -76.99371733333334, "bike_id": "27cee67082d5ec8e50327b4395372c46", "lat": 38.923998833333336, "fusion_lon": 0.0, "fusion_lat": 0.0, "type": "electric_scooter", "name": "27cee67082d5ec8e50327b4395372c46", "is_disabled": 0, "rental_uris": {"ios": "https://dc.lft.to/lastmile_qr_scan", "android": "https://dc.lft.to/lastmile_qr_scan"}, "is_reserved": 0}, {"lon": -77.0422705, "bike_id": "3c633db1a57020f9dfb0b94978612362", "lat": 38.921287166666666, "fusion_lon": 0.0, "fusion_lat": 0.0, "type": "electric_scooter", "name": "3c633db1a57020f9dfb0b94978612362", "is_disabled": 0, "rental_uris": {"ios": "https://dc.lft.to/lastmile_qr_scan", "android": "https://dc.lft.to/lastmile_qr_scan"}, "is_reserved": 0}, {"lon": -77.00374866666667, "bike_id": "156c19d3b21b9879a281ad8e1e6f2080", "lat": 38.89733716666667, "fusion_lon": 0.0, "fusion_lat": 0.0, "type": "electric_scooter", "name": "156c19d3b21b9879a281ad8e1e6f2080", "is_disabled": 0, "rental_uris": {"ios": "https://dc.lft.to/lastmile_qr_scan", "android": "https://dc.lft.to/lastmile_qr_scan"}, "is_reserved": 0}, {"lon": -77.031251, "bike_id": "2fdd50377bbd62d0a6fa1c63272777b5", "lat": 38.959297, "fusion_lon": 0.0, "fusion_lat": 0.0, "type": "electric_bike", "name": "2fdd50377bbd62d0a6fa1c63272777b5", "is_disabled": 0, "rental_uris": {"ios": "https://dc.lft.to/lastmile_qr_scan", "android": "https://dc.lft.to/lastmile_qr_scan"}, "is_reserved": 0}, {"lon": -77.0227845, "bike_id": "20e04617e117abfe419819ee5614a007", "lat": 38.916333, "fusion_lon": 0.0, "fusion_lat": 0.0, "type": "electric_scooter", "name": "20e04617e117abfe419819ee5614a007", "is_disabled": 0, "rental_uris": {"ios": "https://dc.lft.to/lastmile_qr_scan", "android": "https://dc.lft.to/lastmile_qr_scan"}, "is_reserved": 0}, {"lon": -76.98846866666666, "bike_id": "39063697b84c656e6299485b6dd77731", "lat": 38.901336666666666, "fusion_lon": 0.0, "fusion_lat": 0.0, "type": "electric_scooter", "name": "39063697b84c656e6299485b6dd77731", "is_disabled": 0, "rental_uris": {"ios": "https://dc.lft.to/lastmile_qr_scan", "android": "https://dc.lft.to/lastmile_qr_scan"}, "is_reserved": 0}, {"lon": -76.96380633333334, "bike_id": "d46a0e00fa632ef31b765cc63d56ff18", "lat": 38.951780166666666, "fusion_lon": 0.0, "fusion_lat": 0.0, "type": "electric_bike", "name": "d46a0e00fa632ef31b765cc63d56ff18", "is_disabled": 0, "rental_uris": {"ios": "https://dc.lft.to/lastmile_qr_scan", "android": "https://dc.lft.to/lastmile_qr_scan"}, "is_reserved": 0}, {"lon": -77.027961, "bike_id": "8ae416a5678a28d1caabf4c61c9a9bfa", "lat": 38.954012, "fusion_lon": 0.0, "fusion_lat": 0.0, "type": "electric_scooter", "name": "8ae416a5678a28d1caabf4c61c9a9bfa", "is_disabled": 0, "rental_uris": {"ios": "https://dc.lft.to/lastmile_qr_scan", "android": "https://dc.lft.to/lastmile_qr_scan"}, "is_reserved": 0}, {"lon": -77.03866816666667, "bike_id": "df0e06d48a12c76cff85e9a77cd17774", "lat": 38.914136666666664, "fusion_lon": 0.0, "fusion_lat": 0.0, "type": "electric_scooter", "name": "df0e06d48a12c76cff85e9a77cd17774", "is_disabled": 0, "rental_uris": {"ios": "https://dc.lft.to/lastmile_qr_scan", "android": "https://dc.lft.to/lastmile_qr_scan"}, "is_reserved": 0}, {"lon": -76.99126516666666, "bike_id": "0a0a3c87f85b03d6ff61fe1723c4379b", "lat": 38.922786333333335, "fusion_lon": 0.0, "fusion_lat": 0.0, "type": "electric_scooter", "name": "0a0a3c87f85b03d6ff61fe1723c4379b", "is_disabled": 0, "rental_uris": {"ios": "https://dc.lft.to/lastmile_qr_scan", "android": "https://dc.lft.to/lastmile_qr_scan"}, "is_reserved": 0}, {"lon": -77.0200005, "bike_id": "3de55c142d7b1000ebf9b04ef20008e8", "lat": 38.904459333333335, "fusion_lon": 0.0, "fusion_lat": 0.0, "type": "electric_scooter", "name": "3de55c142d7b1000ebf9b04ef20008e8", "is_disabled": 0, "rental_uris": {"ios": "https://dc.lft.to/lastmile_qr_scan", "android": "https://dc.lft.to/lastmile_qr_scan"}, "is_reserved": 0}, {"lon": -77.0268095, "bike_id": "dc4b520b96a627339bc5c298b484e658", "lat": 38.98456183333333, "fusion_lon": 0.0, "fusion_lat": 0.0, "type": "electric_scooter", "name": "dc4b520b96a627339bc5c298b484e658", "is_disabled": 0, "rental_uris": {"ios": "https://dc.lft.to/lastmile_qr_scan", "android": "https://dc.lft.to/lastmile_qr_scan"}, "is_reserved": 0}, {"lon": -77.0316765, "bike_id": "3bc241f480f473bb6494e0faa151e185", "lat": 38.91573366666667, "fusion_lon": 0.0, "fusion_lat": 0.0, "type": "electric_scooter", "name": "3bc241f480f473bb6494e0faa151e185", "is_disabled": 0, "rental_uris": {"ios": "https://dc.lft.to/lastmile_qr_scan", "android": "https://dc.lft.to/lastmile_qr_scan"}, "is_reserved": 0}, {"lon": -77.02974583333334, "bike_id": "74dab14d2ae213e82b6bbec32a188ac1", "lat": 38.917222, "fusion_lon": 0.0, "fusion_lat": 0.0, "type": "electric_scooter", "name": "74dab14d2ae213e82b6bbec32a188ac1", "is_disabled": 0, "rental_uris": {"ios": "https://dc.lft.to/lastmile_qr_scan", "android": "https://dc.lft.to/lastmile_qr_scan"}, "is_reserved": 0}, {"lon": -77.037205, "bike_id": "156361806a91f9eabbdc70785f424e4f", "lat": 38.926446, "fusion_lon": 0.0, "fusion_lat": 0.0, "type": "electric_scooter", "name": "156361806a91f9eabbdc70785f424e4f", "is_disabled": 0, "rental_uris": {"ios": "https://dc.lft.to/lastmile_qr_scan", "android": "https://dc.lft.to/lastmile_qr_scan"}, "is_reserved": 0}, {"lon": -77.02810333333333, "bike_id": "5e4a1908dc454ab930ef168af7e0c1f5", "lat": 38.88181566666667, "fusion_lon": 0.0, "fusion_lat": 0.0, "type": "electric_scooter", "name": "5e4a1908dc454ab930ef168af7e0c1f5", "is_disabled": 0, "rental_uris": {"ios": "https://dc.lft.to/lastmile_qr_scan", "android": "https://dc.lft.to/lastmile_qr_scan"}, "is_reserved": 0}, {"lon": -77.02095516666667, "bike_id": "16fbdbc3633a6e3b30161db335d0f304", "lat": 38.909813, "fusion_lon": 0.0, "fusion_lat": 0.0, "type": "electric_scooter", "name": "16fbdbc3633a6e3b30161db335d0f304", "is_disabled": 0, "rental_uris": {"ios": "https://dc.lft.to/lastmile_qr_scan", "android": "https://dc.lft.to/lastmile_qr_scan"}, "is_reserved": 0}, {"lon": -76.99546783333334, "bike_id": "fbc3f33cf5616358e88825585746e422", "lat": 38.8626325, "fusion_lon": 0.0, "fusion_lat": 0.0, "type": "electric_scooter", "name": "fbc3f33cf5616358e88825585746e422", "is_disabled": 0, "rental_uris": {"ios": "https://dc.lft.to/lastmile_qr_scan", "android": "https://dc.lft.to/lastmile_qr_scan"}, "is_reserved": 0}, {"lon": -77.0231025, "bike_id": "9a004370fff5d68b26c357eb2d816f6f", "lat": 38.909604, "fusion_lon": 0.0, "fusion_lat": 0.0, "type": "electric_scooter", "name": "9a004370fff5d68b26c357eb2d816f6f", "is_disabled": 0, "rental_uris": {"ios": "https://dc.lft.to/lastmile_qr_scan", "android": "https://dc.lft.to/lastmile_qr_scan"}, "is_reserved": 0}, {"lon": -77.03435033333334, "bike_id": "ce8f0c59ba2345c5ece70367a117c9da", "lat": 38.90301566666667, "fusion_lon": 0.0, "fusion_lat": 0.0, "type": "electric_scooter", "name": "ce8f0c59ba2345c5ece70367a117c9da", "is_disabled": 0, "rental_uris": {"ios": "https://dc.lft.to/lastmile_qr_scan", "android": "https://dc.lft.to/lastmile_qr_scan"}, "is_reserved": 0}, {"lon": -77.02204516666667, "bike_id": "332e49c3dc20d56036a6e733f30afc7a", "lat": 38.90428333333333, "fusion_lon": 0.0, "fusion_lat": 0.0, "type": "electric_scooter", "name": "332e49c3dc20d56036a6e733f30afc7a", "is_disabled": 0, "rental_uris": {"ios": "https://dc.lft.to/lastmile_qr_scan", "android": "https://dc.lft.to/lastmile_qr_scan"}, "is_reserved": 0}, {"lon": -77.033314, "bike_id": "f3b59811f9155ee47c1da64e81b97235", "lat": 38.9605345, "fusion_lon": 0.0, "fusion_lat": 0.0, "type": "electric_scooter", "name": "f3b59811f9155ee47c1da64e81b97235", "is_disabled": 0, "rental_uris": {"ios": "https://dc.lft.to/lastmile_qr_scan", "android": "https://dc.lft.to/lastmile_qr_scan"}, "is_reserved": 0}, {"lon": -77.00557, "bike_id": "72f589e3eee14e245a9405c2b80cde48", "lat": 38.9118965, "fusion_lon": 0.0, "fusion_lat": 0.0, "type": "electric_scooter", "name": "72f589e3eee14e245a9405c2b80cde48", "is_disabled": 0, "rental_uris": {"ios": "https://dc.lft.to/lastmile_qr_scan", "android": "https://dc.lft.to/lastmile_qr_scan"}, "is_reserved": 0}, {"lon": -77.023927, "bike_id": "8de0c7220587df85bf2afeea00f52881", "lat": 38.920844, "fusion_lon": 0.0, "fusion_lat": 0.0, "type": "electric_scooter", "name": "8de0c7220587df85bf2afeea00f52881", "is_disabled": 0, "rental_uris": {"ios": "https://dc.lft.to/lastmile_qr_scan", "android": "https://dc.lft.to/lastmile_qr_scan"}, "is_reserved": 0}, {"lon": -77.03278383333334, "bike_id": "3d4ab6e3c5051860cd0bc35b29d15097", "lat": 38.93882983333334, "fusion_lon": 0.0, "fusion_lat": 0.0, "type": "electric_scooter", "name": "3d4ab6e3c5051860cd0bc35b29d15097", "is_disabled": 0, "rental_uris": {"ios": "https://dc.lft.to/lastmile_qr_scan", "android": "https://dc.lft.to/lastmile_qr_scan"}, "is_reserved": 0}, {"lon": -76.948772, "bike_id": "884636c25c54cff993a0506143303736", "lat": 38.89552466666667, "fusion_lon": 0.0, "fusion_lat": 0.0, "type": "electric_scooter", "name": "884636c25c54cff993a0506143303736", "is_disabled": 0, "rental_uris": {"ios": "https://dc.lft.to/lastmile_qr_scan", "android": "https://dc.lft.to/lastmile_qr_scan"}, "is_reserved": 0}, {"lon": -77.00975016666666, "bike_id": "8701f782f914e0dc365a482ac20af300", "lat": 38.897318166666665, "fusion_lon": 0.0, "fusion_lat": 0.0, "type": "electric_scooter", "name": "8701f782f914e0dc365a482ac20af300", "is_disabled": 0, "rental_uris": {"ios": "https://dc.lft.to/lastmile_qr_scan", "android": "https://dc.lft.to/lastmile_qr_scan"}, "is_reserved": 0}, {"lon": -76.98705116666666, "bike_id": "f1e7b45a3aa819f3ebd74ef9d3d0b4a9", "lat": 38.90939816666667, "fusion_lon": 0.0, "fusion_lat": 0.0, "type": "electric_scooter", "name": "f1e7b45a3aa819f3ebd74ef9d3d0b4a9", "is_disabled": 0, "rental_uris": {"ios": "https://dc.lft.to/lastmile_qr_scan", "android": "https://dc.lft.to/lastmile_qr_scan"}, "is_reserved": 0}, {"lon": -77.02821416666667, "bike_id": "c585c8f43a05694530c688d2814e6a2b", "lat": 38.917021, "fusion_lon": 0.0, "fusion_lat": 0.0, "type": "electric_scooter", "name": "c585c8f43a05694530c688d2814e6a2b", "is_disabled": 0, "rental_uris": {"ios": "https://dc.lft.to/lastmile_qr_scan", "android": "https://dc.lft.to/lastmile_qr_scan"}, "is_reserved": 0}, {"lon": -77.048782, "bike_id": "6999729df5bf2a8d4e546aae920da871", "lat": 38.903560666666664, "fusion_lon": 0.0, "fusion_lat": 0.0, "type": "electric_scooter", "name": "6999729df5bf2a8d4e546aae920da871", "is_disabled": 0, "rental_uris": {"ios": "https://dc.lft.to/lastmile_qr_scan", "android": "https://dc.lft.to/lastmile_qr_scan"}, "is_reserved": 0}, {"lon": -77.04862216666666, "bike_id": "aa46ca7b9a78a7aecc9b6ab1d29c6927", "lat": 38.909589, "fusion_lon": 0.0, "fusion_lat": 0.0, "type": "electric_scooter", "name": "aa46ca7b9a78a7aecc9b6ab1d29c6927", "is_disabled": 0, "rental_uris": {"ios": "https://dc.lft.to/lastmile_qr_scan", "android": "https://dc.lft.to/lastmile_qr_scan"}, "is_reserved": 0}, {"lon": -77.01003516666667, "bike_id": "cdae3a2a292f2c27123d59c724feb35c", "lat": 38.919239, "fusion_lon": 0.0, "fusion_lat": 0.0, "type": "electric_scooter", "name": "cdae3a2a292f2c27123d59c724feb35c", "is_disabled": 0, "rental_uris": {"ios": "https://dc.lft.to/lastmile_qr_scan", "android": "https://dc.lft.to/lastmile_qr_scan"}, "is_reserved": 0}, {"lon": -77.0319455, "bike_id": "06421be38e37ea75a504d732fe1f1e8c", "lat": 38.908185333333336, "fusion_lon": 0.0, "fusion_lat": 0.0, "type": "electric_scooter", "name": "06421be38e37ea75a504d732fe1f1e8c", "is_disabled": 0, "rental_uris": {"ios": "https://dc.lft.to/lastmile_qr_scan", "android": "https://dc.lft.to/lastmile_qr_scan"}, "is_reserved": 0}, {"lon": -77.050493, "bike_id": "4d37c1955da5f4def095cc27c77a4c73", "lat": 38.89695866666667, "fusion_lon": 0.0, "fusion_lat": 0.0, "type": "electric_scooter", "name": "4d37c1955da5f4def095cc27c77a4c73", "is_disabled": 0, "rental_uris": {"ios": "https://dc.lft.to/lastmile_qr_scan", "android": "https://dc.lft.to/lastmile_qr_scan"}, "is_reserved": 0}, {"lon": -76.93353133333333, "bike_id": "ab82b9ad89fda437aae4aacc3afd9efb", "lat": 38.8880105, "fusion_lon": 0.0, "fusion_lat": 0.0, "type": "electric_scooter", "name": "ab82b9ad89fda437aae4aacc3afd9efb", "is_disabled": 0, "rental_uris": {"ios": "https://dc.lft.to/lastmile_qr_scan", "android": "https://dc.lft.to/lastmile_qr_scan"}, "is_reserved": 0}, {"lon": -77.05626983333333, "bike_id": "7b6a65aad4f81fe5f730853bc260184d", "lat": 38.960755666666664, "fusion_lon": 0.0, "fusion_lat": 0.0, "type": "electric_scooter", "name": "7b6a65aad4f81fe5f730853bc260184d", "is_disabled": 0, "rental_uris": {"ios": "https://dc.lft.to/lastmile_qr_scan", "android": "https://dc.lft.to/lastmile_qr_scan"}, "is_reserved": 0}, {"lon": -77.0447945, "bike_id": "9e36b1be46a04b746565d44a59a6f90e", "lat": 38.9000925, "fusion_lon": 0.0, "fusion_lat": 0.0, "type": "electric_scooter", "name": "9e36b1be46a04b746565d44a59a6f90e", "is_disabled": 0, "rental_uris": {"ios": "https://dc.lft.to/lastmile_qr_scan", "android": "https://dc.lft.to/lastmile_qr_scan"}, "is_reserved": 0}, {"lon": -77.029674, "bike_id": "77bb8bf0233299c66ad2f17fd2862108", "lat": 38.91675216666667, "fusion_lon": 0.0, "fusion_lat": 0.0, "type": "electric_scooter", "name": "77bb8bf0233299c66ad2f17fd2862108", "is_disabled": 0, "rental_uris": {"ios": "https://dc.lft.to/lastmile_qr_scan", "android": "https://dc.lft.to/lastmile_qr_scan"}, "is_reserved": 0}, {"lon": -76.9882695, "bike_id": "23af8eed3d2d12c7ca062a6e8f9c02e7", "lat": 38.90042916666667, "fusion_lon": 0.0, "fusion_lat": 0.0, "type": "electric_scooter", "name": "23af8eed3d2d12c7ca062a6e8f9c02e7", "is_disabled": 0, "rental_uris": {"ios": "https://dc.lft.to/lastmile_qr_scan", "android": "https://dc.lft.to/lastmile_qr_scan"}, "is_reserved": 0}, {"lon": -77.07699116666667, "bike_id": "5f97a319459273833d74a0c262364c40", "lat": 38.88859733333334, "fusion_lon": 0.0, "fusion_lat": 0.0, "type": "electric_bike", "name": "5f97a319459273833d74a0c262364c40", "is_disabled": 0, "rental_uris": {"ios": "https://dc.lft.to/lastmile_qr_scan", "android": "https://dc.lft.to/lastmile_qr_scan"}, "is_reserved": 0}, {"lon": -77.03466733333333, "bike_id": "763402288ed5b6d83dd8b67b1fdf46a1", "lat": 38.90733016666667, "fusion_lon": 0.0, "fusion_lat": 0.0, "type": "electric_scooter", "name": "763402288ed5b6d83dd8b67b1fdf46a1", "is_disabled": 0, "rental_uris": {"ios": "https://dc.lft.to/lastmile_qr_scan", "android": "https://dc.lft.to/lastmile_qr_scan"}, "is_reserved": 0}, {"lon": -77.003418, "bike_id": "ab5d94b5aadd73e21669384b2ce9fba7", "lat": 38.88723666666667, "fusion_lon": 0.0, "fusion_lat": 0.0, "type": "electric_scooter", "name": "ab5d94b5aadd73e21669384b2ce9fba7", "is_disabled": 0, "rental_uris": {"ios": "https://dc.lft.to/lastmile_qr_scan", "android": "https://dc.lft.to/lastmile_qr_scan"}, "is_reserved": 0}, {"lon": -77.0354275, "bike_id": "72a0befe4b11aa2616c29786bb1f7774", "lat": 38.92428833333334, "fusion_lon": 0.0, "fusion_lat": 0.0, "type": "electric_scooter", "name": "72a0befe4b11aa2616c29786bb1f7774", "is_disabled": 0, "rental_uris": {"ios": "https://dc.lft.to/lastmile_qr_scan", "android": "https://dc.lft.to/lastmile_qr_scan"}, "is_reserved": 0}, {"lon": -77.13098433333333, "bike_id": "595608995dbad0f5a843a1513508d601", "lat": 39.024422333333334, "fusion_lon": 0.0, "fusion_lat": 0.0, "type": "electric_bike", "name": "595608995dbad0f5a843a1513508d601", "is_disabled": 0, "rental_uris": {"ios": "https://dc.lft.to/lastmile_qr_scan", "android": "https://dc.lft.to/lastmile_qr_scan"}, "is_reserved": 0}, {"lon": -77.01119266666667, "bike_id": "5179812a2b286e8daa93870ef1aa9840", "lat": 38.885529166666664, "fusion_lon": 0.0, "fusion_lat": 0.0, "type": "electric_scooter", "name": "5179812a2b286e8daa93870ef1aa9840", "is_disabled": 0, "rental_uris": {"ios": "https://dc.lft.to/lastmile_qr_scan", "android": "https://dc.lft.to/lastmile_qr_scan"}, "is_reserved": 0}, {"lon": -77.02377716666666, "bike_id": "c995db73e944a689fd18c6de52c2cd75", "lat": 38.90961433333333, "fusion_lon": 0.0, "fusion_lat": 0.0, "type": "electric_scooter", "name": "c995db73e944a689fd18c6de52c2cd75", "is_disabled": 0, "rental_uris": {"ios": "https://dc.lft.to/lastmile_qr_scan", "android": "https://dc.lft.to/lastmile_qr_scan"}, "is_reserved": 0}, {"lon": -77.0365715, "bike_id": "b16b9863b262c8e8ec6ed6cf8e606580", "lat": 38.91295133333333, "fusion_lon": 0.0, "fusion_lat": 0.0, "type": "electric_scooter", "name": "b16b9863b262c8e8ec6ed6cf8e606580", "is_disabled": 0, "rental_uris": {"ios": "https://dc.lft.to/lastmile_qr_scan", "android": "https://dc.lft.to/lastmile_qr_scan"}, "is_reserved": 0}, {"lon": -77.03018483333334, "bike_id": "3116566cc83db93de8107b41518c0a89", "lat": 38.93111966666667, "fusion_lon": 0.0, "fusion_lat": 0.0, "type": "electric_scooter", "name": "3116566cc83db93de8107b41518c0a89", "is_disabled": 0, "rental_uris": {"ios": "https://dc.lft.to/lastmile_qr_scan", "android": "https://dc.lft.to/lastmile_qr_scan"}, "is_reserved": 0}, {"lon": -77.04368533333333, "bike_id": "ede5e0dba1f7e216bd9d1e78612e2331", "lat": 38.90244916666666, "fusion_lon": 0.0, "fusion_lat": 0.0, "type": "electric_scooter", "name": "ede5e0dba1f7e216bd9d1e78612e2331", "is_disabled": 0, "rental_uris": {"ios": "https://dc.lft.to/lastmile_qr_scan", "android": "https://dc.lft.to/lastmile_qr_scan"}, "is_reserved": 0}, {"lon": -77.043505, "bike_id": "3e5a741b1ac788dba8402e5e602763cb", "lat": 38.91100616666667, "fusion_lon": 0.0, "fusion_lat": 0.0, "type": "electric_scooter", "name": "3e5a741b1ac788dba8402e5e602763cb", "is_disabled": 0, "rental_uris": {"ios": "https://dc.lft.to/lastmile_qr_scan", "android": "https://dc.lft.to/lastmile_qr_scan"}, "is_reserved": 0}, {"lon": -77.0506145, "bike_id": "209c33675bf8c84b04e7f07a2e59cf8f", "lat": 38.90729916666667, "fusion_lon": 0.0, "fusion_lat": 0.0, "type": "electric_scooter", "name": "209c33675bf8c84b04e7f07a2e59cf8f", "is_disabled": 0, "rental_uris": {"ios": "https://dc.lft.to/lastmile_qr_scan", "android": "https://dc.lft.to/lastmile_qr_scan"}, "is_reserved": 0}, {"lon": -77.02399483333333, "bike_id": "44b02adf8b825a969a0f0cbbb162740e", "lat": 38.892004, "fusion_lon": 0.0, "fusion_lat": 0.0, "type": "electric_scooter", "name": "44b02adf8b825a969a0f0cbbb162740e", "is_disabled": 0, "rental_uris": {"ios": "https://dc.lft.to/lastmile_qr_scan", "android": "https://dc.lft.to/lastmile_qr_scan"}, "is_reserved": 0}, {"lon": -77.02873466666667, "bike_id": "1dfc0bfc82397739ab83e1dff738b0ac", "lat": 38.9282365, "fusion_lon": 0.0, "fusion_lat": 0.0, "type": "electric_scooter", "name": "1dfc0bfc82397739ab83e1dff738b0ac", "is_disabled": 0, "rental_uris": {"ios": "https://dc.lft.to/lastmile_qr_scan", "android": "https://dc.lft.to/lastmile_qr_scan"}, "is_reserved": 0}, {"lon": -77.021076, "bike_id": "a02e2e3cc46a4f33fb5ac06466eb7297", "lat": 38.8974755, "fusion_lon": 0.0, "fusion_lat": 0.0, "type": "electric_scooter", "name": "a02e2e3cc46a4f33fb5ac06466eb7297", "is_disabled": 0, "rental_uris": {"ios": "https://dc.lft.to/lastmile_qr_scan", "android": "https://dc.lft.to/lastmile_qr_scan"}, "is_reserved": 0}, {"lon": -77.0364925, "bike_id": "d28ca33895bed7d44c1bac6b61e73650", "lat": 38.940903166666665, "fusion_lon": 0.0, "fusion_lat": 0.0, "type": "electric_scooter", "name": "d28ca33895bed7d44c1bac6b61e73650", "is_disabled": 0, "rental_uris": {"ios": "https://dc.lft.to/lastmile_qr_scan", "android": "https://dc.lft.to/lastmile_qr_scan"}, "is_reserved": 0}, {"lon": -76.99684783333333, "bike_id": "6b0ced4976b6154d9f67b23969831f11", "lat": 38.860262166666665, "fusion_lon": 0.0, "fusion_lat": 0.0, "type": "electric_scooter", "name": "6b0ced4976b6154d9f67b23969831f11", "is_disabled": 0, "rental_uris": {"ios": "https://dc.lft.to/lastmile_qr_scan", "android": "https://dc.lft.to/lastmile_qr_scan"}, "is_reserved": 0}, {"lon": -77.043375, "bike_id": "3d2c4e78a97604efb170bac4d30992fc", "lat": 38.917765833333334, "fusion_lon": 0.0, "fusion_lat": 0.0, "type": "electric_scooter", "name": "3d2c4e78a97604efb170bac4d30992fc", "is_disabled": 0, "rental_uris": {"ios": "https://dc.lft.to/lastmile_qr_scan", "android": "https://dc.lft.to/lastmile_qr_scan"}, "is_reserved": 0}, {"lon": -77.06270166666667, "bike_id": "f15bca1e4624099824282fcef3e3b4fb", "lat": 38.9044565, "fusion_lon": 0.0, "fusion_lat": 0.0, "type": "electric_scooter", "name": "f15bca1e4624099824282fcef3e3b4fb", "is_disabled": 0, "rental_uris": {"ios": "https://dc.lft.to/lastmile_qr_scan", "android": "https://dc.lft.to/lastmile_qr_scan"}, "is_reserved": 0}, {"lon": -77.00757583333333, "bike_id": "aa19459ab85bbae01e0e604b2d443dca", "lat": 38.98387783333333, "fusion_lon": 0.0, "fusion_lat": 0.0, "type": "electric_bike", "name": "aa19459ab85bbae01e0e604b2d443dca", "is_disabled": 0, "rental_uris": {"ios": "https://dc.lft.to/lastmile_qr_scan", "android": "https://dc.lft.to/lastmile_qr_scan"}, "is_reserved": 0}, {"lon": -77.02327083333333, "bike_id": "12330ef6035cf1fde5967e8999c270f0", "lat": 38.89733016666667, "fusion_lon": 0.0, "fusion_lat": 0.0, "type": "electric_scooter", "name": "12330ef6035cf1fde5967e8999c270f0", "is_disabled": 0, "rental_uris": {"ios": "https://dc.lft.to/lastmile_qr_scan", "android": "https://dc.lft.to/lastmile_qr_scan"}, "is_reserved": 0}, {"lon": -76.972953, "bike_id": "9a249b96e9bf8c95b00f7085784de2c1", "lat": 38.916456833333335, "fusion_lon": 0.0, "fusion_lat": 0.0, "type": "electric_bike", "name": "9a249b96e9bf8c95b00f7085784de2c1", "is_disabled": 0, "rental_uris": {"ios": "https://dc.lft.to/lastmile_qr_scan", "android": "https://dc.lft.to/lastmile_qr_scan"}, "is_reserved": 0}, {"lon": -76.98882983333333, "bike_id": "dbc49f5b6589f88c2fb385ae43d2ab44", "lat": 38.86657133333333, "fusion_lon": 0.0, "fusion_lat": 0.0, "type": "electric_scooter", "name": "dbc49f5b6589f88c2fb385ae43d2ab44", "is_disabled": 0, "rental_uris": {"ios": "https://dc.lft.to/lastmile_qr_scan", "android": "https://dc.lft.to/lastmile_qr_scan"}, "is_reserved": 0}, {"lon": -77.23328416666666, "bike_id": "2fd561f448ec078017dfdc8c9b438124", "lat": 38.87281266666667, "fusion_lon": 0.0, "fusion_lat": 0.0, "type": "electric_bike", "name": "2fd561f448ec078017dfdc8c9b438124", "is_disabled": 0, "rental_uris": {"ios": "https://dc.lft.to/lastmile_qr_scan", "android": "https://dc.lft.to/lastmile_qr_scan"}, "is_reserved": 0}, {"lon": -77.04382383333333, "bike_id": "c807ef824cd7c76c0c78ba8b8cc35254", "lat": 38.9101295, "fusion_lon": 0.0, "fusion_lat": 0.0, "type": "electric_scooter", "name": "c807ef824cd7c76c0c78ba8b8cc35254", "is_disabled": 0, "rental_uris": {"ios": "https://dc.lft.to/lastmile_qr_scan", "android": "https://dc.lft.to/lastmile_qr_scan"}, "is_reserved": 0}, {"lon": -77.0122815, "bike_id": "7e915daf6e8338a02d31b6a69d469897", "lat": 38.91096733333333, "fusion_lon": 0.0, "fusion_lat": 0.0, "type": "electric_scooter", "name": "7e915daf6e8338a02d31b6a69d469897", "is_disabled": 0, "rental_uris": {"ios": "https://dc.lft.to/lastmile_qr_scan", "android": "https://dc.lft.to/lastmile_qr_scan"}, "is_reserved": 0}, {"lon": -77.00888133333333, "bike_id": "d2ec1930362ec6db0988c17e3d233406", "lat": 38.92274283333333, "fusion_lon": 0.0, "fusion_lat": 0.0, "type": "electric_scooter", "name": "d2ec1930362ec6db0988c17e3d233406", "is_disabled": 0, "rental_uris": {"ios": "https://dc.lft.to/lastmile_qr_scan", "android": "https://dc.lft.to/lastmile_qr_scan"}, "is_reserved": 0}, {"lon": -77.02885216666667, "bike_id": "a634399e7d5b5c9eeb555431f5cedab6", "lat": 38.90477583333333, "fusion_lon": 0.0, "fusion_lat": 0.0, "type": "electric_scooter", "name": "a634399e7d5b5c9eeb555431f5cedab6", "is_disabled": 0, "rental_uris": {"ios": "https://dc.lft.to/lastmile_qr_scan", "android": "https://dc.lft.to/lastmile_qr_scan"}, "is_reserved": 0}, {"lon": -76.950029, "bike_id": "f05feb7347e315f6bee3d51b98c28cac", "lat": 38.893802666666666, "fusion_lon": 0.0, "fusion_lat": 0.0, "type": "electric_scooter", "name": "f05feb7347e315f6bee3d51b98c28cac", "is_disabled": 0, "rental_uris": {"ios": "https://dc.lft.to/lastmile_qr_scan", "android": "https://dc.lft.to/lastmile_qr_scan"}, "is_reserved": 0}, {"lon": -77.23321166666666, "bike_id": "ab0a8fa2607af2979c6f4dbe0687ac61", "lat": 38.8728395, "fusion_lon": 0.0, "fusion_lat": 0.0, "type": "electric_bike", "name": "ab0a8fa2607af2979c6f4dbe0687ac61", "is_disabled": 0, "rental_uris": {"ios": "https://dc.lft.to/lastmile_qr_scan", "android": "https://dc.lft.to/lastmile_qr_scan"}, "is_reserved": 0}, {"lon": -77.0283055, "bike_id": "c3a312739098a3e062991f2d2b198a02", "lat": 38.88731816666667, "fusion_lon": 0.0, "fusion_lat": 0.0, "type": "electric_scooter", "name": "c3a312739098a3e062991f2d2b198a02", "is_disabled": 0, "rental_uris": {"ios": "https://dc.lft.to/lastmile_qr_scan", "android": "https://dc.lft.to/lastmile_qr_scan"}, "is_reserved": 0}, {"lon": -76.96542066666666, "bike_id": "c0be152cb7564c68c615e0b3808726e5", "lat": 38.91838883333333, "fusion_lon": 0.0, "fusion_lat": 0.0, "type": "electric_scooter", "name": "c0be152cb7564c68c615e0b3808726e5", "is_disabled": 0, "rental_uris": {"ios": "https://dc.lft.to/lastmile_qr_scan", "android": "https://dc.lft.to/lastmile_qr_scan"}, "is_reserved": 0}, {"lon": -77.02155816666667, "bike_id": "e471a6f5467ce9248bea0a6ac211aad9", "lat": 38.92603233333333, "fusion_lon": 0.0, "fusion_lat": 0.0, "type": "electric_scooter", "name": "e471a6f5467ce9248bea0a6ac211aad9", "is_disabled": 0, "rental_uris": {"ios": "https://dc.lft.to/lastmile_qr_scan", "android": "https://dc.lft.to/lastmile_qr_scan"}, "is_reserved": 0}, {"lon": -77.03248133333334, "bike_id": "cb8fd3ff1f9b5eb00e02b779efa40f79", "lat": 38.903575333333336, "fusion_lon": 0.0, "fusion_lat": 0.0, "type": "electric_scooter", "name": "cb8fd3ff1f9b5eb00e02b779efa40f79", "is_disabled": 0, "rental_uris": {"ios": "https://dc.lft.to/lastmile_qr_scan", "android": "https://dc.lft.to/lastmile_qr_scan"}, "is_reserved": 0}, {"lon": -77.05894383333333, "bike_id": "c7c53f1919004ba7d18424c5c14266df", "lat": 38.936095, "fusion_lon": 0.0, "fusion_lat": 0.0, "type": "electric_scooter", "name": "c7c53f1919004ba7d18424c5c14266df", "is_disabled": 0, "rental_uris": {"ios": "https://dc.lft.to/lastmile_qr_scan", "android": "https://dc.lft.to/lastmile_qr_scan"}, "is_reserved": 0}, {"lon": -77.02607, "bike_id": "520ddccb25b385df981cf6c6fb629a8d", "lat": 38.90133933333333, "fusion_lon": 0.0, "fusion_lat": 0.0, "type": "electric_scooter", "name": "520ddccb25b385df981cf6c6fb629a8d", "is_disabled": 0, "rental_uris": {"ios": "https://dc.lft.to/lastmile_qr_scan", "android": "https://dc.lft.to/lastmile_qr_scan"}, "is_reserved": 0}, {"lon": -77.04010183333334, "bike_id": "1e423edfa9d0bf0e620c5b1e77d1a269", "lat": 38.91014233333333, "fusion_lon": 0.0, "fusion_lat": 0.0, "type": "electric_scooter", "name": "1e423edfa9d0bf0e620c5b1e77d1a269", "is_disabled": 0, "rental_uris": {"ios": "https://dc.lft.to/lastmile_qr_scan", "android": "https://dc.lft.to/lastmile_qr_scan"}, "is_reserved": 0}, {"lon": -77.0450745, "bike_id": "815885865a740bcb6a232a7df541badd", "lat": 38.9158395, "fusion_lon": 0.0, "fusion_lat": 0.0, "type": "electric_scooter", "name": "815885865a740bcb6a232a7df541badd", "is_disabled": 0, "rental_uris": {"ios": "https://dc.lft.to/lastmile_qr_scan", "android": "https://dc.lft.to/lastmile_qr_scan"}, "is_reserved": 0}, {"lon": -77.0257395, "bike_id": "50c1749c19cad4dcde5e3125cb60e17b", "lat": 38.92621283333333, "fusion_lon": 0.0, "fusion_lat": 0.0, "type": "electric_scooter", "name": "50c1749c19cad4dcde5e3125cb60e17b", "is_disabled": 0, "rental_uris": {"ios": "https://dc.lft.to/lastmile_qr_scan", "android": "https://dc.lft.to/lastmile_qr_scan"}, "is_reserved": 0}, {"lon": -77.03196833333334, "bike_id": "06d28b1740065d1da2d9af184c1bce2a", "lat": 38.8873045, "fusion_lon": 0.0, "fusion_lat": 0.0, "type": "electric_scooter", "name": "06d28b1740065d1da2d9af184c1bce2a", "is_disabled": 0, "rental_uris": {"ios": "https://dc.lft.to/lastmile_qr_scan", "android": "https://dc.lft.to/lastmile_qr_scan"}, "is_reserved": 0}, {"lon": -77.00109566666667, "bike_id": "c14275e902146f6e05eff51fd53f31a7", "lat": 38.91709316666667, "fusion_lon": 0.0, "fusion_lat": 0.0, "type": "electric_scooter", "name": "c14275e902146f6e05eff51fd53f31a7", "is_disabled": 0, "rental_uris": {"ios": "https://dc.lft.to/lastmile_qr_scan", "android": "https://dc.lft.to/lastmile_qr_scan"}, "is_reserved": 0}, {"lon": -77.04344883333333, "bike_id": "9e7e2debc8dc2494a9d0810352e626b9", "lat": 38.904247166666664, "fusion_lon": 0.0, "fusion_lat": 0.0, "type": "electric_scooter", "name": "9e7e2debc8dc2494a9d0810352e626b9", "is_disabled": 0, "rental_uris": {"ios": "https://dc.lft.to/lastmile_qr_scan", "android": "https://dc.lft.to/lastmile_qr_scan"}, "is_reserved": 0}, {"lon": -76.97820833333333, "bike_id": "80ecf37caa95ada626e8f8207444c1c0", "lat": 38.9067595, "fusion_lon": 0.0, "fusion_lat": 0.0, "type": "electric_scooter", "name": "80ecf37caa95ada626e8f8207444c1c0", "is_disabled": 0, "rental_uris": {"ios": "https://dc.lft.to/lastmile_qr_scan", "android": "https://dc.lft.to/lastmile_qr_scan"}, "is_reserved": 0}, {"lon": -76.8954115, "bike_id": "bc0a8ddc0bdb862ae2432ddd5584779a", "lat": 38.94555166666667, "fusion_lon": 0.0, "fusion_lat": 0.0, "type": "electric_bike", "name": "bc0a8ddc0bdb862ae2432ddd5584779a", "is_disabled": 0, "rental_uris": {"ios": "https://dc.lft.to/lastmile_qr_scan", "android": "https://dc.lft.to/lastmile_qr_scan"}, "is_reserved": 0}, {"lon": -77.021601, "bike_id": "593e3b364bd747598346df9318dca63b", "lat": 38.89224633333333, "fusion_lon": 0.0, "fusion_lat": 0.0, "type": "electric_scooter", "name": "593e3b364bd747598346df9318dca63b", "is_disabled": 0, "rental_uris": {"ios": "https://dc.lft.to/lastmile_qr_scan", "android": "https://dc.lft.to/lastmile_qr_scan"}, "is_reserved": 0}, {"lon": -77.02193483333333, "bike_id": "b16c2abb02c84464b51adf676c50fafc", "lat": 38.892641, "fusion_lon": 0.0, "fusion_lat": 0.0, "type": "electric_scooter", "name": "b16c2abb02c84464b51adf676c50fafc", "is_disabled": 0, "rental_uris": {"ios": "https://dc.lft.to/lastmile_qr_scan", "android": "https://dc.lft.to/lastmile_qr_scan"}, "is_reserved": 0}, {"lon": -77.02732083333333, "bike_id": "3ad5e9e78b88d43d41bd821259ae1e4c", "lat": 38.940912833333336, "fusion_lon": 0.0, "fusion_lat": 0.0, "type": "electric_scooter", "name": "3ad5e9e78b88d43d41bd821259ae1e4c", "is_disabled": 0, "rental_uris": {"ios": "https://dc.lft.to/lastmile_qr_scan", "android": "https://dc.lft.to/lastmile_qr_scan"}, "is_reserved": 0}, {"lon": -77.05173516666666, "bike_id": "9fffec48c2ef05a7f9eb4d550d9513f1", "lat": 38.923741666666665, "fusion_lon": 0.0, "fusion_lat": 0.0, "type": "electric_scooter", "name": "9fffec48c2ef05a7f9eb4d550d9513f1", "is_disabled": 0, "rental_uris": {"ios": "https://dc.lft.to/lastmile_qr_scan", "android": "https://dc.lft.to/lastmile_qr_scan"}, "is_reserved": 0}, {"lon": -77.05179, "bike_id": "b84eb6810f465d9b1b2e598fed22bacf", "lat": 38.9237855, "fusion_lon": 0.0, "fusion_lat": 0.0, "type": "electric_scooter", "name": "b84eb6810f465d9b1b2e598fed22bacf", "is_disabled": 0, "rental_uris": {"ios": "https://dc.lft.to/lastmile_qr_scan", "android": "https://dc.lft.to/lastmile_qr_scan"}, "is_reserved": 0}, {"lon": -77.04521166666666, "bike_id": "a03a7d8ec05f93e173f6250f6e30f3e8", "lat": 38.9097245, "fusion_lon": 0.0, "fusion_lat": 0.0, "type": "electric_scooter", "name": "a03a7d8ec05f93e173f6250f6e30f3e8", "is_disabled": 0, "rental_uris": {"ios": "https://dc.lft.to/lastmile_qr_scan", "android": "https://dc.lft.to/lastmile_qr_scan"}, "is_reserved": 0}, {"lon": -77.05810583333333, "bike_id": "a330b746cb245a099a4abbbce49aeddf", "lat": 38.90105966666667, "fusion_lon": 0.0, "fusion_lat": 0.0, "type": "electric_scooter", "name": "a330b746cb245a099a4abbbce49aeddf", "is_disabled": 0, "rental_uris": {"ios": "https://dc.lft.to/lastmile_qr_scan", "android": "https://dc.lft.to/lastmile_qr_scan"}, "is_reserved": 0}, {"lon": -77.043242, "bike_id": "db6ddd3bc8517c6ae512441814e60c18", "lat": 38.90888183333333, "fusion_lon": 0.0, "fusion_lat": 0.0, "type": "electric_scooter", "name": "db6ddd3bc8517c6ae512441814e60c18", "is_disabled": 0, "rental_uris": {"ios": "https://dc.lft.to/lastmile_qr_scan", "android": "https://dc.lft.to/lastmile_qr_scan"}, "is_reserved": 0}, {"lon": -77.02746333333333, "bike_id": "82fc8f47c0a4c5a3fe1c20b9ad98aeae", "lat": 38.965704, "fusion_lon": 0.0, "fusion_lat": 0.0, "type": "electric_bike", "name": "82fc8f47c0a4c5a3fe1c20b9ad98aeae", "is_disabled": 0, "rental_uris": {"ios": "https://dc.lft.to/lastmile_qr_scan", "android": "https://dc.lft.to/lastmile_qr_scan"}, "is_reserved": 0}, {"lon": -77.05144666666666, "bike_id": "e9e721e3271c14db0f0e697df5ff21e9", "lat": 38.905090333333334, "fusion_lon": 0.0, "fusion_lat": 0.0, "type": "electric_scooter", "name": "e9e721e3271c14db0f0e697df5ff21e9", "is_disabled": 0, "rental_uris": {"ios": "https://dc.lft.to/lastmile_qr_scan", "android": "https://dc.lft.to/lastmile_qr_scan"}, "is_reserved": 0}, {"lon": -76.95661633333333, "bike_id": "275bd572e44ea6a4669bc1799b1fecc2", "lat": 38.896271666666664, "fusion_lon": 0.0, "fusion_lat": 0.0, "type": "electric_scooter", "name": "275bd572e44ea6a4669bc1799b1fecc2", "is_disabled": 0, "rental_uris": {"ios": "https://dc.lft.to/lastmile_qr_scan", "android": "https://dc.lft.to/lastmile_qr_scan"}, "is_reserved": 0}, {"lon": -77.04647533333333, "bike_id": "60fff4a91c7f5a3a324cfba084080445", "lat": 39.05502216666667, "fusion_lon": 0.0, "fusion_lat": 0.0, "type": "electric_bike", "name": "60fff4a91c7f5a3a324cfba084080445", "is_disabled": 0, "rental_uris": {"ios": "https://dc.lft.to/lastmile_qr_scan", "android": "https://dc.lft.to/lastmile_qr_scan"}, "is_reserved": 0}, {"lon": -76.9612925, "bike_id": "0c0259ef65c91ec15c6222a97e925257", "lat": 38.94214866666667, "fusion_lon": 0.0, "fusion_lat": 0.0, "type": "electric_bike", "name": "0c0259ef65c91ec15c6222a97e925257", "is_disabled": 0, "rental_uris": {"ios": "https://dc.lft.to/lastmile_qr_scan", "android": "https://dc.lft.to/lastmile_qr_scan"}, "is_reserved": 0}, {"lon": -77.06035616666666, "bike_id": "490d6699eda9c4db390dc38ee40f541e", "lat": 38.9335755, "fusion_lon": 0.0, "fusion_lat": 0.0, "type": "electric_scooter", "name": "490d6699eda9c4db390dc38ee40f541e", "is_disabled": 0, "rental_uris": {"ios": "https://dc.lft.to/lastmile_qr_scan", "android": "https://dc.lft.to/lastmile_qr_scan"}, "is_reserved": 0}, {"lon": -77.01807133333334, "bike_id": "a6462c55d6f4cdd6d4d39ea6828cbe8a", "lat": 38.96485916666666, "fusion_lon": 0.0, "fusion_lat": 0.0, "type": "electric_scooter", "name": "a6462c55d6f4cdd6d4d39ea6828cbe8a", "is_disabled": 0, "rental_uris": {"ios": "https://dc.lft.to/lastmile_qr_scan", "android": "https://dc.lft.to/lastmile_qr_scan"}, "is_reserved": 0}, {"lon": -76.88404783333333, "bike_id": "546e058872c87cfc1c69dde37e7df5ac", "lat": 38.93170416666667, "fusion_lon": 0.0, "fusion_lat": 0.0, "type": "electric_bike", "name": "546e058872c87cfc1c69dde37e7df5ac", "is_disabled": 0, "rental_uris": {"ios": "https://dc.lft.to/lastmile_qr_scan", "android": "https://dc.lft.to/lastmile_qr_scan"}, "is_reserved": 0}, {"lon": -76.9972225, "bike_id": "d5ec1f21d9810168878265161a1f3060", "lat": 38.900121666666664, "fusion_lon": 0.0, "fusion_lat": 0.0, "type": "electric_scooter", "name": "d5ec1f21d9810168878265161a1f3060", "is_disabled": 0, "rental_uris": {"ios": "https://dc.lft.to/lastmile_qr_scan", "android": "https://dc.lft.to/lastmile_qr_scan"}, "is_reserved": 0}, {"lon": -77.038816, "bike_id": "41b00fda98b3c2faa9afddd17de14a1f", "lat": 38.948708833333335, "fusion_lon": 0.0, "fusion_lat": 0.0, "type": "electric_scooter", "name": "41b00fda98b3c2faa9afddd17de14a1f", "is_disabled": 0, "rental_uris": {"ios": "https://dc.lft.to/lastmile_qr_scan", "android": "https://dc.lft.to/lastmile_qr_scan"}, "is_reserved": 0}, {"lon": -77.05740866666666, "bike_id": "4d605baabcd9108a00f3501d0c9e37eb", "lat": 38.93393783333333, "fusion_lon": 0.0, "fusion_lat": 0.0, "type": "electric_scooter", "name": "4d605baabcd9108a00f3501d0c9e37eb", "is_disabled": 0, "rental_uris": {"ios": "https://dc.lft.to/lastmile_qr_scan", "android": "https://dc.lft.to/lastmile_qr_scan"}, "is_reserved": 0}, {"lon": -77.127343, "bike_id": "930850beb9976a633209bf1d78ebf540", "lat": 38.895591833333334, "fusion_lon": 0.0, "fusion_lat": 0.0, "type": "electric_bike", "name": "930850beb9976a633209bf1d78ebf540", "is_disabled": 0, "rental_uris": {"ios": "https://dc.lft.to/lastmile_qr_scan", "android": "https://dc.lft.to/lastmile_qr_scan"}, "is_reserved": 0}, {"lon": -77.04028016666666, "bike_id": "c903842151404e18790d5507957caad3", "lat": 38.916142, "fusion_lon": 0.0, "fusion_lat": 0.0, "type": "electric_scooter", "name": "c903842151404e18790d5507957caad3", "is_disabled": 0, "rental_uris": {"ios": "https://dc.lft.to/lastmile_qr_scan", "android": "https://dc.lft.to/lastmile_qr_scan"}, "is_reserved": 0}, {"lon": -77.02473316666666, "bike_id": "a7866ce3a561a745d18ee646d3e4afdd", "lat": 38.916925, "fusion_lon": 0.0, "fusion_lat": 0.0, "type": "electric_scooter", "name": "a7866ce3a561a745d18ee646d3e4afdd", "is_disabled": 0, "rental_uris": {"ios": "https://dc.lft.to/lastmile_qr_scan", "android": "https://dc.lft.to/lastmile_qr_scan"}, "is_reserved": 0}, {"lon": -77.0609295, "bike_id": "bfe570b0b6ff5407b0b54d0c606e596e", "lat": 38.943703666666664, "fusion_lon": 0.0, "fusion_lat": 0.0, "type": "electric_scooter", "name": "bfe570b0b6ff5407b0b54d0c606e596e", "is_disabled": 0, "rental_uris": {"ios": "https://dc.lft.to/lastmile_qr_scan", "android": "https://dc.lft.to/lastmile_qr_scan"}, "is_reserved": 0}, {"lon": -76.9837015, "bike_id": "4ddc544910599e8fa4709beb71656d59", "lat": 38.8914885, "fusion_lon": 0.0, "fusion_lat": 0.0, "type": "electric_scooter", "name": "4ddc544910599e8fa4709beb71656d59", "is_disabled": 0, "rental_uris": {"ios": "https://dc.lft.to/lastmile_qr_scan", "android": "https://dc.lft.to/lastmile_qr_scan"}, "is_reserved": 0}, {"lon": -76.98571833333334, "bike_id": "cbbff3ccfd14769d279052f13b1d4fb3", "lat": 38.896210833333335, "fusion_lon": 0.0, "fusion_lat": 0.0, "type": "electric_scooter", "name": "cbbff3ccfd14769d279052f13b1d4fb3", "is_disabled": 0, "rental_uris": {"ios": "https://dc.lft.to/lastmile_qr_scan", "android": "https://dc.lft.to/lastmile_qr_scan"}, "is_reserved": 0}, {"lon": -77.031814, "bike_id": "319cb10faddeed63711d0a3593ff3ac2", "lat": 38.9362305, "fusion_lon": 0.0, "fusion_lat": 0.0, "type": "electric_scooter", "name": "319cb10faddeed63711d0a3593ff3ac2", "is_disabled": 0, "rental_uris": {"ios": "https://dc.lft.to/lastmile_qr_scan", "android": "https://dc.lft.to/lastmile_qr_scan"}, "is_reserved": 0}, {"lon": -77.0234335, "bike_id": "e7fca96824892a375da3a7d01cbda136", "lat": 38.90428, "fusion_lon": 0.0, "fusion_lat": 0.0, "type": "electric_scooter", "name": "e7fca96824892a375da3a7d01cbda136", "is_disabled": 0, "rental_uris": {"ios": "https://dc.lft.to/lastmile_qr_scan", "android": "https://dc.lft.to/lastmile_qr_scan"}, "is_reserved": 0}, {"lon": -77.03868116666666, "bike_id": "fa06249a92b2a4fb3ae1b014d6e7f56e", "lat": 38.917114833333336, "fusion_lon": 0.0, "fusion_lat": 0.0, "type": "electric_scooter", "name": "fa06249a92b2a4fb3ae1b014d6e7f56e", "is_disabled": 0, "rental_uris": {"ios": "https://dc.lft.to/lastmile_qr_scan", "android": "https://dc.lft.to/lastmile_qr_scan"}, "is_reserved": 0}, {"lon": -76.98840916666667, "bike_id": "d3ca715ed7f1a7a1b04c64e99eb4302a", "lat": 38.900724333333336, "fusion_lon": 0.0, "fusion_lat": 0.0, "type": "electric_scooter", "name": "d3ca715ed7f1a7a1b04c64e99eb4302a", "is_disabled": 0, "rental_uris": {"ios": "https://dc.lft.to/lastmile_qr_scan", "android": "https://dc.lft.to/lastmile_qr_scan"}, "is_reserved": 0}, {"lon": -77.03389866666667, "bike_id": "3396ec51cf590114dda7090bee0edc9f", "lat": 38.899672, "fusion_lon": 0.0, "fusion_lat": 0.0, "type": "electric_scooter", "name": "3396ec51cf590114dda7090bee0edc9f", "is_disabled": 0, "rental_uris": {"ios": "https://dc.lft.to/lastmile_qr_scan", "android": "https://dc.lft.to/lastmile_qr_scan"}, "is_reserved": 0}, {"lon": -77.02563183333334, "bike_id": "4ade71b005f8070731d363ea7b26dc77", "lat": 38.941806, "fusion_lon": 0.0, "fusion_lat": 0.0, "type": "electric_scooter", "name": "4ade71b005f8070731d363ea7b26dc77", "is_disabled": 0, "rental_uris": {"ios": "https://dc.lft.to/lastmile_qr_scan", "android": "https://dc.lft.to/lastmile_qr_scan"}, "is_reserved": 0}, {"lon": -77.028073, "bike_id": "5edfa959dfe0c8285a9a5f925989458b", "lat": 38.941920333333336, "fusion_lon": 0.0, "fusion_lat": 0.0, "type": "electric_scooter", "name": "5edfa959dfe0c8285a9a5f925989458b", "is_disabled": 0, "rental_uris": {"ios": "https://dc.lft.to/lastmile_qr_scan", "android": "https://dc.lft.to/lastmile_qr_scan"}, "is_reserved": 0}, {"lon": -76.9850635, "bike_id": "71d8114620a2bed3b900feecadd290d8", "lat": 38.880031833333334, "fusion_lon": 0.0, "fusion_lat": 0.0, "type": "electric_scooter", "name": "71d8114620a2bed3b900feecadd290d8", "is_disabled": 0, "rental_uris": {"ios": "https://dc.lft.to/lastmile_qr_scan", "android": "https://dc.lft.to/lastmile_qr_scan"}, "is_reserved": 0}, {"lon": -77.04606516666666, "bike_id": "3eb995539b14c5f21bf2ea1cdd130b77", "lat": 39.0245495, "fusion_lon": 0.0, "fusion_lat": 0.0, "type": "electric_bike", "name": "3eb995539b14c5f21bf2ea1cdd130b77", "is_disabled": 0, "rental_uris": {"ios": "https://dc.lft.to/lastmile_qr_scan", "android": "https://dc.lft.to/lastmile_qr_scan"}, "is_reserved": 0}, {"lon": -77.0349915, "bike_id": "b631204e0b23a39ddc02cecb821d636a", "lat": 38.917093, "fusion_lon": 0.0, "fusion_lat": 0.0, "type": "electric_scooter", "name": "b631204e0b23a39ddc02cecb821d636a", "is_disabled": 0, "rental_uris": {"ios": "https://dc.lft.to/lastmile_qr_scan", "android": "https://dc.lft.to/lastmile_qr_scan"}, "is_reserved": 0}, {"lon": -77.03045883333333, "bike_id": "1284dfd2fda7cf956b770d37babb4b82", "lat": 38.913359666666665, "fusion_lon": 0.0, "fusion_lat": 0.0, "type": "electric_scooter", "name": "1284dfd2fda7cf956b770d37babb4b82", "is_disabled": 0, "rental_uris": {"ios": "https://dc.lft.to/lastmile_qr_scan", "android": "https://dc.lft.to/lastmile_qr_scan"}, "is_reserved": 0}, {"lon": -77.0422505, "bike_id": "b81dd7bb8745684b8018fb2d6a0adb00", "lat": 38.921313, "fusion_lon": 0.0, "fusion_lat": 0.0, "type": "electric_scooter", "name": "b81dd7bb8745684b8018fb2d6a0adb00", "is_disabled": 0, "rental_uris": {"ios": "https://dc.lft.to/lastmile_qr_scan", "android": "https://dc.lft.to/lastmile_qr_scan"}, "is_reserved": 0}, {"lon": -77.04574833333334, "bike_id": "e95eb6aa90480016da6616e06db6d0b1", "lat": 38.91861033333333, "fusion_lon": 0.0, "fusion_lat": 0.0, "type": "electric_scooter", "name": "e95eb6aa90480016da6616e06db6d0b1", "is_disabled": 0, "rental_uris": {"ios": "https://dc.lft.to/lastmile_qr_scan", "android": "https://dc.lft.to/lastmile_qr_scan"}, "is_reserved": 0}, {"lon": -76.9733455, "bike_id": "9d894a63cd3fba23117aeaea53fe8291", "lat": 38.86519883333333, "fusion_lon": 0.0, "fusion_lat": 0.0, "type": "electric_scooter", "name": "9d894a63cd3fba23117aeaea53fe8291", "is_disabled": 0, "rental_uris": {"ios": "https://dc.lft.to/lastmile_qr_scan", "android": "https://dc.lft.to/lastmile_qr_scan"}, "is_reserved": 0}, {"lon": -77.03220883333333, "bike_id": "0140db7d8de771516c45b335414ebc21", "lat": 38.91708283333333, "fusion_lon": 0.0, "fusion_lat": 0.0, "type": "electric_scooter", "name": "0140db7d8de771516c45b335414ebc21", "is_disabled": 0, "rental_uris": {"ios": "https://dc.lft.to/lastmile_qr_scan", "android": "https://dc.lft.to/lastmile_qr_scan"}, "is_reserved": 0}, {"lon": -77.04209066666667, "bike_id": "5528e453560b0ff57c02460d24a34148", "lat": 38.92134333333333, "fusion_lon": 0.0, "fusion_lat": 0.0, "type": "electric_scooter", "name": "5528e453560b0ff57c02460d24a34148", "is_disabled": 0, "rental_uris": {"ios": "https://dc.lft.to/lastmile_qr_scan", "android": "https://dc.lft.to/lastmile_qr_scan"}, "is_reserved": 0}, {"lon": -77.0464535, "bike_id": "99a00dd600fbc9dddd34f7f9a741e539", "lat": 38.914795, "fusion_lon": 0.0, "fusion_lat": 0.0, "type": "electric_scooter", "name": "99a00dd600fbc9dddd34f7f9a741e539", "is_disabled": 0, "rental_uris": {"ios": "https://dc.lft.to/lastmile_qr_scan", "android": "https://dc.lft.to/lastmile_qr_scan"}, "is_reserved": 0}, {"lon": -76.94629033333334, "bike_id": "69ef31b0329595c832fbb337de0bb7ea", "lat": 38.8983375, "fusion_lon": 0.0, "fusion_lat": 0.0, "type": "electric_scooter", "name": "69ef31b0329595c832fbb337de0bb7ea", "is_disabled": 0, "rental_uris": {"ios": "https://dc.lft.to/lastmile_qr_scan", "android": "https://dc.lft.to/lastmile_qr_scan"}, "is_reserved": 0}, {"lon": -77.0562665, "bike_id": "c4aed8f9876ce3d97d3c4af03f138e9a", "lat": 38.92333, "fusion_lon": 0.0, "fusion_lat": 0.0, "type": "electric_scooter", "name": "c4aed8f9876ce3d97d3c4af03f138e9a", "is_disabled": 0, "rental_uris": {"ios": "https://dc.lft.to/lastmile_qr_scan", "android": "https://dc.lft.to/lastmile_qr_scan"}, "is_reserved": 0}, {"lon": -76.965309, "bike_id": "cb14e0d84fde0e3418ce356a917b5854", "lat": 38.87480633333333, "fusion_lon": 0.0, "fusion_lat": 0.0, "type": "electric_scooter", "name": "cb14e0d84fde0e3418ce356a917b5854", "is_disabled": 0, "rental_uris": {"ios": "https://dc.lft.to/lastmile_qr_scan", "android": "https://dc.lft.to/lastmile_qr_scan"}, "is_reserved": 0}, {"lon": -77.07298783333333, "bike_id": "5142ea94bfb3c8bff7fd48c93eab3664", "lat": 38.93056983333334, "fusion_lon": 0.0, "fusion_lat": 0.0, "type": "electric_scooter", "name": "5142ea94bfb3c8bff7fd48c93eab3664", "is_disabled": 0, "rental_uris": {"ios": "https://dc.lft.to/lastmile_qr_scan", "android": "https://dc.lft.to/lastmile_qr_scan"}, "is_reserved": 0}, {"lon": -77.027094, "bike_id": "56141bea998eaf41efe698151ec29dfb", "lat": 38.92065433333333, "fusion_lon": 0.0, "fusion_lat": 0.0, "type": "electric_scooter", "name": "56141bea998eaf41efe698151ec29dfb", "is_disabled": 0, "rental_uris": {"ios": "https://dc.lft.to/lastmile_qr_scan", "android": "https://dc.lft.to/lastmile_qr_scan"}, "is_reserved": 0}, {"lon": -76.97616466666666, "bike_id": "ec438a09dbf4da7ee5742709b313b0c1", "lat": 38.9265635, "fusion_lon": 0.0, "fusion_lat": 0.0, "type": "electric_scooter", "name": "ec438a09dbf4da7ee5742709b313b0c1", "is_disabled": 0, "rental_uris": {"ios": "https://dc.lft.to/lastmile_qr_scan", "android": "https://dc.lft.to/lastmile_qr_scan"}, "is_reserved": 0}, {"lon": -77.0217315, "bike_id": "8433bc43278599a9c657a8186f6ec815", "lat": 38.94293316666667, "fusion_lon": 0.0, "fusion_lat": 0.0, "type": "electric_scooter", "name": "8433bc43278599a9c657a8186f6ec815", "is_disabled": 0, "rental_uris": {"ios": "https://dc.lft.to/lastmile_qr_scan", "android": "https://dc.lft.to/lastmile_qr_scan"}, "is_reserved": 0}, {"lon": -76.99208516666667, "bike_id": "cce178ed2a152028dceb11b7f7047a57", "lat": 38.898383333333335, "fusion_lon": 0.0, "fusion_lat": 0.0, "type": "electric_scooter", "name": "cce178ed2a152028dceb11b7f7047a57", "is_disabled": 0, "rental_uris": {"ios": "https://dc.lft.to/lastmile_qr_scan", "android": "https://dc.lft.to/lastmile_qr_scan"}, "is_reserved": 0}, {"lon": -77.00901683333333, "bike_id": "d83b2066a60b517820445cd12a892fe6", "lat": 38.89646116666667, "fusion_lon": 0.0, "fusion_lat": 0.0, "type": "electric_scooter", "name": "d83b2066a60b517820445cd12a892fe6", "is_disabled": 0, "rental_uris": {"ios": "https://dc.lft.to/lastmile_qr_scan", "android": "https://dc.lft.to/lastmile_qr_scan"}, "is_reserved": 0}, {"lon": -77.01218433333334, "bike_id": "8d9130fdab3c2794ad3965d2e8e681a1", "lat": 38.9006525, "fusion_lon": 0.0, "fusion_lat": 0.0, "type": "electric_scooter", "name": "8d9130fdab3c2794ad3965d2e8e681a1", "is_disabled": 0, "rental_uris": {"ios": "https://dc.lft.to/lastmile_qr_scan", "android": "https://dc.lft.to/lastmile_qr_scan"}, "is_reserved": 0}, {"lon": -77.0130795, "bike_id": "04cef33845be44685cc192125eb19d08", "lat": 38.9153095, "fusion_lon": 0.0, "fusion_lat": 0.0, "type": "electric_scooter", "name": "04cef33845be44685cc192125eb19d08", "is_disabled": 0, "rental_uris": {"ios": "https://dc.lft.to/lastmile_qr_scan", "android": "https://dc.lft.to/lastmile_qr_scan"}, "is_reserved": 0}, {"lon": -77.0317285, "bike_id": "e19a03f62c58981d50064b588bf9c838", "lat": 38.900084666666665, "fusion_lon": 0.0, "fusion_lat": 0.0, "type": "electric_scooter", "name": "e19a03f62c58981d50064b588bf9c838", "is_disabled": 0, "rental_uris": {"ios": "https://dc.lft.to/lastmile_qr_scan", "android": "https://dc.lft.to/lastmile_qr_scan"}, "is_reserved": 0}, {"lon": -77.025197, "bike_id": "b062d382097a41af1149762e1275c6ec", "lat": 38.916956, "fusion_lon": 0.0, "fusion_lat": 0.0, "type": "electric_scooter", "name": "b062d382097a41af1149762e1275c6ec", "is_disabled": 0, "rental_uris": {"ios": "https://dc.lft.to/lastmile_qr_scan", "android": "https://dc.lft.to/lastmile_qr_scan"}, "is_reserved": 0}, {"lon": -77.02299333333333, "bike_id": "5d514096f77b44076cb241be4c19e565", "lat": 38.926725166666664, "fusion_lon": 0.0, "fusion_lat": 0.0, "type": "electric_scooter", "name": "5d514096f77b44076cb241be4c19e565", "is_disabled": 0, "rental_uris": {"ios": "https://dc.lft.to/lastmile_qr_scan", "android": "https://dc.lft.to/lastmile_qr_scan"}, "is_reserved": 0}, {"lon": -76.984923, "bike_id": "0def9537fca7b79ef917ca095071b124", "lat": 38.90306533333333, "fusion_lon": 0.0, "fusion_lat": 0.0, "type": "electric_scooter", "name": "0def9537fca7b79ef917ca095071b124", "is_disabled": 0, "rental_uris": {"ios": "https://dc.lft.to/lastmile_qr_scan", "android": "https://dc.lft.to/lastmile_qr_scan"}, "is_reserved": 0}, {"lon": -77.02473266666667, "bike_id": "64e081d97a311548568815203170d61d", "lat": 38.920025833333334, "fusion_lon": 0.0, "fusion_lat": 0.0, "type": "electric_scooter", "name": "64e081d97a311548568815203170d61d", "is_disabled": 0, "rental_uris": {"ios": "https://dc.lft.to/lastmile_qr_scan", "android": "https://dc.lft.to/lastmile_qr_scan"}, "is_reserved": 0}, {"lon": -77.04020483333333, "bike_id": "b9d0522c0ee66d9f618b6b015bf45cb1", "lat": 38.92384883333333, "fusion_lon": 0.0, "fusion_lat": 0.0, "type": "electric_scooter", "name": "b9d0522c0ee66d9f618b6b015bf45cb1", "is_disabled": 0, "rental_uris": {"ios": "https://dc.lft.to/lastmile_qr_scan", "android": "https://dc.lft.to/lastmile_qr_scan"}, "is_reserved": 0}, {"lon": -76.987059, "bike_id": "ee5f8d3aa6cc07cf4679c901a0852bf1", "lat": 38.8654105, "fusion_lon": 0.0, "fusion_lat": 0.0, "type": "electric_scooter", "name": "ee5f8d3aa6cc07cf4679c901a0852bf1", "is_disabled": 0, "rental_uris": {"ios": "https://dc.lft.to/lastmile_qr_scan", "android": "https://dc.lft.to/lastmile_qr_scan"}, "is_reserved": 0}, {"lon": -77.04404383333333, "bike_id": "b097e172fad95e64725847b830f4babc", "lat": 38.909001, "fusion_lon": 0.0, "fusion_lat": 0.0, "type": "electric_scooter", "name": "b097e172fad95e64725847b830f4babc", "is_disabled": 0, "rental_uris": {"ios": "https://dc.lft.to/lastmile_qr_scan", "android": "https://dc.lft.to/lastmile_qr_scan"}, "is_reserved": 0}, {"lon": -76.94888133333333, "bike_id": "2fcce46e98ed16283600876384adcd29", "lat": 38.89511983333333, "fusion_lon": 0.0, "fusion_lat": 0.0, "type": "electric_scooter", "name": "2fcce46e98ed16283600876384adcd29", "is_disabled": 0, "rental_uris": {"ios": "https://dc.lft.to/lastmile_qr_scan", "android": "https://dc.lft.to/lastmile_qr_scan"}, "is_reserved": 0}, {"lon": -77.03336166666666, "bike_id": "142be795ebcc73aa6a02ce2b70eafdf6", "lat": 38.90974516666667, "fusion_lon": 0.0, "fusion_lat": 0.0, "type": "electric_scooter", "name": "142be795ebcc73aa6a02ce2b70eafdf6", "is_disabled": 0, "rental_uris": {"ios": "https://dc.lft.to/lastmile_qr_scan", "android": "https://dc.lft.to/lastmile_qr_scan"}, "is_reserved": 0}, {"lon": -77.02947716666667, "bike_id": "956964715c976962586591ac9aea395c", "lat": 38.905046666666664, "fusion_lon": 0.0, "fusion_lat": 0.0, "type": "electric_scooter", "name": "956964715c976962586591ac9aea395c", "is_disabled": 0, "rental_uris": {"ios": "https://dc.lft.to/lastmile_qr_scan", "android": "https://dc.lft.to/lastmile_qr_scan"}, "is_reserved": 0}, {"lon": -77.021911, "bike_id": "6901fb53cfa3080cb4ae9868a22733cd", "lat": 38.902841, "fusion_lon": 0.0, "fusion_lat": 0.0, "type": "electric_scooter", "name": "6901fb53cfa3080cb4ae9868a22733cd", "is_disabled": 0, "rental_uris": {"ios": "https://dc.lft.to/lastmile_qr_scan", "android": "https://dc.lft.to/lastmile_qr_scan"}, "is_reserved": 0}, {"lon": -77.02210766666667, "bike_id": "5bbc9d8b4b229bc2bfe21cc21f32322e", "lat": 38.88716816666667, "fusion_lon": 0.0, "fusion_lat": 0.0, "type": "electric_scooter", "name": "5bbc9d8b4b229bc2bfe21cc21f32322e", "is_disabled": 0, "rental_uris": {"ios": "https://dc.lft.to/lastmile_qr_scan", "android": "https://dc.lft.to/lastmile_qr_scan"}, "is_reserved": 0}, {"lon": -77.02275616666667, "bike_id": "4f6f12b86e6605a39fb4df3231610bb4", "lat": 38.8985025, "fusion_lon": 0.0, "fusion_lat": 0.0, "type": "electric_scooter", "name": "4f6f12b86e6605a39fb4df3231610bb4", "is_disabled": 0, "rental_uris": {"ios": "https://dc.lft.to/lastmile_qr_scan", "android": "https://dc.lft.to/lastmile_qr_scan"}, "is_reserved": 0}, {"lon": -77.02089266666667, "bike_id": "8db2635bcfe80c8996d6bae2b66ec2c1", "lat": 38.95753466666667, "fusion_lon": 0.0, "fusion_lat": 0.0, "type": "electric_scooter", "name": "8db2635bcfe80c8996d6bae2b66ec2c1", "is_disabled": 0, "rental_uris": {"ios": "https://dc.lft.to/lastmile_qr_scan", "android": "https://dc.lft.to/lastmile_qr_scan"}, "is_reserved": 0}, {"lon": -76.96062966666666, "bike_id": "f1d236d6f69ffd70d2738a102d1a9837", "lat": 38.88409733333334, "fusion_lon": 0.0, "fusion_lat": 0.0, "type": "electric_bike", "name": "f1d236d6f69ffd70d2738a102d1a9837", "is_disabled": 0, "rental_uris": {"ios": "https://dc.lft.to/lastmile_qr_scan", "android": "https://dc.lft.to/lastmile_qr_scan"}, "is_reserved": 0}, {"lon": -76.9933375, "bike_id": "14794924506db6e6bffaf0a1aa4b19bb", "lat": 38.87141483333333, "fusion_lon": 0.0, "fusion_lat": 0.0, "type": "electric_scooter", "name": "14794924506db6e6bffaf0a1aa4b19bb", "is_disabled": 0, "rental_uris": {"ios": "https://dc.lft.to/lastmile_qr_scan", "android": "https://dc.lft.to/lastmile_qr_scan"}, "is_reserved": 0}, {"lon": -76.98726566666667, "bike_id": "a2837afb0fb0493a34be6e05adb988f7", "lat": 38.867140166666665, "fusion_lon": 0.0, "fusion_lat": 0.0, "type": "electric_scooter", "name": "a2837afb0fb0493a34be6e05adb988f7", "is_disabled": 0, "rental_uris": {"ios": "https://dc.lft.to/lastmile_qr_scan", "android": "https://dc.lft.to/lastmile_qr_scan"}, "is_reserved": 0}, {"lon": -77.03331816666666, "bike_id": "4a2d76b94ed488e7a7ed118e66949cbd", "lat": 38.936444333333334, "fusion_lon": 0.0, "fusion_lat": 0.0, "type": "electric_scooter", "name": "4a2d76b94ed488e7a7ed118e66949cbd", "is_disabled": 0, "rental_uris": {"ios": "https://dc.lft.to/lastmile_qr_scan", "android": "https://dc.lft.to/lastmile_qr_scan"}, "is_reserved": 0}, {"lon": -77.024098, "bike_id": "4996faddd4567027969e2504d185cff6", "lat": 38.89978116666666, "fusion_lon": 0.0, "fusion_lat": 0.0, "type": "electric_scooter", "name": "4996faddd4567027969e2504d185cff6", "is_disabled": 0, "rental_uris": {"ios": "https://dc.lft.to/lastmile_qr_scan", "android": "https://dc.lft.to/lastmile_qr_scan"}, "is_reserved": 0}, {"lon": -77.02655633333333, "bike_id": "a2bc0543a87a0dcb54b8954e2c2ec56a", "lat": 38.8973195, "fusion_lon": 0.0, "fusion_lat": 0.0, "type": "electric_scooter", "name": "a2bc0543a87a0dcb54b8954e2c2ec56a", "is_disabled": 0, "rental_uris": {"ios": "https://dc.lft.to/lastmile_qr_scan", "android": "https://dc.lft.to/lastmile_qr_scan"}, "is_reserved": 0}, {"lon": -77.00854416666667, "bike_id": "9a07bcf1cbf8329dbcd3122b2c654d35", "lat": 38.950966, "fusion_lon": 0.0, "fusion_lat": 0.0, "type": "electric_bike", "name": "9a07bcf1cbf8329dbcd3122b2c654d35", "is_disabled": 0, "rental_uris": {"ios": "https://dc.lft.to/lastmile_qr_scan", "android": "https://dc.lft.to/lastmile_qr_scan"}, "is_reserved": 0}, {"lon": -76.98234333333333, "bike_id": "e64dbfbcc88e4d34df6bdefd2718423b", "lat": 38.91654533333333, "fusion_lon": 0.0, "fusion_lat": 0.0, "type": "electric_scooter", "name": "e64dbfbcc88e4d34df6bdefd2718423b", "is_disabled": 0, "rental_uris": {"ios": "https://dc.lft.to/lastmile_qr_scan", "android": "https://dc.lft.to/lastmile_qr_scan"}, "is_reserved": 0}, {"lon": -77.04603683333333, "bike_id": "58fe5b19c31443102e5e0a2a561b22a6", "lat": 38.913815, "fusion_lon": 0.0, "fusion_lat": 0.0, "type": "electric_scooter", "name": "58fe5b19c31443102e5e0a2a561b22a6", "is_disabled": 0, "rental_uris": {"ios": "https://dc.lft.to/lastmile_qr_scan", "android": "https://dc.lft.to/lastmile_qr_scan"}, "is_reserved": 0}, {"lon": -77.03853766666667, "bike_id": "737f69bf67dd82bee595c17abaf7c14d", "lat": 38.90647033333333, "fusion_lon": 0.0, "fusion_lat": 0.0, "type": "electric_scooter", "name": "737f69bf67dd82bee595c17abaf7c14d", "is_disabled": 0, "rental_uris": {"ios": "https://dc.lft.to/lastmile_qr_scan", "android": "https://dc.lft.to/lastmile_qr_scan"}, "is_reserved": 0}, {"lon": -77.03106533333333, "bike_id": "4b7c6e97e0fb955f90dd15c13c72b156", "lat": 38.917102666666665, "fusion_lon": 0.0, "fusion_lat": 0.0, "type": "electric_scooter", "name": "4b7c6e97e0fb955f90dd15c13c72b156", "is_disabled": 0, "rental_uris": {"ios": "https://dc.lft.to/lastmile_qr_scan", "android": "https://dc.lft.to/lastmile_qr_scan"}, "is_reserved": 0}, {"lon": -77.02313966666667, "bike_id": "93b39491a798da6a5a5d2ca188d32c26", "lat": 38.92080833333333, "fusion_lon": 0.0, "fusion_lat": 0.0, "type": "electric_scooter", "name": "93b39491a798da6a5a5d2ca188d32c26", "is_disabled": 0, "rental_uris": {"ios": "https://dc.lft.to/lastmile_qr_scan", "android": "https://dc.lft.to/lastmile_qr_scan"}, "is_reserved": 0}, {"lon": -77.04162333333333, "bike_id": "f7ee1558b7e6856cb58c02e05526e4ba", "lat": 38.908127666666665, "fusion_lon": 0.0, "fusion_lat": 0.0, "type": "electric_scooter", "name": "f7ee1558b7e6856cb58c02e05526e4ba", "is_disabled": 0, "rental_uris": {"ios": "https://dc.lft.to/lastmile_qr_scan", "android": "https://dc.lft.to/lastmile_qr_scan"}, "is_reserved": 0}, {"lon": -77.03281833333334, "bike_id": "55a11b39e13e15c02a3567b0b2c387b1", "lat": 38.916319333333334, "fusion_lon": 0.0, "fusion_lat": 0.0, "type": "electric_bike", "name": "55a11b39e13e15c02a3567b0b2c387b1", "is_disabled": 0, "rental_uris": {"ios": "https://dc.lft.to/lastmile_qr_scan", "android": "https://dc.lft.to/lastmile_qr_scan"}, "is_reserved": 0}, {"lon": -77.02228666666667, "bike_id": "adb152e5827f90ae407817806a62faee", "lat": 38.96210283333333, "fusion_lon": 0.0, "fusion_lat": 0.0, "type": "electric_scooter", "name": "adb152e5827f90ae407817806a62faee", "is_disabled": 0, "rental_uris": {"ios": "https://dc.lft.to/lastmile_qr_scan", "android": "https://dc.lft.to/lastmile_qr_scan"}, "is_reserved": 0}, {"lon": -77.038646, "bike_id": "3bf9c65944c3589facf00c333e60a788", "lat": 38.914172666666666, "fusion_lon": 0.0, "fusion_lat": 0.0, "type": "electric_scooter", "name": "3bf9c65944c3589facf00c333e60a788", "is_disabled": 0, "rental_uris": {"ios": "https://dc.lft.to/lastmile_qr_scan", "android": "https://dc.lft.to/lastmile_qr_scan"}, "is_reserved": 0}, {"lon": -77.03509033333333, "bike_id": "5b68468eb91ac54435aa8a1eaad87df1", "lat": 38.914906333333334, "fusion_lon": 0.0, "fusion_lat": 0.0, "type": "electric_scooter", "name": "5b68468eb91ac54435aa8a1eaad87df1", "is_disabled": 0, "rental_uris": {"ios": "https://dc.lft.to/lastmile_qr_scan", "android": "https://dc.lft.to/lastmile_qr_scan"}, "is_reserved": 0}, {"lon": -77.04317483333334, "bike_id": "6124682b3720742f086dc8a29ec456b3", "lat": 38.91888216666667, "fusion_lon": 0.0, "fusion_lat": 0.0, "type": "electric_scooter", "name": "6124682b3720742f086dc8a29ec456b3", "is_disabled": 0, "rental_uris": {"ios": "https://dc.lft.to/lastmile_qr_scan", "android": "https://dc.lft.to/lastmile_qr_scan"}, "is_reserved": 0}, {"lon": -77.00567766666667, "bike_id": "c503653b5c90b8b5ace41e01ae17b694", "lat": 38.874381666666665, "fusion_lon": 0.0, "fusion_lat": 0.0, "type": "electric_scooter", "name": "c503653b5c90b8b5ace41e01ae17b694", "is_disabled": 0, "rental_uris": {"ios": "https://dc.lft.to/lastmile_qr_scan", "android": "https://dc.lft.to/lastmile_qr_scan"}, "is_reserved": 0}, {"lon": -77.02708533333333, "bike_id": "000c927d5dfe5169935b539e9ce14ccb", "lat": 38.90076, "fusion_lon": 0.0, "fusion_lat": 0.0, "type": "electric_scooter", "name": "000c927d5dfe5169935b539e9ce14ccb", "is_disabled": 0, "rental_uris": {"ios": "https://dc.lft.to/lastmile_qr_scan", "android": "https://dc.lft.to/lastmile_qr_scan"}, "is_reserved": 0}, {"lon": -77.014452, "bike_id": "91e446f9cc588bb97be8e86c1114335b", "lat": 38.9125775, "fusion_lon": 0.0, "fusion_lat": 0.0, "type": "electric_scooter", "name": "91e446f9cc588bb97be8e86c1114335b", "is_disabled": 0, "rental_uris": {"ios": "https://dc.lft.to/lastmile_qr_scan", "android": "https://dc.lft.to/lastmile_qr_scan"}, "is_reserved": 0}, {"lon": -76.985329, "bike_id": "23dad5a9adac9e9319764c371228e90c", "lat": 38.899532666666666, "fusion_lon": 0.0, "fusion_lat": 0.0, "type": "electric_scooter", "name": "23dad5a9adac9e9319764c371228e90c", "is_disabled": 0, "rental_uris": {"ios": "https://dc.lft.to/lastmile_qr_scan", "android": "https://dc.lft.to/lastmile_qr_scan"}, "is_reserved": 0}, {"lon": -77.02320533333334, "bike_id": "82655bde9404543476c572dffa801b75", "lat": 38.95519933333333, "fusion_lon": 0.0, "fusion_lat": 0.0, "type": "electric_scooter", "name": "82655bde9404543476c572dffa801b75", "is_disabled": 0, "rental_uris": {"ios": "https://dc.lft.to/lastmile_qr_scan", "android": "https://dc.lft.to/lastmile_qr_scan"}, "is_reserved": 0}, {"lon": -76.94660966666666, "bike_id": "73c4c91cf90b2b00705915030180df68", "lat": 38.936995333333336, "fusion_lon": 0.0, "fusion_lat": 0.0, "type": "electric_bike", "name": "73c4c91cf90b2b00705915030180df68", "is_disabled": 0, "rental_uris": {"ios": "https://dc.lft.to/lastmile_qr_scan", "android": "https://dc.lft.to/lastmile_qr_scan"}, "is_reserved": 0}, {"lon": -76.99650916666667, "bike_id": "3301cd58b5de966c9fb49fbe13a150ac", "lat": 38.88723066666667, "fusion_lon": 0.0, "fusion_lat": 0.0, "type": "electric_scooter", "name": "3301cd58b5de966c9fb49fbe13a150ac", "is_disabled": 0, "rental_uris": {"ios": "https://dc.lft.to/lastmile_qr_scan", "android": "https://dc.lft.to/lastmile_qr_scan"}, "is_reserved": 0}, {"lon": -77.05049183333334, "bike_id": "e1180d37c031aee30fd4476eb0f8ac0d", "lat": 38.9236915, "fusion_lon": 0.0, "fusion_lat": 0.0, "type": "electric_scooter", "name": "e1180d37c031aee30fd4476eb0f8ac0d", "is_disabled": 0, "rental_uris": {"ios": "https://dc.lft.to/lastmile_qr_scan", "android": "https://dc.lft.to/lastmile_qr_scan"}, "is_reserved": 0}, {"lon": -77.023729, "bike_id": "cf509ee7172a7d4473b2bc1179f27958", "lat": 38.90627933333333, "fusion_lon": 0.0, "fusion_lat": 0.0, "type": "electric_scooter", "name": "cf509ee7172a7d4473b2bc1179f27958", "is_disabled": 0, "rental_uris": {"ios": "https://dc.lft.to/lastmile_qr_scan", "android": "https://dc.lft.to/lastmile_qr_scan"}, "is_reserved": 0}, {"lon": -77.02480066666666, "bike_id": "9afb61ad27a6798a3921ff69ee1b5e89", "lat": 38.9024615, "fusion_lon": 0.0, "fusion_lat": 0.0, "type": "electric_scooter", "name": "9afb61ad27a6798a3921ff69ee1b5e89", "is_disabled": 0, "rental_uris": {"ios": "https://dc.lft.to/lastmile_qr_scan", "android": "https://dc.lft.to/lastmile_qr_scan"}, "is_reserved": 0}, {"lon": -77.03845516666667, "bike_id": "0e5f2ecd451939332468875ff045f9f1", "lat": 38.912029833333335, "fusion_lon": 0.0, "fusion_lat": 0.0, "type": "electric_scooter", "name": "0e5f2ecd451939332468875ff045f9f1", "is_disabled": 0, "rental_uris": {"ios": "https://dc.lft.to/lastmile_qr_scan", "android": "https://dc.lft.to/lastmile_qr_scan"}, "is_reserved": 0}, {"lon": -77.02571833333333, "bike_id": "3437ba0976441265e3f524dd6d865690", "lat": 38.903362666666666, "fusion_lon": 0.0, "fusion_lat": 0.0, "type": "electric_scooter", "name": "3437ba0976441265e3f524dd6d865690", "is_disabled": 0, "rental_uris": {"ios": "https://dc.lft.to/lastmile_qr_scan", "android": "https://dc.lft.to/lastmile_qr_scan"}, "is_reserved": 0}, {"lon": -77.02008933333333, "bike_id": "dd651a19e629e6043dc630846bf06766", "lat": 38.9156445, "fusion_lon": 0.0, "fusion_lat": 0.0, "type": "electric_scooter", "name": "dd651a19e629e6043dc630846bf06766", "is_disabled": 0, "rental_uris": {"ios": "https://dc.lft.to/lastmile_qr_scan", "android": "https://dc.lft.to/lastmile_qr_scan"}, "is_reserved": 0}, {"lon": -77.09063216666667, "bike_id": "b1965a7f62d774b231eadae03e83bdec", "lat": 38.86262033333333, "fusion_lon": 0.0, "fusion_lat": 0.0, "type": "electric_bike", "name": "b1965a7f62d774b231eadae03e83bdec", "is_disabled": 0, "rental_uris": {"ios": "https://dc.lft.to/lastmile_qr_scan", "android": "https://dc.lft.to/lastmile_qr_scan"}, "is_reserved": 0}, {"lon": -77.03114716666667, "bike_id": "d1d94923cf9986f6852ae169127a2db4", "lat": 38.933234666666664, "fusion_lon": 0.0, "fusion_lat": 0.0, "type": "electric_scooter", "name": "d1d94923cf9986f6852ae169127a2db4", "is_disabled": 0, "rental_uris": {"ios": "https://dc.lft.to/lastmile_qr_scan", "android": "https://dc.lft.to/lastmile_qr_scan"}, "is_reserved": 0}, {"lon": -77.0325475, "bike_id": "55771560ed93b890139a1f2492891d5c", "lat": 38.915641, "fusion_lon": 0.0, "fusion_lat": 0.0, "type": "electric_scooter", "name": "55771560ed93b890139a1f2492891d5c", "is_disabled": 0, "rental_uris": {"ios": "https://dc.lft.to/lastmile_qr_scan", "android": "https://dc.lft.to/lastmile_qr_scan"}, "is_reserved": 0}, {"lon": -76.93068866666667, "bike_id": "19804a4629d90be8d3080b8ce08c945f", "lat": 38.89558016666667, "fusion_lon": 0.0, "fusion_lat": 0.0, "type": "electric_scooter", "name": "19804a4629d90be8d3080b8ce08c945f", "is_disabled": 0, "rental_uris": {"ios": "https://dc.lft.to/lastmile_qr_scan", "android": "https://dc.lft.to/lastmile_qr_scan"}, "is_reserved": 0}, {"lon": -77.02237316666667, "bike_id": "b43663052c9e8590f7ec1c9401da4972", "lat": 38.90408633333333, "fusion_lon": 0.0, "fusion_lat": 0.0, "type": "electric_scooter", "name": "b43663052c9e8590f7ec1c9401da4972", "is_disabled": 0, "rental_uris": {"ios": "https://dc.lft.to/lastmile_qr_scan", "android": "https://dc.lft.to/lastmile_qr_scan"}, "is_reserved": 0}, {"lon": -77.043405, "bike_id": "1edab61e765431c3feb2b47663a7b1bc", "lat": 38.91095266666667, "fusion_lon": 0.0, "fusion_lat": 0.0, "type": "electric_scooter", "name": "1edab61e765431c3feb2b47663a7b1bc", "is_disabled": 0, "rental_uris": {"ios": "https://dc.lft.to/lastmile_qr_scan", "android": "https://dc.lft.to/lastmile_qr_scan"}, "is_reserved": 0}, {"lon": -76.97830283333333, "bike_id": "8e243a1b99dc2f5b206661b23ca1bd74", "lat": 38.843674, "fusion_lon": 0.0, "fusion_lat": 0.0, "type": "electric_bike", "name": "8e243a1b99dc2f5b206661b23ca1bd74", "is_disabled": 0, "rental_uris": {"ios": "https://dc.lft.to/lastmile_qr_scan", "android": "https://dc.lft.to/lastmile_qr_scan"}, "is_reserved": 0}, {"lon": -77.02478766666667, "bike_id": "a006c8afafc3635be70ded74821e1009", "lat": 38.919866666666664, "fusion_lon": 0.0, "fusion_lat": 0.0, "type": "electric_scooter", "name": "a006c8afafc3635be70ded74821e1009", "is_disabled": 0, "rental_uris": {"ios": "https://dc.lft.to/lastmile_qr_scan", "android": "https://dc.lft.to/lastmile_qr_scan"}, "is_reserved": 0}, {"lon": -77.03653716666666, "bike_id": "7483632baf576043b0d8fb94937f92fa", "lat": 38.95611266666667, "fusion_lon": 0.0, "fusion_lat": 0.0, "type": "electric_scooter", "name": "7483632baf576043b0d8fb94937f92fa", "is_disabled": 0, "rental_uris": {"ios": "https://dc.lft.to/lastmile_qr_scan", "android": "https://dc.lft.to/lastmile_qr_scan"}, "is_reserved": 0}, {"lon": -76.98257333333333, "bike_id": "3e0aebdbb81f190f99341c988f5947d5", "lat": 38.90130933333333, "fusion_lon": 0.0, "fusion_lat": 0.0, "type": "electric_scooter", "name": "3e0aebdbb81f190f99341c988f5947d5", "is_disabled": 0, "rental_uris": {"ios": "https://dc.lft.to/lastmile_qr_scan", "android": "https://dc.lft.to/lastmile_qr_scan"}, "is_reserved": 0}, {"lon": -76.97602416666666, "bike_id": "089c2f8c691223e9c4d4943b6f2118f0", "lat": 38.90573716666667, "fusion_lon": 0.0, "fusion_lat": 0.0, "type": "electric_scooter", "name": "089c2f8c691223e9c4d4943b6f2118f0", "is_disabled": 0, "rental_uris": {"ios": "https://dc.lft.to/lastmile_qr_scan", "android": "https://dc.lft.to/lastmile_qr_scan"}, "is_reserved": 0}, {"lon": -77.00561533333334, "bike_id": "c25502b300e74dd008a774d445357be4", "lat": 38.874408, "fusion_lon": 0.0, "fusion_lat": 0.0, "type": "electric_scooter", "name": "c25502b300e74dd008a774d445357be4", "is_disabled": 0, "rental_uris": {"ios": "https://dc.lft.to/lastmile_qr_scan", "android": "https://dc.lft.to/lastmile_qr_scan"}, "is_reserved": 0}, {"lon": -76.97320466666666, "bike_id": "e0818c1f7d27fe1130bd14b67b391fc7", "lat": 38.91774, "fusion_lon": 0.0, "fusion_lat": 0.0, "type": "electric_scooter", "name": "e0818c1f7d27fe1130bd14b67b391fc7", "is_disabled": 0, "rental_uris": {"ios": "https://dc.lft.to/lastmile_qr_scan", "android": "https://dc.lft.to/lastmile_qr_scan"}, "is_reserved": 0}, {"lon": -77.06514266666667, "bike_id": "9b56755c4de1d1e664b93de010afc961", "lat": 38.90545133333333, "fusion_lon": 0.0, "fusion_lat": 0.0, "type": "electric_bike", "name": "9b56755c4de1d1e664b93de010afc961", "is_disabled": 0, "rental_uris": {"ios": "https://dc.lft.to/lastmile_qr_scan", "android": "https://dc.lft.to/lastmile_qr_scan"}, "is_reserved": 0}, {"lon": -77.0054245, "bike_id": "ae04c1e80d1b838039bb307669a2cbd6", "lat": 38.929799833333334, "fusion_lon": 0.0, "fusion_lat": 0.0, "type": "electric_scooter", "name": "ae04c1e80d1b838039bb307669a2cbd6", "is_disabled": 0, "rental_uris": {"ios": "https://dc.lft.to/lastmile_qr_scan", "android": "https://dc.lft.to/lastmile_qr_scan"}, "is_reserved": 0}, {"lon": -77.022677, "bike_id": "64c16ef05728ad20a123faa60526b0c2", "lat": 38.9377075, "fusion_lon": 0.0, "fusion_lat": 0.0, "type": "electric_scooter", "name": "64c16ef05728ad20a123faa60526b0c2", "is_disabled": 0, "rental_uris": {"ios": "https://dc.lft.to/lastmile_qr_scan", "android": "https://dc.lft.to/lastmile_qr_scan"}, "is_reserved": 0}, {"lon": -76.98808716666667, "bike_id": "5f386b951a0a58cf5481ae18e0d23626", "lat": 38.900329166666666, "fusion_lon": 0.0, "fusion_lat": 0.0, "type": "electric_scooter", "name": "5f386b951a0a58cf5481ae18e0d23626", "is_disabled": 0, "rental_uris": {"ios": "https://dc.lft.to/lastmile_qr_scan", "android": "https://dc.lft.to/lastmile_qr_scan"}, "is_reserved": 0}, {"lon": -77.00203566666667, "bike_id": "888e48ab3f7d5135522fee75c3fea8a4", "lat": 38.895409, "fusion_lon": 0.0, "fusion_lat": 0.0, "type": "electric_scooter", "name": "888e48ab3f7d5135522fee75c3fea8a4", "is_disabled": 0, "rental_uris": {"ios": "https://dc.lft.to/lastmile_qr_scan", "android": "https://dc.lft.to/lastmile_qr_scan"}, "is_reserved": 0}, {"lon": -77.0318515, "bike_id": "d97c3464a584a1e595e745ee71082af7", "lat": 38.88407316666667, "fusion_lon": 0.0, "fusion_lat": 0.0, "type": "electric_scooter", "name": "d97c3464a584a1e595e745ee71082af7", "is_disabled": 0, "rental_uris": {"ios": "https://dc.lft.to/lastmile_qr_scan", "android": "https://dc.lft.to/lastmile_qr_scan"}, "is_reserved": 0}, {"lon": -76.986948, "bike_id": "8a70850ffa13fa6bc85f5127557d0984", "lat": 38.862526833333334, "fusion_lon": 0.0, "fusion_lat": 0.0, "type": "electric_scooter", "name": "8a70850ffa13fa6bc85f5127557d0984", "is_disabled": 0, "rental_uris": {"ios": "https://dc.lft.to/lastmile_qr_scan", "android": "https://dc.lft.to/lastmile_qr_scan"}, "is_reserved": 0}, {"lon": -76.9373705, "bike_id": "258db1296bd5f7537858c70b06a445de", "lat": 38.8902645, "fusion_lon": 0.0, "fusion_lat": 0.0, "type": "electric_scooter", "name": "258db1296bd5f7537858c70b06a445de", "is_disabled": 0, "rental_uris": {"ios": "https://dc.lft.to/lastmile_qr_scan", "android": "https://dc.lft.to/lastmile_qr_scan"}, "is_reserved": 0}, {"lon": -77.064753, "bike_id": "364fd50ba321c3d70fbdf08e20dd296b", "lat": 38.9465575, "fusion_lon": 0.0, "fusion_lat": 0.0, "type": "electric_scooter", "name": "364fd50ba321c3d70fbdf08e20dd296b", "is_disabled": 0, "rental_uris": {"ios": "https://dc.lft.to/lastmile_qr_scan", "android": "https://dc.lft.to/lastmile_qr_scan"}, "is_reserved": 0}, {"lon": -77.0221585, "bike_id": "cd54649ccc20a1100234ae1b2f033493", "lat": 38.9126935, "fusion_lon": 0.0, "fusion_lat": 0.0, "type": "electric_scooter", "name": "cd54649ccc20a1100234ae1b2f033493", "is_disabled": 0, "rental_uris": {"ios": "https://dc.lft.to/lastmile_qr_scan", "android": "https://dc.lft.to/lastmile_qr_scan"}, "is_reserved": 0}, {"lon": -77.02083583333334, "bike_id": "556cd75d401f932cdaca25802ec54f5f", "lat": 38.9271165, "fusion_lon": 0.0, "fusion_lat": 0.0, "type": "electric_scooter", "name": "556cd75d401f932cdaca25802ec54f5f", "is_disabled": 0, "rental_uris": {"ios": "https://dc.lft.to/lastmile_qr_scan", "android": "https://dc.lft.to/lastmile_qr_scan"}, "is_reserved": 0}, {"lon": -77.00305283333333, "bike_id": "83851f4213d3f54a7637206fd34d8a3c", "lat": 38.894939, "fusion_lon": 0.0, "fusion_lat": 0.0, "type": "electric_scooter", "name": "83851f4213d3f54a7637206fd34d8a3c", "is_disabled": 0, "rental_uris": {"ios": "https://dc.lft.to/lastmile_qr_scan", "android": "https://dc.lft.to/lastmile_qr_scan"}, "is_reserved": 0}, {"lon": -77.04709516666667, "bike_id": "fd87e507f912e14e0ddb63777984deb4", "lat": 38.9023765, "fusion_lon": 0.0, "fusion_lat": 0.0, "type": "electric_scooter", "name": "fd87e507f912e14e0ddb63777984deb4", "is_disabled": 0, "rental_uris": {"ios": "https://dc.lft.to/lastmile_qr_scan", "android": "https://dc.lft.to/lastmile_qr_scan"}, "is_reserved": 0}, {"lon": -77.05228016666666, "bike_id": "4c70c0548a7bf83bda9cf65e17ab597b", "lat": 38.924609, "fusion_lon": 0.0, "fusion_lat": 0.0, "type": "electric_scooter", "name": "4c70c0548a7bf83bda9cf65e17ab597b", "is_disabled": 0, "rental_uris": {"ios": "https://dc.lft.to/lastmile_qr_scan", "android": "https://dc.lft.to/lastmile_qr_scan"}, "is_reserved": 0}, {"lon": -77.01105466666667, "bike_id": "1d2c231b3abd82ef4129b1cc6ec14700", "lat": 38.903481666666664, "fusion_lon": 0.0, "fusion_lat": 0.0, "type": "electric_scooter", "name": "1d2c231b3abd82ef4129b1cc6ec14700", "is_disabled": 0, "rental_uris": {"ios": "https://dc.lft.to/lastmile_qr_scan", "android": "https://dc.lft.to/lastmile_qr_scan"}, "is_reserved": 0}, {"lon": -77.03041483333334, "bike_id": "20618e817a1c12c0815fbd44a366f61b", "lat": 38.878447, "fusion_lon": 0.0, "fusion_lat": 0.0, "type": "electric_scooter", "name": "20618e817a1c12c0815fbd44a366f61b", "is_disabled": 0, "rental_uris": {"ios": "https://dc.lft.to/lastmile_qr_scan", "android": "https://dc.lft.to/lastmile_qr_scan"}, "is_reserved": 0}, {"lon": -77.0318475, "bike_id": "e14565b5d877831cd4722d01d21d60da", "lat": 38.90979766666667, "fusion_lon": 0.0, "fusion_lat": 0.0, "type": "electric_scooter", "name": "e14565b5d877831cd4722d01d21d60da", "is_disabled": 0, "rental_uris": {"ios": "https://dc.lft.to/lastmile_qr_scan", "android": "https://dc.lft.to/lastmile_qr_scan"}, "is_reserved": 0}, {"lon": -77.00330416666667, "bike_id": "eac3888c030cecc05a6cdf5c6ceb86a9", "lat": 38.885056, "fusion_lon": 0.0, "fusion_lat": 0.0, "type": "electric_scooter", "name": "eac3888c030cecc05a6cdf5c6ceb86a9", "is_disabled": 0, "rental_uris": {"ios": "https://dc.lft.to/lastmile_qr_scan", "android": "https://dc.lft.to/lastmile_qr_scan"}, "is_reserved": 0}, {"lon": -77.02570666666666, "bike_id": "4cf25bc2206dc8d06fbcd62d1af1b30e", "lat": 38.892323166666664, "fusion_lon": 0.0, "fusion_lat": 0.0, "type": "electric_scooter", "name": "4cf25bc2206dc8d06fbcd62d1af1b30e", "is_disabled": 0, "rental_uris": {"ios": "https://dc.lft.to/lastmile_qr_scan", "android": "https://dc.lft.to/lastmile_qr_scan"}, "is_reserved": 0}, {"lon": -77.0201125, "bike_id": "f6af24e32b1599e2ddd077234cea9b9a", "lat": 38.924123, "fusion_lon": 0.0, "fusion_lat": 0.0, "type": "electric_scooter", "name": "f6af24e32b1599e2ddd077234cea9b9a", "is_disabled": 0, "rental_uris": {"ios": "https://dc.lft.to/lastmile_qr_scan", "android": "https://dc.lft.to/lastmile_qr_scan"}, "is_reserved": 0}, {"lon": -77.05105766666667, "bike_id": "45d4d2e668f96dfc0ec7115866c7ace0", "lat": 38.9230515, "fusion_lon": 0.0, "fusion_lat": 0.0, "type": "electric_scooter", "name": "45d4d2e668f96dfc0ec7115866c7ace0", "is_disabled": 0, "rental_uris": {"ios": "https://dc.lft.to/lastmile_qr_scan", "android": "https://dc.lft.to/lastmile_qr_scan"}, "is_reserved": 0}, {"lon": -77.03207283333333, "bike_id": "a5b38b97ab6c8fc756afc48f71da3c8c", "lat": 38.91474316666667, "fusion_lon": 0.0, "fusion_lat": 0.0, "type": "electric_scooter", "name": "a5b38b97ab6c8fc756afc48f71da3c8c", "is_disabled": 0, "rental_uris": {"ios": "https://dc.lft.to/lastmile_qr_scan", "android": "https://dc.lft.to/lastmile_qr_scan"}, "is_reserved": 0}, {"lon": -77.04346166666667, "bike_id": "aa8d626342c21f561e36b18fc1a4c1f1", "lat": 38.9296135, "fusion_lon": 0.0, "fusion_lat": 0.0, "type": "electric_scooter", "name": "aa8d626342c21f561e36b18fc1a4c1f1", "is_disabled": 0, "rental_uris": {"ios": "https://dc.lft.to/lastmile_qr_scan", "android": "https://dc.lft.to/lastmile_qr_scan"}, "is_reserved": 0}, {"lon": -77.033335, "bike_id": "5e487dc0bae59b7b83ec3775e9fc4e8a", "lat": 38.89745216666667, "fusion_lon": 0.0, "fusion_lat": 0.0, "type": "electric_scooter", "name": "5e487dc0bae59b7b83ec3775e9fc4e8a", "is_disabled": 0, "rental_uris": {"ios": "https://dc.lft.to/lastmile_qr_scan", "android": "https://dc.lft.to/lastmile_qr_scan"}, "is_reserved": 0}, {"lon": -77.031854, "bike_id": "14455bb3fc246c8588286053c8f92725", "lat": 38.91328266666667, "fusion_lon": 0.0, "fusion_lat": 0.0, "type": "electric_scooter", "name": "14455bb3fc246c8588286053c8f92725", "is_disabled": 0, "rental_uris": {"ios": "https://dc.lft.to/lastmile_qr_scan", "android": "https://dc.lft.to/lastmile_qr_scan"}, "is_reserved": 0}, {"lon": -77.02747566666666, "bike_id": "0c57eea9d48a2dd5a6b113636b072cb5", "lat": 38.892480166666665, "fusion_lon": 0.0, "fusion_lat": 0.0, "type": "electric_scooter", "name": "0c57eea9d48a2dd5a6b113636b072cb5", "is_disabled": 0, "rental_uris": {"ios": "https://dc.lft.to/lastmile_qr_scan", "android": "https://dc.lft.to/lastmile_qr_scan"}, "is_reserved": 0}, {"lon": -76.98178333333334, "bike_id": "3fefc20a02e8cc997ffceeb97e1b74a0", "lat": 38.89586533333333, "fusion_lon": 0.0, "fusion_lat": 0.0, "type": "electric_scooter", "name": "3fefc20a02e8cc997ffceeb97e1b74a0", "is_disabled": 0, "rental_uris": {"ios": "https://dc.lft.to/lastmile_qr_scan", "android": "https://dc.lft.to/lastmile_qr_scan"}, "is_reserved": 0}, {"lon": -77.04226816666667, "bike_id": "b842039a667c0aab774dcacec26b84ef", "lat": 38.9218245, "fusion_lon": 0.0, "fusion_lat": 0.0, "type": "electric_scooter", "name": "b842039a667c0aab774dcacec26b84ef", "is_disabled": 0, "rental_uris": {"ios": "https://dc.lft.to/lastmile_qr_scan", "android": "https://dc.lft.to/lastmile_qr_scan"}, "is_reserved": 0}, {"lon": -77.03849616666666, "bike_id": "31ae7b511a068f9ca49968f799c78806", "lat": 38.9158345, "fusion_lon": 0.0, "fusion_lat": 0.0, "type": "electric_scooter", "name": "31ae7b511a068f9ca49968f799c78806", "is_disabled": 0, "rental_uris": {"ios": "https://dc.lft.to/lastmile_qr_scan", "android": "https://dc.lft.to/lastmile_qr_scan"}, "is_reserved": 0}, {"lon": -77.03168283333333, "bike_id": "ecfb912e50c8f3b92610a269d3264816", "lat": 38.91627483333333, "fusion_lon": 0.0, "fusion_lat": 0.0, "type": "electric_scooter", "name": "ecfb912e50c8f3b92610a269d3264816", "is_disabled": 0, "rental_uris": {"ios": "https://dc.lft.to/lastmile_qr_scan", "android": "https://dc.lft.to/lastmile_qr_scan"}, "is_reserved": 0}, {"lon": -77.02292483333333, "bike_id": "cab9339887086ffea3e60da35319dfd3", "lat": 38.909905, "fusion_lon": 0.0, "fusion_lat": 0.0, "type": "electric_scooter", "name": "cab9339887086ffea3e60da35319dfd3", "is_disabled": 0, "rental_uris": {"ios": "https://dc.lft.to/lastmile_qr_scan", "android": "https://dc.lft.to/lastmile_qr_scan"}, "is_reserved": 0}, {"lon": -76.9336445, "bike_id": "42c6e6988684fdbd47c1988e868c53d4", "lat": 38.8991615, "fusion_lon": 0.0, "fusion_lat": 0.0, "type": "electric_scooter", "name": "42c6e6988684fdbd47c1988e868c53d4", "is_disabled": 0, "rental_uris": {"ios": "https://dc.lft.to/lastmile_qr_scan", "android": "https://dc.lft.to/lastmile_qr_scan"}, "is_reserved": 0}, {"lon": -76.97333383333333, "bike_id": "ed6b61b91b6c4ea70314f3075c08fe8d", "lat": 38.865561166666666, "fusion_lon": 0.0, "fusion_lat": 0.0, "type": "electric_scooter", "name": "ed6b61b91b6c4ea70314f3075c08fe8d", "is_disabled": 0, "rental_uris": {"ios": "https://dc.lft.to/lastmile_qr_scan", "android": "https://dc.lft.to/lastmile_qr_scan"}, "is_reserved": 0}, {"lon": -76.98229666666667, "bike_id": "48979d9c1ed55984870ba0dc49b9a302", "lat": 38.886505666666665, "fusion_lon": 0.0, "fusion_lat": 0.0, "type": "electric_scooter", "name": "48979d9c1ed55984870ba0dc49b9a302", "is_disabled": 0, "rental_uris": {"ios": "https://dc.lft.to/lastmile_qr_scan", "android": "https://dc.lft.to/lastmile_qr_scan"}, "is_reserved": 0}, {"lon": -77.02425616666666, "bike_id": "109056f8fb05a6a16c25c9822c107af7", "lat": 38.92074316666667, "fusion_lon": 0.0, "fusion_lat": 0.0, "type": "electric_scooter", "name": "109056f8fb05a6a16c25c9822c107af7", "is_disabled": 0, "rental_uris": {"ios": "https://dc.lft.to/lastmile_qr_scan", "android": "https://dc.lft.to/lastmile_qr_scan"}, "is_reserved": 0}, {"lon": -77.00567266666667, "bike_id": "de04d2d6efdaadbe70470be3d78ea4b1", "lat": 38.874734, "fusion_lon": 0.0, "fusion_lat": 0.0, "type": "electric_scooter", "name": "de04d2d6efdaadbe70470be3d78ea4b1", "is_disabled": 0, "rental_uris": {"ios": "https://dc.lft.to/lastmile_qr_scan", "android": "https://dc.lft.to/lastmile_qr_scan"}, "is_reserved": 0}, {"lon": -77.029544, "bike_id": "f3ce334bd1cf87eea5ee72988d30c8d9", "lat": 38.910755333333334, "fusion_lon": 0.0, "fusion_lat": 0.0, "type": "electric_scooter", "name": "f3ce334bd1cf87eea5ee72988d30c8d9", "is_disabled": 0, "rental_uris": {"ios": "https://dc.lft.to/lastmile_qr_scan", "android": "https://dc.lft.to/lastmile_qr_scan"}, "is_reserved": 0}, {"lon": -77.0457525, "bike_id": "c553ddc955b7af1823516933d8ad4998", "lat": 38.908645, "fusion_lon": 0.0, "fusion_lat": 0.0, "type": "electric_scooter", "name": "c553ddc955b7af1823516933d8ad4998", "is_disabled": 0, "rental_uris": {"ios": "https://dc.lft.to/lastmile_qr_scan", "android": "https://dc.lft.to/lastmile_qr_scan"}, "is_reserved": 0}, {"lon": -77.03183716666666, "bike_id": "bb2667780939114a7c91ab9d4292f9f2", "lat": 38.911272333333336, "fusion_lon": 0.0, "fusion_lat": 0.0, "type": "electric_scooter", "name": "bb2667780939114a7c91ab9d4292f9f2", "is_disabled": 0, "rental_uris": {"ios": "https://dc.lft.to/lastmile_qr_scan", "android": "https://dc.lft.to/lastmile_qr_scan"}, "is_reserved": 0}, {"lon": -77.0244835, "bike_id": "ca0294e83a58eff29a9ed97c65d5e847", "lat": 38.937971, "fusion_lon": 0.0, "fusion_lat": 0.0, "type": "electric_scooter", "name": "ca0294e83a58eff29a9ed97c65d5e847", "is_disabled": 0, "rental_uris": {"ios": "https://dc.lft.to/lastmile_qr_scan", "android": "https://dc.lft.to/lastmile_qr_scan"}, "is_reserved": 0}, {"lon": -77.04371516666667, "bike_id": "5eb2b72c22881107bf85dff428eac80b", "lat": 38.90241416666667, "fusion_lon": 0.0, "fusion_lat": 0.0, "type": "electric_scooter", "name": "5eb2b72c22881107bf85dff428eac80b", "is_disabled": 0, "rental_uris": {"ios": "https://dc.lft.to/lastmile_qr_scan", "android": "https://dc.lft.to/lastmile_qr_scan"}, "is_reserved": 0}, {"lon": -77.038517, "bike_id": "4dd2374a698820e0cca3fd9eff06ff64", "lat": 38.9064525, "fusion_lon": 0.0, "fusion_lat": 0.0, "type": "electric_scooter", "name": "4dd2374a698820e0cca3fd9eff06ff64", "is_disabled": 0, "rental_uris": {"ios": "https://dc.lft.to/lastmile_qr_scan", "android": "https://dc.lft.to/lastmile_qr_scan"}, "is_reserved": 0}, {"lon": -77.00354216666666, "bike_id": "694e8fc20040f3803730ef324891702c", "lat": 38.91678116666667, "fusion_lon": 0.0, "fusion_lat": 0.0, "type": "electric_scooter", "name": "694e8fc20040f3803730ef324891702c", "is_disabled": 0, "rental_uris": {"ios": "https://dc.lft.to/lastmile_qr_scan", "android": "https://dc.lft.to/lastmile_qr_scan"}, "is_reserved": 0}, {"lon": -77.057278, "bike_id": "8cf886f135f18ed5f81e0c4a1b33191d", "lat": 38.93374016666667, "fusion_lon": 0.0, "fusion_lat": 0.0, "type": "electric_scooter", "name": "8cf886f135f18ed5f81e0c4a1b33191d", "is_disabled": 0, "rental_uris": {"ios": "https://dc.lft.to/lastmile_qr_scan", "android": "https://dc.lft.to/lastmile_qr_scan"}, "is_reserved": 0}, {"lon": -77.02802066666666, "bike_id": "2f064b6b16327e73aafb83230c039184", "lat": 38.934237333333336, "fusion_lon": 0.0, "fusion_lat": 0.0, "type": "electric_scooter", "name": "2f064b6b16327e73aafb83230c039184", "is_disabled": 0, "rental_uris": {"ios": "https://dc.lft.to/lastmile_qr_scan", "android": "https://dc.lft.to/lastmile_qr_scan"}, "is_reserved": 0}, {"lon": -76.98229466666666, "bike_id": "1fd800328072f1fadf3ccdc423f61964", "lat": 38.9164765, "fusion_lon": 0.0, "fusion_lat": 0.0, "type": "electric_scooter", "name": "1fd800328072f1fadf3ccdc423f61964", "is_disabled": 0, "rental_uris": {"ios": "https://dc.lft.to/lastmile_qr_scan", "android": "https://dc.lft.to/lastmile_qr_scan"}, "is_reserved": 0}, {"lon": -77.0509455, "bike_id": "0706575278408dd3aa7095bc36d5776b", "lat": 38.90969833333333, "fusion_lon": 0.0, "fusion_lat": 0.0, "type": "electric_scooter", "name": "0706575278408dd3aa7095bc36d5776b", "is_disabled": 0, "rental_uris": {"ios": "https://dc.lft.to/lastmile_qr_scan", "android": "https://dc.lft.to/lastmile_qr_scan"}, "is_reserved": 0}, {"lon": -76.99967583333333, "bike_id": "3797588a05e57bf784ea6933de6da1b8", "lat": 38.908561166666665, "fusion_lon": 0.0, "fusion_lat": 0.0, "type": "electric_scooter", "name": "3797588a05e57bf784ea6933de6da1b8", "is_disabled": 0, "rental_uris": {"ios": "https://dc.lft.to/lastmile_qr_scan", "android": "https://dc.lft.to/lastmile_qr_scan"}, "is_reserved": 0}, {"lon": -77.036966, "bike_id": "44dc2eb0edbc16f60122da5cf4e4a36b", "lat": 38.932863833333336, "fusion_lon": 0.0, "fusion_lat": 0.0, "type": "electric_scooter", "name": "44dc2eb0edbc16f60122da5cf4e4a36b", "is_disabled": 0, "rental_uris": {"ios": "https://dc.lft.to/lastmile_qr_scan", "android": "https://dc.lft.to/lastmile_qr_scan"}, "is_reserved": 0}, {"lon": -77.03194683333334, "bike_id": "8f698b6fa1cbca1751381ee8014097b3", "lat": 38.91346983333333, "fusion_lon": 0.0, "fusion_lat": 0.0, "type": "electric_scooter", "name": "8f698b6fa1cbca1751381ee8014097b3", "is_disabled": 0, "rental_uris": {"ios": "https://dc.lft.to/lastmile_qr_scan", "android": "https://dc.lft.to/lastmile_qr_scan"}, "is_reserved": 0}, {"lon": -77.045882, "bike_id": "c75a05668d2d589a7e5d34eb3db26353", "lat": 38.92126566666666, "fusion_lon": 0.0, "fusion_lat": 0.0, "type": "electric_scooter", "name": "c75a05668d2d589a7e5d34eb3db26353", "is_disabled": 0, "rental_uris": {"ios": "https://dc.lft.to/lastmile_qr_scan", "android": "https://dc.lft.to/lastmile_qr_scan"}, "is_reserved": 0}, {"lon": -77.031855, "bike_id": "170bbf33fd26c542c5c045979b35e7a0", "lat": 38.9082065, "fusion_lon": 0.0, "fusion_lat": 0.0, "type": "electric_scooter", "name": "170bbf33fd26c542c5c045979b35e7a0", "is_disabled": 0, "rental_uris": {"ios": "https://dc.lft.to/lastmile_qr_scan", "android": "https://dc.lft.to/lastmile_qr_scan"}, "is_reserved": 0}, {"lon": -77.02300316666667, "bike_id": "b959446881a18ad339a83ea77957d58d", "lat": 38.90155, "fusion_lon": 0.0, "fusion_lat": 0.0, "type": "electric_scooter", "name": "b959446881a18ad339a83ea77957d58d", "is_disabled": 0, "rental_uris": {"ios": "https://dc.lft.to/lastmile_qr_scan", "android": "https://dc.lft.to/lastmile_qr_scan"}, "is_reserved": 0}, {"lon": -77.02786066666667, "bike_id": "fb500513c1f2c733ccf6f0c88692ede8", "lat": 38.89242183333333, "fusion_lon": 0.0, "fusion_lat": 0.0, "type": "electric_scooter", "name": "fb500513c1f2c733ccf6f0c88692ede8", "is_disabled": 0, "rental_uris": {"ios": "https://dc.lft.to/lastmile_qr_scan", "android": "https://dc.lft.to/lastmile_qr_scan"}, "is_reserved": 0}, {"lon": -76.99500466666667, "bike_id": "6bc18941ceb3ab3d8af0c998fdd555f2", "lat": 38.88055266666667, "fusion_lon": 0.0, "fusion_lat": 0.0, "type": "electric_scooter", "name": "6bc18941ceb3ab3d8af0c998fdd555f2", "is_disabled": 0, "rental_uris": {"ios": "https://dc.lft.to/lastmile_qr_scan", "android": "https://dc.lft.to/lastmile_qr_scan"}, "is_reserved": 0}, {"lon": -77.11153083333333, "bike_id": "b0e00ba599f1115cf6adb2ebc5c13465", "lat": 38.855158, "fusion_lon": 0.0, "fusion_lat": 0.0, "type": "electric_bike", "name": "b0e00ba599f1115cf6adb2ebc5c13465", "is_disabled": 0, "rental_uris": {"ios": "https://dc.lft.to/lastmile_qr_scan", "android": "https://dc.lft.to/lastmile_qr_scan"}, "is_reserved": 0}, {"lon": -77.07298016666667, "bike_id": "f1eadf9e7a8f60a084b173f30c496ef4", "lat": 38.924700333333334, "fusion_lon": 0.0, "fusion_lat": 0.0, "type": "electric_scooter", "name": "f1eadf9e7a8f60a084b173f30c496ef4", "is_disabled": 0, "rental_uris": {"ios": "https://dc.lft.to/lastmile_qr_scan", "android": "https://dc.lft.to/lastmile_qr_scan"}, "is_reserved": 0}, {"lon": -77.10481083333333, "bike_id": "eea97b96e1b5caf998ce7fc740c0ba10", "lat": 38.856063666666664, "fusion_lon": 0.0, "fusion_lat": 0.0, "type": "electric_bike", "name": "eea97b96e1b5caf998ce7fc740c0ba10", "is_disabled": 0, "rental_uris": {"ios": "https://dc.lft.to/lastmile_qr_scan", "android": "https://dc.lft.to/lastmile_qr_scan"}, "is_reserved": 0}, {"lon": -77.0513665, "bike_id": "a00974967415f9ce98d9b14a6bc11e12", "lat": 38.92366633333334, "fusion_lon": 0.0, "fusion_lat": 0.0, "type": "electric_scooter", "name": "a00974967415f9ce98d9b14a6bc11e12", "is_disabled": 0, "rental_uris": {"ios": "https://dc.lft.to/lastmile_qr_scan", "android": "https://dc.lft.to/lastmile_qr_scan"}, "is_reserved": 0}, {"lon": -77.02761666666666, "bike_id": "5fbc6d90363162e292cbeae794abadf1", "lat": 38.954276, "fusion_lon": 0.0, "fusion_lat": 0.0, "type": "electric_scooter", "name": "5fbc6d90363162e292cbeae794abadf1", "is_disabled": 0, "rental_uris": {"ios": "https://dc.lft.to/lastmile_qr_scan", "android": "https://dc.lft.to/lastmile_qr_scan"}, "is_reserved": 0}, {"lon": -77.01665333333334, "bike_id": "d5def8ff1bb0d1092c82389af1a6cfc8", "lat": 38.876857666666666, "fusion_lon": 0.0, "fusion_lat": 0.0, "type": "electric_scooter", "name": "d5def8ff1bb0d1092c82389af1a6cfc8", "is_disabled": 0, "rental_uris": {"ios": "https://dc.lft.to/lastmile_qr_scan", "android": "https://dc.lft.to/lastmile_qr_scan"}, "is_reserved": 0}, {"lon": -77.019229, "bike_id": "43e8b31a1c21621e655670abc45af692", "lat": 38.8987265, "fusion_lon": 0.0, "fusion_lat": 0.0, "type": "electric_scooter", "name": "43e8b31a1c21621e655670abc45af692", "is_disabled": 0, "rental_uris": {"ios": "https://dc.lft.to/lastmile_qr_scan", "android": "https://dc.lft.to/lastmile_qr_scan"}, "is_reserved": 0}, {"lon": -77.04681366666667, "bike_id": "cbda92f73c284af45774886a28e14467", "lat": 38.900378333333336, "fusion_lon": 0.0, "fusion_lat": 0.0, "type": "electric_scooter", "name": "cbda92f73c284af45774886a28e14467", "is_disabled": 0, "rental_uris": {"ios": "https://dc.lft.to/lastmile_qr_scan", "android": "https://dc.lft.to/lastmile_qr_scan"}, "is_reserved": 0}, {"lon": -77.01997416666667, "bike_id": "82b64dabb1cde291aa82fb37db7d5a35", "lat": 38.96627316666667, "fusion_lon": 0.0, "fusion_lat": 0.0, "type": "electric_scooter", "name": "82b64dabb1cde291aa82fb37db7d5a35", "is_disabled": 0, "rental_uris": {"ios": "https://dc.lft.to/lastmile_qr_scan", "android": "https://dc.lft.to/lastmile_qr_scan"}, "is_reserved": 0}, {"lon": -77.01465966666666, "bike_id": "75852eb8ce7b4963215c11c8f5a4d9b7", "lat": 38.926963, "fusion_lon": 0.0, "fusion_lat": 0.0, "type": "electric_scooter", "name": "75852eb8ce7b4963215c11c8f5a4d9b7", "is_disabled": 0, "rental_uris": {"ios": "https://dc.lft.to/lastmile_qr_scan", "android": "https://dc.lft.to/lastmile_qr_scan"}, "is_reserved": 0}, {"lon": -76.9846655, "bike_id": "cfa3dfc2595bcb8ad9fd0d50110fb393", "lat": 38.90397733333333, "fusion_lon": 0.0, "fusion_lat": 0.0, "type": "electric_scooter", "name": "cfa3dfc2595bcb8ad9fd0d50110fb393", "is_disabled": 0, "rental_uris": {"ios": "https://dc.lft.to/lastmile_qr_scan", "android": "https://dc.lft.to/lastmile_qr_scan"}, "is_reserved": 0}, {"lon": -77.01761666666667, "bike_id": "a298b04caf3e79f474db5fbe000d3525", "lat": 38.8973925, "fusion_lon": 0.0, "fusion_lat": 0.0, "type": "electric_scooter", "name": "a298b04caf3e79f474db5fbe000d3525", "is_disabled": 0, "rental_uris": {"ios": "https://dc.lft.to/lastmile_qr_scan", "android": "https://dc.lft.to/lastmile_qr_scan"}, "is_reserved": 0}, {"lon": -77.02198583333333, "bike_id": "86ed75fe349984281a8f37afdf9997db", "lat": 38.899949, "fusion_lon": 0.0, "fusion_lat": 0.0, "type": "electric_scooter", "name": "86ed75fe349984281a8f37afdf9997db", "is_disabled": 0, "rental_uris": {"ios": "https://dc.lft.to/lastmile_qr_scan", "android": "https://dc.lft.to/lastmile_qr_scan"}, "is_reserved": 0}, {"lon": -77.0211135, "bike_id": "f6587b7f75d2c4805e41fd98f0fc9a2f", "lat": 38.89751716666667, "fusion_lon": 0.0, "fusion_lat": 0.0, "type": "electric_scooter", "name": "f6587b7f75d2c4805e41fd98f0fc9a2f", "is_disabled": 0, "rental_uris": {"ios": "https://dc.lft.to/lastmile_qr_scan", "android": "https://dc.lft.to/lastmile_qr_scan"}, "is_reserved": 0}, {"lon": -76.982266, "bike_id": "8e4877b4546b8edcdb65266edbfc432a", "lat": 38.91649616666667, "fusion_lon": 0.0, "fusion_lat": 0.0, "type": "electric_scooter", "name": "8e4877b4546b8edcdb65266edbfc432a", "is_disabled": 0, "rental_uris": {"ios": "https://dc.lft.to/lastmile_qr_scan", "android": "https://dc.lft.to/lastmile_qr_scan"}, "is_reserved": 0}, {"lon": -77.06385916666666, "bike_id": "235d10c8c5d9a061b0d0dace04577dc2", "lat": 38.909200166666665, "fusion_lon": 0.0, "fusion_lat": 0.0, "type": "electric_scooter", "name": "235d10c8c5d9a061b0d0dace04577dc2", "is_disabled": 0, "rental_uris": {"ios": "https://dc.lft.to/lastmile_qr_scan", "android": "https://dc.lft.to/lastmile_qr_scan"}, "is_reserved": 0}, {"lon": -77.062473, "bike_id": "8fb8a2418ba1966ea82edec5b831c6d6", "lat": 38.905281, "fusion_lon": 0.0, "fusion_lat": 0.0, "type": "electric_scooter", "name": "8fb8a2418ba1966ea82edec5b831c6d6", "is_disabled": 0, "rental_uris": {"ios": "https://dc.lft.to/lastmile_qr_scan", "android": "https://dc.lft.to/lastmile_qr_scan"}, "is_reserved": 0}, {"lon": -77.01978916666667, "bike_id": "d90a62bb185541f0687c981afa440db4", "lat": 38.91527716666667, "fusion_lon": 0.0, "fusion_lat": 0.0, "type": "electric_scooter", "name": "d90a62bb185541f0687c981afa440db4", "is_disabled": 0, "rental_uris": {"ios": "https://dc.lft.to/lastmile_qr_scan", "android": "https://dc.lft.to/lastmile_qr_scan"}, "is_reserved": 0},