{"data": {"bikes": [{"is_disabled": 0, "is_reserved": 0, "fusion_lat": 0.0, "lat": 38.906041, "fusion_lon": 0.0, "rental_uris": {"ios": "https://dc.lft.to/lastmile_qr_scan", "android": "https://dc.lft.to/lastmile_qr_scan"}, "lon": -77.056552, "bike_id": "a2acf6cbf8de9eb362e0938e312cf4fb", "type": "electric_scooter", "name": "a2acf6cbf8de9eb362e0938e312cf4fb"}, {"is_disabled": 0, "is_reserved": 0, "fusion_lat": 0.0, "lat": 38.90032016666667, "fusion_lon": 0.0, "rental_uris": {"ios": "https://dc.lft.to/lastmile_qr_scan", "android": "https://dc.lft.to/lastmile_qr_scan"}, "lon": -77.003901, "bike_id": "90eb4a8b1478d342e6f88446eac073d4", "type": "electric_scooter", "name": "90eb4a8b1478d342e6f88446eac073d4"}, {"is_disabled": 0, "is_reserved": 0, "fusion_lat": 0.0, "lat": 38.89228516666667, "fusion_lon": 0.0, "rental_uris": {"ios": "https://dc.lft.to/lastmile_qr_scan", "android": "https://dc.lft.to/lastmile_qr_scan"}, "lon": -77.0433595, "bike_id": "0d332208f85f9e2481ea4fe47ec15397", "type": "electric_scooter", "name": "0d332208f85f9e2481ea4fe47ec15397"}, {"is_disabled": 0, "is_reserved": 0, "fusion_lat": 0.0, "lat": 38.902704166666666, "fusion_lon": 0.0, "rental_uris": {"ios": "https://dc.lft.to/lastmile_qr_scan", "android": "https://dc.lft.to/lastmile_qr_scan"}, "lon": -77.0115735, "bike_id": "4a382d73aab072dd834a261a63983813", "type": "electric_scooter", "name": "4a382d73aab072dd834a261a63983813"}, {"is_disabled": 0, "is_reserved": 0, "fusion_lat": 0.0, "lat": 38.93362966666667, "fusion_lon": 0.0, "rental_uris": {"ios": "https://dc.lft.to/lastmile_qr_scan", "android": "https://dc.lft.to/lastmile_qr_scan"}, "lon": -77.02644733333334, "bike_id": "e3610ef271def20214b97e7495e26dfb", "type": "electric_scooter", "name": "e3610ef271def20214b97e7495e26dfb"}, {"is_disabled": 0, "is_reserved": 0, "fusion_lat": 0.0, "lat": 38.919755333333335, "fusion_lon": 0.0, "rental_uris": {"ios": "https://dc.lft.to/lastmile_qr_scan", "android": "https://dc.lft.to/lastmile_qr_scan"}, "lon": -77.002149, "bike_id": "a23d7cac518d58b23baaaa9a996abc70", "type": "electric_scooter", "name": "a23d7cac518d58b23baaaa9a996abc70"}, {"is_disabled": 0, "is_reserved": 0, "fusion_lat": 0.0, "lat": 38.921145, "fusion_lon": 0.0, "rental_uris": {"ios": "https://dc.lft.to/lastmile_qr_scan", "android": "https://dc.lft.to/lastmile_qr_scan"}, "lon": -77.04696183333333, "bike_id": "685cd0fc4161cfcbcda5fe426a6965a0", "type": "electric_scooter", "name": "685cd0fc4161cfcbcda5fe426a6965a0"}, {"is_disabled": 0, "is_reserved": 0, "fusion_lat": 0.0, "lat": 38.91178933333333, "fusion_lon": 0.0, "rental_uris": {"ios": "https://dc.lft.to/lastmile_qr_scan", "android": "https://dc.lft.to/lastmile_qr_scan"}, "lon": -77.0282955, "bike_id": "7afa7dce825e48f0f3b25089d049c577", "type": "electric_scooter", "name": "7afa7dce825e48f0f3b25089d049c577"}, {"is_disabled": 0, "is_reserved": 0, "fusion_lat": 0.0, "lat": 38.906128, "fusion_lon": 0.0, "rental_uris": {"ios": "https://dc.lft.to/lastmile_qr_scan", "android": "https://dc.lft.to/lastmile_qr_scan"}, "lon": -77.12897833333334, "bike_id": "de5d40b1dad7741611f63e16083a6b81", "type": "electric_bike", "name": "de5d40b1dad7741611f63e16083a6b81"}, {"is_disabled": 0, "is_reserved": 0, "fusion_lat": 0.0, "lat": 38.93447333333334, "fusion_lon": 0.0, "rental_uris": {"ios": "https://dc.lft.to/lastmile_qr_scan", "android": "https://dc.lft.to/lastmile_qr_scan"}, "lon": -77.0298665, "bike_id": "4aa7e2c78557e2512dfdfefa555ea6ed", "type": "electric_scooter", "name": "4aa7e2c78557e2512dfdfefa555ea6ed"}, {"is_disabled": 0, "is_reserved": 0, "fusion_lat": 0.0, "lat": 38.93383583333333, "fusion_lon": 0.0, "rental_uris": {"ios": "https://dc.lft.to/lastmile_qr_scan", "android": "https://dc.lft.to/lastmile_qr_scan"}, "lon": -77.02722866666667, "bike_id": "23704b28c78ff1d6160c710d34212c84", "type": "electric_scooter", "name": "23704b28c78ff1d6160c710d34212c84"}, {"is_disabled": 0, "is_reserved": 0, "fusion_lat": 0.0, "lat": 38.89762983333333, "fusion_lon": 0.0, "rental_uris": {"ios": "https://dc.lft.to/lastmile_qr_scan", "android": "https://dc.lft.to/lastmile_qr_scan"}, "lon": -77.048114, "bike_id": "e84ae05104129a4d780e6c3ca0022da7", "type": "electric_scooter", "name": "e84ae05104129a4d780e6c3ca0022da7"}, {"is_disabled": 0, "is_reserved": 0, "fusion_lat": 0.0, "lat": 38.906646, "fusion_lon": 0.0, "rental_uris": {"ios": "https://dc.lft.to/lastmile_qr_scan", "android": "https://dc.lft.to/lastmile_qr_scan"}, "lon": -76.98601183333334, "bike_id": "b2572fa93cb35994c98b7a925c0606a4", "type": "electric_scooter", "name": "b2572fa93cb35994c98b7a925c0606a4"}, {"is_disabled": 0, "is_reserved": 0, "fusion_lat": 0.0, "lat": 38.9324325, "fusion_lon": 0.0, "rental_uris": {"ios": "https://dc.lft.to/lastmile_qr_scan", "android": "https://dc.lft.to/lastmile_qr_scan"}, "lon": -77.0341045, "bike_id": "ea9514403ca134cdec16c608f194e739", "type": "electric_scooter", "name": "ea9514403ca134cdec16c608f194e739"}, {"is_disabled": 0, "is_reserved": 0, "fusion_lat": 0.0, "lat": 38.9509875, "fusion_lon": 0.0, "rental_uris": {"ios": "https://dc.lft.to/lastmile_qr_scan", "android": "https://dc.lft.to/lastmile_qr_scan"}, "lon": -77.01909466666666, "bike_id": "ef175197f846037aea5f4403d05ac416", "type": "electric_scooter", "name": "ef175197f846037aea5f4403d05ac416"}, {"is_disabled": 0, "is_reserved": 0, "fusion_lat": 0.0, "lat": 38.90543316666667, "fusion_lon": 0.0, "rental_uris": {"ios": "https://dc.lft.to/lastmile_qr_scan", "android": "https://dc.lft.to/lastmile_qr_scan"}, "lon": -77.05696016666667, "bike_id": "2505994231f201bf5bc43c1603570d82", "type": "electric_scooter", "name": "2505994231f201bf5bc43c1603570d82"}, {"is_disabled": 0, "is_reserved": 0, "fusion_lat": 0.0, "lat": 38.92383816666667, "fusion_lon": 0.0, "rental_uris": {"ios": "https://dc.lft.to/lastmile_qr_scan", "android": "https://dc.lft.to/lastmile_qr_scan"}, "lon": -77.02034616666667, "bike_id": "146ccb17091ddae7e25d543cbccdaca2", "type": "electric_scooter", "name": "146ccb17091ddae7e25d543cbccdaca2"}, {"is_disabled": 0, "is_reserved": 0, "fusion_lat": 0.0, "lat": 38.913524833333334, "fusion_lon": 0.0, "rental_uris": {"ios": "https://dc.lft.to/lastmile_qr_scan", "android": "https://dc.lft.to/lastmile_qr_scan"}, "lon": -77.0442435, "bike_id": "208df69e8d6ae79ef5eb43562b92c0d8", "type": "electric_scooter", "name": "208df69e8d6ae79ef5eb43562b92c0d8"}, {"is_disabled": 0, "is_reserved": 0, "fusion_lat": 0.0, "lat": 38.94043466666667, "fusion_lon": 0.0, "rental_uris": {"ios": "https://dc.lft.to/lastmile_qr_scan", "android": "https://dc.lft.to/lastmile_qr_scan"}, "lon": -77.0251835, "bike_id": "9b72603a6903ad75571c230fa8e05bbf", "type": "electric_scooter", "name": "9b72603a6903ad75571c230fa8e05bbf"}, {"is_disabled": 0, "is_reserved": 0, "fusion_lat": 0.0, "lat": 38.90722483333333, "fusion_lon": 0.0, "rental_uris": {"ios": "https://dc.lft.to/lastmile_qr_scan", "android": "https://dc.lft.to/lastmile_qr_scan"}, "lon": -77.04808283333334, "bike_id": "9cbe7fdaa0ed57eec5fa0f7176ab679d", "type": "electric_scooter", "name": "9cbe7fdaa0ed57eec5fa0f7176ab679d"}, {"is_disabled": 0, "is_reserved": 0, "fusion_lat": 0.0, "lat": 38.91927783333333, "fusion_lon": 0.0, "rental_uris": {"ios": "https://dc.lft.to/lastmile_qr_scan", "android": "https://dc.lft.to/lastmile_qr_scan"}, "lon": -77.00974833333333, "bike_id": "5d62e11d0ce3d09ce447307f86733b2f", "type": "electric_scooter", "name": "5d62e11d0ce3d09ce447307f86733b2f"}, {"is_disabled": 0, "is_reserved": 0, "fusion_lat": 0.0, "lat": 38.9249545, "fusion_lon": 0.0, "rental_uris": {"ios": "https://dc.lft.to/lastmile_qr_scan", "android": "https://dc.lft.to/lastmile_qr_scan"}, "lon": -77.028418, "bike_id": "ff367ac01fc3b0ea0108a0d986a8d469", "type": "electric_scooter", "name": "ff367ac01fc3b0ea0108a0d986a8d469"}, {"is_disabled": 0, "is_reserved": 0, "fusion_lat": 0.0, "lat": 38.93063216666667, "fusion_lon": 0.0, "rental_uris": {"ios": "https://dc.lft.to/lastmile_qr_scan", "android": "https://dc.lft.to/lastmile_qr_scan"}, "lon": -77.04217383333334, "bike_id": "c48c1daedea2e33b449f616173ae3912", "type": "electric_scooter", "name": "c48c1daedea2e33b449f616173ae3912"}, {"is_disabled": 0, "is_reserved": 0, "fusion_lat": 0.0, "lat": 38.91418433333333, "fusion_lon": 0.0, "rental_uris": {"ios": "https://dc.lft.to/lastmile_qr_scan", "android": "https://dc.lft.to/lastmile_qr_scan"}, "lon": -77.02119583333334, "bike_id": "9a02c557b93534f3f9c4557156a3606f", "type": "electric_scooter", "name": "9a02c557b93534f3f9c4557156a3606f"}, {"is_disabled": 0, "is_reserved": 0, "fusion_lat": 0.0, "lat": 38.9122985, "fusion_lon": 0.0, "rental_uris": {"ios": "https://dc.lft.to/lastmile_qr_scan", "android": "https://dc.lft.to/lastmile_qr_scan"}, "lon": -77.06409816666667, "bike_id": "d29d4d24c8da90a210e26d5aa24a75c2", "type": "electric_scooter", "name": "d29d4d24c8da90a210e26d5aa24a75c2"}, {"is_disabled": 0, "is_reserved": 0, "fusion_lat": 0.0, "lat": 38.9088035, "fusion_lon": 0.0, "rental_uris": {"ios": "https://dc.lft.to/lastmile_qr_scan", "android": "https://dc.lft.to/lastmile_qr_scan"}, "lon": -77.074443, "bike_id": "c8f0335da3b0c990991cdb2ae803fedb", "type": "electric_scooter", "name": "c8f0335da3b0c990991cdb2ae803fedb"}, {"is_disabled": 0, "is_reserved": 0, "fusion_lat": 0.0, "lat": 38.916635666666664, "fusion_lon": 0.0, "rental_uris": {"ios": "https://dc.lft.to/lastmile_qr_scan", "android": "https://dc.lft.to/lastmile_qr_scan"}, "lon": -77.0240105, "bike_id": "b919b7f98d20494115e65c4f2da3cfc5", "type": "electric_scooter", "name": "b919b7f98d20494115e65c4f2da3cfc5"}, {"is_disabled": 0, "is_reserved": 0, "fusion_lat": 0.0, "lat": 38.906564833333334, "fusion_lon": 0.0, "rental_uris": {"ios": "https://dc.lft.to/lastmile_qr_scan", "android": "https://dc.lft.to/lastmile_qr_scan"}, "lon": -76.9794595, "bike_id": "11875601e301672ba2d0d8576ef99e4d", "type": "electric_scooter", "name": "11875601e301672ba2d0d8576ef99e4d"}, {"is_disabled": 0, "is_reserved": 0, "fusion_lat": 0.0, "lat": 38.842309666666665, "fusion_lon": 0.0, "rental_uris": {"ios": "https://dc.lft.to/lastmile_qr_scan", "android": "https://dc.lft.to/lastmile_qr_scan"}, "lon": -76.94890366666667, "bike_id": "63a0744ad9f983d588ea555fe941cb8e", "type": "electric_bike", "name": "63a0744ad9f983d588ea555fe941cb8e"}, {"is_disabled": 0, "is_reserved": 0, "fusion_lat": 0.0, "lat": 38.917931333333335, "fusion_lon": 0.0, "rental_uris": {"ios": "https://dc.lft.to/lastmile_qr_scan", "android": "https://dc.lft.to/lastmile_qr_scan"}, "lon": -77.0236055, "bike_id": "14f97b257810348ee77cc80c71297df9", "type": "electric_scooter", "name": "14f97b257810348ee77cc80c71297df9"}, {"is_disabled": 0, "is_reserved": 0, "fusion_lat": 0.0, "lat": 38.887766166666665, "fusion_lon": 0.0, "rental_uris": {"ios": "https://dc.lft.to/lastmile_qr_scan", "android": "https://dc.lft.to/lastmile_qr_scan"}, "lon": -76.93262516666667, "bike_id": "97fbbbe86a6888b8c395e7aa77692336", "type": "electric_scooter", "name": "97fbbbe86a6888b8c395e7aa77692336"}, {"is_disabled": 0, "is_reserved": 0, "fusion_lat": 0.0, "lat": 38.92157433333333, "fusion_lon": 0.0, "rental_uris": {"ios": "https://dc.lft.to/lastmile_qr_scan", "android": "https://dc.lft.to/lastmile_qr_scan"}, "lon": -77.03655783333333, "bike_id": "201331c19dd16593c965d2a84cc22bf3", "type": "electric_scooter", "name": "201331c19dd16593c965d2a84cc22bf3"}, {"is_disabled": 0, "is_reserved": 0, "fusion_lat": 0.0, "lat": 38.92075533333333, "fusion_lon": 0.0, "rental_uris": {"ios": "https://dc.lft.to/lastmile_qr_scan", "android": "https://dc.lft.to/lastmile_qr_scan"}, "lon": -77.02573266666667, "bike_id": "0e1c9fb86f8f677520399f9cb99c9118", "type": "electric_scooter", "name": "0e1c9fb86f8f677520399f9cb99c9118"}, {"is_disabled": 0, "is_reserved": 0, "fusion_lat": 0.0, "lat": 38.88305416666667, "fusion_lon": 0.0, "rental_uris": {"ios": "https://dc.lft.to/lastmile_qr_scan", "android": "https://dc.lft.to/lastmile_qr_scan"}, "lon": -77.0315415, "bike_id": "d6ea5e88432124997cdfe7b820f7176c", "type": "electric_scooter", "name": "d6ea5e88432124997cdfe7b820f7176c"}, {"is_disabled": 0, "is_reserved": 0, "fusion_lat": 0.0, "lat": 38.89759733333333, "fusion_lon": 0.0, "rental_uris": {"ios": "https://dc.lft.to/lastmile_qr_scan", "android": "https://dc.lft.to/lastmile_qr_scan"}, "lon": -77.01991016666666, "bike_id": "f426ecf7661f006637c977c9a86c4af7", "type": "electric_scooter", "name": "f426ecf7661f006637c977c9a86c4af7"}, {"is_disabled": 0, "is_reserved": 0, "fusion_lat": 0.0, "lat": 38.9111925, "fusion_lon": 0.0, "rental_uris": {"ios": "https://dc.lft.to/lastmile_qr_scan", "android": "https://dc.lft.to/lastmile_qr_scan"}, "lon": -77.03299583333333, "bike_id": "91301e18ed047200e0ba73ecb6edf347", "type": "electric_scooter", "name": "91301e18ed047200e0ba73ecb6edf347"}, {"is_disabled": 0, "is_reserved": 0, "fusion_lat": 0.0, "lat": 38.98369916666667, "fusion_lon": 0.0, "rental_uris": {"ios": "https://dc.lft.to/lastmile_qr_scan", "android": "https://dc.lft.to/lastmile_qr_scan"}, "lon": -76.98853466666667, "bike_id": "f534edf670d5d7ea808faafca457adcd", "type": "electric_bike", "name": "f534edf670d5d7ea808faafca457adcd"}, {"is_disabled": 0, "is_reserved": 0, "fusion_lat": 0.0, "lat": 38.95439483333333, "fusion_lon": 0.0, "rental_uris": {"ios": "https://dc.lft.to/lastmile_qr_scan", "android": "https://dc.lft.to/lastmile_qr_scan"}, "lon": -77.01853483333333, "bike_id": "44e43a2f6782fd6b8aa84b49b1b42596", "type": "electric_scooter", "name": "44e43a2f6782fd6b8aa84b49b1b42596"}, {"is_disabled": 0, "is_reserved": 0, "fusion_lat": 0.0, "lat": 38.900391, "fusion_lon": 0.0, "rental_uris": {"ios": "https://dc.lft.to/lastmile_qr_scan", "android": "https://dc.lft.to/lastmile_qr_scan"}, "lon": -77.05582516666666, "bike_id": "263e4489c973d31648a13b7bf9ac48dc", "type": "electric_bike", "name": "263e4489c973d31648a13b7bf9ac48dc"}, {"is_disabled": 0, "is_reserved": 0, "fusion_lat": 0.0, "lat": 38.924940666666664, "fusion_lon": 0.0, "rental_uris": {"ios": "https://dc.lft.to/lastmile_qr_scan", "android": "https://dc.lft.to/lastmile_qr_scan"}, "lon": -77.02694333333334, "bike_id": "67c5f139edf244845be7b5e36f2b1f95", "type": "electric_scooter", "name": "67c5f139edf244845be7b5e36f2b1f95"}, {"is_disabled": 0, "is_reserved": 0, "fusion_lat": 0.0, "lat": 38.89265066666667, "fusion_lon": 0.0, "rental_uris": {"ios": "https://dc.lft.to/lastmile_qr_scan", "android": "https://dc.lft.to/lastmile_qr_scan"}, "lon": -77.05030116666667, "bike_id": "4b6850988829458af433db25a1c5e81d", "type": "electric_scooter", "name": "4b6850988829458af433db25a1c5e81d"}, {"is_disabled": 0, "is_reserved": 0, "fusion_lat": 0.0, "lat": 38.93736116666667, "fusion_lon": 0.0, "rental_uris": {"ios": "https://dc.lft.to/lastmile_qr_scan", "android": "https://dc.lft.to/lastmile_qr_scan"}, "lon": -77.07362966666666, "bike_id": "35929812107d0aaa39e9259333aa0508", "type": "electric_scooter", "name": "35929812107d0aaa39e9259333aa0508"}, {"is_disabled": 0, "is_reserved": 0, "fusion_lat": 0.0, "lat": 38.85901, "fusion_lon": 0.0, "rental_uris": {"ios": "https://dc.lft.to/lastmile_qr_scan", "android": "https://dc.lft.to/lastmile_qr_scan"}, "lon": -77.095558, "bike_id": "180ca8f14a27fb90dd9ada01e9e97fe3", "type": "electric_bike", "name": "180ca8f14a27fb90dd9ada01e9e97fe3"}, {"is_disabled": 0, "is_reserved": 0, "fusion_lat": 0.0, "lat": 38.957059666666666, "fusion_lon": 0.0, "rental_uris": {"ios": "https://dc.lft.to/lastmile_qr_scan", "android": "https://dc.lft.to/lastmile_qr_scan"}, "lon": -77.359753, "bike_id": "59bc78faf48d7cbc8c5503c2b0cf2d9d", "type": "electric_bike", "name": "59bc78faf48d7cbc8c5503c2b0cf2d9d"}, {"is_disabled": 0, "is_reserved": 0, "fusion_lat": 0.0, "lat": 39.08434916666667, "fusion_lon": 0.0, "rental_uris": {"ios": "https://dc.lft.to/lastmile_qr_scan", "android": "https://dc.lft.to/lastmile_qr_scan"}, "lon": -76.95140816666667, "bike_id": "2130f2e053859f33f775b1fea277945f", "type": "electric_bike", "name": "2130f2e053859f33f775b1fea277945f"}, {"is_disabled": 0, "is_reserved": 0, "fusion_lat": 0.0, "lat": 38.88390616666667, "fusion_lon": 0.0, "rental_uris": {"ios": "https://dc.lft.to/lastmile_qr_scan", "android": "https://dc.lft.to/lastmile_qr_scan"}, "lon": -76.930428, "bike_id": "fd88dd8691197656fa4d9617a41375b6", "type": "electric_scooter", "name": "fd88dd8691197656fa4d9617a41375b6"}, {"is_disabled": 0, "is_reserved": 0, "fusion_lat": 0.0, "lat": 38.88448483333333, "fusion_lon": 0.0, "rental_uris": {"ios": "https://dc.lft.to/lastmile_qr_scan", "android": "https://dc.lft.to/lastmile_qr_scan"}, "lon": -77.009028, "bike_id": "a0bfcae1b494df52e7b0e154ea27a3dc", "type": "electric_scooter", "name": "a0bfcae1b494df52e7b0e154ea27a3dc"}, {"is_disabled": 0, "is_reserved": 0, "fusion_lat": 0.0, "lat": 38.90862666666666, "fusion_lon": 0.0, "rental_uris": {"ios": "https://dc.lft.to/lastmile_qr_scan", "android": "https://dc.lft.to/lastmile_qr_scan"}, "lon": -77.00085133333333, "bike_id": "794ee300b774cd0ef9daf0b13ef8d8c7", "type": "electric_scooter", "name": "794ee300b774cd0ef9daf0b13ef8d8c7"}, {"is_disabled": 0, "is_reserved": 0, "fusion_lat": 0.0, "lat": 38.91778333333333, "fusion_lon": 0.0, "rental_uris": {"ios": "https://dc.lft.to/lastmile_qr_scan", "android": "https://dc.lft.to/lastmile_qr_scan"}, "lon": -77.026996, "bike_id": "adc41da0a437c7f9b3f6589924cffe35", "type": "electric_scooter", "name": "adc41da0a437c7f9b3f6589924cffe35"}, {"is_disabled": 0, "is_reserved": 0, "fusion_lat": 0.0, "lat": 38.883815, "fusion_lon": 0.0, "rental_uris": {"ios": "https://dc.lft.to/lastmile_qr_scan", "android": "https://dc.lft.to/lastmile_qr_scan"}, "lon": -76.92370733333334, "bike_id": "2c1b2af425b449dd96491fbb8913d094", "type": "electric_bike", "name": "2c1b2af425b449dd96491fbb8913d094"}, {"is_disabled": 0, "is_reserved": 0, "fusion_lat": 0.0, "lat": 38.90268916666667, "fusion_lon": 0.0, "rental_uris": {"ios": "https://dc.lft.to/lastmile_qr_scan", "android": "https://dc.lft.to/lastmile_qr_scan"}, "lon": -77.01839316666667, "bike_id": "447d4e2a7c595ba0bb0682c45ed65f86", "type": "electric_scooter", "name": "447d4e2a7c595ba0bb0682c45ed65f86"}, {"is_disabled": 0, "is_reserved": 0, "fusion_lat": 0.0, "lat": 38.916751166666664, "fusion_lon": 0.0, "rental_uris": {"ios": "https://dc.lft.to/lastmile_qr_scan", "android": "https://dc.lft.to/lastmile_qr_scan"}, "lon": -77.0318735, "bike_id": "d17e6e7cd826b62c23c6191340471275", "type": "electric_scooter", "name": "d17e6e7cd826b62c23c6191340471275"}, {"is_disabled": 0, "is_reserved": 0, "fusion_lat": 0.0, "lat": 38.9155665, "fusion_lon": 0.0, "rental_uris": {"ios": "https://dc.lft.to/lastmile_qr_scan", "android": "https://dc.lft.to/lastmile_qr_scan"}, "lon": -77.05409466666667, "bike_id": "eb25c73de828e0fdc11ee585fa896be6", "type": "electric_scooter", "name": "eb25c73de828e0fdc11ee585fa896be6"}, {"is_disabled": 0, "is_reserved": 0, "fusion_lat": 0.0, "lat": 38.892378, "fusion_lon": 0.0, "rental_uris": {"ios": "https://dc.lft.to/lastmile_qr_scan", "android": "https://dc.lft.to/lastmile_qr_scan"}, "lon": -77.03353916666667, "bike_id": "80f8237f94da68d0f7ddccb6ee036e3b", "type": "electric_scooter", "name": "80f8237f94da68d0f7ddccb6ee036e3b"}, {"is_disabled": 0, "is_reserved": 0, "fusion_lat": 0.0, "lat": 38.91211233333333, "fusion_lon": 0.0, "rental_uris": {"ios": "https://dc.lft.to/lastmile_qr_scan", "android": "https://dc.lft.to/lastmile_qr_scan"}, "lon": -77.02099083333333, "bike_id": "d1b457305c9ece2abf6fc30ecf6b8506", "type": "electric_scooter", "name": "d1b457305c9ece2abf6fc30ecf6b8506"}, {"is_disabled": 0, "is_reserved": 0, "fusion_lat": 0.0, "lat": 38.892534166666664, "fusion_lon": 0.0, "rental_uris": {"ios": "https://dc.lft.to/lastmile_qr_scan", "android": "https://dc.lft.to/lastmile_qr_scan"}, "lon": -77.03350533333334, "bike_id": "4faa3b8d48bef61e5306f8ba493b725c", "type": "electric_scooter", "name": "4faa3b8d48bef61e5306f8ba493b725c"}, {"is_disabled": 0, "is_reserved": 0, "fusion_lat": 0.0, "lat": 38.918237500000004, "fusion_lon": 0.0, "rental_uris": {"ios": "https://dc.lft.to/lastmile_qr_scan", "android": "https://dc.lft.to/lastmile_qr_scan"}, "lon": -77.0252685, "bike_id": "56236520de65914a7ceb6c807471acfe", "type": "electric_scooter", "name": "56236520de65914a7ceb6c807471acfe"}, {"is_disabled": 0, "is_reserved": 0, "fusion_lat": 0.0, "lat": 38.93076716666667, "fusion_lon": 0.0, "rental_uris": {"ios": "https://dc.lft.to/lastmile_qr_scan", "android": "https://dc.lft.to/lastmile_qr_scan"}, "lon": -77.03177833333334, "bike_id": "096553c3998f34a63bc9e6bdc6dbeb35", "type": "electric_scooter", "name": "096553c3998f34a63bc9e6bdc6dbeb35"}, {"is_disabled": 0, "is_reserved": 0, "fusion_lat": 0.0, "lat": 38.92170316666667, "fusion_lon": 0.0, "rental_uris": {"ios": "https://dc.lft.to/lastmile_qr_scan", "android": "https://dc.lft.to/lastmile_qr_scan"}, "lon": -77.03666916666667, "bike_id": "f49b0a54da55f2f4b85b2b2c4ed37467", "type": "electric_scooter", "name": "f49b0a54da55f2f4b85b2b2c4ed37467"}, {"is_disabled": 0, "is_reserved": 0, "fusion_lat": 0.0, "lat": 38.91792016666667, "fusion_lon": 0.0, "rental_uris": {"ios": "https://dc.lft.to/lastmile_qr_scan", "android": "https://dc.lft.to/lastmile_qr_scan"}, "lon": -77.02298233333333, "bike_id": "d3f9c31e9d429fdfc878aec25a083b20", "type": "electric_scooter", "name": "d3f9c31e9d429fdfc878aec25a083b20"}, {"is_disabled": 0, "is_reserved": 0, "fusion_lat": 0.0, "lat": 38.908420166666666, "fusion_lon": 0.0, "rental_uris": {"ios": "https://dc.lft.to/lastmile_qr_scan", "android": "https://dc.lft.to/lastmile_qr_scan"}, "lon": -77.029579, "bike_id": "94dab5dc395967e724f8a0a13bcc93bd", "type": "electric_scooter", "name": "94dab5dc395967e724f8a0a13bcc93bd"}, {"is_disabled": 0, "is_reserved": 0, "fusion_lat": 0.0, "lat": 38.899396833333334, "fusion_lon": 0.0, "rental_uris": {"ios": "https://dc.lft.to/lastmile_qr_scan", "android": "https://dc.lft.to/lastmile_qr_scan"}, "lon": -77.00359566666667, "bike_id": "10f506004ee0aba76f57f015993f2293", "type": "electric_scooter", "name": "10f506004ee0aba76f57f015993f2293"}, {"is_disabled": 0, "is_reserved": 0, "fusion_lat": 0.0, "lat": 38.905491, "fusion_lon": 0.0, "rental_uris": {"ios": "https://dc.lft.to/lastmile_qr_scan", "android": "https://dc.lft.to/lastmile_qr_scan"}, "lon": -77.02191733333333, "bike_id": "7a626b886abecf0b5fb39e25b29fe985", "type": "electric_scooter", "name": "7a626b886abecf0b5fb39e25b29fe985"}, {"is_disabled": 0, "is_reserved": 0, "fusion_lat": 0.0, "lat": 38.809818666666665, "fusion_lon": 0.0, "rental_uris": {"ios": "https://dc.lft.to/lastmile_qr_scan", "android": "https://dc.lft.to/lastmile_qr_scan"}, "lon": -77.07662483333333, "bike_id": "5a0266309d4479e44958624b8a0d429f", "type": "electric_bike", "name": "5a0266309d4479e44958624b8a0d429f"}, {"is_disabled": 0, "is_reserved": 0, "fusion_lat": 0.0, "lat": 38.90972, "fusion_lon": 0.0, "rental_uris": {"ios": "https://dc.lft.to/lastmile_qr_scan", "android": "https://dc.lft.to/lastmile_qr_scan"}, "lon": -77.01105683333333, "bike_id": "bad5eb14900f4d0a4cb7e5b4f41e4443", "type": "electric_scooter", "name": "bad5eb14900f4d0a4cb7e5b4f41e4443"}, {"is_disabled": 0, "is_reserved": 0, "fusion_lat": 0.0, "lat": 38.91767516666667, "fusion_lon": 0.0, "rental_uris": {"ios": "https://dc.lft.to/lastmile_qr_scan", "android": "https://dc.lft.to/lastmile_qr_scan"}, "lon": -77.01496866666666, "bike_id": "cd6479923d1dd4c9e61e77c1e905d081", "type": "electric_scooter", "name": "cd6479923d1dd4c9e61e77c1e905d081"}, {"is_disabled": 0, "is_reserved": 0, "fusion_lat": 0.0, "lat": 38.9253475, "fusion_lon": 0.0, "rental_uris": {"ios": "https://dc.lft.to/lastmile_qr_scan", "android": "https://dc.lft.to/lastmile_qr_scan"}, "lon": -77.02562816666666, "bike_id": "3d681e64bf6664b8535791a71596375e", "type": "electric_scooter", "name": "3d681e64bf6664b8535791a71596375e"}, {"is_disabled": 0, "is_reserved": 0, "fusion_lat": 0.0, "lat": 38.899384833333336, "fusion_lon": 0.0, "rental_uris": {"ios": "https://dc.lft.to/lastmile_qr_scan", "android": "https://dc.lft.to/lastmile_qr_scan"}, "lon": -77.0321765, "bike_id": "03f1efdc6dc7893622eca12bd14871aa", "type": "electric_scooter", "name": "03f1efdc6dc7893622eca12bd14871aa"}, {"is_disabled": 0, "is_reserved": 0, "fusion_lat": 0.0, "lat": 38.92756833333333, "fusion_lon": 0.0, "rental_uris": {"ios": "https://dc.lft.to/lastmile_qr_scan", "android": "https://dc.lft.to/lastmile_qr_scan"}, "lon": -77.03275266666667, "bike_id": "13118ede2fd947e343736eb413a78997", "type": "electric_scooter", "name": "13118ede2fd947e343736eb413a78997"}, {"is_disabled": 0, "is_reserved": 0, "fusion_lat": 0.0, "lat": 38.898678333333336, "fusion_lon": 0.0, "rental_uris": {"ios": "https://dc.lft.to/lastmile_qr_scan", "android": "https://dc.lft.to/lastmile_qr_scan"}, "lon": -77.04997266666666, "bike_id": "d4d5f4bb67c6c04ef7220cc3c9efacc6", "type": "electric_scooter", "name": "d4d5f4bb67c6c04ef7220cc3c9efacc6"}, {"is_disabled": 0, "is_reserved": 0, "fusion_lat": 0.0, "lat": 38.9422215, "fusion_lon": 0.0, "rental_uris": {"ios": "https://dc.lft.to/lastmile_qr_scan", "android": "https://dc.lft.to/lastmile_qr_scan"}, "lon": -76.96135083333333, "bike_id": "8ccfe77286d303e3a9e26469bb3a406b", "type": "electric_bike", "name": "8ccfe77286d303e3a9e26469bb3a406b"}, {"is_disabled": 0, "is_reserved": 0, "fusion_lat": 0.0, "lat": 38.895381, "fusion_lon": 0.0, "rental_uris": {"ios": "https://dc.lft.to/lastmile_qr_scan", "android": "https://dc.lft.to/lastmile_qr_scan"}, "lon": -77.026841, "bike_id": "b596d33727a98da2c8923e4c4d523df4", "type": "electric_scooter", "name": "b596d33727a98da2c8923e4c4d523df4"}, {"is_disabled": 0, "is_reserved": 0, "fusion_lat": 0.0, "lat": 38.902399, "fusion_lon": 0.0, "rental_uris": {"ios": "https://dc.lft.to/lastmile_qr_scan", "android": "https://dc.lft.to/lastmile_qr_scan"}, "lon": -77.053429, "bike_id": "8596a6d1e22cf266a8344de0ba65b5e3", "type": "electric_scooter", "name": "8596a6d1e22cf266a8344de0ba65b5e3"}, {"is_disabled": 0, "is_reserved": 0, "fusion_lat": 0.0, "lat": 38.89234666666667, "fusion_lon": 0.0, "rental_uris": {"ios": "https://dc.lft.to/lastmile_qr_scan", "android": "https://dc.lft.to/lastmile_qr_scan"}, "lon": -77.02970366666666, "bike_id": "b27213eb8ed7ad9706ac07c776f7d467", "type": "electric_scooter", "name": "b27213eb8ed7ad9706ac07c776f7d467"}, {"is_disabled": 0, "is_reserved": 0, "fusion_lat": 0.0, "lat": 38.928613666666664, "fusion_lon": 0.0, "rental_uris": {"ios": "https://dc.lft.to/lastmile_qr_scan", "android": "https://dc.lft.to/lastmile_qr_scan"}, "lon": -77.028851, "bike_id": "0698ad9cccb3393eb744b2815bc18a41", "type": "electric_scooter", "name": "0698ad9cccb3393eb744b2815bc18a41"}, {"is_disabled": 0, "is_reserved": 0, "fusion_lat": 0.0, "lat": 38.93621683333333, "fusion_lon": 0.0, "rental_uris": {"ios": "https://dc.lft.to/lastmile_qr_scan", "android": "https://dc.lft.to/lastmile_qr_scan"}, "lon": -77.03875366666666, "bike_id": "c70b82475d622cd0e01ac26703522eb2", "type": "electric_scooter", "name": "c70b82475d622cd0e01ac26703522eb2"}, {"is_disabled": 0, "is_reserved": 0, "fusion_lat": 0.0, "lat": 38.917836, "fusion_lon": 0.0, "rental_uris": {"ios": "https://dc.lft.to/lastmile_qr_scan", "android": "https://dc.lft.to/lastmile_qr_scan"}, "lon": -77.02298283333333, "bike_id": "823533a0e1273666f3b3dde9060eceff", "type": "electric_scooter", "name": "823533a0e1273666f3b3dde9060eceff"}, {"is_disabled": 0, "is_reserved": 0, "fusion_lat": 0.0, "lat": 38.84283833333333, "fusion_lon": 0.0, "rental_uris": {"ios": "https://dc.lft.to/lastmile_qr_scan", "android": "https://dc.lft.to/lastmile_qr_scan"}, "lon": -76.98842766666667, "bike_id": "4ffbbb5e9ff070fd7684400a64cb5036", "type": "electric_bike", "name": "4ffbbb5e9ff070fd7684400a64cb5036"}, {"is_disabled": 0, "is_reserved": 0, "fusion_lat": 0.0, "lat": 38.900153, "fusion_lon": 0.0, "rental_uris": {"ios": "https://dc.lft.to/lastmile_qr_scan", "android": "https://dc.lft.to/lastmile_qr_scan"}, "lon": -77.0219485, "bike_id": "ecc04adc2a75daa3c272bb970e4339a6", "type": "electric_scooter", "name": "ecc04adc2a75daa3c272bb970e4339a6"}, {"is_disabled": 0, "is_reserved": 0, "fusion_lat": 0.0, "lat": 38.934231833333335, "fusion_lon": 0.0, "rental_uris": {"ios": "https://dc.lft.to/lastmile_qr_scan", "android": "https://dc.lft.to/lastmile_qr_scan"}, "lon": -77.04279083333333, "bike_id": "6b9a1c75256cd28fb28d5be756b2be9d", "type": "electric_scooter", "name": "6b9a1c75256cd28fb28d5be756b2be9d"}, {"is_disabled": 0, "is_reserved": 0, "fusion_lat": 0.0, "lat": 38.922406333333335, "fusion_lon": 0.0, "rental_uris": {"ios": "https://dc.lft.to/lastmile_qr_scan", "android": "https://dc.lft.to/lastmile_qr_scan"}, "lon": -77.02268683333334, "bike_id": "451225f4d8f1daa9423560e6e89344f2", "type": "electric_scooter", "name": "451225f4d8f1daa9423560e6e89344f2"}, {"is_disabled": 0, "is_reserved": 0, "fusion_lat": 0.0, "lat": 38.88766733333333, "fusion_lon": 0.0, "rental_uris": {"ios": "https://dc.lft.to/lastmile_qr_scan", "android": "https://dc.lft.to/lastmile_qr_scan"}, "lon": -77.1565885, "bike_id": "267973b362cc6f5535acdb0087585e26", "type": "electric_bike", "name": "267973b362cc6f5535acdb0087585e26"}, {"is_disabled": 0, "is_reserved": 0, "fusion_lat": 0.0, "lat": 38.895198666666666, "fusion_lon": 0.0, "rental_uris": {"ios": "https://dc.lft.to/lastmile_qr_scan", "android": "https://dc.lft.to/lastmile_qr_scan"}, "lon": -77.02593083333333, "bike_id": "e480f62da9db25587340e0c52e4250e6", "type": "electric_scooter", "name": "e480f62da9db25587340e0c52e4250e6"}, {"is_disabled": 0, "is_reserved": 0, "fusion_lat": 0.0, "lat": 38.929888, "fusion_lon": 0.0, "rental_uris": {"ios": "https://dc.lft.to/lastmile_qr_scan", "android": "https://dc.lft.to/lastmile_qr_scan"}, "lon": -77.0347295, "bike_id": "0b4699edec64cbfaffc48d844f26c9c4", "type": "electric_scooter", "name": "0b4699edec64cbfaffc48d844f26c9c4"}, {"is_disabled": 0, "is_reserved": 0, "fusion_lat": 0.0, "lat": 38.9156095, "fusion_lon": 0.0, "rental_uris": {"ios": "https://dc.lft.to/lastmile_qr_scan", "android": "https://dc.lft.to/lastmile_qr_scan"}, "lon": -77.05104483333334, "bike_id": "8d4040d1ad0c81e827a8e2284a4b6cca", "type": "electric_scooter", "name": "8d4040d1ad0c81e827a8e2284a4b6cca"}, {"is_disabled": 0, "is_reserved": 0, "fusion_lat": 0.0, "lat": 38.92571866666667, "fusion_lon": 0.0, "rental_uris": {"ios": "https://dc.lft.to/lastmile_qr_scan", "android": "https://dc.lft.to/lastmile_qr_scan"}, "lon": -77.03781066666667, "bike_id": "f1e6ded31c75c66ee76dbd0ad610d489", "type": "electric_scooter", "name": "f1e6ded31c75c66ee76dbd0ad610d489"}, {"is_disabled": 0, "is_reserved": 0, "fusion_lat": 0.0, "lat": 38.916081, "fusion_lon": 0.0, "rental_uris": {"ios": "https://dc.lft.to/lastmile_qr_scan", "android": "https://dc.lft.to/lastmile_qr_scan"}, "lon": -77.04347333333334, "bike_id": "67d11dc74d3ccfba13cae13f0242eb8e", "type": "electric_scooter", "name": "67d11dc74d3ccfba13cae13f0242eb8e"}, {"is_disabled": 0, "is_reserved": 0, "fusion_lat": 0.0, "lat": 38.846809, "fusion_lon": 0.0, "rental_uris": {"ios": "https://dc.lft.to/lastmile_qr_scan", "android": "https://dc.lft.to/lastmile_qr_scan"}, "lon": -77.13936333333334, "bike_id": "1772754891de5b859ed729855e79c35c", "type": "electric_bike", "name": "1772754891de5b859ed729855e79c35c"}, {"is_disabled": 0, "is_reserved": 0, "fusion_lat": 0.0, "lat": 38.879389, "fusion_lon": 0.0, "rental_uris": {"ios": "https://dc.lft.to/lastmile_qr_scan", "android": "https://dc.lft.to/lastmile_qr_scan"}, "lon": -77.0054115, "bike_id": "431f58ae8d1101dd57b1235af0c463d2", "type": "electric_scooter", "name": "431f58ae8d1101dd57b1235af0c463d2"}, {"is_disabled": 0, "is_reserved": 0, "fusion_lat": 0.0, "lat": 38.89288783333333, "fusion_lon": 0.0, "rental_uris": {"ios": "https://dc.lft.to/lastmile_qr_scan", "android": "https://dc.lft.to/lastmile_qr_scan"}, "lon": -77.04197333333333, "bike_id": "179aadc76de33aa8a330dee0cee7020f", "type": "electric_scooter", "name": "179aadc76de33aa8a330dee0cee7020f"}, {"is_disabled": 0, "is_reserved": 0, "fusion_lat": 0.0, "lat": 38.89224866666667, "fusion_lon": 0.0, "rental_uris": {"ios": "https://dc.lft.to/lastmile_qr_scan", "android": "https://dc.lft.to/lastmile_qr_scan"}, "lon": -77.03339883333334, "bike_id": "c06501172b63cc5c58915df95e5873ec", "type": "electric_scooter", "name": "c06501172b63cc5c58915df95e5873ec"}, {"is_disabled": 0, "is_reserved": 0, "fusion_lat": 0.0, "lat": 38.92144283333333, "fusion_lon": 0.0, "rental_uris": {"ios": "https://dc.lft.to/lastmile_qr_scan", "android": "https://dc.lft.to/lastmile_qr_scan"}, "lon": -77.035078, "bike_id": "d4b507e09ede0814079ab377af2c2a31", "type": "electric_scooter", "name": "d4b507e09ede0814079ab377af2c2a31"}, {"is_disabled": 0, "is_reserved": 0, "fusion_lat": 0.0, "lat": 38.9188515, "fusion_lon": 0.0, "rental_uris": {"ios": "https://dc.lft.to/lastmile_qr_scan", "android": "https://dc.lft.to/lastmile_qr_scan"}, "lon": -77.041771, "bike_id": "fcba5f1fc7ac827e3031cfd22a088947", "type": "electric_scooter", "name": "fcba5f1fc7ac827e3031cfd22a088947"}, {"is_disabled": 0, "is_reserved": 0, "fusion_lat": 0.0, "lat": 38.82763516666667, "fusion_lon": 0.0, "rental_uris": {"ios": "https://dc.lft.to/lastmile_qr_scan", "android": "https://dc.lft.to/lastmile_qr_scan"}, "lon": -77.05032083333333, "bike_id": "959acec56175b6d9eb4fa775d5d6b0da", "type": "electric_bike", "name": "959acec56175b6d9eb4fa775d5d6b0da"}, {"is_disabled": 0, "is_reserved": 0, "fusion_lat": 0.0, "lat": 38.914818833333335, "fusion_lon": 0.0, "rental_uris": {"ios": "https://dc.lft.to/lastmile_qr_scan", "android": "https://dc.lft.to/lastmile_qr_scan"}, "lon": -77.04285183333333, "bike_id": "da7ecfbd5b32312f74e28fe3aeca127e", "type": "electric_scooter", "name": "da7ecfbd5b32312f74e28fe3aeca127e"}, {"is_disabled": 0, "is_reserved": 0, "fusion_lat": 0.0, "lat": 38.905728333333336, "fusion_lon": 0.0, "rental_uris": {"ios": "https://dc.lft.to/lastmile_qr_scan", "android": "https://dc.lft.to/lastmile_qr_scan"}, "lon": -77.03314783333333, "bike_id": "a150ce6e357faacca48a45ddf07a4a3e", "type": "electric_scooter", "name": "a150ce6e357faacca48a45ddf07a4a3e"}, {"is_disabled": 0, "is_reserved": 0, "fusion_lat": 0.0, "lat": 38.918290166666665, "fusion_lon": 0.0, "rental_uris": {"ios": "https://dc.lft.to/lastmile_qr_scan", "android": "https://dc.lft.to/lastmile_qr_scan"}, "lon": -77.02424566666667, "bike_id": "608a1c069ef6ff7be5a456e16aca05ee", "type": "electric_scooter", "name": "608a1c069ef6ff7be5a456e16aca05ee"}, {"is_disabled": 0, "is_reserved": 0, "fusion_lat": 0.0, "lat": 38.919567, "fusion_lon": 0.0, "rental_uris": {"ios": "https://dc.lft.to/lastmile_qr_scan", "android": "https://dc.lft.to/lastmile_qr_scan"}, "lon": -77.02301416666667, "bike_id": "531ec5a9a16613b2ae88a8103ea52025", "type": "electric_scooter", "name": "531ec5a9a16613b2ae88a8103ea52025"}, {"is_disabled": 0, "is_reserved": 0, "fusion_lat": 0.0, "lat": 38.899774, "fusion_lon": 0.0, "rental_uris": {"ios": "https://dc.lft.to/lastmile_qr_scan", "android": "https://dc.lft.to/lastmile_qr_scan"}, "lon": -77.04168183333333, "bike_id": "ba003ea49111dc8bbfe4524c36703e01", "type": "electric_bike", "name": "ba003ea49111dc8bbfe4524c36703e01"}, {"is_disabled": 0, "is_reserved": 0, "fusion_lat": 0.0, "lat": 38.94454566666667, "fusion_lon": 0.0, "rental_uris": {"ios": "https://dc.lft.to/lastmile_qr_scan", "android": "https://dc.lft.to/lastmile_qr_scan"}, "lon": -77.03283, "bike_id": "a13837f6f65ee0c6dab2ff1f5b8cf8f4", "type": "electric_scooter", "name": "a13837f6f65ee0c6dab2ff1f5b8cf8f4"}, {"is_disabled": 0, "is_reserved": 0, "fusion_lat": 0.0, "lat": 38.90657433333333, "fusion_lon": 0.0, "rental_uris": {"ios": "https://dc.lft.to/lastmile_qr_scan", "android": "https://dc.lft.to/lastmile_qr_scan"}, "lon": -76.97942416666666, "bike_id": "8c049da8394c9cb927d2ea34d0478750", "type": "electric_scooter", "name": "8c049da8394c9cb927d2ea34d0478750"}, {"is_disabled": 0, "is_reserved": 0, "fusion_lat": 0.0, "lat": 38.89736716666667, "fusion_lon": 0.0, "rental_uris": {"ios": "https://dc.lft.to/lastmile_qr_scan", "android": "https://dc.lft.to/lastmile_qr_scan"}, "lon": -77.02408083333333, "bike_id": "66e95ab4153da8e1d156853243ae6e40", "type": "electric_scooter", "name": "66e95ab4153da8e1d156853243ae6e40"}, {"is_disabled": 0, "is_reserved": 0, "fusion_lat": 0.0, "lat": 38.903993166666666, "fusion_lon": 0.0, "rental_uris": {"ios": "https://dc.lft.to/lastmile_qr_scan", "android": "https://dc.lft.to/lastmile_qr_scan"}, "lon": -77.06298866666667, "bike_id": "9b9bff38f8d70e06451c6bf80ff7ab94", "type": "electric_scooter", "name": "9b9bff38f8d70e06451c6bf80ff7ab94"}, {"is_disabled": 0, "is_reserved": 0, "fusion_lat": 0.0, "lat": 38.92873783333334, "fusion_lon": 0.0, "rental_uris": {"ios": "https://dc.lft.to/lastmile_qr_scan", "android": "https://dc.lft.to/lastmile_qr_scan"}, "lon": -77.039961, "bike_id": "67119cf05fc3ad78741d82661ef86428", "type": "electric_scooter", "name": "67119cf05fc3ad78741d82661ef86428"}, {"is_disabled": 0, "is_reserved": 0, "fusion_lat": 0.0, "lat": 38.92244566666667, "fusion_lon": 0.0, "rental_uris": {"ios": "https://dc.lft.to/lastmile_qr_scan", "android": "https://dc.lft.to/lastmile_qr_scan"}, "lon": -77.03519433333334, "bike_id": "db2f7e6e98723627089bd019b424c6af", "type": "electric_scooter", "name": "db2f7e6e98723627089bd019b424c6af"}, {"is_disabled": 0, "is_reserved": 0, "fusion_lat": 0.0, "lat": 38.9050735, "fusion_lon": 0.0, "rental_uris": {"ios": "https://dc.lft.to/lastmile_qr_scan", "android": "https://dc.lft.to/lastmile_qr_scan"}, "lon": -77.00919933333333, "bike_id": "9e66e2030dd63ce13dd32c9bf5891373", "type": "electric_scooter", "name": "9e66e2030dd63ce13dd32c9bf5891373"}, {"is_disabled": 0, "is_reserved": 0, "fusion_lat": 0.0, "lat": 38.904317166666665, "fusion_lon": 0.0, "rental_uris": {"ios": "https://dc.lft.to/lastmile_qr_scan", "android": "https://dc.lft.to/lastmile_qr_scan"}, "lon": -77.0611585, "bike_id": "405e07e267b775711644fdf956233257", "type": "electric_scooter", "name": "405e07e267b775711644fdf956233257"}, {"is_disabled": 0, "is_reserved": 0, "fusion_lat": 0.0, "lat": 38.90419383333333, "fusion_lon": 0.0, "rental_uris": {"ios": "https://dc.lft.to/lastmile_qr_scan", "android": "https://dc.lft.to/lastmile_qr_scan"}, "lon": -77.02957666666667, "bike_id": "56ba08dba065d4c566326718b7dac54c", "type": "electric_scooter", "name": "56ba08dba065d4c566326718b7dac54c"}, {"is_disabled": 0, "is_reserved": 0, "fusion_lat": 0.0, "lat": 38.91723433333333, "fusion_lon": 0.0, "rental_uris": {"ios": "https://dc.lft.to/lastmile_qr_scan", "android": "https://dc.lft.to/lastmile_qr_scan"}, "lon": -77.038634, "bike_id": "c71786bae195423458dfa9ec048f0a28", "type": "electric_scooter", "name": "c71786bae195423458dfa9ec048f0a28"}, {"is_disabled": 0, "is_reserved": 0, "fusion_lat": 0.0, "lat": 38.918281666666665, "fusion_lon": 0.0, "rental_uris": {"ios": "https://dc.lft.to/lastmile_qr_scan", "android": "https://dc.lft.to/lastmile_qr_scan"}, "lon": -77.01214483333334, "bike_id": "06ea74e4ee25d02c0cd2e96c29d48473", "type": "electric_scooter", "name": "06ea74e4ee25d02c0cd2e96c29d48473"}, {"is_disabled": 0, "is_reserved": 0, "fusion_lat": 0.0, "lat": 38.930916833333335, "fusion_lon": 0.0, "rental_uris": {"ios": "https://dc.lft.to/lastmile_qr_scan", "android": "https://dc.lft.to/lastmile_qr_scan"}, "lon": -77.02005766666667, "bike_id": "1ebef9294c1401a8b0593e114e385e63", "type": "electric_scooter", "name": "1ebef9294c1401a8b0593e114e385e63"}, {"is_disabled": 0, "is_reserved": 0, "fusion_lat": 0.0, "lat": 38.9002795, "fusion_lon": 0.0, "rental_uris": {"ios": "https://dc.lft.to/lastmile_qr_scan", "android": "https://dc.lft.to/lastmile_qr_scan"}, "lon": -77.0489685, "bike_id": "c5fe38eb191c5f5c0149dc5f89c23927", "type": "electric_scooter", "name": "c5fe38eb191c5f5c0149dc5f89c23927"}, {"is_disabled": 0, "is_reserved": 0, "fusion_lat": 0.0, "lat": 38.899770333333336, "fusion_lon": 0.0, "rental_uris": {"ios": "https://dc.lft.to/lastmile_qr_scan", "android": "https://dc.lft.to/lastmile_qr_scan"}, "lon": -77.0160935, "bike_id": "dfe0c7020ab9aa1bafdab6bfaff768fb", "type": "electric_scooter", "name": "dfe0c7020ab9aa1bafdab6bfaff768fb"}, {"is_disabled": 0, "is_reserved": 0, "fusion_lat": 0.0, "lat": 38.951564166666664, "fusion_lon": 0.0, "rental_uris": {"ios": "https://dc.lft.to/lastmile_qr_scan", "android": "https://dc.lft.to/lastmile_qr_scan"}, "lon": -77.0187, "bike_id": "61546b10d0d29f878f1f2cfcebaf971c", "type": "electric_scooter", "name": "61546b10d0d29f878f1f2cfcebaf971c"}, {"is_disabled": 0, "is_reserved": 0, "fusion_lat": 0.0, "lat": 38.827746, "fusion_lon": 0.0, "rental_uris": {"ios": "https://dc.lft.to/lastmile_qr_scan", "android": "https://dc.lft.to/lastmile_qr_scan"}, "lon": -77.0601185, "bike_id": "4a6374936527609545ab33b9de6ee5f4", "type": "electric_bike", "name": "4a6374936527609545ab33b9de6ee5f4"}, {"is_disabled": 0, "is_reserved": 0, "fusion_lat": 0.0, "lat": 38.9335375, "fusion_lon": 0.0, "rental_uris": {"ios": "https://dc.lft.to/lastmile_qr_scan", "android": "https://dc.lft.to/lastmile_qr_scan"}, "lon": -77.06036266666666, "bike_id": "78b842915c8d9fc8a6a70de465ac7a54", "type": "electric_scooter", "name": "78b842915c8d9fc8a6a70de465ac7a54"}, {"is_disabled": 0, "is_reserved": 0, "fusion_lat": 0.0, "lat": 38.91721916666667, "fusion_lon": 0.0, "rental_uris": {"ios": "https://dc.lft.to/lastmile_qr_scan", "android": "https://dc.lft.to/lastmile_qr_scan"}, "lon": -77.02607866666666, "bike_id": "fed12dc578b7f19f7ace7415a0180f87", "type": "electric_scooter", "name": "fed12dc578b7f19f7ace7415a0180f87"}, {"is_disabled": 0, "is_reserved": 0, "fusion_lat": 0.0, "lat": 38.95636583333334, "fusion_lon": 0.0, "rental_uris": {"ios": "https://dc.lft.to/lastmile_qr_scan", "android": "https://dc.lft.to/lastmile_qr_scan"}, "lon": -77.022117, "bike_id": "99ec530e8b9c186f3aa1c41aa713b0d2", "type": "electric_scooter", "name": "99ec530e8b9c186f3aa1c41aa713b0d2"}, {"is_disabled": 0, "is_reserved": 0, "fusion_lat": 0.0, "lat": 38.923678333333335, "fusion_lon": 0.0, "rental_uris": {"ios": "https://dc.lft.to/lastmile_qr_scan", "android": "https://dc.lft.to/lastmile_qr_scan"}, "lon": -77.05245, "bike_id": "4f99931b605aad452011da0d26811eea", "type": "electric_scooter", "name": "4f99931b605aad452011da0d26811eea"}, {"is_disabled": 0, "is_reserved": 0, "fusion_lat": 0.0, "lat": 38.905291, "fusion_lon": 0.0, "rental_uris": {"ios": "https://dc.lft.to/lastmile_qr_scan", "android": "https://dc.lft.to/lastmile_qr_scan"}, "lon": -77.00915566666667, "bike_id": "6dd7d11c46de70d0b2c5015a26dc34c5", "type": "electric_scooter", "name": "6dd7d11c46de70d0b2c5015a26dc34c5"}, {"is_disabled": 0, "is_reserved": 0, "fusion_lat": 0.0, "lat": 38.920423666666665, "fusion_lon": 0.0, "rental_uris": {"ios": "https://dc.lft.to/lastmile_qr_scan", "android": "https://dc.lft.to/lastmile_qr_scan"}, "lon": -77.02605333333334, "bike_id": "17aacaaea867a9ae440f45e21f9da59d", "type": "electric_scooter", "name": "17aacaaea867a9ae440f45e21f9da59d"}, {"is_disabled": 0, "is_reserved": 0, "fusion_lat": 0.0, "lat": 38.971573, "fusion_lon": 0.0, "rental_uris": {"ios": "https://dc.lft.to/lastmile_qr_scan", "android": "https://dc.lft.to/lastmile_qr_scan"}, "lon": -76.98362383333334, "bike_id": "e49d8dfac8156df4bb8fe48699739fe6", "type": "electric_bike", "name": "e49d8dfac8156df4bb8fe48699739fe6"}, {"is_disabled": 0, "is_reserved": 0, "fusion_lat": 0.0, "lat": 38.89489066666667, "fusion_lon": 0.0, "rental_uris": {"ios": "https://dc.lft.to/lastmile_qr_scan", "android": "https://dc.lft.to/lastmile_qr_scan"}, "lon": -77.00987916666666, "bike_id": "4fcd5bc1b09a54fe2cccd3d0e758c415", "type": "electric_scooter", "name": "4fcd5bc1b09a54fe2cccd3d0e758c415"}, {"is_disabled": 0, "is_reserved": 0, "fusion_lat": 0.0, "lat": 38.926527666666665, "fusion_lon": 0.0, "rental_uris": {"ios": "https://dc.lft.to/lastmile_qr_scan", "android": "https://dc.lft.to/lastmile_qr_scan"}, "lon": -77.09024433333333, "bike_id": "f973c2f041ac50134b6df7a47eba9cbe", "type": "electric_bike", "name": "f973c2f041ac50134b6df7a47eba9cbe"}, {"is_disabled": 0, "is_reserved": 0, "fusion_lat": 0.0, "lat": 38.916984166666666, "fusion_lon": 0.0, "rental_uris": {"ios": "https://dc.lft.to/lastmile_qr_scan", "android": "https://dc.lft.to/lastmile_qr_scan"}, "lon": -77.0257215, "bike_id": "2dd5184f3dd5a0e1a05f3668845eda27", "type": "electric_scooter", "name": "2dd5184f3dd5a0e1a05f3668845eda27"}, {"is_disabled": 0, "is_reserved": 0, "fusion_lat": 0.0, "lat": 38.90312633333333, "fusion_lon": 0.0, "rental_uris": {"ios": "https://dc.lft.to/lastmile_qr_scan", "android": "https://dc.lft.to/lastmile_qr_scan"}, "lon": -77.02149116666666, "bike_id": "ef323c490aee20604122e21b0814b8fe", "type": "electric_scooter", "name": "ef323c490aee20604122e21b0814b8fe"}, {"is_disabled": 0, "is_reserved": 0, "fusion_lat": 0.0, "lat": 38.93936866666667, "fusion_lon": 0.0, "rental_uris": {"ios": "https://dc.lft.to/lastmile_qr_scan", "android": "https://dc.lft.to/lastmile_qr_scan"}, "lon": -77.02585683333334, "bike_id": "f8fab0a2c2a7c351055b5ebf63d51b5d", "type": "electric_scooter", "name": "f8fab0a2c2a7c351055b5ebf63d51b5d"}, {"is_disabled": 0, "is_reserved": 0, "fusion_lat": 0.0, "lat": 38.9034875, "fusion_lon": 0.0, "rental_uris": {"ios": "https://dc.lft.to/lastmile_qr_scan", "android": "https://dc.lft.to/lastmile_qr_scan"}, "lon": -76.97493166666666, "bike_id": "38e0d811ecaa3c60d62708e0c83e5250", "type": "electric_scooter", "name": "38e0d811ecaa3c60d62708e0c83e5250"}, {"is_disabled": 0, "is_reserved": 0, "fusion_lat": 0.0, "lat": 38.894702333333335, "fusion_lon": 0.0, "rental_uris": {"ios": "https://dc.lft.to/lastmile_qr_scan", "android": "https://dc.lft.to/lastmile_qr_scan"}, "lon": -77.0110215, "bike_id": "3be7f74316f1c24713353836a10fa36a", "type": "electric_scooter", "name": "3be7f74316f1c24713353836a10fa36a"}, {"is_disabled": 0, "is_reserved": 0, "fusion_lat": 0.0, "lat": 38.913659, "fusion_lon": 0.0, "rental_uris": {"ios": "https://dc.lft.to/lastmile_qr_scan", "android": "https://dc.lft.to/lastmile_qr_scan"}, "lon": -77.046559, "bike_id": "8043b5944692fd099b00db5a6bb20d3e", "type": "electric_scooter", "name": "8043b5944692fd099b00db5a6bb20d3e"}, {"is_disabled": 0, "is_reserved": 0, "fusion_lat": 0.0, "lat": 38.90260583333333, "fusion_lon": 0.0, "rental_uris": {"ios": "https://dc.lft.to/lastmile_qr_scan", "android": "https://dc.lft.to/lastmile_qr_scan"}, "lon": -77.03860733333333, "bike_id": "5a144d5325a95d7a95359e2fe10791fa", "type": "electric_scooter", "name": "5a144d5325a95d7a95359e2fe10791fa"}, {"is_disabled": 0, "is_reserved": 0, "fusion_lat": 0.0, "lat": 38.9122675, "fusion_lon": 0.0, "rental_uris": {"ios": "https://dc.lft.to/lastmile_qr_scan", "android": "https://dc.lft.to/lastmile_qr_scan"}, "lon": -77.00662116666666, "bike_id": "218be11a385d27a7b8972a53a3a9dceb", "type": "electric_scooter", "name": "218be11a385d27a7b8972a53a3a9dceb"}, {"is_disabled": 0, "is_reserved": 0, "fusion_lat": 0.0, "lat": 38.935338333333334, "fusion_lon": 0.0, "rental_uris": {"ios": "https://dc.lft.to/lastmile_qr_scan", "android": "https://dc.lft.to/lastmile_qr_scan"}, "lon": -77.05446083333334, "bike_id": "b32a47ece4076053e32c8284e6fcf85c", "type": "electric_scooter", "name": "b32a47ece4076053e32c8284e6fcf85c"}, {"is_disabled": 0, "is_reserved": 0, "fusion_lat": 0.0, "lat": 38.90565566666667, "fusion_lon": 0.0, "rental_uris": {"ios": "https://dc.lft.to/lastmile_qr_scan", "android": "https://dc.lft.to/lastmile_qr_scan"}, "lon": -77.0201395, "bike_id": "9c214eb76f133b100abb8834cad339a0", "type": "electric_scooter", "name": "9c214eb76f133b100abb8834cad339a0"}, {"is_disabled": 0, "is_reserved": 0, "fusion_lat": 0.0, "lat": 38.92885016666666, "fusion_lon": 0.0, "rental_uris": {"ios": "https://dc.lft.to/lastmile_qr_scan", "android": "https://dc.lft.to/lastmile_qr_scan"}, "lon": -77.0335305, "bike_id": "6d3472899e67782393797a6784b39de2", "type": "electric_scooter", "name": "6d3472899e67782393797a6784b39de2"}, {"is_disabled": 0, "is_reserved": 0, "fusion_lat": 0.0, "lat": 38.9530785, "fusion_lon": 0.0, "rental_uris": {"ios": "https://dc.lft.to/lastmile_qr_scan", "android": "https://dc.lft.to/lastmile_qr_scan"}, "lon": -77.02017366666666, "bike_id": "95c7085c279d3fba210737b0aeb3708a", "type": "electric_scooter", "name": "95c7085c279d3fba210737b0aeb3708a"}, {"is_disabled": 0, "is_reserved": 0, "fusion_lat": 0.0, "lat": 38.903759, "fusion_lon": 0.0, "rental_uris": {"ios": "https://dc.lft.to/lastmile_qr_scan", "android": "https://dc.lft.to/lastmile_qr_scan"}, "lon": -77.01853266666667, "bike_id": "bb800c7c45604958aff270a58fff00c8", "type": "electric_scooter", "name": "bb800c7c45604958aff270a58fff00c8"}, {"is_disabled": 0, "is_reserved": 0, "fusion_lat": 0.0, "lat": 38.95380566666667, "fusion_lon": 0.0, "rental_uris": {"ios": "https://dc.lft.to/lastmile_qr_scan", "android": "https://dc.lft.to/lastmile_qr_scan"}, "lon": -76.998387, "bike_id": "784deeca40fb9866da25f98a22b077ca", "type": "electric_scooter", "name": "784deeca40fb9866da25f98a22b077ca"}, {"is_disabled": 0, "is_reserved": 0, "fusion_lat": 0.0, "lat": 38.900329, "fusion_lon": 0.0, "rental_uris": {"ios": "https://dc.lft.to/lastmile_qr_scan", "android": "https://dc.lft.to/lastmile_qr_scan"}, "lon": -77.01212066666666, "bike_id": "e644753b5f3d0286ddab0412dea2809b", "type": "electric_scooter", "name": "e644753b5f3d0286ddab0412dea2809b"}, {"is_disabled": 0, "is_reserved": 0, "fusion_lat": 0.0, "lat": 38.94605966666666, "fusion_lon": 0.0, "rental_uris": {"ios": "https://dc.lft.to/lastmile_qr_scan", "android": "https://dc.lft.to/lastmile_qr_scan"}, "lon": -77.0174125, "bike_id": "f6d5c29add1fa6e780b8592528b59b95", "type": "electric_bike", "name": "f6d5c29add1fa6e780b8592528b59b95"}, {"is_disabled": 0, "is_reserved": 0, "fusion_lat": 0.0, "lat": 38.93462983333333, "fusion_lon": 0.0, "rental_uris": {"ios": "https://dc.lft.to/lastmile_qr_scan", "android": "https://dc.lft.to/lastmile_qr_scan"}, "lon": -77.02418716666666, "bike_id": "1d6ab02272615978462a2cbc0c28d511", "type": "electric_scooter", "name": "1d6ab02272615978462a2cbc0c28d511"}, {"is_disabled": 0, "is_reserved": 0, "fusion_lat": 0.0, "lat": 38.885852, "fusion_lon": 0.0, "rental_uris": {"ios": "https://dc.lft.to/lastmile_qr_scan", "android": "https://dc.lft.to/lastmile_qr_scan"}, "lon": -77.01225566666666, "bike_id": "7fddf1fa785eddb4bffe2b092af1ac1a", "type": "electric_scooter", "name": "7fddf1fa785eddb4bffe2b092af1ac1a"}, {"is_disabled": 0, "is_reserved": 0, "fusion_lat": 0.0, "lat": 38.92078333333333, "fusion_lon": 0.0, "rental_uris": {"ios": "https://dc.lft.to/lastmile_qr_scan", "android": "https://dc.lft.to/lastmile_qr_scan"}, "lon": -77.00458333333333, "bike_id": "3bfa33a527e35918708a7705c1803058", "type": "electric_scooter", "name": "3bfa33a527e35918708a7705c1803058"}, {"is_disabled": 0, "is_reserved": 0, "fusion_lat": 0.0, "lat": 38.93203483333333, "fusion_lon": 0.0, "rental_uris": {"ios": "https://dc.lft.to/lastmile_qr_scan", "android": "https://dc.lft.to/lastmile_qr_scan"}, "lon": -77.02449116666666, "bike_id": "a0f697cde0f494036281c52e5921c80d", "type": "electric_scooter", "name": "a0f697cde0f494036281c52e5921c80d"}, {"is_disabled": 0, "is_reserved": 0, "fusion_lat": 0.0, "lat": 38.90852866666667, "fusion_lon": 0.0, "rental_uris": {"ios": "https://dc.lft.to/lastmile_qr_scan", "android": "https://dc.lft.to/lastmile_qr_scan"}, "lon": -77.02057766666667, "bike_id": "382b40ea8b90e542dc7e39cda7655915", "type": "electric_scooter", "name": "382b40ea8b90e542dc7e39cda7655915"}, {"is_disabled": 0, "is_reserved": 0, "fusion_lat": 0.0, "lat": 38.93700883333333, "fusion_lon": 0.0, "rental_uris": {"ios": "https://dc.lft.to/lastmile_qr_scan", "android": "https://dc.lft.to/lastmile_qr_scan"}, "lon": -77.05601483333334, "bike_id": "f875d64a59a586c7893d2085a53c7cee", "type": "electric_scooter", "name": "f875d64a59a586c7893d2085a53c7cee"}, {"is_disabled": 0, "is_reserved": 0, "fusion_lat": 0.0, "lat": 38.896297833333335, "fusion_lon": 0.0, "rental_uris": {"ios": "https://dc.lft.to/lastmile_qr_scan", "android": "https://dc.lft.to/lastmile_qr_scan"}, "lon": -77.071551, "bike_id": "0205c55059715126f5c9a9c2847739d7", "type": "electric_bike", "name": "0205c55059715126f5c9a9c2847739d7"}, {"is_disabled": 0, "is_reserved": 0, "fusion_lat": 0.0, "lat": 38.926652, "fusion_lon": 0.0, "rental_uris": {"ios": "https://dc.lft.to/lastmile_qr_scan", "android": "https://dc.lft.to/lastmile_qr_scan"}, "lon": -76.99296783333334, "bike_id": "529c31ba8a325e97486b3644a80a0e35", "type": "electric_scooter", "name": "529c31ba8a325e97486b3644a80a0e35"}, {"is_disabled": 0, "is_reserved": 0, "fusion_lat": 0.0, "lat": 38.879106166666666, "fusion_lon": 0.0, "rental_uris": {"ios": "https://dc.lft.to/lastmile_qr_scan", "android": "https://dc.lft.to/lastmile_qr_scan"}, "lon": -76.99133333333333, "bike_id": "90446666f87d430daa31a121cc9ed193", "type": "electric_scooter", "name": "90446666f87d430daa31a121cc9ed193"}, {"is_disabled": 0, "is_reserved": 0, "fusion_lat": 0.0, "lat": 38.961631, "fusion_lon": 0.0, "rental_uris": {"ios": "https://dc.lft.to/lastmile_qr_scan", "android": "https://dc.lft.to/lastmile_qr_scan"}, "lon": -77.0278695, "bike_id": "4ab77b9b56cc575acce5f261996a3553", "type": "electric_scooter", "name": "4ab77b9b56cc575acce5f261996a3553"}, {"is_disabled": 0, "is_reserved": 0, "fusion_lat": 0.0, "lat": 38.9729095, "fusion_lon": 0.0, "rental_uris": {"ios": "https://dc.lft.to/lastmile_qr_scan", "android": "https://dc.lft.to/lastmile_qr_scan"}, "lon": -77.03628766666667, "bike_id": "de928189f8919d200c0b780bb906bc8f", "type": "electric_bike", "name": "de928189f8919d200c0b780bb906bc8f"}, {"is_disabled": 0, "is_reserved": 0, "fusion_lat": 0.0, "lat": 38.91568316666667, "fusion_lon": 0.0, "rental_uris": {"ios": "https://dc.lft.to/lastmile_qr_scan", "android": "https://dc.lft.to/lastmile_qr_scan"}, "lon": -77.03634433333333, "bike_id": "a13f7cdf8ab0358c285c2f4eb5f9857b", "type": "electric_scooter", "name": "a13f7cdf8ab0358c285c2f4eb5f9857b"}, {"is_disabled": 0, "is_reserved": 0, "fusion_lat": 0.0, "lat": 38.842944, "fusion_lon": 0.0, "rental_uris": {"ios": "https://dc.lft.to/lastmile_qr_scan", "android": "https://dc.lft.to/lastmile_qr_scan"}, "lon": -77.06381183333333, "bike_id": "e4d24272ce47d24756eeb782f187162b", "type": "electric_bike", "name": "e4d24272ce47d24756eeb782f187162b"}, {"is_disabled": 0, "is_reserved": 0, "fusion_lat": 0.0, "lat": 38.897238333333334, "fusion_lon": 0.0, "rental_uris": {"ios": "https://dc.lft.to/lastmile_qr_scan", "android": "https://dc.lft.to/lastmile_qr_scan"}, "lon": -77.04539383333334, "bike_id": "347693bff7b89c5321430d0a7d4bda6e", "type": "electric_scooter", "name": "347693bff7b89c5321430d0a7d4bda6e"}, {"is_disabled": 0, "is_reserved": 0, "fusion_lat": 0.0, "lat": 38.90181066666667, "fusion_lon": 0.0, "rental_uris": {"ios": "https://dc.lft.to/lastmile_qr_scan", "android": "https://dc.lft.to/lastmile_qr_scan"}, "lon": -77.02511983333333, "bike_id": "5d283b3715b00ffc670349950c174171", "type": "electric_scooter", "name": "5d283b3715b00ffc670349950c174171"}, {"is_disabled": 0, "is_reserved": 0, "fusion_lat": 0.0, "lat": 38.90325933333333, "fusion_lon": 0.0, "rental_uris": {"ios": "https://dc.lft.to/lastmile_qr_scan", "android": "https://dc.lft.to/lastmile_qr_scan"}, "lon": -77.03677, "bike_id": "67e3468e2da6321378dde9a078f6c301", "type": "electric_bike", "name": "67e3468e2da6321378dde9a078f6c301"}, {"is_disabled": 0, "is_reserved": 0, "fusion_lat": 0.0, "lat": 38.952484, "fusion_lon": 0.0, "rental_uris": {"ios": "https://dc.lft.to/lastmile_qr_scan", "android": "https://dc.lft.to/lastmile_qr_scan"}, "lon": -77.09625816666667, "bike_id": "4d418a7f9b0a4c57d63a7314a9fae57a", "type": "electric_bike", "name": "4d418a7f9b0a4c57d63a7314a9fae57a"}, {"is_disabled": 0, "is_reserved": 0, "fusion_lat": 0.0, "lat": 38.9297485, "fusion_lon": 0.0, "rental_uris": {"ios": "https://dc.lft.to/lastmile_qr_scan", "android": "https://dc.lft.to/lastmile_qr_scan"}, "lon": -77.02921983333333, "bike_id": "f4f57e8f30eb19b23408cd787595f96a", "type": "electric_scooter", "name": "f4f57e8f30eb19b23408cd787595f96a"}, {"is_disabled": 0, "is_reserved": 0, "fusion_lat": 0.0, "lat": 38.891303, "fusion_lon": 0.0, "rental_uris": {"ios": "https://dc.lft.to/lastmile_qr_scan", "android": "https://dc.lft.to/lastmile_qr_scan"}, "lon": -76.999405, "bike_id": "bf4f625d9b11c47e531cb2c8fac38789", "type": "electric_scooter", "name": "bf4f625d9b11c47e531cb2c8fac38789"}, {"is_disabled": 0, "is_reserved": 0, "fusion_lat": 0.0, "lat": 38.86475016666667, "fusion_lon": 0.0, "rental_uris": {"ios": "https://dc.lft.to/lastmile_qr_scan", "android": "https://dc.lft.to/lastmile_qr_scan"}, "lon": -76.97757966666667, "bike_id": "f5b950f392ba8e03a4f2fd433a985195", "type": "electric_scooter", "name": "f5b950f392ba8e03a4f2fd433a985195"}, {"is_disabled": 0, "is_reserved": 0, "fusion_lat": 0.0, "lat": 38.954318, "fusion_lon": 0.0, "rental_uris": {"ios": "https://dc.lft.to/lastmile_qr_scan", "android": "https://dc.lft.to/lastmile_qr_scan"}, "lon": -76.98796316666666, "bike_id": "c0b1a91bf2046ee9084e003119a9b761", "type": "electric_scooter", "name": "c0b1a91bf2046ee9084e003119a9b761"}, {"is_disabled": 0, "is_reserved": 0, "fusion_lat": 0.0, "lat": 38.931462833333335, "fusion_lon": 0.0, "rental_uris": {"ios": "https://dc.lft.to/lastmile_qr_scan", "android": "https://dc.lft.to/lastmile_qr_scan"}, "lon": -77.05696316666666, "bike_id": "1228dd389f2ab93d332ba903932ad3c4", "type": "electric_scooter", "name": "1228dd389f2ab93d332ba903932ad3c4"}, {"is_disabled": 0, "is_reserved": 0, "fusion_lat": 0.0, "lat": 38.92855316666667, "fusion_lon": 0.0, "rental_uris": {"ios": "https://dc.lft.to/lastmile_qr_scan", "android": "https://dc.lft.to/lastmile_qr_scan"}, "lon": -77.0140035, "bike_id": "a2b1eeef39483ee253b3bfc65f5b8f89", "type": "electric_scooter", "name": "a2b1eeef39483ee253b3bfc65f5b8f89"}, {"is_disabled": 0, "is_reserved": 0, "fusion_lat": 0.0, "lat": 38.9054065, "fusion_lon": 0.0, "rental_uris": {"ios": "https://dc.lft.to/lastmile_qr_scan", "android": "https://dc.lft.to/lastmile_qr_scan"}, "lon": -77.059118, "bike_id": "17443d603f432cdcbecb9ed029dfcc6f", "type": "electric_bike", "name": "17443d603f432cdcbecb9ed029dfcc6f"}, {"is_disabled": 0, "is_reserved": 0, "fusion_lat": 0.0, "lat": 38.915735, "fusion_lon": 0.0, "rental_uris": {"ios": "https://dc.lft.to/lastmile_qr_scan", "android": "https://dc.lft.to/lastmile_qr_scan"}, "lon": -77.03185816666667, "bike_id": "e2002b84f018ecbe3483a282c19df73d", "type": "electric_scooter", "name": "e2002b84f018ecbe3483a282c19df73d"}, {"is_disabled": 0, "is_reserved": 0, "fusion_lat": 0.0, "lat": 38.8764155, "fusion_lon": 0.0, "rental_uris": {"ios": "https://dc.lft.to/lastmile_qr_scan", "android": "https://dc.lft.to/lastmile_qr_scan"}, "lon": -76.99293483333334, "bike_id": "d7cc3a0f5f42d8985a19b05031d3be30", "type": "electric_scooter", "name": "d7cc3a0f5f42d8985a19b05031d3be30"}, {"is_disabled": 0, "is_reserved": 0, "fusion_lat": 0.0, "lat": 38.90641983333333, "fusion_lon": 0.0, "rental_uris": {"ios": "https://dc.lft.to/lastmile_qr_scan", "android": "https://dc.lft.to/lastmile_qr_scan"}, "lon": -77.069062, "bike_id": "e5c18ea577aebbdd1b5c4d5fda30e3d4", "type": "electric_scooter", "name": "e5c18ea577aebbdd1b5c4d5fda30e3d4"}, {"is_disabled": 0, "is_reserved": 0, "fusion_lat": 0.0, "lat": 38.90589083333333, "fusion_lon": 0.0, "rental_uris": {"ios": "https://dc.lft.to/lastmile_qr_scan", "android": "https://dc.lft.to/lastmile_qr_scan"}, "lon": -77.03216483333334, "bike_id": "27fc67b6e991925ef167517169531bc6", "type": "electric_scooter", "name": "27fc67b6e991925ef167517169531bc6"}, {"is_disabled": 0, "is_reserved": 0, "fusion_lat": 0.0, "lat": 38.929126833333335, "fusion_lon": 0.0, "rental_uris": {"ios": "https://dc.lft.to/lastmile_qr_scan", "android": "https://dc.lft.to/lastmile_qr_scan"}, "lon": -77.0261575, "bike_id": "47ffb60269b527a8a2aac5ea4cf17206", "type": "electric_scooter", "name": "47ffb60269b527a8a2aac5ea4cf17206"}, {"is_disabled": 0, "is_reserved": 0, "fusion_lat": 0.0, "lat": 38.92395366666667, "fusion_lon": 0.0, "rental_uris": {"ios": "https://dc.lft.to/lastmile_qr_scan", "android": "https://dc.lft.to/lastmile_qr_scan"}, "lon": -77.00892, "bike_id": "398b53724442520e74382071fc43bb75", "type": "electric_scooter", "name": "398b53724442520e74382071fc43bb75"}, {"is_disabled": 0, "is_reserved": 0, "fusion_lat": 0.0, "lat": 38.9204235, "fusion_lon": 0.0, "rental_uris": {"ios": "https://dc.lft.to/lastmile_qr_scan", "android": "https://dc.lft.to/lastmile_qr_scan"}, "lon": -77.0260665, "bike_id": "443e23691ac7bcad5f329065d277b15d", "type": "electric_scooter", "name": "443e23691ac7bcad5f329065d277b15d"}, {"is_disabled": 0, "is_reserved": 0, "fusion_lat": 0.0, "lat": 38.89551483333334, "fusion_lon": 0.0, "rental_uris": {"ios": "https://dc.lft.to/lastmile_qr_scan", "android": "https://dc.lft.to/lastmile_qr_scan"}, "lon": -77.0163285, "bike_id": "2dee78ab663b31afa80c00f9f5f6b39a", "type": "electric_scooter", "name": "2dee78ab663b31afa80c00f9f5f6b39a"}, {"is_disabled": 0, "is_reserved": 0, "fusion_lat": 0.0, "lat": 38.8770045, "fusion_lon": 0.0, "rental_uris": {"ios": "https://dc.lft.to/lastmile_qr_scan", "android": "https://dc.lft.to/lastmile_qr_scan"}, "lon": -77.0176335, "bike_id": "0727fb16c3a276b925ff3913143ebe3c", "type": "electric_scooter", "name": "0727fb16c3a276b925ff3913143ebe3c"}, {"is_disabled": 0, "is_reserved": 0, "fusion_lat": 0.0, "lat": 38.9234915, "fusion_lon": 0.0, "rental_uris": {"ios": "https://dc.lft.to/lastmile_qr_scan", "android": "https://dc.lft.to/lastmile_qr_scan"}, "lon": -77.0354595, "bike_id": "969341ccc3e227af3acdf9e1066ad495", "type": "electric_scooter", "name": "969341ccc3e227af3acdf9e1066ad495"}, {"is_disabled": 0, "is_reserved": 0, "fusion_lat": 0.0, "lat": 38.925678166666664, "fusion_lon": 0.0, "rental_uris": {"ios": "https://dc.lft.to/lastmile_qr_scan", "android": "https://dc.lft.to/lastmile_qr_scan"}, "lon": -77.0228945, "bike_id": "74612a7bed27739928489dd30b7d21fb", "type": "electric_scooter", "name": "74612a7bed27739928489dd30b7d21fb"}, {"is_disabled": 0, "is_reserved": 0, "fusion_lat": 0.0, "lat": 38.8925315, "fusion_lon": 0.0, "rental_uris": {"ios": "https://dc.lft.to/lastmile_qr_scan", "android": "https://dc.lft.to/lastmile_qr_scan"}, "lon": -77.0395745, "bike_id": "e87d2a7e6dd36e32937343317ec4dc77", "type": "electric_scooter", "name": "e87d2a7e6dd36e32937343317ec4dc77"}, {"is_disabled": 0, "is_reserved": 0, "fusion_lat": 0.0, "lat": 38.898196166666665, "fusion_lon": 0.0, "rental_uris": {"ios": "https://dc.lft.to/lastmile_qr_scan", "android": "https://dc.lft.to/lastmile_qr_scan"}, "lon": -77.00213, "bike_id": "2e44eb6c9e418c0afa6a327ac8c2421d", "type": "electric_scooter", "name": "2e44eb6c9e418c0afa6a327ac8c2421d"}, {"is_disabled": 0, "is_reserved": 0, "fusion_lat": 0.0, "lat": 38.924442666666664, "fusion_lon": 0.0, "rental_uris": {"ios": "https://dc.lft.to/lastmile_qr_scan", "android": "https://dc.lft.to/lastmile_qr_scan"}, "lon": -77.034026, "bike_id": "3715e64126c286d40374840ae8cf3b7a", "type": "electric_scooter", "name": "3715e64126c286d40374840ae8cf3b7a"}, {"is_disabled": 0, "is_reserved": 0, "fusion_lat": 0.0, "lat": 38.92075916666667, "fusion_lon": 0.0, "rental_uris": {"ios": "https://dc.lft.to/lastmile_qr_scan", "android": "https://dc.lft.to/lastmile_qr_scan"}, "lon": -77.025622, "bike_id": "d1afd6dbf18d96edaeda156c6fea6328", "type": "electric_scooter", "name": "d1afd6dbf18d96edaeda156c6fea6328"}, {"is_disabled": 0, "is_reserved": 0, "fusion_lat": 0.0, "lat": 38.94203533333334, "fusion_lon": 0.0, "rental_uris": {"ios": "https://dc.lft.to/lastmile_qr_scan", "android": "https://dc.lft.to/lastmile_qr_scan"}, "lon": -77.02566366666667, "bike_id": "c01bf76d57d9d7d2c47ff6a5e3822b7a", "type": "electric_scooter", "name": "c01bf76d57d9d7d2c47ff6a5e3822b7a"}, {"is_disabled": 0, "is_reserved": 0, "fusion_lat": 0.0, "lat": 38.892392, "fusion_lon": 0.0, "rental_uris": {"ios": "https://dc.lft.to/lastmile_qr_scan", "android": "https://dc.lft.to/lastmile_qr_scan"}, "lon": -77.02209183333333, "bike_id": "7e2b5e1aba6b8e5a5f44649a0a88faf7", "type": "electric_scooter", "name": "7e2b5e1aba6b8e5a5f44649a0a88faf7"}, {"is_disabled": 0, "is_reserved": 0, "fusion_lat": 0.0, "lat": 38.90016333333333, "fusion_lon": 0.0, "rental_uris": {"ios": "https://dc.lft.to/lastmile_qr_scan", "android": "https://dc.lft.to/lastmile_qr_scan"}, "lon": -77.02194566666667, "bike_id": "c7852bb253c48d64ec9a1ab24aee415c", "type": "electric_scooter", "name": "c7852bb253c48d64ec9a1ab24aee415c"}, {"is_disabled": 0, "is_reserved": 0, "fusion_lat": 0.0, "lat": 38.91790733333333, "fusion_lon": 0.0, "rental_uris": {"ios": "https://dc.lft.to/lastmile_qr_scan", "android": "https://dc.lft.to/lastmile_qr_scan"}, "lon": -77.02356783333333, "bike_id": "19b3512b4aa1d411024eea15402c0062", "type": "electric_scooter", "name": "19b3512b4aa1d411024eea15402c0062"}, {"is_disabled": 0, "is_reserved": 0, "fusion_lat": 0.0, "lat": 38.91672716666667, "fusion_lon": 0.0, "rental_uris": {"ios": "https://dc.lft.to/lastmile_qr_scan", "android": "https://dc.lft.to/lastmile_qr_scan"}, "lon": -77.03185966666666, "bike_id": "23e09695b3d7732e698371976a067599", "type": "electric_scooter", "name": "23e09695b3d7732e698371976a067599"}, {"is_disabled": 0, "is_reserved": 0, "fusion_lat": 0.0, "lat": 38.94007766666667, "fusion_lon": 0.0, "rental_uris": {"ios": "https://dc.lft.to/lastmile_qr_scan", "android": "https://dc.lft.to/lastmile_qr_scan"}, "lon": -77.02896116666666, "bike_id": "4ef9b2c60bda1b77b37a07e7e46c871b", "type": "electric_scooter", "name": "4ef9b2c60bda1b77b37a07e7e46c871b"}, {"is_disabled": 0, "is_reserved": 0, "fusion_lat": 0.0, "lat": 38.904565166666664, "fusion_lon": 0.0, "rental_uris": {"ios": "https://dc.lft.to/lastmile_qr_scan", "android": "https://dc.lft.to/lastmile_qr_scan"}, "lon": -76.93276466666667, "bike_id": "f8a599e6c15ccd810dbebbd7542311c7", "type": "electric_scooter", "name": "f8a599e6c15ccd810dbebbd7542311c7"}, {"is_disabled": 0, "is_reserved": 0, "fusion_lat": 0.0, "lat": 38.91781116666667, "fusion_lon": 0.0, "rental_uris": {"ios": "https://dc.lft.to/lastmile_qr_scan", "android": "https://dc.lft.to/lastmile_qr_scan"}, "lon": -77.027042, "bike_id": "f46806ce6c6ba3250d95e8c81d1c7790", "type": "electric_scooter", "name": "f46806ce6c6ba3250d95e8c81d1c7790"}, {"is_disabled": 0, "is_reserved": 0, "fusion_lat": 0.0, "lat": 38.892321, "fusion_lon": 0.0, "rental_uris": {"ios": "https://dc.lft.to/lastmile_qr_scan", "android": "https://dc.lft.to/lastmile_qr_scan"}, "lon": -77.046518, "bike_id": "43a1d84467b428b2b4c867455e1150c6", "type": "electric_scooter", "name": "43a1d84467b428b2b4c867455e1150c6"}, {"is_disabled": 0, "is_reserved": 0, "fusion_lat": 0.0, "lat": 38.913537833333336, "fusion_lon": 0.0, "rental_uris": {"ios": "https://dc.lft.to/lastmile_qr_scan", "android": "https://dc.lft.to/lastmile_qr_scan"}, "lon": -77.03114116666667, "bike_id": "88690754e2b9a2b40aff80e7247cdc65", "type": "electric_scooter", "name": "88690754e2b9a2b40aff80e7247cdc65"}, {"is_disabled": 0, "is_reserved": 0, "fusion_lat": 0.0, "lat": 38.947235, "fusion_lon": 0.0, "rental_uris": {"ios": "https://dc.lft.to/lastmile_qr_scan", "android": "https://dc.lft.to/lastmile_qr_scan"}, "lon": -77.02352933333333, "bike_id": "d59329357e221bd3c5526326a408b9aa", "type": "electric_scooter", "name": "d59329357e221bd3c5526326a408b9aa"}, {"is_disabled": 0, "is_reserved": 0, "fusion_lat": 0.0, "lat": 38.91789333333333, "fusion_lon": 0.0, "rental_uris": {"ios": "https://dc.lft.to/lastmile_qr_scan", "android": "https://dc.lft.to/lastmile_qr_scan"}, "lon": -77.02472, "bike_id": "5f4afd0a68a4d4507312c62b9889d0b4", "type": "electric_scooter", "name": "5f4afd0a68a4d4507312c62b9889d0b4"}, {"is_disabled": 0, "is_reserved": 0, "fusion_lat": 0.0, "lat": 38.9206385, "fusion_lon": 0.0, "rental_uris": {"ios": "https://dc.lft.to/lastmile_qr_scan", "android": "https://dc.lft.to/lastmile_qr_scan"}, "lon": -77.03383166666667, "bike_id": "628470bc26d7f21188de3df9d726eee7", "type": "electric_scooter", "name": "628470bc26d7f21188de3df9d726eee7"}, {"is_disabled": 0, "is_reserved": 0, "fusion_lat": 0.0, "lat": 38.90183016666667, "fusion_lon": 0.0, "rental_uris": {"ios": "https://dc.lft.to/lastmile_qr_scan", "android": "https://dc.lft.to/lastmile_qr_scan"}, "lon": -77.050827, "bike_id": "42b8bafb4e21a067dcb04996e7ba6aaa", "type": "electric_scooter", "name": "42b8bafb4e21a067dcb04996e7ba6aaa"}, {"is_disabled": 0, "is_reserved": 0, "fusion_lat": 0.0, "lat": 38.91917816666667, "fusion_lon": 0.0, "rental_uris": {"ios": "https://dc.lft.to/lastmile_qr_scan", "android": "https://dc.lft.to/lastmile_qr_scan"}, "lon": -77.03444533333334, "bike_id": "2a46e12fbb1df7c942605bc2e687681c", "type": "electric_scooter", "name": "2a46e12fbb1df7c942605bc2e687681c"}, {"is_disabled": 0, "is_reserved": 0, "fusion_lat": 0.0, "lat": 38.924248666666664, "fusion_lon": 0.0, "rental_uris": {"ios": "https://dc.lft.to/lastmile_qr_scan", "android": "https://dc.lft.to/lastmile_qr_scan"}, "lon": -77.02302766666666, "bike_id": "d8383fdc25ac47a4c0792b515a23e2c7", "type": "electric_scooter", "name": "d8383fdc25ac47a4c0792b515a23e2c7"}, {"is_disabled": 0, "is_reserved": 0, "fusion_lat": 0.0, "lat": 38.92596533333333, "fusion_lon": 0.0, "rental_uris": {"ios": "https://dc.lft.to/lastmile_qr_scan", "android": "https://dc.lft.to/lastmile_qr_scan"}, "lon": -77.02492366666667, "bike_id": "f96cca06ac4da4dc7e63ec1996f9feb6", "type": "electric_scooter", "name": "f96cca06ac4da4dc7e63ec1996f9feb6"}, {"is_disabled": 0, "is_reserved": 0, "fusion_lat": 0.0, "lat": 38.91823, "fusion_lon": 0.0, "rental_uris": {"ios": "https://dc.lft.to/lastmile_qr_scan", "android": "https://dc.lft.to/lastmile_qr_scan"}, "lon": -77.0253055, "bike_id": "1049a26207eebee8c97797fab96b7878", "type": "electric_scooter", "name": "1049a26207eebee8c97797fab96b7878"}, {"is_disabled": 0, "is_reserved": 0, "fusion_lat": 0.0, "lat": 38.92655166666667, "fusion_lon": 0.0, "rental_uris": {"ios": "https://dc.lft.to/lastmile_qr_scan", "android": "https://dc.lft.to/lastmile_qr_scan"}, "lon": -77.02430683333333, "bike_id": "46d615bb70ffb7ad975fd55fa6d29fe0", "type": "electric_scooter", "name": "46d615bb70ffb7ad975fd55fa6d29fe0"}, {"is_disabled": 0, "is_reserved": 0, "fusion_lat": 0.0, "lat": 38.920077666666664, "fusion_lon": 0.0, "rental_uris": {"ios": "https://dc.lft.to/lastmile_qr_scan", "android": "https://dc.lft.to/lastmile_qr_scan"}, "lon": -77.0217015, "bike_id": "6a780b59fcad3537fe8189d68d310820", "type": "electric_scooter", "name": "6a780b59fcad3537fe8189d68d310820"}, {"is_disabled": 0, "is_reserved": 0, "fusion_lat": 0.0, "lat": 38.892300666666664, "fusion_lon": 0.0, "rental_uris": {"ios": "https://dc.lft.to/lastmile_qr_scan", "android": "https://dc.lft.to/lastmile_qr_scan"}, "lon": -77.04508666666666, "bike_id": "65192ed8d57d0971435ab189dc6081a6", "type": "electric_scooter", "name": "65192ed8d57d0971435ab189dc6081a6"}, {"is_disabled": 0, "is_reserved": 0, "fusion_lat": 0.0, "lat": 38.92659866666666, "fusion_lon": 0.0, "rental_uris": {"ios": "https://dc.lft.to/lastmile_qr_scan", "android": "https://dc.lft.to/lastmile_qr_scan"}, "lon": -77.02443983333333, "bike_id": "b11ef0f5c1d48fc2b04e3e739656e3e0", "type": "electric_scooter", "name": "b11ef0f5c1d48fc2b04e3e739656e3e0"}, {"is_disabled": 0, "is_reserved": 0, "fusion_lat": 0.0, "lat": 38.931248833333335, "fusion_lon": 0.0, "rental_uris": {"ios": "https://dc.lft.to/lastmile_qr_scan", "android": "https://dc.lft.to/lastmile_qr_scan"}, "lon": -77.0207225, "bike_id": "65e0be7dc61a5964478f805e8e02c0fc", "type": "electric_scooter", "name": "65e0be7dc61a5964478f805e8e02c0fc"}, {"is_disabled": 0, "is_reserved": 0, "fusion_lat": 0.0, "lat": 38.937017833333336, "fusion_lon": 0.0, "rental_uris": {"ios": "https://dc.lft.to/lastmile_qr_scan", "android": "https://dc.lft.to/lastmile_qr_scan"}, "lon": -77.056004, "bike_id": "96da73da2dd9d17fe2ec46c7c57ef69f", "type": "electric_scooter", "name": "96da73da2dd9d17fe2ec46c7c57ef69f"}, {"is_disabled": 0, "is_reserved": 0, "fusion_lat": 0.0, "lat": 38.9266095, "fusion_lon": 0.0, "rental_uris": {"ios": "https://dc.lft.to/lastmile_qr_scan", "android": "https://dc.lft.to/lastmile_qr_scan"}, "lon": -77.02425733333334, "bike_id": "112ff435914931f7a9025689305adf6f", "type": "electric_scooter", "name": "112ff435914931f7a9025689305adf6f"}, {"is_disabled": 0, "is_reserved": 0, "fusion_lat": 0.0, "lat": 38.911104333333334, "fusion_lon": 0.0, "rental_uris": {"ios": "https://dc.lft.to/lastmile_qr_scan", "android": "https://dc.lft.to/lastmile_qr_scan"}, "lon": -77.00379166666667, "bike_id": "d76551c5bd600b5dece4dee35ac8bfb9", "type": "electric_scooter", "name": "d76551c5bd600b5dece4dee35ac8bfb9"}, {"is_disabled": 0, "is_reserved": 0, "fusion_lat": 0.0, "lat": 38.923582833333334, "fusion_lon": 0.0, "rental_uris": {"ios": "https://dc.lft.to/lastmile_qr_scan", "android": "https://dc.lft.to/lastmile_qr_scan"}, "lon": -77.07306933333334, "bike_id": "b64dc238d0e298766283fd9cd039d26c", "type": "electric_scooter", "name": "b64dc238d0e298766283fd9cd039d26c"}, {"is_disabled": 0, "is_reserved": 0, "fusion_lat": 0.0, "lat": 38.907968333333336, "fusion_lon": 0.0, "rental_uris": {"ios": "https://dc.lft.to/lastmile_qr_scan", "android": "https://dc.lft.to/lastmile_qr_scan"}, "lon": -77.04974733333333, "bike_id": "8ee7093466ad5d6826a2994b3679a427", "type": "electric_scooter", "name": "8ee7093466ad5d6826a2994b3679a427"}, {"is_disabled": 0, "is_reserved": 0, "fusion_lat": 0.0, "lat": 38.9208465, "fusion_lon": 0.0, "rental_uris": {"ios": "https://dc.lft.to/lastmile_qr_scan", "android": "https://dc.lft.to/lastmile_qr_scan"}, "lon": -77.02359666666666, "bike_id": "ab5c1b095a01cf69a2be5f1db7bce9ec", "type": "electric_scooter", "name": "ab5c1b095a01cf69a2be5f1db7bce9ec"}, {"is_disabled": 0, "is_reserved": 0, "fusion_lat": 0.0, "lat": 38.89440916666667, "fusion_lon": 0.0, "rental_uris": {"ios": "https://dc.lft.to/lastmile_qr_scan", "android": "https://dc.lft.to/lastmile_qr_scan"}, "lon": -77.01095333333333, "bike_id": "e52b4d6f0f5791a5ea71b467e7edd1c2", "type": "electric_scooter", "name": "e52b4d6f0f5791a5ea71b467e7edd1c2"}, {"is_disabled": 0, "is_reserved": 0, "fusion_lat": 0.0, "lat": 38.913404, "fusion_lon": 0.0, "rental_uris": {"ios": "https://dc.lft.to/lastmile_qr_scan", "android": "https://dc.lft.to/lastmile_qr_scan"}, "lon": -77.01626883333333, "bike_id": "2e7ca786016f6ad538f82eeb6e48ba07", "type": "electric_scooter", "name": "2e7ca786016f6ad538f82eeb6e48ba07"}, {"is_disabled": 0, "is_reserved": 0, "fusion_lat": 0.0, "lat": 38.88536783333333, "fusion_lon": 0.0, "rental_uris": {"ios": "https://dc.lft.to/lastmile_qr_scan", "android": "https://dc.lft.to/lastmile_qr_scan"}, "lon": -76.98058766666666, "bike_id": "2ed2b8cf20f985760ff84b95d278d724", "type": "electric_scooter", "name": "2ed2b8cf20f985760ff84b95d278d724"}, {"is_disabled": 0, "is_reserved": 0, "fusion_lat": 0.0, "lat": 38.9568785, "fusion_lon": 0.0, "rental_uris": {"ios": "https://dc.lft.to/lastmile_qr_scan", "android": "https://dc.lft.to/lastmile_qr_scan"}, "lon": -77.02234566666667, "bike_id": "6c1b0924d13461eeaa17e80aeb7a0f89", "type": "electric_scooter", "name": "6c1b0924d13461eeaa17e80aeb7a0f89"}, {"is_disabled": 0, "is_reserved": 0, "fusion_lat": 0.0, "lat": 38.916520166666665, "fusion_lon": 0.0, "rental_uris": {"ios": "https://dc.lft.to/lastmile_qr_scan", "android": "https://dc.lft.to/lastmile_qr_scan"}, "lon": -77.023966, "bike_id": "fb7a9b551316364462bf2835416529f5", "type": "electric_scooter", "name": "fb7a9b551316364462bf2835416529f5"}, {"is_disabled": 0, "is_reserved": 0, "fusion_lat": 0.0, "lat": 38.9575465, "fusion_lon": 0.0, "rental_uris": {"ios": "https://dc.lft.to/lastmile_qr_scan", "android": "https://dc.lft.to/lastmile_qr_scan"}, "lon": -77.0221035, "bike_id": "84a46d73df0401b30406fd04c9a80628", "type": "electric_scooter", "name": "84a46d73df0401b30406fd04c9a80628"}, {"is_disabled": 0, "is_reserved": 0, "fusion_lat": 0.0, "lat": 38.922188, "fusion_lon": 0.0, "rental_uris": {"ios": "https://dc.lft.to/lastmile_qr_scan", "android": "https://dc.lft.to/lastmile_qr_scan"}, "lon": -77.08189283333333, "bike_id": "5b18dde457dd65628500bab61a7ea32e", "type": "electric_bike", "name": "5b18dde457dd65628500bab61a7ea32e"}, {"is_disabled": 0, "is_reserved": 0, "fusion_lat": 0.0, "lat": 38.8749795, "fusion_lon": 0.0, "rental_uris": {"ios": "https://dc.lft.to/lastmile_qr_scan", "android": "https://dc.lft.to/lastmile_qr_scan"}, "lon": -77.00077216666666, "bike_id": "2062485f7bfafbdfad149543c34904a3", "type": "electric_scooter", "name": "2062485f7bfafbdfad149543c34904a3"}, {"is_disabled": 0, "is_reserved": 0, "fusion_lat": 0.0, "lat": 38.896208333333334, "fusion_lon": 0.0, "rental_uris": {"ios": "https://dc.lft.to/lastmile_qr_scan", "android": "https://dc.lft.to/lastmile_qr_scan"}, "lon": -76.90750366666667, "bike_id": "b54e72d126b43026a36d6385747698fd", "type": "electric_bike", "name": "b54e72d126b43026a36d6385747698fd"}, {"is_disabled": 0, "is_reserved": 0, "fusion_lat": 0.0, "lat": 38.92307983333333, "fusion_lon": 0.0, "rental_uris": {"ios": "https://dc.lft.to/lastmile_qr_scan", "android": "https://dc.lft.to/lastmile_qr_scan"}, "lon": -77.029801, "bike_id": "86f84d20bd7cf3730c28d2f162429721", "type": "electric_scooter", "name": "86f84d20bd7cf3730c28d2f162429721"}, {"is_disabled": 0, "is_reserved": 0, "fusion_lat": 0.0, "lat": 38.929106166666664, "fusion_lon": 0.0, "rental_uris": {"ios": "https://dc.lft.to/lastmile_qr_scan", "android": "https://dc.lft.to/lastmile_qr_scan"}, "lon": -77.05986466666667, "bike_id": "f44577160e2b99ad6cd93d2e0bb1973b", "type": "electric_scooter", "name": "f44577160e2b99ad6cd93d2e0bb1973b"}, {"is_disabled": 0, "is_reserved": 0, "fusion_lat": 0.0, "lat": 38.907231333333335, "fusion_lon": 0.0, "rental_uris": {"ios": "https://dc.lft.to/lastmile_qr_scan", "android": "https://dc.lft.to/lastmile_qr_scan"}, "lon": -77.02561, "bike_id": "2a22e748a8003c6396fce8e672813c16", "type": "electric_scooter", "name": "2a22e748a8003c6396fce8e672813c16"}, {"is_disabled": 0, "is_reserved": 0, "fusion_lat": 0.0, "lat": 38.9182315, "fusion_lon": 0.0, "rental_uris": {"ios": "https://dc.lft.to/lastmile_qr_scan", "android": "https://dc.lft.to/lastmile_qr_scan"}, "lon": -77.01210566666667, "bike_id": "d9de1a3d0cdf4f8e1452cec18b27dfe9", "type": "electric_scooter", "name": "d9de1a3d0cdf4f8e1452cec18b27dfe9"}, {"is_disabled": 0, "is_reserved": 0, "fusion_lat": 0.0, "lat": 38.92353816666667, "fusion_lon": 0.0, "rental_uris": {"ios": "https://dc.lft.to/lastmile_qr_scan", "android": "https://dc.lft.to/lastmile_qr_scan"}, "lon": -77.02441783333333, "bike_id": "a25c4b3a5e7e084cddb9d76c11c0613c", "type": "electric_scooter", "name": "a25c4b3a5e7e084cddb9d76c11c0613c"}, {"is_disabled": 0, "is_reserved": 0, "fusion_lat": 0.0, "lat": 38.88407483333334, "fusion_lon": 0.0, "rental_uris": {"ios": "https://dc.lft.to/lastmile_qr_scan", "android": "https://dc.lft.to/lastmile_qr_scan"}, "lon": -77.03020116666667, "bike_id": "b399b88c9da214eff03e9b303ae131cb", "type": "electric_scooter", "name": "b399b88c9da214eff03e9b303ae131cb"}, {"is_disabled": 0, "is_reserved": 0, "fusion_lat": 0.0, "lat": 38.91568566666667, "fusion_lon": 0.0, "rental_uris": {"ios": "https://dc.lft.to/lastmile_qr_scan", "android": "https://dc.lft.to/lastmile_qr_scan"}, "lon": -77.036355, "bike_id": "87fea11de33ab211148e869e5a639657", "type": "electric_scooter", "name": "87fea11de33ab211148e869e5a639657"}, {"is_disabled": 0, "is_reserved": 0, "fusion_lat": 0.0, "lat": 38.906397, "fusion_lon": 0.0, "rental_uris": {"ios": "https://dc.lft.to/lastmile_qr_scan", "android": "https://dc.lft.to/lastmile_qr_scan"}, "lon": -77.06910566666667, "bike_id": "9d79ef35e0b555dfc988019886ba4486", "type": "electric_scooter", "name": "9d79ef35e0b555dfc988019886ba4486"}, {"is_disabled": 0, "is_reserved": 0, "fusion_lat": 0.0, "lat": 38.884119, "fusion_lon": 0.0, "rental_uris": {"ios": "https://dc.lft.to/lastmile_qr_scan", "android": "https://dc.lft.to/lastmile_qr_scan"}, "lon": -76.99529083333333, "bike_id": "d1dc3313a58a01dcc11ca3bf7a334640", "type": "electric_bike", "name": "d1dc3313a58a01dcc11ca3bf7a334640"}, {"is_disabled": 0, "is_reserved": 0, "fusion_lat": 0.0, "lat": 38.894268833333335, "fusion_lon": 0.0, "rental_uris": {"ios": "https://dc.lft.to/lastmile_qr_scan", "android": "https://dc.lft.to/lastmile_qr_scan"}, "lon": -77.05597866666666, "bike_id": "43983e6b8ce09d69535cd0007b3f3ea6", "type": "electric_scooter", "name": "43983e6b8ce09d69535cd0007b3f3ea6"}, {"is_disabled": 0, "is_reserved": 0, "fusion_lat": 0.0, "lat": 38.952433666666664, "fusion_lon": 0.0, "rental_uris": {"ios": "https://dc.lft.to/lastmile_qr_scan", "android": "https://dc.lft.to/lastmile_qr_scan"}, "lon": -76.97953483333333, "bike_id": "4ce8a662ed809e743ca4493c69cdcf74", "type": "electric_bike", "name": "4ce8a662ed809e743ca4493c69cdcf74"}, {"is_disabled": 0, "is_reserved": 0, "fusion_lat": 0.0, "lat": 38.896199, "fusion_lon": 0.0, "rental_uris": {"ios": "https://dc.lft.to/lastmile_qr_scan", "android": "https://dc.lft.to/lastmile_qr_scan"}, "lon": -77.03170833333333, "bike_id": "dadc9d36bbcfe2389a836aa1dc2db82e", "type": "electric_scooter", "name": "dadc9d36bbcfe2389a836aa1dc2db82e"}, {"is_disabled": 0, "is_reserved": 0, "fusion_lat": 0.0, "lat": 38.911253, "fusion_lon": 0.0, "rental_uris": {"ios": "https://dc.lft.to/lastmile_qr_scan", "android": "https://dc.lft.to/lastmile_qr_scan"}, "lon": -77.011168, "bike_id": "f2995a2a6007c268b8b6bbbcac9ff955", "type": "electric_scooter", "name": "f2995a2a6007c268b8b6bbbcac9ff955"}, {"is_disabled": 0, "is_reserved": 0, "fusion_lat": 0.0, "lat": 38.90549566666667, "fusion_lon": 0.0, "rental_uris": {"ios": "https://dc.lft.to/lastmile_qr_scan", "android": "https://dc.lft.to/lastmile_qr_scan"}, "lon": -77.02197933333333, "bike_id": "85681901a22170c20a87edb4e30331e2", "type": "electric_scooter", "name": "85681901a22170c20a87edb4e30331e2"}, {"is_disabled": 0, "is_reserved": 0, "fusion_lat": 0.0, "lat": 38.93487966666667, "fusion_lon": 0.0, "rental_uris": {"ios": "https://dc.lft.to/lastmile_qr_scan", "android": "https://dc.lft.to/lastmile_qr_scan"}, "lon": -77.03607133333334, "bike_id": "e302718d49c8257b614d2f38bbd858fb", "type": "electric_scooter", "name": "e302718d49c8257b614d2f38bbd858fb"}, {"is_disabled": 0, "is_reserved": 0, "fusion_lat": 0.0, "lat": 38.929019833333335, "fusion_lon": 0.0, "rental_uris": {"ios": "https://dc.lft.to/lastmile_qr_scan", "android": "https://dc.lft.to/lastmile_qr_scan"}, "lon": -77.032357, "bike_id": "f4ca7e013c71b7def67b10680a96a2c9", "type": "electric_scooter", "name": "f4ca7e013c71b7def67b10680a96a2c9"}, {"is_disabled": 0, "is_reserved": 0, "fusion_lat": 0.0, "lat": 38.89699783333333, "fusion_lon": 0.0, "rental_uris": {"ios": "https://dc.lft.to/lastmile_qr_scan", "android": "https://dc.lft.to/lastmile_qr_scan"}, "lon": -77.0434655, "bike_id": "04f76560a88dfa39cc66b22e72f35a68", "type": "electric_scooter", "name": "04f76560a88dfa39cc66b22e72f35a68"}, {"is_disabled": 0, "is_reserved": 0, "fusion_lat": 0.0, "lat": 38.957903333333334, "fusion_lon": 0.0, "rental_uris": {"ios": "https://dc.lft.to/lastmile_qr_scan", "android": "https://dc.lft.to/lastmile_qr_scan"}, "lon": -77.02457166666667, "bike_id": "728d9ea5cf02ea87852b4c7b1dc6ebbd", "type": "electric_scooter", "name": "728d9ea5cf02ea87852b4c7b1dc6ebbd"}, {"is_disabled": 0, "is_reserved": 0, "fusion_lat": 0.0, "lat": 38.90983666666666, "fusion_lon": 0.0, "rental_uris": {"ios": "https://dc.lft.to/lastmile_qr_scan", "android": "https://dc.lft.to/lastmile_qr_scan"}, "lon": -77.03195333333333, "bike_id": "27bd5e46d26fc3a4b3a85ef02b46bf72", "type": "electric_scooter", "name": "27bd5e46d26fc3a4b3a85ef02b46bf72"}, {"is_disabled": 0, "is_reserved": 0, "fusion_lat": 0.0, "lat": 38.927839, "fusion_lon": 0.0, "rental_uris": {"ios": "https://dc.lft.to/lastmile_qr_scan", "android": "https://dc.lft.to/lastmile_qr_scan"}, "lon": -77.02723083333333, "bike_id": "9fb121690fe9adf34a68c6760b7b0d76", "type": "electric_scooter", "name": "9fb121690fe9adf34a68c6760b7b0d76"}, {"is_disabled": 0, "is_reserved": 0, "fusion_lat": 0.0, "lat": 38.892472833333336, "fusion_lon": 0.0, "rental_uris": {"ios": "https://dc.lft.to/lastmile_qr_scan", "android": "https://dc.lft.to/lastmile_qr_scan"}, "lon": -77.03956166666667, "bike_id": "a304159f464c78f483e210590abae118", "type": "electric_scooter", "name": "a304159f464c78f483e210590abae118"}, {"is_disabled": 0, "is_reserved": 0, "fusion_lat": 0.0, "lat": 38.87658666666667, "fusion_lon": 0.0, "rental_uris": {"ios": "https://dc.lft.to/lastmile_qr_scan", "android": "https://dc.lft.to/lastmile_qr_scan"}, "lon": -77.00887383333334, "bike_id": "d99dfd1c6090bcbe8640a7653fa181e3", "type": "electric_scooter", "name": "d99dfd1c6090bcbe8640a7653fa181e3"}, {"is_disabled": 0, "is_reserved": 0, "fusion_lat": 0.0, "lat": 38.88361833333333, "fusion_lon": 0.0, "rental_uris": {"ios": "https://dc.lft.to/lastmile_qr_scan", "android": "https://dc.lft.to/lastmile_qr_scan"}, "lon": -76.9278875, "bike_id": "15c7fcfbb90d5a47ca4567a4eda44815", "type": "electric_scooter", "name": "15c7fcfbb90d5a47ca4567a4eda44815"}, {"is_disabled": 0, "is_reserved": 0, "fusion_lat": 0.0, "lat": 38.91323, "fusion_lon": 0.0, "rental_uris": {"ios": "https://dc.lft.to/lastmile_qr_scan", "android": "https://dc.lft.to/lastmile_qr_scan"}, "lon": -77.032665, "bike_id": "8ef2894a0d619bea48b0880b91c95724", "type": "electric_scooter", "name": "8ef2894a0d619bea48b0880b91c95724"}, {"is_disabled": 0, "is_reserved": 0, "fusion_lat": 0.0, "lat": 38.92869816666666, "fusion_lon": 0.0, "rental_uris": {"ios": "https://dc.lft.to/lastmile_qr_scan", "android": "https://dc.lft.to/lastmile_qr_scan"}, "lon": -77.07896333333333, "bike_id": "628f3316fc45e2b8ce82a183e99f761f", "type": "electric_scooter", "name": "628f3316fc45e2b8ce82a183e99f761f"}, {"is_disabled": 0, "is_reserved": 0, "fusion_lat": 0.0, "lat": 38.90174733333333, "fusion_lon": 0.0, "rental_uris": {"ios": "https://dc.lft.to/lastmile_qr_scan", "android": "https://dc.lft.to/lastmile_qr_scan"}, "lon": -77.0250995, "bike_id": "c0116fc1c169d4db2129b033045ca425", "type": "electric_scooter", "name": "c0116fc1c169d4db2129b033045ca425"}, {"is_disabled": 0, "is_reserved": 0, "fusion_lat": 0.0, "lat": 38.91127566666667, "fusion_lon": 0.0, "rental_uris": {"ios": "https://dc.lft.to/lastmile_qr_scan", "android": "https://dc.lft.to/lastmile_qr_scan"}, "lon": -77.042443, "bike_id": "9db6f2d37f8eb8b97ca845fe80fc396f", "type": "electric_scooter", "name": "9db6f2d37f8eb8b97ca845fe80fc396f"}, {"is_disabled": 0, "is_reserved": 0, "fusion_lat": 0.0, "lat": 38.917907, "fusion_lon": 0.0, "rental_uris": {"ios": "https://dc.lft.to/lastmile_qr_scan", "android": "https://dc.lft.to/lastmile_qr_scan"}, "lon": -77.02300216666667, "bike_id": "4780ecdd4db08ec1ca1368c861ca6c6b", "type": "electric_scooter", "name": "4780ecdd4db08ec1ca1368c861ca6c6b"}, {"is_disabled": 0, "is_reserved": 0, "fusion_lat": 0.0, "lat": 38.89257533333333, "fusion_lon": 0.0, "rental_uris": {"ios": "https://dc.lft.to/lastmile_qr_scan", "android": "https://dc.lft.to/lastmile_qr_scan"}, "lon": -77.0465755, "bike_id": "ed2dec79ed81f722e8a84d4fdf24bc73", "type": "electric_scooter", "name": "ed2dec79ed81f722e8a84d4fdf24bc73"}, {"is_disabled": 0, "is_reserved": 0, "fusion_lat": 0.0, "lat": 38.895182166666665, "fusion_lon": 0.0, "rental_uris": {"ios": "https://dc.lft.to/lastmile_qr_scan", "android": "https://dc.lft.to/lastmile_qr_scan"}, "lon": -77.023012, "bike_id": "238c5914a3dff8a81e31f0e34e7b2a13", "type": "electric_scooter", "name": "238c5914a3dff8a81e31f0e34e7b2a13"}, {"is_disabled": 0, "is_reserved": 0, "fusion_lat": 0.0, "lat": 38.921515166666666, "fusion_lon": 0.0, "rental_uris": {"ios": "https://dc.lft.to/lastmile_qr_scan", "android": "https://dc.lft.to/lastmile_qr_scan"}, "lon": -77.03385716666666, "bike_id": "803733a0f85decf0ac64c9a847dfde35", "type": "electric_scooter", "name": "803733a0f85decf0ac64c9a847dfde35"}, {"is_disabled": 0, "is_reserved": 0, "fusion_lat": 0.0, "lat": 38.905059666666666, "fusion_lon": 0.0, "rental_uris": {"ios": "https://dc.lft.to/lastmile_qr_scan", "android": "https://dc.lft.to/lastmile_qr_scan"}, "lon": -77.02950733333333, "bike_id": "9bcd45232f507b13ba21714e9a74ebdb", "type": "electric_scooter", "name": "9bcd45232f507b13ba21714e9a74ebdb"}, {"is_disabled": 0, "is_reserved": 0, "fusion_lat": 0.0, "lat": 38.88368633333333, "fusion_lon": 0.0, "rental_uris": {"ios": "https://dc.lft.to/lastmile_qr_scan", "android": "https://dc.lft.to/lastmile_qr_scan"}, "lon": -76.9948735, "bike_id": "ae174e6f0546f8e5a0f941bea795d81e", "type": "electric_scooter", "name": "ae174e6f0546f8e5a0f941bea795d81e"}, {"is_disabled": 0, "is_reserved": 0, "fusion_lat": 0.0, "lat": 38.8459675, "fusion_lon": 0.0, "rental_uris": {"ios": "https://dc.lft.to/lastmile_qr_scan", "android": "https://dc.lft.to/lastmile_qr_scan"}, "lon": -76.974212, "bike_id": "6c89de9fb4c9eb68fd8fcfd4e579a90c", "type": "electric_scooter", "name": "6c89de9fb4c9eb68fd8fcfd4e579a90c"}, {"is_disabled": 0, "is_reserved": 0, "fusion_lat": 0.0, "lat": 38.90568583333334, "fusion_lon": 0.0, "rental_uris": {"ios": "https://dc.lft.to/lastmile_qr_scan", "android": "https://dc.lft.to/lastmile_qr_scan"}, "lon": -77.02507266666667, "bike_id": "78c45f2af1afa96bb41c787f289372a1", "type": "electric_scooter", "name": "78c45f2af1afa96bb41c787f289372a1"}, {"is_disabled": 0, "is_reserved": 0, "fusion_lat": 0.0, "lat": 38.936757166666666, "fusion_lon": 0.0, "rental_uris": {"ios": "https://dc.lft.to/lastmile_qr_scan", "android": "https://dc.lft.to/lastmile_qr_scan"}, "lon": -77.03589283333334, "bike_id": "664650105097bdcd5ee95e09bc557056", "type": "electric_scooter", "name": "664650105097bdcd5ee95e09bc557056"}, {"is_disabled": 0, "is_reserved": 0, "fusion_lat": 0.0, "lat": 38.886992166666666, "fusion_lon": 0.0, "rental_uris": {"ios": "https://dc.lft.to/lastmile_qr_scan", "android": "https://dc.lft.to/lastmile_qr_scan"}, "lon": -76.99610733333333, "bike_id": "717444265b52d9122b59321dd55ebd02", "type": "electric_scooter", "name": "717444265b52d9122b59321dd55ebd02"}, {"is_disabled": 0, "is_reserved": 0, "fusion_lat": 0.0, "lat": 38.9298895, "fusion_lon": 0.0, "rental_uris": {"ios": "https://dc.lft.to/lastmile_qr_scan", "android": "https://dc.lft.to/lastmile_qr_scan"}, "lon": -77.03478833333334, "bike_id": "d06bb70d5797be94082b4ab1ee9dccee", "type": "electric_scooter", "name": "d06bb70d5797be94082b4ab1ee9dccee"}, {"is_disabled": 0, "is_reserved": 0, "fusion_lat": 0.0, "lat": 38.87843783333334, "fusion_lon": 0.0, "rental_uris": {"ios": "https://dc.lft.to/lastmile_qr_scan", "android": "https://dc.lft.to/lastmile_qr_scan"}, "lon": -76.93129366666666, "bike_id": "7e96800ca18aaffc943d478a84e1ad85", "type": "electric_scooter", "name": "7e96800ca18aaffc943d478a84e1ad85"}, {"is_disabled": 0, "is_reserved": 0, "fusion_lat": 0.0, "lat": 39.0106975, "fusion_lon": 0.0, "rental_uris": {"ios": "https://dc.lft.to/lastmile_qr_scan", "android": "https://dc.lft.to/lastmile_qr_scan"}, "lon": -76.922445, "bike_id": "f7606873c3d188dad67d3fe60979ea13", "type": "electric_bike", "name": "f7606873c3d188dad67d3fe60979ea13"}, {"is_disabled": 0, "is_reserved": 0, "fusion_lat": 0.0, "lat": 38.92042333333333, "fusion_lon": 0.0, "rental_uris": {"ios": "https://dc.lft.to/lastmile_qr_scan", "android": "https://dc.lft.to/lastmile_qr_scan"}, "lon": -77.0260855, "bike_id": "06a34659a79610babdccb6c6de2fac18", "type": "electric_scooter", "name": "06a34659a79610babdccb6c6de2fac18"}, {"is_disabled": 0, "is_reserved": 0, "fusion_lat": 0.0, "lat": 38.92321966666667, "fusion_lon": 0.0, "rental_uris": {"ios": "https://dc.lft.to/lastmile_qr_scan", "android": "https://dc.lft.to/lastmile_qr_scan"}, "lon": -77.03912333333334, "bike_id": "a8c1cbfa185caf54bada0cb6e86f129a", "type": "electric_scooter", "name": "a8c1cbfa185caf54bada0cb6e86f129a"}, {"is_disabled": 0, "is_reserved": 0, "fusion_lat": 0.0, "lat": 38.92273983333333, "fusion_lon": 0.0, "rental_uris": {"ios": "https://dc.lft.to/lastmile_qr_scan", "android": "https://dc.lft.to/lastmile_qr_scan"}, "lon": -77.03643666666666, "bike_id": "76c2cfd50e11154f016b8b5767d6851b", "type": "electric_scooter", "name": "76c2cfd50e11154f016b8b5767d6851b"}, {"is_disabled": 0, "is_reserved": 0, "fusion_lat": 0.0, "lat": 38.930916333333336, "fusion_lon": 0.0, "rental_uris": {"ios": "https://dc.lft.to/lastmile_qr_scan", "android": "https://dc.lft.to/lastmile_qr_scan"}, "lon": -77.0344355, "bike_id": "4fdde0a2adefb092d6875fca8ef9eaa9", "type": "electric_scooter", "name": "4fdde0a2adefb092d6875fca8ef9eaa9"}, {"is_disabled": 0, "is_reserved": 0, "fusion_lat": 0.0, "lat": 38.883058166666665, "fusion_lon": 0.0, "rental_uris": {"ios": "https://dc.lft.to/lastmile_qr_scan", "android": "https://dc.lft.to/lastmile_qr_scan"}, "lon": -77.02563516666666, "bike_id": "449284afb1f6eb923fa1d89ca18f1e36", "type": "electric_scooter", "name": "449284afb1f6eb923fa1d89ca18f1e36"}, {"is_disabled": 0, "is_reserved": 0, "fusion_lat": 0.0, "lat": 38.88278583333334, "fusion_lon": 0.0, "rental_uris": {"ios": "https://dc.lft.to/lastmile_qr_scan", "android": "https://dc.lft.to/lastmile_qr_scan"}, "lon": -77.00645633333333, "bike_id": "388e783c006e9b1d79e6867cfdf50352", "type": "electric_scooter", "name": "388e783c006e9b1d79e6867cfdf50352"}, {"is_disabled": 0, "is_reserved": 0, "fusion_lat": 0.0, "lat": 38.906876, "fusion_lon": 0.0, "rental_uris": {"ios": "https://dc.lft.to/lastmile_qr_scan", "android": "https://dc.lft.to/lastmile_qr_scan"}, "lon": -77.02692183333333, "bike_id": "e8484f11b4e7c5e64588fc5e32163675", "type": "electric_scooter", "name": "e8484f11b4e7c5e64588fc5e32163675"}, {"is_disabled": 0, "is_reserved": 0, "fusion_lat": 0.0, "lat": 38.905096, "fusion_lon": 0.0, "rental_uris": {"ios": "https://dc.lft.to/lastmile_qr_scan", "android": "https://dc.lft.to/lastmile_qr_scan"}, "lon": -77.0295755, "bike_id": "134cc612e25cf6d480f79f133554ec96", "type": "electric_bike", "name": "134cc612e25cf6d480f79f133554ec96"}, {"is_disabled": 0, "is_reserved": 0, "fusion_lat": 0.0, "lat": 38.92625866666667, "fusion_lon": 0.0, "rental_uris": {"ios": "https://dc.lft.to/lastmile_qr_scan", "android": "https://dc.lft.to/lastmile_qr_scan"}, "lon": -76.99061083333333, "bike_id": "9d4cd6b3f75360d7b10d9341e2c47285", "type": "electric_scooter", "name": "9d4cd6b3f75360d7b10d9341e2c47285"}, {"is_disabled": 0, "is_reserved": 0, "fusion_lat": 0.0, "lat": 38.85805783333333, "fusion_lon": 0.0, "rental_uris": {"ios": "https://dc.lft.to/lastmile_qr_scan", "android": "https://dc.lft.to/lastmile_qr_scan"}, "lon": -76.98750566666666, "bike_id": "85177e6c8702e1a84e66ae51b086efae", "type": "electric_bike", "name": "85177e6c8702e1a84e66ae51b086efae"}, {"is_disabled": 0, "is_reserved": 0, "fusion_lat": 0.0, "lat": 38.922627, "fusion_lon": 0.0, "rental_uris": {"ios": "https://dc.lft.to/lastmile_qr_scan", "android": "https://dc.lft.to/lastmile_qr_scan"}, "lon": -77.03659816666666, "bike_id": "64554e7194e1d8aff5422a47e4747a80", "type": "electric_scooter", "name": "64554e7194e1d8aff5422a47e4747a80"}, {"is_disabled": 0, "is_reserved": 0, "fusion_lat": 0.0, "lat": 38.926839, "fusion_lon": 0.0, "rental_uris": {"ios": "https://dc.lft.to/lastmile_qr_scan", "android": "https://dc.lft.to/lastmile_qr_scan"}, "lon": -77.00858983333333, "bike_id": "e5025b0dc0305c2feaef617326b6b2bf", "type": "electric_scooter", "name": "e5025b0dc0305c2feaef617326b6b2bf"}, {"is_disabled": 0, "is_reserved": 0, "fusion_lat": 0.0, "lat": 39.02621666666667, "fusion_lon": 0.0, "rental_uris": {"ios": "https://dc.lft.to/lastmile_qr_scan", "android": "https://dc.lft.to/lastmile_qr_scan"}, "lon": -77.03875633333334, "bike_id": "69a17c6c9abb1c579f82fdaeb03cd92d", "type": "electric_bike", "name": "69a17c6c9abb1c579f82fdaeb03cd92d"}, {"is_disabled": 0, "is_reserved": 0, "fusion_lat": 0.0, "lat": 38.876344833333334, "fusion_lon": 0.0, "rental_uris": {"ios": "https://dc.lft.to/lastmile_qr_scan", "android": "https://dc.lft.to/lastmile_qr_scan"}, "lon": -77.009557, "bike_id": "d2c9084e06a7b84ac68d5b4dabbe823e", "type": "electric_scooter", "name": "d2c9084e06a7b84ac68d5b4dabbe823e"}, {"is_disabled": 0, "is_reserved": 0, "fusion_lat": 0.0, "lat": 38.88579933333333, "fusion_lon": 0.0, "rental_uris": {"ios": "https://dc.lft.to/lastmile_qr_scan", "android": "https://dc.lft.to/lastmile_qr_scan"}, "lon": -77.012148, "bike_id": "b5bdd28bc7c9f73a5265a5337fb9e8a1", "type": "electric_scooter", "name": "b5bdd28bc7c9f73a5265a5337fb9e8a1"}, {"is_disabled": 0, "is_reserved": 0, "fusion_lat": 0.0, "lat": 38.93192883333333, "fusion_lon": 0.0, "rental_uris": {"ios": "https://dc.lft.to/lastmile_qr_scan", "android": "https://dc.lft.to/lastmile_qr_scan"}, "lon": -77.03449783333333, "bike_id": "3086616f2b4cfb0740ed3a8a06936cbb", "type": "electric_scooter", "name": "3086616f2b4cfb0740ed3a8a06936cbb"}, {"is_disabled": 0, "is_reserved": 0, "fusion_lat": 0.0, "lat": 38.9105705, "fusion_lon": 0.0, "rental_uris": {"ios": "https://dc.lft.to/lastmile_qr_scan", "android": "https://dc.lft.to/lastmile_qr_scan"}, "lon": -77.02305183333333, "bike_id": "e5be9585bb14ad62ae6e63a95f67501b", "type": "electric_scooter", "name": "e5be9585bb14ad62ae6e63a95f67501b"}, {"is_disabled": 0, "is_reserved": 0, "fusion_lat": 0.0, "lat": 38.921687666666664, "fusion_lon": 0.0, "rental_uris": {"ios": "https://dc.lft.to/lastmile_qr_scan", "android": "https://dc.lft.to/lastmile_qr_scan"}, "lon": -77.0326255, "bike_id": "e25caca38ef23f9dfcafb73b3618eb66", "type": "electric_scooter", "name": "e25caca38ef23f9dfcafb73b3618eb66"}, {"is_disabled": 0, "is_reserved": 0, "fusion_lat": 0.0, "lat": 38.92831316666667, "fusion_lon": 0.0, "rental_uris": {"ios": "https://dc.lft.to/lastmile_qr_scan", "android": "https://dc.lft.to/lastmile_qr_scan"}, "lon": -77.04351133333333, "bike_id": "f4a050011ce3da4190070a80aa80e428", "type": "electric_scooter", "name": "f4a050011ce3da4190070a80aa80e428"}, {"is_disabled": 0, "is_reserved": 0, "fusion_lat": 0.0, "lat": 38.921166, "fusion_lon": 0.0, "rental_uris": {"ios": "https://dc.lft.to/lastmile_qr_scan", "android": "https://dc.lft.to/lastmile_qr_scan"}, "lon": -77.04174033333334, "bike_id": "f4d6e3b4930b10fcf531ca6777e294b0", "type": "electric_scooter", "name": "f4d6e3b4930b10fcf531ca6777e294b0"}, {"is_disabled": 0, "is_reserved": 0, "fusion_lat": 0.0, "lat": 38.9025195, "fusion_lon": 0.0, "rental_uris": {"ios": "https://dc.lft.to/lastmile_qr_scan", "android": "https://dc.lft.to/lastmile_qr_scan"}, "lon": -77.0077185, "bike_id": "8012bd8d5ef39e26ec977b45f0a8c1af", "type": "electric_scooter", "name": "8012bd8d5ef39e26ec977b45f0a8c1af"}, {"is_disabled": 0, "is_reserved": 0, "fusion_lat": 0.0, "lat": 38.9144935, "fusion_lon": 0.0, "rental_uris": {"ios": "https://dc.lft.to/lastmile_qr_scan", "android": "https://dc.lft.to/lastmile_qr_scan"}, "lon": -77.02293816666666, "bike_id": "0b89d4b47f017c9e37d98d5f458ec97f", "type": "electric_scooter", "name": "0b89d4b47f017c9e37d98d5f458ec97f"}, {"is_disabled": 0, "is_reserved": 0, "fusion_lat": 0.0, "lat": 38.9249635, "fusion_lon": 0.0, "rental_uris": {"ios": "https://dc.lft.to/lastmile_qr_scan", "android": "https://dc.lft.to/lastmile_qr_scan"}, "lon": -77.02694916666667, "bike_id": "799f0adeca02e390fdd640df3a2bb385", "type": "electric_scooter", "name": "799f0adeca02e390fdd640df3a2bb385"}, {"is_disabled": 0, "is_reserved": 0, "fusion_lat": 0.0, "lat": 38.93034816666667, "fusion_lon": 0.0, "rental_uris": {"ios": "https://dc.lft.to/lastmile_qr_scan", "android": "https://dc.lft.to/lastmile_qr_scan"}, "lon": -77.06077883333333, "bike_id": "32ed631cf7d50953e17366bf890847ba", "type": "electric_scooter", "name": "32ed631cf7d50953e17366bf890847ba"}, {"is_disabled": 0, "is_reserved": 0, "fusion_lat": 0.0, "lat": 38.87580483333333, "fusion_lon": 0.0, "rental_uris": {"ios": "https://dc.lft.to/lastmile_qr_scan", "android": "https://dc.lft.to/lastmile_qr_scan"}, "lon": -77.2341165, "bike_id": "a28cdcab48a30f39a17622426b138e11", "type": "electric_bike", "name": "a28cdcab48a30f39a17622426b138e11"}, {"is_disabled": 0, "is_reserved": 0, "fusion_lat": 0.0, "lat": 38.88044266666667, "fusion_lon": 0.0, "rental_uris": {"ios": "https://dc.lft.to/lastmile_qr_scan", "android": "https://dc.lft.to/lastmile_qr_scan"},