{"data": {"bikes": [{"lon": -77.03354283333333, "name": "62b1aaf803e19b56d247397931649bc4", "is_disabled": 0, "type": "electric_scooter", "is_reserved": 0, "fusion_lon": 0.0, "lat": 38.927430333333334, "rental_uris": {"ios": "https://dc.lft.to/lastmile_qr_scan", "android": "https://dc.lft.to/lastmile_qr_scan"}, "bike_id": "62b1aaf803e19b56d247397931649bc4", "fusion_lat": 0.0}, {"lon": -77.02487833333333, "name": "daeb9a8d283ea7d9434c7e880d2f25af", "is_disabled": 0, "type": "electric_scooter", "is_reserved": 0, "fusion_lon": 0.0, "lat": 38.90312566666667, "rental_uris": {"ios": "https://dc.lft.to/lastmile_qr_scan", "android": "https://dc.lft.to/lastmile_qr_scan"}, "bike_id": "daeb9a8d283ea7d9434c7e880d2f25af", "fusion_lat": 0.0}, {"lon": -76.933912, "name": "802f54dfacef00b87e4d2ed309f9270d", "is_disabled": 0, "type": "electric_scooter", "is_reserved": 0, "fusion_lon": 0.0, "lat": 38.8991005, "rental_uris": {"ios": "https://dc.lft.to/lastmile_qr_scan", "android": "https://dc.lft.to/lastmile_qr_scan"}, "bike_id": "802f54dfacef00b87e4d2ed309f9270d", "fusion_lat": 0.0}, {"lon": -77.057931, "name": "e6ffd71e98c786a67f1d2e9dbd8b79aa", "is_disabled": 0, "type": "electric_scooter", "is_reserved": 0, "fusion_lon": 0.0, "lat": 38.90264466666667, "rental_uris": {"ios": "https://dc.lft.to/lastmile_qr_scan", "android": "https://dc.lft.to/lastmile_qr_scan"}, "bike_id": "e6ffd71e98c786a67f1d2e9dbd8b79aa", "fusion_lat": 0.0}, {"lon": -77.03175816666666, "name": "b3e675f83bf4e90483c57d4e59bfb85b", "is_disabled": 0, "type": "electric_scooter", "is_reserved": 0, "fusion_lon": 0.0, "lat": 38.913236166666664, "rental_uris": {"ios": "https://dc.lft.to/lastmile_qr_scan", "android": "https://dc.lft.to/lastmile_qr_scan"}, "bike_id": "b3e675f83bf4e90483c57d4e59bfb85b", "fusion_lat": 0.0}, {"lon": -77.047824, "name": "af39c73440e4258d72d83023de38fabf", "is_disabled": 0, "type": "electric_scooter", "is_reserved": 0, "fusion_lon": 0.0, "lat": 38.89607816666667, "rental_uris": {"ios": "https://dc.lft.to/lastmile_qr_scan", "android": "https://dc.lft.to/lastmile_qr_scan"}, "bike_id": "af39c73440e4258d72d83023de38fabf", "fusion_lat": 0.0}, {"lon": -76.98681016666667, "name": "d833c809bc24e251812216593eb69361", "is_disabled": 0, "type": "electric_bike", "is_reserved": 0, "fusion_lon": 0.0, "lat": 38.899645666666665, "rental_uris": {"ios": "https://dc.lft.to/lastmile_qr_scan", "android": "https://dc.lft.to/lastmile_qr_scan"}, "bike_id": "d833c809bc24e251812216593eb69361", "fusion_lat": 0.0}, {"lon": -77.02209583333334, "name": "f363929e8214c3e98c607e112694e1b4", "is_disabled": 0, "type": "electric_scooter", "is_reserved": 0, "fusion_lon": 0.0, "lat": 38.896052166666664, "rental_uris": {"ios": "https://dc.lft.to/lastmile_qr_scan", "android": "https://dc.lft.to/lastmile_qr_scan"}, "bike_id": "f363929e8214c3e98c607e112694e1b4", "fusion_lat": 0.0}, {"lon": -76.99304683333334, "name": "09f2158ecee6825fcec72baeed9dbab2", "is_disabled": 0, "type": "electric_scooter", "is_reserved": 0, "fusion_lon": 0.0, "lat": 38.93768016666667, "rental_uris": {"ios": "https://dc.lft.to/lastmile_qr_scan", "android": "https://dc.lft.to/lastmile_qr_scan"}, "bike_id": "09f2158ecee6825fcec72baeed9dbab2", "fusion_lat": 0.0}, {"lon": -77.07167883333334, "name": "ad561ee0141cb11ce841ab4388755d90", "is_disabled": 0, "type": "electric_scooter", "is_reserved": 0, "fusion_lon": 0.0, "lat": 38.9206625, "rental_uris": {"ios": "https://dc.lft.to/lastmile_qr_scan", "android": "https://dc.lft.to/lastmile_qr_scan"}, "bike_id": "ad561ee0141cb11ce841ab4388755d90", "fusion_lat": 0.0}, {"lon": -77.04181816666667, "name": "5faa9f898834768d364dae27d0d39e6b", "is_disabled": 0, "type": "electric_scooter", "is_reserved": 0, "fusion_lon": 0.0, "lat": 38.901286999999996, "rental_uris": {"ios": "https://dc.lft.to/lastmile_qr_scan", "android": "https://dc.lft.to/lastmile_qr_scan"}, "bike_id": "5faa9f898834768d364dae27d0d39e6b", "fusion_lat": 0.0}, {"lon": -76.97137466666666, "name": "116096023aa55f6993a9cfe89cb7f042", "is_disabled": 0, "type": "electric_scooter", "is_reserved": 0, "fusion_lon": 0.0, "lat": 38.913509833333336, "rental_uris": {"ios": "https://dc.lft.to/lastmile_qr_scan", "android": "https://dc.lft.to/lastmile_qr_scan"}, "bike_id": "116096023aa55f6993a9cfe89cb7f042", "fusion_lat": 0.0}, {"lon": -77.027554, "name": "c685320b08dfb2e4e42443a524025d5b", "is_disabled": 0, "type": "electric_scooter", "is_reserved": 0, "fusion_lon": 0.0, "lat": 38.95414366666667, "rental_uris": {"ios": "https://dc.lft.to/lastmile_qr_scan", "android": "https://dc.lft.to/lastmile_qr_scan"}, "bike_id": "c685320b08dfb2e4e42443a524025d5b", "fusion_lat": 0.0}, {"lon": -77.05299283333333, "name": "e950d236fec515c4c56fba532ac5d0c8", "is_disabled": 0, "type": "electric_scooter", "is_reserved": 0, "fusion_lon": 0.0, "lat": 38.901476, "rental_uris": {"ios": "https://dc.lft.to/lastmile_qr_scan", "android": "https://dc.lft.to/lastmile_qr_scan"}, "bike_id": "e950d236fec515c4c56fba532ac5d0c8", "fusion_lat": 0.0}, {"lon": -77.02314766666667, "name": "07a5886ae774409d39e7107c475f4c44", "is_disabled": 0, "type": "electric_scooter", "is_reserved": 0, "fusion_lon": 0.0, "lat": 38.927866, "rental_uris": {"ios": "https://dc.lft.to/lastmile_qr_scan", "android": "https://dc.lft.to/lastmile_qr_scan"}, "bike_id": "07a5886ae774409d39e7107c475f4c44", "fusion_lat": 0.0}, {"lon": -77.03773016666666, "name": "ee7b207a8139b8a51d6afd75f067fa41", "is_disabled": 0, "type": "electric_scooter", "is_reserved": 0, "fusion_lon": 0.0, "lat": 38.91688366666666, "rental_uris": {"ios": "https://dc.lft.to/lastmile_qr_scan", "android": "https://dc.lft.to/lastmile_qr_scan"}, "bike_id": "ee7b207a8139b8a51d6afd75f067fa41", "fusion_lat": 0.0}, {"lon": -77.02697083333334, "name": "9f5fee0a65143127f41bf2a168ad9004", "is_disabled": 0, "type": "electric_scooter", "is_reserved": 0, "fusion_lon": 0.0, "lat": 38.897569, "rental_uris": {"ios": "https://dc.lft.to/lastmile_qr_scan", "android": "https://dc.lft.to/lastmile_qr_scan"}, "bike_id": "9f5fee0a65143127f41bf2a168ad9004", "fusion_lat": 0.0}, {"lon": -77.022226, "name": "32320f0162af6dcdec7fc3f021483423", "is_disabled": 0, "type": "electric_scooter", "is_reserved": 0, "fusion_lon": 0.0, "lat": 38.9126745, "rental_uris": {"ios": "https://dc.lft.to/lastmile_qr_scan", "android": "https://dc.lft.to/lastmile_qr_scan"}, "bike_id": "32320f0162af6dcdec7fc3f021483423", "fusion_lat": 0.0}, {"lon": -77.019268, "name": "191a7142d4a5e7544a2c82d111289d70", "is_disabled": 0, "type": "electric_scooter", "is_reserved": 0, "fusion_lon": 0.0, "lat": 38.922553666666666, "rental_uris": {"ios": "https://dc.lft.to/lastmile_qr_scan", "android": "https://dc.lft.to/lastmile_qr_scan"}, "bike_id": "191a7142d4a5e7544a2c82d111289d70", "fusion_lat": 0.0}, {"lon": -77.03633033333334, "name": "d9a81362e13f790d528e484ca6ef2290", "is_disabled": 0, "type": "electric_scooter", "is_reserved": 0, "fusion_lon": 0.0, "lat": 38.929320833333335, "rental_uris": {"ios": "https://dc.lft.to/lastmile_qr_scan", "android": "https://dc.lft.to/lastmile_qr_scan"}, "bike_id": "d9a81362e13f790d528e484ca6ef2290", "fusion_lat": 0.0}, {"lon": -76.907504, "name": "1aecb410db5334694eaa8e9610a5719d", "is_disabled": 0, "type": "electric_bike", "is_reserved": 0, "fusion_lon": 0.0, "lat": 38.896165333333336, "rental_uris": {"ios": "https://dc.lft.to/lastmile_qr_scan", "android": "https://dc.lft.to/lastmile_qr_scan"}, "bike_id": "1aecb410db5334694eaa8e9610a5719d", "fusion_lat": 0.0}, {"lon": -77.00535883333333, "name": "bee3bf837bcef9c0d0c0dd1d6dac77bf", "is_disabled": 0, "type": "electric_scooter", "is_reserved": 0, "fusion_lon": 0.0, "lat": 38.8754135, "rental_uris": {"ios": "https://dc.lft.to/lastmile_qr_scan", "android": "https://dc.lft.to/lastmile_qr_scan"}, "bike_id": "bee3bf837bcef9c0d0c0dd1d6dac77bf", "fusion_lat": 0.0}, {"lon": -77.031828, "name": "56f7eab2c7d0621420a20062725bcb56", "is_disabled": 0, "type": "electric_scooter", "is_reserved": 0, "fusion_lon": 0.0, "lat": 38.911862, "rental_uris": {"ios": "https://dc.lft.to/lastmile_qr_scan", "android": "https://dc.lft.to/lastmile_qr_scan"}, "bike_id": "56f7eab2c7d0621420a20062725bcb56", "fusion_lat": 0.0}, {"lon": -77.00589466666666, "name": "205ad7787cc0d137d2cdc8f2e71540ab", "is_disabled": 0, "type": "electric_scooter", "is_reserved": 0, "fusion_lon": 0.0, "lat": 38.876431, "rental_uris": {"ios": "https://dc.lft.to/lastmile_qr_scan", "android": "https://dc.lft.to/lastmile_qr_scan"}, "bike_id": "205ad7787cc0d137d2cdc8f2e71540ab", "fusion_lat": 0.0}, {"lon": -76.9576665, "name": "2c7134d01d4d79d3afd5b11c9d09cb11", "is_disabled": 0, "type": "electric_scooter", "is_reserved": 0, "fusion_lon": 0.0, "lat": 38.883569, "rental_uris": {"ios": "https://dc.lft.to/lastmile_qr_scan", "android": "https://dc.lft.to/lastmile_qr_scan"}, "bike_id": "2c7134d01d4d79d3afd5b11c9d09cb11", "fusion_lat": 0.0}, {"lon": -77.03513033333333, "name": "bb01e1421ab836f546aaf1a05315ee7a", "is_disabled": 0, "type": "electric_scooter", "is_reserved": 0, "fusion_lon": 0.0, "lat": 38.93589016666667, "rental_uris": {"ios": "https://dc.lft.to/lastmile_qr_scan", "android": "https://dc.lft.to/lastmile_qr_scan"}, "bike_id": "bb01e1421ab836f546aaf1a05315ee7a", "fusion_lat": 0.0}, {"lon": -77.02458333333334, "name": "d4c71a835fb53dbb9b073cf895bf570f", "is_disabled": 0, "type": "electric_scooter", "is_reserved": 0, "fusion_lon": 0.0, "lat": 38.89734466666667, "rental_uris": {"ios": "https://dc.lft.to/lastmile_qr_scan", "android": "https://dc.lft.to/lastmile_qr_scan"}, "bike_id": "d4c71a835fb53dbb9b073cf895bf570f", "fusion_lat": 0.0}, {"lon": -77.020621, "name": "10953d68d8dcb8f52cdc521dd8d3267b", "is_disabled": 0, "type": "electric_scooter", "is_reserved": 0, "fusion_lon": 0.0, "lat": 38.92359366666667, "rental_uris": {"ios": "https://dc.lft.to/lastmile_qr_scan", "android": "https://dc.lft.to/lastmile_qr_scan"}, "bike_id": "10953d68d8dcb8f52cdc521dd8d3267b", "fusion_lat": 0.0}, {"lon": -77.0250345, "name": "54c4d00d635f966f5cf8d7255ea71a21", "is_disabled": 0, "type": "electric_scooter", "is_reserved": 0, "fusion_lon": 0.0, "lat": 38.88031433333333, "rental_uris": {"ios": "https://dc.lft.to/lastmile_qr_scan", "android": "https://dc.lft.to/lastmile_qr_scan"}, "bike_id": "54c4d00d635f966f5cf8d7255ea71a21", "fusion_lat": 0.0}, {"lon": -77.0365625, "name": "aaa7097fa47b7445d0ce33ada019ce3e", "is_disabled": 0, "type": "electric_scooter", "is_reserved": 0, "fusion_lon": 0.0, "lat": 38.922372333333335, "rental_uris": {"ios": "https://dc.lft.to/lastmile_qr_scan", "android": "https://dc.lft.to/lastmile_qr_scan"}, "bike_id": "aaa7097fa47b7445d0ce33ada019ce3e", "fusion_lat": 0.0}, {"lon": -77.02130733333334, "name": "af75ca17b2635412d6fc3377f6ae5344", "is_disabled": 0, "type": "electric_scooter", "is_reserved": 0, "fusion_lon": 0.0, "lat": 38.92416016666667, "rental_uris": {"ios": "https://dc.lft.to/lastmile_qr_scan", "android": "https://dc.lft.to/lastmile_qr_scan"}, "bike_id": "af75ca17b2635412d6fc3377f6ae5344", "fusion_lat": 0.0}, {"lon": -77.02769733333334, "name": "bf29f0d78d3d40ec66ce361be9c539c4", "is_disabled": 0, "type": "electric_scooter", "is_reserved": 0, "fusion_lon": 0.0, "lat": 38.952975333333335, "rental_uris": {"ios": "https://dc.lft.to/lastmile_qr_scan", "android": "https://dc.lft.to/lastmile_qr_scan"}, "bike_id": "bf29f0d78d3d40ec66ce361be9c539c4", "fusion_lat": 0.0}, {"lon": -76.93766, "name": "1d635b85f79070adc569b506e0596477", "is_disabled": 0, "type": "electric_scooter", "is_reserved": 0, "fusion_lon": 0.0, "lat": 38.8996885, "rental_uris": {"ios": "https://dc.lft.to/lastmile_qr_scan", "android": "https://dc.lft.to/lastmile_qr_scan"}, "bike_id": "1d635b85f79070adc569b506e0596477", "fusion_lat": 0.0}, {"lon": -77.0700605, "name": "f9cbbf247b9e4681e166dba163421a9c", "is_disabled": 0, "type": "electric_scooter", "is_reserved": 0, "fusion_lon": 0.0, "lat": 38.90598033333333, "rental_uris": {"ios": "https://dc.lft.to/lastmile_qr_scan", "android": "https://dc.lft.to/lastmile_qr_scan"}, "bike_id": "f9cbbf247b9e4681e166dba163421a9c", "fusion_lat": 0.0}, {"lon": -77.026543, "name": "0d719099c9d78a907d3db0028cf2225b", "is_disabled": 0, "type": "electric_scooter", "is_reserved": 0, "fusion_lon": 0.0, "lat": 38.89589133333333, "rental_uris": {"ios": "https://dc.lft.to/lastmile_qr_scan", "android": "https://dc.lft.to/lastmile_qr_scan"}, "bike_id": "0d719099c9d78a907d3db0028cf2225b", "fusion_lat": 0.0}, {"lon": -77.01158966666667, "name": "d7fb374db16b134c22ce8e8fb77460d1", "is_disabled": 0, "type": "electric_scooter", "is_reserved": 0, "fusion_lon": 0.0, "lat": 38.969885166666664, "rental_uris": {"ios": "https://dc.lft.to/lastmile_qr_scan", "android": "https://dc.lft.to/lastmile_qr_scan"}, "bike_id": "d7fb374db16b134c22ce8e8fb77460d1", "fusion_lat": 0.0}, {"lon": -77.0021145, "name": "861804af3678e9c6f04b7840af6e50c9", "is_disabled": 0, "type": "electric_scooter", "is_reserved": 0, "fusion_lon": 0.0, "lat": 38.911043, "rental_uris": {"ios": "https://dc.lft.to/lastmile_qr_scan", "android": "https://dc.lft.to/lastmile_qr_scan"}, "bike_id": "861804af3678e9c6f04b7840af6e50c9", "fusion_lat": 0.0}, {"lon": -77.03421616666667, "name": "7189dd8719531477b0569592fe7c563c", "is_disabled": 0, "type": "electric_scooter", "is_reserved": 0, "fusion_lon": 0.0, "lat": 38.903716, "rental_uris": {"ios": "https://dc.lft.to/lastmile_qr_scan", "android": "https://dc.lft.to/lastmile_qr_scan"}, "bike_id": "7189dd8719531477b0569592fe7c563c", "fusion_lat": 0.0}, {"lon": -77.0259525, "name": "57ddc1eb3678f9699ec7539bdd1feedf", "is_disabled": 0, "type": "electric_scooter", "is_reserved": 0, "fusion_lon": 0.0, "lat": 38.900221333333334, "rental_uris": {"ios": "https://dc.lft.to/lastmile_qr_scan", "android": "https://dc.lft.to/lastmile_qr_scan"}, "bike_id": "57ddc1eb3678f9699ec7539bdd1feedf", "fusion_lat": 0.0}, {"lon": -77.02419066666667, "name": "b4ad236beae748f22d5c56cd9b680db6", "is_disabled": 0, "type": "electric_scooter", "is_reserved": 0, "fusion_lon": 0.0, "lat": 38.921415333333336, "rental_uris": {"ios": "https://dc.lft.to/lastmile_qr_scan", "android": "https://dc.lft.to/lastmile_qr_scan"}, "bike_id": "b4ad236beae748f22d5c56cd9b680db6", "fusion_lat": 0.0}, {"lon": -76.9823705, "name": "1163f898e0a4552c1e6038b022a08bce", "is_disabled": 0, "type": "electric_scooter", "is_reserved": 0, "fusion_lon": 0.0, "lat": 38.908924166666665, "rental_uris": {"ios": "https://dc.lft.to/lastmile_qr_scan", "android": "https://dc.lft.to/lastmile_qr_scan"}, "bike_id": "1163f898e0a4552c1e6038b022a08bce", "fusion_lat": 0.0}, {"lon": -77.06005116666667, "name": "12e67de9c4958455ce7a6a2080a88d74", "is_disabled": 0, "type": "electric_scooter", "is_reserved": 0, "fusion_lon": 0.0, "lat": 38.927066333333336, "rental_uris": {"ios": "https://dc.lft.to/lastmile_qr_scan", "android": "https://dc.lft.to/lastmile_qr_scan"}, "bike_id": "12e67de9c4958455ce7a6a2080a88d74", "fusion_lat": 0.0}, {"lon": -77.03635916666667, "name": "f8207dbd145f1cc8b2a0e6b70293791c", "is_disabled": 0, "type": "electric_scooter", "is_reserved": 0, "fusion_lon": 0.0, "lat": 38.916763833333334, "rental_uris": {"ios": "https://dc.lft.to/lastmile_qr_scan", "android": "https://dc.lft.to/lastmile_qr_scan"}, "bike_id": "f8207dbd145f1cc8b2a0e6b70293791c", "fusion_lat": 0.0}, {"lon": -76.93213633333333, "name": "dc1276077667d0f76f99e18b15b4aaba", "is_disabled": 0, "type": "electric_scooter", "is_reserved": 0, "fusion_lon": 0.0, "lat": 38.880416, "rental_uris": {"ios": "https://dc.lft.to/lastmile_qr_scan", "android": "https://dc.lft.to/lastmile_qr_scan"}, "bike_id": "dc1276077667d0f76f99e18b15b4aaba", "fusion_lat": 0.0}, {"lon": -77.021331, "name": "7a07ca9b51f479cfaec5dab03c157926", "is_disabled": 0, "type": "electric_scooter", "is_reserved": 0, "fusion_lon": 0.0, "lat": 38.92417983333333, "rental_uris": {"ios": "https://dc.lft.to/lastmile_qr_scan", "android": "https://dc.lft.to/lastmile_qr_scan"}, "bike_id": "7a07ca9b51f479cfaec5dab03c157926", "fusion_lat": 0.0}, {"lon": -77.0202535, "name": "5376c9ba89946183f57c4912d3af1cba", "is_disabled": 0, "type": "electric_scooter", "is_reserved": 0, "fusion_lon": 0.0, "lat": 38.921312, "rental_uris": {"ios": "https://dc.lft.to/lastmile_qr_scan", "android": "https://dc.lft.to/lastmile_qr_scan"}, "bike_id": "5376c9ba89946183f57c4912d3af1cba", "fusion_lat": 0.0}, {"lon": -77.03181783333333, "name": "b94573b32421c0fef58f37b3a48513c1", "is_disabled": 0, "type": "electric_scooter", "is_reserved": 0, "fusion_lon": 0.0, "lat": 38.9119315, "rental_uris": {"ios": "https://dc.lft.to/lastmile_qr_scan", "android": "https://dc.lft.to/lastmile_qr_scan"}, "bike_id": "b94573b32421c0fef58f37b3a48513c1", "fusion_lat": 0.0}, {"lon": -77.02824316666667, "name": "359b89dead44c5d98ce96a6e8539847f", "is_disabled": 0, "type": "electric_scooter", "is_reserved": 0, "fusion_lon": 0.0, "lat": 38.9222665, "rental_uris": {"ios": "https://dc.lft.to/lastmile_qr_scan", "android": "https://dc.lft.to/lastmile_qr_scan"}, "bike_id": "359b89dead44c5d98ce96a6e8539847f", "fusion_lat": 0.0}, {"lon": -77.01953716666667, "name": "5cda75eee4e015bc2dfbbfeda8f967b6", "is_disabled": 0, "type": "electric_scooter", "is_reserved": 0, "fusion_lon": 0.0, "lat": 38.8848805, "rental_uris": {"ios": "https://dc.lft.to/lastmile_qr_scan", "android": "https://dc.lft.to/lastmile_qr_scan"}, "bike_id": "5cda75eee4e015bc2dfbbfeda8f967b6", "fusion_lat": 0.0}, {"lon": -77.03282216666666, "name": "7e4fe7480f3936749e0bd053923cec86", "is_disabled": 0, "type": "electric_scooter", "is_reserved": 0, "fusion_lon": 0.0, "lat": 38.935376166666664, "rental_uris": {"ios": "https://dc.lft.to/lastmile_qr_scan", "android": "https://dc.lft.to/lastmile_qr_scan"}, "bike_id": "7e4fe7480f3936749e0bd053923cec86", "fusion_lat": 0.0}, {"lon": -77.02112933333333, "name": "2054bb5d8065a4c8f9d80d2fc249f9be", "is_disabled": 0, "type": "electric_scooter", "is_reserved": 0, "fusion_lon": 0.0, "lat": 38.917386, "rental_uris": {"ios": "https://dc.lft.to/lastmile_qr_scan", "android": "https://dc.lft.to/lastmile_qr_scan"}, "bike_id": "2054bb5d8065a4c8f9d80d2fc249f9be", "fusion_lat": 0.0}, {"lon": -77.0216455, "name": "7089a1aa8ddfadc001686e96cf30de92", "is_disabled": 0, "type": "electric_bike", "is_reserved": 0, "fusion_lon": 0.0, "lat": 38.95750116666667, "rental_uris": {"ios": "https://dc.lft.to/lastmile_qr_scan", "android": "https://dc.lft.to/lastmile_qr_scan"}, "bike_id": "7089a1aa8ddfadc001686e96cf30de92", "fusion_lat": 0.0}, {"lon": -77.00301183333333, "name": "7a4294ba22eefc2fd3eb0463f221cc0c", "is_disabled": 0, "type": "electric_scooter", "is_reserved": 0, "fusion_lon": 0.0, "lat": 38.8765885, "rental_uris": {"ios": "https://dc.lft.to/lastmile_qr_scan", "android": "https://dc.lft.to/lastmile_qr_scan"}, "bike_id": "7a4294ba22eefc2fd3eb0463f221cc0c", "fusion_lat": 0.0}, {"lon": -77.04338233333333, "name": "9233591e2d4ea113b5dbbe908b067f44", "is_disabled": 0, "type": "electric_scooter", "is_reserved": 0, "fusion_lon": 0.0, "lat": 38.897254833333335, "rental_uris": {"ios": "https://dc.lft.to/lastmile_qr_scan", "android": "https://dc.lft.to/lastmile_qr_scan"}, "bike_id": "9233591e2d4ea113b5dbbe908b067f44", "fusion_lat": 0.0}, {"lon": -77.06083016666666, "name": "2c570c5caba9e6c224801919a4e242b7", "is_disabled": 0, "type": "electric_scooter", "is_reserved": 0, "fusion_lon": 0.0, "lat": 38.91182, "rental_uris": {"ios": "https://dc.lft.to/lastmile_qr_scan", "android": "https://dc.lft.to/lastmile_qr_scan"}, "bike_id": "2c570c5caba9e6c224801919a4e242b7", "fusion_lat": 0.0}, {"lon": -77.0268165, "name": "cc9b4381f7c79e86fa87d2d3d31f1ff8", "is_disabled": 0, "type": "electric_scooter", "is_reserved": 0, "fusion_lon": 0.0, "lat": 38.948373, "rental_uris": {"ios": "https://dc.lft.to/lastmile_qr_scan", "android": "https://dc.lft.to/lastmile_qr_scan"}, "bike_id": "cc9b4381f7c79e86fa87d2d3d31f1ff8", "fusion_lat": 0.0}, {"lon": -77.02844683333333, "name": "288bfe9a1bd2234acf154649e2cbb167", "is_disabled": 0, "type": "electric_scooter", "is_reserved": 0, "fusion_lon": 0.0, "lat": 38.8983775, "rental_uris": {"ios": "https://dc.lft.to/lastmile_qr_scan", "android": "https://dc.lft.to/lastmile_qr_scan"}, "bike_id": "288bfe9a1bd2234acf154649e2cbb167", "fusion_lat": 0.0}, {"lon": -77.02129766666667, "name": "5e13353ce91ea0c933516e81f68e1f8a", "is_disabled": 0, "type": "electric_scooter", "is_reserved": 0, "fusion_lon": 0.0, "lat": 38.9227615, "rental_uris": {"ios": "https://dc.lft.to/lastmile_qr_scan", "android": "https://dc.lft.to/lastmile_qr_scan"}, "bike_id": "5e13353ce91ea0c933516e81f68e1f8a", "fusion_lat": 0.0}, {"lon": -77.03907733333334, "name": "99c513cb4c8a18c073fe3614059aeed9", "is_disabled": 0, "type": "electric_scooter", "is_reserved": 0, "fusion_lon": 0.0, "lat": 38.92475783333333, "rental_uris": {"ios": "https://dc.lft.to/lastmile_qr_scan", "android": "https://dc.lft.to/lastmile_qr_scan"}, "bike_id": "99c513cb4c8a18c073fe3614059aeed9", "fusion_lat": 0.0}, {"lon": -77.06909566666667, "name": "f9eb405073c46d2240f4396f78ecb24e", "is_disabled": 0, "type": "electric_scooter", "is_reserved": 0, "fusion_lon": 0.0, "lat": 38.906384833333334, "rental_uris": {"ios": "https://dc.lft.to/lastmile_qr_scan", "android": "https://dc.lft.to/lastmile_qr_scan"}, "bike_id": "f9eb405073c46d2240f4396f78ecb24e", "fusion_lat": 0.0}, {"lon": -77.00657866666667, "name": "cd3658da1c42c2a1dd5d3211e6ae339d", "is_disabled": 0, "type": "electric_scooter", "is_reserved": 0, "fusion_lon": 0.0, "lat": 38.900000666666664, "rental_uris": {"ios": "https://dc.lft.to/lastmile_qr_scan", "android": "https://dc.lft.to/lastmile_qr_scan"}, "bike_id": "cd3658da1c42c2a1dd5d3211e6ae339d", "fusion_lat": 0.0}, {"lon": -77.00282333333334, "name": "d3c278a6a3dd8334435d4aa120cffa0e", "is_disabled": 0, "type": "electric_scooter", "is_reserved": 0, "fusion_lon": 0.0, "lat": 38.89358033333333, "rental_uris": {"ios": "https://dc.lft.to/lastmile_qr_scan", "android": "https://dc.lft.to/lastmile_qr_scan"}, "bike_id": "d3c278a6a3dd8334435d4aa120cffa0e", "fusion_lat": 0.0}, {"lon": -77.03615966666666, "name": "ffc9cf327a091906746c18b627228dba", "is_disabled": 0, "type": "electric_scooter", "is_reserved": 0, "fusion_lon": 0.0, "lat": 38.90702816666666, "rental_uris": {"ios": "https://dc.lft.to/lastmile_qr_scan", "android": "https://dc.lft.to/lastmile_qr_scan"}, "bike_id": "ffc9cf327a091906746c18b627228dba", "fusion_lat": 0.0}, {"lon": -77.05448466666667, "name": "ea61f1ebaae83ea9757c99bcb3681941", "is_disabled": 0, "type": "electric_scooter", "is_reserved": 0, "fusion_lon": 0.0, "lat": 38.914711833333335, "rental_uris": {"ios": "https://dc.lft.to/lastmile_qr_scan", "android": "https://dc.lft.to/lastmile_qr_scan"}, "bike_id": "ea61f1ebaae83ea9757c99bcb3681941", "fusion_lat": 0.0}, {"lon": -77.06217983333333, "name": "9b26304f6fafaf1f91e6b8e8c1ae53a2", "is_disabled": 0, "type": "electric_scooter", "is_reserved": 0, "fusion_lon": 0.0, "lat": 38.942212833333336, "rental_uris": {"ios": "https://dc.lft.to/lastmile_qr_scan", "android": "https://dc.lft.to/lastmile_qr_scan"}, "bike_id": "9b26304f6fafaf1f91e6b8e8c1ae53a2", "fusion_lat": 0.0}, {"lon": -77.02828083333333, "name": "8cc90c7ea13c0da4a3ca6081def39c54", "is_disabled": 0, "type": "electric_scooter", "is_reserved": 0, "fusion_lon": 0.0, "lat": 38.938823166666666, "rental_uris": {"ios": "https://dc.lft.to/lastmile_qr_scan", "android": "https://dc.lft.to/lastmile_qr_scan"}, "bike_id": "8cc90c7ea13c0da4a3ca6081def39c54", "fusion_lat": 0.0}, {"lon": -77.0129095, "name": "b9deb2fddd09713dba9c5880b0b9e212", "is_disabled": 0, "type": "electric_scooter", "is_reserved": 0, "fusion_lon": 0.0, "lat": 38.90074366666666, "rental_uris": {"ios": "https://dc.lft.to/lastmile_qr_scan", "android": "https://dc.lft.to/lastmile_qr_scan"}, "bike_id": "b9deb2fddd09713dba9c5880b0b9e212", "fusion_lat": 0.0}, {"lon": -77.04162833333334, "name": "f96cedb45d2e62165f0e5ae40f54a812", "is_disabled": 0, "type": "electric_scooter", "is_reserved": 0, "fusion_lon": 0.0, "lat": 38.90465, "rental_uris": {"ios": "https://dc.lft.to/lastmile_qr_scan", "android": "https://dc.lft.to/lastmile_qr_scan"}, "bike_id": "f96cedb45d2e62165f0e5ae40f54a812", "fusion_lat": 0.0}, {"lon": -77.00807633333334, "name": "5ace74187ed395020f43e37beb3b8386", "is_disabled": 0, "type": "electric_scooter", "is_reserved": 0, "fusion_lon": 0.0, "lat": 38.897110166666664, "rental_uris": {"ios": "https://dc.lft.to/lastmile_qr_scan", "android": "https://dc.lft.to/lastmile_qr_scan"}, "bike_id": "5ace74187ed395020f43e37beb3b8386", "fusion_lat": 0.0}, {"lon": -77.00546916666667, "name": "e493694944cf80dcde620ad282cea0d0", "is_disabled": 0, "type": "electric_scooter", "is_reserved": 0, "fusion_lon": 0.0, "lat": 38.87637483333334, "rental_uris": {"ios": "https://dc.lft.to/lastmile_qr_scan", "android": "https://dc.lft.to/lastmile_qr_scan"}, "bike_id": "e493694944cf80dcde620ad282cea0d0", "fusion_lat": 0.0}, {"lon": -77.02692233333333, "name": "91b14b3c2fd3d2645da3545f5ba52078", "is_disabled": 0, "type": "electric_scooter", "is_reserved": 0, "fusion_lon": 0.0, "lat": 38.908987333333336, "rental_uris": {"ios": "https://dc.lft.to/lastmile_qr_scan", "android": "https://dc.lft.to/lastmile_qr_scan"}, "bike_id": "91b14b3c2fd3d2645da3545f5ba52078", "fusion_lat": 0.0}, {"lon": -77.0460775, "name": "f1c89c828cee4e810a0c82b4e3dbaf9a", "is_disabled": 0, "type": "electric_scooter", "is_reserved": 0, "fusion_lon": 0.0, "lat": 38.91587033333333, "rental_uris": {"ios": "https://dc.lft.to/lastmile_qr_scan", "android": "https://dc.lft.to/lastmile_qr_scan"}, "bike_id": "f1c89c828cee4e810a0c82b4e3dbaf9a", "fusion_lat": 0.0}, {"lon": -77.00466233333333, "name": "77d1567da72500a6ccd24b9619ec224e", "is_disabled": 0, "type": "electric_scooter", "is_reserved": 0, "fusion_lon": 0.0, "lat": 38.91143616666667, "rental_uris": {"ios": "https://dc.lft.to/lastmile_qr_scan", "android": "https://dc.lft.to/lastmile_qr_scan"}, "bike_id": "77d1567da72500a6ccd24b9619ec224e", "fusion_lat": 0.0}, {"lon": -77.0103085, "name": "321c8bbced7f345fb508488813f73882", "is_disabled": 0, "type": "electric_bike", "is_reserved": 0, "fusion_lon": 0.0, "lat": 38.958793, "rental_uris": {"ios": "https://dc.lft.to/lastmile_qr_scan", "android": "https://dc.lft.to/lastmile_qr_scan"}, "bike_id": "321c8bbced7f345fb508488813f73882", "fusion_lat": 0.0}, {"lon": -77.05517916666666, "name": "7cd6084e6af4ea6ae2ef75e41b06c5e2", "is_disabled": 0, "type": "electric_scooter", "is_reserved": 0, "fusion_lon": 0.0, "lat": 38.89728616666667, "rental_uris": {"ios": "https://dc.lft.to/lastmile_qr_scan", "android": "https://dc.lft.to/lastmile_qr_scan"}, "bike_id": "7cd6084e6af4ea6ae2ef75e41b06c5e2", "fusion_lat": 0.0}, {"lon": -77.03900483333334, "name": "dd603a0f7f42635191b68bd85aa4afdc", "is_disabled": 0, "type": "electric_scooter", "is_reserved": 0, "fusion_lon": 0.0, "lat": 38.914182, "rental_uris": {"ios": "https://dc.lft.to/lastmile_qr_scan", "android": "https://dc.lft.to/lastmile_qr_scan"}, "bike_id": "dd603a0f7f42635191b68bd85aa4afdc", "fusion_lat": 0.0}, {"lon": -77.02004816666667, "name": "af8427e4b9b6c8c16d7bd3e7f9727137", "is_disabled": 0, "type": "electric_scooter", "is_reserved": 0, "fusion_lon": 0.0, "lat": 38.88604266666667, "rental_uris": {"ios": "https://dc.lft.to/lastmile_qr_scan", "android": "https://dc.lft.to/lastmile_qr_scan"}, "bike_id": "af8427e4b9b6c8c16d7bd3e7f9727137", "fusion_lat": 0.0}, {"lon": -76.9948795, "name": "c14f3f3285d9b09b360c8b4522f9dcb1", "is_disabled": 0, "type": "electric_scooter", "is_reserved": 0, "fusion_lon": 0.0, "lat": 38.881955, "rental_uris": {"ios": "https://dc.lft.to/lastmile_qr_scan", "android": "https://dc.lft.to/lastmile_qr_scan"}, "bike_id": "c14f3f3285d9b09b360c8b4522f9dcb1", "fusion_lat": 0.0}, {"lon": -77.02967766666667, "name": "01512e3d3f3eb36d184334c0602de051", "is_disabled": 0, "type": "electric_scooter", "is_reserved": 0, "fusion_lon": 0.0, "lat": 38.89883566666666, "rental_uris": {"ios": "https://dc.lft.to/lastmile_qr_scan", "android": "https://dc.lft.to/lastmile_qr_scan"}, "bike_id": "01512e3d3f3eb36d184334c0602de051", "fusion_lat": 0.0}, {"lon": -76.98036233333333, "name": "4a464e01018254f32bce2026451f1d92", "is_disabled": 0, "type": "electric_scooter", "is_reserved": 0, "fusion_lon": 0.0, "lat": 38.889672833333336, "rental_uris": {"ios": "https://dc.lft.to/lastmile_qr_scan", "android": "https://dc.lft.to/lastmile_qr_scan"}, "bike_id": "4a464e01018254f32bce2026451f1d92", "fusion_lat": 0.0}, {"lon": -76.94466916666667, "name": "d9c18a0eb1493beca437cd138db921e7", "is_disabled": 0, "type": "electric_scooter", "is_reserved": 0, "fusion_lon": 0.0, "lat": 38.890263166666664, "rental_uris": {"ios": "https://dc.lft.to/lastmile_qr_scan", "android": "https://dc.lft.to/lastmile_qr_scan"}, "bike_id": "d9c18a0eb1493beca437cd138db921e7", "fusion_lat": 0.0}, {"lon": -77.038578, "name": "7d93a2e093722d89dc4a435bbc9c86e6", "is_disabled": 0, "type": "electric_scooter", "is_reserved": 0, "fusion_lon": 0.0, "lat": 38.925399, "rental_uris": {"ios": "https://dc.lft.to/lastmile_qr_scan", "android": "https://dc.lft.to/lastmile_qr_scan"}, "bike_id": "7d93a2e093722d89dc4a435bbc9c86e6", "fusion_lat": 0.0}, {"lon": -77.02603116666667, "name": "95496a8bfc38d61e0bbb8c0d1fba1e31", "is_disabled": 0, "type": "electric_scooter", "is_reserved": 0, "fusion_lon": 0.0, "lat": 38.897433666666664, "rental_uris": {"ios": "https://dc.lft.to/lastmile_qr_scan", "android": "https://dc.lft.to/lastmile_qr_scan"}, "bike_id": "95496a8bfc38d61e0bbb8c0d1fba1e31", "fusion_lat": 0.0}, {"lon": -77.01872716666666, "name": "95217ab0ef7c918c57677006a7f4183a", "is_disabled": 0, "type": "electric_scooter", "is_reserved": 0, "fusion_lon": 0.0, "lat": 38.93206933333333, "rental_uris": {"ios": "https://dc.lft.to/lastmile_qr_scan", "android": "https://dc.lft.to/lastmile_qr_scan"}, "bike_id": "95217ab0ef7c918c57677006a7f4183a", "fusion_lat": 0.0}, {"lon": -76.980216, "name": "814f27b12fa0db88aabd1a47e4853d1c", "is_disabled": 0, "type": "electric_bike", "is_reserved": 0, "fusion_lon": 0.0, "lat": 38.8681455, "rental_uris": {"ios": "https://dc.lft.to/lastmile_qr_scan", "android": "https://dc.lft.to/lastmile_qr_scan"}, "bike_id": "814f27b12fa0db88aabd1a47e4853d1c", "fusion_lat": 0.0}, {"lon": -77.00285466666666, "name": "9b587a8c0f76a09a6cce74b0e961aea8", "is_disabled": 0, "type": "electric_scooter", "is_reserved": 0, "fusion_lon": 0.0, "lat": 38.8935145, "rental_uris": {"ios": "https://dc.lft.to/lastmile_qr_scan", "android": "https://dc.lft.to/lastmile_qr_scan"}, "bike_id": "9b587a8c0f76a09a6cce74b0e961aea8", "fusion_lat": 0.0}, {"lon": -77.02292583333333, "name": "764bd9d125e68e3d3ba81c2c0cef822e", "is_disabled": 0, "type": "electric_scooter", "is_reserved": 0, "fusion_lon": 0.0, "lat": 38.9144505, "rental_uris": {"ios": "https://dc.lft.to/lastmile_qr_scan", "android": "https://dc.lft.to/lastmile_qr_scan"}, "bike_id": "764bd9d125e68e3d3ba81c2c0cef822e", "fusion_lat": 0.0}, {"lon": -77.048183, "name": "fbb156feb1c4cca5e659dfacd9f53285", "is_disabled": 0, "type": "electric_scooter", "is_reserved": 0, "fusion_lon": 0.0, "lat": 38.90194066666667, "rental_uris": {"ios": "https://dc.lft.to/lastmile_qr_scan", "android": "https://dc.lft.to/lastmile_qr_scan"}, "bike_id": "fbb156feb1c4cca5e659dfacd9f53285", "fusion_lat": 0.0}, {"lon": -77.00956683333334, "name": "5ddd6cf37bd289784ded73480e9ae1ae", "is_disabled": 0, "type": "electric_scooter", "is_reserved": 0, "fusion_lon": 0.0, "lat": 38.87629183333333, "rental_uris": {"ios": "https://dc.lft.to/lastmile_qr_scan", "android": "https://dc.lft.to/lastmile_qr_scan"}, "bike_id": "5ddd6cf37bd289784ded73480e9ae1ae", "fusion_lat": 0.0}, {"lon": -77.003477, "name": "84b27e4f502f2ad4d7059965135af939", "is_disabled": 0, "type": "electric_scooter", "is_reserved": 0, "fusion_lon": 0.0, "lat": 38.892538333333334, "rental_uris": {"ios": "https://dc.lft.to/lastmile_qr_scan", "android": "https://dc.lft.to/lastmile_qr_scan"}, "bike_id": "84b27e4f502f2ad4d7059965135af939", "fusion_lat": 0.0}, {"lon": -76.98934316666667, "name": "ba3ed6ce06e7a1579f6a2dbcfd143fa4", "is_disabled": 0, "type": "electric_scooter", "is_reserved": 0, "fusion_lon": 0.0, "lat": 38.882857, "rental_uris": {"ios": "https://dc.lft.to/lastmile_qr_scan", "android": "https://dc.lft.to/lastmile_qr_scan"}, "bike_id": "ba3ed6ce06e7a1579f6a2dbcfd143fa4", "fusion_lat": 0.0}, {"lon": -77.05928116666666, "name": "c5cf8670724ca341914f68f325c5b097", "is_disabled": 0, "type": "electric_scooter", "is_reserved": 0, "fusion_lon": 0.0, "lat": 38.901461, "rental_uris": {"ios": "https://dc.lft.to/lastmile_qr_scan", "android": "https://dc.lft.to/lastmile_qr_scan"}, "bike_id": "c5cf8670724ca341914f68f325c5b097", "fusion_lat": 0.0}, {"lon": -77.0436875, "name": "b13ae8d2340c26fbc4bc3476a196fe5b", "is_disabled": 0, "type": "electric_scooter", "is_reserved": 0, "fusion_lon": 0.0, "lat": 38.9082685, "rental_uris": {"ios": "https://dc.lft.to/lastmile_qr_scan", "android": "https://dc.lft.to/lastmile_qr_scan"}, "bike_id": "b13ae8d2340c26fbc4bc3476a196fe5b", "fusion_lat": 0.0}, {"lon": -76.99528966666666, "name": "87204b7acaae25c7fc4bc6417632f720", "is_disabled": 0, "type": "electric_scooter", "is_reserved": 0, "fusion_lon": 0.0, "lat": 38.88765866666667, "rental_uris": {"ios": "https://dc.lft.to/lastmile_qr_scan", "android": "https://dc.lft.to/lastmile_qr_scan"}, "bike_id": "87204b7acaae25c7fc4bc6417632f720", "fusion_lat": 0.0}, {"lon": -77.03361233333334, "name": "8e4123393d04670be72825caff5bb868", "is_disabled": 0, "type": "electric_scooter", "is_reserved": 0, "fusion_lon": 0.0, "lat": 38.92235183333333, "rental_uris": {"ios": "https://dc.lft.to/lastmile_qr_scan", "android": "https://dc.lft.to/lastmile_qr_scan"}, "bike_id": "8e4123393d04670be72825caff5bb868", "fusion_lat": 0.0}, {"lon": -77.071541, "name": "7db742e7410378b0576597d3c4d9fe71", "is_disabled": 0, "type": "electric_scooter", "is_reserved": 0, "fusion_lon": 0.0, "lat": 38.90772366666667, "rental_uris": {"ios": "https://dc.lft.to/lastmile_qr_scan", "android": "https://dc.lft.to/lastmile_qr_scan"}, "bike_id": "7db742e7410378b0576597d3c4d9fe71", "fusion_lat": 0.0}, {"lon": -77.01378983333333, "name": "607b2308db641d863386e0557d6daac5", "is_disabled": 0, "type": "electric_scooter", "is_reserved": 0, "fusion_lon": 0.0, "lat": 38.89846883333333, "rental_uris": {"ios": "https://dc.lft.to/lastmile_qr_scan", "android": "https://dc.lft.to/lastmile_qr_scan"}, "bike_id": "607b2308db641d863386e0557d6daac5", "fusion_lat": 0.0}, {"lon": -77.01717083333334, "name": "c294bdedd9f4c5c9848788287489d0e0", "is_disabled": 0, "type": "electric_scooter", "is_reserved": 0, "fusion_lon": 0.0, "lat": 38.90726133333333, "rental_uris": {"ios": "https://dc.lft.to/lastmile_qr_scan", "android": "https://dc.lft.to/lastmile_qr_scan"}, "bike_id": "c294bdedd9f4c5c9848788287489d0e0", "fusion_lat": 0.0}, {"lon": -77.00726166666666, "name": "c7939ee7c32ad55711a9655174608237", "is_disabled": 0, "type": "electric_scooter", "is_reserved": 0, "fusion_lon": 0.0, "lat": 38.911952, "rental_uris": {"ios": "https://dc.lft.to/lastmile_qr_scan", "android": "https://dc.lft.to/lastmile_qr_scan"}, "bike_id": "c7939ee7c32ad55711a9655174608237", "fusion_lat": 0.0}, {"lon": -77.01986666666667, "name": "53ac03a8fdaa4af481143f4d3c6ddd48", "is_disabled": 0, "type": "electric_scooter", "is_reserved": 0, "fusion_lon": 0.0, "lat": 38.93185483333333, "rental_uris": {"ios": "https://dc.lft.to/lastmile_qr_scan", "android": "https://dc.lft.to/lastmile_qr_scan"}, "bike_id": "53ac03a8fdaa4af481143f4d3c6ddd48", "fusion_lat": 0.0}, {"lon": -76.99552483333333, "name": "5c2d3a17ad973ce0ca2ca829d22159ca", "is_disabled": 0, "type": "electric_scooter", "is_reserved": 0, "fusion_lon": 0.0, "lat": 38.926605, "rental_uris": {"ios": "https://dc.lft.to/lastmile_qr_scan", "android": "https://dc.lft.to/lastmile_qr_scan"}, "bike_id": "5c2d3a17ad973ce0ca2ca829d22159ca", "fusion_lat": 0.0}, {"lon": -77.0326435, "name": "3c55268943b28cbcf9ccdd5d9a1945f7", "is_disabled": 0, "type": "electric_scooter", "is_reserved": 0, "fusion_lon": 0.0, "lat": 38.929064333333336, "rental_uris": {"ios": "https://dc.lft.to/lastmile_qr_scan", "android": "https://dc.lft.to/lastmile_qr_scan"}, "bike_id": "3c55268943b28cbcf9ccdd5d9a1945f7", "fusion_lat": 0.0}, {"lon": -76.9901775, "name": "b2d2948e6f9050308d5fea6e297a843b", "is_disabled": 0, "type": "electric_scooter", "is_reserved": 0, "fusion_lon": 0.0, "lat": 38.86515166666667, "rental_uris": {"ios": "https://dc.lft.to/lastmile_qr_scan", "android": "https://dc.lft.to/lastmile_qr_scan"}, "bike_id": "b2d2948e6f9050308d5fea6e297a843b", "fusion_lat": 0.0}, {"lon": -77.00214366666667, "name": "b6230501887bb43cb5902c69e8fffc0d", "is_disabled": 0, "type": "electric_scooter", "is_reserved": 0, "fusion_lon": 0.0, "lat": 38.90180433333333, "rental_uris": {"ios": "https://dc.lft.to/lastmile_qr_scan", "android": "https://dc.lft.to/lastmile_qr_scan"}, "bike_id": "b6230501887bb43cb5902c69e8fffc0d", "fusion_lat": 0.0}, {"lon": -76.94661116666667, "name": "2a5c8769ea3a41fcc6d2799e62b25126", "is_disabled": 0, "type": "electric_scooter", "is_reserved": 0, "fusion_lon": 0.0, "lat": 38.898678333333336, "rental_uris": {"ios": "https://dc.lft.to/lastmile_qr_scan", "android": "https://dc.lft.to/lastmile_qr_scan"}, "bike_id": "2a5c8769ea3a41fcc6d2799e62b25126", "fusion_lat": 0.0}, {"lon": -77.09117083333334, "name": "bf1196d60bd6df76999c69bd82a99522", "is_disabled": 0, "type": "electric_scooter", "is_reserved": 0, "fusion_lon": 0.0, "lat": 38.93097616666667, "rental_uris": {"ios": "https://dc.lft.to/lastmile_qr_scan", "android": "https://dc.lft.to/lastmile_qr_scan"}, "bike_id": "bf1196d60bd6df76999c69bd82a99522", "fusion_lat": 0.0}, {"lon": -77.01850366666666, "name": "85bf126cde2c36cc8169fe6c893dfb72", "is_disabled": 0, "type": "electric_scooter", "is_reserved": 0, "fusion_lon": 0.0, "lat": 38.94891616666666, "rental_uris": {"ios": "https://dc.lft.to/lastmile_qr_scan", "android": "https://dc.lft.to/lastmile_qr_scan"}, "bike_id": "85bf126cde2c36cc8169fe6c893dfb72", "fusion_lat": 0.0}, {"lon": -76.99157383333333, "name": "87e6052cfb1a5c20410c24906ab956c5", "is_disabled": 0, "type": "electric_bike", "is_reserved": 0, "fusion_lon": 0.0, "lat": 38.9012795, "rental_uris": {"ios": "https://dc.lft.to/lastmile_qr_scan", "android": "https://dc.lft.to/lastmile_qr_scan"}, "bike_id": "87e6052cfb1a5c20410c24906ab956c5", "fusion_lat": 0.0}, {"lon": -77.02759166666667, "name": "90f1c16003757232fe0833b60ae149e6", "is_disabled": 0, "type": "electric_scooter", "is_reserved": 0, "fusion_lon": 0.0, "lat": 38.925804, "rental_uris": {"ios": "https://dc.lft.to/lastmile_qr_scan", "android": "https://dc.lft.to/lastmile_qr_scan"}, "bike_id": "90f1c16003757232fe0833b60ae149e6", "fusion_lat": 0.0}, {"lon": -77.036983, "name": "b17c3025c53b9fb2ff81cebb091cf7c7", "is_disabled": 0, "type": "electric_scooter", "is_reserved": 0, "fusion_lon": 0.0, "lat": 38.93065033333333, "rental_uris": {"ios": "https://dc.lft.to/lastmile_qr_scan", "android": "https://dc.lft.to/lastmile_qr_scan"}, "bike_id": "b17c3025c53b9fb2ff81cebb091cf7c7", "fusion_lat": 0.0}, {"lon": -77.03208883333333, "name": "fddf65c09af4ce146a763d9546cab610", "is_disabled": 0, "type": "electric_scooter", "is_reserved": 0, "fusion_lon": 0.0, "lat": 38.91639216666667, "rental_uris": {"ios": "https://dc.lft.to/lastmile_qr_scan", "android": "https://dc.lft.to/lastmile_qr_scan"}, "bike_id": "fddf65c09af4ce146a763d9546cab610", "fusion_lat": 0.0}, {"lon": -76.946923, "name": "d8b85c8cee2a3b0fd40bb138c0db90c2", "is_disabled": 0, "type": "electric_scooter", "is_reserved": 0, "fusion_lon": 0.0, "lat": 38.893537, "rental_uris": {"ios": "https://dc.lft.to/lastmile_qr_scan", "android": "https://dc.lft.to/lastmile_qr_scan"}, "bike_id": "d8b85c8cee2a3b0fd40bb138c0db90c2", "fusion_lat": 0.0}, {"lon": -77.04492983333333, "name": "84a79289772a93f1307a6b87698b0365", "is_disabled": 0, "type": "electric_scooter", "is_reserved": 0, "fusion_lon": 0.0, "lat": 38.91141966666667, "rental_uris": {"ios": "https://dc.lft.to/lastmile_qr_scan", "android": "https://dc.lft.to/lastmile_qr_scan"}, "bike_id": "84a79289772a93f1307a6b87698b0365", "fusion_lat": 0.0}, {"lon": -77.02407433333333, "name": "6520536b68386928a5fc2ad0af893ea0", "is_disabled": 0, "type": "electric_scooter", "is_reserved": 0, "fusion_lon": 0.0, "lat": 38.90416233333333, "rental_uris": {"ios": "https://dc.lft.to/lastmile_qr_scan", "android": "https://dc.lft.to/lastmile_qr_scan"}, "bike_id": "6520536b68386928a5fc2ad0af893ea0", "fusion_lat": 0.0}, {"lon": -77.00357483333333, "name": "a84475f395605a545238578e0ebfbf7a", "is_disabled": 0, "type": "electric_scooter", "is_reserved": 0, "fusion_lon": 0.0, "lat": 38.91766366666667, "rental_uris": {"ios": "https://dc.lft.to/lastmile_qr_scan", "android": "https://dc.lft.to/lastmile_qr_scan"}, "bike_id": "a84475f395605a545238578e0ebfbf7a", "fusion_lat": 0.0}, {"lon": -76.990982, "name": "c84a49b2af38a477f39e2df067852740", "is_disabled": 0, "type": "electric_bike", "is_reserved": 0, "fusion_lon": 0.0, "lat": 38.80477033333333, "rental_uris": {"ios": "https://dc.lft.to/lastmile_qr_scan", "android": "https://dc.lft.to/lastmile_qr_scan"}, "bike_id": "c84a49b2af38a477f39e2df067852740", "fusion_lat": 0.0}, {"lon": -77.0801905, "name": "138d5b48e5bacf2db0f5c7a41185f00e", "is_disabled": 0, "type": "electric_bike", "is_reserved": 0, "fusion_lon": 0.0, "lat": 38.95767016666667, "rental_uris": {"ios": "https://dc.lft.to/lastmile_qr_scan", "android": "https://dc.lft.to/lastmile_qr_scan"}, "bike_id": "138d5b48e5bacf2db0f5c7a41185f00e", "fusion_lat": 0.0}, {"lon": -76.97559533333333, "name": "de80fd9e7e19e4cfaedd82011aecfd1f", "is_disabled": 0, "type": "electric_bike", "is_reserved": 0, "fusion_lon": 0.0, "lat": 38.87261766666666, "rental_uris": {"ios": "https://dc.lft.to/lastmile_qr_scan", "android": "https://dc.lft.to/lastmile_qr_scan"}, "bike_id": "de80fd9e7e19e4cfaedd82011aecfd1f", "fusion_lat": 0.0}, {"lon": -77.02967283333334, "name": "d76b340f1f5a3d7827a834a5eabb17b9", "is_disabled": 0, "type": "electric_scooter", "is_reserved": 0, "fusion_lon": 0.0, "lat": 38.9167755, "rental_uris": {"ios": "https://dc.lft.to/lastmile_qr_scan", "android": "https://dc.lft.to/lastmile_qr_scan"}, "bike_id": "d76b340f1f5a3d7827a834a5eabb17b9", "fusion_lat": 0.0}, {"lon": -77.0651385, "name": "d781ec2941a0927602be03f25ed4c158", "is_disabled": 0, "type": "electric_scooter", "is_reserved": 0, "fusion_lon": 0.0, "lat": 38.90403583333333, "rental_uris": {"ios": "https://dc.lft.to/lastmile_qr_scan", "android": "https://dc.lft.to/lastmile_qr_scan"}, "bike_id": "d781ec2941a0927602be03f25ed4c158", "fusion_lat": 0.0}, {"lon": -77.01860316666667, "name": "24a06d9781b45696f20f617b9fc9d090", "is_disabled": 0, "type": "electric_scooter", "is_reserved": 0, "fusion_lon": 0.0, "lat": 38.94189, "rental_uris": {"ios": "https://dc.lft.to/lastmile_qr_scan", "android": "https://dc.lft.to/lastmile_qr_scan"}, "bike_id": "24a06d9781b45696f20f617b9fc9d090", "fusion_lat": 0.0}, {"lon": -77.00871716666667, "name": "1fac816c24ed78bdd10cfb863b350fd1", "is_disabled": 0, "type": "electric_scooter", "is_reserved": 0, "fusion_lon": 0.0, "lat": 38.90716833333333, "rental_uris": {"ios": "https://dc.lft.to/lastmile_qr_scan", "android": "https://dc.lft.to/lastmile_qr_scan"}, "bike_id": "1fac816c24ed78bdd10cfb863b350fd1", "fusion_lat": 0.0}, {"lon": -77.033566, "name": "753c5ce40ec4fc19ae2cfa210f96c47d", "is_disabled": 0, "type": "electric_scooter", "is_reserved": 0, "fusion_lon": 0.0, "lat": 38.93755633333333, "rental_uris": {"ios": "https://dc.lft.to/lastmile_qr_scan", "android": "https://dc.lft.to/lastmile_qr_scan"}, "bike_id": "753c5ce40ec4fc19ae2cfa210f96c47d", "fusion_lat": 0.0}, {"lon": -77.021072, "name": "331aaba7851e9b0ac3c5aed56fa535e7", "is_disabled": 0, "type": "electric_scooter", "is_reserved": 0, "fusion_lon": 0.0, "lat": 38.9060355, "rental_uris": {"ios": "https://dc.lft.to/lastmile_qr_scan", "android": "https://dc.lft.to/lastmile_qr_scan"}, "bike_id": "331aaba7851e9b0ac3c5aed56fa535e7", "fusion_lat": 0.0}, {"lon": -77.03179716666666, "name": "fa425a89beb59241e579d848039381de", "is_disabled": 0, "type": "electric_scooter", "is_reserved": 0, "fusion_lon": 0.0, "lat": 38.913433, "rental_uris": {"ios": "https://dc.lft.to/lastmile_qr_scan", "android": "https://dc.lft.to/lastmile_qr_scan"}, "bike_id": "fa425a89beb59241e579d848039381de", "fusion_lat": 0.0}, {"lon": -77.03350883333333, "name": "fbec49e56ee200e0577a8d4854895691", "is_disabled": 0, "type": "electric_scooter", "is_reserved": 0, "fusion_lon": 0.0, "lat": 38.88476683333333, "rental_uris": {"ios": "https://dc.lft.to/lastmile_qr_scan", "android": "https://dc.lft.to/lastmile_qr_scan"}, "bike_id": "fbec49e56ee200e0577a8d4854895691", "fusion_lat": 0.0}, {"lon": -77.03409966666666, "name": "3f34f8d431f62f6f529a44a8a5710294", "is_disabled": 0, "type": "electric_scooter", "is_reserved": 0, "fusion_lon": 0.0, "lat": 38.91924, "rental_uris": {"ios": "https://dc.lft.to/lastmile_qr_scan", "android": "https://dc.lft.to/lastmile_qr_scan"}, "bike_id": "3f34f8d431f62f6f529a44a8a5710294", "fusion_lat": 0.0}, {"lon": -77.0094435, "name": "3c07729f7010577c0e8da885f91d0d6d", "is_disabled": 0, "type": "electric_scooter", "is_reserved": 0, "fusion_lon": 0.0, "lat": 38.9155775, "rental_uris": {"ios": "https://dc.lft.to/lastmile_qr_scan", "android": "https://dc.lft.to/lastmile_qr_scan"}, "bike_id": "3c07729f7010577c0e8da885f91d0d6d", "fusion_lat": 0.0}, {"lon": -77.0380565, "name": "6367c00496f6e85a821bb7c094a3f2c5", "is_disabled": 0, "type": "electric_scooter", "is_reserved": 0, "fusion_lon": 0.0, "lat": 38.90669533333333, "rental_uris": {"ios": "https://dc.lft.to/lastmile_qr_scan", "android": "https://dc.lft.to/lastmile_qr_scan"}, "bike_id": "6367c00496f6e85a821bb7c094a3f2c5", "fusion_lat": 0.0}, {"lon": -77.0021515, "name": "cbd132cd8054ab1a8dd9793f28d06591", "is_disabled": 0, "type": "electric_scooter", "is_reserved": 0, "fusion_lon": 0.0, "lat": 38.9018545, "rental_uris": {"ios": "https://dc.lft.to/lastmile_qr_scan", "android": "https://dc.lft.to/lastmile_qr_scan"}, "bike_id": "cbd132cd8054ab1a8dd9793f28d06591", "fusion_lat": 0.0}, {"lon": -77.04738433333333, "name": "ec4f3003d161b472d01958373fdc026f", "is_disabled": 0, "type": "electric_scooter", "is_reserved": 0, "fusion_lon": 0.0, "lat": 38.9005905, "rental_uris": {"ios": "https://dc.lft.to/lastmile_qr_scan", "android": "https://dc.lft.to/lastmile_qr_scan"}, "bike_id": "ec4f3003d161b472d01958373fdc026f", "fusion_lat": 0.0}, {"lon": -77.04393033333334, "name": "2657ead6e0b3d82abf0459690ad355d9", "is_disabled": 0, "type": "electric_scooter", "is_reserved": 0, "fusion_lon": 0.0, "lat": 38.90148, "rental_uris": {"ios": "https://dc.lft.to/lastmile_qr_scan", "android": "https://dc.lft.to/lastmile_qr_scan"}, "bike_id": "2657ead6e0b3d82abf0459690ad355d9", "fusion_lat": 0.0}, {"lon": -77.0394785, "name": "e0995c4958a450abc029eb3a25b348dc", "is_disabled": 0, "type": "electric_scooter", "is_reserved": 0, "fusion_lon": 0.0, "lat": 38.898982333333336, "rental_uris": {"ios": "https://dc.lft.to/lastmile_qr_scan", "android": "https://dc.lft.to/lastmile_qr_scan"}, "bike_id": "e0995c4958a450abc029eb3a25b348dc", "fusion_lat": 0.0}, {"lon": -77.0337955, "name": "dab037e253eb468a09b33a9b35b0967a", "is_disabled": 0, "type": "electric_scooter", "is_reserved": 0, "fusion_lon": 0.0, "lat": 38.921484666666665, "rental_uris": {"ios": "https://dc.lft.to/lastmile_qr_scan", "android": "https://dc.lft.to/lastmile_qr_scan"}, "bike_id": "dab037e253eb468a09b33a9b35b0967a", "fusion_lat": 0.0}, {"lon": -77.03334116666667, "name": "3292476096c569cc405ba16109dc069d", "is_disabled": 0, "type": "electric_scooter", "is_reserved": 0, "fusion_lon": 0.0, "lat": 38.92871, "rental_uris": {"ios": "https://dc.lft.to/lastmile_qr_scan", "android": "https://dc.lft.to/lastmile_qr_scan"}, "bike_id": "3292476096c569cc405ba16109dc069d", "fusion_lat": 0.0}, {"lon": -77.02383183333333, "name": "b8ebc684c4d5d9095c68f5f3c82a7846", "is_disabled": 0, "type": "electric_scooter", "is_reserved": 0, "fusion_lon": 0.0, "lat": 38.90843116666667, "rental_uris": {"ios": "https://dc.lft.to/lastmile_qr_scan", "android": "https://dc.lft.to/lastmile_qr_scan"}, "bike_id": "b8ebc684c4d5d9095c68f5f3c82a7846", "fusion_lat": 0.0}, {"lon": -77.02379, "name": "e1d36b27055fbf211f3638353ccddce6", "is_disabled": 0, "type": "electric_scooter", "is_reserved": 0, "fusion_lon": 0.0, "lat": 38.95269866666667, "rental_uris": {"ios": "https://dc.lft.to/lastmile_qr_scan", "android": "https://dc.lft.to/lastmile_qr_scan"}, "bike_id": "e1d36b27055fbf211f3638353ccddce6", "fusion_lat": 0.0}, {"lon": -77.00788983333334, "name": "d29d8c7434462f2c6648c0bfe2ef52a1", "is_disabled": 0, "type": "electric_scooter", "is_reserved": 0, "fusion_lon": 0.0, "lat": 38.89672216666666, "rental_uris": {"ios": "https://dc.lft.to/lastmile_qr_scan", "android": "https://dc.lft.to/lastmile_qr_scan"}, "bike_id": "d29d8c7434462f2c6648c0bfe2ef52a1", "fusion_lat": 0.0}, {"lon": -77.00052183333334, "name": "e761ca92337d726e11c142899641e722", "is_disabled": 0, "type": "electric_scooter", "is_reserved": 0, "fusion_lon": 0.0, "lat": 38.87534333333333, "rental_uris": {"ios": "https://dc.lft.to/lastmile_qr_scan", "android": "https://dc.lft.to/lastmile_qr_scan"}, "bike_id": "e761ca92337d726e11c142899641e722", "fusion_lat": 0.0}, {"lon": -77.0201545, "name": "cecd53f336e7e7c7179732686927d426", "is_disabled": 0, "type": "electric_scooter", "is_reserved": 0, "fusion_lon": 0.0, "lat": 38.92408016666667, "rental_uris": {"ios": "https://dc.lft.to/lastmile_qr_scan", "android": "https://dc.lft.to/lastmile_qr_scan"}, "bike_id": "cecd53f336e7e7c7179732686927d426", "fusion_lat": 0.0}, {"lon": -77.02476766666666, "name": "490e3ca3a30939bde54309d022f706fd", "is_disabled": 0, "type": "electric_scooter", "is_reserved": 0, "fusion_lon": 0.0, "lat": 38.93090733333333, "rental_uris": {"ios": "https://dc.lft.to/lastmile_qr_scan", "android": "https://dc.lft.to/lastmile_qr_scan"}, "bike_id": "490e3ca3a30939bde54309d022f706fd", "fusion_lat": 0.0}, {"lon": -77.021548, "name": "4d4d195e38a0348d3a761f883c2bf0eb", "is_disabled": 0, "type": "electric_scooter", "is_reserved": 0, "fusion_lon": 0.0, "lat": 38.92605416666667, "rental_uris": {"ios": "https://dc.lft.to/lastmile_qr_scan", "android": "https://dc.lft.to/lastmile_qr_scan"}, "bike_id": "4d4d195e38a0348d3a761f883c2bf0eb", "fusion_lat": 0.0}, {"lon": -77.0318375, "name": "cf25a7584ea6d2d2f790082cb9609243", "is_disabled": 0, "type": "electric_scooter", "is_reserved": 0, "fusion_lon": 0.0, "lat": 38.913182166666665, "rental_uris": {"ios": "https://dc.lft.to/lastmile_qr_scan", "android": "https://dc.lft.to/lastmile_qr_scan"}, "bike_id": "cf25a7584ea6d2d2f790082cb9609243", "fusion_lat": 0.0}, {"lon": -77.03133583333333, "name": "f9a6bea65adffdc5fd8811c037e9e783", "is_disabled": 0, "type": "electric_scooter", "is_reserved": 0, "fusion_lon": 0.0, "lat": 38.91105016666667, "rental_uris": {"ios": "https://dc.lft.to/lastmile_qr_scan", "android": "https://dc.lft.to/lastmile_qr_scan"}, "bike_id": "f9a6bea65adffdc5fd8811c037e9e783", "fusion_lat": 0.0}, {"lon": -77.01947533333333, "name": "441423a86864d9e0d8a620324293712d", "is_disabled": 0, "type": "electric_scooter", "is_reserved": 0, "fusion_lon": 0.0, "lat": 38.9241535, "rental_uris": {"ios": "https://dc.lft.to/lastmile_qr_scan", "android": "https://dc.lft.to/lastmile_qr_scan"}, "bike_id": "441423a86864d9e0d8a620324293712d", "fusion_lat": 0.0}, {"lon": -76.973339, "name": "2106ab4909754406995b6551a1483420", "is_disabled": 0, "type": "electric_scooter", "is_reserved": 0, "fusion_lon": 0.0, "lat": 38.90403516666667, "rental_uris": {"ios": "https://dc.lft.to/lastmile_qr_scan", "android": "https://dc.lft.to/lastmile_qr_scan"}, "bike_id": "2106ab4909754406995b6551a1483420", "fusion_lat": 0.0}, {"lon": -77.021536, "name": "33858e1a6f53d59737218e64aa075530", "is_disabled": 0, "type": "electric_scooter", "is_reserved": 0, "fusion_lon": 0.0, "lat": 38.92601583333333, "rental_uris": {"ios": "https://dc.lft.to/lastmile_qr_scan", "android": "https://dc.lft.to/lastmile_qr_scan"}, "bike_id": "33858e1a6f53d59737218e64aa075530", "fusion_lat": 0.0}, {"lon": -77.03634183333334, "name": "e3fb53cf8e518aa5cea4302ecb109789", "is_disabled": 0, "type": "electric_scooter", "is_reserved": 0, "fusion_lon": 0.0, "lat": 38.903016, "rental_uris": {"ios": "https://dc.lft.to/lastmile_qr_scan", "android": "https://dc.lft.to/lastmile_qr_scan"}, "bike_id": "e3fb53cf8e518aa5cea4302ecb109789", "fusion_lat": 0.0}, {"lon": -77.04077083333334, "name": "14aacfbf9e7e59406dcc102a9afe3f24", "is_disabled": 0, "type": "electric_scooter", "is_reserved": 0, "fusion_lon": 0.0, "lat": 38.928842833333334, "rental_uris": {"ios": "https://dc.lft.to/lastmile_qr_scan", "android": "https://dc.lft.to/lastmile_qr_scan"}, "bike_id": "14aacfbf9e7e59406dcc102a9afe3f24", "fusion_lat": 0.0}, {"lon": -77.03614033333334, "name": "b62ed29a33bc97307b17b1bf94195d59", "is_disabled": 0, "type": "electric_bike", "is_reserved": 0, "fusion_lon": 0.0, "lat": 38.952924833333334, "rental_uris": {"ios": "https://dc.lft.to/lastmile_qr_scan", "android": "https://dc.lft.to/lastmile_qr_scan"}, "bike_id": "b62ed29a33bc97307b17b1bf94195d59", "fusion_lat": 0.0}, {"lon": -77.07467916666667, "name": "1966d8213a45ba90b2b7b5e0bffb1cf3", "is_disabled": 0, "type": "electric_scooter", "is_reserved": 0, "fusion_lon": 0.0, "lat": 38.922399666666664, "rental_uris": {"ios": "https://dc.lft.to/lastmile_qr_scan", "android": "https://dc.lft.to/lastmile_qr_scan"}, "bike_id": "1966d8213a45ba90b2b7b5e0bffb1cf3", "fusion_lat": 0.0}, {"lon": -77.04595266666666, "name": "148802fd9f95fb9ffe1d078d9795bd7e", "is_disabled": 0, "type": "electric_scooter", "is_reserved": 0, "fusion_lon": 0.0, "lat": 38.89611166666667, "rental_uris": {"ios": "https://dc.lft.to/lastmile_qr_scan", "android": "https://dc.lft.to/lastmile_qr_scan"}, "bike_id": "148802fd9f95fb9ffe1d078d9795bd7e", "fusion_lat": 0.0}, {"lon": -77.02516333333334, "name": "3c50995c1c4625093aa1c2fa2978320c", "is_disabled": 0, "type": "electric_scooter", "is_reserved": 0, "fusion_lon": 0.0, "lat": 38.920893166666666, "rental_uris": {"ios": "https://dc.lft.to/lastmile_qr_scan", "android": "https://dc.lft.to/lastmile_qr_scan"}, "bike_id": "3c50995c1c4625093aa1c2fa2978320c", "fusion_lat": 0.0}, {"lon": -76.99140716666666, "name": "1a24097971602b608c10cb3658a44526", "is_disabled": 0, "type": "electric_bike", "is_reserved": 0, "fusion_lon": 0.0, "lat": 38.93811866666667, "rental_uris": {"ios": "https://dc.lft.to/lastmile_qr_scan", "android": "https://dc.lft.to/lastmile_qr_scan"}, "bike_id": "1a24097971602b608c10cb3658a44526", "fusion_lat": 0.0}, {"lon": -77.01159016666666, "name": "afd78580aeff35c50d946181af7b85a8", "is_disabled": 0, "type": "electric_scooter", "is_reserved": 0, "fusion_lon": 0.0, "lat": 38.917049, "rental_uris": {"ios": "https://dc.lft.to/lastmile_qr_scan", "android": "https://dc.lft.to/lastmile_qr_scan"}, "bike_id": "afd78580aeff35c50d946181af7b85a8", "fusion_lat": 0.0}, {"lon": -77.03213983333333, "name": "94aba7a08e8945f4f183d2faa91de1ca", "is_disabled": 0, "type": "electric_scooter", "is_reserved": 0, "fusion_lon": 0.0, "lat": 38.91194433333333, "rental_uris": {"ios": "https://dc.lft.to/lastmile_qr_scan", "android": "https://dc.lft.to/lastmile_qr_scan"}, "bike_id": "94aba7a08e8945f4f183d2faa91de1ca", "fusion_lat": 0.0}, {"lon": -77.00679633333333, "name": "e10318b7425882034ba2e61723d9c69f", "is_disabled": 0, "type": "electric_scooter", "is_reserved": 0, "fusion_lon": 0.0, "lat": 38.871707666666666, "rental_uris": {"ios": "https://dc.lft.to/lastmile_qr_scan", "android": "https://dc.lft.to/lastmile_qr_scan"}, "bike_id": "e10318b7425882034ba2e61723d9c69f", "fusion_lat": 0.0}, {"lon": -77.01097316666667, "name": "25d46e92fd573e9354ed4a8cd4660396", "is_disabled": 0, "type": "electric_scooter", "is_reserved": 0, "fusion_lon": 0.0, "lat": 38.894735, "rental_uris": {"ios": "https://dc.lft.to/lastmile_qr_scan", "android": "https://dc.lft.to/lastmile_qr_scan"}, "bike_id": "25d46e92fd573e9354ed4a8cd4660396", "fusion_lat": 0.0}, {"lon": -76.92945716666667, "name": "08423b2109ba3cf90ad759ae8031d5e7", "is_disabled": 0, "type": "electric_scooter", "is_reserved": 0, "fusion_lon": 0.0, "lat": 38.9017865, "rental_uris": {"ios": "https://dc.lft.to/lastmile_qr_scan", "android": "https://dc.lft.to/lastmile_qr_scan"}, "bike_id": "08423b2109ba3cf90ad759ae8031d5e7", "fusion_lat": 0.0}, {"lon": -77.0295205, "name": "f5ff5ae0d2aab0121f40d38e8e9e27ce", "is_disabled": 0, "type": "electric_scooter", "is_reserved": 0, "fusion_lon": 0.0, "lat": 38.916928666666664, "rental_uris": {"ios": "https://dc.lft.to/lastmile_qr_scan", "android": "https://dc.lft.to/lastmile_qr_scan"}, "bike_id": "f5ff5ae0d2aab0121f40d38e8e9e27ce", "fusion_lat": 0.0}, {"lon": -77.00368833333333, "name": "c70058b52ee82b8f7ae91322c60fca81", "is_disabled": 0, "type": "electric_scooter", "is_reserved": 0, "fusion_lon": 0.0, "lat": 38.87631183333333, "rental_uris": {"ios": "https://dc.lft.to/lastmile_qr_scan", "android": "https://dc.lft.to/lastmile_qr_scan"}, "bike_id": "c70058b52ee82b8f7ae91322c60fca81", "fusion_lat": 0.0}, {"lon": -77.0280285, "name": "9019aa5039ede7663c5e1188ad28b5aa", "is_disabled": 0, "type": "electric_bike", "is_reserved": 0, "fusion_lon": 0.0, "lat": 38.921000666666664, "rental_uris": {"ios": "https://dc.lft.to/lastmile_qr_scan", "android": "https://dc.lft.to/lastmile_qr_scan"}, "bike_id": "9019aa5039ede7663c5e1188ad28b5aa", "fusion_lat": 0.0}, {"lon": -77.02752283333334, "name": "55db2ae1a39fad2dc218025e8fa25016", "is_disabled": 0, "type": "electric_scooter", "is_reserved": 0, "fusion_lon": 0.0, "lat": 38.929104833333334, "rental_uris": {"ios": "https://dc.lft.to/lastmile_qr_scan", "android": "https://dc.lft.to/lastmile_qr_scan"}, "bike_id": "55db2ae1a39fad2dc218025e8fa25016", "fusion_lat": 0.0}, {"lon": -77.03440316666666, "name": "4ea66610c29a502a0a706fa536890d4d", "is_disabled": 0, "type": "electric_scooter", "is_reserved": 0, "fusion_lon": 0.0, "lat": 38.9204745, "rental_uris": {"ios": "https://dc.lft.to/lastmile_qr_scan", "android": "https://dc.lft.to/lastmile_qr_scan"}, "bike_id": "4ea66610c29a502a0a706fa536890d4d", "fusion_lat": 0.0}, {"lon": -77.00711266666667, "name": "447f724b64ea432e94ea2148cab1a451", "is_disabled": 0, "type": "electric_scooter", "is_reserved": 0, "fusion_lon": 0.0, "lat": 38.916985833333335, "rental_uris": {"ios": "https://dc.lft.to/lastmile_qr_scan", "android": "https://dc.lft.to/lastmile_qr_scan"}, "bike_id": "447f724b64ea432e94ea2148cab1a451", "fusion_lat": 0.0}, {"lon": -77.04861733333334, "name": "236df3a3b5718187bd033cdd67e4e745", "is_disabled": 0, "type": "electric_scooter", "is_reserved": 0, "fusion_lon": 0.0, "lat": 38.8994, "rental_uris": {"ios": "https://dc.lft.to/lastmile_qr_scan", "android": "https://dc.lft.to/lastmile_qr_scan"}, "bike_id": "236df3a3b5718187bd033cdd67e4e745", "fusion_lat": 0.0}, {"lon": -77.02150266666666, "name": "c4ec3eeba4229619051d9688345625f5", "is_disabled": 0, "type": "electric_scooter", "is_reserved": 0, "fusion_lon": 0.0, "lat": 38.9245085, "rental_uris": {"ios": "https://dc.lft.to/lastmile_qr_scan", "android": "https://dc.lft.to/lastmile_qr_scan"}, "bike_id": "c4ec3eeba4229619051d9688345625f5", "fusion_lat": 0.0}, {"lon": -77.04687316666667, "name": "042c91d626cac4ed49b2d55decb801a2", "is_disabled": 0, "type": "electric_scooter", "is_reserved": 0, "fusion_lon": 0.0, "lat": 38.89220066666667, "rental_uris": {"ios": "https://dc.lft.to/lastmile_qr_scan", "android": "https://dc.lft.to/lastmile_qr_scan"}, "bike_id": "042c91d626cac4ed49b2d55decb801a2", "fusion_lat": 0.0}, {"lon": -77.0227145, "name": "7844b70b88f68c958a41d2855b1f059b", "is_disabled": 0, "type": "electric_scooter", "is_reserved": 0, "fusion_lon": 0.0, "lat": 38.8813345, "rental_uris": {"ios": "https://dc.lft.to/lastmile_qr_scan", "android": "https://dc.lft.to/lastmile_qr_scan"}, "bike_id": "7844b70b88f68c958a41d2855b1f059b", "fusion_lat": 0.0}, {"lon": -77.0348535, "name": "9332091ea03bfcf39928ff2d47ebd4a7", "is_disabled": 0, "type": "electric_scooter", "is_reserved": 0, "fusion_lon": 0.0, "lat": 38.9291845, "rental_uris": {"ios": "https://dc.lft.to/lastmile_qr_scan", "android": "https://dc.lft.to/lastmile_qr_scan"}, "bike_id": "9332091ea03bfcf39928ff2d47ebd4a7", "fusion_lat": 0.0}, {"lon": -76.93523033333334, "name": "4a43477f08e5d8e1a3ff6c9a7738d2dd", "is_disabled": 0, "type": "electric_scooter", "is_reserved": 0, "fusion_lon": 0.0, "lat": 38.878957666666665, "rental_uris": {"ios": "https://dc.lft.to/lastmile_qr_scan", "android": "https://dc.lft.to/lastmile_qr_scan"}, "bike_id": "4a43477f08e5d8e1a3ff6c9a7738d2dd", "fusion_lat": 0.0}, {"lon": -77.02531583333334, "name": "99af96706cee68388c1c881a69d9bd35", "is_disabled": 0, "type": "electric_scooter", "is_reserved": 0, "fusion_lon": 0.0, "lat": 38.96730133333333, "rental_uris": {"ios": "https://dc.lft.to/lastmile_qr_scan", "android": "https://dc.lft.to/lastmile_qr_scan"}, "bike_id": "99af96706cee68388c1c881a69d9bd35", "fusion_lat": 0.0}, {"lon": -77.00517, "name": "aa4f286950ad1dc53fbd99ebdab9a1aa", "is_disabled": 0, "type": "electric_scooter", "is_reserved": 0, "fusion_lon": 0.0, "lat": 38.87469216666667, "rental_uris": {"ios": "https://dc.lft.to/lastmile_qr_scan", "android": "https://dc.lft.to/lastmile_qr_scan"}, "bike_id": "aa4f286950ad1dc53fbd99ebdab9a1aa", "fusion_lat": 0.0}, {"lon": -77.00295366666667, "name": "024fcae471fb291e0fcb02c41a3629b5", "is_disabled": 0, "type": "electric_scooter", "is_reserved": 0, "fusion_lon": 0.0, "lat": 38.907030666666664, "rental_uris": {"ios": "https://dc.lft.to/lastmile_qr_scan", "android": "https://dc.lft.to/lastmile_qr_scan"}, "bike_id": "024fcae471fb291e0fcb02c41a3629b5", "fusion_lat": 0.0}, {"lon": -77.02184266666667, "name": "c74e6fafb10acae5061eba9076af33bf", "is_disabled": 0, "type": "electric_scooter", "is_reserved": 0, "fusion_lon": 0.0, "lat": 38.90110216666667, "rental_uris": {"ios": "https://dc.lft.to/lastmile_qr_scan", "android": "https://dc.lft.to/lastmile_qr_scan"}, "bike_id": "c74e6fafb10acae5061eba9076af33bf", "fusion_lat": 0.0}, {"lon": -77.04019516666666, "name": "d533feddfab1700ee8711e3a32b3a5ca", "is_disabled": 0, "type": "electric_scooter", "is_reserved": 0, "fusion_lon": 0.0, "lat": 38.902814, "rental_uris": {"ios": "https://dc.lft.to/lastmile_qr_scan", "android": "https://dc.lft.to/lastmile_qr_scan"}, "bike_id": "d533feddfab1700ee8711e3a32b3a5ca", "fusion_lat": 0.0}, {"lon": -77.03268916666667, "name": "f0b66cfd0269d2d7d1664f2bf20d823f", "is_disabled": 0, "type": "electric_scooter", "is_reserved": 0, "fusion_lon": 0.0, "lat": 38.89716966666667, "rental_uris": {"ios": "https://dc.lft.to/lastmile_qr_scan", "android": "https://dc.lft.to/lastmile_qr_scan"}, "bike_id": "f0b66cfd0269d2d7d1664f2bf20d823f", "fusion_lat": 0.0}, {"lon": -77.019299, "name": "19d21a5f663866ba568ac28fc574af1c", "is_disabled": 0, "type": "electric_scooter", "is_reserved": 0, "fusion_lon": 0.0, "lat": 38.92252333333333, "rental_uris": {"ios": "https://dc.lft.to/lastmile_qr_scan", "android": "https://dc.lft.to/lastmile_qr_scan"}, "bike_id": "19d21a5f663866ba568ac28fc574af1c", "fusion_lat": 0.0}, {"lon": -77.03573016666667, "name": "3f9d127a71d613ebb25c858d028225f1", "is_disabled": 0, "type": "electric_scooter", "is_reserved": 0, "fusion_lon": 0.0, "lat": 38.908144, "rental_uris": {"ios": "https://dc.lft.to/lastmile_qr_scan", "android": "https://dc.lft.to/lastmile_qr_scan"}, "bike_id": "3f9d127a71d613ebb25c858d028225f1", "fusion_lat": 0.0}, {"lon": -76.99143233333334, "name": "26132d14117d7be8700d71bf02e0f2c2", "is_disabled": 0, "type": "electric_scooter", "is_reserved": 0, "fusion_lon": 0.0, "lat": 38.89974866666667, "rental_uris": {"ios": "https://dc.lft.to/lastmile_qr_scan", "android": "https://dc.lft.to/lastmile_qr_scan"}, "bike_id": "26132d14117d7be8700d71bf02e0f2c2", "fusion_lat": 0.0}, {"lon": -77.02677183333333, "name": "484e7bb31e799e4026a777aad9e2974b", "is_disabled": 0, "type": "electric_scooter", "is_reserved": 0, "fusion_lon": 0.0, "lat": 38.91128833333333, "rental_uris": {"ios": "https://dc.lft.to/lastmile_qr_scan", "android": "https://dc.lft.to/lastmile_qr_scan"}, "bike_id": "484e7bb31e799e4026a777aad9e2974b", "fusion_lat": 0.0}, {"lon": -77.072257, "name": "f131dee539e4281e1bf82cc589b39bbc", "is_disabled": 0, "type": "electric_scooter", "is_reserved": 0, "fusion_lon": 0.0, "lat": 38.92359533333333, "rental_uris": {"ios": "https://dc.lft.to/lastmile_qr_scan", "android": "https://dc.lft.to/lastmile_qr_scan"}, "bike_id": "f131dee539e4281e1bf82cc589b39bbc", "fusion_lat": 0.0}, {"lon": -76.98542466666666, "name": "8112f969ca9c57f03edc985bdf5e872e", "is_disabled": 0, "type": "electric_scooter", "is_reserved": 0, "fusion_lon": 0.0, "lat": 38.90586416666667, "rental_uris": {"ios": "https://dc.lft.to/lastmile_qr_scan", "android": "https://dc.lft.to/lastmile_qr_scan"}, "bike_id": "8112f969ca9c57f03edc985bdf5e872e", "fusion_lat": 0.0}, {"lon": -77.0390105, "name": "1befa014ee8dfaa5b669550c61095f51", "is_disabled": 0, "type": "electric_scooter", "is_reserved": 0, "fusion_lon": 0.0, "lat": 38.91406, "rental_uris": {"ios": "https://dc.lft.to/lastmile_qr_scan", "android": "https://dc.lft.to/lastmile_qr_scan"}, "bike_id": "1befa014ee8dfaa5b669550c61095f51", "fusion_lat": 0.0}, {"lon": -77.0347775, "name": "930b29791f8e5c3334b89b85123c9ba4", "is_disabled": 0, "type": "electric_scooter", "is_reserved": 0, "fusion_lon": 0.0, "lat": 38.928686166666665, "rental_uris": {"ios": "https://dc.lft.to/lastmile_qr_scan", "android": "https://dc.lft.to/lastmile_qr_scan"}, "bike_id": "930b29791f8e5c3334b89b85123c9ba4", "fusion_lat": 0.0}, {"lon": -76.91722983333334, "name": "f2ab61823936e3cf9b64dd72821468ff", "is_disabled": 0, "type": "electric_bike", "is_reserved": 0, "fusion_lon": 0.0, "lat": 38.88025483333333, "rental_uris": {"ios": "https://dc.lft.to/lastmile_qr_scan", "android": "https://dc.lft.to/lastmile_qr_scan"}, "bike_id": "f2ab61823936e3cf9b64dd72821468ff", "fusion_lat": 0.0}, {"lon": -77.03632183333333, "name": "d5a51be9cb2303e96b6c39d8430aab6b", "is_disabled": 0, "type": "electric_scooter", "is_reserved": 0, "fusion_lon": 0.0, "lat": 38.924100833333334, "rental_uris": {"ios": "https://dc.lft.to/lastmile_qr_scan", "android": "https://dc.lft.to/lastmile_qr_scan"}, "bike_id": "d5a51be9cb2303e96b6c39d8430aab6b", "fusion_lat": 0.0}, {"lon": -77.0721945, "name": "c0e468ac77fdb46f0d6ef5fd7ebdfba4", "is_disabled": 0, "type": "electric_scooter", "is_reserved": 0, "fusion_lon": 0.0, "lat": 38.913618166666666, "rental_uris": {"ios": "https://dc.lft.to/lastmile_qr_scan", "android": "https://dc.lft.to/lastmile_qr_scan"}, "bike_id": "c0e468ac77fdb46f0d6ef5fd7ebdfba4", "fusion_lat": 0.0}, {"lon": -77.02777383333333, "name": "47f1b5c2aa26cc95edcca0085b6aee12", "is_disabled": 0, "type": "electric_scooter", "is_reserved": 0, "fusion_lon": 0.0, "lat": 38.955377, "rental_uris": {"ios": "https://dc.lft.to/lastmile_qr_scan", "android": "https://dc.lft.to/lastmile_qr_scan"}, "bike_id": "47f1b5c2aa26cc95edcca0085b6aee12", "fusion_lat": 0.0}, {"lon": -77.06514083333333, "name": "9986ae7733b1df2f422cbef088868d8d", "is_disabled": 0, "type": "electric_scooter", "is_reserved": 0, "fusion_lon": 0.0, "lat": 38.90446166666667, "rental_uris": {"ios": "https://dc.lft.to/lastmile_qr_scan", "android": "https://dc.lft.to/lastmile_qr_scan"}, "bike_id": "9986ae7733b1df2f422cbef088868d8d", "fusion_lat": 0.0}, {"lon": -77.00491233333334, "name": "26bdff0fce4b86851ce6c288513fcf62", "is_disabled": 0, "type": "electric_scooter", "is_reserved": 0, "fusion_lon": 0.0, "lat": 38.91690916666667, "rental_uris": {"ios": "https://dc.lft.to/lastmile_qr_scan", "android": "https://dc.lft.to/lastmile_qr_scan"}, "bike_id": "26bdff0fce4b86851ce6c288513fcf62", "fusion_lat": 0.0}, {"lon": -77.02060116666667, "name": "ac55881c2b21caa93f25f3b7afb1248d", "is_disabled": 0, "type": "electric_scooter", "is_reserved": 0, "fusion_lon": 0.0, "lat": 38.92374816666667, "rental_uris": {"ios": "https://dc.lft.to/lastmile_qr_scan", "android": "https://dc.lft.to/lastmile_qr_scan"}, "bike_id": "ac55881c2b21caa93f25f3b7afb1248d", "fusion_lat": 0.0}, {"lon": -77.02057633333334, "name": "5e8c7b3606dae042b92040aef79c3cc6", "is_disabled": 0, "type": "electric_scooter", "is_reserved": 0, "fusion_lon": 0.0, "lat": 38.923525166666664, "rental_uris": {"ios": "https://dc.lft.to/lastmile_qr_scan", "android": "https://dc.lft.to/lastmile_qr_scan"}, "bike_id": "5e8c7b3606dae042b92040aef79c3cc6", "fusion_lat": 0.0}, {"lon": -77.0366185, "name": "854c8be42b8231a27eb22fcb9be86d4a", "is_disabled": 0, "type": "electric_scooter", "is_reserved": 0, "fusion_lon": 0.0, "lat": 38.92237166666666, "rental_uris": {"ios": "https://dc.lft.to/lastmile_qr_scan", "android": "https://dc.lft.to/lastmile_qr_scan"}, "bike_id": "854c8be42b8231a27eb22fcb9be86d4a", "fusion_lat": 0.0}, {"lon": -77.025423, "name": "82a572461f30e7a6a98dbc5eb2230cfa", "is_disabled": 0, "type": "electric_scooter", "is_reserved": 0, "fusion_lon": 0.0, "lat": 38.892078166666664, "rental_uris": {"ios": "https://dc.lft.to/lastmile_qr_scan", "android": "https://dc.lft.to/lastmile_qr_scan"}, "bike_id": "82a572461f30e7a6a98dbc5eb2230cfa", "fusion_lat": 0.0}, {"lon": -77.02464, "name": "72193e3d8e7bc71ccb7a91b68c3251e7", "is_disabled": 0, "type": "electric_scooter", "is_reserved": 0, "fusion_lon": 0.0, "lat": 38.90651616666667, "rental_uris": {"ios": "https://dc.lft.to/lastmile_qr_scan", "android": "https://dc.lft.to/lastmile_qr_scan"}, "bike_id": "72193e3d8e7bc71ccb7a91b68c3251e7", "fusion_lat": 0.0}, {"lon": -77.03956566666666, "name": "a1040783699e18e8f9203b3a52c07dbe", "is_disabled": 0, "type": "electric_scooter", "is_reserved": 0, "fusion_lon": 0.0, "lat": 38.898954833333335, "rental_uris": {"ios": "https://dc.lft.to/lastmile_qr_scan", "android": "https://dc.lft.to/lastmile_qr_scan"}, "bike_id": "a1040783699e18e8f9203b3a52c07dbe", "fusion_lat": 0.0}, {"lon": -77.01852166666667, "name": "a7809ccd904d2e72b1f5d7d7c8319f5a", "is_disabled": 0, "type": "electric_scooter", "is_reserved": 0, "fusion_lon": 0.0, "lat": 38.90363083333333, "rental_uris": {"ios": "https://dc.lft.to/lastmile_qr_scan", "android": "https://dc.lft.to/lastmile_qr_scan"}, "bike_id": "a7809ccd904d2e72b1f5d7d7c8319f5a", "fusion_lat": 0.0}, {"lon": -77.02594366666666, "name": "0c7cd09c94daab6c4eda1152a08da45c", "is_disabled": 0, "type": "electric_scooter", "is_reserved": 0, "fusion_lon": 0.0, "lat": 38.896253333333334, "rental_uris": {"ios": "https://dc.lft.to/lastmile_qr_scan", "android": "https://dc.lft.to/lastmile_qr_scan"}, "bike_id": "0c7cd09c94daab6c4eda1152a08da45c", "fusion_lat": 0.0}, {"lon": -76.98835733333334, "name": "ca5e12da56180161613ee2c3136dd863", "is_disabled": 0, "type": "electric_scooter", "is_reserved": 0, "fusion_lon": 0.0, "lat": 38.934642333333336, "rental_uris": {"ios": "https://dc.lft.to/lastmile_qr_scan", "android": "https://dc.lft.to/lastmile_qr_scan"}, "bike_id": "ca5e12da56180161613ee2c3136dd863", "fusion_lat": 0.0}, {"lon": -77.02842683333333, "name": "c25e7c49ecb0ba0393de5be270144691", "is_disabled": 0, "type": "electric_scooter", "is_reserved": 0, "fusion_lon": 0.0, "lat": 38.94497483333333, "rental_uris": {"ios": "https://dc.lft.to/lastmile_qr_scan", "android": "https://dc.lft.to/lastmile_qr_scan"}, "bike_id": "c25e7c49ecb0ba0393de5be270144691", "fusion_lat": 0.0}, {"lon": -77.02674066666667, "name": "7a6c9767ec2fd88e64ef6ec5c0bd811b", "is_disabled": 0, "type": "electric_scooter", "is_reserved": 0, "fusion_lon": 0.0, "lat": 38.9216575, "rental_uris": {"ios": "https://dc.lft.to/lastmile_qr_scan", "android": "https://dc.lft.to/lastmile_qr_scan"}, "bike_id": "7a6c9767ec2fd88e64ef6ec5c0bd811b", "fusion_lat": 0.0}, {"lon": -76.94851833333334, "name": "dba46a408446484c023cbf9b7681b14e", "is_disabled": 0, "type": "electric_scooter", "is_reserved": 0, "fusion_lon": 0.0, "lat": 38.896082666666665, "rental_uris": {"ios": "https://dc.lft.to/lastmile_qr_scan", "android": "https://dc.lft.to/lastmile_qr_scan"}, "bike_id": "dba46a408446484c023cbf9b7681b14e", "fusion_lat": 0.0}, {"lon": -76.9730145, "name": "35175350404399e1086eba5e9ad5b2b6", "is_disabled": 0, "type": "electric_scooter", "is_reserved": 0, "fusion_lon": 0.0, "lat": 38.919898333333336, "rental_uris": {"ios": "https://dc.lft.to/lastmile_qr_scan", "android": "https://dc.lft.to/lastmile_qr_scan"}, "bike_id": "35175350404399e1086eba5e9ad5b2b6", "fusion_lat": 0.0}, {"lon": -77.0053165, "name": "ab40828ae9ea5fc83a5cfd277332e215", "is_disabled": 0, "type": "electric_scooter", "is_reserved": 0, "fusion_lon": 0.0, "lat": 38.87542666666667, "rental_uris": {"ios": "https://dc.lft.to/lastmile_qr_scan", "android": "https://dc.lft.to/lastmile_qr_scan"}, "bike_id": "ab40828ae9ea5fc83a5cfd277332e215", "fusion_lat": 0.0}, {"lon": -77.00865483333334, "name": "ee6602fd15913ef3bbdacbbef61579ea", "is_disabled": 0, "type": "electric_scooter", "is_reserved": 0, "fusion_lon": 0.0, "lat": 38.89739983333333, "rental_uris": {"ios": "https://dc.lft.to/lastmile_qr_scan", "android": "https://dc.lft.to/lastmile_qr_scan"}, "bike_id": "ee6602fd15913ef3bbdacbbef61579ea", "fusion_lat": 0.0}, {"lon": -77.03136333333333, "name": "af02a468fe6063867570114167eab7f1", "is_disabled": 0, "type": "electric_scooter", "is_reserved": 0, "fusion_lon": 0.0, "lat": 38.94192233333333, "rental_uris": {"ios": "https://dc.lft.to/lastmile_qr_scan", "android": "https://dc.lft.to/lastmile_qr_scan"}, "bike_id": "af02a468fe6063867570114167eab7f1", "fusion_lat": 0.0}, {"lon": -77.03963316666666, "name": "bf7fe3139336013dc323ffd2fca463a2", "is_disabled": 0, "type": "electric_scooter", "is_reserved": 0, "fusion_lon": 0.0, "lat": 38.90239616666667, "rental_uris": {"ios": "https://dc.lft.to/lastmile_qr_scan", "android": "https://dc.lft.to/lastmile_qr_scan"}, "bike_id": "bf7fe3139336013dc323ffd2fca463a2", "fusion_lat": 0.0}, {"lon": -77.00137233333334, "name": "4038f38096b8b755087cc331cc950462", "is_disabled": 0, "type": "electric_bike", "is_reserved": 0, "fusion_lon": 0.0, "lat": 38.9949615, "rental_uris": {"ios": "https://dc.lft.to/lastmile_qr_scan", "android": "https://dc.lft.to/lastmile_qr_scan"}, "bike_id": "4038f38096b8b755087cc331cc950462", "fusion_lat": 0.0}, {"lon": -77.001024, "name": "8c910fe2a193982bff19ac016e5f66c9", "is_disabled": 0, "type": "electric_scooter", "is_reserved": 0, "fusion_lon": 0.0, "lat": 38.89410516666667, "rental_uris": {"ios": "https://dc.lft.to/lastmile_qr_scan", "android": "https://dc.lft.to/lastmile_qr_scan"}, "bike_id": "8c910fe2a193982bff19ac016e5f66c9", "fusion_lat": 0.0}, {"lon": -77.01619933333333, "name": "7c27fe7d472c89f21f3a4eb559753597", "is_disabled": 0, "type": "electric_scooter", "is_reserved": 0, "fusion_lon": 0.0, "lat": 38.9005315, "rental_uris": {"ios": "https://dc.lft.to/lastmile_qr_scan", "android": "https://dc.lft.to/lastmile_qr_scan"}, "bike_id": "7c27fe7d472c89f21f3a4eb559753597", "fusion_lat": 0.0}, {"lon": -77.03665133333334, "name": "c980c58423069fe55f5493b7de80a49b", "is_disabled": 0, "type": "electric_scooter", "is_reserved": 0, "fusion_lon": 0.0, "lat": 38.9223975, "rental_uris": {"ios": "https://dc.lft.to/lastmile_qr_scan", "android": "https://dc.lft.to/lastmile_qr_scan"}, "bike_id": "c980c58423069fe55f5493b7de80a49b", "fusion_lat": 0.0}, {"lon": -76.93389833333333, "name": "027786cfbd0166a3081ee8fc317ba640", "is_disabled": 0, "type": "electric_scooter", "is_reserved": 0, "fusion_lon": 0.0, "lat": 38.899108166666664, "rental_uris": {"ios": "https://dc.lft.to/lastmile_qr_scan", "android": "https://dc.lft.to/lastmile_qr_scan"}, "bike_id": "027786cfbd0166a3081ee8fc317ba640", "fusion_lat": 0.0}, {"lon": -77.03047033333333, "name": "aba6c22d050ac56bae1fc488f13ba8b4", "is_disabled": 0, "type": "electric_scooter", "is_reserved": 0, "fusion_lon": 0.0, "lat": 38.884233333333334, "rental_uris": {"ios": "https://dc.lft.to/lastmile_qr_scan", "android": "https://dc.lft.to/lastmile_qr_scan"}, "bike_id": "aba6c22d050ac56bae1fc488f13ba8b4", "fusion_lat": 0.0}, {"lon": -77.02721633333333, "name": "a6db9ef5f4a71fa6a4834c24f7b77b48", "is_disabled": 0, "type": "electric_scooter", "is_reserved": 0, "fusion_lon": 0.0, "lat": 38.898183333333336, "rental_uris": {"ios": "https://dc.lft.to/lastmile_qr_scan", "android": "https://dc.lft.to/lastmile_qr_scan"}, "bike_id": "a6db9ef5f4a71fa6a4834c24f7b77b48", "fusion_lat": 0.0}, {"lon": -77.07091816666667, "name": "cf133d41d3d0d13857eea0c3867a8057", "is_disabled": 0, "type": "electric_scooter", "is_reserved": 0, "fusion_lon": 0.0, "lat": 38.90861733333333, "rental_uris": {"ios": "https://dc.lft.to/lastmile_qr_scan", "android": "https://dc.lft.to/lastmile_qr_scan"}, "bike_id": "cf133d41d3d0d13857eea0c3867a8057", "fusion_lat": 0.0}, {"lon": -77.05746816666667, "name": "e09de6250ed0037932716ba99423e963", "is_disabled": 0, "type": "electric_scooter", "is_reserved": 0, "fusion_lon": 0.0, "lat": 38.928721833333334, "rental_uris": {"ios": "https://dc.lft.to/lastmile_qr_scan", "android": "https://dc.lft.to/lastmile_qr_scan"}, "bike_id": "e09de6250ed0037932716ba99423e963", "fusion_lat": 0.0}, {"lon": -77.054046, "name": "cc65720c5b18dce9a22bef45d8452aaf", "is_disabled": 0, "type": "electric_scooter", "is_reserved": 0, "fusion_lon": 0.0, "lat": 38.898520500000004, "rental_uris": {"ios": "https://dc.lft.to/lastmile_qr_scan", "android": "https://dc.lft.to/lastmile_qr_scan"}, "bike_id": "cc65720c5b18dce9a22bef45d8452aaf", "fusion_lat": 0.0}, {"lon": -77.04127733333333, "name": "d99d255c2da42f4572dfd1f45f6d9a3f", "is_disabled": 0, "type": "electric_scooter", "is_reserved": 0, "fusion_lon": 0.0, "lat": 38.92176116666667, "rental_uris": {"ios": "https://dc.lft.to/lastmile_qr_scan", "android": "https://dc.lft.to/lastmile_qr_scan"}, "bike_id": "d99d255c2da42f4572dfd1f45f6d9a3f", "fusion_lat": 0.0}, {"lon": -77.04079583333333, "name": "38017e7f480f1725c9ded8f9a1881a0a", "is_disabled": 0, "type": "electric_scooter", "is_reserved": 0, "fusion_lon": 0.0, "lat": 38.89752766666667, "rental_uris": {"ios": "https://dc.lft.to/lastmile_qr_scan", "android": "https://dc.lft.to/lastmile_qr_scan"}, "bike_id": "38017e7f480f1725c9ded8f9a1881a0a", "fusion_lat": 0.0}, {"lon": -77.0524655, "name": "1d95dd8ba1b42ef2e1ca20f674f4a3c3", "is_disabled": 0, "type": "electric_scooter", "is_reserved": 0, "fusion_lon": 0.0, "lat": 38.923581666666664, "rental_uris": {"ios": "https://dc.lft.to/lastmile_qr_scan", "android": "https://dc.lft.to/lastmile_qr_scan"}, "bike_id": "1d95dd8ba1b42ef2e1ca20f674f4a3c3", "fusion_lat": 0.0}, {"lon": -77.0101375, "name": "3114db55f23ed55b93e8bf5bf27c40b4", "is_disabled": 0, "type": "electric_scooter", "is_reserved": 0, "fusion_lon": 0.0, "lat": 38.914066166666665, "rental_uris": {"ios": "https://dc.lft.to/lastmile_qr_scan", "android": "https://dc.lft.to/lastmile_qr_scan"}, "bike_id": "3114db55f23ed55b93e8bf5bf27c40b4", "fusion_lat": 0.0}, {"lon": -77.01762783333334, "name": "c427e8ceb726a401acda748b2394157c", "is_disabled": 0, "type": "electric_scooter", "is_reserved": 0, "fusion_lon": 0.0, "lat": 38.881392166666664, "rental_uris": {"ios": "https://dc.lft.to/lastmile_qr_scan", "android": "https://dc.lft.to/lastmile_qr_scan"}, "bike_id": "c427e8ceb726a401acda748b2394157c", "fusion_lat": 0.0}, {"lon": -77.0318055, "name": "a5cb23ee705a6d4b4594e128d43e209b", "is_disabled": 0, "type": "electric_scooter", "is_reserved": 0, "fusion_lon": 0.0, "lat": 38.908536833333336, "rental_uris": {"ios": "https://dc.lft.to/lastmile_qr_scan", "android": "https://dc.lft.to/lastmile_qr_scan"}, "bike_id": "a5cb23ee705a6d4b4594e128d43e209b", "fusion_lat": 0.0}, {"lon": -76.98112666666667, "name": "9f82d3463f9258985fab37bcd93b5df5", "is_disabled": 0, "type": "electric_scooter", "is_reserved": 0, "fusion_lon": 0.0, "lat": 38.91472433333333, "rental_uris": {"ios": "https://dc.lft.to/lastmile_qr_scan", "android": "https://dc.lft.to/lastmile_qr_scan"}, "bike_id": "9f82d3463f9258985fab37bcd93b5df5", "fusion_lat": 0.0}, {"lon": -77.0832885, "name": "5d6cb0a7503bbed5a8e7874de32462dd", "is_disabled": 0, "type": "electric_scooter", "is_reserved": 0, "fusion_lon": 0.0, "lat": 38.93604116666667, "rental_uris": {"ios": "https://dc.lft.to/lastmile_qr_scan", "android": "https://dc.lft.to/lastmile_qr_scan"}, "bike_id": "5d6cb0a7503bbed5a8e7874de32462dd", "fusion_lat": 0.0}, {"lon": -77.00572816666667, "name": "ec540307809374900bac3eacf1b8711b", "is_disabled": 0, "type": "electric_scooter", "is_reserved": 0, "fusion_lon": 0.0, "lat": 38.8721385, "rental_uris": {"ios": "https://dc.lft.to/lastmile_qr_scan", "android": "https://dc.lft.to/lastmile_qr_scan"}, "bike_id": "ec540307809374900bac3eacf1b8711b", "fusion_lat": 0.0}, {"lon": -77.0502525, "name": "ce445d8da7cd909d431b430ea2482f02", "is_disabled": 0, "type": "electric_scooter", "is_reserved": 0, "fusion_lon": 0.0, "lat": 38.892450833333335, "rental_uris": {"ios": "https://dc.lft.to/lastmile_qr_scan", "android": "https://dc.lft.to/lastmile_qr_scan"}, "bike_id": "ce445d8da7cd909d431b430ea2482f02", "fusion_lat": 0.0}, {"lon": -76.93005333333333, "name": "49b74ea3f5b5748d73a14d8ee1a71e65", "is_disabled": 0, "type": "electric_scooter", "is_reserved": 0, "fusion_lon": 0.0, "lat": 38.907186, "rental_uris": {"ios": "https://dc.lft.to/lastmile_qr_scan", "android": "https://dc.lft.to/lastmile_qr_scan"}, "bike_id": "49b74ea3f5b5748d73a14d8ee1a71e65", "fusion_lat": 0.0}, {"lon": -77.00565133333333, "name": "8a820a756303ceee6aa477b57cbcb504", "is_disabled": 0, "type": "electric_scooter", "is_reserved": 0, "fusion_lon": 0.0, "lat": 38.88500416666667, "rental_uris": {"ios": "https://dc.lft.to/lastmile_qr_scan", "android": "https://dc.lft.to/lastmile_qr_scan"}, "bike_id": "8a820a756303ceee6aa477b57cbcb504", "fusion_lat": 0.0}, {"lon": -77.09520216666667, "name": "44905aa3a8d69a46830838158e641b81", "is_disabled": 0, "type": "electric_bike", "is_reserved": 0, "fusion_lon": 0.0, "lat": 38.8381075, "rental_uris": {"ios": "https://dc.lft.to/lastmile_qr_scan", "android": "https://dc.lft.to/lastmile_qr_scan"}, "bike_id": "44905aa3a8d69a46830838158e641b81", "fusion_lat": 0.0}, {"lon": -77.0354045, "name": "b16f158273a37120b2dff33217c18997", "is_disabled": 0, "type": "electric_scooter", "is_reserved": 0, "fusion_lon": 0.0, "lat": 38.904710333333334, "rental_uris": {"ios": "https://dc.lft.to/lastmile_qr_scan", "android": "https://dc.lft.to/lastmile_qr_scan"}, "bike_id": "b16f158273a37120b2dff33217c18997", "fusion_lat": 0.0}, {"lon": -77.07828566666667, "name": "b4cc9c0d0ec63c1b05d0f2a57902cbe6", "is_disabled": 0, "type": "electric_scooter", "is_reserved": 0, "fusion_lon": 0.0, "lat": 38.92676816666667, "rental_uris": {"ios": "https://dc.lft.to/lastmile_qr_scan", "android": "https://dc.lft.to/lastmile_qr_scan"}, "bike_id": "b4cc9c0d0ec63c1b05d0f2a57902cbe6", "fusion_lat": 0.0}, {"lon": -76.972199, "name": "1359db60c52f7eabb5261e468da314dc", "is_disabled": 0, "type": "electric_bike", "is_reserved": 0, "fusion_lon": 0.0, "lat": 38.900265166666664, "rental_uris": {"ios": "https://dc.lft.to/lastmile_qr_scan", "android": "https://dc.lft.to/lastmile_qr_scan"}, "bike_id": "1359db60c52f7eabb5261e468da314dc", "fusion_lat": 0.0}, {"lon": -77.05618016666666, "name": "376d7e677a9b299bb11adf027950ed9f", "is_disabled": 0, "type": "electric_scooter", "is_reserved": 0, "fusion_lon": 0.0, "lat": 38.931163, "rental_uris": {"ios": "https://dc.lft.to/lastmile_qr_scan", "android": "https://dc.lft.to/lastmile_qr_scan"}, "bike_id": "376d7e677a9b299bb11adf027950ed9f", "fusion_lat": 0.0}, {"lon": -76.90747916666666, "name": "d1887d5875f9adcb8bab950965a6ba16", "is_disabled": 0, "type": "electric_bike", "is_reserved": 0, "fusion_lon": 0.0, "lat": 38.896168833333334, "rental_uris": {"ios": "https://dc.lft.to/lastmile_qr_scan", "android": "https://dc.lft.to/lastmile_qr_scan"}, "bike_id": "d1887d5875f9adcb8bab950965a6ba16", "fusion_lat": 0.0}, {"lon": -77.0209215, "name": "0990bb724068be44044ef5b4316bbaf3", "is_disabled": 0, "type": "electric_scooter", "is_reserved": 0, "fusion_lon": 0.0, "lat": 38.932620166666666, "rental_uris": {"ios": "https://dc.lft.to/lastmile_qr_scan", "android": "https://dc.lft.to/lastmile_qr_scan"}, "bike_id": "0990bb724068be44044ef5b4316bbaf3", "fusion_lat": 0.0}, {"lon": -76.92439133333333, "name": "27bfdb4ce74fee4004f1287fc965fc6c", "is_disabled": 0, "type": "electric_scooter", "is_reserved": 0, "fusion_lon": 0.0, "lat": 38.885102, "rental_uris": {"ios": "https://dc.lft.to/lastmile_qr_scan", "android": "https://dc.lft.to/lastmile_qr_scan"}, "bike_id": "27bfdb4ce74fee4004f1287fc965fc6c", "fusion_lat": 0.0}, {"lon": -77.017581, "name": "90e000c43f7f5e28dd6a3bd79c4f8252", "is_disabled": 0, "type": "electric_scooter", "is_reserved": 0, "fusion_lon": 0.0, "lat": 38.9026525, "rental_uris": {"ios": "https://dc.lft.to/lastmile_qr_scan", "android": "https://dc.lft.to/lastmile_qr_scan"}, "bike_id": "90e000c43f7f5e28dd6a3bd79c4f8252", "fusion_lat": 0.0}, {"lon": -77.03354766666666, "name": "cf82074da0bf56359ce8d89e4fab586f", "is_disabled": 0, "type": "electric_scooter", "is_reserved": 0, "fusion_lon": 0.0, "lat": 38.900133, "rental_uris": {"ios": "https://dc.lft.to/lastmile_qr_scan", "android": "https://dc.lft.to/lastmile_qr_scan"}, "bike_id": "cf82074da0bf56359ce8d89e4fab586f", "fusion_lat": 0.0}, {"lon": -77.03184833333333, "name": "751d0b6e8d0df0849d3abd164c6649fa", "is_disabled": 0, "type": "electric_scooter", "is_reserved": 0, "fusion_lon": 0.0, "lat": 38.914745833333335, "rental_uris": {"ios": "https://dc.lft.to/lastmile_qr_scan", "android": "https://dc.lft.to/lastmile_qr_scan"}, "bike_id": "751d0b6e8d0df0849d3abd164c6649fa", "fusion_lat": 0.0}, {"lon": -77.022441, "name": "a9e4764602fea8d172de79184acef106", "is_disabled": 0, "type": "electric_scooter", "is_reserved": 0, "fusion_lon": 0.0, "lat": 38.924232, "rental_uris": {"ios": "https://dc.lft.to/lastmile_qr_scan", "android": "https://dc.lft.to/lastmile_qr_scan"}, "bike_id": "a9e4764602fea8d172de79184acef106", "fusion_lat": 0.0}, {"lon": -77.008817, "name": "a3287b85dcbe9dd80673ffb374227aa1", "is_disabled": 0, "type": "electric_scooter", "is_reserved": 0, "fusion_lon": 0.0, "lat": 38.879141, "rental_uris": {"ios": "https://dc.lft.to/lastmile_qr_scan", "android": "https://dc.lft.to/lastmile_qr_scan"}, "bike_id": "a3287b85dcbe9dd80673ffb374227aa1", "fusion_lat": 0.0}, {"lon": -77.05753783333333, "name": "d38c009ccc0b48d4dc2cc3c65d8221a0", "is_disabled": 0, "type": "electric_scooter", "is_reserved": 0, "fusion_lon": 0.0, "lat": 38.924793333333334, "rental_uris": {"ios": "https://dc.lft.to/lastmile_qr_scan", "android": "https://dc.lft.to/lastmile_qr_scan"}, "bike_id": "d38c009ccc0b48d4dc2cc3c65d8221a0", "fusion_lat": 0.0}, {"lon": -77.03159183333334, "name": "28faedfbb86ce99881110efe05dfbe0d", "is_disabled": 0, "type": "electric_scooter", "is_reserved": 0, "fusion_lon": 0.0, "lat": 38.95933933333333, "rental_uris": {"ios": "https://dc.lft.to/lastmile_qr_scan", "android": "https://dc.lft.to/lastmile_qr_scan"}, "bike_id": "28faedfbb86ce99881110efe05dfbe0d", "fusion_lat": 0.0}, {"lon": -77.023462, "name": "50a93b978146e2333999727f95f3f045", "is_disabled": 0, "type": "electric_scooter", "is_reserved": 0, "fusion_lon": 0.0, "lat": 38.93530466666667, "rental_uris": {"ios": "https://dc.lft.to/lastmile_qr_scan", "android": "https://dc.lft.to/lastmile_qr_scan"}, "bike_id": "50a93b978146e2333999727f95f3f045", "fusion_lat": 0.0}, {"lon": -77.0032745, "name": "e93144b49d876effaee3c837a319ab33", "is_disabled": 0, "type": "electric_bike", "is_reserved": 0, "fusion_lon": 0.0, "lat": 38.92017366666666, "rental_uris": {"ios": "https://dc.lft.to/lastmile_qr_scan", "android": "https://dc.lft.to/lastmile_qr_scan"}, "bike_id": "e93144b49d876effaee3c837a319ab33", "fusion_lat": 0.0}, {"lon": -77.02147783333334, "name": "8e34d867a27874646b0903170e49df33", "is_disabled": 0, "type": "electric_scooter", "is_reserved": 0, "fusion_lon": 0.0, "lat": 38.926018, "rental_uris": {"ios": "https://dc.lft.to/lastmile_qr_scan", "android": "https://dc.lft.to/lastmile_qr_scan"}, "bike_id": "8e34d867a27874646b0903170e49df33", "fusion_lat": 0.0}, {"lon": -77.02394466666667, "name": "74043bfb7b14d7e47eb7c0fea1ec005a", "is_disabled": 0, "type": "electric_scooter", "is_reserved": 0, "fusion_lon": 0.0, "lat": 38.916186833333335, "rental_uris": {"ios": "https://dc.lft.to/lastmile_qr_scan", "android": "https://dc.lft.to/lastmile_qr_scan"}, "bike_id": "74043bfb7b14d7e47eb7c0fea1ec005a", "fusion_lat": 0.0}, {"lon": -77.03640983333334, "name": "8a2902d8fa1d38aabc80977ccdeae587", "is_disabled": 0, "type": "electric_scooter", "is_reserved": 0, "fusion_lon": 0.0, "lat": 38.9144665, "rental_uris": {"ios": "https://dc.lft.to/lastmile_qr_scan", "android": "https://dc.lft.to/lastmile_qr_scan"}, "bike_id": "8a2902d8fa1d38aabc80977ccdeae587", "fusion_lat": 0.0}, {"lon": -77.02228616666666, "name": "c47568cb2e9601b76ad955eb9410811d", "is_disabled": 0, "type": "electric_scooter", "is_reserved": 0, "fusion_lon": 0.0, "lat": 38.914145833333336, "rental_uris": {"ios": "https://dc.lft.to/lastmile_qr_scan", "android": "https://dc.lft.to/lastmile_qr_scan"}, "bike_id": "c47568cb2e9601b76ad955eb9410811d", "fusion_lat": 0.0}, {"lon": -77.05700083333333, "name": "f47b2743b5d96f4a8e6a3aae96804629", "is_disabled": 0, "type": "electric_scooter", "is_reserved": 0, "fusion_lon": 0.0, "lat": 38.92607733333333, "rental_uris": {"ios": "https://dc.lft.to/lastmile_qr_scan", "android": "https://dc.lft.to/lastmile_qr_scan"}, "bike_id": "f47b2743b5d96f4a8e6a3aae96804629", "fusion_lat": 0.0}, {"lon": -77.03577366666667, "name": "2dc64dfe88456673825eccf044541897", "is_disabled": 0, "type": "electric_scooter", "is_reserved": 0, "fusion_lon": 0.0, "lat": 38.926898333333334, "rental_uris": {"ios": "https://dc.lft.to/lastmile_qr_scan", "android": "https://dc.lft.to/lastmile_qr_scan"}, "bike_id": "2dc64dfe88456673825eccf044541897", "fusion_lat": 0.0}, {"lon": -77.04472683333333, "name": "d13a525e5f3a84f9046cd318604f18a4", "is_disabled": 0, "type": "electric_scooter", "is_reserved": 0, "fusion_lon": 0.0, "lat": 38.915353333333336, "rental_uris": {"ios": "https://dc.lft.to/lastmile_qr_scan", "android": "https://dc.lft.to/lastmile_qr_scan"}, "bike_id": "d13a525e5f3a84f9046cd318604f18a4", "fusion_lat": 0.0}, {"lon": -77.02167266666666, "name": "0a5bcb99d7714090011c11877eb10966", "is_disabled": 0, "type": "electric_scooter", "is_reserved": 0, "fusion_lon": 0.0, "lat": 38.8972605, "rental_uris": {"ios": "https://dc.lft.to/lastmile_qr_scan", "android": "https://dc.lft.to/lastmile_qr_scan"}, "bike_id": "0a5bcb99d7714090011c11877eb10966", "fusion_lat": 0.0}, {"lon": -77.03142633333333, "name": "f9e1f7bf7120317ac488aa4ae0f73eb4", "is_disabled": 0, "type": "electric_scooter", "is_reserved": 0, "fusion_lon": 0.0, "lat": 38.920427333333336, "rental_uris": {"ios": "https://dc.lft.to/lastmile_qr_scan", "android": "https://dc.lft.to/lastmile_qr_scan"}, "bike_id": "f9e1f7bf7120317ac488aa4ae0f73eb4", "fusion_lat": 0.0}, {"lon": -76.99960583333333, "name": "9ae15991e929d8c9fb16198451f6319f", "is_disabled": 0, "type": "electric_scooter", "is_reserved": 0, "fusion_lon": 0.0, "lat": 38.906699833333334, "rental_uris": {"ios": "https://dc.lft.to/lastmile_qr_scan", "android": "https://dc.lft.to/lastmile_qr_scan"}, "bike_id": "9ae15991e929d8c9fb16198451f6319f", "fusion_lat": 0.0}, {"lon": -77.01213966666667, "name": "2b31929afda8dfe974d427713547b08f", "is_disabled": 0, "type": "electric_scooter", "is_reserved": 0, "fusion_lon": 0.0, "lat": 38.914435833333336, "rental_uris": {"ios": "https://dc.lft.to/lastmile_qr_scan", "android": "https://dc.lft.to/lastmile_qr_scan"}, "bike_id": "2b31929afda8dfe974d427713547b08f", "fusion_lat": 0.0}, {"lon": -77.00331916666667, "name": "fc02d5d7b9b9a504d41e90ce7dd71462", "is_disabled": 0, "type": "electric_scooter", "is_reserved": 0, "fusion_lon": 0.0, "lat": 38.88605183333333, "rental_uris": {"ios": "https://dc.lft.to/lastmile_qr_scan", "android": "https://dc.lft.to/lastmile_qr_scan"}, "bike_id": "fc02d5d7b9b9a504d41e90ce7dd71462", "fusion_lat": 0.0}, {"lon": -77.0333145, "name": "c04558bd978339cf3fa5c7593eea1822", "is_disabled": 0, "type": "electric_scooter", "is_reserved": 0, "fusion_lon": 0.0, "lat": 38.9287995, "rental_uris": {"ios": "https://dc.lft.to/lastmile_qr_scan", "android": "https://dc.lft.to/lastmile_qr_scan"}, "bike_id": "c04558bd978339cf3fa5c7593eea1822", "fusion_lat": 0.0}, {"lon": -77.02941483333333, "name": "d17338f0002fc06f619bc3e2b48e5f56", "is_disabled": 0, "type": "electric_scooter", "is_reserved": 0, "fusion_lon": 0.0, "lat": 38.9397305, "rental_uris": {"ios": "https://dc.lft.to/lastmile_qr_scan", "android": "https://dc.lft.to/lastmile_qr_scan"}, "bike_id": "d17338f0002fc06f619bc3e2b48e5f56", "fusion_lat": 0.0}, {"lon": -77.04999866666667, "name": "c40c48768a830ff49f45c924255f0f1f", "is_disabled": 0, "type": "electric_scooter", "is_reserved": 0, "fusion_lon": 0.0, "lat": 38.89929266666667, "rental_uris": {"ios": "https://dc.lft.to/lastmile_qr_scan", "android": "https://dc.lft.to/lastmile_qr_scan"}, "bike_id": "c40c48768a830ff49f45c924255f0f1f", "fusion_lat": 0.0}, {"lon": -77.03587416666667, "name": "f481b5a788b64827341f03ad689972ff", "is_disabled": 0, "type": "electric_scooter", "is_reserved": 0, "fusion_lon": 0.0, "lat": 38.9169495, "rental_uris": {"ios": "https://dc.lft.to/lastmile_qr_scan", "android": "https://dc.lft.to/lastmile_qr_scan"}, "bike_id": "f481b5a788b64827341f03ad689972ff", "fusion_lat": 0.0}, {"lon": -77.035014, "name": "58de9bd9662c169aaea04e63ba6f145d", "is_disabled": 0, "type": "electric_scooter", "is_reserved": 0, "fusion_lon": 0.0, "lat": 38.91623233333333, "rental_uris": {"ios": "https://dc.lft.to/lastmile_qr_scan", "android": "https://dc.lft.to/lastmile_qr_scan"}, "bike_id": "58de9bd9662c169aaea04e63ba6f145d", "fusion_lat": 0.0}, {"lon": -77.007692, "name": "b96327b94bb25be42d07c95db0135317", "is_disabled": 0, "type": "electric_bike", "is_reserved": 0, "fusion_lon": 0.0, "lat": 38.98133583333333, "rental_uris": {"ios": "https://dc.lft.to/lastmile_qr_scan", "android": "https://dc.lft.to/lastmile_qr_scan"}, "bike_id": "b96327b94bb25be42d07c95db0135317", "fusion_lat": 0.0}, {"lon": -77.020529, "name": "ba6bc88c4fd09ec9b94c9c9ed274482c", "is_disabled": 0, "type": "electric_scooter", "is_reserved": 0, "fusion_lon": 0.0, "lat": 38.90095566666667, "rental_uris": {"ios": "https://dc.lft.to/lastmile_qr_scan", "android": "https://dc.lft.to/lastmile_qr_scan"}, "bike_id": "ba6bc88c4fd09ec9b94c9c9ed274482c", "fusion_lat": 0.0}, {"lon": -77.0457555, "name": "29e4cd4a19e11321be3d6e59c1def4cf", "is_disabled": 0, "type": "electric_scooter", "is_reserved": 0, "fusion_lon": 0.0, "lat": 38.908548333333336, "rental_uris": {"ios": "https://dc.lft.to/lastmile_qr_scan", "android": "https://dc.lft.to/lastmile_qr_scan"}, "bike_id": "29e4cd4a19e11321be3d6e59c1def4cf", "fusion_lat": 0.0}, {"lon": -77.02613783333334, "name": "e39659d1d7777b06564e0a49c38be714", "is_disabled": 0, "type": "electric_scooter", "is_reserved": 0, "fusion_lon": 0.0, "lat": 38.898732833333334, "rental_uris": {"ios": "https://dc.lft.to/lastmile_qr_scan", "android": "https://dc.lft.to/lastmile_qr_scan"}, "bike_id": "e39659d1d7777b06564e0a49c38be714", "fusion_lat": 0.0}, {"lon": -76.9836895, "name": "9e70e954592bc543d2880c28bf788a2a", "is_disabled": 0, "type": "electric_scooter", "is_reserved": 0, "fusion_lon": 0.0, "lat": 38.89265783333333, "rental_uris": {"ios": "https://dc.lft.to/lastmile_qr_scan", "android": "https://dc.lft.to/lastmile_qr_scan"}, "bike_id": "9e70e954592bc543d2880c28bf788a2a", "fusion_lat": 0.0}, {"lon": -77.039457, "name": "e529e932d853e225ec7d3242998fed34", "is_disabled": 0, "type": "electric_scooter", "is_reserved": 0, "fusion_lon": 0.0, "lat": 38.93055183333333, "rental_uris": {"ios": "https://dc.lft.to/lastmile_qr_scan", "android": "https://dc.lft.to/lastmile_qr_scan"}, "bike_id": "e529e932d853e225ec7d3242998fed34", "fusion_lat": 0.0}, {"lon": -77.01309883333333, "name": "6098ed1ecaf248b9e3c8d99eeb590842", "is_disabled": 0, "type": "electric_scooter", "is_reserved": 0, "fusion_lon": 0.0, "lat": 38.94326183333333, "rental_uris": {"ios": "https://dc.lft.to/lastmile_qr_scan", "android": "https://dc.lft.to/lastmile_qr_scan"}, "bike_id": "6098ed1ecaf248b9e3c8d99eeb590842", "fusion_lat": 0.0}, {"lon": -77.021782, "name": "97e0711357c348cebe01b1b1a85ac7f7", "is_disabled": 0, "type": "electric_scooter", "is_reserved": 0, "fusion_lon": 0.0, "lat": 38.886042333333336, "rental_uris": {"ios": "https://dc.lft.to/lastmile_qr_scan", "android": "https://dc.lft.to/lastmile_qr_scan"}, "bike_id": "97e0711357c348cebe01b1b1a85ac7f7", "fusion_lat": 0.0}, {"lon": -76.98204566666666, "name": "9adb3ffbbcf5ae9910f2281290e77dec", "is_disabled": 0, "type": "electric_bike", "is_reserved": 0, "fusion_lon": 0.0, "lat": 38.9850175, "rental_uris": {"ios": "https://dc.lft.to/lastmile_qr_scan", "android": "https://dc.lft.to/lastmile_qr_scan"}, "bike_id": "9adb3ffbbcf5ae9910f2281290e77dec", "fusion_lat": 0.0}, {"lon": -77.04073683333333, "name": "5800eef0af181e0ef51ece5d5619a938", "is_disabled": 0, "type": "electric_scooter", "is_reserved": 0, "fusion_lon": 0.0, "lat": 38.92050066666667, "rental_uris": {"ios": "https://dc.lft.to/lastmile_qr_scan", "android": "https://dc.lft.to/lastmile_qr_scan"}, "bike_id": "5800eef0af181e0ef51ece5d5619a938", "fusion_lat": 0.0}, {"lon": -77.00065783333334, "name": "7b1ae5fd9aeb36690444fc1108ebcbfe", "is_disabled": 0, "type": "electric_scooter", "is_reserved": 0, "fusion_lon": 0.0, "lat": 38.887776, "rental_uris": {"ios": "https://dc.lft.to/lastmile_qr_scan", "android": "https://dc.lft.to/lastmile_qr_scan"}, "bike_id": "7b1ae5fd9aeb36690444fc1108ebcbfe", "fusion_lat": 0.0}, {"lon": -77.02160483333333, "name": "21dfcb427c9c7998f79916ab7adac9e6", "is_disabled": 0, "type": "electric_scooter", "is_reserved": 0, "fusion_lon": 0.0, "lat": 38.926021166666665, "rental_uris": {"ios": "https://dc.lft.to/lastmile_qr_scan", "android": "https://dc.lft.to/lastmile_qr_scan"}, "bike_id": "21dfcb427c9c7998f79916ab7adac9e6", "fusion_lat": 0.0}, {"lon": -77.021249, "name": "2680824e56d0dcb10a86de174da1c792", "is_disabled": 0, "type": "electric_scooter", "is_reserved": 0, "fusion_lon": 0.0, "lat": 38.92389433333334, "rental_uris": {"ios": "https://dc.lft.to/lastmile_qr_scan", "android": "https://dc.lft.to/lastmile_qr_scan"}, "bike_id": "2680824e56d0dcb10a86de174da1c792", "fusion_lat": 0.0}, {"lon": -76.98415166666666, "name": "d97f9deaf544600709375f790e5c6215", "is_disabled": 0, "type": "electric_bike", "is_reserved": 0, "fusion_lon": 0.0, "lat": 38.910014, "rental_uris": {"ios": "https://dc.lft.to/lastmile_qr_scan", "android": "https://dc.lft.to/lastmile_qr_scan"}, "bike_id": "d97f9deaf544600709375f790e5c6215", "fusion_lat": 0.0}, {"lon": -77.0229775, "name": "16e8d08d658527a085c48c9148cb75c3", "is_disabled": 0, "type": "electric_scooter", "is_reserved": 0, "fusion_lon": 0.0, "lat": 38.9205915, "rental_uris": {"ios": "https://dc.lft.to/lastmile_qr_scan", "android": "https://dc.lft.to/lastmile_qr_scan"}, "bike_id": "16e8d08d658527a085c48c9148cb75c3", "fusion_lat": 0.0}, {"lon": -77.03520466666667, "name": "a44f76fbf5099a64f72b7762bfb8e94f", "is_disabled": 0, "type": "electric_scooter", "is_reserved": 0, "fusion_lon": 0.0, "lat": 38.922456833333335, "rental_uris": {"ios": "https://dc.lft.to/lastmile_qr_scan", "android": "https://dc.lft.to/lastmile_qr_scan"}, "bike_id": "a44f76fbf5099a64f72b7762bfb8e94f", "fusion_lat": 0.0}, {"lon": -77.0202815, "name": "2b71f3a63f4482fec3539478233103f1", "is_disabled": 0, "type": "electric_scooter", "is_reserved": 0, "fusion_lon": 0.0, "lat": 38.924437833333336, "rental_uris": {"ios": "https://dc.lft.to/lastmile_qr_scan", "android": "https://dc.lft.to/lastmile_qr_scan"}, "bike_id": "2b71f3a63f4482fec3539478233103f1", "fusion_lat": 0.0}, {"lon": -77.0017075, "name": "42c02ca0ac7a224a179a69ed64495b3f", "is_disabled": 0, "type": "electric_scooter", "is_reserved": 0, "fusion_lon": 0.0, "lat": 38.940674333333334, "rental_uris": {"ios": "https://dc.lft.to/lastmile_qr_scan", "android": "https://dc.lft.to/lastmile_qr_scan"}, "bike_id": "42c02ca0ac7a224a179a69ed64495b3f", "fusion_lat": 0.0},