{"data": {"bikes": [{"lon": -77.11430066666667, "lat": 38.852484833333335, "name": "4bb335f2712dff998fbfb25c646f5e01", "fusion_lat": 0.0, "fusion_lon": 0.0, "rental_uris": {"android": "https://dc.lft.to/lastmile_qr_scan", "ios": "https://dc.lft.to/lastmile_qr_scan"}, "is_reserved": 0, "is_disabled": 0, "type": "electric_bike", "bike_id": "4bb335f2712dff998fbfb25c646f5e01"}, {"lon": -77.03142933333334, "lat": 38.912629333333335, "name": "30d79cbc46285265496342d9b87fd5ec", "fusion_lat": 0.0, "fusion_lon": 0.0, "rental_uris": {"android": "https://dc.lft.to/lastmile_qr_scan", "ios": "https://dc.lft.to/lastmile_qr_scan"}, "is_reserved": 0, "is_disabled": 0, "type": "electric_scooter", "bike_id": "30d79cbc46285265496342d9b87fd5ec"}, {"lon": -77.0221475, "lat": 38.90571666666666, "name": "d854bd27b9c5e0a5ccefdde6d12c2b1c", "fusion_lat": 0.0, "fusion_lon": 0.0, "rental_uris": {"android": "https://dc.lft.to/lastmile_qr_scan", "ios": "https://dc.lft.to/lastmile_qr_scan"}, "is_reserved": 0, "is_disabled": 0, "type": "electric_scooter", "bike_id": "d854bd27b9c5e0a5ccefdde6d12c2b1c"}, {"lon": -76.9977355, "lat": 38.922881833333335, "name": "14050c47eb5c0a441a6fbcb113516d80", "fusion_lat": 0.0, "fusion_lon": 0.0, "rental_uris": {"android": "https://dc.lft.to/lastmile_qr_scan", "ios": "https://dc.lft.to/lastmile_qr_scan"}, "is_reserved": 0, "is_disabled": 0, "type": "electric_scooter", "bike_id": "14050c47eb5c0a441a6fbcb113516d80"}, {"lon": -76.98374916666667, "lat": 38.86478316666667, "name": "c957cbae38ab9f58b80c815a65e61451", "fusion_lat": 0.0, "fusion_lon": 0.0, "rental_uris": {"android": "https://dc.lft.to/lastmile_qr_scan", "ios": "https://dc.lft.to/lastmile_qr_scan"}, "is_reserved": 0, "is_disabled": 0, "type": "electric_scooter", "bike_id": "c957cbae38ab9f58b80c815a65e61451"}, {"lon": -77.04029016666667, "lat": 38.923692333333335, "name": "91499a1f1bfbf11c855991e6197ee43a", "fusion_lat": 0.0, "fusion_lon": 0.0, "rental_uris": {"android": "https://dc.lft.to/lastmile_qr_scan", "ios": "https://dc.lft.to/lastmile_qr_scan"}, "is_reserved": 0, "is_disabled": 0, "type": "electric_scooter", "bike_id": "91499a1f1bfbf11c855991e6197ee43a"}, {"lon": -77.02699566666666, "lat": 38.918149666666665, "name": "060538ebb3634c4af70058be2fdc7c11", "fusion_lat": 0.0, "fusion_lon": 0.0, "rental_uris": {"android": "https://dc.lft.to/lastmile_qr_scan", "ios": "https://dc.lft.to/lastmile_qr_scan"}, "is_reserved": 0, "is_disabled": 0, "type": "electric_scooter", "bike_id": "060538ebb3634c4af70058be2fdc7c11"}, {"lon": -77.0176245, "lat": 38.877197333333335, "name": "17e11f00bee25234186430ddb01569ff", "fusion_lat": 0.0, "fusion_lon": 0.0, "rental_uris": {"android": "https://dc.lft.to/lastmile_qr_scan", "ios": "https://dc.lft.to/lastmile_qr_scan"}, "is_reserved": 0, "is_disabled": 0, "type": "electric_bike", "bike_id": "17e11f00bee25234186430ddb01569ff"}, {"lon": -77.036417, "lat": 38.91624383333333, "name": "130d93f02168724db26f7f47eacc97e5", "fusion_lat": 0.0, "fusion_lon": 0.0, "rental_uris": {"android": "https://dc.lft.to/lastmile_qr_scan", "ios": "https://dc.lft.to/lastmile_qr_scan"}, "is_reserved": 0, "is_disabled": 0, "type": "electric_scooter", "bike_id": "130d93f02168724db26f7f47eacc97e5"}, {"lon": -76.97092433333333, "lat": 38.87874566666667, "name": "d9c531b7e2d832030d5ec75051e6d9de", "fusion_lat": 0.0, "fusion_lon": 0.0, "rental_uris": {"android": "https://dc.lft.to/lastmile_qr_scan", "ios": "https://dc.lft.to/lastmile_qr_scan"}, "is_reserved": 0, "is_disabled": 0, "type": "electric_scooter", "bike_id": "d9c531b7e2d832030d5ec75051e6d9de"}, {"lon": -76.9972755, "lat": 38.9078905, "name": "a196dbcac3446fa18bb6dde7a944d058", "fusion_lat": 0.0, "fusion_lon": 0.0, "rental_uris": {"android": "https://dc.lft.to/lastmile_qr_scan", "ios": "https://dc.lft.to/lastmile_qr_scan"}, "is_reserved": 0, "is_disabled": 0, "type": "electric_scooter", "bike_id": "a196dbcac3446fa18bb6dde7a944d058"}, {"lon": -77.028202, "lat": 38.91682983333333, "name": "69b423c1fcf350abb8e2701e220d8134", "fusion_lat": 0.0, "fusion_lon": 0.0, "rental_uris": {"android": "https://dc.lft.to/lastmile_qr_scan", "ios": "https://dc.lft.to/lastmile_qr_scan"}, "is_reserved": 0, "is_disabled": 0, "type": "electric_scooter", "bike_id": "69b423c1fcf350abb8e2701e220d8134"}, {"lon": -77.01899066666667, "lat": 38.939156833333335, "name": "2b405a35f6662eb4542fe463837228bb", "fusion_lat": 0.0, "fusion_lon": 0.0, "rental_uris": {"android": "https://dc.lft.to/lastmile_qr_scan", "ios": "https://dc.lft.to/lastmile_qr_scan"}, "is_reserved": 0, "is_disabled": 0, "type": "electric_scooter", "bike_id": "2b405a35f6662eb4542fe463837228bb"}, {"lon": -77.02972883333334, "lat": 38.916768, "name": "35f564c198cc2d9dd4288fcf8cc8d817", "fusion_lat": 0.0, "fusion_lon": 0.0, "rental_uris": {"android": "https://dc.lft.to/lastmile_qr_scan", "ios": "https://dc.lft.to/lastmile_qr_scan"}, "is_reserved": 0, "is_disabled": 0, "type": "electric_scooter", "bike_id": "35f564c198cc2d9dd4288fcf8cc8d817"}, {"lon": -76.98613766666666, "lat": 38.92578266666666, "name": "d0f92936faefb25e70e400cee39451ec", "fusion_lat": 0.0, "fusion_lon": 0.0, "rental_uris": {"android": "https://dc.lft.to/lastmile_qr_scan", "ios": "https://dc.lft.to/lastmile_qr_scan"}, "is_reserved": 0, "is_disabled": 0, "type": "electric_bike", "bike_id": "d0f92936faefb25e70e400cee39451ec"}, {"lon": -76.94793716666666, "lat": 38.89636516666667, "name": "52c93305c44262338821a004ecf832cd", "fusion_lat": 0.0, "fusion_lon": 0.0, "rental_uris": {"android": "https://dc.lft.to/lastmile_qr_scan", "ios": "https://dc.lft.to/lastmile_qr_scan"}, "is_reserved": 0, "is_disabled": 0, "type": "electric_bike", "bike_id": "52c93305c44262338821a004ecf832cd"}, {"lon": -76.97021183333334, "lat": 38.920334833333335, "name": "cc556eb7ad4db6f4228d60ef03660a8a", "fusion_lat": 0.0, "fusion_lon": 0.0, "rental_uris": {"android": "https://dc.lft.to/lastmile_qr_scan", "ios": "https://dc.lft.to/lastmile_qr_scan"}, "is_reserved": 0, "is_disabled": 0, "type": "electric_scooter", "bike_id": "cc556eb7ad4db6f4228d60ef03660a8a"}, {"lon": -76.98699266666667, "lat": 38.9070425, "name": "1e5e18f5bee701730e762c26c4e3dbd0", "fusion_lat": 0.0, "fusion_lon": 0.0, "rental_uris": {"android": "https://dc.lft.to/lastmile_qr_scan", "ios": "https://dc.lft.to/lastmile_qr_scan"}, "is_reserved": 0, "is_disabled": 0, "type": "electric_scooter", "bike_id": "1e5e18f5bee701730e762c26c4e3dbd0"}, {"lon": -77.03777866666667, "lat": 38.9222895, "name": "386b6ae760f48093aab587ff6a010aac", "fusion_lat": 0.0, "fusion_lon": 0.0, "rental_uris": {"android": "https://dc.lft.to/lastmile_qr_scan", "ios": "https://dc.lft.to/lastmile_qr_scan"}, "is_reserved": 0, "is_disabled": 0, "type": "electric_scooter", "bike_id": "386b6ae760f48093aab587ff6a010aac"}, {"lon": -77.05938516666667, "lat": 38.93663333333333, "name": "a65d05f1203144be51754fe12cfbb142", "fusion_lat": 0.0, "fusion_lon": 0.0, "rental_uris": {"android": "https://dc.lft.to/lastmile_qr_scan", "ios": "https://dc.lft.to/lastmile_qr_scan"}, "is_reserved": 0, "is_disabled": 0, "type": "electric_scooter", "bike_id": "a65d05f1203144be51754fe12cfbb142"}, {"lon": -77.04500333333333, "lat": 38.90002716666667, "name": "85f59f344162bcc3eacf7c8513d9be51", "fusion_lat": 0.0, "fusion_lon": 0.0, "rental_uris": {"android": "https://dc.lft.to/lastmile_qr_scan", "ios": "https://dc.lft.to/lastmile_qr_scan"}, "is_reserved": 0, "is_disabled": 0, "type": "electric_scooter", "bike_id": "85f59f344162bcc3eacf7c8513d9be51"}, {"lon": -77.0282955, "lat": 38.887409166666664, "name": "16cfaf1b256cff3e06cbe2d6cf463173", "fusion_lat": 0.0, "fusion_lon": 0.0, "rental_uris": {"android": "https://dc.lft.to/lastmile_qr_scan", "ios": "https://dc.lft.to/lastmile_qr_scan"}, "is_reserved": 0, "is_disabled": 0, "type": "electric_scooter", "bike_id": "16cfaf1b256cff3e06cbe2d6cf463173"}, {"lon": -77.03497633333333, "lat": 38.93738833333333, "name": "eb0a343491a1b9fe3d5c376260139da4", "fusion_lat": 0.0, "fusion_lon": 0.0, "rental_uris": {"android": "https://dc.lft.to/lastmile_qr_scan", "ios": "https://dc.lft.to/lastmile_qr_scan"}, "is_reserved": 0, "is_disabled": 0, "type": "electric_scooter", "bike_id": "eb0a343491a1b9fe3d5c376260139da4"}, {"lon": -77.032183, "lat": 38.89254483333333, "name": "6b38b1596a9d3c5898b8585ec4aab327", "fusion_lat": 0.0, "fusion_lon": 0.0, "rental_uris": {"android": "https://dc.lft.to/lastmile_qr_scan", "ios": "https://dc.lft.to/lastmile_qr_scan"}, "is_reserved": 0, "is_disabled": 0, "type": "electric_scooter", "bike_id": "6b38b1596a9d3c5898b8585ec4aab327"}, {"lon": -77.0454245, "lat": 38.894792, "name": "75da7a6cd9a0e604cbbac543e15f94e3", "fusion_lat": 0.0, "fusion_lon": 0.0, "rental_uris": {"android": "https://dc.lft.to/lastmile_qr_scan", "ios": "https://dc.lft.to/lastmile_qr_scan"}, "is_reserved": 0, "is_disabled": 0, "type": "electric_scooter", "bike_id": "75da7a6cd9a0e604cbbac543e15f94e3"}, {"lon": -77.03325283333334, "lat": 38.898249166666666, "name": "be791e2e076dc95839f41934945b31fa", "fusion_lat": 0.0, "fusion_lon": 0.0, "rental_uris": {"android": "https://dc.lft.to/lastmile_qr_scan", "ios": "https://dc.lft.to/lastmile_qr_scan"}, "is_reserved": 0, "is_disabled": 0, "type": "electric_scooter", "bike_id": "be791e2e076dc95839f41934945b31fa"}, {"lon": -76.99957, "lat": 38.908637166666665, "name": "e6bbc5bdcbf0155b9dbbaab377285d3a", "fusion_lat": 0.0, "fusion_lon": 0.0, "rental_uris": {"android": "https://dc.lft.to/lastmile_qr_scan", "ios": "https://dc.lft.to/lastmile_qr_scan"}, "is_reserved": 0, "is_disabled": 0, "type": "electric_scooter", "bike_id": "e6bbc5bdcbf0155b9dbbaab377285d3a"}, {"lon": -76.99082583333333, "lat": 38.842894666666666, "name": "dccb73b5a7675a49ee7272ccd5e8649f", "fusion_lat": 0.0, "fusion_lon": 0.0, "rental_uris": {"android": "https://dc.lft.to/lastmile_qr_scan", "ios": "https://dc.lft.to/lastmile_qr_scan"}, "is_reserved": 0, "is_disabled": 0, "type": "electric_scooter", "bike_id": "dccb73b5a7675a49ee7272ccd5e8649f"}, {"lon": -77.01807583333333, "lat": 38.9143155, "name": "b038c590849fa8aad2887b4c57772038", "fusion_lat": 0.0, "fusion_lon": 0.0, "rental_uris": {"android": "https://dc.lft.to/lastmile_qr_scan", "ios": "https://dc.lft.to/lastmile_qr_scan"}, "is_reserved": 0, "is_disabled": 0, "type": "electric_scooter", "bike_id": "b038c590849fa8aad2887b4c57772038"}, {"lon": -77.013491, "lat": 38.919409333333334, "name": "ef5308cc6c269f4822e80c8d0478ec40", "fusion_lat": 0.0, "fusion_lon": 0.0, "rental_uris": {"android": "https://dc.lft.to/lastmile_qr_scan", "ios": "https://dc.lft.to/lastmile_qr_scan"}, "is_reserved": 0, "is_disabled": 0, "type": "electric_scooter", "bike_id": "ef5308cc6c269f4822e80c8d0478ec40"}, {"lon": -77.01251733333334, "lat": 38.908666333333336, "name": "e1a243a2ea7054666070f2b89c8f260c", "fusion_lat": 0.0, "fusion_lon": 0.0, "rental_uris": {"android": "https://dc.lft.to/lastmile_qr_scan", "ios": "https://dc.lft.to/lastmile_qr_scan"}, "is_reserved": 0, "is_disabled": 0, "type": "electric_scooter", "bike_id": "e1a243a2ea7054666070f2b89c8f260c"}, {"lon": -76.99419566666667, "lat": 38.9228305, "name": "d74e3459e61e9d73ac8bff8bb2ca1548", "fusion_lat": 0.0, "fusion_lon": 0.0, "rental_uris": {"android": "https://dc.lft.to/lastmile_qr_scan", "ios": "https://dc.lft.to/lastmile_qr_scan"}, "is_reserved": 0, "is_disabled": 0, "type": "electric_scooter", "bike_id": "d74e3459e61e9d73ac8bff8bb2ca1548"}, {"lon": -76.98853833333334, "lat": 38.9001055, "name": "51b79e558bf77dd5bff50e98101c22d6", "fusion_lat": 0.0, "fusion_lon": 0.0, "rental_uris": {"android": "https://dc.lft.to/lastmile_qr_scan", "ios": "https://dc.lft.to/lastmile_qr_scan"}, "is_reserved": 0, "is_disabled": 0, "type": "electric_scooter", "bike_id": "51b79e558bf77dd5bff50e98101c22d6"}, {"lon": -76.96519783333333, "lat": 38.874783666666666, "name": "d1ca1a471b8f5f7df96f4cae1a7b357e", "fusion_lat": 0.0, "fusion_lon": 0.0, "rental_uris": {"android": "https://dc.lft.to/lastmile_qr_scan", "ios": "https://dc.lft.to/lastmile_qr_scan"}, "is_reserved": 0, "is_disabled": 0, "type": "electric_scooter", "bike_id": "d1ca1a471b8f5f7df96f4cae1a7b357e"}, {"lon": -77.03850333333334, "lat": 38.912101, "name": "096c37bca912afae99331c418a67d6bd", "fusion_lat": 0.0, "fusion_lon": 0.0, "rental_uris": {"android": "https://dc.lft.to/lastmile_qr_scan", "ios": "https://dc.lft.to/lastmile_qr_scan"}, "is_reserved": 0, "is_disabled": 0, "type": "electric_scooter", "bike_id": "096c37bca912afae99331c418a67d6bd"}, {"lon": -77.02706083333334, "lat": 38.94997983333333, "name": "b0353ea7b0ff4ce867558cf734e05d48", "fusion_lat": 0.0, "fusion_lon": 0.0, "rental_uris": {"android": "https://dc.lft.to/lastmile_qr_scan", "ios": "https://dc.lft.to/lastmile_qr_scan"}, "is_reserved": 0, "is_disabled": 0, "type": "electric_scooter", "bike_id": "b0353ea7b0ff4ce867558cf734e05d48"}, {"lon": -77.03859883333334, "lat": 38.91707733333333, "name": "6cc9b41c31349e0ae1ba564cc61b90c0", "fusion_lat": 0.0, "fusion_lon": 0.0, "rental_uris": {"android": "https://dc.lft.to/lastmile_qr_scan", "ios": "https://dc.lft.to/lastmile_qr_scan"}, "is_reserved": 0, "is_disabled": 0, "type": "electric_scooter", "bike_id": "6cc9b41c31349e0ae1ba564cc61b90c0"}, {"lon": -77.032603, "lat": 38.933443, "name": "aba88b2d1d2888657a1227e402b15d89", "fusion_lat": 0.0, "fusion_lon": 0.0, "rental_uris": {"android": "https://dc.lft.to/lastmile_qr_scan", "ios": "https://dc.lft.to/lastmile_qr_scan"}, "is_reserved": 0, "is_disabled": 0, "type": "electric_scooter", "bike_id": "aba88b2d1d2888657a1227e402b15d89"}, {"lon": -77.014507, "lat": 38.911956, "name": "b08bb59b0ed7820c764d0e77d1ab53a9", "fusion_lat": 0.0, "fusion_lon": 0.0, "rental_uris": {"android": "https://dc.lft.to/lastmile_qr_scan", "ios": "https://dc.lft.to/lastmile_qr_scan"}, "is_reserved": 0, "is_disabled": 0, "type": "electric_scooter", "bike_id": "b08bb59b0ed7820c764d0e77d1ab53a9"}, {"lon": -77.02314266666667, "lat": 38.92680683333333, "name": "5f3fff3ff28ab63b314306815a1d80fe", "fusion_lat": 0.0, "fusion_lon": 0.0, "rental_uris": {"android": "https://dc.lft.to/lastmile_qr_scan", "ios": "https://dc.lft.to/lastmile_qr_scan"}, "is_reserved": 0, "is_disabled": 0, "type": "electric_scooter", "bike_id": "5f3fff3ff28ab63b314306815a1d80fe"}, {"lon": -77.02705666666667, "lat": 38.906702833333334, "name": "4ad9f8337574f2d0eb19f9feec135bf8", "fusion_lat": 0.0, "fusion_lon": 0.0, "rental_uris": {"android": "https://dc.lft.to/lastmile_qr_scan", "ios": "https://dc.lft.to/lastmile_qr_scan"}, "is_reserved": 0, "is_disabled": 0, "type": "electric_scooter", "bike_id": "4ad9f8337574f2d0eb19f9feec135bf8"}, {"lon": -77.02162033333333, "lat": 38.92835183333333, "name": "1909de4b1c5b0595376a0c44a4536dee", "fusion_lat": 0.0, "fusion_lon": 0.0, "rental_uris": {"android": "https://dc.lft.to/lastmile_qr_scan", "ios": "https://dc.lft.to/lastmile_qr_scan"}, "is_reserved": 0, "is_disabled": 0, "type": "electric_scooter", "bike_id": "1909de4b1c5b0595376a0c44a4536dee"}, {"lon": -77.02822016666667, "lat": 38.9092695, "name": "a28aacf5f9f79caabd6fc43512396fc3", "fusion_lat": 0.0, "fusion_lon": 0.0, "rental_uris": {"android": "https://dc.lft.to/lastmile_qr_scan", "ios": "https://dc.lft.to/lastmile_qr_scan"}, "is_reserved": 0, "is_disabled": 0, "type": "electric_scooter", "bike_id": "a28aacf5f9f79caabd6fc43512396fc3"}, {"lon": -76.99511433333333, "lat": 38.84466716666667, "name": "953371da2d95cca4447360c48998328f", "fusion_lat": 0.0, "fusion_lon": 0.0, "rental_uris": {"android": "https://dc.lft.to/lastmile_qr_scan", "ios": "https://dc.lft.to/lastmile_qr_scan"}, "is_reserved": 0, "is_disabled": 0, "type": "electric_scooter", "bike_id": "953371da2d95cca4447360c48998328f"}, {"lon": -77.03296966666667, "lat": 38.92925366666667, "name": "6106e9d51e80979c90e9ade14e263f9a", "fusion_lat": 0.0, "fusion_lon": 0.0, "rental_uris": {"android": "https://dc.lft.to/lastmile_qr_scan", "ios": "https://dc.lft.to/lastmile_qr_scan"}, "is_reserved": 0, "is_disabled": 0, "type": "electric_scooter", "bike_id": "6106e9d51e80979c90e9ade14e263f9a"}, {"lon": -77.0398885, "lat": 38.80295483333333, "name": "7008ae29754708fb69d07f60a83505b1", "fusion_lat": 0.0, "fusion_lon": 0.0, "rental_uris": {"android": "https://dc.lft.to/lastmile_qr_scan", "ios": "https://dc.lft.to/lastmile_qr_scan"}, "is_reserved": 0, "is_disabled": 0, "type": "electric_bike", "bike_id": "7008ae29754708fb69d07f60a83505b1"}, {"lon": -76.99902183333333, "lat": 38.909427, "name": "ab0bc20ef7c495b5d1a70d1401b6668b", "fusion_lat": 0.0, "fusion_lon": 0.0, "rental_uris": {"android": "https://dc.lft.to/lastmile_qr_scan", "ios": "https://dc.lft.to/lastmile_qr_scan"}, "is_reserved": 0, "is_disabled": 0, "type": "electric_scooter", "bike_id": "ab0bc20ef7c495b5d1a70d1401b6668b"}, {"lon": -77.04036616666667, "lat": 38.903989, "name": "b21ad277ba88d1053bdbdb585fe4ac29", "fusion_lat": 0.0, "fusion_lon": 0.0, "rental_uris": {"android": "https://dc.lft.to/lastmile_qr_scan", "ios": "https://dc.lft.to/lastmile_qr_scan"}, "is_reserved": 0, "is_disabled": 0, "type": "electric_scooter", "bike_id": "b21ad277ba88d1053bdbdb585fe4ac29"}, {"lon": -76.98236083333333, "lat": 38.8667595, "name": "ca95e2fe9af310f563b5cc3edf15a1d6", "fusion_lat": 0.0, "fusion_lon": 0.0, "rental_uris": {"android": "https://dc.lft.to/lastmile_qr_scan", "ios": "https://dc.lft.to/lastmile_qr_scan"}, "is_reserved": 0, "is_disabled": 0, "type": "electric_bike", "bike_id": "ca95e2fe9af310f563b5cc3edf15a1d6"}, {"lon": -76.970345, "lat": 38.903110833333336, "name": "24e92559017de92bd269a7f2895ea053", "fusion_lat": 0.0, "fusion_lon": 0.0, "rental_uris": {"android": "https://dc.lft.to/lastmile_qr_scan", "ios": "https://dc.lft.to/lastmile_qr_scan"}, "is_reserved": 0, "is_disabled": 0, "type": "electric_scooter", "bike_id": "24e92559017de92bd269a7f2895ea053"}, {"lon": -77.02750116666667, "lat": 38.96625616666667, "name": "038e786e2e104d3802ed5006532ea1c0", "fusion_lat": 0.0, "fusion_lon": 0.0, "rental_uris": {"android": "https://dc.lft.to/lastmile_qr_scan", "ios": "https://dc.lft.to/lastmile_qr_scan"}, "is_reserved": 0, "is_disabled": 0, "type": "electric_scooter", "bike_id": "038e786e2e104d3802ed5006532ea1c0"}, {"lon": -77.0257405, "lat": 38.88743316666667, "name": "52448ca2649416f37155a52e78c97f33", "fusion_lat": 0.0, "fusion_lon": 0.0, "rental_uris": {"android": "https://dc.lft.to/lastmile_qr_scan", "ios": "https://dc.lft.to/lastmile_qr_scan"}, "is_reserved": 0, "is_disabled": 0, "type": "electric_scooter", "bike_id": "52448ca2649416f37155a52e78c97f33"}, {"lon": -76.9877585, "lat": 38.90029066666666, "name": "6f12587b949d159e96bad1ed9145bab6", "fusion_lat": 0.0, "fusion_lon": 0.0, "rental_uris": {"android": "https://dc.lft.to/lastmile_qr_scan", "ios": "https://dc.lft.to/lastmile_qr_scan"}, "is_reserved": 0, "is_disabled": 0, "type": "electric_scooter", "bike_id": "6f12587b949d159e96bad1ed9145bab6"}, {"lon": -76.98602333333334, "lat": 38.86093983333333, "name": "a06e0446b1068ecdbfba568cc8bf4191", "fusion_lat": 0.0, "fusion_lon": 0.0, "rental_uris": {"android": "https://dc.lft.to/lastmile_qr_scan", "ios": "https://dc.lft.to/lastmile_qr_scan"}, "is_reserved": 0, "is_disabled": 0, "type": "electric_scooter", "bike_id": "a06e0446b1068ecdbfba568cc8bf4191"}, {"lon": -77.0014035, "lat": 38.90019683333333, "name": "b1c2f0515074f3381b24b402085fa40d", "fusion_lat": 0.0, "fusion_lon": 0.0, "rental_uris": {"android": "https://dc.lft.to/lastmile_qr_scan", "ios": "https://dc.lft.to/lastmile_qr_scan"}, "is_reserved": 0, "is_disabled": 0, "type": "electric_scooter", "bike_id": "b1c2f0515074f3381b24b402085fa40d"}, {"lon": -76.97561566666667, "lat": 38.904453333333336, "name": "09011cfee62206d0f6941f2d1cdc8c3b", "fusion_lat": 0.0, "fusion_lon": 0.0, "rental_uris": {"android": "https://dc.lft.to/lastmile_qr_scan", "ios": "https://dc.lft.to/lastmile_qr_scan"}, "is_reserved": 0, "is_disabled": 0, "type": "electric_scooter", "bike_id": "09011cfee62206d0f6941f2d1cdc8c3b"}, {"lon": -77.04592433333333, "lat": 38.9192165, "name": "c7ce0f0e62b201e97f54c3d93ffecd76", "fusion_lat": 0.0, "fusion_lon": 0.0, "rental_uris": {"android": "https://dc.lft.to/lastmile_qr_scan", "ios": "https://dc.lft.to/lastmile_qr_scan"}, "is_reserved": 0, "is_disabled": 0, "type": "electric_scooter", "bike_id": "c7ce0f0e62b201e97f54c3d93ffecd76"}, {"lon": -76.98374433333333, "lat": 38.86030266666667, "name": "6705f0fc919dfc9ae7664166aba98fb5", "fusion_lat": 0.0, "fusion_lon": 0.0, "rental_uris": {"android": "https://dc.lft.to/lastmile_qr_scan", "ios": "https://dc.lft.to/lastmile_qr_scan"}, "is_reserved": 0, "is_disabled": 0, "type": "electric_scooter", "bike_id": "6705f0fc919dfc9ae7664166aba98fb5"}, {"lon": -77.08367766666667, "lat": 38.808477, "name": "7fc420186a4a2020fe9e850b1fdb95c9", "fusion_lat": 0.0, "fusion_lon": 0.0, "rental_uris": {"android": "https://dc.lft.to/lastmile_qr_scan", "ios": "https://dc.lft.to/lastmile_qr_scan"}, "is_reserved": 0, "is_disabled": 0, "type": "electric_bike", "bike_id": "7fc420186a4a2020fe9e850b1fdb95c9"}, {"lon": -76.975006, "lat": 38.9193265, "name": "181ff5c398b589b8be809456664c6a71", "fusion_lat": 0.0, "fusion_lon": 0.0, "rental_uris": {"android": "https://dc.lft.to/lastmile_qr_scan", "ios": "https://dc.lft.to/lastmile_qr_scan"}, "is_reserved": 0, "is_disabled": 0, "type": "electric_bike", "bike_id": "181ff5c398b589b8be809456664c6a71"}, {"lon": -77.03835616666667, "lat": 38.9156015, "name": "06717cbec72c22afd9b2fa654ffbbfaf", "fusion_lat": 0.0, "fusion_lon": 0.0, "rental_uris": {"android": "https://dc.lft.to/lastmile_qr_scan", "ios": "https://dc.lft.to/lastmile_qr_scan"}, "is_reserved": 0, "is_disabled": 0, "type": "electric_scooter", "bike_id": "06717cbec72c22afd9b2fa654ffbbfaf"}, {"lon": -76.98228816666666, "lat": 38.916540833333336, "name": "7e8ae06084451443f0941c0d90db1893", "fusion_lat": 0.0, "fusion_lon": 0.0, "rental_uris": {"android": "https://dc.lft.to/lastmile_qr_scan", "ios": "https://dc.lft.to/lastmile_qr_scan"}, "is_reserved": 0, "is_disabled": 0, "type": "electric_scooter", "bike_id": "7e8ae06084451443f0941c0d90db1893"}, {"lon": -77.01752183333333, "lat": 38.90257616666667, "name": "2dc869f8467a88056bdc840d791c086b", "fusion_lat": 0.0, "fusion_lon": 0.0, "rental_uris": {"android": "https://dc.lft.to/lastmile_qr_scan", "ios": "https://dc.lft.to/lastmile_qr_scan"}, "is_reserved": 0, "is_disabled": 0, "type": "electric_scooter", "bike_id": "2dc869f8467a88056bdc840d791c086b"}, {"lon": -77.03181283333333, "lat": 38.919269166666666, "name": "740b312d298869b55223465b8db00770", "fusion_lat": 0.0, "fusion_lon": 0.0, "rental_uris": {"android": "https://dc.lft.to/lastmile_qr_scan", "ios": "https://dc.lft.to/lastmile_qr_scan"}, "is_reserved": 0, "is_disabled": 0, "type": "electric_scooter", "bike_id": "740b312d298869b55223465b8db00770"}, {"lon": -77.0400195, "lat": 38.918071166666664, "name": "c6e3b2fd2e08b38afa53e459b75c3836", "fusion_lat": 0.0, "fusion_lon": 0.0, "rental_uris": {"android": "https://dc.lft.to/lastmile_qr_scan", "ios": "https://dc.lft.to/lastmile_qr_scan"}, "is_reserved": 0, "is_disabled": 0, "type": "electric_scooter", "bike_id": "c6e3b2fd2e08b38afa53e459b75c3836"}, {"lon": -77.010729, "lat": 38.87113433333333, "name": "33293be36cd5013abedf3447393d54f2", "fusion_lat": 0.0, "fusion_lon": 0.0, "rental_uris": {"android": "https://dc.lft.to/lastmile_qr_scan", "ios": "https://dc.lft.to/lastmile_qr_scan"}, "is_reserved": 0, "is_disabled": 0, "type": "electric_scooter", "bike_id": "33293be36cd5013abedf3447393d54f2"}, {"lon": -77.02235033333334, "lat": 38.92219016666667, "name": "7179fe64d4e62feda5582c263b214573", "fusion_lat": 0.0, "fusion_lon": 0.0, "rental_uris": {"android": "https://dc.lft.to/lastmile_qr_scan", "ios": "https://dc.lft.to/lastmile_qr_scan"}, "is_reserved": 0, "is_disabled": 0, "type": "electric_bike", "bike_id": "7179fe64d4e62feda5582c263b214573"}, {"lon": -77.018518, "lat": 38.91979933333333, "name": "786a4b0c79857ffa195e5048f631f00b", "fusion_lat": 0.0, "fusion_lon": 0.0, "rental_uris": {"android": "https://dc.lft.to/lastmile_qr_scan", "ios": "https://dc.lft.to/lastmile_qr_scan"}, "is_reserved": 0, "is_disabled": 0, "type": "electric_scooter", "bike_id": "786a4b0c79857ffa195e5048f631f00b"}, {"lon": -76.96880183333333, "lat": 38.845931, "name": "40e39de8c80b12a52c33e7b0a77abcc3", "fusion_lat": 0.0, "fusion_lon": 0.0, "rental_uris": {"android": "https://dc.lft.to/lastmile_qr_scan", "ios": "https://dc.lft.to/lastmile_qr_scan"}, "is_reserved": 0, "is_disabled": 0, "type": "electric_bike", "bike_id": "40e39de8c80b12a52c33e7b0a77abcc3"}, {"lon": -77.036412, "lat": 38.92419266666667, "name": "26a83ab1354ee850830322d801e485ce", "fusion_lat": 0.0, "fusion_lon": 0.0, "rental_uris": {"android": "https://dc.lft.to/lastmile_qr_scan", "ios": "https://dc.lft.to/lastmile_qr_scan"}, "is_reserved": 0, "is_disabled": 0, "type": "electric_scooter", "bike_id": "26a83ab1354ee850830322d801e485ce"}, {"lon": -77.01303716666666, "lat": 38.9003915, "name": "42c773add27124fbc78a48c968a5ca00", "fusion_lat": 0.0, "fusion_lon": 0.0, "rental_uris": {"android": "https://dc.lft.to/lastmile_qr_scan", "ios": "https://dc.lft.to/lastmile_qr_scan"}, "is_reserved": 0, "is_disabled": 0, "type": "electric_scooter", "bike_id": "42c773add27124fbc78a48c968a5ca00"}, {"lon": -77.00730683333333, "lat": 38.95973716666666, "name": "ba2eec816321a06aa8e29065f76ce410", "fusion_lat": 0.0, "fusion_lon": 0.0, "rental_uris": {"android": "https://dc.lft.to/lastmile_qr_scan", "ios": "https://dc.lft.to/lastmile_qr_scan"}, "is_reserved": 0, "is_disabled": 0, "type": "electric_scooter", "bike_id": "ba2eec816321a06aa8e29065f76ce410"}, {"lon": -77.067578, "lat": 38.949798666666666, "name": "8af601929c5acb8cffda78f8751f7e75", "fusion_lat": 0.0, "fusion_lon": 0.0, "rental_uris": {"android": "https://dc.lft.to/lastmile_qr_scan", "ios": "https://dc.lft.to/lastmile_qr_scan"}, "is_reserved": 0, "is_disabled": 0, "type": "electric_scooter", "bike_id": "8af601929c5acb8cffda78f8751f7e75"}, {"lon": -77.0144535, "lat": 38.87668266666667, "name": "89e897a9cc0c310a705cfda174a4bf82", "fusion_lat": 0.0, "fusion_lon": 0.0, "rental_uris": {"android": "https://dc.lft.to/lastmile_qr_scan", "ios": "https://dc.lft.to/lastmile_qr_scan"}, "is_reserved": 0, "is_disabled": 0, "type": "electric_bike", "bike_id": "89e897a9cc0c310a705cfda174a4bf82"}, {"lon": -77.0424555, "lat": 38.92219, "name": "4815c18f4fb5b5ed4581777353dd2e43", "fusion_lat": 0.0, "fusion_lon": 0.0, "rental_uris": {"android": "https://dc.lft.to/lastmile_qr_scan", "ios": "https://dc.lft.to/lastmile_qr_scan"}, "is_reserved": 0, "is_disabled": 0, "type": "electric_scooter", "bike_id": "4815c18f4fb5b5ed4581777353dd2e43"}, {"lon": -76.9912575, "lat": 38.9000825, "name": "197e2f423e64421466b25d9841a59ba3", "fusion_lat": 0.0, "fusion_lon": 0.0, "rental_uris": {"android": "https://dc.lft.to/lastmile_qr_scan", "ios": "https://dc.lft.to/lastmile_qr_scan"}, "is_reserved": 0, "is_disabled": 0, "type": "electric_scooter", "bike_id": "197e2f423e64421466b25d9841a59ba3"}, {"lon": -76.97222116666667, "lat": 38.84479233333333, "name": "96aecbe08d124cb3d2cb651c841e6c83", "fusion_lat": 0.0, "fusion_lon": 0.0, "rental_uris": {"android": "https://dc.lft.to/lastmile_qr_scan", "ios": "https://dc.lft.to/lastmile_qr_scan"}, "is_reserved": 0, "is_disabled": 0, "type": "electric_bike", "bike_id": "96aecbe08d124cb3d2cb651c841e6c83"}, {"lon": -77.02489666666666, "lat": 38.938637166666666, "name": "31162b4cb8bc81eb9a022159213e11aa", "fusion_lat": 0.0, "fusion_lon": 0.0, "rental_uris": {"android": "https://dc.lft.to/lastmile_qr_scan", "ios": "https://dc.lft.to/lastmile_qr_scan"}, "is_reserved": 0, "is_disabled": 0, "type": "electric_scooter", "bike_id": "31162b4cb8bc81eb9a022159213e11aa"}, {"lon": -77.01553366666667, "lat": 38.891984666666666, "name": "bd253a213a402fff2633ce7bc5cbdab1", "fusion_lat": 0.0, "fusion_lon": 0.0, "rental_uris": {"android": "https://dc.lft.to/lastmile_qr_scan", "ios": "https://dc.lft.to/lastmile_qr_scan"}, "is_reserved": 0, "is_disabled": 0, "type": "electric_scooter", "bike_id": "bd253a213a402fff2633ce7bc5cbdab1"}, {"lon": -77.03228416666667, "lat": 38.89220983333333, "name": "481837122511157420f9ed76f3e355bd", "fusion_lat": 0.0, "fusion_lon": 0.0, "rental_uris": {"android": "https://dc.lft.to/lastmile_qr_scan", "ios": "https://dc.lft.to/lastmile_qr_scan"}, "is_reserved": 0, "is_disabled": 0, "type": "electric_scooter", "bike_id": "481837122511157420f9ed76f3e355bd"}, {"lon": -76.94573783333334, "lat": 38.86621383333333, "name": "7e0b9f62b72cb7c06eb6b4d244916f3f", "fusion_lat": 0.0, "fusion_lon": 0.0, "rental_uris": {"android": "https://dc.lft.to/lastmile_qr_scan", "ios": "https://dc.lft.to/lastmile_qr_scan"}, "is_reserved": 0, "is_disabled": 0, "type": "electric_bike", "bike_id": "7e0b9f62b72cb7c06eb6b4d244916f3f"}, {"lon": -77.02285183333333, "lat": 38.896877833333335, "name": "cc987812d4367192e8f2af0d7ead0ed5", "fusion_lat": 0.0, "fusion_lon": 0.0, "rental_uris": {"android": "https://dc.lft.to/lastmile_qr_scan", "ios": "https://dc.lft.to/lastmile_qr_scan"}, "is_reserved": 0, "is_disabled": 0, "type": "electric_scooter", "bike_id": "cc987812d4367192e8f2af0d7ead0ed5"}, {"lon": -77.03040116666666, "lat": 38.946409, "name": "d1328447f85b0c441f48e73d12375993", "fusion_lat": 0.0, "fusion_lon": 0.0, "rental_uris": {"android": "https://dc.lft.to/lastmile_qr_scan", "ios": "https://dc.lft.to/lastmile_qr_scan"}, "is_reserved": 0, "is_disabled": 0, "type": "electric_scooter", "bike_id": "d1328447f85b0c441f48e73d12375993"}, {"lon": -77.06188766666666, "lat": 38.94167916666667, "name": "d0301d93c37fefe48b3057431b07b73a", "fusion_lat": 0.0, "fusion_lon": 0.0, "rental_uris": {"android": "https://dc.lft.to/lastmile_qr_scan", "ios": "https://dc.lft.to/lastmile_qr_scan"}, "is_reserved": 0, "is_disabled": 0, "type": "electric_scooter", "bike_id": "d0301d93c37fefe48b3057431b07b73a"}, {"lon": -76.9334085, "lat": 38.899048666666665, "name": "b317472e245be2f273543d668187d861", "fusion_lat": 0.0, "fusion_lon": 0.0, "rental_uris": {"android": "https://dc.lft.to/lastmile_qr_scan", "ios": "https://dc.lft.to/lastmile_qr_scan"}, "is_reserved": 0, "is_disabled": 0, "type": "electric_scooter", "bike_id": "b317472e245be2f273543d668187d861"}, {"lon": -76.97303, "lat": 38.91985716666667, "name": "5759132a6f7a76ce379505371fc5ea0a", "fusion_lat": 0.0, "fusion_lon": 0.0, "rental_uris": {"android": "https://dc.lft.to/lastmile_qr_scan", "ios": "https://dc.lft.to/lastmile_qr_scan"}, "is_reserved": 0, "is_disabled": 0, "type": "electric_scooter", "bike_id": "5759132a6f7a76ce379505371fc5ea0a"}, {"lon": -77.03513716666667, "lat": 38.935880166666664, "name": "9b6a129658d4d23bebc979e43b318875", "fusion_lat": 0.0, "fusion_lon": 0.0, "rental_uris": {"android": "https://dc.lft.to/lastmile_qr_scan", "ios": "https://dc.lft.to/lastmile_qr_scan"}, "is_reserved": 0, "is_disabled": 0, "type": "electric_scooter", "bike_id": "9b6a129658d4d23bebc979e43b318875"}, {"lon": -76.909706, "lat": 38.854323, "name": "bcb215308f6815f3747ba493d7d79627", "fusion_lat": 0.0, "fusion_lon": 0.0, "rental_uris": {"android": "https://dc.lft.to/lastmile_qr_scan", "ios": "https://dc.lft.to/lastmile_qr_scan"}, "is_reserved": 0, "is_disabled": 0, "type": "electric_bike", "bike_id": "bcb215308f6815f3747ba493d7d79627"}, {"lon": -77.018713, "lat": 38.887457166666664, "name": "20ce1b7abe5a993712875b0512ce0ce0", "fusion_lat": 0.0, "fusion_lon": 0.0, "rental_uris": {"android": "https://dc.lft.to/lastmile_qr_scan", "ios": "https://dc.lft.to/lastmile_qr_scan"}, "is_reserved": 0, "is_disabled": 0, "type": "electric_scooter", "bike_id": "20ce1b7abe5a993712875b0512ce0ce0"}, {"lon": -77.03349833333333, "lat": 38.895316, "name": "8b2ee5baa2ddf3da01115057590e2303", "fusion_lat": 0.0, "fusion_lon": 0.0, "rental_uris": {"android": "https://dc.lft.to/lastmile_qr_scan", "ios": "https://dc.lft.to/lastmile_qr_scan"}, "is_reserved": 0, "is_disabled": 0, "type": "electric_scooter", "bike_id": "8b2ee5baa2ddf3da01115057590e2303"}, {"lon": -77.02691616666667, "lat": 38.909429333333335, "name": "195220909f649437b7b486c0a938e891", "fusion_lat": 0.0, "fusion_lon": 0.0, "rental_uris": {"android": "https://dc.lft.to/lastmile_qr_scan", "ios": "https://dc.lft.to/lastmile_qr_scan"}, "is_reserved": 0, "is_disabled": 0, "type": "electric_scooter", "bike_id": "195220909f649437b7b486c0a938e891"}, {"lon": -77.023778, "lat": 38.909584833333334, "name": "d38c01ce183596113368c41eb41e3d19", "fusion_lat": 0.0, "fusion_lon": 0.0, "rental_uris": {"android": "https://dc.lft.to/lastmile_qr_scan", "ios": "https://dc.lft.to/lastmile_qr_scan"}, "is_reserved": 0, "is_disabled": 0, "type": "electric_scooter", "bike_id": "d38c01ce183596113368c41eb41e3d19"}, {"lon": -77.04183833333333, "lat": 38.930608, "name": "78dd7150f4f21293864f0786953e2e5b", "fusion_lat": 0.0, "fusion_lon": 0.0, "rental_uris": {"android": "https://dc.lft.to/lastmile_qr_scan", "ios": "https://dc.lft.to/lastmile_qr_scan"}, "is_reserved": 0, "is_disabled": 0, "type": "electric_scooter", "bike_id": "78dd7150f4f21293864f0786953e2e5b"}, {"lon": -77.026649, "lat": 38.9386075, "name": "92e445708fa1309302d1ebda860b7441", "fusion_lat": 0.0, "fusion_lon": 0.0, "rental_uris": {"android": "https://dc.lft.to/lastmile_qr_scan", "ios": "https://dc.lft.to/lastmile_qr_scan"}, "is_reserved": 0, "is_disabled": 0, "type": "electric_scooter", "bike_id": "92e445708fa1309302d1ebda860b7441"}, {"lon": -77.00917716666666, "lat": 38.902706, "name": "09d805ef10a2ea274db5d52f11922508", "fusion_lat": 0.0, "fusion_lon": 0.0, "rental_uris": {"android": "https://dc.lft.to/lastmile_qr_scan", "ios": "https://dc.lft.to/lastmile_qr_scan"}, "is_reserved": 0, "is_disabled": 0, "type": "electric_scooter", "bike_id": "09d805ef10a2ea274db5d52f11922508"}, {"lon": -77.0407195, "lat": 38.81238966666667, "name": "bc16b3c3d036bc9fd19fa9da16510249", "fusion_lat": 0.0, "fusion_lon": 0.0, "rental_uris": {"android": "https://dc.lft.to/lastmile_qr_scan", "ios": "https://dc.lft.to/lastmile_qr_scan"}, "is_reserved": 0, "is_disabled": 0, "type": "electric_bike", "bike_id": "bc16b3c3d036bc9fd19fa9da16510249"}, {"lon": -77.01998266666666, "lat": 38.90235116666667, "name": "030708556112a536e8f39dc2e4b95f7e", "fusion_lat": 0.0, "fusion_lon": 0.0, "rental_uris": {"android": "https://dc.lft.to/lastmile_qr_scan", "ios": "https://dc.lft.to/lastmile_qr_scan"}, "is_reserved": 0, "is_disabled": 0, "type": "electric_scooter", "bike_id": "030708556112a536e8f39dc2e4b95f7e"}, {"lon": -77.05045333333334, "lat": 38.9240745, "name": "b7ddb96dfa6c70cfbbade61252971da3", "fusion_lat": 0.0, "fusion_lon": 0.0, "rental_uris": {"android": "https://dc.lft.to/lastmile_qr_scan", "ios": "https://dc.lft.to/lastmile_qr_scan"}, "is_reserved": 0, "is_disabled": 0, "type": "electric_bike", "bike_id": "b7ddb96dfa6c70cfbbade61252971da3"}, {"lon": -77.02707533333333, "lat": 38.949997833333335, "name": "2f67370c171c9b9f6a6a5af37a2a601c", "fusion_lat": 0.0, "fusion_lon": 0.0, "rental_uris": {"android": "https://dc.lft.to/lastmile_qr_scan", "ios": "https://dc.lft.to/lastmile_qr_scan"}, "is_reserved": 0, "is_disabled": 0, "type": "electric_scooter", "bike_id": "2f67370c171c9b9f6a6a5af37a2a601c"}, {"lon": -77.03289583333333, "lat": 38.956436333333336, "name": "6d1fb9ca315e49a9eca3ef433446ecf7", "fusion_lat": 0.0, "fusion_lon": 0.0, "rental_uris": {"android": "https://dc.lft.to/lastmile_qr_scan", "ios": "https://dc.lft.to/lastmile_qr_scan"}, "is_reserved": 0, "is_disabled": 0, "type": "electric_scooter", "bike_id": "6d1fb9ca315e49a9eca3ef433446ecf7"}, {"lon": -77.02789016666667, "lat": 38.905645166666666, "name": "1f27b058840a7e03c6c2c83631df6cdb", "fusion_lat": 0.0, "fusion_lon": 0.0, "rental_uris": {"android": "https://dc.lft.to/lastmile_qr_scan", "ios": "https://dc.lft.to/lastmile_qr_scan"}, "is_reserved": 0, "is_disabled": 0, "type": "electric_scooter", "bike_id": "1f27b058840a7e03c6c2c83631df6cdb"}, {"lon": -77.01933466666667, "lat": 38.917267833333334, "name": "e5df08de9e31c8b6d5c3a5699d133a08", "fusion_lat": 0.0, "fusion_lon": 0.0, "rental_uris": {"android": "https://dc.lft.to/lastmile_qr_scan", "ios": "https://dc.lft.to/lastmile_qr_scan"}, "is_reserved": 0, "is_disabled": 0, "type": "electric_scooter", "bike_id": "e5df08de9e31c8b6d5c3a5699d133a08"}, {"lon": -76.93204716666666, "lat": 38.87232383333333, "name": "9e233c92f6feb768e7ae14458db4ad7c", "fusion_lat": 0.0, "fusion_lon": 0.0, "rental_uris": {"android": "https://dc.lft.to/lastmile_qr_scan", "ios": "https://dc.lft.to/lastmile_qr_scan"}, "is_reserved": 0, "is_disabled": 0, "type": "electric_bike", "bike_id": "9e233c92f6feb768e7ae14458db4ad7c"}, {"lon": -77.0326305, "lat": 38.91985, "name": "4524a8e79367b0d4cfb339a0086a019d", "fusion_lat": 0.0, "fusion_lon": 0.0, "rental_uris": {"android": "https://dc.lft.to/lastmile_qr_scan", "ios": "https://dc.lft.to/lastmile_qr_scan"}, "is_reserved": 0, "is_disabled": 0, "type": "electric_scooter", "bike_id": "4524a8e79367b0d4cfb339a0086a019d"}, {"lon": -77.0020355, "lat": 38.902398833333336, "name": "7b8750320f69e9b47a80a557f0ca3f0a", "fusion_lat": 0.0, "fusion_lon": 0.0, "rental_uris": {"android": "https://dc.lft.to/lastmile_qr_scan", "ios": "https://dc.lft.to/lastmile_qr_scan"}, "is_reserved": 0, "is_disabled": 0, "type": "electric_scooter", "bike_id": "7b8750320f69e9b47a80a557f0ca3f0a"}, {"lon": -77.03847633333334, "lat": 38.904864, "name": "115f45a807017ab3b417cbf6ce7b5fc6", "fusion_lat": 0.0, "fusion_lon": 0.0, "rental_uris": {"android": "https://dc.lft.to/lastmile_qr_scan", "ios": "https://dc.lft.to/lastmile_qr_scan"}, "is_reserved": 0, "is_disabled": 0, "type": "electric_scooter", "bike_id": "115f45a807017ab3b417cbf6ce7b5fc6"}, {"lon": -76.95240783333334, "lat": 38.886726833333334, "name": "e0e6a885e75a5cc7be7aa36cdcf4ab4b", "fusion_lat": 0.0, "fusion_lon": 0.0, "rental_uris": {"android": "https://dc.lft.to/lastmile_qr_scan", "ios": "https://dc.lft.to/lastmile_qr_scan"}, "is_reserved": 0, "is_disabled": 0, "type": "electric_scooter", "bike_id": "e0e6a885e75a5cc7be7aa36cdcf4ab4b"}, {"lon": -77.08944583333333, "lat": 38.84116233333334, "name": "da93cfce7fab7c47bd6e736e9656be17", "fusion_lat": 0.0, "fusion_lon": 0.0, "rental_uris": {"android": "https://dc.lft.to/lastmile_qr_scan", "ios": "https://dc.lft.to/lastmile_qr_scan"}, "is_reserved": 0, "is_disabled": 0, "type": "electric_bike", "bike_id": "da93cfce7fab7c47bd6e736e9656be17"}, {"lon": -77.0225465, "lat": 38.92499883333333, "name": "86297dbf2059edd5e1b191513a4c3388", "fusion_lat": 0.0, "fusion_lon": 0.0, "rental_uris": {"android": "https://dc.lft.to/lastmile_qr_scan", "ios": "https://dc.lft.to/lastmile_qr_scan"}, "is_reserved": 0, "is_disabled": 0, "type": "electric_scooter", "bike_id": "86297dbf2059edd5e1b191513a4c3388"}, {"lon": -77.02990083333333, "lat": 38.956287333333336, "name": "84f85edbdbfb940b0614df379f8490d5", "fusion_lat": 0.0, "fusion_lon": 0.0, "rental_uris": {"android": "https://dc.lft.to/lastmile_qr_scan", "ios": "https://dc.lft.to/lastmile_qr_scan"}, "is_reserved": 0, "is_disabled": 0, "type": "electric_scooter", "bike_id": "84f85edbdbfb940b0614df379f8490d5"}, {"lon": -77.0120445, "lat": 38.9149425, "name": "62235bea0a66ac8e041f36dd54df61cf", "fusion_lat": 0.0, "fusion_lon": 0.0, "rental_uris": {"android": "https://dc.lft.to/lastmile_qr_scan", "ios": "https://dc.lft.to/lastmile_qr_scan"}, "is_reserved": 0, "is_disabled": 0, "type": "electric_scooter", "bike_id": "62235bea0a66ac8e041f36dd54df61cf"}, {"lon": -76.98732033333333, "lat": 38.867108333333334, "name": "7f12204f9ffdb47c9a6ba2ff266f38da", "fusion_lat": 0.0, "fusion_lon": 0.0, "rental_uris": {"android": "https://dc.lft.to/lastmile_qr_scan", "ios": "https://dc.lft.to/lastmile_qr_scan"}, "is_reserved": 0, "is_disabled": 0, "type": "electric_scooter", "bike_id": "7f12204f9ffdb47c9a6ba2ff266f38da"}, {"lon": -77.02343216666667, "lat": 38.88474933333333, "name": "1261ca836f4a774f2125e946b12bbc42", "fusion_lat": 0.0, "fusion_lon": 0.0, "rental_uris": {"android": "https://dc.lft.to/lastmile_qr_scan", "ios": "https://dc.lft.to/lastmile_qr_scan"}, "is_reserved": 0, "is_disabled": 0, "type": "electric_scooter", "bike_id": "1261ca836f4a774f2125e946b12bbc42"}, {"lon": -77.03264233333333, "lat": 38.90875033333333, "name": "d0d0696e542daf21311d59d90f3c2399", "fusion_lat": 0.0, "fusion_lon": 0.0, "rental_uris": {"android": "https://dc.lft.to/lastmile_qr_scan", "ios": "https://dc.lft.to/lastmile_qr_scan"}, "is_reserved": 0, "is_disabled": 0, "type": "electric_scooter", "bike_id": "d0d0696e542daf21311d59d90f3c2399"}, {"lon": -77.03250066666666, "lat": 38.90222216666667, "name": "b905ce7c05ffc2f7717cf6140076ebfb", "fusion_lat": 0.0, "fusion_lon": 0.0, "rental_uris": {"android": "https://dc.lft.to/lastmile_qr_scan", "ios": "https://dc.lft.to/lastmile_qr_scan"}, "is_reserved": 0, "is_disabled": 0, "type": "electric_scooter", "bike_id": "b905ce7c05ffc2f7717cf6140076ebfb"}, {"lon": -77.04084483333334, "lat": 38.9238795, "name": "d08b011e6371f7df66c9d9a8d209ad55", "fusion_lat": 0.0, "fusion_lon": 0.0, "rental_uris": {"android": "https://dc.lft.to/lastmile_qr_scan", "ios": "https://dc.lft.to/lastmile_qr_scan"}, "is_reserved": 0, "is_disabled": 0, "type": "electric_scooter", "bike_id": "d08b011e6371f7df66c9d9a8d209ad55"}, {"lon": -77.0184555, "lat": 38.946351166666666, "name": "82dea8bfb232c703d959f0f0ee1dbacc", "fusion_lat": 0.0, "fusion_lon": 0.0, "rental_uris": {"android": "https://dc.lft.to/lastmile_qr_scan", "ios": "https://dc.lft.to/lastmile_qr_scan"}, "is_reserved": 0, "is_disabled": 0, "type": "electric_scooter", "bike_id": "82dea8bfb232c703d959f0f0ee1dbacc"}, {"lon": -77.0290945, "lat": 38.95847916666666, "name": "a67f5a2762d2a76f0b7571e973bcb443", "fusion_lat": 0.0, "fusion_lon": 0.0, "rental_uris": {"android": "https://dc.lft.to/lastmile_qr_scan", "ios": "https://dc.lft.to/lastmile_qr_scan"}, "is_reserved": 0, "is_disabled": 0, "type": "electric_scooter", "bike_id": "a67f5a2762d2a76f0b7571e973bcb443"}, {"lon": -76.99936366666667, "lat": 38.89621283333334, "name": "8f3e3784a0a737c9ba0a214e14525fac", "fusion_lat": 0.0, "fusion_lon": 0.0, "rental_uris": {"android": "https://dc.lft.to/lastmile_qr_scan", "ios": "https://dc.lft.to/lastmile_qr_scan"}, "is_reserved": 0, "is_disabled": 0, "type": "electric_scooter", "bike_id": "8f3e3784a0a737c9ba0a214e14525fac"}, {"lon": -77.08826666666667, "lat": 38.90976966666667, "name": "6dd43960f2fb47d6cdaf1a9452c58350", "fusion_lat": 0.0, "fusion_lon": 0.0, "rental_uris": {"android": "https://dc.lft.to/lastmile_qr_scan", "ios": "https://dc.lft.to/lastmile_qr_scan"}, "is_reserved": 0, "is_disabled": 0, "type": "electric_bike", "bike_id": "6dd43960f2fb47d6cdaf1a9452c58350"}, {"lon": -77.06271383333333, "lat": 38.90406566666667, "name": "3bc353f88c86d86002400196359fc195", "fusion_lat": 0.0, "fusion_lon": 0.0, "rental_uris": {"android": "https://dc.lft.to/lastmile_qr_scan", "ios": "https://dc.lft.to/lastmile_qr_scan"}, "is_reserved": 0, "is_disabled": 0, "type": "electric_scooter", "bike_id": "3bc353f88c86d86002400196359fc195"}, {"lon": -77.05065133333333, "lat": 38.900649666666666, "name": "4d0c788f73f27e21d70d05cd7404bbb0", "fusion_lat": 0.0, "fusion_lon": 0.0, "rental_uris": {"android": "https://dc.lft.to/lastmile_qr_scan", "ios": "https://dc.lft.to/lastmile_qr_scan"}, "is_reserved": 0, "is_disabled": 0, "type": "electric_scooter", "bike_id": "4d0c788f73f27e21d70d05cd7404bbb0"}, {"lon": -77.0057155, "lat": 38.88501983333333, "name": "d0c2c9b54333751ccd06cf56dc1b5f13", "fusion_lat": 0.0, "fusion_lon": 0.0, "rental_uris": {"android": "https://dc.lft.to/lastmile_qr_scan", "ios": "https://dc.lft.to/lastmile_qr_scan"}, "is_reserved": 0, "is_disabled": 0, "type": "electric_scooter", "bike_id": "d0c2c9b54333751ccd06cf56dc1b5f13"}, {"lon": -77.01129333333333, "lat": 38.894989333333335, "name": "17849e89f4e942539b10e0fb61cc170b", "fusion_lat": 0.0, "fusion_lon": 0.0, "rental_uris": {"android": "https://dc.lft.to/lastmile_qr_scan", "ios": "https://dc.lft.to/lastmile_qr_scan"}, "is_reserved": 0, "is_disabled": 0, "type": "electric_scooter", "bike_id": "17849e89f4e942539b10e0fb61cc170b"}, {"lon": -77.02490633333333, "lat": 38.974041, "name": "7f0ed37a60d3091de99a23654be09f03", "fusion_lat": 0.0, "fusion_lon": 0.0, "rental_uris": {"android": "https://dc.lft.to/lastmile_qr_scan", "ios": "https://dc.lft.to/lastmile_qr_scan"}, "is_reserved": 0, "is_disabled": 0, "type": "electric_bike", "bike_id": "7f0ed37a60d3091de99a23654be09f03"}, {"lon": -77.03145666666667, "lat": 38.927915166666665, "name": "d282ecf1762e411067b51d5bb918a5b3", "fusion_lat": 0.0, "fusion_lon": 0.0, "rental_uris": {"android": "https://dc.lft.to/lastmile_qr_scan", "ios": "https://dc.lft.to/lastmile_qr_scan"}, "is_reserved": 0, "is_disabled": 0, "type": "electric_scooter", "bike_id": "d282ecf1762e411067b51d5bb918a5b3"}, {"lon": -77.03873616666667, "lat": 38.932549333333334, "name": "e9380e8e7d4d9750ef0f4cbfe8d2aca7", "fusion_lat": 0.0, "fusion_lon": 0.0, "rental_uris": {"android": "https://dc.lft.to/lastmile_qr_scan", "ios": "https://dc.lft.to/lastmile_qr_scan"}, "is_reserved": 0, "is_disabled": 0, "type": "electric_scooter", "bike_id": "e9380e8e7d4d9750ef0f4cbfe8d2aca7"}, {"lon": -76.94727333333333, "lat": 38.8967575, "name": "e5a76406bbbaed78e5bff099ba304e94", "fusion_lat": 0.0, "fusion_lon": 0.0, "rental_uris": {"android": "https://dc.lft.to/lastmile_qr_scan", "ios": "https://dc.lft.to/lastmile_qr_scan"}, "is_reserved": 0, "is_disabled": 0, "type": "electric_scooter", "bike_id": "e5a76406bbbaed78e5bff099ba304e94"}, {"lon": -77.03337666666667, "lat": 38.900397166666664, "name": "b92b0a1c252a2163ac09a427c405ee80", "fusion_lat": 0.0, "fusion_lon": 0.0, "rental_uris": {"android": "https://dc.lft.to/lastmile_qr_scan", "ios": "https://dc.lft.to/lastmile_qr_scan"}, "is_reserved": 0, "is_disabled": 0, "type": "electric_scooter", "bike_id": "b92b0a1c252a2163ac09a427c405ee80"}, {"lon": -76.99947183333333, "lat": 38.8429585, "name": "e632ce8810bbe7b9399d34d926a3348c", "fusion_lat": 0.0, "fusion_lon": 0.0, "rental_uris": {"android": "https://dc.lft.to/lastmile_qr_scan", "ios": "https://dc.lft.to/lastmile_qr_scan"}, "is_reserved": 0, "is_disabled": 0, "type": "electric_scooter", "bike_id": "e632ce8810bbe7b9399d34d926a3348c"}, {"lon": -77.0229655, "lat": 38.9174775, "name": "00ffbb3f36da1574d196835b2ded7d5a", "fusion_lat": 0.0, "fusion_lon": 0.0, "rental_uris": {"android": "https://dc.lft.to/lastmile_qr_scan", "ios": "https://dc.lft.to/lastmile_qr_scan"}, "is_reserved": 0, "is_disabled": 0, "type": "electric_scooter", "bike_id": "00ffbb3f36da1574d196835b2ded7d5a"}, {"lon": -77.046469, "lat": 38.85210633333333, "name": "6282d352d56382aea02713743f1ed34c", "fusion_lat": 0.0, "fusion_lon": 0.0, "rental_uris": {"android": "https://dc.lft.to/lastmile_qr_scan", "ios": "https://dc.lft.to/lastmile_qr_scan"}, "is_reserved": 0, "is_disabled": 0, "type": "electric_bike", "bike_id": "6282d352d56382aea02713743f1ed34c"}, {"lon": -77.05022216666667, "lat": 38.90127183333333, "name": "9522a61e0203b917a4d4a0b04c5adf5f", "fusion_lat": 0.0, "fusion_lon": 0.0, "rental_uris": {"android": "https://dc.lft.to/lastmile_qr_scan", "ios": "https://dc.lft.to/lastmile_qr_scan"}, "is_reserved": 0, "is_disabled": 0, "type": "electric_scooter", "bike_id": "9522a61e0203b917a4d4a0b04c5adf5f"}, {"lon": -76.9317505, "lat": 38.898830333333336, "name": "e7dd7abaa303458bb3742d87c800fd46", "fusion_lat": 0.0, "fusion_lon": 0.0, "rental_uris": {"android": "https://dc.lft.to/lastmile_qr_scan", "ios": "https://dc.lft.to/lastmile_qr_scan"}, "is_reserved": 0, "is_disabled": 0, "type": "electric_scooter", "bike_id": "e7dd7abaa303458bb3742d87c800fd46"}, {"lon": -76.995018, "lat": 38.879735833333335, "name": "ba9b7185e5b637c4cbc700afe171920f", "fusion_lat": 0.0, "fusion_lon": 0.0, "rental_uris": {"android": "https://dc.lft.to/lastmile_qr_scan", "ios": "https://dc.lft.to/lastmile_qr_scan"}, "is_reserved": 0, "is_disabled": 0, "type": "electric_scooter", "bike_id": "ba9b7185e5b637c4cbc700afe171920f"}, {"lon": -77.03179783333333, "lat": 38.886212, "name": "32da0208c42ff403324e0a4c113387fe", "fusion_lat": 0.0, "fusion_lon": 0.0, "rental_uris": {"android": "https://dc.lft.to/lastmile_qr_scan", "ios": "https://dc.lft.to/lastmile_qr_scan"}, "is_reserved": 0, "is_disabled": 0, "type": "electric_scooter", "bike_id": "32da0208c42ff403324e0a4c113387fe"}, {"lon": -77.03275633333334, "lat": 38.904069, "name": "d341d88294987eb94e74f289feb1d6f0", "fusion_lat": 0.0, "fusion_lon": 0.0, "rental_uris": {"android": "https://dc.lft.to/lastmile_qr_scan", "ios": "https://dc.lft.to/lastmile_qr_scan"}, "is_reserved": 0, "is_disabled": 0, "type": "electric_scooter", "bike_id": "d341d88294987eb94e74f289feb1d6f0"}, {"lon": -77.012209, "lat": 38.91543633333333, "name": "24d262c50ad4fc58c1b3e7dfeaed7a31", "fusion_lat": 0.0, "fusion_lon": 0.0, "rental_uris": {"android": "https://dc.lft.to/lastmile_qr_scan", "ios": "https://dc.lft.to/lastmile_qr_scan"}, "is_reserved": 0, "is_disabled": 0, "type": "electric_scooter", "bike_id": "24d262c50ad4fc58c1b3e7dfeaed7a31"}, {"lon": -77.00211283333333, "lat": 38.902207, "name": "a578b055409023d3134d8aed4b0b02ea", "fusion_lat": 0.0, "fusion_lon": 0.0, "rental_uris": {"android": "https://dc.lft.to/lastmile_qr_scan", "ios": "https://dc.lft.to/lastmile_qr_scan"}, "is_reserved": 0, "is_disabled": 0, "type": "electric_scooter", "bike_id": "a578b055409023d3134d8aed4b0b02ea"}, {"lon": -77.04657616666667, "lat": 38.893334833333334, "name": "63a28eecc0064fa03dcb34e7f08f1e70", "fusion_lat": 0.0, "fusion_lon": 0.0, "rental_uris": {"android": "https://dc.lft.to/lastmile_qr_scan", "ios": "https://dc.lft.to/lastmile_qr_scan"}, "is_reserved": 0, "is_disabled": 0, "type": "electric_scooter", "bike_id": "63a28eecc0064fa03dcb34e7f08f1e70"}, {"lon": -77.03862766666667, "lat": 38.90771933333333, "name": "39fd5aa125bbe41a469c849c08d0fbf2", "fusion_lat": 0.0, "fusion_lon": 0.0, "rental_uris": {"android": "https://dc.lft.to/lastmile_qr_scan", "ios": "https://dc.lft.to/lastmile_qr_scan"}, "is_reserved": 0, "is_disabled": 0, "type": "electric_scooter", "bike_id": "39fd5aa125bbe41a469c849c08d0fbf2"}, {"lon": -77.0220415, "lat": 38.902021, "name": "8aecbdc6342569068ea58027cb61f521", "fusion_lat": 0.0, "fusion_lon": 0.0, "rental_uris": {"android": "https://dc.lft.to/lastmile_qr_scan", "ios": "https://dc.lft.to/lastmile_qr_scan"}, "is_reserved": 0, "is_disabled": 0, "type": "electric_scooter", "bike_id": "8aecbdc6342569068ea58027cb61f521"}, {"lon": -77.02207666666666, "lat": 38.90281733333333, "name": "cd04456372230b5e4f02bd05ecc0fe43", "fusion_lat": 0.0, "fusion_lon": 0.0, "rental_uris": {"android": "https://dc.lft.to/lastmile_qr_scan", "ios": "https://dc.lft.to/lastmile_qr_scan"}, "is_reserved": 0, "is_disabled": 0, "type": "electric_scooter", "bike_id": "cd04456372230b5e4f02bd05ecc0fe43"}, {"lon": -77.00167333333333, "lat": 38.917327, "name": "d419a2c04635f9d4a3dfb547a85031c0", "fusion_lat": 0.0, "fusion_lon": 0.0, "rental_uris": {"android": "https://dc.lft.to/lastmile_qr_scan", "ios": "https://dc.lft.to/lastmile_qr_scan"}, "is_reserved": 0, "is_disabled": 0, "type": "electric_bike", "bike_id": "d419a2c04635f9d4a3dfb547a85031c0"}, {"lon": -76.87825066666667, "lat": 38.9921545, "name": "ab9cce8fe31eabe911337f25a13c35e1", "fusion_lat": 0.0, "fusion_lon": 0.0, "rental_uris": {"android": "https://dc.lft.to/lastmile_qr_scan", "ios": "https://dc.lft.to/lastmile_qr_scan"}, "is_reserved": 0, "is_disabled": 0, "type": "electric_bike", "bike_id": "ab9cce8fe31eabe911337f25a13c35e1"}, {"lon": -77.0555045, "lat": 38.89905233333333, "name": "13cb710cd472cd926b6eb042214f4e3b", "fusion_lat": 0.0, "fusion_lon": 0.0, "rental_uris": {"android": "https://dc.lft.to/lastmile_qr_scan", "ios": "https://dc.lft.to/lastmile_qr_scan"}, "is_reserved": 0, "is_disabled": 0, "type": "electric_scooter", "bike_id": "13cb710cd472cd926b6eb042214f4e3b"}, {"lon": -76.98175316666666, "lat": 38.90040466666667, "name": "02f940617bf2f6fe95e244a6390423d6", "fusion_lat": 0.0, "fusion_lon": 0.0, "rental_uris": {"android": "https://dc.lft.to/lastmile_qr_scan", "ios": "https://dc.lft.to/lastmile_qr_scan"}, "is_reserved": 0, "is_disabled": 0, "type": "electric_scooter", "bike_id": "02f940617bf2f6fe95e244a6390423d6"}, {"lon": -76.98233366666666, "lat": 38.925036166666665, "name": "99f8183961bf2da01d91e58facc7ee7c", "fusion_lat": 0.0, "fusion_lon": 0.0, "rental_uris": {"android": "https://dc.lft.to/lastmile_qr_scan", "ios": "https://dc.lft.to/lastmile_qr_scan"}, "is_reserved": 0, "is_disabled": 0, "type": "electric_bike", "bike_id": "99f8183961bf2da01d91e58facc7ee7c"}, {"lon": -76.98780266666667, "lat": 38.900266, "name": "15d06a5ea167793fd7e8b91a1e82285a", "fusion_lat": 0.0, "fusion_lon": 0.0, "rental_uris": {"android": "https://dc.lft.to/lastmile_qr_scan", "ios": "https://dc.lft.to/lastmile_qr_scan"}, "is_reserved": 0, "is_disabled": 0, "type": "electric_scooter", "bike_id": "15d06a5ea167793fd7e8b91a1e82285a"}, {"lon": -76.9774785, "lat": 38.90007766666667, "name": "654706a6438c25fbadb14481e17d6537", "fusion_lat": 0.0, "fusion_lon": 0.0, "rental_uris": {"android": "https://dc.lft.to/lastmile_qr_scan", "ios": "https://dc.lft.to/lastmile_qr_scan"}, "is_reserved": 0, "is_disabled": 0, "type": "electric_scooter", "bike_id": "654706a6438c25fbadb14481e17d6537"}, {"lon": -76.94871766666667, "lat": 38.88962016666667, "name": "61354f66c8ca87b8522bf4f565e35f27", "fusion_lat": 0.0, "fusion_lon": 0.0, "rental_uris": {"android": "https://dc.lft.to/lastmile_qr_scan", "ios": "https://dc.lft.to/lastmile_qr_scan"}, "is_reserved": 0, "is_disabled": 0, "type": "electric_bike", "bike_id": "61354f66c8ca87b8522bf4f565e35f27"}, {"lon": -77.020474, "lat": 38.899201833333336, "name": "2bcad3f1bbc297023e59923c1d8fe831", "fusion_lat": 0.0, "fusion_lon": 0.0, "rental_uris": {"android": "https://dc.lft.to/lastmile_qr_scan", "ios": "https://dc.lft.to/lastmile_qr_scan"}, "is_reserved": 0, "is_disabled": 0, "type": "electric_scooter", "bike_id": "2bcad3f1bbc297023e59923c1d8fe831"}, {"lon": -77.03790583333334, "lat": 38.926412166666665, "name": "86df5eccbf257bc439a1bcfffaa36f85", "fusion_lat": 0.0, "fusion_lon": 0.0, "rental_uris": {"android": "https://dc.lft.to/lastmile_qr_scan", "ios": "https://dc.lft.to/lastmile_qr_scan"}, "is_reserved": 0, "is_disabled": 0, "type": "electric_scooter", "bike_id": "86df5eccbf257bc439a1bcfffaa36f85"}, {"lon": -77.10722466666667, "lat": 38.85529966666667, "name": "8a6e88c620af8fc7bea185438ce406eb", "fusion_lat": 0.0, "fusion_lon": 0.0, "rental_uris": {"android": "https://dc.lft.to/lastmile_qr_scan", "ios": "https://dc.lft.to/lastmile_qr_scan"}, "is_reserved": 0, "is_disabled": 0, "type": "electric_bike", "bike_id": "8a6e88c620af8fc7bea185438ce406eb"}, {"lon": -77.04507166666667, "lat": 38.9111025, "name": "4eae367538b7c7665971ccc1e6935d81", "fusion_lat": 0.0, "fusion_lon": 0.0, "rental_uris": {"android": "https://dc.lft.to/lastmile_qr_scan", "ios": "https://dc.lft.to/lastmile_qr_scan"}, "is_reserved": 0, "is_disabled": 0, "type": "electric_scooter", "bike_id": "4eae367538b7c7665971ccc1e6935d81"}, {"lon": -77.02959233333333, "lat": 38.94032966666666, "name": "6cc500c7de8db379a18520fa6d02aadc", "fusion_lat": 0.0, "fusion_lon": 0.0, "rental_uris": {"android": "https://dc.lft.to/lastmile_qr_scan", "ios": "https://dc.lft.to/lastmile_qr_scan"}, "is_reserved": 0, "is_disabled": 0, "type": "electric_scooter", "bike_id": "6cc500c7de8db379a18520fa6d02aadc"}, {"lon": -77.01578083333334, "lat": 38.876857, "name": "dce606d1d516b851417c96f9abb3d52a", "fusion_lat": 0.0, "fusion_lon": 0.0, "rental_uris": {"android": "https://dc.lft.to/lastmile_qr_scan", "ios": "https://dc.lft.to/lastmile_qr_scan"}, "is_reserved": 0, "is_disabled": 0, "type": "electric_scooter", "bike_id": "dce606d1d516b851417c96f9abb3d52a"}, {"lon": -77.04831766666666, "lat": 38.90059883333333, "name": "9372afba8e6139a1dd1d8894894a6ddc", "fusion_lat": 0.0, "fusion_lon": 0.0, "rental_uris": {"android": "https://dc.lft.to/lastmile_qr_scan", "ios": "https://dc.lft.to/lastmile_qr_scan"}, "is_reserved": 0, "is_disabled": 0, "type": "electric_scooter", "bike_id": "9372afba8e6139a1dd1d8894894a6ddc"}, {"lon": -77.03075433333333, "lat": 38.922463666666665, "name": "326ec642dac816142add7ade8b079f62", "fusion_lat": 0.0, "fusion_lon": 0.0, "rental_uris": {"android": "https://dc.lft.to/lastmile_qr_scan", "ios": "https://dc.lft.to/lastmile_qr_scan"}, "is_reserved": 0, "is_disabled": 0, "type": "electric_scooter", "bike_id": "326ec642dac816142add7ade8b079f62"}, {"lon": -76.99131383333334, "lat": 38.9031065, "name": "ff62cc4d967358ab84d2e8f036141788", "fusion_lat": 0.0, "fusion_lon": 0.0, "rental_uris": {"android": "https://dc.lft.to/lastmile_qr_scan", "ios": "https://dc.lft.to/lastmile_qr_scan"}, "is_reserved": 0, "is_disabled": 0, "type": "electric_bike", "bike_id": "ff62cc4d967358ab84d2e8f036141788"}, {"lon": -77.04119833333333, "lat": 38.9189315, "name": "d21ac715fe1c7c66cdac22fd823da44c", "fusion_lat": 0.0, "fusion_lon": 0.0, "rental_uris": {"android": "https://dc.lft.to/lastmile_qr_scan", "ios": "https://dc.lft.to/lastmile_qr_scan"}, "is_reserved": 0, "is_disabled": 0, "type": "electric_scooter", "bike_id": "d21ac715fe1c7c66cdac22fd823da44c"}, {"lon": -77.03379183333334, "lat": 38.9039815, "name": "bea9cde12e45f04ee4b852faed073361", "fusion_lat": 0.0, "fusion_lon": 0.0, "rental_uris": {"android": "https://dc.lft.to/lastmile_qr_scan", "ios": "https://dc.lft.to/lastmile_qr_scan"}, "is_reserved": 0, "is_disabled": 0, "type": "electric_scooter", "bike_id": "bea9cde12e45f04ee4b852faed073361"}, {"lon": -77.005911, "lat": 38.897979166666666, "name": "fce44dea09685a82a12639d6d88622ab", "fusion_lat": 0.0, "fusion_lon": 0.0, "rental_uris": {"android": "https://dc.lft.to/lastmile_qr_scan", "ios": "https://dc.lft.to/lastmile_qr_scan"}, "is_reserved": 0, "is_disabled": 0, "type": "electric_bike", "bike_id": "fce44dea09685a82a12639d6d88622ab"}, {"lon": -77.023592, "lat": 38.87911416666667, "name": "269c43e694f050c457110b8941520211", "fusion_lat": 0.0, "fusion_lon": 0.0, "rental_uris": {"android": "https://dc.lft.to/lastmile_qr_scan", "ios": "https://dc.lft.to/lastmile_qr_scan"}, "is_reserved": 0, "is_disabled": 0, "type": "electric_scooter", "bike_id": "269c43e694f050c457110b8941520211"}, {"lon": -76.984113, "lat": 38.89998, "name": "6149f4e433b40d52a3daf3f684dd1785", "fusion_lat": 0.0, "fusion_lon": 0.0, "rental_uris": {"android": "https://dc.lft.to/lastmile_qr_scan", "ios": "https://dc.lft.to/lastmile_qr_scan"}, "is_reserved": 0, "is_disabled": 0, "type": "electric_scooter", "bike_id": "6149f4e433b40d52a3daf3f684dd1785"}, {"lon": -77.06341833333333, "lat": 38.9067705, "name": "fefc1646dad98bd57f2c989bfd4e2185", "fusion_lat": 0.0, "fusion_lon": 0.0, "rental_uris": {"android": "https://dc.lft.to/lastmile_qr_scan", "ios": "https://dc.lft.to/lastmile_qr_scan"}, "is_reserved": 0, "is_disabled": 0, "type": "electric_scooter", "bike_id": "fefc1646dad98bd57f2c989bfd4e2185"}, {"lon": -76.98470983333333, "lat": 38.9289605, "name": "cff2033841bc931062f6fe4453078793", "fusion_lat": 0.0, "fusion_lon": 0.0, "rental_uris": {"android": "https://dc.lft.to/lastmile_qr_scan", "ios": "https://dc.lft.to/lastmile_qr_scan"}, "is_reserved": 0, "is_disabled": 0, "type": "electric_scooter", "bike_id": "cff2033841bc931062f6fe4453078793"}, {"lon": -77.03136233333333, "lat": 38.919251333333335, "name": "10a28afcaaa2717ba0130a41b0c0439e", "fusion_lat": 0.0, "fusion_lon": 0.0, "rental_uris": {"android": "https://dc.lft.to/lastmile_qr_scan", "ios": "https://dc.lft.to/lastmile_qr_scan"}, "is_reserved": 0, "is_disabled": 0, "type": "electric_scooter", "bike_id": "10a28afcaaa2717ba0130a41b0c0439e"}, {"lon": -77.01226233333334, "lat": 38.950815, "name": "1a8a2f81ff2ccd365b1ca915d444b4a8", "fusion_lat": 0.0, "fusion_lon": 0.0, "rental_uris": {"android": "https://dc.lft.to/lastmile_qr_scan", "ios": "https://dc.lft.to/lastmile_qr_scan"}, "is_reserved": 0, "is_disabled": 0, "type": "electric_bike", "bike_id": "1a8a2f81ff2ccd365b1ca915d444b4a8"}, {"lon": -76.919248, "lat": 38.890754666666666, "name": "dca547a6214a0590e3fd90878b8238fd", "fusion_lat": 0.0, "fusion_lon": 0.0, "rental_uris": {"android": "https://dc.lft.to/lastmile_qr_scan", "ios": "https://dc.lft.to/lastmile_qr_scan"}, "is_reserved": 0, "is_disabled": 0, "type": "electric_scooter", "bike_id": "dca547a6214a0590e3fd90878b8238fd"}, {"lon": -77.044047, "lat": 38.93423333333333, "name": "fb18818b26818b646f2b8bb39d73f160", "fusion_lat": 0.0, "fusion_lon": 0.0, "rental_uris": {"android": "https://dc.lft.to/lastmile_qr_scan", "ios": "https://dc.lft.to/lastmile_qr_scan"}, "is_reserved": 0, "is_disabled": 0, "type": "electric_scooter", "bike_id": "fb18818b26818b646f2b8bb39d73f160"}, {"lon": -77.03483583333333, "lat": 38.904679333333334, "name": "4793178e3483f2d2a9f3904a16c32ed4", "fusion_lat": 0.0, "fusion_lon": 0.0, "rental_uris": {"android": "https://dc.lft.to/lastmile_qr_scan", "ios": "https://dc.lft.to/lastmile_qr_scan"}, "is_reserved": 0, "is_disabled": 0, "type": "electric_scooter", "bike_id": "4793178e3483f2d2a9f3904a16c32ed4"}, {"lon": -77.03069166666667, "lat": 38.905663833333335, "name": "50c6cc3e37ceb194bf4db6db3d107cea", "fusion_lat": 0.0, "fusion_lon": 0.0, "rental_uris": {"android": "https://dc.lft.to/lastmile_qr_scan", "ios": "https://dc.lft.to/lastmile_qr_scan"}, "is_reserved": 0, "is_disabled": 0, "type": "electric_scooter", "bike_id": "50c6cc3e37ceb194bf4db6db3d107cea"}, {"lon": -77.0470205, "lat": 38.92160483333333, "name": "bcc86f52e2e3739d282cacdedd1f3582", "fusion_lat": 0.0, "fusion_lon": 0.0, "rental_uris": {"android": "https://dc.lft.to/lastmile_qr_scan", "ios": "https://dc.lft.to/lastmile_qr_scan"}, "is_reserved": 0, "is_disabled": 0, "type": "electric_scooter", "bike_id": "bcc86f52e2e3739d282cacdedd1f3582"}, {"lon": -77.03815383333334, "lat": 38.92070483333333, "name": "32b3b6eb50276847a5ebbc6d1f6bf475", "fusion_lat": 0.0, "fusion_lon": 0.0, "rental_uris": {"android": "https://dc.lft.to/lastmile_qr_scan", "ios": "https://dc.lft.to/lastmile_qr_scan"}, "is_reserved": 0, "is_disabled": 0, "type": "electric_scooter", "bike_id": "32b3b6eb50276847a5ebbc6d1f6bf475"}, {"lon": -77.0385105, "lat": 38.9154065, "name": "1ac0c9fc31bdd130d977f0b68ab3df89", "fusion_lat": 0.0, "fusion_lon": 0.0, "rental_uris": {"android": "https://dc.lft.to/lastmile_qr_scan", "ios": "https://dc.lft.to/lastmile_qr_scan"}, "is_reserved": 0, "is_disabled": 0, "type": "electric_scooter", "bike_id": "1ac0c9fc31bdd130d977f0b68ab3df89"}, {"lon": -77.10901183333333, "lat": 38.8304055, "name": "c130be2c7a85220cf456434c1d6c6405", "fusion_lat": 0.0, "fusion_lon": 0.0, "rental_uris": {"android": "https://dc.lft.to/lastmile_qr_scan", "ios": "https://dc.lft.to/lastmile_qr_scan"}, "is_reserved": 0, "is_disabled": 0, "type": "electric_bike", "bike_id": "c130be2c7a85220cf456434c1d6c6405"}, {"lon": -77.00136783333333, "lat": 38.904117166666666, "name": "63fff2ec5e15a1eb7f37951d516a9d83", "fusion_lat": 0.0, "fusion_lon": 0.0, "rental_uris": {"android": "https://dc.lft.to/lastmile_qr_scan", "ios": "https://dc.lft.to/lastmile_qr_scan"}, "is_reserved": 0, "is_disabled": 0, "type": "electric_scooter", "bike_id": "63fff2ec5e15a1eb7f37951d516a9d83"}, {"lon": -77.022122, "lat": 38.90569383333333, "name": "f88d9f6da46a76c32a1f349316f39b70", "fusion_lat": 0.0, "fusion_lon": 0.0, "rental_uris": {"android": "https://dc.lft.to/lastmile_qr_scan", "ios": "https://dc.lft.to/lastmile_qr_scan"}, "is_reserved": 0, "is_disabled": 0, "type": "electric_scooter", "bike_id": "f88d9f6da46a76c32a1f349316f39b70"}, {"lon": -77.029674, "lat": 38.906551666666665, "name": "cabc2044c75c43e6fc22aa2a703c0e89", "fusion_lat": 0.0, "fusion_lon": 0.0, "rental_uris": {"android": "https://dc.lft.to/lastmile_qr_scan", "ios": "https://dc.lft.to/lastmile_qr_scan"}, "is_reserved": 0, "is_disabled": 0, "type": "electric_scooter", "bike_id": "cabc2044c75c43e6fc22aa2a703c0e89"}, {"lon": -76.95032383333333, "lat": 38.891819, "name": "747d6540af0bb1500fc9954c052cfa45", "fusion_lat": 0.0, "fusion_lon": 0.0, "rental_uris": {"android": "https://dc.lft.to/lastmile_qr_scan", "ios": "https://dc.lft.to/lastmile_qr_scan"}, "is_reserved": 0, "is_disabled": 0, "type": "electric_bike", "bike_id": "747d6540af0bb1500fc9954c052cfa45"}, {"lon": -77.03476416666666, "lat": 38.902731333333335, "name": "6ffd831f14a1eeb7cb13f7e34564f2f9", "fusion_lat": 0.0, "fusion_lon": 0.0, "rental_uris": {"android": "https://dc.lft.to/lastmile_qr_scan", "ios": "https://dc.lft.to/lastmile_qr_scan"}, "is_reserved": 0, "is_disabled": 0, "type": "electric_scooter", "bike_id": "6ffd831f14a1eeb7cb13f7e34564f2f9"}, {"lon": -76.9733495, "lat": 38.9048065, "name": "41e04ac51e525441c8b4713ab69efabe", "fusion_lat": 0.0, "fusion_lon": 0.0, "rental_uris": {"android": "https://dc.lft.to/lastmile_qr_scan", "ios": "https://dc.lft.to/lastmile_qr_scan"}, "is_reserved": 0, "is_disabled": 0, "type": "electric_scooter", "bike_id": "41e04ac51e525441c8b4713ab69efabe"}, {"lon": -77.01101216666666, "lat": 38.9630755, "name": "bba6eac47953d036ddf574e35ceb1db6", "fusion_lat": 0.0, "fusion_lon": 0.0, "rental_uris": {"android": "https://dc.lft.to/lastmile_qr_scan", "ios": "https://dc.lft.to/lastmile_qr_scan"}, "is_reserved": 0, "is_disabled": 0, "type": "electric_bike", "bike_id": "bba6eac47953d036ddf574e35ceb1db6"}, {"lon": -77.02430483333333, "lat": 38.92599383333334, "name": "cbf4b11dcac523eab1bdc70916937c10", "fusion_lat": 0.0, "fusion_lon": 0.0, "rental_uris": {"android": "https://dc.lft.to/lastmile_qr_scan", "ios": "https://dc.lft.to/lastmile_qr_scan"}, "is_reserved": 0, "is_disabled": 0, "type": "electric_bike", "bike_id": "cbf4b11dcac523eab1bdc70916937c10"}, {"lon": -77.03172016666667, "lat": 38.919168666666664, "name": "51460fe14c36c55dd76bee03ebca5bad", "fusion_lat": 0.0, "fusion_lon": 0.0, "rental_uris": {"android": "https://dc.lft.to/lastmile_qr_scan", "ios": "https://dc.lft.to/lastmile_qr_scan"}, "is_reserved": 0, "is_disabled": 0, "type": "electric_scooter", "bike_id": "51460fe14c36c55dd76bee03ebca5bad"}, {"lon": -77.01541083333333, "lat": 38.943083666666666, "name": "b1607c1304c8ec5fa24ad9055eef7fee", "fusion_lat": 0.0, "fusion_lon": 0.0, "rental_uris": {"android": "https://dc.lft.to/lastmile_qr_scan", "ios": "https://dc.lft.to/lastmile_qr_scan"}, "is_reserved": 0, "is_disabled": 0, "type": "electric_scooter", "bike_id": "b1607c1304c8ec5fa24ad9055eef7fee"}, {"lon": -77.01601683333334, "lat": 38.909566166666664, "name": "1e4da889bab35178ed608955e6e4be8d", "fusion_lat": 0.0, "fusion_lon": 0.0, "rental_uris": {"android": "https://dc.lft.to/lastmile_qr_scan", "ios": "https://dc.lft.to/lastmile_qr_scan"}, "is_reserved": 0, "is_disabled": 0, "type": "electric_scooter", "bike_id": "1e4da889bab35178ed608955e6e4be8d"}, {"lon": -76.99868933333333, "lat": 38.900183166666665, "name": "3090b5bfadd7adae0f1d9efe3cce9179", "fusion_lat": 0.0, "fusion_lon": 0.0, "rental_uris": {"android": "https://dc.lft.to/lastmile_qr_scan", "ios": "https://dc.lft.to/lastmile_qr_scan"}, "is_reserved": 0, "is_disabled": 0, "type": "electric_scooter", "bike_id": "3090b5bfadd7adae0f1d9efe3cce9179"}, {"lon": -76.94891866666667, "lat": 38.895211, "name": "1409d71976613c5623cf57896759b326", "fusion_lat": 0.0, "fusion_lon": 0.0, "rental_uris": {"android": "https://dc.lft.to/lastmile_qr_scan", "ios": "https://dc.lft.to/lastmile_qr_scan"}, "is_reserved": 0, "is_disabled": 0, "type": "electric_scooter", "bike_id": "1409d71976613c5623cf57896759b326"}, {"lon": -77.03640716666666, "lat": 38.9240635, "name": "7e5a02e832a4523d3aa2a7b59f01cf02", "fusion_lat": 0.0, "fusion_lon": 0.0, "rental_uris": {"android": "https://dc.lft.to/lastmile_qr_scan", "ios": "https://dc.lft.to/lastmile_qr_scan"}, "is_reserved": 0, "is_disabled": 0, "type": "electric_scooter", "bike_id": "7e5a02e832a4523d3aa2a7b59f01cf02"}, {"lon": -77.00049, "lat": 38.903626833333334, "name": "bc1abf352544f0a369e3edd0d6d7df6a", "fusion_lat": 0.0, "fusion_lon": 0.0, "rental_uris": {"android": "https://dc.lft.to/lastmile_qr_scan", "ios": "https://dc.lft.to/lastmile_qr_scan"}, "is_reserved": 0, "is_disabled": 0, "type": "electric_scooter", "bike_id": "bc1abf352544f0a369e3edd0d6d7df6a"}, {"lon": -77.04181433333333, "lat": 38.91909366666667, "name": "ea96603042be6512185984e362220bb7", "fusion_lat": 0.0, "fusion_lon": 0.0, "rental_uris": {"android": "https://dc.lft.to/lastmile_qr_scan", "ios": "https://dc.lft.to/lastmile_qr_scan"}, "is_reserved": 0, "is_disabled": 0, "type": "electric_scooter", "bike_id": "ea96603042be6512185984e362220bb7"}, {"lon": -76.99632766666667, "lat": 38.84623, "name": "b38e1f0975a99e144e4c4316a3005c4a", "fusion_lat": 0.0, "fusion_lon": 0.0, "rental_uris": {"android": "https://dc.lft.to/lastmile_qr_scan", "ios": "https://dc.lft.to/lastmile_qr_scan"}, "is_reserved": 0, "is_disabled": 0, "type": "electric_scooter", "bike_id": "b38e1f0975a99e144e4c4316a3005c4a"}, {"lon": -77.0256695, "lat": 38.938613833333335, "name": "77dee49ca840ccfee108e21ce4409c89", "fusion_lat": 0.0, "fusion_lon": 0.0, "rental_uris": {"android": "https://dc.lft.to/lastmile_qr_scan", "ios": "https://dc.lft.to/lastmile_qr_scan"}, "is_reserved": 0, "is_disabled": 0, "type": "electric_scooter", "bike_id": "77dee49ca840ccfee108e21ce4409c89"}, {"lon": -77.02481433333334, "lat": 38.93876566666667, "name": "342adda6296dd3c69c967d8f3f3417a3", "fusion_lat": 0.0, "fusion_lon": 0.0, "rental_uris": {"android": "https://dc.lft.to/lastmile_qr_scan", "ios": "https://dc.lft.to/lastmile_qr_scan"}, "is_reserved": 0, "is_disabled": 0, "type": "electric_scooter", "bike_id": "342adda6296dd3c69c967d8f3f3417a3"}, {"lon": -76.99015183333333, "lat": 38.8611405, "name": "f6ae9d2eb7711badb6f942617cded6a1", "fusion_lat": 0.0, "fusion_lon": 0.0, "rental_uris": {"android": "https://dc.lft.to/lastmile_qr_scan", "ios": "https://dc.lft.to/lastmile_qr_scan"}, "is_reserved": 0, "is_disabled": 0, "type": "electric_scooter", "bike_id": "f6ae9d2eb7711badb6f942617cded6a1"}, {"lon": -77.02147633333334, "lat": 38.8940225, "name": "7a083addcf22c33b2f55235001fb3f52", "fusion_lat": 0.0, "fusion_lon": 0.0, "rental_uris": {"android": "https://dc.lft.to/lastmile_qr_scan", "ios": "https://dc.lft.to/lastmile_qr_scan"}, "is_reserved": 0, "is_disabled": 0, "type": "electric_scooter", "bike_id": "7a083addcf22c33b2f55235001fb3f52"}, {"lon": -77.0269485, "lat": 38.91271483333333, "name": "6598b934ad1751654840a7c05026cf05", "fusion_lat": 0.0, "fusion_lon": 0.0, "rental_uris": {"android": "https://dc.lft.to/lastmile_qr_scan", "ios": "https://dc.lft.to/lastmile_qr_scan"}, "is_reserved": 0, "is_disabled": 0, "type": "electric_scooter", "bike_id": "6598b934ad1751654840a7c05026cf05"}, {"lon": -77.03946916666666, "lat": 38.90419833333333, "name": "5f3fadd545a36f027d18f10ad1343d31", "fusion_lat": 0.0, "fusion_lon": 0.0, "rental_uris": {"android": "https://dc.lft.to/lastmile_qr_scan", "ios": "https://dc.lft.to/lastmile_qr_scan"}, "is_reserved": 0, "is_disabled": 0, "type": "electric_scooter", "bike_id": "5f3fadd545a36f027d18f10ad1343d31"}, {"lon": -77.02693616666667, "lat": 38.91266666666667, "name": "12c5587fcbf3f0550ec64f80ec02abdb", "fusion_lat": 0.0, "fusion_lon": 0.0, "rental_uris": {"android": "https://dc.lft.to/lastmile_qr_scan", "ios": "https://dc.lft.to/lastmile_qr_scan"}, "is_reserved": 0, "is_disabled": 0, "type": "electric_scooter", "bike_id": "12c5587fcbf3f0550ec64f80ec02abdb"}, {"lon": -77.03291716666666, "lat": 38.956308, "name": "b22dc3406eca1fc34072bb58e95b685f", "fusion_lat": 0.0, "fusion_lon": 0.0, "rental_uris": {"android": "https://dc.lft.to/lastmile_qr_scan", "ios": "https://dc.lft.to/lastmile_qr_scan"}, "is_reserved": 0, "is_disabled": 0, "type": "electric_scooter", "bike_id": "b22dc3406eca1fc34072bb58e95b685f"}, {"lon": -77.0563995, "lat": 38.923971, "name": "ade008ed696118f2b0666e62e0b091e4", "fusion_lat": 0.0, "fusion_lon": 0.0, "rental_uris": {"android": "https://dc.lft.to/lastmile_qr_scan", "ios": "https://dc.lft.to/lastmile_qr_scan"}, "is_reserved": 0, "is_disabled": 0, "type": "electric_scooter", "bike_id": "ade008ed696118f2b0666e62e0b091e4"}, {"lon": -77.03446816666667, "lat": 38.903163666666664, "name": "030c953691a48e26300db11bffd840d2", "fusion_lat": 0.0, "fusion_lon": 0.0, "rental_uris": {"android": "https://dc.lft.to/lastmile_qr_scan", "ios": "https://dc.lft.to/lastmile_qr_scan"}, "is_reserved": 0, "is_disabled": 0, "type": "electric_scooter", "bike_id": "030c953691a48e26300db11bffd840d2"}, {"lon": -77.04824, "lat": 38.90201066666667, "name": "d272b1b43e910996d144a13a7061a225", "fusion_lat": 0.0, "fusion_lon": 0.0, "rental_uris": {"android": "https://dc.lft.to/lastmile_qr_scan", "ios": "https://dc.lft.to/lastmile_qr_scan"}, "is_reserved": 0, "is_disabled": 0, "type": "electric_scooter", "bike_id": "d272b1b43e910996d144a13a7061a225"}, {"lon": -77.04259283333333, "lat": 38.917073333333335, "name": "e8bdbe1e254554b168fed89d54d85d20", "fusion_lat": 0.0, "fusion_lon": 0.0, "rental_uris": {"android": "https://dc.lft.to/lastmile_qr_scan", "ios": "https://dc.lft.to/lastmile_qr_scan"}, "is_reserved": 0, "is_disabled": 0, "type": "electric_scooter", "bike_id": "e8bdbe1e254554b168fed89d54d85d20"}, {"lon": -77.03221283333333, "lat": 38.9370205, "name": "1880bff6838f36e2a27a47df04d0ec4a", "fusion_lat": 0.0, "fusion_lon": 0.0, "rental_uris": {"android": "https://dc.lft.to/lastmile_qr_scan", "ios": "https://dc.lft.to/lastmile_qr_scan"}, "is_reserved": 0, "is_disabled": 0, "type": "electric_scooter", "bike_id": "1880bff6838f36e2a27a47df04d0ec4a"}, {"lon": -77.09197266666666, "lat": 38.917198666666664, "name": "62d14f98cff6cec823e1f6da6e5aed88", "fusion_lat": 0.0, "fusion_lon": 0.0, "rental_uris": {"android": "https://dc.lft.to/lastmile_qr_scan", "ios": "https://dc.lft.to/lastmile_qr_scan"}, "is_reserved": 0, "is_disabled": 0, "type": "electric_scooter", "bike_id": "62d14f98cff6cec823e1f6da6e5aed88"}, {"lon": -77.023934, "lat": 38.93091616666667, "name": "38575a61ceaa05d7ef5f4176ed3c8691", "fusion_lat": 0.0, "fusion_lon": 0.0, "rental_uris": {"android": "https://dc.lft.to/lastmile_qr_scan", "ios": "https://dc.lft.to/lastmile_qr_scan"}, "is_reserved": 0, "is_disabled": 0, "type": "electric_scooter", "bike_id": "38575a61ceaa05d7ef5f4176ed3c8691"}, {"lon": -77.03250283333334, "lat": 38.95935866666667, "name": "51936b4f49864e4e4dbafe4896fdd29a", "fusion_lat": 0.0, "fusion_lon": 0.0, "rental_uris": {"android": "https://dc.lft.to/lastmile_qr_scan", "ios": "https://dc.lft.to/lastmile_qr_scan"}, "is_reserved": 0, "is_disabled": 0, "type": "electric_scooter", "bike_id": "51936b4f49864e4e4dbafe4896fdd29a"}, {"lon": -77.03616233333334, "lat": 38.93255933333333, "name": "6ce259a0dd07316cc1f9f6250d895d15", "fusion_lat": 0.0, "fusion_lon": 0.0, "rental_uris": {"android": "https://dc.lft.to/lastmile_qr_scan", "ios": "https://dc.lft.to/lastmile_qr_scan"}, "is_reserved": 0, "is_disabled": 0, "type": "electric_scooter", "bike_id": "6ce259a0dd07316cc1f9f6250d895d15"}, {"lon": -77.024837, "lat": 38.9181585, "name": "bd4c212b852ed1eb0b7be9a0338338b6", "fusion_lat": 0.0, "fusion_lon": 0.0, "rental_uris": {"android": "https://dc.lft.to/lastmile_qr_scan", "ios": "https://dc.lft.to/lastmile_qr_scan"}, "is_reserved": 0, "is_disabled": 0, "type": "electric_scooter", "bike_id": "bd4c212b852ed1eb0b7be9a0338338b6"}, {"lon": -77.02241916666667, "lat": 38.91351133333333, "name": "51dbf62c611b3ab7908d0cf5b7f9964f", "fusion_lat": 0.0, "fusion_lon": 0.0, "rental_uris": {"android": "https://dc.lft.to/lastmile_qr_scan", "ios": "https://dc.lft.to/lastmile_qr_scan"}, "is_reserved": 0, "is_disabled": 0, "type": "electric_scooter", "bike_id": "51dbf62c611b3ab7908d0cf5b7f9964f"}, {"lon": -77.02693216666667, "lat": 38.909439, "name": "44380b79a0157cc1cf6750d0b90385bf", "fusion_lat": 0.0, "fusion_lon": 0.0, "rental_uris": {"android": "https://dc.lft.to/lastmile_qr_scan", "ios": "https://dc.lft.to/lastmile_qr_scan"}, "is_reserved": 0, "is_disabled": 0, "type": "electric_scooter", "bike_id": "44380b79a0157cc1cf6750d0b90385bf"}, {"lon": -77.12739966666666, "lat": 38.89568383333334, "name": "e999b19b4a4497842537e5eb9e7aa8c9", "fusion_lat": 0.0, "fusion_lon": 0.0, "rental_uris": {"android": "https://dc.lft.to/lastmile_qr_scan", "ios": "https://dc.lft.to/lastmile_qr_scan"}, "is_reserved": 0, "is_disabled": 0, "type": "electric_bike", "bike_id": "e999b19b4a4497842537e5eb9e7aa8c9"}, {"lon": -77.02258133333333, "lat": 38.92824866666667, "name": "7a5c0ffeca9e40ff6820ddad37488a07", "fusion_lat": 0.0, "fusion_lon": 0.0, "rental_uris": {"android": "https://dc.lft.to/lastmile_qr_scan", "ios": "https://dc.lft.to/lastmile_qr_scan"}, "is_reserved": 0, "is_disabled": 0, "type": "electric_scooter", "bike_id": "7a5c0ffeca9e40ff6820ddad37488a07"}, {"lon": -77.04630666666667, "lat": 38.919160833333336, "name": "abd78ebb73111e85cfe903d0c7df8bac", "fusion_lat": 0.0, "fusion_lon": 0.0, "rental_uris": {"android": "https://dc.lft.to/lastmile_qr_scan", "ios": "https://dc.lft.to/lastmile_qr_scan"}, "is_reserved": 0, "is_disabled": 0, "type": "electric_scooter", "bike_id": "abd78ebb73111e85cfe903d0c7df8bac"}, {"lon": -77.0526315, "lat": 38.92566016666667, "name": "73d41525ffc7ba312b2d1e8cefaaf2a7", "fusion_lat": 0.0, "fusion_lon": 0.0, "rental_uris": {"android": "https://dc.lft.to/lastmile_qr_scan", "ios": "https://dc.lft.to/lastmile_qr_scan"}, "is_reserved": 0, "is_disabled": 0, "type": "electric_scooter", "bike_id": "73d41525ffc7ba312b2d1e8cefaaf2a7"}, {"lon": -76.98068766666667, "lat": 38.88018183333333, "name": "06fa73d1128076a7905fb5f89bb891e6", "fusion_lat": 0.0, "fusion_lon": 0.0, "rental_uris": {"android": "https://dc.lft.to/lastmile_qr_scan", "ios": "https://dc.lft.to/lastmile_qr_scan"}, "is_reserved": 0, "is_disabled": 0, "type": "electric_scooter", "bike_id": "06fa73d1128076a7905fb5f89bb891e6"}, {"lon": -77.03685416666667, "lat": 38.922568, "name": "afa0a01c4414172409599ec6f7b9c22d", "fusion_lat": 0.0, "fusion_lon": 0.0, "rental_uris": {"android": "https://dc.lft.to/lastmile_qr_scan", "ios": "https://dc.lft.to/lastmile_qr_scan"}, "is_reserved": 0, "is_disabled": 0, "type": "electric_scooter", "bike_id": "afa0a01c4414172409599ec6f7b9c22d"}, {"lon": -77.0056145, "lat": 38.905559833333335, "name": "fa01a0d2f2b9b31ab3775107cc3c7ed9", "fusion_lat": 0.0, "fusion_lon": 0.0, "rental_uris": {"android": "https://dc.lft.to/lastmile_qr_scan", "ios": "https://dc.lft.to/lastmile_qr_scan"}, "is_reserved": 0, "is_disabled": 0, "type": "electric_scooter", "bike_id": "fa01a0d2f2b9b31ab3775107cc3c7ed9"}, {"lon": -77.02806983333333, "lat": 38.93058766666667, "name": "d5384f7230c85e2e466205e04ec761d8", "fusion_lat": 0.0, "fusion_lon": 0.0, "rental_uris": {"android": "https://dc.lft.to/lastmile_qr_scan", "ios": "https://dc.lft.to/lastmile_qr_scan"}, "is_reserved": 0, "is_disabled": 0, "type": "electric_scooter", "bike_id": "d5384f7230c85e2e466205e04ec761d8"}, {"lon": -76.99632366666667, "lat": 38.846164333333334, "name": "c8e6b4c7b866f530304ef8ab48529d60", "fusion_lat": 0.0, "fusion_lon": 0.0, "rental_uris": {"android": "https://dc.lft.to/lastmile_qr_scan", "ios": "https://dc.lft.to/lastmile_qr_scan"}, "is_reserved": 0, "is_disabled": 0, "type": "electric_scooter", "bike_id": "c8e6b4c7b866f530304ef8ab48529d60"}, {"lon": -77.01767783333334, "lat": 38.875113, "name": "759d62cc1e1bc5219cab4c200b349c3a", "fusion_lat": 0.0, "fusion_lon": 0.0, "rental_uris": {"android": "https://dc.lft.to/lastmile_qr_scan", "ios": "https://dc.lft.to/lastmile_qr_scan"}, "is_reserved": 0, "is_disabled": 0, "type": "electric_scooter", "bike_id": "759d62cc1e1bc5219cab4c200b349c3a"}, {"lon": -76.92713133333334, "lat": 38.887686, "name": "2de12f0be933a5cb5e27404787490036", "fusion_lat": 0.0, "fusion_lon": 0.0, "rental_uris": {"android": "https://dc.lft.to/lastmile_qr_scan", "ios": "https://dc.lft.to/lastmile_qr_scan"}, "is_reserved": 0, "is_disabled": 0, "type": "electric_scooter", "bike_id": "2de12f0be933a5cb5e27404787490036"}, {"lon": -77.05003483333333, "lat": 38.8922795, "name": "2d39dc9f01462f7d496abc26add1d83a", "fusion_lat": 0.0, "fusion_lon": 0.0, "rental_uris": {"android": "https://dc.lft.to/lastmile_qr_scan", "ios": "https://dc.lft.to/lastmile_qr_scan"}, "is_reserved": 0, "is_disabled": 0, "type": "electric_scooter", "bike_id": "2d39dc9f01462f7d496abc26add1d83a"}, {"lon": -77.05596716666666, "lat": 38.93694966666666, "name": "4c5bcc4d6cad5815ffcbdc2fa21dd5b7", "fusion_lat": 0.0, "fusion_lon": 0.0, "rental_uris": {"android": "https://dc.lft.to/lastmile_qr_scan", "ios": "https://dc.lft.to/lastmile_qr_scan"}, "is_reserved": 0, "is_disabled": 0, "type": "electric_scooter", "bike_id": "4c5bcc4d6cad5815ffcbdc2fa21dd5b7"}, {"lon": -77.001151, "lat": 38.917047833333335, "name": "f2a73098ac9af917a87087d8a4c73ed4", "fusion_lat": 0.0, "fusion_lon": 0.0, "rental_uris": {"android": "https://dc.lft.to/lastmile_qr_scan", "ios": "https://dc.lft.to/lastmile_qr_scan"}, "is_reserved": 0, "is_disabled": 0, "type": "electric_scooter", "bike_id": "f2a73098ac9af917a87087d8a4c73ed4"}, {"lon": -77.005552, "lat": 38.875323, "name": "f2a0b7dc775aed4dbabaf7d66df95a7e", "fusion_lat": 0.0, "fusion_lon": 0.0, "rental_uris": {"android": "https://dc.lft.to/lastmile_qr_scan", "ios": "https://dc.lft.to/lastmile_qr_scan"}, "is_reserved": 0, "is_disabled": 0, "type": "electric_scooter", "bike_id": "f2a0b7dc775aed4dbabaf7d66df95a7e"}, {"lon": -77.0240275, "lat": 38.9309545, "name": "a0c0d22afa7ac4e7e11a9941f21ac10a", "fusion_lat": 0.0, "fusion_lon": 0.0, "rental_uris": {"android": "https://dc.lft.to/lastmile_qr_scan", "ios": "https://dc.lft.to/lastmile_qr_scan"}, "is_reserved": 0, "is_disabled": 0, "type": "electric_scooter", "bike_id": "a0c0d22afa7ac4e7e11a9941f21ac10a"}, {"lon": -77.03396266666667, "lat": 38.886584, "name": "e54037c9e5c5e9c25d05ef62d00eda36", "fusion_lat": 0.0, "fusion_lon": 0.0, "rental_uris": {"android": "https://dc.lft.to/lastmile_qr_scan", "ios": "https://dc.lft.to/lastmile_qr_scan"}, "is_reserved": 0, "is_disabled": 0, "type": "electric_scooter", "bike_id": "e54037c9e5c5e9c25d05ef62d00eda36"}, {"lon": -77.04492066666667, "lat": 38.90053416666667, "name": "ac25c21ddc52cecdf49e5bbd35ddf217", "fusion_lat": 0.0, "fusion_lon": 0.0, "rental_uris": {"android": "https://dc.lft.to/lastmile_qr_scan", "ios": "https://dc.lft.to/lastmile_qr_scan"}, "is_reserved": 0, "is_disabled": 0, "type": "electric_scooter", "bike_id": "ac25c21ddc52cecdf49e5bbd35ddf217"}, {"lon": -77.0465645, "lat": 38.914750833333336, "name": "a5bee5c1fff53c11036c6f7d2de4179a", "fusion_lat": 0.0, "fusion_lon": 0.0, "rental_uris": {"android": "https://dc.lft.to/lastmile_qr_scan", "ios": "https://dc.lft.to/lastmile_qr_scan"}, "is_reserved": 0, "is_disabled": 0, "type": "electric_scooter", "bike_id": "a5bee5c1fff53c11036c6f7d2de4179a"}, {"lon": -77.03506516666667, "lat": 38.918847666666665, "name": "e6fdbf69fd4823c636fef27df8f08954", "fusion_lat": 0.0, "fusion_lon": 0.0, "rental_uris": {"android": "https://dc.lft.to/lastmile_qr_scan", "ios": "https://dc.lft.to/lastmile_qr_scan"}, "is_reserved": 0, "is_disabled": 0, "type": "electric_scooter", "bike_id": "e6fdbf69fd4823c636fef27df8f08954"}, {"lon": -77.0605155, "lat": 38.93898266666667, "name": "65b4df30ed29cb838534a8653a1cd6dc", "fusion_lat": 0.0, "fusion_lon": 0.0, "rental_uris": {"android": "https://dc.lft.to/lastmile_qr_scan", "ios": "https://dc.lft.to/lastmile_qr_scan"}, "is_reserved": 0, "is_disabled": 0, "type": "electric_scooter", "bike_id": "65b4df30ed29cb838534a8653a1cd6dc"}, {"lon": -77.02177866666666, "lat": 38.89695366666667, "name": "fe9674a94736a8bf5e240da3743c91af", "fusion_lat": 0.0, "fusion_lon": 0.0, "rental_uris": {"android": "https://dc.lft.to/lastmile_qr_scan", "ios": "https://dc.lft.to/lastmile_qr_scan"}, "is_reserved": 0, "is_disabled": 0, "type": "electric_scooter", "bike_id": "fe9674a94736a8bf5e240da3743c91af"}, {"lon": -77.0293755, "lat": 38.942759, "name": "32103925a3cbf62a275fd6efd545f75b", "fusion_lat": 0.0, "fusion_lon": 0.0, "rental_uris": {"android": "https://dc.lft.to/lastmile_qr_scan", "ios": "https://dc.lft.to/lastmile_qr_scan"}, "is_reserved": 0, "is_disabled": 0, "type": "electric_scooter", "bike_id": "32103925a3cbf62a275fd6efd545f75b"}, {"lon": -77.1290345, "lat": 38.86376716666667, "name": "120a00f673f80b5030c756df2b85dbb7", "fusion_lat": 0.0, "fusion_lon": 0.0, "rental_uris": {"android": "https://dc.lft.to/lastmile_qr_scan", "ios": "https://dc.lft.to/lastmile_qr_scan"}, "is_reserved": 0, "is_disabled": 0, "type": "electric_bike", "bike_id": "120a00f673f80b5030c756df2b85dbb7"}, {"lon": -77.05287033333333, "lat": 38.910522666666665, "name": "2811bc2dd3116db497216eefc7a23c91", "fusion_lat": 0.0, "fusion_lon": 0.0, "rental_uris": {"android": "https://dc.lft.to/lastmile_qr_scan", "ios": "https://dc.lft.to/lastmile_qr_scan"}, "is_reserved": 0, "is_disabled": 0, "type": "electric_scooter", "bike_id": "2811bc2dd3116db497216eefc7a23c91"}, {"lon": -77.0357235, "lat": 38.9572055, "name": "16f3d572d2ab17ceaac7fbe703566011", "fusion_lat": 0.0, "fusion_lon": 0.0, "rental_uris": {"android": "https://dc.lft.to/lastmile_qr_scan", "ios": "https://dc.lft.to/lastmile_qr_scan"}, "is_reserved": 0, "is_disabled": 0, "type": "electric_scooter", "bike_id": "16f3d572d2ab17ceaac7fbe703566011"}, {"lon": -77.01586316666666, "lat": 38.876504, "name": "956a4b83c53dc53634e999dfa13f877b", "fusion_lat": 0.0, "fusion_lon": 0.0, "rental_uris": {"android": "https://dc.lft.to/lastmile_qr_scan", "ios": "https://dc.lft.to/lastmile_qr_scan"}, "is_reserved": 0, "is_disabled": 0, "type": "electric_scooter", "bike_id": "956a4b83c53dc53634e999dfa13f877b"}, {"lon": -77.07366133333333, "lat": 38.93357966666667, "name": "4c59c5756d7e1126eda901cfd9ea4303", "fusion_lat": 0.0, "fusion_lon": 0.0, "rental_uris": {"android": "https://dc.lft.to/lastmile_qr_scan", "ios": "https://dc.lft.to/lastmile_qr_scan"}, "is_reserved": 0, "is_disabled": 0, "type": "electric_scooter", "bike_id": "4c59c5756d7e1126eda901cfd9ea4303"}, {"lon": -77.02814983333333, "lat": 38.956112166666664, "name": "06ab05f6b92756ab19abc0cbcf4ff681", "fusion_lat": 0.0, "fusion_lon": 0.0, "rental_uris": {"android": "https://dc.lft.to/lastmile_qr_scan", "ios": "https://dc.lft.to/lastmile_qr_scan"}, "is_reserved": 0, "is_disabled": 0, "type": "electric_scooter", "bike_id": "06ab05f6b92756ab19abc0cbcf4ff681"}, {"lon": -77.03465716666666, "lat": 38.90302783333333, "name": "8eda029f23075e16a9a47fdcebbf90c1", "fusion_lat": 0.0, "fusion_lon": 0.0, "rental_uris": {"android": "https://dc.lft.to/lastmile_qr_scan", "ios": "https://dc.lft.to/lastmile_qr_scan"}, "is_reserved": 0, "is_disabled": 0, "type": "electric_scooter", "bike_id": "8eda029f23075e16a9a47fdcebbf90c1"}, {"lon": -77.01093583333333, "lat": 38.90555366666667, "name": "cebfc48cb71f9e03b199c9a3f9259390", "fusion_lat": 0.0, "fusion_lon": 0.0, "rental_uris": {"android": "https://dc.lft.to/lastmile_qr_scan", "ios": "https://dc.lft.to/lastmile_qr_scan"}, "is_reserved": 0, "is_disabled": 0, "type": "electric_scooter", "bike_id": "cebfc48cb71f9e03b199c9a3f9259390"}, {"lon": -77.02427566666667, "lat": 38.90187233333333, "name": "7bccb10606e675a9832b5ac13ba979bb", "fusion_lat": 0.0, "fusion_lon": 0.0, "rental_uris": {"android": "https://dc.lft.to/lastmile_qr_scan", "ios": "https://dc.lft.to/lastmile_qr_scan"}, "is_reserved": 0, "is_disabled": 0, "type": "electric_scooter", "bike_id": "7bccb10606e675a9832b5ac13ba979bb"}, {"lon": -77.04763416666667, "lat": 38.9024175, "name": "f410edd16590f62b60a4c764f2a066b9", "fusion_lat": 0.0, "fusion_lon": 0.0, "rental_uris": {"android": "https://dc.lft.to/lastmile_qr_scan", "ios": "https://dc.lft.to/lastmile_qr_scan"}, "is_reserved": 0, "is_disabled": 0, "type": "electric_scooter", "bike_id": "f410edd16590f62b60a4c764f2a066b9"}, {"lon": -77.12257616666666, "lat": 38.89188683333333, "name": "456f6543918695c8f35f4512681580a2", "fusion_lat": 0.0, "fusion_lon": 0.0, "rental_uris": {"android": "https://dc.lft.to/lastmile_qr_scan", "ios": "https://dc.lft.to/lastmile_qr_scan"}, "is_reserved": 0, "is_disabled": 0, "type": "electric_bike", "bike_id": "456f6543918695c8f35f4512681580a2"}, {"lon": -77.04891333333333, "lat": 38.90110683333333, "name": "531a6f3fa9054992c1828bcbb1d79d72", "fusion_lat": 0.0, "fusion_lon": 0.0, "rental_uris": {"android": "https://dc.lft.to/lastmile_qr_scan", "ios": "https://dc.lft.to/lastmile_qr_scan"}, "is_reserved": 0, "is_disabled": 0, "type": "electric_scooter", "bike_id": "531a6f3fa9054992c1828bcbb1d79d72"}, {"lon": -77.0768585, "lat": 38.83193466666667, "name": "ff5f85ef89ec0ee3f3a849e95e69bfb4", "fusion_lat": 0.0, "fusion_lon": 0.0, "rental_uris": {"android": "https://dc.lft.to/lastmile_qr_scan", "ios": "https://dc.lft.to/lastmile_qr_scan"}, "is_reserved": 0, "is_disabled": 0, "type": "electric_bike", "bike_id": "ff5f85ef89ec0ee3f3a849e95e69bfb4"}, {"lon": -77.11226566666667, "lat": 38.82873133333333, "name": "ba40290305a99402a364afadbe257b6d", "fusion_lat": 0.0, "fusion_lon": 0.0, "rental_uris": {"android": "https://dc.lft.to/lastmile_qr_scan", "ios": "https://dc.lft.to/lastmile_qr_scan"}, "is_reserved": 0, "is_disabled": 0, "type": "electric_bike", "bike_id": "ba40290305a99402a364afadbe257b6d"}, {"lon": -77.05005883333334, "lat": 38.90092033333333, "name": "1a35c8a207b2c6e8eba44e89869cb8ba", "fusion_lat": 0.0, "fusion_lon": 0.0, "rental_uris": {"android": "https://dc.lft.to/lastmile_qr_scan", "ios": "https://dc.lft.to/lastmile_qr_scan"}, "is_reserved": 0, "is_disabled": 0, "type": "electric_scooter", "bike_id": "1a35c8a207b2c6e8eba44e89869cb8ba"}, {"lon": -77.04702733333333, "lat": 38.9026005, "name": "fe53b43c9e57166508fc0e666eeeb923", "fusion_lat": 0.0, "fusion_lon": 0.0, "rental_uris": {"android": "https://dc.lft.to/lastmile_qr_scan", "ios": "https://dc.lft.to/lastmile_qr_scan"}, "is_reserved": 0, "is_disabled": 0, "type": "electric_scooter", "bike_id": "fe53b43c9e57166508fc0e666eeeb923"}, {"lon": -77.01205216666666, "lat": 38.91970583333333, "name": "6c46b2b4f22b2fd7ad6e798ef4be6794", "fusion_lat": 0.0, "fusion_lon": 0.0, "rental_uris": {"android": "https://dc.lft.to/lastmile_qr_scan", "ios": "https://dc.lft.to/lastmile_qr_scan"}, "is_reserved": 0, "is_disabled": 0, "type": "electric_scooter", "bike_id": "6c46b2b4f22b2fd7ad6e798ef4be6794"}, {"lon": -77.056219, "lat": 38.92416033333333, "name": "5097ba49e20b781c5ec78a4abca84c0d", "fusion_lat": 0.0, "fusion_lon": 0.0, "rental_uris": {"android": "https://dc.lft.to/lastmile_qr_scan", "ios": "https://dc.lft.to/lastmile_qr_scan"}, "is_reserved": 0, "is_disabled": 0, "type": "electric_scooter", "bike_id": "5097ba49e20b781c5ec78a4abca84c0d"}, {"lon": -76.93545883333333, "lat": 38.95552633333333, "name": "c1cb968fad34a51ec25fa3196e86aaa3", "fusion_lat": 0.0, "fusion_lon": 0.0, "rental_uris": {"android": "https://dc.lft.to/lastmile_qr_scan", "ios": "https://dc.lft.to/lastmile_qr_scan"}, "is_reserved": 0, "is_disabled": 0, "type": "electric_bike", "bike_id": "c1cb968fad34a51ec25fa3196e86aaa3"}, {"lon": -77.00137783333334, "lat": 38.900063, "name": "9c885f233f5430eae883f4ad61397ced", "fusion_lat": 0.0, "fusion_lon": 0.0, "rental_uris": {"android": "https://dc.lft.to/lastmile_qr_scan", "ios": "https://dc.lft.to/lastmile_qr_scan"}, "is_reserved": 0, "is_disabled": 0, "type": "electric_scooter", "bike_id": "9c885f233f5430eae883f4ad61397ced"}, {"lon": -76.98740116666667, "lat": 38.944296333333334, "name": "b46c3bcc80886ca84f097ea3a9bdc016", "fusion_lat": 0.0, "fusion_lon": 0.0, "rental_uris": {"android": "https://dc.lft.to/lastmile_qr_scan", "ios": "https://dc.lft.to/lastmile_qr_scan"}, "is_reserved": 0, "is_disabled": 0, "type": "electric_bike", "bike_id": "b46c3bcc80886ca84f097ea3a9bdc016"}, {"lon": -77.03206916666667, "lat": 38.90784033333333, "name": "1440ee6665607f82364701c93249705c", "fusion_lat": 0.0, "fusion_lon": 0.0, "rental_uris": {"android": "https://dc.lft.to/lastmile_qr_scan", "ios": "https://dc.lft.to/lastmile_qr_scan"}, "is_reserved": 0, "is_disabled": 0, "type": "electric_scooter", "bike_id": "1440ee6665607f82364701c93249705c"}, {"lon": -77.02117116666666, "lat": 38.917335666666666, "name": "a2f0c5d697392b25c0d191442b18c9bd", "fusion_lat": 0.0, "fusion_lon": 0.0, "rental_uris": {"android": "https://dc.lft.to/lastmile_qr_scan", "ios": "https://dc.lft.to/lastmile_qr_scan"}, "is_reserved": 0, "is_disabled": 0, "type": "electric_scooter", "bike_id": "a2f0c5d697392b25c0d191442b18c9bd"}, {"lon": -77.01221383333333, "lat": 38.915189166666664, "name": "9c5fb14c8186d92a1b3cad4afc2ea376", "fusion_lat": 0.0, "fusion_lon": 0.0, "rental_uris": {"android": "https://dc.lft.to/lastmile_qr_scan", "ios": "https://dc.lft.to/lastmile_qr_scan"}, "is_reserved": 0, "is_disabled": 0, "type": "electric_scooter", "bike_id": "9c5fb14c8186d92a1b3cad4afc2ea376"}, {"lon": -77.02542683333333, "lat": 38.940954, "name": "c919cdede8d9e3a77c6eb91b70572647", "fusion_lat": 0.0, "fusion_lon": 0.0, "rental_uris": {"android": "https://dc.lft.to/lastmile_qr_scan", "ios": "https://dc.lft.to/lastmile_qr_scan"}, "is_reserved": 0, "is_disabled": 0, "type": "electric_scooter", "bike_id": "c919cdede8d9e3a77c6eb91b70572647"}, {"lon": -77.02294533333334, "lat": 38.90985116666667, "name": "e221e01b05a48cdfe76b3258d9cb48a7", "fusion_lat": 0.0, "fusion_lon": 0.0, "rental_uris": {"android": "https://dc.lft.to/lastmile_qr_scan", "ios": "https://dc.lft.to/lastmile_qr_scan"}, "is_reserved": 0, "is_disabled": 0, "type": "electric_scooter", "bike_id": "e221e01b05a48cdfe76b3258d9cb48a7"}, {"lon": -76.997335, "lat": 38.910653, "name": "09bd54fd8800a2a8a1a65819724ae873", "fusion_lat": 0.0, "fusion_lon": 0.0, "rental_uris": {"android": "https://dc.lft.to/lastmile_qr_scan", "ios": "https://dc.lft.to/lastmile_qr_scan"}, "is_reserved": 0, "is_disabled": 0, "type": "electric_scooter", "bike_id": "09bd54fd8800a2a8a1a65819724ae873"}, {"lon": -77.03408166666667, "lat": 38.93482233333334, "name": "fc63a0fc4e1542c5d64a5addf34ff5dc", "fusion_lat": 0.0, "fusion_lon": 0.0, "rental_uris": {"android": "https://dc.lft.to/lastmile_qr_scan", "ios": "https://dc.lft.to/lastmile_qr_scan"}, "is_reserved": 0, "is_disabled": 0, "type": "electric_scooter", "bike_id": "fc63a0fc4e1542c5d64a5addf34ff5dc"}, {"lon": -76.979881, "lat": 38.87749633333333, "name": "d2a0c0c1f6f8405d78beaec59d80fd8a", "fusion_lat": 0.0, "fusion_lon": 0.0, "rental_uris": {"android": "https://dc.lft.to/lastmile_qr_scan", "ios": "https://dc.lft.to/lastmile_qr_scan"}, "is_reserved": 0, "is_disabled": 0, "type": "electric_bike", "bike_id": "d2a0c0c1f6f8405d78beaec59d80fd8a"}, {"lon": -77.03391633333334, "lat": 38.92806, "name": "e8ca61e9cc42b17d7c1c4fe496039e36", "fusion_lat": 0.0, "fusion_lon": 0.0, "rental_uris": {"android": "https://dc.lft.to/lastmile_qr_scan", "ios": "https://dc.lft.to/lastmile_qr_scan"}, "is_reserved": 0, "is_disabled": 0, "type": "electric_scooter", "bike_id": "e8ca61e9cc42b17d7c1c4fe496039e36"}, {"lon": -77.03292683333333, "lat": 38.922070166666664, "name": "eb16d8b72a1bb298822a3b9c2d240ad8", "fusion_lat": 0.0, "fusion_lon": 0.0, "rental_uris": {"android": "https://dc.lft.to/lastmile_qr_scan", "ios": "https://dc.lft.to/lastmile_qr_scan"}, "is_reserved": 0, "is_disabled": 0, "type": "electric_scooter", "bike_id": "eb16d8b72a1bb298822a3b9c2d240ad8"}, {"lon": -77.03132333333333, "lat": 38.91561183333334, "name": "991a41d96ce9e1ffa6707f47f97b1e49", "fusion_lat": 0.0, "fusion_lon": 0.0, "rental_uris": {"android": "https://dc.lft.to/lastmile_qr_scan", "ios": "https://dc.lft.to/lastmile_qr_scan"}, "is_reserved": 0, "is_disabled": 0, "type": "electric_scooter", "bike_id": "991a41d96ce9e1ffa6707f47f97b1e49"}, {"lon": -77.04160833333333, "lat": 38.914408, "name": "1d88ba071fcca673c4ea15ba62008fc9", "fusion_lat": 0.0, "fusion_lon": 0.0, "rental_uris": {"android": "https://dc.lft.to/lastmile_qr_scan", "ios": "https://dc.lft.to/lastmile_qr_scan"}, "is_reserved": 0, "is_disabled": 0, "type": "electric_scooter", "bike_id": "1d88ba071fcca673c4ea15ba62008fc9"}, {"lon": -77.03791883333334, "lat": 38.905711, "name": "417b0b2767d0356a676a6bd4dc3e1df2", "fusion_lat": 0.0, "fusion_lon": 0.0, "rental_uris": {"android": "https://dc.lft.to/lastmile_qr_scan", "ios": "https://dc.lft.to/lastmile_qr_scan"}, "is_reserved": 0, "is_disabled": 0, "type": "electric_scooter", "bike_id": "417b0b2767d0356a676a6bd4dc3e1df2"}, {"lon": -76.9774165, "lat": 38.905003, "name": "aba4932267e11cdc7418b12d56373d78", "fusion_lat": 0.0, "fusion_lon": 0.0, "rental_uris": {"android": "https://dc.lft.to/lastmile_qr_scan", "ios": "https://dc.lft.to/lastmile_qr_scan"}, "is_reserved": 0, "is_disabled": 0, "type": "electric_scooter", "bike_id": "aba4932267e11cdc7418b12d56373d78"}, {"lon": -77.022097, "lat": 38.90200733333333, "name": "da2211d226f378074aaf39d7c81d5304", "fusion_lat": 0.0, "fusion_lon": 0.0, "rental_uris": {"android": "https://dc.lft.to/lastmile_qr_scan", "ios": "https://dc.lft.to/lastmile_qr_scan"}, "is_reserved": 0, "is_disabled": 0, "type": "electric_scooter", "bike_id": "da2211d226f378074aaf39d7c81d5304"}, {"lon": -77.36095116666667, "lat": 38.93962466666667, "name": "425cba8380b70a315807775c183341aa", "fusion_lat": 0.0, "fusion_lon": 0.0, "rental_uris": {"android": "https://dc.lft.to/lastmile_qr_scan", "ios": "https://dc.lft.to/lastmile_qr_scan"}, "is_reserved": 0, "is_disabled": 0, "type": "electric_bike", "bike_id": "425cba8380b70a315807775c183341aa"}, {"lon": -76.94781233333333, "lat": 38.894410666666666, "name": "9badfcb920830316ed4f59f8144f28b1", "fusion_lat": 0.0, "fusion_lon": 0.0, "rental_uris": {"android": "https://dc.lft.to/lastmile_qr_scan", "ios": "https://dc.lft.to/lastmile_qr_scan"}, "is_reserved": 0, "is_disabled": 0, "type": "electric_bike", "bike_id": "9badfcb920830316ed4f59f8144f28b1"}, {"lon": -77.0396235, "lat": 38.9199485, "name": "217e56048e1451942d74dd3c3f801107", "fusion_lat": 0.0, "fusion_lon": 0.0, "rental_uris": {"android": "https://dc.lft.to/lastmile_qr_scan", "ios": "https://dc.lft.to/lastmile_qr_scan"}, "is_reserved": 0, "is_disabled": 0, "type": "electric_scooter", "bike_id": "217e56048e1451942d74dd3c3f801107"}, {"lon": -77.00272916666667, "lat": 38.911712, "name": "c8766d53bf4bbb53a65cb0a793a5e0a6", "fusion_lat": 0.0, "fusion_lon": 0.0, "rental_uris": {"android": "https://dc.lft.to/lastmile_qr_scan", "ios": "https://dc.lft.to/lastmile_qr_scan"}, "is_reserved": 0, "is_disabled": 0, "type": "electric_bike", "bike_id": "c8766d53bf4bbb53a65cb0a793a5e0a6"}, {"lon": -76.98780516666666, "lat": 38.9002835, "name": "eae25af7ada2e6a440199e0fd97a81e9", "fusion_lat": 0.0, "fusion_lon": 0.0, "rental_uris": {"android": "https://dc.lft.to/lastmile_qr_scan", "ios": "https://dc.lft.to/lastmile_qr_scan"}, "is_reserved": 0, "is_disabled": 0, "type": "electric_scooter", "bike_id": "eae25af7ada2e6a440199e0fd97a81e9"}, {"lon": -77.04967366666666, "lat": 38.91254716666667, "name": "28a2c6f8a2ea5a478384e2ed22c6b9e6", "fusion_lat": 0.0, "fusion_lon": 0.0, "rental_uris": {"android": "https://dc.lft.to/lastmile_qr_scan", "ios": "https://dc.lft.to/lastmile_qr_scan"}, "is_reserved": 0, "is_disabled": 0, "type": "electric_scooter", "bike_id": "28a2c6f8a2ea5a478384e2ed22c6b9e6"}, {"lon": -77.02636516666666, "lat": 38.91548133333333, "name": "160d20718ca0d1185cc701a64d850090", "fusion_lat": 0.0, "fusion_lon": 0.0, "rental_uris": {"android": "https://dc.lft.to/lastmile_qr_scan", "ios": "https://dc.lft.to/lastmile_qr_scan"}, "is_reserved": 0, "is_disabled": 0, "type": "electric_scooter", "bike_id": "160d20718ca0d1185cc701a64d850090"}, {"lon": -76.9902725, "lat": 38.864037333333336, "name": "91e6711b32d306820a916d4c79a957cc", "fusion_lat": 0.0, "fusion_lon": 0.0, "rental_uris": {"android": "https://dc.lft.to/lastmile_qr_scan", "ios": "https://dc.lft.to/lastmile_qr_scan"}, "is_reserved": 0, "is_disabled": 0, "type": "electric_scooter", "bike_id": "91e6711b32d306820a916d4c79a957cc"}, {"lon": -77.07935166666667, "lat": 38.948703333333334, "name": "4b9c86176dff748f5d3b8e42a4baa39e", "fusion_lat": 0.0, "fusion_lon": 0.0, "rental_uris": {"android": "https://dc.lft.to/lastmile_qr_scan", "ios": "https://dc.lft.to/lastmile_qr_scan"}, "is_reserved": 0, "is_disabled": 0, "type": "electric_scooter", "bike_id": "4b9c86176dff748f5d3b8e42a4baa39e"},