{"data": {"bikes": [{"bike_id": "d54f6cc98ed41a0f364b2a57e86da8df", "fusion_lon": 0.0, "type": "electric_scooter", "name": "d54f6cc98ed41a0f364b2a57e86da8df", "rental_uris": {"android": "https://dc.lft.to/lastmile_qr_scan", "ios": "https://dc.lft.to/lastmile_qr_scan"}, "fusion_lat": 0.0, "lat": 38.938762833333335, "is_disabled": 0, "lon": -77.02481416666667, "is_reserved": 0}, {"bike_id": "da3c850583582e75733ec45a8b6ff74c", "fusion_lon": 0.0, "type": "electric_scooter", "name": "da3c850583582e75733ec45a8b6ff74c", "rental_uris": {"android": "https://dc.lft.to/lastmile_qr_scan", "ios": "https://dc.lft.to/lastmile_qr_scan"}, "fusion_lat": 0.0, "lat": 38.919761, "is_disabled": 0, "lon": -77.03969566666666, "is_reserved": 0}, {"bike_id": "123d1055bec496dbc39e137808b65540", "fusion_lon": 0.0, "type": "electric_bike", "name": "123d1055bec496dbc39e137808b65540", "rental_uris": {"android": "https://dc.lft.to/lastmile_qr_scan", "ios": "https://dc.lft.to/lastmile_qr_scan"}, "fusion_lat": 0.0, "lat": 38.87492366666667, "is_disabled": 0, "lon": -77.04905916666667, "is_reserved": 0}, {"bike_id": "4a3d7fdf87a0da063dcfcf13bcd669d1", "fusion_lon": 0.0, "type": "electric_scooter", "name": "4a3d7fdf87a0da063dcfcf13bcd669d1", "rental_uris": {"android": "https://dc.lft.to/lastmile_qr_scan", "ios": "https://dc.lft.to/lastmile_qr_scan"}, "fusion_lat": 0.0, "lat": 38.911893166666665, "is_disabled": 0, "lon": -77.0181125, "is_reserved": 0}, {"bike_id": "40f62612edceb4ccd19166b7dc16a33e", "fusion_lon": 0.0, "type": "electric_scooter", "name": "40f62612edceb4ccd19166b7dc16a33e", "rental_uris": {"android": "https://dc.lft.to/lastmile_qr_scan", "ios": "https://dc.lft.to/lastmile_qr_scan"}, "fusion_lat": 0.0, "lat": 38.900143666666665, "is_disabled": 0, "lon": -76.9912725, "is_reserved": 0}, {"bike_id": "4e79708260facce9dbca4bde23dbc971", "fusion_lon": 0.0, "type": "electric_bike", "name": "4e79708260facce9dbca4bde23dbc971", "rental_uris": {"android": "https://dc.lft.to/lastmile_qr_scan", "ios": "https://dc.lft.to/lastmile_qr_scan"}, "fusion_lat": 0.0, "lat": 38.9906315, "is_disabled": 0, "lon": -77.100306, "is_reserved": 0}, {"bike_id": "cc22933d1e464c78696e6018b2e3cead", "fusion_lon": 0.0, "type": "electric_scooter", "name": "cc22933d1e464c78696e6018b2e3cead", "rental_uris": {"android": "https://dc.lft.to/lastmile_qr_scan", "ios": "https://dc.lft.to/lastmile_qr_scan"}, "fusion_lat": 0.0, "lat": 38.907166, "is_disabled": 0, "lon": -77.0060355, "is_reserved": 0}, {"bike_id": "401c67b9c9e0eaaefbe1b0d8ca136b71", "fusion_lon": 0.0, "type": "electric_scooter", "name": "401c67b9c9e0eaaefbe1b0d8ca136b71", "rental_uris": {"android": "https://dc.lft.to/lastmile_qr_scan", "ios": "https://dc.lft.to/lastmile_qr_scan"}, "fusion_lat": 0.0, "lat": 38.91176033333333, "is_disabled": 0, "lon": -77.03194066666667, "is_reserved": 0}, {"bike_id": "1a1ed84ec58e13bc11a5bb91b9b43ac3", "fusion_lon": 0.0, "type": "electric_scooter", "name": "1a1ed84ec58e13bc11a5bb91b9b43ac3", "rental_uris": {"android": "https://dc.lft.to/lastmile_qr_scan", "ios": "https://dc.lft.to/lastmile_qr_scan"}, "fusion_lat": 0.0, "lat": 38.9069645, "is_disabled": 0, "lon": -77.0100325, "is_reserved": 0}, {"bike_id": "53845492645e7a46483faec01ff39b3d", "fusion_lon": 0.0, "type": "electric_scooter", "name": "53845492645e7a46483faec01ff39b3d", "rental_uris": {"android": "https://dc.lft.to/lastmile_qr_scan", "ios": "https://dc.lft.to/lastmile_qr_scan"}, "fusion_lat": 0.0, "lat": 38.93266916666666, "is_disabled": 0, "lon": -77.04435066666667, "is_reserved": 0}, {"bike_id": "9fd4579adfd7dba1e7694917ecc86b16", "fusion_lon": 0.0, "type": "electric_scooter", "name": "9fd4579adfd7dba1e7694917ecc86b16", "rental_uris": {"android": "https://dc.lft.to/lastmile_qr_scan", "ios": "https://dc.lft.to/lastmile_qr_scan"}, "fusion_lat": 0.0, "lat": 38.932257166666666, "is_disabled": 0, "lon": -77.02029433333334, "is_reserved": 0}, {"bike_id": "85f1495701aaf6061fca600a143994f5", "fusion_lon": 0.0, "type": "electric_scooter", "name": "85f1495701aaf6061fca600a143994f5", "rental_uris": {"android": "https://dc.lft.to/lastmile_qr_scan", "ios": "https://dc.lft.to/lastmile_qr_scan"}, "fusion_lat": 0.0, "lat": 38.92344033333333, "is_disabled": 0, "lon": -77.0190455, "is_reserved": 0}, {"bike_id": "1b4e2dda9bb3da3e16dfb83e914e1a33", "fusion_lon": 0.0, "type": "electric_scooter", "name": "1b4e2dda9bb3da3e16dfb83e914e1a33", "rental_uris": {"android": "https://dc.lft.to/lastmile_qr_scan", "ios": "https://dc.lft.to/lastmile_qr_scan"}, "fusion_lat": 0.0, "lat": 38.9067005, "is_disabled": 0, "lon": -77.073042, "is_reserved": 0}, {"bike_id": "3af662c720771f594c122df531a35d35", "fusion_lon": 0.0, "type": "electric_scooter", "name": "3af662c720771f594c122df531a35d35", "rental_uris": {"android": "https://dc.lft.to/lastmile_qr_scan", "ios": "https://dc.lft.to/lastmile_qr_scan"}, "fusion_lat": 0.0, "lat": 38.91632716666667, "is_disabled": 0, "lon": -77.02554433333333, "is_reserved": 0}, {"bike_id": "0d5d0c35d68730963747340f598a208a", "fusion_lon": 0.0, "type": "electric_scooter", "name": "0d5d0c35d68730963747340f598a208a", "rental_uris": {"android": "https://dc.lft.to/lastmile_qr_scan", "ios": "https://dc.lft.to/lastmile_qr_scan"}, "fusion_lat": 0.0, "lat": 38.89825333333334, "is_disabled": 0, "lon": -76.946525, "is_reserved": 0}, {"bike_id": "a53cabf3af571ec182101e99260c8f5a", "fusion_lon": 0.0, "type": "electric_scooter", "name": "a53cabf3af571ec182101e99260c8f5a", "rental_uris": {"android": "https://dc.lft.to/lastmile_qr_scan", "ios": "https://dc.lft.to/lastmile_qr_scan"}, "fusion_lat": 0.0, "lat": 38.91756516666667, "is_disabled": 0, "lon": -77.01610933333333, "is_reserved": 0}, {"bike_id": "7e7528fb32c4754551f1dde6aae81932", "fusion_lon": 0.0, "type": "electric_scooter", "name": "7e7528fb32c4754551f1dde6aae81932", "rental_uris": {"android": "https://dc.lft.to/lastmile_qr_scan", "ios": "https://dc.lft.to/lastmile_qr_scan"}, "fusion_lat": 0.0, "lat": 38.9098975, "is_disabled": 0, "lon": -77.0327785, "is_reserved": 0}, {"bike_id": "a3791e3232d065687f93c5f820093733", "fusion_lon": 0.0, "type": "electric_scooter", "name": "a3791e3232d065687f93c5f820093733", "rental_uris": {"android": "https://dc.lft.to/lastmile_qr_scan", "ios": "https://dc.lft.to/lastmile_qr_scan"}, "fusion_lat": 0.0, "lat": 38.89547183333333, "is_disabled": 0, "lon": -77.0092135, "is_reserved": 0}, {"bike_id": "68642bd8dbe4ac4716e206009b6da0b2", "fusion_lon": 0.0, "type": "electric_scooter", "name": "68642bd8dbe4ac4716e206009b6da0b2", "rental_uris": {"android": "https://dc.lft.to/lastmile_qr_scan", "ios": "https://dc.lft.to/lastmile_qr_scan"}, "fusion_lat": 0.0, "lat": 38.924892166666666, "is_disabled": 0, "lon": -77.0214575, "is_reserved": 0}, {"bike_id": "5a8b5a228e1a66278a7b26773209646c", "fusion_lon": 0.0, "type": "electric_scooter", "name": "5a8b5a228e1a66278a7b26773209646c", "rental_uris": {"android": "https://dc.lft.to/lastmile_qr_scan", "ios": "https://dc.lft.to/lastmile_qr_scan"}, "fusion_lat": 0.0, "lat": 38.898867, "is_disabled": 0, "lon": -76.98572533333333, "is_reserved": 0}, {"bike_id": "01ca13d81bd625bb8040f893594a7e2b", "fusion_lon": 0.0, "type": "electric_scooter", "name": "01ca13d81bd625bb8040f893594a7e2b", "rental_uris": {"android": "https://dc.lft.to/lastmile_qr_scan", "ios": "https://dc.lft.to/lastmile_qr_scan"}, "fusion_lat": 0.0, "lat": 38.89760033333334, "is_disabled": 0, "lon": -76.9700265, "is_reserved": 0}, {"bike_id": "6ceb98e3fa16a81015a499d943190b64", "fusion_lon": 0.0, "type": "electric_scooter", "name": "6ceb98e3fa16a81015a499d943190b64", "rental_uris": {"android": "https://dc.lft.to/lastmile_qr_scan", "ios": "https://dc.lft.to/lastmile_qr_scan"}, "fusion_lat": 0.0, "lat": 38.912552166666664, "is_disabled": 0, "lon": -77.04095883333333, "is_reserved": 0}, {"bike_id": "d197461c918103ac0a0fad033839f24c", "fusion_lon": 0.0, "type": "electric_bike", "name": "d197461c918103ac0a0fad033839f24c", "rental_uris": {"android": "https://dc.lft.to/lastmile_qr_scan", "ios": "https://dc.lft.to/lastmile_qr_scan"}, "fusion_lat": 0.0, "lat": 38.954015166666665, "is_disabled": 0, "lon": -76.94290816666667, "is_reserved": 0}, {"bike_id": "561ec02fc63325245c37802e5d7e918b", "fusion_lon": 0.0, "type": "electric_scooter", "name": "561ec02fc63325245c37802e5d7e918b", "rental_uris": {"android": "https://dc.lft.to/lastmile_qr_scan", "ios": "https://dc.lft.to/lastmile_qr_scan"}, "fusion_lat": 0.0, "lat": 38.92410133333333, "is_disabled": 0, "lon": -77.01944616666667, "is_reserved": 0}, {"bike_id": "01a0f10f3d9cfd3a1b3d19b85cb36416", "fusion_lon": 0.0, "type": "electric_scooter", "name": "01a0f10f3d9cfd3a1b3d19b85cb36416", "rental_uris": {"android": "https://dc.lft.to/lastmile_qr_scan", "ios": "https://dc.lft.to/lastmile_qr_scan"}, "fusion_lat": 0.0, "lat": 38.84617333333333, "is_disabled": 0, "lon": -76.99633216666666, "is_reserved": 0}, {"bike_id": "3cd4e04da799384bec1fa9e916a4b28d", "fusion_lon": 0.0, "type": "electric_scooter", "name": "3cd4e04da799384bec1fa9e916a4b28d", "rental_uris": {"android": "https://dc.lft.to/lastmile_qr_scan", "ios": "https://dc.lft.to/lastmile_qr_scan"}, "fusion_lat": 0.0, "lat": 38.8974045, "is_disabled": 0, "lon": -77.02877116666667, "is_reserved": 0}, {"bike_id": "7eaf7a3e3601f383b62ed39760cba92f", "fusion_lon": 0.0, "type": "electric_scooter", "name": "7eaf7a3e3601f383b62ed39760cba92f", "rental_uris": {"android": "https://dc.lft.to/lastmile_qr_scan", "ios": "https://dc.lft.to/lastmile_qr_scan"}, "fusion_lat": 0.0, "lat": 38.84422133333333, "is_disabled": 0, "lon": -76.9978365, "is_reserved": 0}, {"bike_id": "b41b898f24e4ce9d76d8b95b284a39ab", "fusion_lon": 0.0, "type": "electric_bike", "name": "b41b898f24e4ce9d76d8b95b284a39ab", "rental_uris": {"android": "https://dc.lft.to/lastmile_qr_scan", "ios": "https://dc.lft.to/lastmile_qr_scan"}, "fusion_lat": 0.0, "lat": 38.9882815, "is_disabled": 0, "lon": -76.9876155, "is_reserved": 0}, {"bike_id": "ea112ccad4bd046988a9528c3ea1f511", "fusion_lon": 0.0, "type": "electric_scooter", "name": "ea112ccad4bd046988a9528c3ea1f511", "rental_uris": {"android": "https://dc.lft.to/lastmile_qr_scan", "ios": "https://dc.lft.to/lastmile_qr_scan"}, "fusion_lat": 0.0, "lat": 38.902111, "is_disabled": 0, "lon": -77.05149683333333, "is_reserved": 0}, {"bike_id": "022d81a0857b04a3b5852e73a77d7bda", "fusion_lon": 0.0, "type": "electric_scooter", "name": "022d81a0857b04a3b5852e73a77d7bda", "rental_uris": {"android": "https://dc.lft.to/lastmile_qr_scan", "ios": "https://dc.lft.to/lastmile_qr_scan"}, "fusion_lat": 0.0, "lat": 38.91765566666667, "is_disabled": 0, "lon": -77.02299566666667, "is_reserved": 0}, {"bike_id": "d6c3aa3eb5193a6da40f5e47b2147466", "fusion_lon": 0.0, "type": "electric_scooter", "name": "d6c3aa3eb5193a6da40f5e47b2147466", "rental_uris": {"android": "https://dc.lft.to/lastmile_qr_scan", "ios": "https://dc.lft.to/lastmile_qr_scan"}, "fusion_lat": 0.0, "lat": 38.9018425, "is_disabled": 0, "lon": -76.93465833333333, "is_reserved": 0}, {"bike_id": "bf63101a4514a7c5f0a2316d1754b41c", "fusion_lon": 0.0, "type": "electric_scooter", "name": "bf63101a4514a7c5f0a2316d1754b41c", "rental_uris": {"android": "https://dc.lft.to/lastmile_qr_scan", "ios": "https://dc.lft.to/lastmile_qr_scan"}, "fusion_lat": 0.0, "lat": 38.886318, "is_disabled": 0, "lon": -77.021687, "is_reserved": 0}, {"bike_id": "ad90f5f69292c45c30d9ac639b87c3f0", "fusion_lon": 0.0, "type": "electric_bike", "name": "ad90f5f69292c45c30d9ac639b87c3f0", "rental_uris": {"android": "https://dc.lft.to/lastmile_qr_scan", "ios": "https://dc.lft.to/lastmile_qr_scan"}, "fusion_lat": 0.0, "lat": 38.9340675, "is_disabled": 0, "lon": -77.02519083333334, "is_reserved": 0}, {"bike_id": "8ded7f8ca432ef00129bf3606b434da7", "fusion_lon": 0.0, "type": "electric_scooter", "name": "8ded7f8ca432ef00129bf3606b434da7", "rental_uris": {"android": "https://dc.lft.to/lastmile_qr_scan", "ios": "https://dc.lft.to/lastmile_qr_scan"}, "fusion_lat": 0.0, "lat": 38.879258666666665, "is_disabled": 0, "lon": -77.00412533333333, "is_reserved": 0}, {"bike_id": "82a5d3333ab8742e4475bef5d3940f4b", "fusion_lon": 0.0, "type": "electric_scooter", "name": "82a5d3333ab8742e4475bef5d3940f4b", "rental_uris": {"android": "https://dc.lft.to/lastmile_qr_scan", "ios": "https://dc.lft.to/lastmile_qr_scan"}, "fusion_lat": 0.0, "lat": 38.90731916666667, "is_disabled": 0, "lon": -77.00207266666666, "is_reserved": 0}, {"bike_id": "0f9aa7441e6c65a2caa90807b6e8c75c", "fusion_lon": 0.0, "type": "electric_scooter", "name": "0f9aa7441e6c65a2caa90807b6e8c75c", "rental_uris": {"android": "https://dc.lft.to/lastmile_qr_scan", "ios": "https://dc.lft.to/lastmile_qr_scan"}, "fusion_lat": 0.0, "lat": 38.90270733333333, "is_disabled": 0, "lon": -77.03653666666666, "is_reserved": 0}, {"bike_id": "786e9c5784964e8208853ea5a93a9237", "fusion_lon": 0.0, "type": "electric_scooter", "name": "786e9c5784964e8208853ea5a93a9237", "rental_uris": {"android": "https://dc.lft.to/lastmile_qr_scan", "ios": "https://dc.lft.to/lastmile_qr_scan"}, "fusion_lat": 0.0, "lat": 38.920537833333334, "is_disabled": 0, "lon": -77.02352366666666, "is_reserved": 0}, {"bike_id": "45d75dd812df66eaa6d687e0f609fcd2", "fusion_lon": 0.0, "type": "electric_scooter", "name": "45d75dd812df66eaa6d687e0f609fcd2", "rental_uris": {"android": "https://dc.lft.to/lastmile_qr_scan", "ios": "https://dc.lft.to/lastmile_qr_scan"}, "fusion_lat": 0.0, "lat": 38.91607833333333, "is_disabled": 0, "lon": -77.02303566666667, "is_reserved": 0}, {"bike_id": "bd75b1e19e793c03c3144fc0bc2d8b73", "fusion_lon": 0.0, "type": "electric_scooter", "name": "bd75b1e19e793c03c3144fc0bc2d8b73", "rental_uris": {"android": "https://dc.lft.to/lastmile_qr_scan", "ios": "https://dc.lft.to/lastmile_qr_scan"}, "fusion_lat": 0.0, "lat": 38.93861416666667, "is_disabled": 0, "lon": -77.032057, "is_reserved": 0}, {"bike_id": "dccc25f466e9803b3fc2e8a472ea763d", "fusion_lon": 0.0, "type": "electric_scooter", "name": "dccc25f466e9803b3fc2e8a472ea763d", "rental_uris": {"android": "https://dc.lft.to/lastmile_qr_scan", "ios": "https://dc.lft.to/lastmile_qr_scan"}, "fusion_lat": 0.0, "lat": 38.89788466666667, "is_disabled": 0, "lon": -77.02651366666667, "is_reserved": 0}, {"bike_id": "2de92ae08ef7277443f9561f655a67c4", "fusion_lon": 0.0, "type": "electric_scooter", "name": "2de92ae08ef7277443f9561f655a67c4", "rental_uris": {"android": "https://dc.lft.to/lastmile_qr_scan", "ios": "https://dc.lft.to/lastmile_qr_scan"}, "fusion_lat": 0.0, "lat": 38.901181333333334, "is_disabled": 0, "lon": -77.003194, "is_reserved": 0}, {"bike_id": "356f5f6337e7fd9864c4b68df9b0bd7e", "fusion_lon": 0.0, "type": "electric_scooter", "name": "356f5f6337e7fd9864c4b68df9b0bd7e", "rental_uris": {"android": "https://dc.lft.to/lastmile_qr_scan", "ios": "https://dc.lft.to/lastmile_qr_scan"}, "fusion_lat": 0.0, "lat": 38.93879733333333, "is_disabled": 0, "lon": -77.02483716666667, "is_reserved": 0}, {"bike_id": "98ac95a8a82ca456129c4c82bf45bfe1", "fusion_lon": 0.0, "type": "electric_scooter", "name": "98ac95a8a82ca456129c4c82bf45bfe1", "rental_uris": {"android": "https://dc.lft.to/lastmile_qr_scan", "ios": "https://dc.lft.to/lastmile_qr_scan"}, "fusion_lat": 0.0, "lat": 38.90030983333333, "is_disabled": 0, "lon": -76.99622466666666, "is_reserved": 0}, {"bike_id": "362b8c3651060f3a7eb199255da4cad1", "fusion_lon": 0.0, "type": "electric_scooter", "name": "362b8c3651060f3a7eb199255da4cad1", "rental_uris": {"android": "https://dc.lft.to/lastmile_qr_scan", "ios": "https://dc.lft.to/lastmile_qr_scan"}, "fusion_lat": 0.0, "lat": 38.91712916666667, "is_disabled": 0, "lon": -77.03859316666667, "is_reserved": 0}, {"bike_id": "b214ec787e87317a5a906181c9b75b93", "fusion_lon": 0.0, "type": "electric_scooter", "name": "b214ec787e87317a5a906181c9b75b93", "rental_uris": {"android": "https://dc.lft.to/lastmile_qr_scan", "ios": "https://dc.lft.to/lastmile_qr_scan"}, "fusion_lat": 0.0, "lat": 38.916991, "is_disabled": 0, "lon": -77.00806683333333, "is_reserved": 0}, {"bike_id": "7a773d13b72bbc7ce0441fcb5168cbc3", "fusion_lon": 0.0, "type": "electric_scooter", "name": "7a773d13b72bbc7ce0441fcb5168cbc3", "rental_uris": {"android": "https://dc.lft.to/lastmile_qr_scan", "ios": "https://dc.lft.to/lastmile_qr_scan"}, "fusion_lat": 0.0, "lat": 38.9264475, "is_disabled": 0, "lon": -77.03701866666667, "is_reserved": 0}, {"bike_id": "324945f04906396582ef1947a4cf9bf3", "fusion_lon": 0.0, "type": "electric_bike", "name": "324945f04906396582ef1947a4cf9bf3", "rental_uris": {"android": "https://dc.lft.to/lastmile_qr_scan", "ios": "https://dc.lft.to/lastmile_qr_scan"}, "fusion_lat": 0.0, "lat": 38.895725, "is_disabled": 0, "lon": -76.97624466666667, "is_reserved": 0}, {"bike_id": "45d69c24cf691840bd2d0c881f5b64d2", "fusion_lon": 0.0, "type": "electric_scooter", "name": "45d69c24cf691840bd2d0c881f5b64d2", "rental_uris": {"android": "https://dc.lft.to/lastmile_qr_scan", "ios": "https://dc.lft.to/lastmile_qr_scan"}, "fusion_lat": 0.0, "lat": 38.92849283333334, "is_disabled": 0, "lon": -77.01584666666666, "is_reserved": 0}, {"bike_id": "9b5dc6aa75bd88a965584b553e6e6971", "fusion_lon": 0.0, "type": "electric_scooter", "name": "9b5dc6aa75bd88a965584b553e6e6971", "rental_uris": {"android": "https://dc.lft.to/lastmile_qr_scan", "ios": "https://dc.lft.to/lastmile_qr_scan"}, "fusion_lat": 0.0, "lat": 38.8724245, "is_disabled": 0, "lon": -77.01063783333333, "is_reserved": 0}, {"bike_id": "acb16d23689f5c8c74b4b4b62cf9b471", "fusion_lon": 0.0, "type": "electric_scooter", "name": "acb16d23689f5c8c74b4b4b62cf9b471", "rental_uris": {"android": "https://dc.lft.to/lastmile_qr_scan", "ios": "https://dc.lft.to/lastmile_qr_scan"}, "fusion_lat": 0.0, "lat": 38.917821833333335, "is_disabled": 0, "lon": -76.97330633333334, "is_reserved": 0}, {"bike_id": "e64cde656bed299c4098357d30669246", "fusion_lon": 0.0, "type": "electric_bike", "name": "e64cde656bed299c4098357d30669246", "rental_uris": {"android": "https://dc.lft.to/lastmile_qr_scan", "ios": "https://dc.lft.to/lastmile_qr_scan"}, "fusion_lat": 0.0, "lat": 39.115134166666664, "is_disabled": 0, "lon": -77.19549833333333, "is_reserved": 0}, {"bike_id": "6074fa92919cbaec041edd7876ea6ebc", "fusion_lon": 0.0, "type": "electric_scooter", "name": "6074fa92919cbaec041edd7876ea6ebc", "rental_uris": {"android": "https://dc.lft.to/lastmile_qr_scan", "ios": "https://dc.lft.to/lastmile_qr_scan"}, "fusion_lat": 0.0, "lat": 38.907511, "is_disabled": 0, "lon": -77.03174483333333, "is_reserved": 0}, {"bike_id": "c72401696e6fb1ae8cfaebaded3ac6dd", "fusion_lon": 0.0, "type": "electric_scooter", "name": "c72401696e6fb1ae8cfaebaded3ac6dd", "rental_uris": {"android": "https://dc.lft.to/lastmile_qr_scan", "ios": "https://dc.lft.to/lastmile_qr_scan"}, "fusion_lat": 0.0, "lat": 38.876383833333335, "is_disabled": 0, "lon": -77.003426, "is_reserved": 0}, {"bike_id": "a3e4306dd7562fbfe4011103db4b1190", "fusion_lon": 0.0, "type": "electric_scooter", "name": "a3e4306dd7562fbfe4011103db4b1190", "rental_uris": {"android": "https://dc.lft.to/lastmile_qr_scan", "ios": "https://dc.lft.to/lastmile_qr_scan"}, "fusion_lat": 0.0, "lat": 38.898954333333336, "is_disabled": 0, "lon": -76.97854516666666, "is_reserved": 0}, {"bike_id": "5ce550cffc359767f8770b133e13f376", "fusion_lon": 0.0, "type": "electric_bike", "name": "5ce550cffc359767f8770b133e13f376", "rental_uris": {"android": "https://dc.lft.to/lastmile_qr_scan", "ios": "https://dc.lft.to/lastmile_qr_scan"}, "fusion_lat": 0.0, "lat": 38.999686833333335, "is_disabled": 0, "lon": -77.05120133333334, "is_reserved": 0}, {"bike_id": "80a2f5140720ca14b57c5e3cb5fbc522", "fusion_lon": 0.0, "type": "electric_scooter", "name": "80a2f5140720ca14b57c5e3cb5fbc522", "rental_uris": {"android": "https://dc.lft.to/lastmile_qr_scan", "ios": "https://dc.lft.to/lastmile_qr_scan"}, "fusion_lat": 0.0, "lat": 38.91939633333333, "is_disabled": 0, "lon": -77.01356633333333, "is_reserved": 0}, {"bike_id": "0d106d8a0a5fffcf03444fae7d21e700", "fusion_lon": 0.0, "type": "electric_bike", "name": "0d106d8a0a5fffcf03444fae7d21e700", "rental_uris": {"android": "https://dc.lft.to/lastmile_qr_scan", "ios": "https://dc.lft.to/lastmile_qr_scan"}, "fusion_lat": 0.0, "lat": 38.906588166666666, "is_disabled": 0, "lon": -77.01630233333333, "is_reserved": 0}, {"bike_id": "8bbb9a522bc6a3c1e24b6be119e24a4b", "fusion_lon": 0.0, "type": "electric_scooter", "name": "8bbb9a522bc6a3c1e24b6be119e24a4b", "rental_uris": {"android": "https://dc.lft.to/lastmile_qr_scan", "ios": "https://dc.lft.to/lastmile_qr_scan"}, "fusion_lat": 0.0, "lat": 38.90617916666667, "is_disabled": 0, "lon": -77.0057635, "is_reserved": 0}, {"bike_id": "9aa7e0c126d421c77805786aad31932b", "fusion_lon": 0.0, "type": "electric_scooter", "name": "9aa7e0c126d421c77805786aad31932b", "rental_uris": {"android": "https://dc.lft.to/lastmile_qr_scan", "ios": "https://dc.lft.to/lastmile_qr_scan"}, "fusion_lat": 0.0, "lat": 38.908675, "is_disabled": 0, "lon": -77.01249666666666, "is_reserved": 0}, {"bike_id": "84709dd22f72a4312dd08ac041019422", "fusion_lon": 0.0, "type": "electric_scooter", "name": "84709dd22f72a4312dd08ac041019422", "rental_uris": {"android": "https://dc.lft.to/lastmile_qr_scan", "ios": "https://dc.lft.to/lastmile_qr_scan"}, "fusion_lat": 0.0, "lat": 38.93318433333334, "is_disabled": 0, "lon": -77.03285116666666, "is_reserved": 0}, {"bike_id": "fe2449095c492058d1ed8c3df7a30e05", "fusion_lon": 0.0, "type": "electric_scooter", "name": "fe2449095c492058d1ed8c3df7a30e05", "rental_uris": {"android": "https://dc.lft.to/lastmile_qr_scan", "ios": "https://dc.lft.to/lastmile_qr_scan"}, "fusion_lat": 0.0, "lat": 38.926421500000004, "is_disabled": 0, "lon": -77.0369765, "is_reserved": 0}, {"bike_id": "5c4e6d0f07deb8fb332f2fb3832ed22e", "fusion_lon": 0.0, "type": "electric_scooter", "name": "5c4e6d0f07deb8fb332f2fb3832ed22e", "rental_uris": {"android": "https://dc.lft.to/lastmile_qr_scan", "ios": "https://dc.lft.to/lastmile_qr_scan"}, "fusion_lat": 0.0, "lat": 38.87481533333333, "is_disabled": 0, "lon": -76.965227, "is_reserved": 0}, {"bike_id": "b2ed90877cd2970f77f31d201b6d9bac", "fusion_lon": 0.0, "type": "electric_scooter", "name": "b2ed90877cd2970f77f31d201b6d9bac", "rental_uris": {"android": "https://dc.lft.to/lastmile_qr_scan", "ios": "https://dc.lft.to/lastmile_qr_scan"}, "fusion_lat": 0.0, "lat": 38.92270366666666, "is_disabled": 0, "lon": -76.99428266666666, "is_reserved": 0}, {"bike_id": "d4f146e0869739041010b4fe3d930f49", "fusion_lon": 0.0, "type": "electric_scooter", "name": "d4f146e0869739041010b4fe3d930f49", "rental_uris": {"android": "https://dc.lft.to/lastmile_qr_scan", "ios": "https://dc.lft.to/lastmile_qr_scan"}, "fusion_lat": 0.0, "lat": 38.9499485, "is_disabled": 0, "lon": -77.0271315, "is_reserved": 0}, {"bike_id": "776778c1936d2caa0bf2503c32b7446c", "fusion_lon": 0.0, "type": "electric_scooter", "name": "776778c1936d2caa0bf2503c32b7446c", "rental_uris": {"android": "https://dc.lft.to/lastmile_qr_scan", "ios": "https://dc.lft.to/lastmile_qr_scan"}, "fusion_lat": 0.0, "lat": 38.91261016666667, "is_disabled": 0, "lon": -77.022236, "is_reserved": 0}, {"bike_id": "15502a62e2fb32f44302fc89920dc1e1", "fusion_lon": 0.0, "type": "electric_scooter", "name": "15502a62e2fb32f44302fc89920dc1e1", "rental_uris": {"android": "https://dc.lft.to/lastmile_qr_scan", "ios": "https://dc.lft.to/lastmile_qr_scan"}, "fusion_lat": 0.0, "lat": 38.91709016666667, "is_disabled": 0, "lon": -77.03866883333333, "is_reserved": 0}, {"bike_id": "1c714de1d1beb02fce287062f33e96fb", "fusion_lon": 0.0, "type": "electric_scooter", "name": "1c714de1d1beb02fce287062f33e96fb", "rental_uris": {"android": "https://dc.lft.to/lastmile_qr_scan", "ios": "https://dc.lft.to/lastmile_qr_scan"}, "fusion_lat": 0.0, "lat": 38.90009583333333, "is_disabled": 0, "lon": -76.9885265, "is_reserved": 0}, {"bike_id": "8f041f2bb47f9ba59ab478b5f71f71a2", "fusion_lon": 0.0, "type": "electric_scooter", "name": "8f041f2bb47f9ba59ab478b5f71f71a2", "rental_uris": {"android": "https://dc.lft.to/lastmile_qr_scan", "ios": "https://dc.lft.to/lastmile_qr_scan"}, "fusion_lat": 0.0, "lat": 38.91033733333333, "is_disabled": 0, "lon": -77.0384045, "is_reserved": 0}, {"bike_id": "2a94634ef9d127726e016218ce61fcab", "fusion_lon": 0.0, "type": "electric_scooter", "name": "2a94634ef9d127726e016218ce61fcab", "rental_uris": {"android": "https://dc.lft.to/lastmile_qr_scan", "ios": "https://dc.lft.to/lastmile_qr_scan"}, "fusion_lat": 0.0, "lat": 38.92779183333333, "is_disabled": 0, "lon": -77.05593033333334, "is_reserved": 0}, {"bike_id": "5a10492ac7db973e987d3011fad48c4b", "fusion_lon": 0.0, "type": "electric_scooter", "name": "5a10492ac7db973e987d3011fad48c4b", "rental_uris": {"android": "https://dc.lft.to/lastmile_qr_scan", "ios": "https://dc.lft.to/lastmile_qr_scan"}, "fusion_lat": 0.0, "lat": 38.89368116666667, "is_disabled": 0, "lon": -76.94968, "is_reserved": 0}, {"bike_id": "6087b13dda2ec10d79099a3dffa57804", "fusion_lon": 0.0, "type": "electric_scooter", "name": "6087b13dda2ec10d79099a3dffa57804", "rental_uris": {"android": "https://dc.lft.to/lastmile_qr_scan", "ios": "https://dc.lft.to/lastmile_qr_scan"}, "fusion_lat": 0.0, "lat": 38.89214183333333, "is_disabled": 0, "lon": -77.02844833333333, "is_reserved": 0}, {"bike_id": "0cab3075e40a70831c23bec1dc533afa", "fusion_lon": 0.0, "type": "electric_scooter", "name": "0cab3075e40a70831c23bec1dc533afa", "rental_uris": {"android": "https://dc.lft.to/lastmile_qr_scan", "ios": "https://dc.lft.to/lastmile_qr_scan"}, "fusion_lat": 0.0, "lat": 38.9093835, "is_disabled": 0, "lon": -77.03201916666667, "is_reserved": 0}, {"bike_id": "8c396137e248556ffbb68f11b98938cf", "fusion_lon": 0.0, "type": "electric_scooter", "name": "8c396137e248556ffbb68f11b98938cf", "rental_uris": {"android": "https://dc.lft.to/lastmile_qr_scan", "ios": "https://dc.lft.to/lastmile_qr_scan"}, "fusion_lat": 0.0, "lat": 38.885057333333336, "is_disabled": 0, "lon": -77.03356466666666, "is_reserved": 0}, {"bike_id": "c26925ddbc7465397a5dee12db80c654", "fusion_lon": 0.0, "type": "electric_scooter", "name": "c26925ddbc7465397a5dee12db80c654", "rental_uris": {"android": "https://dc.lft.to/lastmile_qr_scan", "ios": "https://dc.lft.to/lastmile_qr_scan"}, "fusion_lat": 0.0, "lat": 38.90422483333333, "is_disabled": 0, "lon": -77.04356483333333, "is_reserved": 0}, {"bike_id": "1c483a4fa2d181dd3cc1f2615c309e0e", "fusion_lon": 0.0, "type": "electric_scooter", "name": "1c483a4fa2d181dd3cc1f2615c309e0e", "rental_uris": {"android": "https://dc.lft.to/lastmile_qr_scan", "ios": "https://dc.lft.to/lastmile_qr_scan"}, "fusion_lat": 0.0, "lat": 38.907837, "is_disabled": 0, "lon": -77.01110116666666, "is_reserved": 0}, {"bike_id": "d3986df0d2d902bf44250e10bf58efa4", "fusion_lon": 0.0, "type": "electric_scooter", "name": "d3986df0d2d902bf44250e10bf58efa4", "rental_uris": {"android": "https://dc.lft.to/lastmile_qr_scan", "ios": "https://dc.lft.to/lastmile_qr_scan"}, "fusion_lat": 0.0, "lat": 38.88418883333333, "is_disabled": 0, "lon": -76.99548716666666, "is_reserved": 0}, {"bike_id": "d8318b6e3a9fc5af5b51583afc90d14e", "fusion_lon": 0.0, "type": "electric_scooter", "name": "d8318b6e3a9fc5af5b51583afc90d14e", "rental_uris": {"android": "https://dc.lft.to/lastmile_qr_scan", "ios": "https://dc.lft.to/lastmile_qr_scan"}, "fusion_lat": 0.0, "lat": 38.91590933333333, "is_disabled": 0, "lon": -77.02704016666667, "is_reserved": 0}, {"bike_id": "8dd3a5b65e32499e6772ca89061abd2c", "fusion_lon": 0.0, "type": "electric_scooter", "name": "8dd3a5b65e32499e6772ca89061abd2c", "rental_uris": {"android": "https://dc.lft.to/lastmile_qr_scan", "ios": "https://dc.lft.to/lastmile_qr_scan"}, "fusion_lat": 0.0, "lat": 38.90316383333333, "is_disabled": 0, "lon": -77.043318, "is_reserved": 0}, {"bike_id": "9047832db4993b6a592cad193a9df84d", "fusion_lon": 0.0, "type": "electric_scooter", "name": "9047832db4993b6a592cad193a9df84d", "rental_uris": {"android": "https://dc.lft.to/lastmile_qr_scan", "ios": "https://dc.lft.to/lastmile_qr_scan"}, "fusion_lat": 0.0, "lat": 38.91151283333333, "is_disabled": 0, "lon": -77.02381866666667, "is_reserved": 0}, {"bike_id": "cdeafd4956f62a7d72de8277995508e2", "fusion_lon": 0.0, "type": "electric_scooter", "name": "cdeafd4956f62a7d72de8277995508e2", "rental_uris": {"android": "https://dc.lft.to/lastmile_qr_scan", "ios": "https://dc.lft.to/lastmile_qr_scan"}, "fusion_lat": 0.0, "lat": 38.887561166666664, "is_disabled": 0, "lon": -77.03360433333333, "is_reserved": 0}, {"bike_id": "6f5deaee717607b74aa4d299665be677", "fusion_lon": 0.0, "type": "electric_scooter", "name": "6f5deaee717607b74aa4d299665be677", "rental_uris": {"android": "https://dc.lft.to/lastmile_qr_scan", "ios": "https://dc.lft.to/lastmile_qr_scan"}, "fusion_lat": 0.0, "lat": 38.9265125, "is_disabled": 0, "lon": -77.02478983333333, "is_reserved": 0}, {"bike_id": "c64fdc9a23de3863d6afce854aaef8fc", "fusion_lon": 0.0, "type": "electric_scooter", "name": "c64fdc9a23de3863d6afce854aaef8fc", "rental_uris": {"android": "https://dc.lft.to/lastmile_qr_scan", "ios": "https://dc.lft.to/lastmile_qr_scan"}, "fusion_lat": 0.0, "lat": 38.89525966666667, "is_disabled": 0, "lon": -76.948996, "is_reserved": 0}, {"bike_id": "5bb8b8d5221c6a672a4419d949056bca", "fusion_lon": 0.0, "type": "electric_bike", "name": "5bb8b8d5221c6a672a4419d949056bca", "rental_uris": {"android": "https://dc.lft.to/lastmile_qr_scan", "ios": "https://dc.lft.to/lastmile_qr_scan"}, "fusion_lat": 0.0, "lat": 38.906243833333335, "is_disabled": 0, "lon": -76.98612266666666, "is_reserved": 0}, {"bike_id": "f273a761009ea570932d5e115909439e", "fusion_lon": 0.0, "type": "electric_scooter", "name": "f273a761009ea570932d5e115909439e", "rental_uris": {"android": "https://dc.lft.to/lastmile_qr_scan", "ios": "https://dc.lft.to/lastmile_qr_scan"}, "fusion_lat": 0.0, "lat": 38.91188866666667, "is_disabled": 0, "lon": -77.0385545, "is_reserved": 0}, {"bike_id": "3776d51367188c63a6fe4148e628d594", "fusion_lon": 0.0, "type": "electric_scooter", "name": "3776d51367188c63a6fe4148e628d594", "rental_uris": {"android": "https://dc.lft.to/lastmile_qr_scan", "ios": "https://dc.lft.to/lastmile_qr_scan"}, "fusion_lat": 0.0, "lat": 38.905646, "is_disabled": 0, "lon": -76.9814705, "is_reserved": 0}, {"bike_id": "300ae50d2e86c6b53e03954f9e4640d7", "fusion_lon": 0.0, "type": "electric_scooter", "name": "300ae50d2e86c6b53e03954f9e4640d7", "rental_uris": {"android": "https://dc.lft.to/lastmile_qr_scan", "ios": "https://dc.lft.to/lastmile_qr_scan"}, "fusion_lat": 0.0, "lat": 38.91815616666667, "is_disabled": 0, "lon": -77.03302416666666, "is_reserved": 0}, {"bike_id": "8699196f1bac16d3693ada2424ed3eca", "fusion_lon": 0.0, "type": "electric_scooter", "name": "8699196f1bac16d3693ada2424ed3eca", "rental_uris": {"android": "https://dc.lft.to/lastmile_qr_scan", "ios": "https://dc.lft.to/lastmile_qr_scan"}, "fusion_lat": 0.0, "lat": 38.90868016666667, "is_disabled": 0, "lon": -77.032241, "is_reserved": 0}, {"bike_id": "092fa5b234b02fea4217716176414b26", "fusion_lon": 0.0, "type": "electric_scooter", "name": "092fa5b234b02fea4217716176414b26", "rental_uris": {"android": "https://dc.lft.to/lastmile_qr_scan", "ios": "https://dc.lft.to/lastmile_qr_scan"}, "fusion_lat": 0.0, "lat": 38.904814333333334, "is_disabled": 0, "lon": -77.02967533333333, "is_reserved": 0}, {"bike_id": "9826ac01e7c863f739bee9c3d1aa2968", "fusion_lon": 0.0, "type": "electric_scooter", "name": "9826ac01e7c863f739bee9c3d1aa2968", "rental_uris": {"android": "https://dc.lft.to/lastmile_qr_scan", "ios": "https://dc.lft.to/lastmile_qr_scan"}, "fusion_lat": 0.0, "lat": 38.930504666666664, "is_disabled": 0, "lon": -77.03632933333333, "is_reserved": 0}, {"bike_id": "4c0072f7a366871270c5475cb6193a84", "fusion_lon": 0.0, "type": "electric_scooter", "name": "4c0072f7a366871270c5475cb6193a84", "rental_uris": {"android": "https://dc.lft.to/lastmile_qr_scan", "ios": "https://dc.lft.to/lastmile_qr_scan"}, "fusion_lat": 0.0, "lat": 38.902207833333335, "is_disabled": 0, "lon": -76.9902465, "is_reserved": 0}, {"bike_id": "90b445eb9fced65efabf3bdc71a5899e", "fusion_lon": 0.0, "type": "electric_scooter", "name": "90b445eb9fced65efabf3bdc71a5899e", "rental_uris": {"android": "https://dc.lft.to/lastmile_qr_scan", "ios": "https://dc.lft.to/lastmile_qr_scan"}, "fusion_lat": 0.0, "lat": 38.926394, "is_disabled": 0, "lon": -77.02518916666666, "is_reserved": 0}, {"bike_id": "9d26c2465e162a839153ab8f35300294", "fusion_lon": 0.0, "type": "electric_scooter", "name": "9d26c2465e162a839153ab8f35300294", "rental_uris": {"android": "https://dc.lft.to/lastmile_qr_scan", "ios": "https://dc.lft.to/lastmile_qr_scan"}, "fusion_lat": 0.0, "lat": 38.907900166666664, "is_disabled": 0, "lon": -77.03059366666666, "is_reserved": 0}, {"bike_id": "6b2d89f9f18ad6537f1fa3d1ed53f75d", "fusion_lon": 0.0, "type": "electric_scooter", "name": "6b2d89f9f18ad6537f1fa3d1ed53f75d", "rental_uris": {"android": "https://dc.lft.to/lastmile_qr_scan", "ios": "https://dc.lft.to/lastmile_qr_scan"}, "fusion_lat": 0.0, "lat": 38.874653333333335, "is_disabled": 0, "lon": -77.00533383333334, "is_reserved": 0}, {"bike_id": "b4fd1e4df59148a5864f4b3985793141", "fusion_lon": 0.0, "type": "electric_scooter", "name": "b4fd1e4df59148a5864f4b3985793141", "rental_uris": {"android": "https://dc.lft.to/lastmile_qr_scan", "ios": "https://dc.lft.to/lastmile_qr_scan"}, "fusion_lat": 0.0, "lat": 38.8997165, "is_disabled": 0, "lon": -76.9375905, "is_reserved": 0}, {"bike_id": "0e0a5053b422c0d937a8fb3bd25031c2", "fusion_lon": 0.0, "type": "electric_bike", "name": "0e0a5053b422c0d937a8fb3bd25031c2", "rental_uris": {"android": "https://dc.lft.to/lastmile_qr_scan", "ios": "https://dc.lft.to/lastmile_qr_scan"}, "fusion_lat": 0.0, "lat": 38.9904355, "is_disabled": 0, "lon": -77.069542, "is_reserved": 0}, {"bike_id": "6db628fcd486fee59d5ec86a6571ff57", "fusion_lon": 0.0, "type": "electric_scooter", "name": "6db628fcd486fee59d5ec86a6571ff57", "rental_uris": {"android": "https://dc.lft.to/lastmile_qr_scan", "ios": "https://dc.lft.to/lastmile_qr_scan"}, "fusion_lat": 0.0, "lat": 38.91718866666667, "is_disabled": 0, "lon": -77.02701616666667, "is_reserved": 0}, {"bike_id": "0ceff7c099425c6bc50a1b3da757eab5", "fusion_lon": 0.0, "type": "electric_scooter", "name": "0ceff7c099425c6bc50a1b3da757eab5", "rental_uris": {"android": "https://dc.lft.to/lastmile_qr_scan", "ios": "https://dc.lft.to/lastmile_qr_scan"}, "fusion_lat": 0.0, "lat": 38.89704566666666, "is_disabled": 0, "lon": -77.02298333333333, "is_reserved": 0}, {"bike_id": "1adc308fc19e81ef67766a9d364d9bf8", "fusion_lon": 0.0, "type": "electric_scooter", "name": "1adc308fc19e81ef67766a9d364d9bf8", "rental_uris": {"android": "https://dc.lft.to/lastmile_qr_scan", "ios": "https://dc.lft.to/lastmile_qr_scan"}, "fusion_lat": 0.0, "lat": 38.89224083333333, "is_disabled": 0, "lon": -77.032266, "is_reserved": 0}, {"bike_id": "0e7acb134e353a63808ead2a0b55b226", "fusion_lon": 0.0, "type": "electric_bike", "name": "0e7acb134e353a63808ead2a0b55b226", "rental_uris": {"android": "https://dc.lft.to/lastmile_qr_scan", "ios": "https://dc.lft.to/lastmile_qr_scan"}, "fusion_lat": 0.0, "lat": 38.866208, "is_disabled": 0, "lon": -76.945725, "is_reserved": 0}, {"bike_id": "13bdd113642871c88e74637e3716cda7", "fusion_lon": 0.0, "type": "electric_scooter", "name": "13bdd113642871c88e74637e3716cda7", "rental_uris": {"android": "https://dc.lft.to/lastmile_qr_scan", "ios": "https://dc.lft.to/lastmile_qr_scan"}, "fusion_lat": 0.0, "lat": 38.904452666666664, "is_disabled": 0, "lon": -77.06122683333334, "is_reserved": 0}, {"bike_id": "696bd23635007107d3695fb2bef99948", "fusion_lon": 0.0, "type": "electric_scooter", "name": "696bd23635007107d3695fb2bef99948", "rental_uris": {"android": "https://dc.lft.to/lastmile_qr_scan", "ios": "https://dc.lft.to/lastmile_qr_scan"}, "fusion_lat": 0.0, "lat": 38.938605833333334, "is_disabled": 0, "lon": -77.02493166666666, "is_reserved": 0}, {"bike_id": "ebc60326122782a96050d3dc0eafa6eb", "fusion_lon": 0.0, "type": "electric_scooter", "name": "ebc60326122782a96050d3dc0eafa6eb", "rental_uris": {"android": "https://dc.lft.to/lastmile_qr_scan", "ios": "https://dc.lft.to/lastmile_qr_scan"}, "fusion_lat": 0.0, "lat": 38.93284083333333, "is_disabled": 0, "lon": -77.03635783333333, "is_reserved": 0}, {"bike_id": "3e39e447ebce428e17677889ea2afcf7", "fusion_lon": 0.0, "type": "electric_scooter", "name": "3e39e447ebce428e17677889ea2afcf7", "rental_uris": {"android": "https://dc.lft.to/lastmile_qr_scan", "ios": "https://dc.lft.to/lastmile_qr_scan"}, "fusion_lat": 0.0, "lat": 38.9464495, "is_disabled": 0, "lon": -77.0303735, "is_reserved": 0}, {"bike_id": "9b1f13ba0c836b2e8e4ab0902c575921", "fusion_lon": 0.0, "type": "electric_scooter", "name": "9b1f13ba0c836b2e8e4ab0902c575921", "rental_uris": {"android": "https://dc.lft.to/lastmile_qr_scan", "ios": "https://dc.lft.to/lastmile_qr_scan"}, "fusion_lat": 0.0, "lat": 38.891948, "is_disabled": 0, "lon": -77.01555733333333, "is_reserved": 0}, {"bike_id": "628d2639e857dacb1f04f8b7350207fd", "fusion_lon": 0.0, "type": "electric_scooter", "name": "628d2639e857dacb1f04f8b7350207fd", "rental_uris": {"android": "https://dc.lft.to/lastmile_qr_scan", "ios": "https://dc.lft.to/lastmile_qr_scan"}, "fusion_lat": 0.0, "lat": 38.8804355, "is_disabled": 0, "lon": -77.03068983333333, "is_reserved": 0}, {"bike_id": "11cba54953312ebc60fbb7fc7b72648d", "fusion_lon": 0.0, "type": "electric_bike", "name": "11cba54953312ebc60fbb7fc7b72648d", "rental_uris": {"android": "https://dc.lft.to/lastmile_qr_scan", "ios": "https://dc.lft.to/lastmile_qr_scan"}, "fusion_lat": 0.0, "lat": 38.86905, "is_disabled": 0, "lon": -77.13183966666666, "is_reserved": 0}, {"bike_id": "0dbbbb51d85c67316f8a9bd14bfeeb59", "fusion_lon": 0.0, "type": "electric_scooter", "name": "0dbbbb51d85c67316f8a9bd14bfeeb59", "rental_uris": {"android": "https://dc.lft.to/lastmile_qr_scan", "ios": "https://dc.lft.to/lastmile_qr_scan"}, "fusion_lat": 0.0, "lat": 38.879053, "is_disabled": 0, "lon": -76.99134266666667, "is_reserved": 0}, {"bike_id": "267d947df0a0d92a9f2e6dac09c17086", "fusion_lon": 0.0, "type": "electric_scooter", "name": "267d947df0a0d92a9f2e6dac09c17086", "rental_uris": {"android": "https://dc.lft.to/lastmile_qr_scan", "ios": "https://dc.lft.to/lastmile_qr_scan"}, "fusion_lat": 0.0, "lat": 38.9168445, "is_disabled": 0, "lon": -77.02957583333334, "is_reserved": 0}, {"bike_id": "e4b7d4b301b288194cb11f6f208b928c", "fusion_lon": 0.0, "type": "electric_scooter", "name": "e4b7d4b301b288194cb11f6f208b928c", "rental_uris": {"android": "https://dc.lft.to/lastmile_qr_scan", "ios": "https://dc.lft.to/lastmile_qr_scan"}, "fusion_lat": 0.0, "lat": 38.91241516666667, "is_disabled": 0, "lon": -77.0449255, "is_reserved": 0}, {"bike_id": "b36ab66b0acc836fc26e0090717d1e95", "fusion_lon": 0.0, "type": "electric_scooter", "name": "b36ab66b0acc836fc26e0090717d1e95", "rental_uris": {"android": "https://dc.lft.to/lastmile_qr_scan", "ios": "https://dc.lft.to/lastmile_qr_scan"}, "fusion_lat": 0.0, "lat": 38.92123383333333, "is_disabled": 0, "lon": -77.0442765, "is_reserved": 0}, {"bike_id": "ae6e00e912cee852a4bee8270693e2ef", "fusion_lon": 0.0, "type": "electric_scooter", "name": "ae6e00e912cee852a4bee8270693e2ef", "rental_uris": {"android": "https://dc.lft.to/lastmile_qr_scan", "ios": "https://dc.lft.to/lastmile_qr_scan"}, "fusion_lat": 0.0, "lat": 38.909609333333336, "is_disabled": 0, "lon": -77.0241345, "is_reserved": 0}, {"bike_id": "ada3d9a24931dc692da7507a174583c6", "fusion_lon": 0.0, "type": "electric_scooter", "name": "ada3d9a24931dc692da7507a174583c6", "rental_uris": {"android": "https://dc.lft.to/lastmile_qr_scan", "ios": "https://dc.lft.to/lastmile_qr_scan"}, "fusion_lat": 0.0, "lat": 38.900174666666665, "is_disabled": 0, "lon": -77.016975, "is_reserved": 0}, {"bike_id": "e59a55af541a8b4bc64a3e45ed379e4b", "fusion_lon": 0.0, "type": "electric_scooter", "name": "e59a55af541a8b4bc64a3e45ed379e4b", "rental_uris": {"android": "https://dc.lft.to/lastmile_qr_scan", "ios": "https://dc.lft.to/lastmile_qr_scan"}, "fusion_lat": 0.0, "lat": 38.88426966666667, "is_disabled": 0, "lon": -76.95758266666667, "is_reserved": 0}, {"bike_id": "31d3eb8b5b3a87d6b6f3fbaaaf86bcf5", "fusion_lon": 0.0, "type": "electric_scooter", "name": "31d3eb8b5b3a87d6b6f3fbaaaf86bcf5", "rental_uris": {"android": "https://dc.lft.to/lastmile_qr_scan", "ios": "https://dc.lft.to/lastmile_qr_scan"}, "fusion_lat": 0.0, "lat": 38.915769166666664, "is_disabled": 0, "lon": -77.04678983333334, "is_reserved": 0}, {"bike_id": "f384ca0d941d78c015b9079a4e7fce5b", "fusion_lon": 0.0, "type": "electric_bike", "name": "f384ca0d941d78c015b9079a4e7fce5b", "rental_uris": {"android": "https://dc.lft.to/lastmile_qr_scan", "ios": "https://dc.lft.to/lastmile_qr_scan"}, "fusion_lat": 0.0, "lat": 38.996662666666666, "is_disabled": 0, "lon": -77.03765883333334, "is_reserved": 0}, {"bike_id": "8bcf101996cdb19cff919726926a404a", "fusion_lon": 0.0, "type": "electric_bike", "name": "8bcf101996cdb19cff919726926a404a", "rental_uris": {"android": "https://dc.lft.to/lastmile_qr_scan", "ios": "https://dc.lft.to/lastmile_qr_scan"}, "fusion_lat": 0.0, "lat": 38.8988515, "is_disabled": 0, "lon": -76.98395783333333, "is_reserved": 0}, {"bike_id": "98a6e15cf8207175237828ffcf2bce4c", "fusion_lon": 0.0, "type": "electric_scooter", "name": "98a6e15cf8207175237828ffcf2bce4c", "rental_uris": {"android": "https://dc.lft.to/lastmile_qr_scan", "ios": "https://dc.lft.to/lastmile_qr_scan"}, "fusion_lat": 0.0, "lat": 38.92940683333333, "is_disabled": 0, "lon": -77.03418, "is_reserved": 0}, {"bike_id": "a7405beab41db3b00d8dfb3e7621424b", "fusion_lon": 0.0, "type": "electric_scooter", "name": "a7405beab41db3b00d8dfb3e7621424b", "rental_uris": {"android": "https://dc.lft.to/lastmile_qr_scan", "ios": "https://dc.lft.to/lastmile_qr_scan"}, "fusion_lat": 0.0, "lat": 38.881875, "is_disabled": 0, "lon": -77.00357416666667, "is_reserved": 0}, {"bike_id": "28fe5590b9460286509c3efc7a46cf12", "fusion_lon": 0.0, "type": "electric_scooter", "name": "28fe5590b9460286509c3efc7a46cf12", "rental_uris": {"android": "https://dc.lft.to/lastmile_qr_scan", "ios": "https://dc.lft.to/lastmile_qr_scan"}, "fusion_lat": 0.0, "lat": 38.922139, "is_disabled": 0, "lon": -77.043411, "is_reserved": 0}, {"bike_id": "15cdbf8bb036fa52c5309ee77f734138", "fusion_lon": 0.0, "type": "electric_scooter", "name": "15cdbf8bb036fa52c5309ee77f734138", "rental_uris": {"android": "https://dc.lft.to/lastmile_qr_scan", "ios": "https://dc.lft.to/lastmile_qr_scan"}, "fusion_lat": 0.0, "lat": 38.9367575, "is_disabled": 0, "lon": -77.03636683333333, "is_reserved": 0}, {"bike_id": "e4db7e4f640f006f86354dab42408260", "fusion_lon": 0.0, "type": "electric_scooter", "name": "e4db7e4f640f006f86354dab42408260", "rental_uris": {"android": "https://dc.lft.to/lastmile_qr_scan", "ios": "https://dc.lft.to/lastmile_qr_scan"}, "fusion_lat": 0.0, "lat": 38.89008966666667, "is_disabled": 0, "lon": -76.93842633333334, "is_reserved": 0}, {"bike_id": "9790633cce70d07f774bcc90b0ef55a7", "fusion_lon": 0.0, "type": "electric_scooter", "name": "9790633cce70d07f774bcc90b0ef55a7", "rental_uris": {"android": "https://dc.lft.to/lastmile_qr_scan", "ios": "https://dc.lft.to/lastmile_qr_scan"}, "fusion_lat": 0.0, "lat": 38.93286716666667, "is_disabled": 0, "lon": -77.03621033333333, "is_reserved": 0}, {"bike_id": "d7fe4d177fe2eb218f7a9a174dbc6259", "fusion_lon": 0.0, "type": "electric_scooter", "name": "d7fe4d177fe2eb218f7a9a174dbc6259", "rental_uris": {"android": "https://dc.lft.to/lastmile_qr_scan", "ios": "https://dc.lft.to/lastmile_qr_scan"}, "fusion_lat": 0.0, "lat": 38.962039, "is_disabled": 0, "lon": -77.023489, "is_reserved": 0}, {"bike_id": "c665396dd02fdf75107fd96cdfc9e5c1", "fusion_lon": 0.0, "type": "electric_scooter", "name": "c665396dd02fdf75107fd96cdfc9e5c1", "rental_uris": {"android": "https://dc.lft.to/lastmile_qr_scan", "ios": "https://dc.lft.to/lastmile_qr_scan"}, "fusion_lat": 0.0, "lat": 38.904374833333335, "is_disabled": 0, "lon": -77.020031, "is_reserved": 0}, {"bike_id": "58ea44dc6b491394bfbca3e0986e30e4", "fusion_lon": 0.0, "type": "electric_scooter", "name": "58ea44dc6b491394bfbca3e0986e30e4", "rental_uris": {"android": "https://dc.lft.to/lastmile_qr_scan", "ios": "https://dc.lft.to/lastmile_qr_scan"}, "fusion_lat": 0.0, "lat": 38.90006066666667, "is_disabled": 0, "lon": -77.02511466666667, "is_reserved": 0}, {"bike_id": "7d90c1753cb2b858c1bfe03ce4620848", "fusion_lon": 0.0, "type": "electric_scooter", "name": "7d90c1753cb2b858c1bfe03ce4620848", "rental_uris": {"android": "https://dc.lft.to/lastmile_qr_scan", "ios": "https://dc.lft.to/lastmile_qr_scan"}, "fusion_lat": 0.0, "lat": 38.90395316666667, "is_disabled": 0, "lon": -77.04357833333333, "is_reserved": 0}, {"bike_id": "6d581d76a532e394f9b2f07626d0095d", "fusion_lon": 0.0, "type": "electric_scooter", "name": "6d581d76a532e394f9b2f07626d0095d", "rental_uris": {"android": "https://dc.lft.to/lastmile_qr_scan", "ios": "https://dc.lft.to/lastmile_qr_scan"}, "fusion_lat": 0.0, "lat": 38.903862333333336, "is_disabled": 0, "lon": -77.03583933333333, "is_reserved": 0}, {"bike_id": "2b02167d51c260504776f83cf3da0b99", "fusion_lon": 0.0, "type": "electric_scooter", "name": "2b02167d51c260504776f83cf3da0b99", "rental_uris": {"android": "https://dc.lft.to/lastmile_qr_scan", "ios": "https://dc.lft.to/lastmile_qr_scan"}, "fusion_lat": 0.0, "lat": 38.912834333333336, "is_disabled": 0, "lon": -77.00895483333333, "is_reserved": 0}, {"bike_id": "1deea47a2e541ede4761ddac0f7ec2be", "fusion_lon": 0.0, "type": "electric_scooter", "name": "1deea47a2e541ede4761ddac0f7ec2be", "rental_uris": {"android": "https://dc.lft.to/lastmile_qr_scan", "ios": "https://dc.lft.to/lastmile_qr_scan"}, "fusion_lat": 0.0, "lat": 38.919685666666666, "is_disabled": 0, "lon": -77.0713455, "is_reserved": 0}, {"bike_id": "a67c2522e621abc19fe6fa7c40d16a57", "fusion_lon": 0.0, "type": "electric_scooter", "name": "a67c2522e621abc19fe6fa7c40d16a57", "rental_uris": {"android": "https://dc.lft.to/lastmile_qr_scan", "ios": "https://dc.lft.to/lastmile_qr_scan"}, "fusion_lat": 0.0, "lat": 38.91564783333333, "is_disabled": 0, "lon": -77.00592666666667, "is_reserved": 0}, {"bike_id": "3fd4270fc8d3a1fe89bf1eb05a68f7fc", "fusion_lon": 0.0, "type": "electric_bike", "name": "3fd4270fc8d3a1fe89bf1eb05a68f7fc", "rental_uris": {"android": "https://dc.lft.to/lastmile_qr_scan", "ios": "https://dc.lft.to/lastmile_qr_scan"}, "fusion_lat": 0.0, "lat": 39.024158666666665, "is_disabled": 0, "lon": -77.1250725, "is_reserved": 0}, {"bike_id": "8f5e6e6b51f375c01546c3363f753a97", "fusion_lon": 0.0, "type": "electric_scooter", "name": "8f5e6e6b51f375c01546c3363f753a97", "rental_uris": {"android": "https://dc.lft.to/lastmile_qr_scan", "ios": "https://dc.lft.to/lastmile_qr_scan"}, "fusion_lat": 0.0, "lat": 38.92386483333333, "is_disabled": 0, "lon": -77.0309505, "is_reserved": 0}, {"bike_id": "35d0a3392775b40f37212c9bf762a594", "fusion_lon": 0.0, "type": "electric_bike", "name": "35d0a3392775b40f37212c9bf762a594", "rental_uris": {"android": "https://dc.lft.to/lastmile_qr_scan", "ios": "https://dc.lft.to/lastmile_qr_scan"}, "fusion_lat": 0.0, "lat": 38.84517916666667, "is_disabled": 0, "lon": -77.07796233333333, "is_reserved": 0}, {"bike_id": "a597e7bbc5f6b4c74393ae6c17289528", "fusion_lon": 0.0, "type": "electric_scooter", "name": "a597e7bbc5f6b4c74393ae6c17289528", "rental_uris": {"android": "https://dc.lft.to/lastmile_qr_scan", "ios": "https://dc.lft.to/lastmile_qr_scan"}, "fusion_lat": 0.0, "lat": 38.88734566666667, "is_disabled": 0, "lon": -77.01533166666667, "is_reserved": 0}, {"bike_id": "eaca6aea4fe7050c8e53c0267f1ce718", "fusion_lon": 0.0, "type": "electric_scooter", "name": "eaca6aea4fe7050c8e53c0267f1ce718", "rental_uris": {"android": "https://dc.lft.to/lastmile_qr_scan", "ios": "https://dc.lft.to/lastmile_qr_scan"}, "fusion_lat": 0.0, "lat": 38.917717, "is_disabled": 0, "lon": -77.02352133333333, "is_reserved": 0}, {"bike_id": "a89c778c400c755bd2dd7686ae30a4eb", "fusion_lon": 0.0, "type": "electric_scooter", "name": "a89c778c400c755bd2dd7686ae30a4eb", "rental_uris": {"android": "https://dc.lft.to/lastmile_qr_scan", "ios": "https://dc.lft.to/lastmile_qr_scan"}, "fusion_lat": 0.0, "lat": 38.92794383333333, "is_disabled": 0, "lon": -77.03198966666666, "is_reserved": 0}, {"bike_id": "4de193aa8b15cf48b6e88a48ae07ad3a", "fusion_lon": 0.0, "type": "electric_scooter", "name": "4de193aa8b15cf48b6e88a48ae07ad3a", "rental_uris": {"android": "https://dc.lft.to/lastmile_qr_scan", "ios": "https://dc.lft.to/lastmile_qr_scan"}, "fusion_lat": 0.0, "lat": 38.87915666666667, "is_disabled": 0, "lon": -77.0215595, "is_reserved": 0}, {"bike_id": "58f80d4554ea4ee69716e9c3261fce03", "fusion_lon": 0.0, "type": "electric_scooter", "name": "58f80d4554ea4ee69716e9c3261fce03", "rental_uris": {"android": "https://dc.lft.to/lastmile_qr_scan", "ios": "https://dc.lft.to/lastmile_qr_scan"}, "fusion_lat": 0.0, "lat": 38.861999, "is_disabled": 0, "lon": -76.99506683333334, "is_reserved": 0}, {"bike_id": "22d5abc6c2afc82ab049393fb0fed112", "fusion_lon": 0.0, "type": "electric_scooter", "name": "22d5abc6c2afc82ab049393fb0fed112", "rental_uris": {"android": "https://dc.lft.to/lastmile_qr_scan", "ios": "https://dc.lft.to/lastmile_qr_scan"}, "fusion_lat": 0.0, "lat": 38.972336166666665, "is_disabled": 0, "lon": -77.02715116666667, "is_reserved": 0}, {"bike_id": "0fe4734e26aec1d98629dfe17ee626d8", "fusion_lon": 0.0, "type": "electric_scooter", "name": "0fe4734e26aec1d98629dfe17ee626d8", "rental_uris": {"android": "https://dc.lft.to/lastmile_qr_scan", "ios": "https://dc.lft.to/lastmile_qr_scan"}, "fusion_lat": 0.0, "lat": 38.84288466666667, "is_disabled": 0, "lon": -76.9995505, "is_reserved": 0}, {"bike_id": "61e3a9ce24843b3a266853ded8a53c21", "fusion_lon": 0.0, "type": "electric_scooter", "name": "61e3a9ce24843b3a266853ded8a53c21", "rental_uris": {"android": "https://dc.lft.to/lastmile_qr_scan", "ios": "https://dc.lft.to/lastmile_qr_scan"}, "fusion_lat": 0.0, "lat": 38.903001, "is_disabled": 0, "lon": -77.01164016666667, "is_reserved": 0}, {"bike_id": "8e12a8a46e749dd5c74ae6145f2f0b06", "fusion_lon": 0.0, "type": "electric_scooter", "name": "8e12a8a46e749dd5c74ae6145f2f0b06", "rental_uris": {"android": "https://dc.lft.to/lastmile_qr_scan", "ios": "https://dc.lft.to/lastmile_qr_scan"}, "fusion_lat": 0.0, "lat": 38.9286205, "is_disabled": 0, "lon": -77.03476566666667, "is_reserved": 0}, {"bike_id": "c52eab0cb4fedbe9bab94283d3b5aeb5", "fusion_lon": 0.0, "type": "electric_scooter", "name": "c52eab0cb4fedbe9bab94283d3b5aeb5", "rental_uris": {"android": "https://dc.lft.to/lastmile_qr_scan", "ios": "https://dc.lft.to/lastmile_qr_scan"}, "fusion_lat": 0.0, "lat": 38.86065833333333, "is_disabled": 0, "lon": -76.99033083333333, "is_reserved": 0}, {"bike_id": "4673cc23c1093d9f1e29181aaace063a", "fusion_lon": 0.0, "type": "electric_scooter", "name": "4673cc23c1093d9f1e29181aaace063a", "rental_uris": {"android": "https://dc.lft.to/lastmile_qr_scan", "ios": "https://dc.lft.to/lastmile_qr_scan"}, "fusion_lat": 0.0, "lat": 38.8777875, "is_disabled": 0, "lon": -77.01444416666666, "is_reserved": 0}, {"bike_id": "56c9001c42e8b4724d70862865e3ac5e", "fusion_lon": 0.0, "type": "electric_bike", "name": "56c9001c42e8b4724d70862865e3ac5e", "rental_uris": {"android": "https://dc.lft.to/lastmile_qr_scan", "ios": "https://dc.lft.to/lastmile_qr_scan"}, "fusion_lat": 0.0, "lat": 39.053418666666666, "is_disabled": 0, "lon": -77.13601616666666, "is_reserved": 0}, {"bike_id": "2d991e73fb49374b326218d75c74875e", "fusion_lon": 0.0, "type": "electric_scooter", "name": "2d991e73fb49374b326218d75c74875e", "rental_uris": {"android": "https://dc.lft.to/lastmile_qr_scan", "ios": "https://dc.lft.to/lastmile_qr_scan"}, "fusion_lat": 0.0, "lat": 38.84501783333333, "is_disabled": 0, "lon": -76.98754833333334, "is_reserved": 0}, {"bike_id": "b611add2ad4ce5b4df09fd8dbff804da", "fusion_lon": 0.0, "type": "electric_scooter", "name": "b611add2ad4ce5b4df09fd8dbff804da", "rental_uris": {"android": "https://dc.lft.to/lastmile_qr_scan", "ios": "https://dc.lft.to/lastmile_qr_scan"}, "fusion_lat": 0.0, "lat": 38.9117085, "is_disabled": 0, "lon": -77.03662566666667, "is_reserved": 0}, {"bike_id": "7f38b6e1f0ec76059d6d5532bcf582f5", "fusion_lon": 0.0, "type": "electric_scooter", "name": "7f38b6e1f0ec76059d6d5532bcf582f5", "rental_uris": {"android": "https://dc.lft.to/lastmile_qr_scan", "ios": "https://dc.lft.to/lastmile_qr_scan"}, "fusion_lat": 0.0, "lat": 38.892156666666665, "is_disabled": 0, "lon": -77.02633016666667, "is_reserved": 0}, {"bike_id": "f900d7bb9c2d2e728d8be2199b366ffc", "fusion_lon": 0.0, "type": "electric_scooter", "name": "f900d7bb9c2d2e728d8be2199b366ffc", "rental_uris": {"android": "https://dc.lft.to/lastmile_qr_scan", "ios": "https://dc.lft.to/lastmile_qr_scan"}, "fusion_lat": 0.0, "lat": 38.92913033333333, "is_disabled": 0, "lon": -77.03617983333334, "is_reserved": 0}, {"bike_id": "c33cf4c79d3df65f123772ecda7adb2f", "fusion_lon": 0.0, "type": "electric_scooter", "name": "c33cf4c79d3df65f123772ecda7adb2f", "rental_uris": {"android": "https://dc.lft.to/lastmile_qr_scan", "ios": "https://dc.lft.to/lastmile_qr_scan"}, "fusion_lat": 0.0, "lat": 38.92683616666667, "is_disabled": 0, "lon": -77.03604383333334, "is_reserved": 0}, {"bike_id": "af9f9caeeda1769d4df240befbdc9e02", "fusion_lon": 0.0, "type": "electric_scooter", "name": "af9f9caeeda1769d4df240befbdc9e02", "rental_uris": {"android": "https://dc.lft.to/lastmile_qr_scan", "ios": "https://dc.lft.to/lastmile_qr_scan"}, "fusion_lat": 0.0, "lat": 38.8948465, "is_disabled": 0, "lon": -76.948428, "is_reserved": 0}, {"bike_id": "ddcc4ac5d336d4e629e5e62cf527dd92", "fusion_lon": 0.0, "type": "electric_scooter", "name": "ddcc4ac5d336d4e629e5e62cf527dd92", "rental_uris": {"android": "https://dc.lft.to/lastmile_qr_scan", "ios": "https://dc.lft.to/lastmile_qr_scan"}, "fusion_lat": 0.0, "lat": 38.9261975, "is_disabled": 0, "lon": -77.05313433333333, "is_reserved": 0}, {"bike_id": "6f59ace46213c18b353aba6b98b16afe", "fusion_lon": 0.0, "type": "electric_scooter", "name": "6f59ace46213c18b353aba6b98b16afe", "rental_uris": {"android": "https://dc.lft.to/lastmile_qr_scan", "ios": "https://dc.lft.to/lastmile_qr_scan"}, "fusion_lat": 0.0, "lat": 38.9114895, "is_disabled": 0, "lon": -77.03205116666666, "is_reserved": 0}, {"bike_id": "f3eec251cb78275e01c9223800bb0d9e", "fusion_lon": 0.0, "type": "electric_scooter", "name": "f3eec251cb78275e01c9223800bb0d9e", "rental_uris": {"android": "https://dc.lft.to/lastmile_qr_scan", "ios": "https://dc.lft.to/lastmile_qr_scan"}, "fusion_lat": 0.0, "lat": 38.902709, "is_disabled": 0, "lon": -77.03441383333333, "is_reserved": 0}, {"bike_id": "2326d3fa3f9e3372814b1b2f3f624aaf", "fusion_lon": 0.0, "type": "electric_scooter", "name": "2326d3fa3f9e3372814b1b2f3f624aaf", "rental_uris": {"android": "https://dc.lft.to/lastmile_qr_scan", "ios": "https://dc.lft.to/lastmile_qr_scan"}, "fusion_lat": 0.0, "lat": 38.88501816666667, "is_disabled": 0, "lon": -77.03360866666667, "is_reserved": 0}, {"bike_id": "69c9489ce3f4f23f7f795a755f95dbef", "fusion_lon": 0.0, "type": "electric_scooter", "name": "69c9489ce3f4f23f7f795a755f95dbef", "rental_uris": {"android": "https://dc.lft.to/lastmile_qr_scan", "ios": "https://dc.lft.to/lastmile_qr_scan"}, "fusion_lat": 0.0, "lat": 38.9216025, "is_disabled": 0, "lon": -77.03388666666666, "is_reserved": 0}, {"bike_id": "a94fff706eb8e33de8bad875bc896a00", "fusion_lon": 0.0, "type": "electric_scooter", "name": "a94fff706eb8e33de8bad875bc896a00", "rental_uris": {"android": "https://dc.lft.to/lastmile_qr_scan", "ios": "https://dc.lft.to/lastmile_qr_scan"}, "fusion_lat": 0.0, "lat": 38.88298616666667, "is_disabled": 0, "lon": -76.94855316666667, "is_reserved": 0}, {"bike_id": "b146e5ada58c4d79eef4075db3e71875", "fusion_lon": 0.0, "type": "electric_scooter", "name": "b146e5ada58c4d79eef4075db3e71875", "rental_uris": {"android": "https://dc.lft.to/lastmile_qr_scan", "ios": "https://dc.lft.to/lastmile_qr_scan"}, "fusion_lat": 0.0, "lat": 38.89479816666667, "is_disabled": 0, "lon": -76.99520866666667, "is_reserved": 0}, {"bike_id": "074f81f69bd7075fb8b01bd93d275f0a", "fusion_lon": 0.0, "type": "electric_scooter", "name": "074f81f69bd7075fb8b01bd93d275f0a", "rental_uris": {"android": "https://dc.lft.to/lastmile_qr_scan", "ios": "https://dc.lft.to/lastmile_qr_scan"}, "fusion_lat": 0.0, "lat": 38.857572, "is_disabled": 0, "lon": -76.99322966666666, "is_reserved": 0}, {"bike_id": "9ef6004b4e577ea080d66a6ee7088eb3", "fusion_lon": 0.0, "type": "electric_scooter", "name": "9ef6004b4e577ea080d66a6ee7088eb3", "rental_uris": {"android": "https://dc.lft.to/lastmile_qr_scan", "ios": "https://dc.lft.to/lastmile_qr_scan"}, "fusion_lat": 0.0, "lat": 38.896911833333334, "is_disabled": 0, "lon": -76.9927265, "is_reserved": 0}, {"bike_id": "4318c73264246a8f6492c6ae6e9bbcb6", "fusion_lon": 0.0, "type": "electric_scooter", "name": "4318c73264246a8f6492c6ae6e9bbcb6", "rental_uris": {"android": "https://dc.lft.to/lastmile_qr_scan", "ios": "https://dc.lft.to/lastmile_qr_scan"}, "fusion_lat": 0.0, "lat": 38.898827833333335, "is_disabled": 0, "lon": -76.93176083333333, "is_reserved": 0}, {"bike_id": "0906b8d0cb4eafc9570189455b5ae2b9", "fusion_lon": 0.0, "type": "electric_scooter", "name": "0906b8d0cb4eafc9570189455b5ae2b9", "rental_uris": {"android": "https://dc.lft.to/lastmile_qr_scan", "ios": "https://dc.lft.to/lastmile_qr_scan"}, "fusion_lat": 0.0, "lat": 38.94415333333333, "is_disabled": 0, "lon": -77.05526333333333, "is_reserved": 0}, {"bike_id": "4b17cdbc6605de6278a659da9bd00103", "fusion_lon": 0.0, "type": "electric_scooter", "name": "4b17cdbc6605de6278a659da9bd00103", "rental_uris": {"android": "https://dc.lft.to/lastmile_qr_scan", "ios": "https://dc.lft.to/lastmile_qr_scan"}, "fusion_lat": 0.0, "lat": 38.8874535, "is_disabled": 0, "lon": -77.01742933333334, "is_reserved": 0}, {"bike_id": "f98b845fa3416f446f8ceac895790836", "fusion_lon": 0.0, "type": "electric_scooter", "name": "f98b845fa3416f446f8ceac895790836", "rental_uris": {"android": "https://dc.lft.to/lastmile_qr_scan", "ios": "https://dc.lft.to/lastmile_qr_scan"}, "fusion_lat": 0.0, "lat": 38.939039, "is_disabled": 0, "lon": -77.060524, "is_reserved": 0}, {"bike_id": "bd6fd0cb58d4ea100683118f252ca4f6", "fusion_lon": 0.0, "type": "electric_scooter", "name": "bd6fd0cb58d4ea100683118f252ca4f6", "rental_uris": {"android": "https://dc.lft.to/lastmile_qr_scan", "ios": "https://dc.lft.to/lastmile_qr_scan"}, "fusion_lat": 0.0, "lat": 38.931021, "is_disabled": 0, "lon": -77.024045, "is_reserved": 0}, {"bike_id": "ece55a9d27b6b4a9e1ebc6e3c57a2cfa", "fusion_lon": 0.0, "type": "electric_scooter", "name": "ece55a9d27b6b4a9e1ebc6e3c57a2cfa", "rental_uris": {"android": "https://dc.lft.to/lastmile_qr_scan", "ios": "https://dc.lft.to/lastmile_qr_scan"}, "fusion_lat": 0.0, "lat": 38.907787, "is_disabled": 0, "lon": -77.0640455, "is_reserved": 0}, {"bike_id": "f622ccdbf04ca6fb356208a8a9881a11", "fusion_lon": 0.0, "type": "electric_scooter", "name": "f622ccdbf04ca6fb356208a8a9881a11", "rental_uris": {"android": "https://dc.lft.to/lastmile_qr_scan", "ios": "https://dc.lft.to/lastmile_qr_scan"}, "fusion_lat": 0.0, "lat": 38.886572666666666, "is_disabled": 0, "lon": -77.03391466666666, "is_reserved": 0}, {"bike_id": "6fc99f1f891ab083d040fe3a2dd682db", "fusion_lon": 0.0, "type": "electric_scooter", "name": "6fc99f1f891ab083d040fe3a2dd682db", "rental_uris": {"android": "https://dc.lft.to/lastmile_qr_scan", "ios": "https://dc.lft.to/lastmile_qr_scan"}, "fusion_lat": 0.0, "lat": 38.9428155, "is_disabled": 0, "lon": -77.0293315, "is_reserved": 0}, {"bike_id": "81fdf68f7839ace7693270c8e6a41347", "fusion_lon": 0.0, "type": "electric_bike", "name": "81fdf68f7839ace7693270c8e6a41347", "rental_uris": {"android": "https://dc.lft.to/lastmile_qr_scan", "ios": "https://dc.lft.to/lastmile_qr_scan"}, "fusion_lat": 0.0, "lat": 38.86377383333333, "is_disabled": 0, "lon": -77.1290285, "is_reserved": 0}, {"bike_id": "bdf1e2c890bfd1f4dae5c99d217e6be4", "fusion_lon": 0.0, "type": "electric_scooter", "name": "bdf1e2c890bfd1f4dae5c99d217e6be4", "rental_uris": {"android": "https://dc.lft.to/lastmile_qr_scan", "ios": "https://dc.lft.to/lastmile_qr_scan"}, "fusion_lat": 0.0, "lat": 38.93669766666667, "is_disabled": 0, "lon": -77.03267316666667, "is_reserved": 0}, {"bike_id": "c2e87d6192af46ddf69c4293b042a251", "fusion_lon": 0.0, "type": "electric_scooter", "name": "c2e87d6192af46ddf69c4293b042a251", "rental_uris": {"android": "https://dc.lft.to/lastmile_qr_scan", "ios": "https://dc.lft.to/lastmile_qr_scan"}, "fusion_lat": 0.0, "lat": 38.90049416666667, "is_disabled": 0, "lon": -77.0448385, "is_reserved": 0}, {"bike_id": "8f9b9e918119077a3cdf45570d68b8e8", "fusion_lon": 0.0, "type": "electric_scooter", "name": "8f9b9e918119077a3cdf45570d68b8e8", "rental_uris": {"android": "https://dc.lft.to/lastmile_qr_scan", "ios": "https://dc.lft.to/lastmile_qr_scan"}, "fusion_lat": 0.0, "lat": 38.87919183333333, "is_disabled": 0, "lon": -77.00538133333333, "is_reserved": 0}, {"bike_id": "5e0d32c8162a7790f8f8f1bed2b78a2e", "fusion_lon": 0.0, "type": "electric_scooter", "name": "5e0d32c8162a7790f8f8f1bed2b78a2e", "rental_uris": {"android": "https://dc.lft.to/lastmile_qr_scan", "ios": "https://dc.lft.to/lastmile_qr_scan"}, "fusion_lat": 0.0, "lat": 38.911910166666665, "is_disabled": 0, "lon": -77.0385925, "is_reserved": 0}, {"bike_id": "2534c067f316e556482e52c7a7c64e00", "fusion_lon": 0.0, "type": "electric_bike", "name": "2534c067f316e556482e52c7a7c64e00", "rental_uris": {"android": "https://dc.lft.to/lastmile_qr_scan", "ios": "https://dc.lft.to/lastmile_qr_scan"}, "fusion_lat": 0.0, "lat": 38.90646516666666, "is_disabled": 0, "lon": -77.01145716666667, "is_reserved": 0}, {"bike_id": "4b77d404833bb463a662df2b04029513", "fusion_lon": 0.0, "type": "electric_scooter", "name": "4b77d404833bb463a662df2b04029513", "rental_uris": {"android": "https://dc.lft.to/lastmile_qr_scan", "ios": "https://dc.lft.to/lastmile_qr_scan"}, "fusion_lat": 0.0, "lat": 38.884456166666666, "is_disabled": 0, "lon": -77.0104515, "is_reserved": 0}, {"bike_id": "d028ceda3ac6422adaf4ea4dad790685", "fusion_lon": 0.0, "type": "electric_scooter", "name": "d028ceda3ac6422adaf4ea4dad790685", "rental_uris": {"android": "https://dc.lft.to/lastmile_qr_scan", "ios": "https://dc.lft.to/lastmile_qr_scan"}, "fusion_lat": 0.0, "lat": 38.896165333333336, "is_disabled": 0, "lon": -77.04467983333333, "is_reserved": 0}, {"bike_id": "f4f49fde756e05c7800a0ec5769633b1", "fusion_lon": 0.0, "type": "electric_scooter", "name": "f4f49fde756e05c7800a0ec5769633b1", "rental_uris": {"android": "https://dc.lft.to/lastmile_qr_scan", "ios": "https://dc.lft.to/lastmile_qr_scan"}, "fusion_lat": 0.0, "lat": 38.885907833333334, "is_disabled": 0, "lon": -76.95240733333333, "is_reserved": 0}, {"bike_id": "9a01b74947c2e9a296ca03cdd0c1665e", "fusion_lon": 0.0, "type": "electric_scooter", "name": "9a01b74947c2e9a296ca03cdd0c1665e", "rental_uris": {"android": "https://dc.lft.to/lastmile_qr_scan", "ios": "https://dc.lft.to/lastmile_qr_scan"}, "fusion_lat": 0.0, "lat": 38.92330366666667, "is_disabled": 0, "lon": -77.03618366666667, "is_reserved": 0}, {"bike_id": "7d152a30f50b6b56cd15e4f2582d98f8", "fusion_lon": 0.0, "type": "electric_scooter", "name": "7d152a30f50b6b56cd15e4f2582d98f8", "rental_uris": {"android": "https://dc.lft.to/lastmile_qr_scan", "ios": "https://dc.lft.to/lastmile_qr_scan"}, "fusion_lat": 0.0, "lat": 38.91137416666667, "is_disabled": 0, "lon": -76.99015033333333, "is_reserved": 0}, {"bike_id": "d07a6cd6cd282c3d299b1879376ab4d4", "fusion_lon": 0.0, "type": "electric_scooter", "name": "d07a6cd6cd282c3d299b1879376ab4d4", "rental_uris": {"android": "https://dc.lft.to/lastmile_qr_scan", "ios": "https://dc.lft.to/lastmile_qr_scan"}, "fusion_lat": 0.0, "lat": 38.92881766666667, "is_disabled": 0, "lon": -77.02703233333334, "is_reserved": 0}, {"bike_id": "b3c5c3f3a7b984aac7483bdc3f9078e4", "fusion_lon": 0.0, "type": "electric_scooter", "name": "b3c5c3f3a7b984aac7483bdc3f9078e4", "rental_uris": {"android": "https://dc.lft.to/lastmile_qr_scan", "ios": "https://dc.lft.to/lastmile_qr_scan"}, "fusion_lat": 0.0, "lat": 38.910422, "is_disabled": 0, "lon": -77.06460833333334, "is_reserved": 0}, {"bike_id": "0100aa9b57b3ad36cd8a50b3a5bb8dca", "fusion_lon": 0.0, "type": "electric_scooter", "name": "0100aa9b57b3ad36cd8a50b3a5bb8dca", "rental_uris": {"android": "https://dc.lft.to/lastmile_qr_scan", "ios": "https://dc.lft.to/lastmile_qr_scan"}, "fusion_lat": 0.0, "lat": 38.907096833333334, "is_disabled": 0, "lon": -77.02464583333334, "is_reserved": 0}, {"bike_id": "5b0516cb2b55c74285cfcbc0fe8c29f5", "fusion_lon": 0.0, "type": "electric_scooter", "name": "5b0516cb2b55c74285cfcbc0fe8c29f5", "rental_uris": {"android": "https://dc.lft.to/lastmile_qr_scan", "ios": "https://dc.lft.to/lastmile_qr_scan"}, "fusion_lat": 0.0, "lat": 38.90388, "is_disabled": 0, "lon": -76.979077, "is_reserved": 0}, {"bike_id": "c1cff1a602febd6d1e820f822b0daedf", "fusion_lon": 0.0, "type": "electric_scooter", "name": "c1cff1a602febd6d1e820f822b0daedf", "rental_uris": {"android": "https://dc.lft.to/lastmile_qr_scan", "ios": "https://dc.lft.to/lastmile_qr_scan"}, "fusion_lat": 0.0, "lat": 38.8793895, "is_disabled": 0, "lon": -77.017213, "is_reserved": 0}, {"bike_id": "3a4615601e976f0adaf7963e3ba7ea77", "fusion_lon": 0.0, "type": "electric_scooter", "name": "3a4615601e976f0adaf7963e3ba7ea77", "rental_uris": {"android": "https://dc.lft.to/lastmile_qr_scan", "ios": "https://dc.lft.to/lastmile_qr_scan"}, "fusion_lat": 0.0, "lat": 38.93338466666667, "is_disabled": 0, "lon": -76.99444183333334, "is_reserved": 0}, {"bike_id": "981e625c17e452bce7639f00b979ec64", "fusion_lon": 0.0, "type": "electric_scooter", "name": "981e625c17e452bce7639f00b979ec64", "rental_uris": {"android": "https://dc.lft.to/lastmile_qr_scan", "ios": "https://dc.lft.to/lastmile_qr_scan"}, "fusion_lat": 0.0, "lat": 38.904725166666665, "is_disabled": 0, "lon": -77.02000283333334, "is_reserved": 0}, {"bike_id": "02eeea28d930f014746ec2ab1187bb54", "fusion_lon": 0.0, "type": "electric_scooter", "name": "02eeea28d930f014746ec2ab1187bb54", "rental_uris": {"android": "https://dc.lft.to/lastmile_qr_scan", "ios": "https://dc.lft.to/lastmile_qr_scan"}, "fusion_lat": 0.0, "lat": 38.936657, "is_disabled": 0, "lon": -77.03265883333333, "is_reserved": 0}, {"bike_id": "a392cda46662dbebd93b2b014fd3861c", "fusion_lon": 0.0, "type": "electric_scooter", "name": "a392cda46662dbebd93b2b014fd3861c", "rental_uris": {"android": "https://dc.lft.to/lastmile_qr_scan", "ios": "https://dc.lft.to/lastmile_qr_scan"}, "fusion_lat": 0.0, "lat": 38.9236095, "is_disabled": 0, "lon": -77.05034033333334, "is_reserved": 0}, {"bike_id": "1ece67a594c1daccb521dd02b5407d02", "fusion_lon": 0.0, "type": "electric_scooter", "name": "1ece67a594c1daccb521dd02b5407d02", "rental_uris": {"android": "https://dc.lft.to/lastmile_qr_scan", "ios": "https://dc.lft.to/lastmile_qr_scan"}, "fusion_lat": 0.0, "lat": 38.901347333333334, "is_disabled": 0, "lon": -76.994197, "is_reserved": 0}, {"bike_id": "d2f1af211fbfc0fb857c5555c987a22a", "fusion_lon": 0.0, "type": "electric_scooter", "name": "d2f1af211fbfc0fb857c5555c987a22a", "rental_uris": {"android": "https://dc.lft.to/lastmile_qr_scan", "ios": "https://dc.lft.to/lastmile_qr_scan"}, "fusion_lat": 0.0, "lat": 38.9147615, "is_disabled": 0, "lon": -77.01455, "is_reserved": 0}, {"bike_id": "6ddf6acde8e01c97c9c595bd0c210c0b", "fusion_lon": 0.0, "type": "electric_scooter", "name": "6ddf6acde8e01c97c9c595bd0c210c0b", "rental_uris": {"android": "https://dc.lft.to/lastmile_qr_scan", "ios": "https://dc.lft.to/lastmile_qr_scan"}, "fusion_lat": 0.0, "lat": 38.89964466666667, "is_disabled": 0, "lon": -76.9343445, "is_reserved": 0}, {"bike_id": "7a89ff8aa003337f5bedf9129a60ea9e", "fusion_lon": 0.0, "type": "electric_bike", "name": "7a89ff8aa003337f5bedf9129a60ea9e", "rental_uris": {"android": "https://dc.lft.to/lastmile_qr_scan", "ios": "https://dc.lft.to/lastmile_qr_scan"}, "fusion_lat": 0.0, "lat": 38.90531933333333, "is_disabled": 0, "lon": -77.05764666666667, "is_reserved": 0}, {"bike_id": "90547d94697602a166393d1fe0ab468d", "fusion_lon": 0.0, "type": "electric_scooter", "name": "90547d94697602a166393d1fe0ab468d", "rental_uris": {"android": "https://dc.lft.to/lastmile_qr_scan", "ios": "https://dc.lft.to/lastmile_qr_scan"}, "fusion_lat": 0.0, "lat": 38.908031666666666, "is_disabled": 0, "lon": -77.0514755, "is_reserved": 0}, {"bike_id": "83aeb5cdfe9894c46302db5662aefada", "fusion_lon": 0.0, "type": "electric_scooter", "name": "83aeb5cdfe9894c46302db5662aefada", "rental_uris": {"android": "https://dc.lft.to/lastmile_qr_scan", "ios": "https://dc.lft.to/lastmile_qr_scan"}, "fusion_lat": 0.0, "lat": 38.90567, "is_disabled": 0, "lon": -77.02500683333334, "is_reserved": 0}, {"bike_id": "e3ac25ad3ed972e46d0c11a36175960d", "fusion_lon": 0.0, "type": "electric_bike", "name": "e3ac25ad3ed972e46d0c11a36175960d", "rental_uris": {"android": "https://dc.lft.to/lastmile_qr_scan", "ios": "https://dc.lft.to/lastmile_qr_scan"}, "fusion_lat": 0.0, "lat": 38.9526975, "is_disabled": 0, "lon": -77.06988233333334, "is_reserved": 0}, {"bike_id": "39d05980a9882d080beca37560960ae2", "fusion_lon": 0.0, "type": "electric_scooter", "name": "39d05980a9882d080beca37560960ae2", "rental_uris": {"android": "https://dc.lft.to/lastmile_qr_scan", "ios": "https://dc.lft.to/lastmile_qr_scan"}, "fusion_lat": 0.0, "lat": 38.93056416666667, "is_disabled": 0, "lon": -77.0417895, "is_reserved": 0}, {"bike_id": "88cce29e178124e14fd73fa97a8222f7", "fusion_lon": 0.0, "type": "electric_scooter", "name": "88cce29e178124e14fd73fa97a8222f7", "rental_uris": {"android": "https://dc.lft.to/lastmile_qr_scan", "ios": "https://dc.lft.to/lastmile_qr_scan"}, "fusion_lat": 0.0, "lat": 38.907359666666665, "is_disabled": 0, "lon": -77.02187616666667, "is_reserved": 0}, {"bike_id": "31d3aa9208fb397b4cd9ec90a3a74025", "fusion_lon": 0.0, "type": "electric_scooter", "name": "31d3aa9208fb397b4cd9ec90a3a74025", "rental_uris": {"android": "https://dc.lft.to/lastmile_qr_scan", "ios": "https://dc.lft.to/lastmile_qr_scan"}, "fusion_lat": 0.0, "lat": 38.90960166666667, "is_disabled": 0, "lon": -77.02385666666666, "is_reserved": 0}, {"bike_id": "98d1ba0f1f51f45c646622ed67356f7c", "fusion_lon": 0.0, "type": "electric_bike", "name": "98d1ba0f1f51f45c646622ed67356f7c", "rental_uris": {"android": "https://dc.lft.to/lastmile_qr_scan", "ios": "https://dc.lft.to/lastmile_qr_scan"}, "fusion_lat": 0.0, "lat": 38.85432616666667, "is_disabled": 0, "lon": -76.90973716666667, "is_reserved": 0}, {"bike_id": "bc01744f38f03543f81828a35eaa5399", "fusion_lon": 0.0, "type": "electric_scooter", "name": "bc01744f38f03543f81828a35eaa5399", "rental_uris": {"android": "https://dc.lft.to/lastmile_qr_scan", "ios": "https://dc.lft.to/lastmile_qr_scan"}, "fusion_lat": 0.0, "lat": 38.917637666666664, "is_disabled": 0, "lon": -77.02714816666666, "is_reserved": 0}, {"bike_id": "96edf2055fa8e560f6733204c8b45907", "fusion_lon": 0.0, "type": "electric_scooter", "name": "96edf2055fa8e560f6733204c8b45907", "rental_uris": {"android": "https://dc.lft.to/lastmile_qr_scan", "ios": "https://dc.lft.to/lastmile_qr_scan"}, "fusion_lat": 0.0, "lat": 38.91180816666667, "is_disabled": 0, "lon": -77.03191133333333, "is_reserved": 0}, {"bike_id": "b8a6bb50c939a4132f7f74bb43b7b3cb", "fusion_lon": 0.0, "type": "electric_scooter", "name": "b8a6bb50c939a4132f7f74bb43b7b3cb", "rental_uris": {"android": "https://dc.lft.to/lastmile_qr_scan", "ios": "https://dc.lft.to/lastmile_qr_scan"}, "fusion_lat": 0.0, "lat": 38.909705833333334, "is_disabled": 0, "lon": -77.03727616666667, "is_reserved": 0}, {"bike_id": "f8fa2de6afdeaf586703c9d46d4a4dd1", "fusion_lon": 0.0, "type": "electric_bike", "name": "f8fa2de6afdeaf586703c9d46d4a4dd1", "rental_uris": {"android": "https://dc.lft.to/lastmile_qr_scan", "ios": "https://dc.lft.to/lastmile_qr_scan"}, "fusion_lat": 0.0, "lat": 39.088411, "is_disabled": 0, "lon": -77.17803816666667, "is_reserved": 0}, {"bike_id": "20923aa782662824ae4a7bf86a9a746d", "fusion_lon": 0.0, "type": "electric_bike", "name": "20923aa782662824ae4a7bf86a9a746d", "rental_uris": {"android": "https://dc.lft.to/lastmile_qr_scan", "ios": "https://dc.lft.to/lastmile_qr_scan"}, "fusion_lat": 0.0, "lat": 38.85621016666666, "is_disabled": 0, "lon": -77.08541533333333, "is_reserved": 0}, {"bike_id": "ec665c8da430bb8937d91c754f6c3135", "fusion_lon": 0.0, "type": "electric_scooter", "name": "ec665c8da430bb8937d91c754f6c3135", "rental_uris": {"android": "https://dc.lft.to/lastmile_qr_scan", "ios": "https://dc.lft.to/lastmile_qr_scan"}, "fusion_lat": 0.0, "lat": 38.86675133333333, "is_disabled": 0, "lon": -76.98887633333334, "is_reserved": 0}, {"bike_id": "f2f7b7432947cef17479d6e0b6f25d43", "fusion_lon": 0.0, "type": "electric_scooter", "name": "f2f7b7432947cef17479d6e0b6f25d43", "rental_uris": {"android": "https://dc.lft.to/lastmile_qr_scan", "ios": "https://dc.lft.to/lastmile_qr_scan"}, "fusion_lat": 0.0, "lat": 38.950662, "is_disabled": 0, "lon": -77.0653825, "is_reserved": 0}, {"bike_id": "85bdafee2f8e7acb20f2ce5a574a5674", "fusion_lon": 0.0, "type": "electric_scooter", "name": "85bdafee2f8e7acb20f2ce5a574a5674", "rental_uris": {"android": "https://dc.lft.to/lastmile_qr_scan", "ios": "https://dc.lft.to/lastmile_qr_scan"}, "fusion_lat": 0.0, "lat": 38.89268333333333, "is_disabled": 0, "lon": -77.0204045, "is_reserved": 0}, {"bike_id": "63441eb5d197e29b227f7183784b9c91", "fusion_lon": 0.0, "type": "electric_bike", "name": "63441eb5d197e29b227f7183784b9c91", "rental_uris": {"android": "https://dc.lft.to/lastmile_qr_scan", "ios": "https://dc.lft.to/lastmile_qr_scan"}, "fusion_lat": 0.0, "lat": 38.962207, "is_disabled": 0, "lon": -77.02633883333333, "is_reserved": 0}, {"bike_id": "f43ec1b03396bdc45cfcf10e53814922", "fusion_lon": 0.0, "type": "electric_scooter", "name": "f43ec1b03396bdc45cfcf10e53814922", "rental_uris": {"android": "https://dc.lft.to/lastmile_qr_scan", "ios": "https://dc.lft.to/lastmile_qr_scan"}, "fusion_lat": 0.0, "lat": 38.91347533333333, "is_disabled": 0, "lon": -77.03972033333334, "is_reserved": 0}, {"bike_id": "2132a690d94df70b35232c43d375f31b", "fusion_lon": 0.0, "type": "electric_scooter", "name": "2132a690d94df70b35232c43d375f31b", "rental_uris": {"android": "https://dc.lft.to/lastmile_qr_scan", "ios": "https://dc.lft.to/lastmile_qr_scan"}, "fusion_lat": 0.0, "lat": 38.93249733333333, "is_disabled": 0, "lon": -77.029511, "is_reserved": 0}, {"bike_id": "37480486f2e43fff62872308da3c7d8a", "fusion_lon": 0.0, "type": "electric_scooter", "name": "37480486f2e43fff62872308da3c7d8a", "rental_uris": {"android": "https://dc.lft.to/lastmile_qr_scan", "ios": "https://dc.lft.to/lastmile_qr_scan"}, "fusion_lat": 0.0, "lat": 38.885041333333334, "is_disabled": 0, "lon": -77.03359633333334, "is_reserved": 0}, {"bike_id": "13816af32e483b3a4ea0b31a5fe20f40", "fusion_lon": 0.0, "type": "electric_scooter", "name": "13816af32e483b3a4ea0b31a5fe20f40", "rental_uris": {"android": "https://dc.lft.to/lastmile_qr_scan", "ios": "https://dc.lft.to/lastmile_qr_scan"}, "fusion_lat": 0.0, "lat": 38.95657516666667, "is_disabled": 0, "lon": -77.03336133333333, "is_reserved": 0}, {"bike_id": "e31d9a80d6b4c1d00ad9f867db9d7f85", "fusion_lon": 0.0, "type": "electric_scooter", "name": "e31d9a80d6b4c1d00ad9f867db9d7f85", "rental_uris": {"android": "https://dc.lft.to/lastmile_qr_scan", "ios": "https://dc.lft.to/lastmile_qr_scan"}, "fusion_lat": 0.0, "lat": 38.940962166666665, "is_disabled": 0, "lon": -77.0254415, "is_reserved": 0}, {"bike_id": "34aa57370d3a6510d2c9bf14410641f7", "fusion_lon": 0.0, "type": "electric_scooter", "name": "34aa57370d3a6510d2c9bf14410641f7", "rental_uris": {"android": "https://dc.lft.to/lastmile_qr_scan", "ios": "https://dc.lft.to/lastmile_qr_scan"}, "fusion_lat": 0.0, "lat": 38.90728383333333, "is_disabled": 0, "lon": -77.034536, "is_reserved": 0}, {"bike_id": "c1aa8e2cb995b4e7b65113bfac7fe3cc", "fusion_lon": 0.0, "type": "electric_scooter", "name": "c1aa8e2cb995b4e7b65113bfac7fe3cc", "rental_uris": {"android": "https://dc.lft.to/lastmile_qr_scan", "ios": "https://dc.lft.to/lastmile_qr_scan"}, "fusion_lat": 0.0, "lat": 38.885979, "is_disabled": 0, "lon": -76.99457933333333, "is_reserved": 0}, {"bike_id": "118ed895a6103574aa0947f0cd9a7de4", "fusion_lon": 0.0, "type": "electric_scooter", "name": "118ed895a6103574aa0947f0cd9a7de4", "rental_uris": {"android": "https://dc.lft.to/lastmile_qr_scan", "ios": "https://dc.lft.to/lastmile_qr_scan"}, "fusion_lat": 0.0, "lat": 38.909525333333335, "is_disabled": 0, "lon": -77.02388283333333, "is_reserved": 0}, {"bike_id": "fca6a1e30b048f183a00f7a4e0f19245", "fusion_lon": 0.0, "type": "electric_scooter", "name": "fca6a1e30b048f183a00f7a4e0f19245", "rental_uris": {"android": "https://dc.lft.to/lastmile_qr_scan", "ios": "https://dc.lft.to/lastmile_qr_scan"}, "fusion_lat": 0.0, "lat": 38.86710383333333, "is_disabled": 0, "lon": -76.98736966666667, "is_reserved": 0}, {"bike_id": "1cefe14223f67589b1c9d87780860179", "fusion_lon": 0.0, "type": "electric_scooter", "name": "1cefe14223f67589b1c9d87780860179", "rental_uris": {"android": "https://dc.lft.to/lastmile_qr_scan", "ios": "https://dc.lft.to/lastmile_qr_scan"}, "fusion_lat": 0.0, "lat": 38.900042, "is_disabled": 0, "lon": -77.01976716666667, "is_reserved": 0}, {"bike_id": "ec0fd0e54d2476f2512c972f4fb8fd36", "fusion_lon": 0.0, "type": "electric_scooter", "name": "ec0fd0e54d2476f2512c972f4fb8fd36", "rental_uris": {"android": "https://dc.lft.to/lastmile_qr_scan", "ios": "https://dc.lft.to/lastmile_qr_scan"}, "fusion_lat": 0.0, "lat": 38.92294, "is_disabled": 0, "lon": -77.036425, "is_reserved": 0}, {"bike_id": "f5fa5b1e06338e2ddbd0ea874346a9ae", "fusion_lon": 0.0, "type": "electric_scooter", "name": "f5fa5b1e06338e2ddbd0ea874346a9ae", "rental_uris": {"android": "https://dc.lft.to/lastmile_qr_scan", "ios": "https://dc.lft.to/lastmile_qr_scan"}, "fusion_lat": 0.0, "lat": 38.90266233333333, "is_disabled": 0, "lon": -77.03199633333334, "is_reserved": 0}, {"bike_id": "fbd7116337cbefb7140995a0aa85483a", "fusion_lon": 0.0, "type": "electric_scooter", "name": "fbd7116337cbefb7140995a0aa85483a", "rental_uris": {"android": "https://dc.lft.to/lastmile_qr_scan", "ios": "https://dc.lft.to/lastmile_qr_scan"}, "fusion_lat": 0.0, "lat": 38.909485833333335, "is_disabled": 0, "lon": -77.03213066666666, "is_reserved": 0}, {"bike_id": "943bef3961ebd011675183b9304b3eaa", "fusion_lon": 0.0, "type": "electric_scooter", "name": "943bef3961ebd011675183b9304b3eaa", "rental_uris": {"android": "https://dc.lft.to/lastmile_qr_scan", "ios": "https://dc.lft.to/lastmile_qr_scan"}, "fusion_lat": 0.0, "lat": 38.91493766666667, "is_disabled": 0, "lon": -77.012114, "is_reserved": 0}, {"bike_id": "6b223c724f71d7c29a15a3641b85144b", "fusion_lon": 0.0, "type": "electric_scooter", "name": "6b223c724f71d7c29a15a3641b85144b", "rental_uris": {"android": "https://dc.lft.to/lastmile_qr_scan", "ios": "https://dc.lft.to/lastmile_qr_scan"}, "fusion_lat": 0.0, "lat": 38.896181, "is_disabled": 0, "lon": -76.99937583333333, "is_reserved": 0}, {"bike_id": "abbdd0606ba4cf8ca6feb74a388ad050", "fusion_lon": 0.0, "type": "electric_scooter", "name": "abbdd0606ba4cf8ca6feb74a388ad050", "rental_uris": {"android": "https://dc.lft.to/lastmile_qr_scan", "ios": "https://dc.lft.to/lastmile_qr_scan"}, "fusion_lat": 0.0, "lat": 38.88458166666667, "is_disabled": 0, "lon": -77.02363133333333, "is_reserved": 0}, {"bike_id": "23f718e2ba32330710603617debf1ffb", "fusion_lon": 0.0, "type": "electric_scooter", "name": "23f718e2ba32330710603617debf1ffb", "rental_uris": {"android": "https://dc.lft.to/lastmile_qr_scan", "ios": "https://dc.lft.to/lastmile_qr_scan"}, "fusion_lat": 0.0, "lat": 38.9584455, "is_disabled": 0, "lon": -77.02908683333334, "is_reserved": 0}, {"bike_id": "e8c39091625212a9aa73ada5518f5b41", "fusion_lon": 0.0, "type": "electric_bike", "name": "e8c39091625212a9aa73ada5518f5b41", "rental_uris": {"android": "https://dc.lft.to/lastmile_qr_scan", "ios": "https://dc.lft.to/lastmile_qr_scan"}, "fusion_lat": 0.0, "lat": 38.90969183333333, "is_disabled": 0, "lon": -77.08827583333333, "is_reserved": 0}, {"bike_id": "1aa7efeb18fd211ca17fd982ddfcfe08", "fusion_lon": 0.0, "type": "electric_scooter", "name": "1aa7efeb18fd211ca17fd982ddfcfe08", "rental_uris": {"android": "https://dc.lft.to/lastmile_qr_scan", "ios": "https://dc.lft.to/lastmile_qr_scan"}, "fusion_lat": 0.0, "lat": 38.92387133333333, "is_disabled": 0, "lon": -77.04087683333333, "is_reserved": 0}, {"bike_id": "b3b74de7b49b46156eed7b988f54ab50", "fusion_lon": 0.0, "type": "electric_scooter", "name": "b3b74de7b49b46156eed7b988f54ab50", "rental_uris": {"android": "https://dc.lft.to/lastmile_qr_scan", "ios": "https://dc.lft.to/lastmile_qr_scan"}, "fusion_lat": 0.0, "lat": 38.92440333333333, "is_disabled": 0, "lon": -77.03896933333333, "is_reserved": 0}, {"bike_id": "280593a1e05e2b97ceb554926b525cfd", "fusion_lon": 0.0, "type": "electric_scooter", "name": "280593a1e05e2b97ceb554926b525cfd", "rental_uris": {"android": "https://dc.lft.to/lastmile_qr_scan", "ios": "https://dc.lft.to/lastmile_qr_scan"}, "fusion_lat": 0.0, "lat": 38.91214383333333, "is_disabled": 0, "lon": -77.03783066666666, "is_reserved": 0}, {"bike_id": "5454fb8d002ec84b98962cadceaa59f4", "fusion_lon": 0.0, "type": "electric_bike", "name": "5454fb8d002ec84b98962cadceaa59f4", "rental_uris": {"android": "https://dc.lft.to/lastmile_qr_scan", "ios": "https://dc.lft.to/lastmile_qr_scan"}, "fusion_lat": 0.0, "lat": 38.892349, "is_disabled": 0, "lon": -77.01789266666667, "is_reserved": 0}, {"bike_id": "b098fe06d88113be72b78ddd0e7a3f39", "fusion_lon": 0.0, "type": "electric_scooter", "name": "b098fe06d88113be72b78ddd0e7a3f39", "rental_uris": {"android": "https://dc.lft.to/lastmile_qr_scan", "ios": "https://dc.lft.to/lastmile_qr_scan"}, "fusion_lat": 0.0, "lat": 38.911797, "is_disabled": 0, "lon": -77.00558933333333, "is_reserved": 0}, {"bike_id": "ab7e5abde7ab3f10ef854c99430a1577", "fusion_lon": 0.0, "type": "electric_scooter", "name": "ab7e5abde7ab3f10ef854c99430a1577", "rental_uris": {"android": "https://dc.lft.to/lastmile_qr_scan", "ios": "https://dc.lft.to/lastmile_qr_scan"}, "fusion_lat": 0.0, "lat": 38.935621166666664, "is_disabled": 0, "lon": -77.02137266666666, "is_reserved": 0}, {"bike_id": "e6064eb5c6600b588d893eafb2a0a84c", "fusion_lon": 0.0, "type": "electric_scooter", "name": "e6064eb5c6600b588d893eafb2a0a84c", "rental_uris": {"android": "https://dc.lft.to/lastmile_qr_scan", "ios": "https://dc.lft.to/lastmile_qr_scan"}, "fusion_lat": 0.0, "lat": 38.92978933333333, "is_disabled": 0, "lon": -77.031876, "is_reserved": 0}, {"bike_id": "0b86e0ac373bd9ac0be560c712b6e936", "fusion_lon": 0.0, "type": "electric_scooter", "name": "0b86e0ac373bd9ac0be560c712b6e936", "rental_uris": {"android": "https://dc.lft.to/lastmile_qr_scan", "ios": "https://dc.lft.to/lastmile_qr_scan"}, "fusion_lat": 0.0, "lat": 38.84289033333334, "is_disabled": 0, "lon": -76.99951466666667, "is_reserved": 0}, {"bike_id": "2f2e2c12caf7f87fc17c8f69f957c09d", "fusion_lon": 0.0, "type": "electric_scooter", "name": "2f2e2c12caf7f87fc17c8f69f957c09d", "rental_uris": {"android": "https://dc.lft.to/lastmile_qr_scan", "ios": "https://dc.lft.to/lastmile_qr_scan"}, "fusion_lat": 0.0, "lat": 38.89831066666667, "is_disabled": 0, "lon": -77.0332515, "is_reserved": 0}, {"bike_id": "c7d58c278dee8a67259650ab623670ff", "fusion_lon": 0.0, "type": "electric_scooter", "name": "c7d58c278dee8a67259650ab623670ff", "rental_uris": {"android": "https://dc.lft.to/lastmile_qr_scan", "ios": "https://dc.lft.to/lastmile_qr_scan"}, "fusion_lat": 0.0, "lat": 38.92916016666667, "is_disabled": 0, "lon": -77.02095933333334, "is_reserved": 0}, {"bike_id": "7f765fac230df9e6494a5c6cf40df7c8", "fusion_lon": 0.0, "type": "electric_scooter", "name": "7f765fac230df9e6494a5c6cf40df7c8", "rental_uris": {"android": "https://dc.lft.to/lastmile_qr_scan", "ios": "https://dc.lft.to/lastmile_qr_scan"}, "fusion_lat": 0.0, "lat": 38.949255666666666, "is_disabled": 0, "lon": -77.01935133333333, "is_reserved": 0}, {"bike_id": "7f8fa58b8e89254724d57f5b9778df39", "fusion_lon": 0.0, "type": "electric_scooter", "name": "7f8fa58b8e89254724d57f5b9778df39", "rental_uris": {"android": "https://dc.lft.to/lastmile_qr_scan", "ios": "https://dc.lft.to/lastmile_qr_scan"}, "fusion_lat": 0.0, "lat": 38.877135333333335, "is_disabled": 0, "lon": -77.0181355, "is_reserved": 0}, {"bike_id": "4050c1ec5f66ffc304411aebd946ebde", "fusion_lon": 0.0, "type": "electric_scooter", "name": "4050c1ec5f66ffc304411aebd946ebde", "rental_uris": {"android": "https://dc.lft.to/lastmile_qr_scan", "ios": "https://dc.lft.to/lastmile_qr_scan"}, "fusion_lat": 0.0, "lat": 38.872016333333335, "is_disabled": 0, "lon": -77.01247733333334, "is_reserved": 0}, {"bike_id": "95b337d62ce77eaf042e3f248ce4042c", "fusion_lon": 0.0, "type": "electric_scooter", "name": "95b337d62ce77eaf042e3f248ce4042c", "rental_uris": {"android": "https://dc.lft.to/lastmile_qr_scan", "ios": "https://dc.lft.to/lastmile_qr_scan"}, "fusion_lat": 0.0, "lat": 38.908454666666664, "is_disabled": 0, "lon": -77.0269795, "is_reserved": 0}, {"bike_id": "de1dfeac21694b27bc4f69d9b9b52d27", "fusion_lon": 0.0, "type": "electric_scooter", "name": "de1dfeac21694b27bc4f69d9b9b52d27", "rental_uris": {"android": "https://dc.lft.to/lastmile_qr_scan", "ios": "https://dc.lft.to/lastmile_qr_scan"}, "fusion_lat": 0.0, "lat": 38.924591166666666, "is_disabled": 0, "lon": -77.02159433333334, "is_reserved": 0}, {"bike_id": "7c5f84ee8cc8980da3735f5bd89f7fd8", "fusion_lon": 0.0, "type": "electric_scooter", "name": "7c5f84ee8cc8980da3735f5bd89f7fd8", "rental_uris": {"android": "https://dc.lft.to/lastmile_qr_scan", "ios": "https://dc.lft.to/lastmile_qr_scan"}, "fusion_lat": 0.0, "lat": 38.90778133333333, "is_disabled": 0, "lon": -77.04513116666666, "is_reserved": 0}, {"bike_id": "40ab29f47db6831793bba46d2fb25137", "fusion_lon": 0.0, "type": "electric_scooter", "name": "40ab29f47db6831793bba46d2fb25137", "rental_uris": {"android": "https://dc.lft.to/lastmile_qr_scan", "ios": "https://dc.lft.to/lastmile_qr_scan"}, "fusion_lat": 0.0, "lat": 38.924187, "is_disabled": 0, "lon": -77.02010383333334, "is_reserved": 0}, {"bike_id": "a882e0aa1a4116eccbe2f97900f6c33e", "fusion_lon": 0.0, "type": "electric_scooter", "name": "a882e0aa1a4116eccbe2f97900f6c33e", "rental_uris": {"android": "https://dc.lft.to/lastmile_qr_scan", "ios": "https://dc.lft.to/lastmile_qr_scan"}, "fusion_lat": 0.0, "lat": 38.9520765, "is_disabled": 0, "lon": -77.06785683333334, "is_reserved": 0}, {"bike_id": "03ee57e7a7f1845fd635e6366990710a", "fusion_lon": 0.0, "type": "electric_scooter", "name": "03ee57e7a7f1845fd635e6366990710a", "rental_uris": {"android": "https://dc.lft.to/lastmile_qr_scan", "ios": "https://dc.lft.to/lastmile_qr_scan"}, "fusion_lat": 0.0, "lat": 38.9140135, "is_disabled": 0, "lon": -77.0418215, "is_reserved": 0}, {"bike_id": "5b0e6650fa610b367ba80420510409af", "fusion_lon": 0.0, "type": "electric_scooter", "name": "5b0e6650fa610b367ba80420510409af", "rental_uris": {"android": "https://dc.lft.to/lastmile_qr_scan", "ios": "https://dc.lft.to/lastmile_qr_scan"}, "fusion_lat": 0.0, "lat": 38.955188666666665, "is_disabled": 0, "lon": -77.00742583333333, "is_reserved": 0}, {"bike_id": "e5f080505834924a8aa533368097d711", "fusion_lon": 0.0, "type": "electric_scooter", "name": "e5f080505834924a8aa533368097d711", "rental_uris": {"android": "https://dc.lft.to/lastmile_qr_scan", "ios": "https://dc.lft.to/lastmile_qr_scan"}, "fusion_lat": 0.0, "lat": 38.9287325, "is_disabled": 0, "lon": -77.02817966666667, "is_reserved": 0}, {"bike_id": "faf3f95f2b5d91455aa4ab567afc07e1", "fusion_lon": 0.0, "type": "electric_scooter", "name": "faf3f95f2b5d91455aa4ab567afc07e1", "rental_uris": {"android": "https://dc.lft.to/lastmile_qr_scan", "ios": "https://dc.lft.to/lastmile_qr_scan"}, "fusion_lat": 0.0, "lat": 38.93039133333333, "is_disabled": 0, "lon": -77.03294166666667, "is_reserved": 0}, {"bike_id": "b991c46731d24483d112b572faae186f", "fusion_lon": 0.0, "type": "electric_bike", "name": "b991c46731d24483d112b572faae186f", "rental_uris": {"android": "https://dc.lft.to/lastmile_qr_scan", "ios": "https://dc.lft.to/lastmile_qr_scan"}, "fusion_lat": 0.0, "lat": 38.935581166666665, "is_disabled": 0, "lon": -77.03694133333333, "is_reserved": 0}, {"bike_id": "67341ef85dcf399f93b344f9ba83d47b", "fusion_lon": 0.0, "type": "electric_scooter", "name": "67341ef85dcf399f93b344f9ba83d47b", "rental_uris": {"android": "https://dc.lft.to/lastmile_qr_scan", "ios": "https://dc.lft.to/lastmile_qr_scan"}, "fusion_lat": 0.0, "lat": 38.90531683333333, "is_disabled": 0, "lon": -77.00698966666667, "is_reserved": 0}, {"bike_id": "1e1959208cd0562f8450b4d9f96178e7", "fusion_lon": 0.0, "type": "electric_bike", "name": "1e1959208cd0562f8450b4d9f96178e7", "rental_uris": {"android": "https://dc.lft.to/lastmile_qr_scan", "ios": "https://dc.lft.to/lastmile_qr_scan"}, "fusion_lat": 0.0, "lat": 39.02421983333333, "is_disabled": 0, "lon": -77.12508783333334, "is_reserved": 0}, {"bike_id": "c0242d07e5e13bf8cdce07726e58f3ca", "fusion_lon": 0.0, "type": "electric_scooter", "name": "c0242d07e5e13bf8cdce07726e58f3ca", "rental_uris": {"android": "https://dc.lft.to/lastmile_qr_scan", "ios": "https://dc.lft.to/lastmile_qr_scan"}, "fusion_lat": 0.0, "lat": 38.918460833333334, "is_disabled": 0, "lon": -76.96559183333333, "is_reserved": 0}, {"bike_id": "7988c0f08fbb96964ef028049f1278b5", "fusion_lon": 0.0, "type": "electric_scooter", "name": "7988c0f08fbb96964ef028049f1278b5", "rental_uris": {"android": "https://dc.lft.to/lastmile_qr_scan", "ios": "https://dc.lft.to/lastmile_qr_scan"}, "fusion_lat": 0.0, "lat": 38.921057833333336, "is_disabled": 0, "lon": -77.01774033333334, "is_reserved": 0}, {"bike_id": "9ee7a17c92821fca8d3d6660a326a6df", "fusion_lon": 0.0, "type": "electric_scooter", "name": "9ee7a17c92821fca8d3d6660a326a6df", "rental_uris": {"android": "https://dc.lft.to/lastmile_qr_scan", "ios": "https://dc.lft.to/lastmile_qr_scan"}, "fusion_lat": 0.0, "lat": 38.866973, "is_disabled": 0, "lon": -76.98716583333334, "is_reserved": 0}, {"bike_id": "404525c8a1c23206a354481bdcb63b11", "fusion_lon": 0.0, "type": "electric_scooter", "name": "404525c8a1c23206a354481bdcb63b11", "rental_uris": {"android": "https://dc.lft.to/lastmile_qr_scan", "ios": "https://dc.lft.to/lastmile_qr_scan"}, "fusion_lat": 0.0, "lat": 38.88023966666667, "is_disabled": 0, "lon": -77.02181216666666, "is_reserved": 0}, {"bike_id": "233227b29d2175cb08203b11f6f2e735", "fusion_lon": 0.0, "type": "electric_scooter", "name": "233227b29d2175cb08203b11f6f2e735", "rental_uris": {"android": "https://dc.lft.to/lastmile_qr_scan", "ios": "https://dc.lft.to/lastmile_qr_scan"}, "fusion_lat": 0.0, "lat": 38.905080166666664, "is_disabled": 0, "lon": -77.00170983333334, "is_reserved": 0}, {"bike_id": "2d356c0cafe9a6d138e485168b5201d2", "fusion_lon": 0.0, "type": "electric_scooter", "name": "2d356c0cafe9a6d138e485168b5201d2", "rental_uris": {"android": "https://dc.lft.to/lastmile_qr_scan", "ios": "https://dc.lft.to/lastmile_qr_scan"}, "fusion_lat": 0.0, "lat": 38.91665316666667, "is_disabled": 0, "lon": -77.03215533333334, "is_reserved": 0}, {"bike_id": "f287e8bcd134bf9ec37410d8dcc60200", "fusion_lon": 0.0, "type": "electric_scooter", "name": "f287e8bcd134bf9ec37410d8dcc60200", "rental_uris": {"android": "https://dc.lft.to/lastmile_qr_scan", "ios": "https://dc.lft.to/lastmile_qr_scan"}, "fusion_lat": 0.0, "lat": 38.886229166666666, "is_disabled": 0, "lon": -77.03180283333333, "is_reserved": 0}, {"bike_id": "2f44d349e154aec59eb834589897c08c", "fusion_lon": 0.0, "type": "electric_scooter", "name": "2f44d349e154aec59eb834589897c08c", "rental_uris": {"android": "https://dc.lft.to/lastmile_qr_scan", "ios": "https://dc.lft.to/lastmile_qr_scan"}, "fusion_lat": 0.0, "lat": 38.9168645, "is_disabled": 0, "lon": -77.03778866666667, "is_reserved": 0}, {"bike_id": "0fcee0ac2f1e619557b2a4f8eaa20936", "fusion_lon": 0.0, "type": "electric_scooter", "name": "0fcee0ac2f1e619557b2a4f8eaa20936", "rental_uris": {"android": "https://dc.lft.to/lastmile_qr_scan", "ios": "https://dc.lft.to/lastmile_qr_scan"}, "fusion_lat": 0.0, "lat": 38.90281383333333, "is_disabled": 0, "lon": -77.02202833333334, "is_reserved": 0}, {"bike_id": "6fbffdfaede4f8e114ccf981edc84cba", "fusion_lon": 0.0, "type": "electric_scooter", "name": "6fbffdfaede4f8e114ccf981edc84cba", "rental_uris": {"android": "https://dc.lft.to/lastmile_qr_scan", "ios": "https://dc.lft.to/lastmile_qr_scan"}, "fusion_lat": 0.0, "lat": 38.90425966666667, "is_disabled": 0, "lon": -77.032622, "is_reserved": 0}, {"bike_id": "59accc4275fec33e6a4ef2106f3b2dc7", "fusion_lon": 0.0, "type": "electric_scooter", "name": "59accc4275fec33e6a4ef2106f3b2dc7", "rental_uris": {"android": "https://dc.lft.to/lastmile_qr_scan", "ios": "https://dc.lft.to/lastmile_qr_scan"}, "fusion_lat": 0.0, "lat": 38.89329133333333, "is_disabled": 0, "lon": -77.04658083333334, "is_reserved": 0}, {"bike_id": "41b6a85d6e42a10134c87c7cbb65dd3d", "fusion_lon": 0.0, "type": "electric_scooter", "name": "41b6a85d6e42a10134c87c7cbb65dd3d", "rental_uris": {"android": "https://dc.lft.to/lastmile_qr_scan", "ios": "https://dc.lft.to/lastmile_qr_scan"}, "fusion_lat": 0.0, "lat": 38.941600666666666, "is_disabled": 0, "lon": -77.02559183333334, "is_reserved": 0}, {"bike_id": "8c77a9eececacc6e51b9dd8c24722859", "fusion_lon": 0.0, "type": "electric_scooter", "name": "8c77a9eececacc6e51b9dd8c24722859", "rental_uris": {"android": "https://dc.lft.to/lastmile_qr_scan", "ios": "https://dc.lft.to/lastmile_qr_scan"}, "fusion_lat": 0.0, "lat": 38.898854166666666, "is_disabled": 0, "lon": -76.931752, "is_reserved": 0}, {"bike_id": "9be25bb6010ad09bb2e0576758847c59", "fusion_lon": 0.0, "type": "electric_scooter", "name": "9be25bb6010ad09bb2e0576758847c59", "rental_uris": {"android": "https://dc.lft.to/lastmile_qr_scan", "ios": "https://dc.lft.to/lastmile_qr_scan"}, "fusion_lat": 0.0, "lat": 38.92343783333333, "is_disabled": 0, "lon": -77.04399533333333, "is_reserved": 0}, {"bike_id": "a47a7056d51121cbd4c26d65cde565e2", "fusion_lon": 0.0, "type": "electric_scooter", "name": "a47a7056d51121cbd4c26d65cde565e2", "rental_uris": {"android": "https://dc.lft.to/lastmile_qr_scan", "ios": "https://dc.lft.to/lastmile_qr_scan"}, "fusion_lat": 0.0, "lat": 38.86217416666667, "is_disabled": 0, "lon": -76.99493066666666, "is_reserved": 0}, {"bike_id": "c760982a8f9dbd83d7c145c891adbdeb", "fusion_lon": 0.0, "type": "electric_scooter", "name": "c760982a8f9dbd83d7c145c891adbdeb", "rental_uris": {"android": "https://dc.lft.to/lastmile_qr_scan", "ios": "https://dc.lft.to/lastmile_qr_scan"}, "fusion_lat": 0.0, "lat": 38.962288666666666, "is_disabled": 0, "lon": -77.02979516666667, "is_reserved": 0}, {"bike_id": "d36fa902d711a9f6dd8cd9d4ba74b131", "fusion_lon": 0.0, "type": "electric_bike", "name": "d36fa902d711a9f6dd8cd9d4ba74b131", "rental_uris": {"android": "https://dc.lft.to/lastmile_qr_scan", "ios": "https://dc.lft.to/lastmile_qr_scan"}, "fusion_lat": 0.0, "lat": 38.852069, "is_disabled": 0, "lon": -77.10130816666667, "is_reserved": 0}, {"bike_id": "9c0ba665e740d8a15cd106bc5f06b91b", "fusion_lon": 0.0, "type": "electric_scooter", "name": "9c0ba665e740d8a15cd106bc5f06b91b", "rental_uris": {"android": "https://dc.lft.to/lastmile_qr_scan", "ios": "https://dc.lft.to/lastmile_qr_scan"}, "fusion_lat": 0.0, "lat": 38.906849333333334, "is_disabled": 0, "lon": -77.06137483333333, "is_reserved": 0}, {"bike_id": "0e824289cf4e0b2ef83cef4c0c269646", "fusion_lon": 0.0, "type": "electric_scooter", "name": "0e824289cf4e0b2ef83cef4c0c269646", "rental_uris": {"android": "https://dc.lft.to/lastmile_qr_scan", "ios": "https://dc.lft.to/lastmile_qr_scan"}, "fusion_lat": 0.0, "lat": 38.87637616666667, "is_disabled": 0, "lon": -77.0056885, "is_reserved": 0}, {"bike_id": "4ab20a958ba6a697d4f444cf3dc10eaf", "fusion_lon": 0.0, "type": "electric_bike", "name": "4ab20a958ba6a697d4f444cf3dc10eaf", "rental_uris": {"android": "https://dc.lft.to/lastmile_qr_scan", "ios": "https://dc.lft.to/lastmile_qr_scan"}, "fusion_lat": 0.0, "lat": 38.907601166666666, "is_disabled": 0, "lon": -77.04485366666667, "is_reserved": 0}, {"bike_id": "e4db62d86489cf2f8efe44683d917333", "fusion_lon": 0.0, "type": "electric_scooter", "name": "e4db62d86489cf2f8efe44683d917333", "rental_uris": {"android": "https://dc.lft.to/lastmile_qr_scan", "ios": "https://dc.lft.to/lastmile_qr_scan"}, "fusion_lat": 0.0, "lat": 38.90408333333333, "is_disabled": 0, "lon": -77.001404, "is_reserved": 0}, {"bike_id": "a442c918b1dcee54e7f6d8299f4bd80b", "fusion_lon": 0.0, "type": "electric_scooter", "name": "a442c918b1dcee54e7f6d8299f4bd80b", "rental_uris": {"android": "https://dc.lft.to/lastmile_qr_scan", "ios": "https://dc.lft.to/lastmile_qr_scan"}, "fusion_lat": 0.0, "lat": 38.90383666666666, "is_disabled": 0, "lon": -77.0164325, "is_reserved": 0}, {"bike_id": "1f501aad0eed7cfbc586cda0001d11c8", "fusion_lon": 0.0, "type": "electric_scooter", "name": "1f501aad0eed7cfbc586cda0001d11c8", "rental_uris": {"android": "https://dc.lft.to/lastmile_qr_scan", "ios": "https://dc.lft.to/lastmile_qr_scan"}, "fusion_lat": 0.0, "lat": 38.877031, "is_disabled": 0, "lon": -77.017418, "is_reserved": 0}, {"bike_id": "b83f2c7be88473c30be72d9bc43c580e", "fusion_lon": 0.0, "type": "electric_bike", "name": "b83f2c7be88473c30be72d9bc43c580e", "rental_uris": {"android": "https://dc.lft.to/lastmile_qr_scan", "ios": "https://dc.lft.to/lastmile_qr_scan"}, "fusion_lat": 0.0, "lat": 38.891821166666666, "is_disabled": 0, "lon": -76.95031633333333, "is_reserved": 0}, {"bike_id": "c45f352a13178ad0707c1254d94c35d6", "fusion_lon": 0.0, "type": "electric_scooter", "name": "c45f352a13178ad0707c1254d94c35d6", "rental_uris": {"android": "https://dc.lft.to/lastmile_qr_scan", "ios": "https://dc.lft.to/lastmile_qr_scan"}, "fusion_lat": 0.0, "lat": 38.90409666666667, "is_disabled": 0, "lon": -77.001388, "is_reserved": 0}, {"bike_id": "f44b71202e5fa6212aa3be61bb81d23e", "fusion_lon": 0.0, "type": "electric_scooter", "name": "f44b71202e5fa6212aa3be61bb81d23e", "rental_uris": {"android": "https://dc.lft.to/lastmile_qr_scan", "ios": "https://dc.lft.to/lastmile_qr_scan"}, "fusion_lat": 0.0, "lat": 38.90490366666667, "is_disabled": 0, "lon": -76.9868705, "is_reserved": 0}, {"bike_id": "3c7b9d2c772575eef8dd98f5e4dc865a", "fusion_lon": 0.0, "type": "electric_scooter", "name": "3c7b9d2c772575eef8dd98f5e4dc865a", "rental_uris": {"android": "https://dc.lft.to/lastmile_qr_scan", "ios": "https://dc.lft.to/lastmile_qr_scan"}, "fusion_lat": 0.0, "lat": 38.9047905, "is_disabled": 0, "lon": -76.97330666666667, "is_reserved": 0}, {"bike_id": "9903338db4d3ebcd0ee8215044216a63", "fusion_lon": 0.0, "type": "electric_bike", "name": "9903338db4d3ebcd0ee8215044216a63", "rental_uris": {"android": "https://dc.lft.to/lastmile_qr_scan", "ios": "https://dc.lft.to/lastmile_qr_scan"}, "fusion_lat": 0.0, "lat": 38.96306033333333, "is_disabled": 0, "lon": -77.0110865, "is_reserved": 0}, {"bike_id": "75b3fe47114310719c0aa2583b33fe2e", "fusion_lon": 0.0, "type": "electric_scooter", "name": "75b3fe47114310719c0aa2583b33fe2e", "rental_uris": {"android": "https://dc.lft.to/lastmile_qr_scan", "ios": "https://dc.lft.to/lastmile_qr_scan"}, "fusion_lat": 0.0, "lat": 38.90260583333333, "is_disabled": 0, "lon": -77.0346135, "is_reserved": 0}, {"bike_id": "a93e112508a9246ff685eb763b87f54c", "fusion_lon": 0.0, "type": "electric_scooter", "name": "a93e112508a9246ff685eb763b87f54c", "rental_uris": {"android": "https://dc.lft.to/lastmile_qr_scan", "ios": "https://dc.lft.to/lastmile_qr_scan"}, "fusion_lat": 0.0, "lat": 38.918124166666665, "is_disabled": 0, "lon": -77.04005816666667, "is_reserved": 0}, {"bike_id": "496809195e10eae71cd13962f48f8e96", "fusion_lon": 0.0, "type": "electric_scooter", "name": "496809195e10eae71cd13962f48f8e96", "rental_uris": {"android": "https://dc.lft.to/lastmile_qr_scan", "ios": "https://dc.lft.to/lastmile_qr_scan"}, "fusion_lat": 0.0, "lat": 38.9154395, "is_disabled": 0, "lon": -77.03850433333334, "is_reserved": 0},