{"data": {"bikes": [{"rental_uris": {"android": "https://dc.lft.to/lastmile_qr_scan", "ios": "https://dc.lft.to/lastmile_qr_scan"}, "fusion_lat": 0.0, "is_reserved": 0, "lat": 38.905632, "name": "5359680d7c54cb3f21efd5715fc0deb0", "bike_id": "5359680d7c54cb3f21efd5715fc0deb0", "is_disabled": 0, "fusion_lon": 0.0, "type": "electric_scooter", "lon": -77.04665633333333}, {"rental_uris": {"android": "https://dc.lft.to/lastmile_qr_scan", "ios": "https://dc.lft.to/lastmile_qr_scan"}, "fusion_lat": 0.0, "is_reserved": 0, "lat": 38.91635933333333, "name": "aba76ff40455b3da5d05c88522c9f63d", "bike_id": "aba76ff40455b3da5d05c88522c9f63d", "is_disabled": 0, "fusion_lon": 0.0, "type": "electric_scooter", "lon": -77.04811966666666}, {"rental_uris": {"android": "https://dc.lft.to/lastmile_qr_scan", "ios": "https://dc.lft.to/lastmile_qr_scan"}, "fusion_lat": 0.0, "is_reserved": 0, "lat": 38.91355, "name": "be21ca207b99dff8a13dcbb8ce2d7ad1", "bike_id": "be21ca207b99dff8a13dcbb8ce2d7ad1", "is_disabled": 0, "fusion_lon": 0.0, "type": "electric_scooter", "lon": -77.03355266666667}, {"rental_uris": {"android": "https://dc.lft.to/lastmile_qr_scan", "ios": "https://dc.lft.to/lastmile_qr_scan"}, "fusion_lat": 0.0, "is_reserved": 0, "lat": 38.92125033333333, "name": "d86e3d2d8daf7c5a07f768057e34b6ce", "bike_id": "d86e3d2d8daf7c5a07f768057e34b6ce", "is_disabled": 0, "fusion_lon": 0.0, "type": "electric_scooter", "lon": -77.03657416666667}, {"rental_uris": {"android": "https://dc.lft.to/lastmile_qr_scan", "ios": "https://dc.lft.to/lastmile_qr_scan"}, "fusion_lat": 0.0, "is_reserved": 0, "lat": 38.904075, "name": "137e5717283433b1c427359fef668c1f", "bike_id": "137e5717283433b1c427359fef668c1f", "is_disabled": 0, "fusion_lon": 0.0, "type": "electric_scooter", "lon": -77.017891}, {"rental_uris": {"android": "https://dc.lft.to/lastmile_qr_scan", "ios": "https://dc.lft.to/lastmile_qr_scan"}, "fusion_lat": 0.0, "is_reserved": 0, "lat": 38.87180583333333, "name": "b15c7fc2b23786a09f998428a145af25", "bike_id": "b15c7fc2b23786a09f998428a145af25", "is_disabled": 0, "fusion_lon": 0.0, "type": "electric_scooter", "lon": -77.0061205}, {"rental_uris": {"android": "https://dc.lft.to/lastmile_qr_scan", "ios": "https://dc.lft.to/lastmile_qr_scan"}, "fusion_lat": 0.0, "is_reserved": 0, "lat": 38.91806416666667, "name": "3fb54c297b43742859ac9eb17c6ec970", "bike_id": "3fb54c297b43742859ac9eb17c6ec970", "is_disabled": 0, "fusion_lon": 0.0, "type": "electric_scooter", "lon": -77.03307583333333}, {"rental_uris": {"android": "https://dc.lft.to/lastmile_qr_scan", "ios": "https://dc.lft.to/lastmile_qr_scan"}, "fusion_lat": 0.0, "is_reserved": 0, "lat": 38.92073716666667, "name": "af8a31cf56ae887bb43ed32bcb9c0f5f", "bike_id": "af8a31cf56ae887bb43ed32bcb9c0f5f", "is_disabled": 0, "fusion_lon": 0.0, "type": "electric_scooter", "lon": -77.02315416666667}, {"rental_uris": {"android": "https://dc.lft.to/lastmile_qr_scan", "ios": "https://dc.lft.to/lastmile_qr_scan"}, "fusion_lat": 0.0, "is_reserved": 0, "lat": 38.913321333333336, "name": "6c734df297e560503d006be1f0364ac6", "bike_id": "6c734df297e560503d006be1f0364ac6", "is_disabled": 0, "fusion_lon": 0.0, "type": "electric_scooter", "lon": -77.0114995}, {"rental_uris": {"android": "https://dc.lft.to/lastmile_qr_scan", "ios": "https://dc.lft.to/lastmile_qr_scan"}, "fusion_lat": 0.0, "is_reserved": 0, "lat": 38.910374, "name": "5306402b7fbd29cc108960ec63cfd19a", "bike_id": "5306402b7fbd29cc108960ec63cfd19a", "is_disabled": 0, "fusion_lon": 0.0, "type": "electric_scooter", "lon": -77.02930083333334}, {"rental_uris": {"android": "https://dc.lft.to/lastmile_qr_scan", "ios": "https://dc.lft.to/lastmile_qr_scan"}, "fusion_lat": 0.0, "is_reserved": 0, "lat": 38.9046235, "name": "29ba02835186b14a498afe25250e9f96", "bike_id": "29ba02835186b14a498afe25250e9f96", "is_disabled": 0, "fusion_lon": 0.0, "type": "electric_scooter", "lon": -77.0356045}, {"rental_uris": {"android": "https://dc.lft.to/lastmile_qr_scan", "ios": "https://dc.lft.to/lastmile_qr_scan"}, "fusion_lat": 0.0, "is_reserved": 0, "lat": 38.897279833333336, "name": "66a4a09fac669621cf0d7dd6593f55eb", "bike_id": "66a4a09fac669621cf0d7dd6593f55eb", "is_disabled": 0, "fusion_lon": 0.0, "type": "electric_scooter", "lon": -77.055265}, {"rental_uris": {"android": "https://dc.lft.to/lastmile_qr_scan", "ios": "https://dc.lft.to/lastmile_qr_scan"}, "fusion_lat": 0.0, "is_reserved": 0, "lat": 38.94203983333333, "name": "7fbfab07d21d84a8f81d8a0d8f4f494b", "bike_id": "7fbfab07d21d84a8f81d8a0d8f4f494b", "is_disabled": 0, "fusion_lon": 0.0, "type": "electric_scooter", "lon": -77.02378316666666}, {"rental_uris": {"android": "https://dc.lft.to/lastmile_qr_scan", "ios": "https://dc.lft.to/lastmile_qr_scan"}, "fusion_lat": 0.0, "is_reserved": 0, "lat": 38.90262833333333, "name": "f2f868cb178ac2d8121c38990b22c4d8", "bike_id": "f2f868cb178ac2d8121c38990b22c4d8", "is_disabled": 0, "fusion_lon": 0.0, "type": "electric_scooter", "lon": -77.0182795}, {"rental_uris": {"android": "https://dc.lft.to/lastmile_qr_scan", "ios": "https://dc.lft.to/lastmile_qr_scan"}, "fusion_lat": 0.0, "is_reserved": 0, "lat": 38.932619833333334, "name": "9e2bbaf7693b8b2d125ecef2ac75d76a", "bike_id": "9e2bbaf7693b8b2d125ecef2ac75d76a", "is_disabled": 0, "fusion_lon": 0.0, "type": "electric_scooter", "lon": -77.02093733333334}, {"rental_uris": {"android": "https://dc.lft.to/lastmile_qr_scan", "ios": "https://dc.lft.to/lastmile_qr_scan"}, "fusion_lat": 0.0, "is_reserved": 0, "lat": 38.886038666666664, "name": "977893e6fc324b32d05cdeee25a2542d", "bike_id": "977893e6fc324b32d05cdeee25a2542d", "is_disabled": 0, "fusion_lon": 0.0, "type": "electric_bike", "lon": -77.1423425}, {"rental_uris": {"android": "https://dc.lft.to/lastmile_qr_scan", "ios": "https://dc.lft.to/lastmile_qr_scan"}, "fusion_lat": 0.0, "is_reserved": 0, "lat": 38.908493666666665, "name": "52d6ae1b9aefaaca7a8049c2721a9dfd", "bike_id": "52d6ae1b9aefaaca7a8049c2721a9dfd", "is_disabled": 0, "fusion_lon": 0.0, "type": "electric_scooter", "lon": -77.00198283333333}, {"rental_uris": {"android": "https://dc.lft.to/lastmile_qr_scan", "ios": "https://dc.lft.to/lastmile_qr_scan"}, "fusion_lat": 0.0, "is_reserved": 0, "lat": 38.92128483333333, "name": "32d7b917d4909e1e7dd3797f5e9a6c20", "bike_id": "32d7b917d4909e1e7dd3797f5e9a6c20", "is_disabled": 0, "fusion_lon": 0.0, "type": "electric_scooter", "lon": -77.04580583333333}, {"rental_uris": {"android": "https://dc.lft.to/lastmile_qr_scan", "ios": "https://dc.lft.to/lastmile_qr_scan"}, "fusion_lat": 0.0, "is_reserved": 0, "lat": 38.88511316666666, "name": "92b5e7a1100a78608145060e7dc4500b", "bike_id": "92b5e7a1100a78608145060e7dc4500b", "is_disabled": 0, "fusion_lon": 0.0, "type": "electric_scooter", "lon": -77.01117}, {"rental_uris": {"android": "https://dc.lft.to/lastmile_qr_scan", "ios": "https://dc.lft.to/lastmile_qr_scan"}, "fusion_lat": 0.0, "is_reserved": 0, "lat": 38.90511983333333, "name": "2c5b1170052321734055b9a18e3aa2b9", "bike_id": "2c5b1170052321734055b9a18e3aa2b9", "is_disabled": 0, "fusion_lon": 0.0, "type": "electric_scooter", "lon": -76.9995655}, {"rental_uris": {"android": "https://dc.lft.to/lastmile_qr_scan", "ios": "https://dc.lft.to/lastmile_qr_scan"}, "fusion_lat": 0.0, "is_reserved": 0, "lat": 38.892316666666666, "name": "60d5918b63b188a4fe44c7f382e0311a", "bike_id": "60d5918b63b188a4fe44c7f382e0311a", "is_disabled": 0, "fusion_lon": 0.0, "type": "electric_scooter", "lon": -77.05001}, {"rental_uris": {"android": "https://dc.lft.to/lastmile_qr_scan", "ios": "https://dc.lft.to/lastmile_qr_scan"}, "fusion_lat": 0.0, "is_reserved": 0, "lat": 38.91691483333334, "name": "6a583333bcdbbfa9a477cbc7acb8a9fd", "bike_id": "6a583333bcdbbfa9a477cbc7acb8a9fd", "is_disabled": 0, "fusion_lon": 0.0, "type": "electric_scooter", "lon": -77.02597116666666}, {"rental_uris": {"android": "https://dc.lft.to/lastmile_qr_scan", "ios": "https://dc.lft.to/lastmile_qr_scan"}, "fusion_lat": 0.0, "is_reserved": 0, "lat": 38.902571333333334, "name": "98478eff13a4a45a9b47581c6d68382c", "bike_id": "98478eff13a4a45a9b47581c6d68382c", "is_disabled": 0, "fusion_lon": 0.0, "type": "electric_scooter", "lon": -77.01912933333334}, {"rental_uris": {"android": "https://dc.lft.to/lastmile_qr_scan", "ios": "https://dc.lft.to/lastmile_qr_scan"}, "fusion_lat": 0.0, "is_reserved": 0, "lat": 38.94669233333333, "name": "c98254908cc154a799004d9c7e1716d6", "bike_id": "c98254908cc154a799004d9c7e1716d6", "is_disabled": 0, "fusion_lon": 0.0, "type": "electric_bike", "lon": -76.993394}, {"rental_uris": {"android": "https://dc.lft.to/lastmile_qr_scan", "ios": "https://dc.lft.to/lastmile_qr_scan"}, "fusion_lat": 0.0, "is_reserved": 0, "lat": 38.930445666666664, "name": "facc743e52270395c8ac49e578b1f31c", "bike_id": "facc743e52270395c8ac49e578b1f31c", "is_disabled": 0, "fusion_lon": 0.0, "type": "electric_scooter", "lon": -77.01228333333333}, {"rental_uris": {"android": "https://dc.lft.to/lastmile_qr_scan", "ios": "https://dc.lft.to/lastmile_qr_scan"}, "fusion_lat": 0.0, "is_reserved": 0, "lat": 38.931529166666664, "name": "60828aa96fcd9b435074273e4ef98b75", "bike_id": "60828aa96fcd9b435074273e4ef98b75", "is_disabled": 0, "fusion_lon": 0.0, "type": "electric_scooter", "lon": -77.07843766666667}, {"rental_uris": {"android": "https://dc.lft.to/lastmile_qr_scan", "ios": "https://dc.lft.to/lastmile_qr_scan"}, "fusion_lat": 0.0, "is_reserved": 0, "lat": 38.913397833333335, "name": "bc7c459f2fc162a0d3a0f53ee452357c", "bike_id": "bc7c459f2fc162a0d3a0f53ee452357c", "is_disabled": 0, "fusion_lon": 0.0, "type": "electric_scooter", "lon": -77.04270583333333}, {"rental_uris": {"android": "https://dc.lft.to/lastmile_qr_scan", "ios": "https://dc.lft.to/lastmile_qr_scan"}, "fusion_lat": 0.0, "is_reserved": 0, "lat": 38.912675, "name": "1143219873519e56d86194ee5853b5cc", "bike_id": "1143219873519e56d86194ee5853b5cc", "is_disabled": 0, "fusion_lon": 0.0, "type": "electric_scooter", "lon": -77.022161}, {"rental_uris": {"android": "https://dc.lft.to/lastmile_qr_scan", "ios": "https://dc.lft.to/lastmile_qr_scan"}, "fusion_lat": 0.0, "is_reserved": 0, "lat": 38.932634666666665, "name": "3ac1273f292c0d20947863888a71d167", "bike_id": "3ac1273f292c0d20947863888a71d167", "is_disabled": 0, "fusion_lon": 0.0, "type": "electric_scooter", "lon": -77.03457}, {"rental_uris": {"android": "https://dc.lft.to/lastmile_qr_scan", "ios": "https://dc.lft.to/lastmile_qr_scan"}, "fusion_lat": 0.0, "is_reserved": 0, "lat": 38.9274315, "name": "6ab442788f0c1cc57a2d29f017287601", "bike_id": "6ab442788f0c1cc57a2d29f017287601", "is_disabled": 0, "fusion_lon": 0.0, "type": "electric_scooter", "lon": -77.0326225}, {"rental_uris": {"android": "https://dc.lft.to/lastmile_qr_scan", "ios": "https://dc.lft.to/lastmile_qr_scan"}, "fusion_lat": 0.0, "is_reserved": 0, "lat": 38.943088333333336, "name": "aa17f902a2e023000c6f7ceae136f575", "bike_id": "aa17f902a2e023000c6f7ceae136f575", "is_disabled": 0, "fusion_lon": 0.0, "type": "electric_scooter", "lon": -77.05929066666667}, {"rental_uris": {"android": "https://dc.lft.to/lastmile_qr_scan", "ios": "https://dc.lft.to/lastmile_qr_scan"}, "fusion_lat": 0.0, "is_reserved": 0, "lat": 38.92332233333333, "name": "f512302eedb6a119e7361b331b8d5be7", "bike_id": "f512302eedb6a119e7361b331b8d5be7", "is_disabled": 0, "fusion_lon": 0.0, "type": "electric_scooter", "lon": -77.0462135}, {"rental_uris": {"android": "https://dc.lft.to/lastmile_qr_scan", "ios": "https://dc.lft.to/lastmile_qr_scan"}, "fusion_lat": 0.0, "is_reserved": 0, "lat": 38.92283483333333, "name": "5aba48bcccdf01bf133b73ce735015af", "bike_id": "5aba48bcccdf01bf133b73ce735015af", "is_disabled": 0, "fusion_lon": 0.0, "type": "electric_scooter", "lon": -77.03662133333333}, {"rental_uris": {"android": "https://dc.lft.to/lastmile_qr_scan", "ios": "https://dc.lft.to/lastmile_qr_scan"}, "fusion_lat": 0.0, "is_reserved": 0, "lat": 38.90237716666667, "name": "25b67dd4b9f9ac390779a11dc5d06e18", "bike_id": "25b67dd4b9f9ac390779a11dc5d06e18", "is_disabled": 0, "fusion_lon": 0.0, "type": "electric_scooter", "lon": -77.00197666666666}, {"rental_uris": {"android": "https://dc.lft.to/lastmile_qr_scan", "ios": "https://dc.lft.to/lastmile_qr_scan"}, "fusion_lat": 0.0, "is_reserved": 0, "lat": 38.91926, "name": "2a51068b3a17639a252935c637dd85b3", "bike_id": "2a51068b3a17639a252935c637dd85b3", "is_disabled": 0, "fusion_lon": 0.0, "type": "electric_scooter", "lon": -77.04626066666667}, {"rental_uris": {"android": "https://dc.lft.to/lastmile_qr_scan", "ios": "https://dc.lft.to/lastmile_qr_scan"}, "fusion_lat": 0.0, "is_reserved": 0, "lat": 38.90786966666667, "name": "cbcfb21338aabd43502df41825db13eb", "bike_id": "cbcfb21338aabd43502df41825db13eb", "is_disabled": 0, "fusion_lon": 0.0, "type": "electric_scooter", "lon": -76.99418566666667}, {"rental_uris": {"android": "https://dc.lft.to/lastmile_qr_scan", "ios": "https://dc.lft.to/lastmile_qr_scan"}, "fusion_lat": 0.0, "is_reserved": 0, "lat": 38.905404833333336, "name": "90092dfd7469adbb1b97ae4e4a011abe", "bike_id": "90092dfd7469adbb1b97ae4e4a011abe", "is_disabled": 0, "fusion_lon": 0.0, "type": "electric_scooter", "lon": -77.005977}, {"rental_uris": {"android": "https://dc.lft.to/lastmile_qr_scan", "ios": "https://dc.lft.to/lastmile_qr_scan"}, "fusion_lat": 0.0, "is_reserved": 0, "lat": 38.8490415, "name": "9f546103bfc2377105875751e70dafe6", "bike_id": "9f546103bfc2377105875751e70dafe6", "is_disabled": 0, "fusion_lon": 0.0, "type": "electric_bike", "lon": -77.0781065}, {"rental_uris": {"android": "https://dc.lft.to/lastmile_qr_scan", "ios": "https://dc.lft.to/lastmile_qr_scan"}, "fusion_lat": 0.0, "is_reserved": 0, "lat": 38.8973935, "name": "6d18ddeef66577fdb0c4cd47e6d97166", "bike_id": "6d18ddeef66577fdb0c4cd47e6d97166", "is_disabled": 0, "fusion_lon": 0.0, "type": "electric_scooter", "lon": -77.01673183333334}, {"rental_uris": {"android": "https://dc.lft.to/lastmile_qr_scan", "ios": "https://dc.lft.to/lastmile_qr_scan"}, "fusion_lat": 0.0, "is_reserved": 0, "lat": 38.8997375, "name": "ca7a9e9c4ba7b6054c444662dc7a8c73", "bike_id": "ca7a9e9c4ba7b6054c444662dc7a8c73", "is_disabled": 0, "fusion_lon": 0.0, "type": "electric_scooter", "lon": -77.02715483333333}, {"rental_uris": {"android": "https://dc.lft.to/lastmile_qr_scan", "ios": "https://dc.lft.to/lastmile_qr_scan"}, "fusion_lat": 0.0, "is_reserved": 0, "lat": 38.893415166666664, "name": "4178e7d7c98c4583cf96ed722e09f360", "bike_id": "4178e7d7c98c4583cf96ed722e09f360", "is_disabled": 0, "fusion_lon": 0.0, "type": "electric_scooter", "lon": -76.99381833333334}, {"rental_uris": {"android": "https://dc.lft.to/lastmile_qr_scan", "ios": "https://dc.lft.to/lastmile_qr_scan"}, "fusion_lat": 0.0, "is_reserved": 0, "lat": 38.906163, "name": "ec0f3954f4a896e78a0b080021dcda36", "bike_id": "ec0f3954f4a896e78a0b080021dcda36", "is_disabled": 0, "fusion_lon": 0.0, "type": "electric_scooter", "lon": -77.02591383333333}, {"rental_uris": {"android": "https://dc.lft.to/lastmile_qr_scan", "ios": "https://dc.lft.to/lastmile_qr_scan"}, "fusion_lat": 0.0, "is_reserved": 0, "lat": 38.900535166666664, "name": "02f0a4e321eb209e4a432ee20345041f", "bike_id": "02f0a4e321eb209e4a432ee20345041f", "is_disabled": 0, "fusion_lon": 0.0, "type": "electric_scooter", "lon": -77.04831733333333}, {"rental_uris": {"android": "https://dc.lft.to/lastmile_qr_scan", "ios": "https://dc.lft.to/lastmile_qr_scan"}, "fusion_lat": 0.0, "is_reserved": 0, "lat": 38.916076, "name": "0cd8aa3505c90b0cd993778a3d22c86c", "bike_id": "0cd8aa3505c90b0cd993778a3d22c86c", "is_disabled": 0, "fusion_lon": 0.0, "type": "electric_scooter", "lon": -77.023995}, {"rental_uris": {"android": "https://dc.lft.to/lastmile_qr_scan", "ios": "https://dc.lft.to/lastmile_qr_scan"}, "fusion_lat": 0.0, "is_reserved": 0, "lat": 38.91713016666667, "name": "b515c0da561be775dbb2218808205114", "bike_id": "b515c0da561be775dbb2218808205114", "is_disabled": 0, "fusion_lon": 0.0, "type": "electric_scooter", "lon": -77.03337733333333}, {"rental_uris": {"android": "https://dc.lft.to/lastmile_qr_scan", "ios": "https://dc.lft.to/lastmile_qr_scan"}, "fusion_lat": 0.0, "is_reserved": 0, "lat": 38.93255766666667, "name": "3547d594208b71fe4ccc0f746981ee60", "bike_id": "3547d594208b71fe4ccc0f746981ee60", "is_disabled": 0, "fusion_lon": 0.0, "type": "electric_scooter", "lon": -77.03098166666666}, {"rental_uris": {"android": "https://dc.lft.to/lastmile_qr_scan", "ios": "https://dc.lft.to/lastmile_qr_scan"}, "fusion_lat": 0.0, "is_reserved": 0, "lat": 38.91817983333333, "name": "83c0c7294426a4e7c9afce57d2cb8c56", "bike_id": "83c0c7294426a4e7c9afce57d2cb8c56", "is_disabled": 0, "fusion_lon": 0.0, "type": "electric_scooter", "lon": -77.03986183333333}, {"rental_uris": {"android": "https://dc.lft.to/lastmile_qr_scan", "ios": "https://dc.lft.to/lastmile_qr_scan"}, "fusion_lat": 0.0, "is_reserved": 0, "lat": 38.918157, "name": "efdf09fee3dc2d104b9f5db6a3861270", "bike_id": "efdf09fee3dc2d104b9f5db6a3861270", "is_disabled": 0, "fusion_lon": 0.0, "type": "electric_scooter", "lon": -77.02481566666667}, {"rental_uris": {"android": "https://dc.lft.to/lastmile_qr_scan", "ios": "https://dc.lft.to/lastmile_qr_scan"}, "fusion_lat": 0.0, "is_reserved": 0, "lat": 38.9057165, "name": "e1ee9a9304826b69f5a672a260373a94", "bike_id": "e1ee9a9304826b69f5a672a260373a94", "is_disabled": 0, "fusion_lon": 0.0, "type": "electric_scooter", "lon": -77.02421616666666}, {"rental_uris": {"android": "https://dc.lft.to/lastmile_qr_scan", "ios": "https://dc.lft.to/lastmile_qr_scan"}, "fusion_lat": 0.0, "is_reserved": 0, "lat": 38.870748666666664, "name": "d09130705e60fe874e92e7ef5c64d2c3", "bike_id": "d09130705e60fe874e92e7ef5c64d2c3", "is_disabled": 0, "fusion_lon": 0.0, "type": "electric_bike", "lon": -77.11048816666667}, {"rental_uris": {"android": "https://dc.lft.to/lastmile_qr_scan", "ios": "https://dc.lft.to/lastmile_qr_scan"}, "fusion_lat": 0.0, "is_reserved": 0, "lat": 38.883401666666664, "name": "6b460d90915f7f652343614325f4df04", "bike_id": "6b460d90915f7f652343614325f4df04", "is_disabled": 0, "fusion_lon": 0.0, "type": "electric_scooter", "lon": -76.9428945}, {"rental_uris": {"android": "https://dc.lft.to/lastmile_qr_scan", "ios": "https://dc.lft.to/lastmile_qr_scan"}, "fusion_lat": 0.0, "is_reserved": 0, "lat": 38.87932966666666, "name": "d68a176c89144c554cabf0de1a576f44", "bike_id": "d68a176c89144c554cabf0de1a576f44", "is_disabled": 0, "fusion_lon": 0.0, "type": "electric_scooter", "lon": -77.0037825}, {"rental_uris": {"android": "https://dc.lft.to/lastmile_qr_scan", "ios": "https://dc.lft.to/lastmile_qr_scan"}, "fusion_lat": 0.0, "is_reserved": 0, "lat": 38.91709016666667, "name": "95571aaf861039b0c52464a3c8680f1d", "bike_id": "95571aaf861039b0c52464a3c8680f1d", "is_disabled": 0, "fusion_lon": 0.0, "type": "electric_scooter", "lon": -77.034551}, {"rental_uris": {"android": "https://dc.lft.to/lastmile_qr_scan", "ios": "https://dc.lft.to/lastmile_qr_scan"}, "fusion_lat": 0.0, "is_reserved": 0, "lat": 38.884402, "name": "c3b5494835ecea1e0ab98af55022294c", "bike_id": "c3b5494835ecea1e0ab98af55022294c", "is_disabled": 0, "fusion_lon": 0.0, "type": "electric_scooter", "lon": -77.0254795}, {"rental_uris": {"android": "https://dc.lft.to/lastmile_qr_scan", "ios": "https://dc.lft.to/lastmile_qr_scan"}, "fusion_lat": 0.0, "is_reserved": 0, "lat": 38.911931833333334, "name": "1fc9365b59da076725a156905be9e925", "bike_id": "1fc9365b59da076725a156905be9e925", "is_disabled": 0, "fusion_lon": 0.0, "type": "electric_scooter", "lon": -77.03832866666667}, {"rental_uris": {"android": "https://dc.lft.to/lastmile_qr_scan", "ios": "https://dc.lft.to/lastmile_qr_scan"}, "fusion_lat": 0.0, "is_reserved": 0, "lat": 38.902461833333334, "name": "e9462a3067717a877f7065731c3a2c13", "bike_id": "e9462a3067717a877f7065731c3a2c13", "is_disabled": 0, "fusion_lon": 0.0, "type": "electric_scooter", "lon": -77.01521566666666}, {"rental_uris": {"android": "https://dc.lft.to/lastmile_qr_scan", "ios": "https://dc.lft.to/lastmile_qr_scan"}, "fusion_lat": 0.0, "is_reserved": 0, "lat": 38.9130815, "name": "57668d2e666798244753a5c6998cdbce", "bike_id": "57668d2e666798244753a5c6998cdbce", "is_disabled": 0, "fusion_lon": 0.0, "type": "electric_scooter", "lon": -77.0234155}, {"rental_uris": {"android": "https://dc.lft.to/lastmile_qr_scan", "ios": "https://dc.lft.to/lastmile_qr_scan"}, "fusion_lat": 0.0, "is_reserved": 0, "lat": 38.92839816666667, "name": "e765b8d39c85ca51ed498eebeb0322d7", "bike_id": "e765b8d39c85ca51ed498eebeb0322d7", "is_disabled": 0, "fusion_lon": 0.0, "type": "electric_scooter", "lon": -76.9990575}, {"rental_uris": {"android": "https://dc.lft.to/lastmile_qr_scan", "ios": "https://dc.lft.to/lastmile_qr_scan"}, "fusion_lat": 0.0, "is_reserved": 0, "lat": 38.9012285, "name": "d58dcf1ae5e07dddfb75044c09c5f038", "bike_id": "d58dcf1ae5e07dddfb75044c09c5f038", "is_disabled": 0, "fusion_lon": 0.0, "type": "electric_scooter", "lon": -77.01627033333334}, {"rental_uris": {"android": "https://dc.lft.to/lastmile_qr_scan", "ios": "https://dc.lft.to/lastmile_qr_scan"}, "fusion_lat": 0.0, "is_reserved": 0, "lat": 38.918000166666666, "name": "c9fb12eb69951d60d01018c99dc33fe6", "bike_id": "c9fb12eb69951d60d01018c99dc33fe6", "is_disabled": 0, "fusion_lon": 0.0, "type": "electric_scooter", "lon": -77.04013966666666}, {"rental_uris": {"android": "https://dc.lft.to/lastmile_qr_scan", "ios": "https://dc.lft.to/lastmile_qr_scan"}, "fusion_lat": 0.0, "is_reserved": 0, "lat": 38.896482166666665, "name": "77e66b3ff80b1a917a5b639d27fff9f2", "bike_id": "77e66b3ff80b1a917a5b639d27fff9f2", "is_disabled": 0, "fusion_lon": 0.0, "type": "electric_scooter", "lon": -77.00925916666667}, {"rental_uris": {"android": "https://dc.lft.to/lastmile_qr_scan", "ios": "https://dc.lft.to/lastmile_qr_scan"}, "fusion_lat": 0.0, "is_reserved": 0, "lat": 38.91724, "name": "ad60f9a8e3526ebd0c8139fbbffde7dd", "bike_id": "ad60f9a8e3526ebd0c8139fbbffde7dd", "is_disabled": 0, "fusion_lon": 0.0, "type": "electric_scooter", "lon": -77.0682915}, {"rental_uris": {"android": "https://dc.lft.to/lastmile_qr_scan", "ios": "https://dc.lft.to/lastmile_qr_scan"}, "fusion_lat": 0.0, "is_reserved": 0, "lat": 38.8973825, "name": "6c7525d16dcc48de814f4cd3d8e2ef39", "bike_id": "6c7525d16dcc48de814f4cd3d8e2ef39", "is_disabled": 0, "fusion_lon": 0.0, "type": "electric_scooter", "lon": -77.0078185}, {"rental_uris": {"android": "https://dc.lft.to/lastmile_qr_scan", "ios": "https://dc.lft.to/lastmile_qr_scan"}, "fusion_lat": 0.0, "is_reserved": 0, "lat": 38.91020816666666, "name": "bed5a43721f760f11a28b4e77e7baf2b", "bike_id": "bed5a43721f760f11a28b4e77e7baf2b", "is_disabled": 0, "fusion_lon": 0.0, "type": "electric_scooter", "lon": -77.04455583333333}, {"rental_uris": {"android": "https://dc.lft.to/lastmile_qr_scan", "ios": "https://dc.lft.to/lastmile_qr_scan"}, "fusion_lat": 0.0, "is_reserved": 0, "lat": 38.93386, "name": "a88f495761985728e95a1ea339ba1808", "bike_id": "a88f495761985728e95a1ea339ba1808", "is_disabled": 0, "fusion_lon": 0.0, "type": "electric_scooter", "lon": -77.02385383333333}, {"rental_uris": {"android": "https://dc.lft.to/lastmile_qr_scan", "ios": "https://dc.lft.to/lastmile_qr_scan"}, "fusion_lat": 0.0, "is_reserved": 0, "lat": 38.88398633333333, "name": "11cdb22d814bea690032eca8425ea966", "bike_id": "11cdb22d814bea690032eca8425ea966", "is_disabled": 0, "fusion_lon": 0.0, "type": "electric_scooter", "lon": -76.93045633333334}, {"rental_uris": {"android": "https://dc.lft.to/lastmile_qr_scan", "ios": "https://dc.lft.to/lastmile_qr_scan"}, "fusion_lat": 0.0, "is_reserved": 0, "lat": 38.9001555, "name": "a7156bb3e6c2ddd7495fc00898735927", "bike_id": "a7156bb3e6c2ddd7495fc00898735927", "is_disabled": 0, "fusion_lon": 0.0, "type": "electric_scooter", "lon": -76.93025483333334}, {"rental_uris": {"android": "https://dc.lft.to/lastmile_qr_scan", "ios": "https://dc.lft.to/lastmile_qr_scan"}, "fusion_lat": 0.0, "is_reserved": 0, "lat": 38.92610916666667, "name": "c6e935036687b4e2c42b119de038774f", "bike_id": "c6e935036687b4e2c42b119de038774f", "is_disabled": 0, "fusion_lon": 0.0, "type": "electric_scooter", "lon": -77.02155316666666}, {"rental_uris": {"android": "https://dc.lft.to/lastmile_qr_scan", "ios": "https://dc.lft.to/lastmile_qr_scan"}, "fusion_lat": 0.0, "is_reserved": 0, "lat": 38.926027833333336, "name": "66b5c76b34f7a32feecf11182b2c4254", "bike_id": "66b5c76b34f7a32feecf11182b2c4254", "is_disabled": 0, "fusion_lon": 0.0, "type": "electric_scooter", "lon": -77.021575}, {"rental_uris": {"android": "https://dc.lft.to/lastmile_qr_scan", "ios": "https://dc.lft.to/lastmile_qr_scan"}, "fusion_lat": 0.0, "is_reserved": 0, "lat": 38.87918483333333, "name": "9261ab909984bc4e47315d22bf2c208d", "bike_id": "9261ab909984bc4e47315d22bf2c208d", "is_disabled": 0, "fusion_lon": 0.0, "type": "electric_scooter", "lon": -77.02158266666666}, {"rental_uris": {"android": "https://dc.lft.to/lastmile_qr_scan", "ios": "https://dc.lft.to/lastmile_qr_scan"}, "fusion_lat": 0.0, "is_reserved": 0, "lat": 38.915454, "name": "b3ad87fac4dc917a9ac28133d2ca024b", "bike_id": "b3ad87fac4dc917a9ac28133d2ca024b", "is_disabled": 0, "fusion_lon": 0.0, "type": "electric_scooter", "lon": -77.02203733333333}, {"rental_uris": {"android": "https://dc.lft.to/lastmile_qr_scan", "ios": "https://dc.lft.to/lastmile_qr_scan"}, "fusion_lat": 0.0, "is_reserved": 0, "lat": 38.916513, "name": "defb8c6036ed91a6a1644050831a524c", "bike_id": "defb8c6036ed91a6a1644050831a524c", "is_disabled": 0, "fusion_lon": 0.0, "type": "electric_scooter", "lon": -77.010326}, {"rental_uris": {"android": "https://dc.lft.to/lastmile_qr_scan", "ios": "https://dc.lft.to/lastmile_qr_scan"}, "fusion_lat": 0.0, "is_reserved": 0, "lat": 38.90565316666667, "name": "bf4149f707870c4bdbac6e008a7310cf", "bike_id": "bf4149f707870c4bdbac6e008a7310cf", "is_disabled": 0, "fusion_lon": 0.0, "type": "electric_scooter", "lon": -77.00583533333334}, {"rental_uris": {"android": "https://dc.lft.to/lastmile_qr_scan", "ios": "https://dc.lft.to/lastmile_qr_scan"}, "fusion_lat": 0.0, "is_reserved": 0, "lat": 38.900679833333335, "name": "8cbc00a6d58d3705ab664bca2e89598d", "bike_id": "8cbc00a6d58d3705ab664bca2e89598d", "is_disabled": 0, "fusion_lon": 0.0, "type": "electric_scooter", "lon": -77.02184066666666}, {"rental_uris": {"android": "https://dc.lft.to/lastmile_qr_scan", "ios": "https://dc.lft.to/lastmile_qr_scan"}, "fusion_lat": 0.0, "is_reserved": 0, "lat": 38.893009166666666, "name": "892449a17a6b4d467656ee45c6b7a7f3", "bike_id": "892449a17a6b4d467656ee45c6b7a7f3", "is_disabled": 0, "fusion_lon": 0.0, "type": "electric_scooter", "lon": -76.92990566666667}, {"rental_uris": {"android": "https://dc.lft.to/lastmile_qr_scan", "ios": "https://dc.lft.to/lastmile_qr_scan"}, "fusion_lat": 0.0, "is_reserved": 0, "lat": 38.899927166666664, "name": "87d05416f96ec469cdb98e34113c4e32", "bike_id": "87d05416f96ec469cdb98e34113c4e32", "is_disabled": 0, "fusion_lon": 0.0, "type": "electric_scooter", "lon": -77.000619}, {"rental_uris": {"android": "https://dc.lft.to/lastmile_qr_scan", "ios": "https://dc.lft.to/lastmile_qr_scan"}, "fusion_lat": 0.0, "is_reserved": 0, "lat": 38.9157975, "name": "8e40f5cdb6fce8d5dbe574fe5c421066", "bike_id": "8e40f5cdb6fce8d5dbe574fe5c421066", "is_disabled": 0, "fusion_lon": 0.0, "type": "electric_scooter", "lon": -77.01233033333334}, {"rental_uris": {"android": "https://dc.lft.to/lastmile_qr_scan", "ios": "https://dc.lft.to/lastmile_qr_scan"}, "fusion_lat": 0.0, "is_reserved": 0, "lat": 38.907865666666666, "name": "76c8dd43f8b0c257aad5382eb523e58f", "bike_id": "76c8dd43f8b0c257aad5382eb523e58f", "is_disabled": 0, "fusion_lon": 0.0, "type": "electric_scooter", "lon": -77.03058316666667}, {"rental_uris": {"android": "https://dc.lft.to/lastmile_qr_scan", "ios": "https://dc.lft.to/lastmile_qr_scan"}, "fusion_lat": 0.0, "is_reserved": 0, "lat": 38.912549, "name": "c074135c5fc2b48a494777cdd842447c", "bike_id": "c074135c5fc2b48a494777cdd842447c", "is_disabled": 0, "fusion_lon": 0.0, "type": "electric_scooter", "lon": -77.0320205}, {"rental_uris": {"android": "https://dc.lft.to/lastmile_qr_scan", "ios": "https://dc.lft.to/lastmile_qr_scan"}, "fusion_lat": 0.0, "is_reserved": 0, "lat": 38.90837783333333, "name": "800fdf2021f8a7e365908e74259c66c3", "bike_id": "800fdf2021f8a7e365908e74259c66c3", "is_disabled": 0, "fusion_lon": 0.0, "type": "electric_scooter", "lon": -76.99698683333334}, {"rental_uris": {"android": "https://dc.lft.to/lastmile_qr_scan", "ios": "https://dc.lft.to/lastmile_qr_scan"}, "fusion_lat": 0.0, "is_reserved": 0, "lat": 38.902485, "name": "a2d92ecc5f6ee444a1009f0b1667ba8d", "bike_id": "a2d92ecc5f6ee444a1009f0b1667ba8d", "is_disabled": 0, "fusion_lon": 0.0, "type": "electric_scooter", "lon": -77.0018675}, {"rental_uris": {"android": "https://dc.lft.to/lastmile_qr_scan", "ios": "https://dc.lft.to/lastmile_qr_scan"}, "fusion_lat": 0.0, "is_reserved": 0, "lat": 38.90893666666667, "name": "4cab616b3433dc59aed21af2daaccb4d", "bike_id": "4cab616b3433dc59aed21af2daaccb4d", "is_disabled": 0, "fusion_lon": 0.0, "type": "electric_scooter", "lon": -76.991091}, {"rental_uris": {"android": "https://dc.lft.to/lastmile_qr_scan", "ios": "https://dc.lft.to/lastmile_qr_scan"}, "fusion_lat": 0.0, "is_reserved": 0, "lat": 38.8961935, "name": "0dc88f601b4ffbb0972e08f80ca76b58", "bike_id": "0dc88f601b4ffbb0972e08f80ca76b58", "is_disabled": 0, "fusion_lon": 0.0, "type": "electric_scooter", "lon": -76.97685833333334}, {"rental_uris": {"android": "https://dc.lft.to/lastmile_qr_scan", "ios": "https://dc.lft.to/lastmile_qr_scan"}, "fusion_lat": 0.0, "is_reserved": 0, "lat": 38.90778783333333, "name": "f84bbe846badd00c9f0917a20f9755db", "bike_id": "f84bbe846badd00c9f0917a20f9755db", "is_disabled": 0, "fusion_lon": 0.0, "type": "electric_scooter", "lon": -77.04514516666667}, {"rental_uris": {"android": "https://dc.lft.to/lastmile_qr_scan", "ios": "https://dc.lft.to/lastmile_qr_scan"}, "fusion_lat": 0.0, "is_reserved": 0, "lat": 38.90729533333333, "name": "b2f87866f6a7cd1dfaa9ebfd465773e6", "bike_id": "b2f87866f6a7cd1dfaa9ebfd465773e6", "is_disabled": 0, "fusion_lon": 0.0, "type": "electric_scooter", "lon": -77.05028716666666}, {"rental_uris": {"android": "https://dc.lft.to/lastmile_qr_scan", "ios": "https://dc.lft.to/lastmile_qr_scan"}, "fusion_lat": 0.0, "is_reserved": 0, "lat": 38.933547833333336, "name": "594ef4017b3f18bfaf3d07bff48363fb", "bike_id": "594ef4017b3f18bfaf3d07bff48363fb", "is_disabled": 0, "fusion_lon": 0.0, "type": "electric_scooter", "lon": -77.02372816666667}, {"rental_uris": {"android": "https://dc.lft.to/lastmile_qr_scan", "ios": "https://dc.lft.to/lastmile_qr_scan"}, "fusion_lat": 0.0, "is_reserved": 0, "lat": 38.9192215, "name": "5d4e63cfcf7682765cd19ae39876f7e1", "bike_id": "5d4e63cfcf7682765cd19ae39876f7e1", "is_disabled": 0, "fusion_lon": 0.0, "type": "electric_scooter", "lon": -77.03183966666667}, {"rental_uris": {"android": "https://dc.lft.to/lastmile_qr_scan", "ios": "https://dc.lft.to/lastmile_qr_scan"}, "fusion_lat": 0.0, "is_reserved": 0, "lat": 38.892218166666666, "name": "86e596985ab7e5161aca21d59d1fc7b9", "bike_id": "86e596985ab7e5161aca21d59d1fc7b9", "is_disabled": 0, "fusion_lon": 0.0, "type": "electric_scooter", "lon": -77.03339666666666}, {"rental_uris": {"android": "https://dc.lft.to/lastmile_qr_scan", "ios": "https://dc.lft.to/lastmile_qr_scan"}, "fusion_lat": 0.0, "is_reserved": 0, "lat": 38.91915783333334, "name": "42336b9af828a5e6a57aa1b16b639f1d", "bike_id": "42336b9af828a5e6a57aa1b16b639f1d", "is_disabled": 0, "fusion_lon": 0.0, "type": "electric_scooter", "lon": -77.02947166666667}, {"rental_uris": {"android": "https://dc.lft.to/lastmile_qr_scan", "ios": "https://dc.lft.to/lastmile_qr_scan"}, "fusion_lat": 0.0, "is_reserved": 0, "lat": 38.89607933333333, "name": "a0a18bdf08ddf5a4524f70156903f283", "bike_id": "a0a18bdf08ddf5a4524f70156903f283", "is_disabled": 0, "fusion_lon": 0.0, "type": "electric_scooter", "lon": -77.0334875}, {"rental_uris": {"android": "https://dc.lft.to/lastmile_qr_scan", "ios": "https://dc.lft.to/lastmile_qr_scan"}, "fusion_lat": 0.0, "is_reserved": 0, "lat": 38.959337166666664, "name": "d92cf775db3c223d938a431fdf1e5ef1", "bike_id": "d92cf775db3c223d938a431fdf1e5ef1", "is_disabled": 0, "fusion_lon": 0.0, "type": "electric_scooter", "lon": -77.03119616666666}, {"rental_uris": {"android": "https://dc.lft.to/lastmile_qr_scan", "ios": "https://dc.lft.to/lastmile_qr_scan"}, "fusion_lat": 0.0, "is_reserved": 0, "lat": 38.9005895, "name": "a9bab9f1e1cc649d3ccdc3962aead22c", "bike_id": "a9bab9f1e1cc649d3ccdc3962aead22c", "is_disabled": 0, "fusion_lon": 0.0, "type": "electric_scooter", "lon": -77.04857966666667}, {"rental_uris": {"android": "https://dc.lft.to/lastmile_qr_scan", "ios": "https://dc.lft.to/lastmile_qr_scan"}, "fusion_lat": 0.0, "is_reserved": 0, "lat": 38.898984166666665, "name": "6404d3cf688ae124f89e29f590b79b3a", "bike_id": "6404d3cf688ae124f89e29f590b79b3a", "is_disabled": 0, "fusion_lon": 0.0, "type": "electric_scooter", "lon": -76.97603483333333}, {"rental_uris": {"android": "https://dc.lft.to/lastmile_qr_scan", "ios": "https://dc.lft.to/lastmile_qr_scan"}, "fusion_lat": 0.0, "is_reserved": 0, "lat": 38.90725333333334, "name": "efaac3c18b9205f7ab8dff49d34eb475", "bike_id": "efaac3c18b9205f7ab8dff49d34eb475", "is_disabled": 0, "fusion_lon": 0.0, "type": "electric_scooter", "lon": -77.038936}, {"rental_uris": {"android": "https://dc.lft.to/lastmile_qr_scan", "ios": "https://dc.lft.to/lastmile_qr_scan"}, "fusion_lat": 0.0, "is_reserved": 0, "lat": 38.924615833333334, "name": "54cb46e22d8a4f90b8b396e084b53685", "bike_id": "54cb46e22d8a4f90b8b396e084b53685", "is_disabled": 0, "fusion_lon": 0.0, "type": "electric_scooter", "lon": -77.02699033333333}, {"rental_uris": {"android": "https://dc.lft.to/lastmile_qr_scan", "ios": "https://dc.lft.to/lastmile_qr_scan"}, "fusion_lat": 0.0, "is_reserved": 0, "lat": 38.89444, "name": "627bed1eb5ba68c06e5d754a11226c84", "bike_id": "627bed1eb5ba68c06e5d754a11226c84", "is_disabled": 0, "fusion_lon": 0.0, "type": "electric_scooter", "lon": -77.0453095}, {"rental_uris": {"android": "https://dc.lft.to/lastmile_qr_scan", "ios": "https://dc.lft.to/lastmile_qr_scan"}, "fusion_lat": 0.0, "is_reserved": 0, "lat": 38.921233, "name": "7d4ff35d18a994bd2b4accb9c6aa46e7", "bike_id": "7d4ff35d18a994bd2b4accb9c6aa46e7", "is_disabled": 0, "fusion_lon": 0.0, "type": "electric_scooter", "lon": -77.04427633333333}, {"rental_uris": {"android": "https://dc.lft.to/lastmile_qr_scan", "ios": "https://dc.lft.to/lastmile_qr_scan"}, "fusion_lat": 0.0, "is_reserved": 0, "lat": 38.895742166666665, "name": "7f63c84cdfed27ab0d85e3e89275c00a", "bike_id": "7f63c84cdfed27ab0d85e3e89275c00a", "is_disabled": 0, "fusion_lon": 0.0, "type": "electric_scooter", "lon": -77.04143983333333}, {"rental_uris": {"android": "https://dc.lft.to/lastmile_qr_scan", "ios": "https://dc.lft.to/lastmile_qr_scan"}, "fusion_lat": 0.0, "is_reserved": 0, "lat": 38.888654, "name": "646f49984b8a3ade494a6707a56dc3e4", "bike_id": "646f49984b8a3ade494a6707a56dc3e4", "is_disabled": 0, "fusion_lon": 0.0, "type": "electric_scooter", "lon": -77.0400805}, {"rental_uris": {"android": "https://dc.lft.to/lastmile_qr_scan", "ios": "https://dc.lft.to/lastmile_qr_scan"}, "fusion_lat": 0.0, "is_reserved": 0, "lat": 38.8997815, "name": "520bd4f2547a4d9d3c2d0d1563b98d97", "bike_id": "520bd4f2547a4d9d3c2d0d1563b98d97", "is_disabled": 0, "fusion_lon": 0.0, "type": "electric_scooter", "lon": -77.04848916666667}, {"rental_uris": {"android": "https://dc.lft.to/lastmile_qr_scan", "ios": "https://dc.lft.to/lastmile_qr_scan"}, "fusion_lat": 0.0, "is_reserved": 0, "lat": 38.914133666666665, "name": "5343691db283c84c75de81af651d0407", "bike_id": "5343691db283c84c75de81af651d0407", "is_disabled": 0, "fusion_lon": 0.0, "type": "electric_scooter", "lon": -77.031697}, {"rental_uris": {"android": "https://dc.lft.to/lastmile_qr_scan", "ios": "https://dc.lft.to/lastmile_qr_scan"}, "fusion_lat": 0.0, "is_reserved": 0, "lat": 38.91562833333333, "name": "b071c762192dda64b08bfc2f2ea6be22", "bike_id": "b071c762192dda64b08bfc2f2ea6be22", "is_disabled": 0, "fusion_lon": 0.0, "type": "electric_scooter", "lon": -77.02353466666666}, {"rental_uris": {"android": "https://dc.lft.to/lastmile_qr_scan", "ios": "https://dc.lft.to/lastmile_qr_scan"}, "fusion_lat": 0.0, "is_reserved": 0, "lat": 38.927558, "name": "00d3d1ba8ab98b617b28a03252e7b13a", "bike_id": "00d3d1ba8ab98b617b28a03252e7b13a", "is_disabled": 0, "fusion_lon": 0.0, "type": "electric_scooter", "lon": -77.02113816666666}, {"rental_uris": {"android": "https://dc.lft.to/lastmile_qr_scan", "ios": "https://dc.lft.to/lastmile_qr_scan"}, "fusion_lat": 0.0, "is_reserved": 0, "lat": 38.91515916666667, "name": "d6aa7cabbe1a49c95aeba590fa9a0456", "bike_id": "d6aa7cabbe1a49c95aeba590fa9a0456", "is_disabled": 0, "fusion_lon": 0.0, "type": "electric_scooter", "lon": -77.0321915}, {"rental_uris": {"android": "https://dc.lft.to/lastmile_qr_scan", "ios": "https://dc.lft.to/lastmile_qr_scan"}, "fusion_lat": 0.0, "is_reserved": 0, "lat": 38.932553, "name": "dce6ecd66f9bc961f187b652cc73f1a7", "bike_id": "dce6ecd66f9bc961f187b652cc73f1a7", "is_disabled": 0, "fusion_lon": 0.0, "type": "electric_scooter", "lon": -77.032657}, {"rental_uris": {"android": "https://dc.lft.to/lastmile_qr_scan", "ios": "https://dc.lft.to/lastmile_qr_scan"}, "fusion_lat": 0.0, "is_reserved": 0, "lat": 38.9189545, "name": "e3985fd02e6196b69a39a5eb53361ba8", "bike_id": "e3985fd02e6196b69a39a5eb53361ba8", "is_disabled": 0, "fusion_lon": 0.0, "type": "electric_scooter", "lon": -77.03508033333334}, {"rental_uris": {"android": "https://dc.lft.to/lastmile_qr_scan", "ios": "https://dc.lft.to/lastmile_qr_scan"}, "fusion_lat": 0.0, "is_reserved": 0, "lat": 38.89475133333333, "name": "a6c6e005dfa3557e1b25fcc8a1989bfd", "bike_id": "a6c6e005dfa3557e1b25fcc8a1989bfd", "is_disabled": 0, "fusion_lon": 0.0, "type": "electric_scooter", "lon": -76.99485316666667}, {"rental_uris": {"android": "https://dc.lft.to/lastmile_qr_scan", "ios": "https://dc.lft.to/lastmile_qr_scan"}, "fusion_lat": 0.0, "is_reserved": 0, "lat": 38.899823833333336, "name": "32e480f3e462b7993103747ac59dab6a", "bike_id": "32e480f3e462b7993103747ac59dab6a", "is_disabled": 0, "fusion_lon": 0.0, "type": "electric_scooter", "lon": -77.02248883333333}, {"rental_uris": {"android": "https://dc.lft.to/lastmile_qr_scan", "ios": "https://dc.lft.to/lastmile_qr_scan"}, "fusion_lat": 0.0, "is_reserved": 0, "lat": 38.8971215, "name": "82883b598af26a4323eb119bd0ef3927", "bike_id": "82883b598af26a4323eb119bd0ef3927", "is_disabled": 0, "fusion_lon": 0.0, "type": "electric_scooter", "lon": -77.01293833333334}, {"rental_uris": {"android": "https://dc.lft.to/lastmile_qr_scan", "ios": "https://dc.lft.to/lastmile_qr_scan"}, "fusion_lat": 0.0, "is_reserved": 0, "lat": 38.8386895, "name": "3ecf10b01b39e6f97767ccc93b420445", "bike_id": "3ecf10b01b39e6f97767ccc93b420445", "is_disabled": 0, "fusion_lon": 0.0, "type": "electric_bike", "lon": -76.99702283333333}, {"rental_uris": {"android": "https://dc.lft.to/lastmile_qr_scan", "ios": "https://dc.lft.to/lastmile_qr_scan"}, "fusion_lat": 0.0, "is_reserved": 0, "lat": 38.914178166666666, "name": "ba0573aa07a06051bb7d55f65b2bda7d", "bike_id": "ba0573aa07a06051bb7d55f65b2bda7d", "is_disabled": 0, "fusion_lon": 0.0, "type": "electric_scooter", "lon": -77.03172083333334}, {"rental_uris": {"android": "https://dc.lft.to/lastmile_qr_scan", "ios": "https://dc.lft.to/lastmile_qr_scan"}, "fusion_lat": 0.0, "is_reserved": 0, "lat": 38.944742833333336, "name": "070d1a95066aa6a9fd1e5fb486f5e27b", "bike_id": "070d1a95066aa6a9fd1e5fb486f5e27b", "is_disabled": 0, "fusion_lon": 0.0, "type": "electric_bike", "lon": -76.9869235}, {"rental_uris": {"android": "https://dc.lft.to/lastmile_qr_scan", "ios": "https://dc.lft.to/lastmile_qr_scan"}, "fusion_lat": 0.0, "is_reserved": 0, "lat": 38.8772075, "name": "1e62751ffbf66335c9946c25827af270", "bike_id": "1e62751ffbf66335c9946c25827af270", "is_disabled": 0, "fusion_lon": 0.0, "type": "electric_scooter", "lon": -77.01758483333333}, {"rental_uris": {"android": "https://dc.lft.to/lastmile_qr_scan", "ios": "https://dc.lft.to/lastmile_qr_scan"}, "fusion_lat": 0.0, "is_reserved": 0, "lat": 38.905923666666666, "name": "6ab8c3beb930a12e5e2b9a258cc0ce70", "bike_id": "6ab8c3beb930a12e5e2b9a258cc0ce70", "is_disabled": 0, "fusion_lon": 0.0, "type": "electric_scooter", "lon": -77.01616283333334}, {"rental_uris": {"android": "https://dc.lft.to/lastmile_qr_scan", "ios": "https://dc.lft.to/lastmile_qr_scan"}, "fusion_lat": 0.0, "is_reserved": 0, "lat": 38.99410483333333, "name": "36237ec99602de497ae3d00c62280d4c", "bike_id": "36237ec99602de497ae3d00c62280d4c", "is_disabled": 0, "fusion_lon": 0.0, "type": "electric_bike", "lon": -77.0180005}, {"rental_uris": {"android": "https://dc.lft.to/lastmile_qr_scan", "ios": "https://dc.lft.to/lastmile_qr_scan"}, "fusion_lat": 0.0, "is_reserved": 0, "lat": 38.92503033333333, "name": "3e7155334a8d10309c325a872d7f2749", "bike_id": "3e7155334a8d10309c325a872d7f2749", "is_disabled": 0, "fusion_lon": 0.0, "type": "electric_scooter", "lon": -77.02405916666666}, {"rental_uris": {"android": "https://dc.lft.to/lastmile_qr_scan", "ios": "https://dc.lft.to/lastmile_qr_scan"}, "fusion_lat": 0.0, "is_reserved": 0, "lat": 38.94042966666667, "name": "217d55cddf32bace2b018c741b7bb24c", "bike_id": "217d55cddf32bace2b018c741b7bb24c", "is_disabled": 0, "fusion_lon": 0.0, "type": "electric_scooter", "lon": -77.02914566666666}, {"rental_uris": {"android": "https://dc.lft.to/lastmile_qr_scan", "ios": "https://dc.lft.to/lastmile_qr_scan"}, "fusion_lat": 0.0, "is_reserved": 0, "lat": 38.91835283333333, "name": "15f321a1b1d64b3b9b619765b5cf244d", "bike_id": "15f321a1b1d64b3b9b619765b5cf244d", "is_disabled": 0, "fusion_lon": 0.0, "type": "electric_scooter", "lon": -77.02444683333333}, {"rental_uris": {"android": "https://dc.lft.to/lastmile_qr_scan", "ios": "https://dc.lft.to/lastmile_qr_scan"}, "fusion_lat": 0.0, "is_reserved": 0, "lat": 38.946536, "name": "37fbb3618579e5d3709386eb37e4d5c4", "bike_id": "37fbb3618579e5d3709386eb37e4d5c4", "is_disabled": 0, "fusion_lon": 0.0, "type": "electric_scooter", "lon": -77.064756}, {"rental_uris": {"android": "https://dc.lft.to/lastmile_qr_scan", "ios": "https://dc.lft.to/lastmile_qr_scan"}, "fusion_lat": 0.0, "is_reserved": 0, "lat": 38.87074166666667, "name": "3bfccd736c84ae8e3d53821f862c1951", "bike_id": "3bfccd736c84ae8e3d53821f862c1951", "is_disabled": 0, "fusion_lon": 0.0, "type": "electric_scooter", "lon": -76.979115}, {"rental_uris": {"android": "https://dc.lft.to/lastmile_qr_scan", "ios": "https://dc.lft.to/lastmile_qr_scan"}, "fusion_lat": 0.0, "is_reserved": 0, "lat": 38.8986445, "name": "b56aa4e297632fb07aac39f21eeafd78", "bike_id": "b56aa4e297632fb07aac39f21eeafd78", "is_disabled": 0, "fusion_lon": 0.0, "type": "electric_scooter", "lon": -76.9467795}, {"rental_uris": {"android": "https://dc.lft.to/lastmile_qr_scan", "ios": "https://dc.lft.to/lastmile_qr_scan"}, "fusion_lat": 0.0, "is_reserved": 0, "lat": 38.901138833333334, "name": "cb7295723ea73157f8932885ba51a039", "bike_id": "cb7295723ea73157f8932885ba51a039", "is_disabled": 0, "fusion_lon": 0.0, "type": "electric_scooter", "lon": -77.04987083333333}, {"rental_uris": {"android": "https://dc.lft.to/lastmile_qr_scan", "ios": "https://dc.lft.to/lastmile_qr_scan"}, "fusion_lat": 0.0, "is_reserved": 0, "lat": 38.895132, "name": "4c6713881f772febc8c923f21291298b", "bike_id": "4c6713881f772febc8c923f21291298b", "is_disabled": 0, "fusion_lon": 0.0, "type": "electric_scooter", "lon": -77.02205933333333}, {"rental_uris": {"android": "https://dc.lft.to/lastmile_qr_scan", "ios": "https://dc.lft.to/lastmile_qr_scan"}, "fusion_lat": 0.0, "is_reserved": 0, "lat": 38.916853, "name": "87edc997750b75c4077db670ac31fcd9", "bike_id": "87edc997750b75c4077db670ac31fcd9", "is_disabled": 0, "fusion_lon": 0.0, "type": "electric_scooter", "lon": -77.0414225}, {"rental_uris": {"android": "https://dc.lft.to/lastmile_qr_scan", "ios": "https://dc.lft.to/lastmile_qr_scan"}, "fusion_lat": 0.0, "is_reserved": 0, "lat": 38.897422, "name": "a25d7b83cf910629a290d274235f9724", "bike_id": "a25d7b83cf910629a290d274235f9724", "is_disabled": 0, "fusion_lon": 0.0, "type": "electric_scooter", "lon": -77.0248755}, {"rental_uris": {"android": "https://dc.lft.to/lastmile_qr_scan", "ios": "https://dc.lft.to/lastmile_qr_scan"}, "fusion_lat": 0.0, "is_reserved": 0, "lat": 38.9203655, "name": "1791e914e8e3ff77003b7abfae5ac1f7", "bike_id": "1791e914e8e3ff77003b7abfae5ac1f7", "is_disabled": 0, "fusion_lon": 0.0, "type": "electric_scooter", "lon": -77.048249}, {"rental_uris": {"android": "https://dc.lft.to/lastmile_qr_scan", "ios": "https://dc.lft.to/lastmile_qr_scan"}, "fusion_lat": 0.0, "is_reserved": 0, "lat": 38.9441975, "name": "4db7bea803a5060b5606708eadf7ebcf", "bike_id": "4db7bea803a5060b5606708eadf7ebcf", "is_disabled": 0, "fusion_lon": 0.0, "type": "electric_scooter", "lon": -77.06323533333334}, {"rental_uris": {"android": "https://dc.lft.to/lastmile_qr_scan", "ios": "https://dc.lft.to/lastmile_qr_scan"}, "fusion_lat": 0.0, "is_reserved": 0, "lat": 38.883552333333334, "name": "e9dd3f6f01e0584447fafcde368afa26", "bike_id": "e9dd3f6f01e0584447fafcde368afa26", "is_disabled": 0, "fusion_lon": 0.0, "type": "electric_scooter", "lon": -76.99266133333333}, {"rental_uris": {"android": "https://dc.lft.to/lastmile_qr_scan", "ios": "https://dc.lft.to/lastmile_qr_scan"}, "fusion_lat": 0.0, "is_reserved": 0, "lat": 38.9029655, "name": "be0028abd49108a5c54e9bb85de02503", "bike_id": "be0028abd49108a5c54e9bb85de02503", "is_disabled": 0, "fusion_lon": 0.0, "type": "electric_scooter", "lon": -77.0580325}, {"rental_uris": {"android": "https://dc.lft.to/lastmile_qr_scan", "ios": "https://dc.lft.to/lastmile_qr_scan"}, "fusion_lat": 0.0, "is_reserved": 0, "lat": 38.911293, "name": "222ce579c12a1271addf85c0c97e115b", "bike_id": "222ce579c12a1271addf85c0c97e115b", "is_disabled": 0, "fusion_lon": 0.0, "type": "electric_scooter", "lon": -77.02202816666667}, {"rental_uris": {"android": "https://dc.lft.to/lastmile_qr_scan", "ios": "https://dc.lft.to/lastmile_qr_scan"}, "fusion_lat": 0.0, "is_reserved": 0, "lat": 38.85711633333333, "name": "ca972e49b032f7edc97c8e1bbb67ebe7", "bike_id": "ca972e49b032f7edc97c8e1bbb67ebe7", "is_disabled": 0, "fusion_lon": 0.0, "type": "electric_scooter", "lon": -76.98214633333333}, {"rental_uris": {"android": "https://dc.lft.to/lastmile_qr_scan", "ios": "https://dc.lft.to/lastmile_qr_scan"}, "fusion_lat": 0.0, "is_reserved": 0, "lat": 38.91563516666667, "name": "74be5c2f4c8c85c94e39527b1c6dd83f", "bike_id": "74be5c2f4c8c85c94e39527b1c6dd83f", "is_disabled": 0, "fusion_lon": 0.0, "type": "electric_scooter", "lon": -77.03133733333334}, {"rental_uris": {"android": "https://dc.lft.to/lastmile_qr_scan", "ios": "https://dc.lft.to/lastmile_qr_scan"}, "fusion_lat": 0.0, "is_reserved": 0, "lat": 38.93700166666667, "name": "2de2b19b415685e54800ff47aee288f4", "bike_id": "2de2b19b415685e54800ff47aee288f4", "is_disabled": 0, "fusion_lon": 0.0, "type": "electric_scooter", "lon": -77.05600866666667}, {"rental_uris": {"android": "https://dc.lft.to/lastmile_qr_scan", "ios": "https://dc.lft.to/lastmile_qr_scan"}, "fusion_lat": 0.0, "is_reserved": 0, "lat": 38.92398433333334, "name": "d4e06f1076c2914f6c84d44ddb226a23", "bike_id": "d4e06f1076c2914f6c84d44ddb226a23", "is_disabled": 0, "fusion_lon": 0.0, "type": "electric_scooter", "lon": -77.03654033333333}, {"rental_uris": {"android": "https://dc.lft.to/lastmile_qr_scan", "ios": "https://dc.lft.to/lastmile_qr_scan"}, "fusion_lat": 0.0, "is_reserved": 0, "lat": 38.907359166666666, "name": "396e616a01b2340fbe79945e6216be2f", "bike_id": "396e616a01b2340fbe79945e6216be2f", "is_disabled": 0, "fusion_lon": 0.0, "type": "electric_scooter", "lon": -76.93485416666667}, {"rental_uris": {"android": "https://dc.lft.to/lastmile_qr_scan", "ios": "https://dc.lft.to/lastmile_qr_scan"}, "fusion_lat": 0.0, "is_reserved": 0, "lat": 38.901722666666664, "name": "fa7730892ae2e30eff216f3f3c799e0d", "bike_id": "fa7730892ae2e30eff216f3f3c799e0d", "is_disabled": 0, "fusion_lon": 0.0, "type": "electric_scooter", "lon": -77.046699}, {"rental_uris": {"android": "https://dc.lft.to/lastmile_qr_scan", "ios": "https://dc.lft.to/lastmile_qr_scan"}, "fusion_lat": 0.0, "is_reserved": 0, "lat": 38.91196933333333, "name": "97d2c42467747244f726b2597f5ff000", "bike_id": "97d2c42467747244f726b2597f5ff000", "is_disabled": 0, "fusion_lon": 0.0, "type": "electric_scooter", "lon": -77.03857316666667}, {"rental_uris": {"android": "https://dc.lft.to/lastmile_qr_scan", "ios": "https://dc.lft.to/lastmile_qr_scan"}, "fusion_lat": 0.0, "is_reserved": 0, "lat": 38.924056, "name": "f9ea9ed37f93f07f2868f5cdd55af7e5", "bike_id": "f9ea9ed37f93f07f2868f5cdd55af7e5", "is_disabled": 0, "fusion_lon": 0.0, "type": "electric_scooter", "lon": -77.035359}, {"rental_uris": {"android": "https://dc.lft.to/lastmile_qr_scan", "ios": "https://dc.lft.to/lastmile_qr_scan"}, "fusion_lat": 0.0, "is_reserved": 0, "lat": 38.90033116666667, "name": "2d7b5beb6092f0276aa492e25c65b00a", "bike_id": "2d7b5beb6092f0276aa492e25c65b00a", "is_disabled": 0, "fusion_lon": 0.0, "type": "electric_scooter", "lon": -76.99841883333333}, {"rental_uris": {"android": "https://dc.lft.to/lastmile_qr_scan", "ios": "https://dc.lft.to/lastmile_qr_scan"}, "fusion_lat": 0.0, "is_reserved": 0, "lat": 38.921379333333334, "name": "b3b6dfe78e239e537a424c691bef42c9", "bike_id": "b3b6dfe78e239e537a424c691bef42c9", "is_disabled": 0, "fusion_lon": 0.0, "type": "electric_scooter", "lon": -77.04590933333333}, {"rental_uris": {"android": "https://dc.lft.to/lastmile_qr_scan", "ios": "https://dc.lft.to/lastmile_qr_scan"}, "fusion_lat": 0.0, "is_reserved": 0, "lat": 38.8952945, "name": "045042bf3535396f5b0390076c9a1725", "bike_id": "045042bf3535396f5b0390076c9a1725", "is_disabled": 0, "fusion_lon": 0.0, "type": "electric_scooter", "lon": -77.04474116666667}, {"rental_uris": {"android": "https://dc.lft.to/lastmile_qr_scan", "ios": "https://dc.lft.to/lastmile_qr_scan"}, "fusion_lat": 0.0, "is_reserved": 0, "lat": 38.9055695, "name": "c8cdd03ed3d84210c1bfd307bd4d8373", "bike_id": "c8cdd03ed3d84210c1bfd307bd4d8373", "is_disabled": 0, "fusion_lon": 0.0, "type": "electric_scooter", "lon": -77.04967066666667}, {"rental_uris": {"android": "https://dc.lft.to/lastmile_qr_scan", "ios": "https://dc.lft.to/lastmile_qr_scan"}, "fusion_lat": 0.0, "is_reserved": 0, "lat": 38.9119585, "name": "af86823e037f06bc80ee8a0f6773bc60", "bike_id": "af86823e037f06bc80ee8a0f6773bc60", "is_disabled": 0, "fusion_lon": 0.0, "type": "electric_scooter", "lon": -77.038575}, {"rental_uris": {"android": "https://dc.lft.to/lastmile_qr_scan", "ios": "https://dc.lft.to/lastmile_qr_scan"}, "fusion_lat": 0.0, "is_reserved": 0, "lat": 38.94880583333333, "name": "df4420a2e2cd57fb1403420916ceb0fd", "bike_id": "df4420a2e2cd57fb1403420916ceb0fd", "is_disabled": 0, "fusion_lon": 0.0, "type": "electric_scooter", "lon": -77.03279033333334}, {"rental_uris": {"android": "https://dc.lft.to/lastmile_qr_scan", "ios": "https://dc.lft.to/lastmile_qr_scan"}, "fusion_lat": 0.0, "is_reserved": 0, "lat": 38.89017233333333, "name": "b1e185245510301c4aa222976dbb429b", "bike_id": "b1e185245510301c4aa222976dbb429b", "is_disabled": 0, "fusion_lon": 0.0, "type": "electric_scooter", "lon": -76.937364}, {"rental_uris": {"android": "https://dc.lft.to/lastmile_qr_scan", "ios": "https://dc.lft.to/lastmile_qr_scan"}, "fusion_lat": 0.0, "is_reserved": 0, "lat": 39.08491566666667, "name": "58704197b990c6028dd247e3e7587e03", "bike_id": "58704197b990c6028dd247e3e7587e03", "is_disabled": 0, "fusion_lon": 0.0, "type": "electric_bike", "lon": -76.95061333333334}, {"rental_uris": {"android": "https://dc.lft.to/lastmile_qr_scan", "ios": "https://dc.lft.to/lastmile_qr_scan"}, "fusion_lat": 0.0, "is_reserved": 0, "lat": 38.893522833333336, "name": "c9236732ed5cf4a35eff9806de4a1af8", "bike_id": "c9236732ed5cf4a35eff9806de4a1af8", "is_disabled": 0, "fusion_lon": 0.0, "type": "electric_scooter", "lon": -76.9947}, {"rental_uris": {"android": "https://dc.lft.to/lastmile_qr_scan", "ios": "https://dc.lft.to/lastmile_qr_scan"}, "fusion_lat": 0.0, "is_reserved": 0, "lat": 38.914724666666665, "name": "41e8d78d9cd4990548117571b2701262", "bike_id": "41e8d78d9cd4990548117571b2701262", "is_disabled": 0, "fusion_lon": 0.0, "type": "electric_scooter", "lon": -77.03231066666666}, {"rental_uris": {"android": "https://dc.lft.to/lastmile_qr_scan", "ios": "https://dc.lft.to/lastmile_qr_scan"}, "fusion_lat": 0.0, "is_reserved": 0, "lat": 38.89224683333333, "name": "008c69d19f36c50ae882c42db386a2c0", "bike_id": "008c69d19f36c50ae882c42db386a2c0", "is_disabled": 0, "fusion_lon": 0.0, "type": "electric_scooter", "lon": -77.03186133333334}, {"rental_uris": {"android": "https://dc.lft.to/lastmile_qr_scan", "ios": "https://dc.lft.to/lastmile_qr_scan"}, "fusion_lat": 0.0, "is_reserved": 0, "lat": 38.894543166666665, "name": "52f09e82ac4c8bf12ebffeff213a0473", "bike_id": "52f09e82ac4c8bf12ebffeff213a0473", "is_disabled": 0, "fusion_lon": 0.0, "type": "electric_scooter", "lon": -77.02678883333333}, {"rental_uris": {"android": "https://dc.lft.to/lastmile_qr_scan", "ios": "https://dc.lft.to/lastmile_qr_scan"}, "fusion_lat": 0.0, "is_reserved": 0, "lat": 38.88347866666667, "name": "ccc77a5d5a2c5e79e409fe88468919ed", "bike_id": "ccc77a5d5a2c5e79e409fe88468919ed", "is_disabled": 0, "fusion_lon": 0.0, "type": "electric_scooter", "lon": -77.01984983333334}, {"rental_uris": {"android": "https://dc.lft.to/lastmile_qr_scan", "ios": "https://dc.lft.to/lastmile_qr_scan"}, "fusion_lat": 0.0, "is_reserved": 0, "lat": 38.91837983333333, "name": "fee8c926a4b21ee07cf5dfe3b855e067", "bike_id": "fee8c926a4b21ee07cf5dfe3b855e067", "is_disabled": 0, "fusion_lon": 0.0, "type": "electric_scooter", "lon": -77.02432466666667}, {"rental_uris": {"android": "https://dc.lft.to/lastmile_qr_scan", "ios": "https://dc.lft.to/lastmile_qr_scan"}, "fusion_lat": 0.0, "is_reserved": 0, "lat": 38.902039333333335, "name": "64bc501b1434299568e7636bc00e0336", "bike_id": "64bc501b1434299568e7636bc00e0336", "is_disabled": 0, "fusion_lon": 0.0, "type": "electric_scooter", "lon": -77.05899416666666}, {"rental_uris": {"android": "https://dc.lft.to/lastmile_qr_scan", "ios": "https://dc.lft.to/lastmile_qr_scan"}, "fusion_lat": 0.0, "is_reserved": 0, "lat": 38.9749345, "name": "d09b893a8766132adedd7e125056ef4c", "bike_id": "d09b893a8766132adedd7e125056ef4c", "is_disabled": 0, "fusion_lon": 0.0, "type": "electric_scooter", "lon": -77.01693633333333}, {"rental_uris": {"android": "https://dc.lft.to/lastmile_qr_scan", "ios": "https://dc.lft.to/lastmile_qr_scan"}, "fusion_lat": 0.0, "is_reserved": 0, "lat": 38.906443, "name": "c5fc724e56e76db36c8778bde28b06b0", "bike_id": "c5fc724e56e76db36c8778bde28b06b0", "is_disabled": 0, "fusion_lon": 0.0, "type": "electric_scooter", "lon": -76.99382733333333}, {"rental_uris": {"android": "https://dc.lft.to/lastmile_qr_scan", "ios": "https://dc.lft.to/lastmile_qr_scan"}, "fusion_lat": 0.0, "is_reserved": 0, "lat": 38.9126615, "name": "23ed3c41bad28560104b0ebab8c580a0", "bike_id": "23ed3c41bad28560104b0ebab8c580a0", "is_disabled": 0, "fusion_lon": 0.0, "type": "electric_scooter", "lon": -77.0079815}, {"rental_uris": {"android": "https://dc.lft.to/lastmile_qr_scan", "ios": "https://dc.lft.to/lastmile_qr_scan"}, "fusion_lat": 0.0, "is_reserved": 0, "lat": 38.8578165, "name": "baef650ba334c3cfbbb5b82cfb9af1d3", "bike_id": "baef650ba334c3cfbbb5b82cfb9af1d3", "is_disabled": 0, "fusion_lon": 0.0, "type": "electric_bike", "lon": -76.98754516666666}, {"rental_uris": {"android": "https://dc.lft.to/lastmile_qr_scan", "ios": "https://dc.lft.to/lastmile_qr_scan"}, "fusion_lat": 0.0, "is_reserved": 0, "lat": 38.8302795, "name": "93a0299932981e62465e7f1829733a7a", "bike_id": "93a0299932981e62465e7f1829733a7a", "is_disabled": 0, "fusion_lon": 0.0, "type": "electric_bike", "lon": -77.08377983333334}, {"rental_uris": {"android": "https://dc.lft.to/lastmile_qr_scan", "ios": "https://dc.lft.to/lastmile_qr_scan"}, "fusion_lat": 0.0, "is_reserved": 0, "lat": 38.92076516666667, "name": "a6887644c3e52743d83cdbfda6762757", "bike_id": "a6887644c3e52743d83cdbfda6762757", "is_disabled": 0, "fusion_lon": 0.0, "type": "electric_scooter", "lon": -77.02454366666667}, {"rental_uris": {"android": "https://dc.lft.to/lastmile_qr_scan", "ios": "https://dc.lft.to/lastmile_qr_scan"}, "fusion_lat": 0.0, "is_reserved": 0, "lat": 38.926064, "name": "5563b618ad317f74d74a40f51705dd24", "bike_id": "5563b618ad317f74d74a40f51705dd24", "is_disabled": 0, "fusion_lon": 0.0, "type": "electric_scooter", "lon": -77.02155433333333}, {"rental_uris": {"android": "https://dc.lft.to/lastmile_qr_scan", "ios": "https://dc.lft.to/lastmile_qr_scan"}, "fusion_lat": 0.0, "is_reserved": 0, "lat": 38.9049975, "name": "4fcb6f475101b478408827e185a1079a", "bike_id": "4fcb6f475101b478408827e185a1079a", "is_disabled": 0, "fusion_lon": 0.0, "type": "electric_scooter", "lon": -76.98036783333333}, {"rental_uris": {"android": "https://dc.lft.to/lastmile_qr_scan", "ios": "https://dc.lft.to/lastmile_qr_scan"}, "fusion_lat": 0.0, "is_reserved": 0, "lat": 38.92464283333333, "name": "9bebc93343e10627c0bf7672d66f5f2f", "bike_id": "9bebc93343e10627c0bf7672d66f5f2f", "is_disabled": 0, "fusion_lon": 0.0, "type": "electric_scooter", "lon": -77.02112066666666}, {"rental_uris": {"android": "https://dc.lft.to/lastmile_qr_scan", "ios": "https://dc.lft.to/lastmile_qr_scan"}, "fusion_lat": 0.0, "is_reserved": 0, "lat": 38.91640133333333, "name": "e5288ddb3906fe892199b68823589a9d", "bike_id": "e5288ddb3906fe892199b68823589a9d", "is_disabled": 0, "fusion_lon": 0.0, "type": "electric_scooter", "lon": -77.0106325}, {"rental_uris": {"android": "https://dc.lft.to/lastmile_qr_scan", "ios": "https://dc.lft.to/lastmile_qr_scan"}, "fusion_lat": 0.0, "is_reserved": 0, "lat": 38.956281833333335, "name": "0741525d862be18f366725b1473604c1", "bike_id": "0741525d862be18f366725b1473604c1", "is_disabled": 0, "fusion_lon": 0.0, "type": "electric_scooter", "lon": -77.02430416666667}, {"rental_uris": {"android": "https://dc.lft.to/lastmile_qr_scan", "ios": "https://dc.lft.to/lastmile_qr_scan"}, "fusion_lat": 0.0, "is_reserved": 0, "lat": 38.91190816666666, "name": "579104861b11e78e68ef4afc7f9c3e1a", "bike_id": "579104861b11e78e68ef4afc7f9c3e1a", "is_disabled": 0, "fusion_lon": 0.0, "type": "electric_scooter", "lon": -77.007918}, {"rental_uris": {"android": "https://dc.lft.to/lastmile_qr_scan", "ios": "https://dc.lft.to/lastmile_qr_scan"}, "fusion_lat": 0.0, "is_reserved": 0, "lat": 38.89713716666667, "name": "2e2af71805b0e2462457ba231efa6043", "bike_id": "2e2af71805b0e2462457ba231efa6043", "is_disabled": 0, "fusion_lon": 0.0, "type": "electric_scooter", "lon": -77.02809266666667}, {"rental_uris": {"android": "https://dc.lft.to/lastmile_qr_scan", "ios": "https://dc.lft.to/lastmile_qr_scan"}, "fusion_lat": 0.0, "is_reserved": 0, "lat": 38.862460666666664, "name": "c4de300ddc1d8fce9e4cf6ddb29b245c", "bike_id": "c4de300ddc1d8fce9e4cf6ddb29b245c", "is_disabled": 0, "fusion_lon": 0.0, "type": "electric_scooter", "lon": -76.99500033333334}, {"rental_uris": {"android": "https://dc.lft.to/lastmile_qr_scan", "ios": "https://dc.lft.to/lastmile_qr_scan"}, "fusion_lat": 0.0, "is_reserved": 0, "lat": 38.91986516666667, "name": "7a43598542d5fa0492f41e86fa90f261", "bike_id": "7a43598542d5fa0492f41e86fa90f261", "is_disabled": 0, "fusion_lon": 0.0, "type": "electric_scooter", "lon": -77.04159}, {"rental_uris": {"android": "https://dc.lft.to/lastmile_qr_scan", "ios": "https://dc.lft.to/lastmile_qr_scan"}, "fusion_lat": 0.0, "is_reserved": 0, "lat": 38.923632166666664, "name": "87a48c208e5292e02cb1f2d0299c54a8", "bike_id": "87a48c208e5292e02cb1f2d0299c54a8", "is_disabled": 0, "fusion_lon": 0.0, "type": "electric_scooter", "lon": -77.050311}, {"rental_uris": {"android": "https://dc.lft.to/lastmile_qr_scan", "ios": "https://dc.lft.to/lastmile_qr_scan"}, "fusion_lat": 0.0, "is_reserved": 0, "lat": 38.90048933333333, "name": "9ae15de1c0a565ec3e381d0860a28742", "bike_id": "9ae15de1c0a565ec3e381d0860a28742", "is_disabled": 0, "fusion_lon": 0.0, "type": "electric_scooter", "lon": -77.01784933333333}, {"rental_uris": {"android": "https://dc.lft.to/lastmile_qr_scan", "ios": "https://dc.lft.to/lastmile_qr_scan"}, "fusion_lat": 0.0, "is_reserved": 0, "lat": 38.907105666666666, "name": "90d910db5ade6770735fee0e038e7f3f", "bike_id": "90d910db5ade6770735fee0e038e7f3f", "is_disabled": 0, "fusion_lon": 0.0, "type": "electric_scooter", "lon": -77.03187183333333}, {"rental_uris": {"android": "https://dc.lft.to/lastmile_qr_scan", "ios": "https://dc.lft.to/lastmile_qr_scan"}, "fusion_lat": 0.0, "is_reserved": 0, "lat": 38.90820433333333, "name": "5c1e71be35e607ecdf32bc8c47f6f00a", "bike_id": "5c1e71be35e607ecdf32bc8c47f6f00a", "is_disabled": 0, "fusion_lon": 0.0, "type": "electric_scooter", "lon": -77.06911166666667}, {"rental_uris": {"android": "https://dc.lft.to/lastmile_qr_scan", "ios": "https://dc.lft.to/lastmile_qr_scan"}, "fusion_lat": 0.0, "is_reserved": 0, "lat": 38.92167533333333, "name": "81046adee02927fbbb3957574fd44704", "bike_id": "81046adee02927fbbb3957574fd44704", "is_disabled": 0, "fusion_lon": 0.0, "type": "electric_scooter", "lon": -77.02071616666667}, {"rental_uris": {"android": "https://dc.lft.to/lastmile_qr_scan", "ios": "https://dc.lft.to/lastmile_qr_scan"}, "fusion_lat": 0.0, "is_reserved": 0, "lat": 38.9071865, "name": "f38b4807140fe1ac0812ef986da554d3", "bike_id": "f38b4807140fe1ac0812ef986da554d3", "is_disabled": 0, "fusion_lon": 0.0, "type": "electric_scooter", "lon": -77.02541216666667}, {"rental_uris": {"android": "https://dc.lft.to/lastmile_qr_scan", "ios": "https://dc.lft.to/lastmile_qr_scan"}, "fusion_lat": 0.0, "is_reserved": 0, "lat": 38.922681833333336, "name": "30776e6a120171005c6aee8b0b933b5a", "bike_id": "30776e6a120171005c6aee8b0b933b5a", "is_disabled": 0, "fusion_lon": 0.0, "type": "electric_scooter", "lon": -76.99770166666667}, {"rental_uris": {"android": "https://dc.lft.to/lastmile_qr_scan", "ios": "https://dc.lft.to/lastmile_qr_scan"}, "fusion_lat": 0.0, "is_reserved": 0, "lat": 38.974984166666665, "name": "4ac616731a50452810b29b4ac7a45810", "bike_id": "4ac616731a50452810b29b4ac7a45810", "is_disabled": 0, "fusion_lon": 0.0, "type": "electric_scooter", "lon": -77.01692383333334}, {"rental_uris": {"android": "https://dc.lft.to/lastmile_qr_scan", "ios": "https://dc.lft.to/lastmile_qr_scan"}, "fusion_lat": 0.0, "is_reserved": 0, "lat": 38.8922625, "name": "5b015ea8465326852dfaf0829f4823b4", "bike_id": "5b015ea8465326852dfaf0829f4823b4", "is_disabled": 0, "fusion_lon": 0.0, "type": "electric_scooter", "lon": -77.04508166666666}, {"rental_uris": {"android": "https://dc.lft.to/lastmile_qr_scan", "ios": "https://dc.lft.to/lastmile_qr_scan"}, "fusion_lat": 0.0, "is_reserved": 0, "lat": 38.879178833333334, "name": "831968a5efaaa84e44d3c7eb8c7f262e", "bike_id": "831968a5efaaa84e44d3c7eb8c7f262e", "is_disabled": 0, "fusion_lon": 0.0, "type": "electric_scooter", "lon": -77.02154333333333}, {"rental_uris": {"android": "https://dc.lft.to/lastmile_qr_scan", "ios": "https://dc.lft.to/lastmile_qr_scan"}, "fusion_lat": 0.0, "is_reserved": 0, "lat": 38.91324433333333, "name": "6e5733ecc9bcb6ff1561de1747a27b25", "bike_id": "6e5733ecc9bcb6ff1561de1747a27b25", "is_disabled": 0, "fusion_lon": 0.0, "type": "electric_scooter", "lon": -77.01503633333333}, {"rental_uris": {"android": "https://dc.lft.to/lastmile_qr_scan", "ios": "https://dc.lft.to/lastmile_qr_scan"}, "fusion_lat": 0.0, "is_reserved": 0, "lat": 38.92852883333333, "name": "7189dacbcfa9a7dd143dadd5c6dbb4c8", "bike_id": "7189dacbcfa9a7dd143dadd5c6dbb4c8", "is_disabled": 0, "fusion_lon": 0.0, "type": "electric_scooter", "lon": -77.0141685}, {"rental_uris": {"android": "https://dc.lft.to/lastmile_qr_scan", "ios": "https://dc.lft.to/lastmile_qr_scan"}, "fusion_lat": 0.0, "is_reserved": 0, "lat": 38.943856, "name": "a62576ee4be389258a60ec89cd39fadc", "bike_id": "a62576ee4be389258a60ec89cd39fadc", "is_disabled": 0, "fusion_lon": 0.0, "type": "electric_bike", "lon": -77.02351166666666}, {"rental_uris": {"android": "https://dc.lft.to/lastmile_qr_scan", "ios": "https://dc.lft.to/lastmile_qr_scan"}, "fusion_lat": 0.0, "is_reserved": 0, "lat": 38.90200866666667, "name": "8de09b752e0bc562059768d12f200384", "bike_id": "8de09b752e0bc562059768d12f200384", "is_disabled": 0, "fusion_lon": 0.0, "type": "electric_scooter", "lon": -77.0217555}, {"rental_uris": {"android": "https://dc.lft.to/lastmile_qr_scan", "ios": "https://dc.lft.to/lastmile_qr_scan"}, "fusion_lat": 0.0, "is_reserved": 0, "lat": 38.91451583333333, "name": "bd90111f65e5fe55447d34d8f840b9ef", "bike_id": "bd90111f65e5fe55447d34d8f840b9ef", "is_disabled": 0, "fusion_lon": 0.0, "type": "electric_bike", "lon": -76.9728185}, {"rental_uris": {"android": "https://dc.lft.to/lastmile_qr_scan", "ios": "https://dc.lft.to/lastmile_qr_scan"}, "fusion_lat": 0.0, "is_reserved": 0, "lat": 38.898960333333335, "name": "b8d74517ecb96bed58a169e726564ca3", "bike_id": "b8d74517ecb96bed58a169e726564ca3", "is_disabled": 0, "fusion_lon": 0.0, "type": "electric_scooter", "lon": -76.98002766666667}, {"rental_uris": {"android": "https://dc.lft.to/lastmile_qr_scan", "ios": "https://dc.lft.to/lastmile_qr_scan"}, "fusion_lat": 0.0, "is_reserved": 0, "lat": 38.919230166666665, "name": "14c3d8f4461d203a3f4d30c3b97c96d0", "bike_id": "14c3d8f4461d203a3f4d30c3b97c96d0", "is_disabled": 0, "fusion_lon": 0.0, "type": "electric_scooter", "lon": -77.07273166666667}, {"rental_uris": {"android": "https://dc.lft.to/lastmile_qr_scan", "ios": "https://dc.lft.to/lastmile_qr_scan"}, "fusion_lat": 0.0, "is_reserved": 0, "lat": 38.917056333333335, "name": "02ceee9c7357a3d96cc5bb79cfaabd11", "bike_id": "02ceee9c7357a3d96cc5bb79cfaabd11", "is_disabled": 0, "fusion_lon": 0.0, "type": "electric_scooter", "lon": -77.028103}, {"rental_uris": {"android": "https://dc.lft.to/lastmile_qr_scan", "ios": "https://dc.lft.to/lastmile_qr_scan"}, "fusion_lat": 0.0, "is_reserved": 0, "lat": 38.86490916666666, "name": "e91b24a6afdd6e5f5e4c4b6a53ee67b5", "bike_id": "e91b24a6afdd6e5f5e4c4b6a53ee67b5", "is_disabled": 0, "fusion_lon": 0.0, "type": "electric_scooter", "lon": -76.97753266666666}, {"rental_uris": {"android": "https://dc.lft.to/lastmile_qr_scan", "ios": "https://dc.lft.to/lastmile_qr_scan"}, "fusion_lat": 0.0, "is_reserved": 0, "lat": 38.8812595, "name": "9917f7d6102c2bb534302244dbf43fca", "bike_id": "9917f7d6102c2bb534302244dbf43fca", "is_disabled": 0, "fusion_lon": 0.0, "type": "electric_scooter", "lon": -77.00099633333333}, {"rental_uris": {"android": "https://dc.lft.to/lastmile_qr_scan", "ios": "https://dc.lft.to/lastmile_qr_scan"}, "fusion_lat": 0.0, "is_reserved": 0, "lat": 38.9192585, "name": "e24691c4de0fa5a8e322442db9f31953", "bike_id": "e24691c4de0fa5a8e322442db9f31953", "is_disabled": 0, "fusion_lon": 0.0, "type": "electric_scooter", "lon": -77.02414216666666}, {"rental_uris": {"android": "https://dc.lft.to/lastmile_qr_scan", "ios": "https://dc.lft.to/lastmile_qr_scan"}, "fusion_lat": 0.0, "is_reserved": 0, "lat": 38.94497616666666, "name": "4d268cddbcff190e4adf8e782b304cc7", "bike_id": "4d268cddbcff190e4adf8e782b304cc7", "is_disabled": 0, "fusion_lon": 0.0, "type": "electric_bike", "lon": -77.00508216666667}, {"rental_uris": {"android": "https://dc.lft.to/lastmile_qr_scan", "ios": "https://dc.lft.to/lastmile_qr_scan"}, "fusion_lat": 0.0, "is_reserved": 0, "lat": 38.9359345, "name": "75ea3307d418d8f4a84d01f850142801", "bike_id": "75ea3307d418d8f4a84d01f850142801", "is_disabled": 0, "fusion_lon": 0.0, "type": "electric_scooter", "lon": -77.0337085}, {"rental_uris": {"android": "https://dc.lft.to/lastmile_qr_scan", "ios": "https://dc.lft.to/lastmile_qr_scan"}, "fusion_lat": 0.0, "is_reserved": 0, "lat": 38.89353166666667, "name": "379bfa8dc84ccb2457dfa2dea9212d31", "bike_id": "379bfa8dc84ccb2457dfa2dea9212d31", "is_disabled": 0, "fusion_lon": 0.0, "type": "electric_scooter", "lon": -77.01746033333333}, {"rental_uris": {"android": "https://dc.lft.to/lastmile_qr_scan", "ios": "https://dc.lft.to/lastmile_qr_scan"}, "fusion_lat": 0.0, "is_reserved": 0, "lat": 38.92176883333333, "name": "693c7fa155a422193169f95cf80e164c", "bike_id": "693c7fa155a422193169f95cf80e164c", "is_disabled": 0, "fusion_lon": 0.0, "type": "electric_scooter", "lon": -77.026669}, {"rental_uris": {"android": "https://dc.lft.to/lastmile_qr_scan", "ios": "https://dc.lft.to/lastmile_qr_scan"}, "fusion_lat": 0.0, "is_reserved": 0, "lat": 38.900415833333334, "name": "206ce150fb24d6ec0fb4579f3a287eb4", "bike_id": "206ce150fb24d6ec0fb4579f3a287eb4", "is_disabled": 0, "fusion_lon": 0.0, "type": "electric_scooter", "lon": -76.98823016666667}, {"rental_uris": {"android": "https://dc.lft.to/lastmile_qr_scan", "ios": "https://dc.lft.to/lastmile_qr_scan"}, "fusion_lat": 0.0, "is_reserved": 0, "lat": 38.917717333333336, "name": "9c85156373e7ee37335f6b0babcd1148", "bike_id": "9c85156373e7ee37335f6b0babcd1148", "is_disabled": 0, "fusion_lon": 0.0, "type": "electric_scooter", "lon": -77.02813933333333}, {"rental_uris": {"android": "https://dc.lft.to/lastmile_qr_scan", "ios": "https://dc.lft.to/lastmile_qr_scan"}, "fusion_lat": 0.0, "is_reserved": 0, "lat": 38.926142166666665, "name": "38a485d9b14ae748f17ac7d31cb56c34", "bike_id": "38a485d9b14ae748f17ac7d31cb56c34", "is_disabled": 0, "fusion_lon": 0.0, "type": "electric_scooter", "lon": -77.02162383333334}, {"rental_uris": {"android": "https://dc.lft.to/lastmile_qr_scan", "ios": "https://dc.lft.to/lastmile_qr_scan"}, "fusion_lat": 0.0, "is_reserved": 0, "lat": 38.930204833333335, "name": "837b883bd6b41a6e083d4397a31e463f", "bike_id": "837b883bd6b41a6e083d4397a31e463f", "is_disabled": 0, "fusion_lon": 0.0, "type": "electric_scooter", "lon": -77.03658916666667}, {"rental_uris": {"android": "https://dc.lft.to/lastmile_qr_scan", "ios": "https://dc.lft.to/lastmile_qr_scan"}, "fusion_lat": 0.0, "is_reserved": 0, "lat": 38.89484016666667, "name": "0641f8dfc1063155d4a685b599715b1a", "bike_id": "0641f8dfc1063155d4a685b599715b1a", "is_disabled": 0, "fusion_lon": 0.0, "type": "electric_scooter", "lon": -76.99578916666667}, {"rental_uris": {"android": "https://dc.lft.to/lastmile_qr_scan", "ios": "https://dc.lft.to/lastmile_qr_scan"}, "fusion_lat": 0.0, "is_reserved": 0, "lat": 38.90608816666666, "name": "ea1e52b9f254e16e654f025041def872", "bike_id": "ea1e52b9f254e16e654f025041def872", "is_disabled": 0, "fusion_lon": 0.0, "type": "electric_bike", "lon": -77.128915}, {"rental_uris": {"android": "https://dc.lft.to/lastmile_qr_scan", "ios": "https://dc.lft.to/lastmile_qr_scan"}, "fusion_lat": 0.0, "is_reserved": 0, "lat": 38.92457266666667, "name": "a0b58c3dda392a1fd3fb9d1af38749d2", "bike_id": "a0b58c3dda392a1fd3fb9d1af38749d2", "is_disabled": 0, "fusion_lon": 0.0, "type": "electric_scooter", "lon": -76.99911983333334}, {"rental_uris": {"android": "https://dc.lft.to/lastmile_qr_scan", "ios": "https://dc.lft.to/lastmile_qr_scan"}, "fusion_lat": 0.0, "is_reserved": 0, "lat": 38.900642500000004, "name": "484493c217662e449ba3cc5b01d78683", "bike_id": "484493c217662e449ba3cc5b01d78683", "is_disabled": 0, "fusion_lon": 0.0, "type": "electric_scooter", "lon": -76.986817}, {"rental_uris": {"android": "https://dc.lft.to/lastmile_qr_scan", "ios": "https://dc.lft.to/lastmile_qr_scan"}, "fusion_lat": 0.0, "is_reserved": 0, "lat": 38.90555966666667, "name": "517c0cccc139e398463ed4beaf54792d", "bike_id": "517c0cccc139e398463ed4beaf54792d", "is_disabled": 0, "fusion_lon": 0.0, "type": "electric_scooter", "lon": -77.05184433333334}, {"rental_uris": {"android": "https://dc.lft.to/lastmile_qr_scan", "ios": "https://dc.lft.to/lastmile_qr_scan"}, "fusion_lat": 0.0, "is_reserved": 0, "lat": 38.9386115, "name": "01fcf2928097f99efd6737c2c7e1da43", "bike_id": "01fcf2928097f99efd6737c2c7e1da43", "is_disabled": 0, "fusion_lon": 0.0, "type": "electric_scooter", "lon": -77.02473733333333}, {"rental_uris": {"android": "https://dc.lft.to/lastmile_qr_scan", "ios": "https://dc.lft.to/lastmile_qr_scan"}, "fusion_lat": 0.0, "is_reserved": 0, "lat": 38.918298166666666, "name": "0f0ddfec477ed3037caba52bcc32eec2", "bike_id": "0f0ddfec477ed3037caba52bcc32eec2", "is_disabled": 0, "fusion_lon": 0.0, "type": "electric_scooter", "lon": -77.04561083333333}, {"rental_uris": {"android": "https://dc.lft.to/lastmile_qr_scan", "ios": "https://dc.lft.to/lastmile_qr_scan"}, "fusion_lat": 0.0, "is_reserved": 0, "lat": 38.8643235, "name": "772a8bc44cf19eb4bae9742822085c22", "bike_id": "772a8bc44cf19eb4bae9742822085c22", "is_disabled": 0, "fusion_lon": 0.0, "type": "electric_scooter", "lon": -76.9985815}, {"rental_uris": {"android": "https://dc.lft.to/lastmile_qr_scan", "ios": "https://dc.lft.to/lastmile_qr_scan"}, "fusion_lat": 0.0, "is_reserved": 0, "lat": 38.93447183333333, "name": "8728d6e11b6a64f7fa6115cd77c56b61", "bike_id": "8728d6e11b6a64f7fa6115cd77c56b61", "is_disabled": 0, "fusion_lon": 0.0, "type": "electric_scooter", "lon": -77.02976783333334}, {"rental_uris": {"android": "https://dc.lft.to/lastmile_qr_scan", "ios": "https://dc.lft.to/lastmile_qr_scan"}, "fusion_lat": 0.0, "is_reserved": 0, "lat": 38.9243945, "name": "c280d02a0d4b0267ec7f4d435436cccb", "bike_id": "c280d02a0d4b0267ec7f4d435436cccb", "is_disabled": 0, "fusion_lon": 0.0, "type": "electric_scooter", "lon": -77.03784733333333}, {"rental_uris": {"android": "https://dc.lft.to/lastmile_qr_scan", "ios": "https://dc.lft.to/lastmile_qr_scan"}, "fusion_lat": 0.0, "is_reserved": 0, "lat": 38.88049516666667, "name": "bbd08503e3ba2a9f308ba5c4174ff095", "bike_id": "bbd08503e3ba2a9f308ba5c4174ff095", "is_disabled": 0, "fusion_lon": 0.0, "type": "electric_scooter", "lon": -77.01182333333334}, {"rental_uris": {"android": "https://dc.lft.to/lastmile_qr_scan", "ios": "https://dc.lft.to/lastmile_qr_scan"}, "fusion_lat": 0.0, "is_reserved": 0, "lat": 38.932540333333336, "name": "67448bfac488b96f9925515983b59147", "bike_id": "67448bfac488b96f9925515983b59147", "is_disabled": 0, "fusion_lon": 0.0, "type": "electric_scooter", "lon": -77.03262916666667}, {"rental_uris": {"android": "https://dc.lft.to/lastmile_qr_scan", "ios": "https://dc.lft.to/lastmile_qr_scan"}, "fusion_lat": 0.0, "is_reserved": 0, "lat": 38.9018135, "name": "b288e314ef2b9fd8b5d66a596eb911f9", "bike_id": "b288e314ef2b9fd8b5d66a596eb911f9", "is_disabled": 0, "fusion_lon": 0.0, "type": "electric_scooter", "lon": -76.98838616666667}, {"rental_uris": {"android": "https://dc.lft.to/lastmile_qr_scan", "ios": "https://dc.lft.to/lastmile_qr_scan"}, "fusion_lat": 0.0, "is_reserved": 0, "lat": 38.89087116666666, "name": "1a9a0d71a223d66e535186552648b11d", "bike_id": "1a9a0d71a223d66e535186552648b11d", "is_disabled": 0, "fusion_lon": 0.0, "type": "electric_scooter", "lon": -76.91926516666666}, {"rental_uris": {"android": "https://dc.lft.to/lastmile_qr_scan", "ios": "https://dc.lft.to/lastmile_qr_scan"}, "fusion_lat": 0.0, "is_reserved": 0, "lat": 38.906665333333336, "name": "0101b1815c5a8cbd90c4f5e062be2b89", "bike_id": "0101b1815c5a8cbd90c4f5e062be2b89", "is_disabled": 0, "fusion_lon": 0.0, "type": "electric_scooter", "lon": -77.05019716666666}, {"rental_uris": {"android": "https://dc.lft.to/lastmile_qr_scan", "ios": "https://dc.lft.to/lastmile_qr_scan"}, "fusion_lat": 0.0, "is_reserved": 0, "lat": 38.93298716666666, "name": "7a4ef2725f872c630cb56fae1b126da5", "bike_id": "7a4ef2725f872c630cb56fae1b126da5", "is_disabled": 0, "fusion_lon": 0.0, "type": "electric_scooter", "lon": -77.02469083333334}, {"rental_uris": {"android": "https://dc.lft.to/lastmile_qr_scan", "ios": "https://dc.lft.to/lastmile_qr_scan"}, "fusion_lat": 0.0, "is_reserved": 0, "lat": 38.901777, "name": "a2329f80fd9ff232cd7c4dd422c204d9", "bike_id": "a2329f80fd9ff232cd7c4dd422c204d9", "is_disabled": 0, "fusion_lon": 0.0, "type": "electric_scooter", "lon": -77.02487633333334}, {"rental_uris": {"android": "https://dc.lft.to/lastmile_qr_scan", "ios": "https://dc.lft.to/lastmile_qr_scan"}, "fusion_lat": 0.0, "is_reserved": 0, "lat": 38.92350066666667, "name": "1a5c186afb6d1c326d91f50e6ebe158c", "bike_id": "1a5c186afb6d1c326d91f50e6ebe158c", "is_disabled": 0, "fusion_lon": 0.0, "type": "electric_scooter", "lon": -77.01899616666667}, {"rental_uris": {"android": "https://dc.lft.to/lastmile_qr_scan", "ios": "https://dc.lft.to/lastmile_qr_scan"}, "fusion_lat": 0.0, "is_reserved": 0, "lat": 38.931291333333334, "name": "0e12d6fa6becf2894a191c33b537a104", "bike_id": "0e12d6fa6becf2894a191c33b537a104", "is_disabled": 0, "fusion_lon": 0.0, "type": "electric_scooter", "lon": -77.02346183333333}, {"rental_uris": {"android": "https://dc.lft.to/lastmile_qr_scan", "ios": "https://dc.lft.to/lastmile_qr_scan"}, "fusion_lat": 0.0, "is_reserved": 0, "lat": 38.90129016666667, "name": "717830962ae0d88a40d009514d2d405a", "bike_id": "717830962ae0d88a40d009514d2d405a", "is_disabled": 0, "fusion_lon": 0.0, "type": "electric_scooter", "lon": -77.04387383333334}, {"rental_uris": {"android": "https://dc.lft.to/lastmile_qr_scan", "ios": "https://dc.lft.to/lastmile_qr_scan"}, "fusion_lat": 0.0, "is_reserved": 0, "lat": 38.89355716666667, "name": "6abfc7d0ee24d58b6a7eb9e1d175a5ea", "bike_id": "6abfc7d0ee24d58b6a7eb9e1d175a5ea", "is_disabled": 0, "fusion_lon": 0.0, "type": "electric_scooter", "lon": -77.00334683333334}, {"rental_uris": {"android": "https://dc.lft.to/lastmile_qr_scan", "ios": "https://dc.lft.to/lastmile_qr_scan"}, "fusion_lat": 0.0, "is_reserved": 0, "lat": 38.9993685, "name": "263a9544c6f76a54a01fdc8439ae826e", "bike_id": "263a9544c6f76a54a01fdc8439ae826e", "is_disabled": 0, "fusion_lon": 0.0, "type": "electric_bike", "lon": -77.05038716666667}, {"rental_uris": {"android": "https://dc.lft.to/lastmile_qr_scan", "ios": "https://dc.lft.to/lastmile_qr_scan"}, "fusion_lat": 0.0, "is_reserved": 0, "lat": 38.9237625, "name": "9828f9917394998f13589c427cca2ce0", "bike_id": "9828f9917394998f13589c427cca2ce0", "is_disabled": 0, "fusion_lon": 0.0, "type": "electric_scooter", "lon": -77.05175916666667}, {"rental_uris": {"android": "https://dc.lft.to/lastmile_qr_scan", "ios": "https://dc.lft.to/lastmile_qr_scan"}, "fusion_lat": 0.0, "is_reserved": 0, "lat": 38.91035083333333, "name": "a0db60d763f711e98f885f98ec202910", "bike_id": "a0db60d763f711e98f885f98ec202910", "is_disabled": 0, "fusion_lon": 0.0, "type": "electric_scooter", "lon": -77.03801683333333}, {"rental_uris": {"android": "https://dc.lft.to/lastmile_qr_scan", "ios": "https://dc.lft.to/lastmile_qr_scan"}, "fusion_lat": 0.0, "is_reserved": 0, "lat": 38.928226, "name": "fe553ec75dcc909ddacddffcf0cd8154", "bike_id": "fe553ec75dcc909ddacddffcf0cd8154", "is_disabled": 0, "fusion_lon": 0.0, "type": "electric_scooter", "lon": -77.01411}, {"rental_uris": {"android": "https://dc.lft.to/lastmile_qr_scan", "ios": "https://dc.lft.to/lastmile_qr_scan"}, "fusion_lat": 0.0, "is_reserved": 0, "lat": 38.89646916666667, "name": "9797f9265226a6d7bd256b7d81823877", "bike_id": "9797f9265226a6d7bd256b7d81823877", "is_disabled": 0, "fusion_lon": 0.0, "type": "electric_scooter", "lon": -77.0269995}, {"rental_uris": {"android": "https://dc.lft.to/lastmile_qr_scan", "ios": "https://dc.lft.to/lastmile_qr_scan"}, "fusion_lat": 0.0, "is_reserved": 0, "lat": 38.92229116666667, "name": "eec08b2bbef6f18e9e26906812ab14cb", "bike_id": "eec08b2bbef6f18e9e26906812ab14cb", "is_disabled": 0, "fusion_lon": 0.0, "type": "electric_scooter", "lon": -76.97535116666667}, {"rental_uris": {"android": "https://dc.lft.to/lastmile_qr_scan", "ios": "https://dc.lft.to/lastmile_qr_scan"}, "fusion_lat": 0.0, "is_reserved": 0, "lat": 38.8922435, "name": "67e7a82d89df5feb23869c8d9541b6c3", "bike_id": "67e7a82d89df5feb23869c8d9541b6c3", "is_disabled": 0, "fusion_lon": 0.0, "type": "electric_scooter", "lon": -77.03338366666667}, {"rental_uris": {"android": "https://dc.lft.to/lastmile_qr_scan", "ios": "https://dc.lft.to/lastmile_qr_scan"}, "fusion_lat": 0.0, "is_reserved": 0, "lat": 38.87963, "name": "619e8e88cda6f7562a900d02aa5d6544", "bike_id": "619e8e88cda6f7562a900d02aa5d6544", "is_disabled": 0, "fusion_lon": 0.0, "type": "electric_scooter", "lon": -77.0006835}, {"rental_uris": {"android": "https://dc.lft.to/lastmile_qr_scan", "ios": "https://dc.lft.to/lastmile_qr_scan"}, "fusion_lat": 0.0, "is_reserved": 0, "lat": 38.96464916666667, "name": "6c66b7896f0e09d4343fb26ad621ad3b", "bike_id": "6c66b7896f0e09d4343fb26ad621ad3b", "is_disabled": 0, "fusion_lon": 0.0, "type": "electric_bike", "lon": -77.106551}, {"rental_uris": {"android": "https://dc.lft.to/lastmile_qr_scan", "ios": "https://dc.lft.to/lastmile_qr_scan"}, "fusion_lat": 0.0, "is_reserved": 0, "lat": 38.90730166666667, "name": "4e36efc99dc56471908e5f68489bc324", "bike_id": "4e36efc99dc56471908e5f68489bc324", "is_disabled": 0, "fusion_lon": 0.0, "type": "electric_scooter", "lon": -77.032183}, {"rental_uris": {"android": "https://dc.lft.to/lastmile_qr_scan", "ios": "https://dc.lft.to/lastmile_qr_scan"}, "fusion_lat": 0.0, "is_reserved": 0, "lat": 38.88266616666667, "name": "d1398c223f48d5ef760c6f86e7d2a4d9", "bike_id": "d1398c223f48d5ef760c6f86e7d2a4d9", "is_disabled": 0, "fusion_lon": 0.0, "type": "electric_scooter", "lon": -76.99199983333334}, {"rental_uris": {"android": "https://dc.lft.to/lastmile_qr_scan", "ios": "https://dc.lft.to/lastmile_qr_scan"}, "fusion_lat": 0.0, "is_reserved": 0, "lat": 38.9269865, "name": "d50648d9c33a1ee55388a215655235b3", "bike_id": "d50648d9c33a1ee55388a215655235b3", "is_disabled": 0, "fusion_lon": 0.0, "type": "electric_scooter", "lon": -77.02056333333333}, {"rental_uris": {"android": "https://dc.lft.to/lastmile_qr_scan", "ios": "https://dc.lft.to/lastmile_qr_scan"}, "fusion_lat": 0.0, "is_reserved": 0, "lat": 38.896219, "name": "97a05f1dd61abc216c1e9b683931312f", "bike_id": "97a05f1dd61abc216c1e9b683931312f", "is_disabled": 0, "fusion_lon": 0.0, "type": "electric_scooter", "lon": -77.011739}, {"rental_uris": {"android": "https://dc.lft.to/lastmile_qr_scan", "ios": "https://dc.lft.to/lastmile_qr_scan"}, "fusion_lat": 0.0, "is_reserved": 0, "lat": 38.90576733333333, "name": "6439366a8595a129b20dd81663a3b65b", "bike_id": "6439366a8595a129b20dd81663a3b65b", "is_disabled": 0, "fusion_lon": 0.0, "type": "electric_scooter", "lon": -77.041899}, {"rental_uris": {"android": "https://dc.lft.to/lastmile_qr_scan", "ios": "https://dc.lft.to/lastmile_qr_scan"}, "fusion_lat": 0.0, "is_reserved": 0, "lat": 38.9472925, "name": "ed64617b385686a45aee1839320c1037", "bike_id": "ed64617b385686a45aee1839320c1037", "is_disabled": 0, "fusion_lon": 0.0, "type": "electric_scooter", "lon": -77.0245825}, {"rental_uris": {"android": "https://dc.lft.to/lastmile_qr_scan", "ios": "https://dc.lft.to/lastmile_qr_scan"}, "fusion_lat": 0.0, "is_reserved": 0, "lat": 38.90069316666667, "name": "851f10437e9dcc64395a29ba071c50c5", "bike_id": "851f10437e9dcc64395a29ba071c50c5", "is_disabled": 0, "fusion_lon": 0.0, "type": "electric_scooter", "lon": -76.92748316666666}, {"rental_uris": {"android": "https://dc.lft.to/lastmile_qr_scan", "ios": "https://dc.lft.to/lastmile_qr_scan"}, "fusion_lat": 0.0, "is_reserved": 0, "lat": 38.92053933333333, "name": "cf1bc9e9c7f0aa32c86f4a2d52630310", "bike_id": "cf1bc9e9c7f0aa32c86f4a2d52630310", "is_disabled": 0, "fusion_lon": 0.0, "type": "electric_scooter", "lon": -77.02986083333333}, {"rental_uris": {"android": "https://dc.lft.to/lastmile_qr_scan", "ios": "https://dc.lft.to/lastmile_qr_scan"}, "fusion_lat": 0.0, "is_reserved": 0, "lat": 38.9096105, "name": "f7d628d8ae298d49b82873b4b8948fba", "bike_id": "f7d628d8ae298d49b82873b4b8948fba", "is_disabled": 0, "fusion_lon": 0.0, "type": "electric_scooter", "lon": -77.04663383333333}, {"rental_uris": {"android": "https://dc.lft.to/lastmile_qr_scan", "ios": "https://dc.lft.to/lastmile_qr_scan"}, "fusion_lat": 0.0, "is_reserved": 0, "lat": 38.952177, "name": "28fd2af2b60fb648cfab932cc280fd36", "bike_id": "28fd2af2b60fb648cfab932cc280fd36", "is_disabled": 0, "fusion_lon": 0.0, "type": "electric_bike", "lon": -77.00253616666667}, {"rental_uris": {"android": "https://dc.lft.to/lastmile_qr_scan", "ios": "https://dc.lft.to/lastmile_qr_scan"}, "fusion_lat": 0.0, "is_reserved": 0, "lat": 38.876353, "name": "105108617824f51f6494e0737535501c", "bike_id": "105108617824f51f6494e0737535501c", "is_disabled": 0, "fusion_lon": 0.0, "type": "electric_scooter", "lon": -77.01658866666666}, {"rental_uris": {"android": "https://dc.lft.to/lastmile_qr_scan", "ios": "https://dc.lft.to/lastmile_qr_scan"}, "fusion_lat": 0.0, "is_reserved": 0, "lat": 38.92203216666667, "name": "2a160fede7ccde9b2e42f09e4b243704", "bike_id": "2a160fede7ccde9b2e42f09e4b243704", "is_disabled": 0, "fusion_lon": 0.0, "type": "electric_scooter", "lon": -77.0271195}, {"rental_uris": {"android": "https://dc.lft.to/lastmile_qr_scan", "ios": "https://dc.lft.to/lastmile_qr_scan"}, "fusion_lat": 0.0, "is_reserved": 0, "lat": 38.91486666666667, "name": "af35b15949c739509d9ca50c29ac0607", "bike_id": "af35b15949c739509d9ca50c29ac0607", "is_disabled": 0, "fusion_lon": 0.0, "type": "electric_scooter", "lon": -77.02191983333333}, {"rental_uris": {"android": "https://dc.lft.to/lastmile_qr_scan", "ios": "https://dc.lft.to/lastmile_qr_scan"}, "fusion_lat": 0.0, "is_reserved": 0, "lat": 38.910546, "name": "746bce0a68436ba609e3ca43e5aeaa97", "bike_id": "746bce0a68436ba609e3ca43e5aeaa97", "is_disabled": 0, "fusion_lon": 0.0, "type": "electric_scooter", "lon": -77.02193983333333}, {"rental_uris": {"android": "https://dc.lft.to/lastmile_qr_scan", "ios": "https://dc.lft.to/lastmile_qr_scan"}, "fusion_lat": 0.0, "is_reserved": 0, "lat": 38.922303166666666, "name": "ccc6945da1a3512c826991698c282a9d", "bike_id": "ccc6945da1a3512c826991698c282a9d", "is_disabled": 0, "fusion_lon": 0.0, "type": "electric_scooter", "lon": -77.023336}, {"rental_uris": {"android": "https://dc.lft.to/lastmile_qr_scan", "ios": "https://dc.lft.to/lastmile_qr_scan"}, "fusion_lat": 0.0, "is_reserved": 0, "lat": 38.87180166666667, "name": "4f291e27ebe0cc5bb4045792c1e4fb63", "bike_id": "4f291e27ebe0cc5bb4045792c1e4fb63", "is_disabled": 0, "fusion_lon": 0.0, "type": "electric_scooter", "lon": -77.00612633333333}, {"rental_uris": {"android": "https://dc.lft.to/lastmile_qr_scan", "ios": "https://dc.lft.to/lastmile_qr_scan"}, "fusion_lat": 0.0, "is_reserved": 0, "lat": 38.89784516666667, "name": "ed61a3c07fbc7dc886ae32cd21b7313b", "bike_id": "ed61a3c07fbc7dc886ae32cd21b7313b", "is_disabled": 0, "fusion_lon": 0.0, "type": "electric_scooter", "lon": -77.01577116666667}, {"rental_uris": {"android": "https://dc.lft.to/lastmile_qr_scan", "ios": "https://dc.lft.to/lastmile_qr_scan"}, "fusion_lat": 0.0, "is_reserved": 0, "lat": 38.8901475, "name": "ef9d61e75ec960f8f10d03aa1f4dfd17", "bike_id": "ef9d61e75ec960f8f10d03aa1f4dfd17", "is_disabled": 0, "fusion_lon": 0.0, "type": "electric_scooter", "lon": -76.93736566666666}, {"rental_uris": {"android": "https://dc.lft.to/lastmile_qr_scan", "ios": "https://dc.lft.to/lastmile_qr_scan"}, "fusion_lat": 0.0, "is_reserved": 0, "lat": 38.9009655, "name": "aecc11093c97a8136a8f2b1961d07119", "bike_id": "aecc11093c97a8136a8f2b1961d07119", "is_disabled": 0, "fusion_lon": 0.0, "type": "electric_scooter", "lon": -76.9801335}, {"rental_uris": {"android": "https://dc.lft.to/lastmile_qr_scan", "ios": "https://dc.lft.to/lastmile_qr_scan"}, "fusion_lat": 0.0, "is_reserved": 0, "lat": 38.919725, "name": "c8ea5a0150ba0b530de486b370a7389b", "bike_id": "c8ea5a0150ba0b530de486b370a7389b", "is_disabled": 0, "fusion_lon": 0.0, "type": "electric_scooter", "lon": -77.0219505}, {"rental_uris": {"android": "https://dc.lft.to/lastmile_qr_scan", "ios": "https://dc.lft.to/lastmile_qr_scan"}, "fusion_lat": 0.0, "is_reserved": 0, "lat": 38.90548916666667, "name": "36038377175202014a2215e77134cf9d", "bike_id": "36038377175202014a2215e77134cf9d", "is_disabled": 0, "fusion_lon": 0.0, "type": "electric_scooter", "lon": -77.00546166666666}, {"rental_uris": {"android": "https://dc.lft.to/lastmile_qr_scan", "ios": "https://dc.lft.to/lastmile_qr_scan"}, "fusion_lat": 0.0, "is_reserved": 0, "lat": 38.911054, "name": "ccfadc8192d25651baa8561736cfe395", "bike_id": "ccfadc8192d25651baa8561736cfe395", "is_disabled": 0, "fusion_lon": 0.0, "type": "electric_scooter", "lon": -77.0734945}, {"rental_uris": {"android": "https://dc.lft.to/lastmile_qr_scan", "ios": "https://dc.lft.to/lastmile_qr_scan"}, "fusion_lat": 0.0, "is_reserved": 0, "lat": 38.9395185, "name": "132b1eaaed4017de124e87a2084f5f72", "bike_id": "132b1eaaed4017de124e87a2084f5f72", "is_disabled": 0, "fusion_lon": 0.0, "type": "electric_scooter", "lon": -77.07248183333333}, {"rental_uris": {"android": "https://dc.lft.to/lastmile_qr_scan", "ios": "https://dc.lft.to/lastmile_qr_scan"}, "fusion_lat": 0.0, "is_reserved": 0, "lat": 38.887214, "name": "7db40a7f683077b41faf4516c95383f0", "bike_id": "7db40a7f683077b41faf4516c95383f0", "is_disabled": 0, "fusion_lon": 0.0, "type": "electric_scooter", "lon": -77.02182266666667}, {"rental_uris": {"android": "https://dc.lft.to/lastmile_qr_scan", "ios": "https://dc.lft.to/lastmile_qr_scan"}, "fusion_lat": 0.0, "is_reserved": 0, "lat": 38.8427945, "name": "b6c2af7a8b067eee6c10b0036ec7d62a", "bike_id": "b6c2af7a8b067eee6c10b0036ec7d62a", "is_disabled": 0, "fusion_lon": 0.0, "type": "electric_bike", "lon": -76.988427}, {"rental_uris": {"android": "https://dc.lft.to/lastmile_qr_scan", "ios": "https://dc.lft.to/lastmile_qr_scan"}, "fusion_lat": 0.0, "is_reserved": 0, "lat": 38.91816016666667, "name": "12f65ddc257884492f772e895ea7140b", "bike_id": "12f65ddc257884492f772e895ea7140b", "is_disabled": 0, "fusion_lon": 0.0, "type": "electric_scooter", "lon": -77.02475933333334}, {"rental_uris": {"android": "https://dc.lft.to/lastmile_qr_scan", "ios": "https://dc.lft.to/lastmile_qr_scan"}, "fusion_lat": 0.0, "is_reserved": 0, "lat": 38.89797766666667, "name": "7a4beffa3e721153399c3bf9f2ff251b", "bike_id": "7a4beffa3e721153399c3bf9f2ff251b", "is_disabled": 0, "fusion_lon": 0.0, "type": "electric_scooter", "lon": -77.04609466666666}, {"rental_uris": {"android": "https://dc.lft.to/lastmile_qr_scan", "ios": "https://dc.lft.to/lastmile_qr_scan"}, "fusion_lat": 0.0, "is_reserved": 0, "lat": 38.934712833333336, "name": "728a700e817e1439ff72ebfdea3dcb49", "bike_id": "728a700e817e1439ff72ebfdea3dcb49", "is_disabled": 0, "fusion_lon": 0.0, "type": "electric_scooter", "lon": -77.04132516666667}, {"rental_uris": {"android": "https://dc.lft.to/lastmile_qr_scan", "ios": "https://dc.lft.to/lastmile_qr_scan"}, "fusion_lat": 0.0, "is_reserved": 0, "lat": 38.91416533333334, "name": "665e61a1c87baa19ff226bb9327a49f8", "bike_id": "665e61a1c87baa19ff226bb9327a49f8", "is_disabled": 0, "fusion_lon": 0.0, "type": "electric_scooter", "lon": -77.01909233333333}, {"rental_uris": {"android": "https://dc.lft.to/lastmile_qr_scan", "ios": "https://dc.lft.to/lastmile_qr_scan"}, "fusion_lat": 0.0, "is_reserved": 0, "lat": 38.907775666666666, "name": "a7b7716d31fec78093f41e6a4a838c5f", "bike_id": "a7b7716d31fec78093f41e6a4a838c5f", "is_disabled": 0, "fusion_lon": 0.0, "type": "electric_scooter", "lon": -77.037588}, {"rental_uris": {"android": "https://dc.lft.to/lastmile_qr_scan", "ios": "https://dc.lft.to/lastmile_qr_scan"}, "fusion_lat": 0.0, "is_reserved": 0, "lat": 38.93857033333333, "name": "2105f1e25fde20db430bf73f79b41373", "bike_id": "2105f1e25fde20db430bf73f79b41373", "is_disabled": 0, "fusion_lon": 0.0, "type": "electric_scooter", "lon": -77.02472866666666}, {"rental_uris": {"android": "https://dc.lft.to/lastmile_qr_scan", "ios": "https://dc.lft.to/lastmile_qr_scan"}, "fusion_lat": 0.0, "is_reserved": 0, "lat": 38.888336, "name": "af359ad453c64694f01d0570b7c2086f", "bike_id": "af359ad453c64694f01d0570b7c2086f", "is_disabled": 0, "fusion_lon": 0.0, "type": "electric_scooter", "lon": -76.9868755}, {"rental_uris": {"android": "https://dc.lft.to/lastmile_qr_scan", "ios": "https://dc.lft.to/lastmile_qr_scan"}, "fusion_lat": 0.0, "is_reserved": 0, "lat": 38.93087833333333, "name": "18acfa21e0571f597e22aa7b5620fdbe", "bike_id": "18acfa21e0571f597e22aa7b5620fdbe", "is_disabled": 0, "fusion_lon": 0.0, "type": "electric_scooter", "lon": -77.03770616666667}, {"rental_uris": {"android": "https://dc.lft.to/lastmile_qr_scan", "ios": "https://dc.lft.to/lastmile_qr_scan"}, "fusion_lat": 0.0, "is_reserved": 0, "lat": 38.8961835, "name": "59b99848330cd9fcc52a16deea830a71", "bike_id": "59b99848330cd9fcc52a16deea830a71", "is_disabled": 0, "fusion_lon": 0.0, "type": "electric_scooter", "lon": -77.02597066666667}, {"rental_uris": {"android": "https://dc.lft.to/lastmile_qr_scan", "ios": "https://dc.lft.to/lastmile_qr_scan"}, "fusion_lat": 0.0, "is_reserved": 0, "lat": 38.9185635, "name": "f1cde5132fdab4796f77f69c244f5609", "bike_id": "f1cde5132fdab4796f77f69c244f5609", "is_disabled": 0, "fusion_lon": 0.0, "type": "electric_scooter", "lon": -77.03532916666667}, {"rental_uris": {"android": "https://dc.lft.to/lastmile_qr_scan", "ios": "https://dc.lft.to/lastmile_qr_scan"}, "fusion_lat": 0.0, "is_reserved": 0, "lat": 38.9158, "name": "dbeeb85cf34f417ad27299319062018d", "bike_id": "dbeeb85cf34f417ad27299319062018d", "is_disabled": 0, "fusion_lon": 0.0, "type": "electric_scooter", "lon": -77.01234866666667}, {"rental_uris": {"android": "https://dc.lft.to/lastmile_qr_scan", "ios": "https://dc.lft.to/lastmile_qr_scan"}, "fusion_lat": 0.0, "is_reserved": 0, "lat": 38.92873783333334, "name": "1664673557cbb32ce84780f1f961d121", "bike_id": "1664673557cbb32ce84780f1f961d121", "is_disabled": 0, "fusion_lon": 0.0, "type": "electric_scooter", "lon": -77.027091}, {"rental_uris": {"android": "https://dc.lft.to/lastmile_qr_scan", "ios": "https://dc.lft.to/lastmile_qr_scan"}, "fusion_lat": 0.0, "is_reserved": 0, "lat": 38.91947066666667, "name": "3cb6daf6ad63e4f9f2c8b45d53bf0545", "bike_id": "3cb6daf6ad63e4f9f2c8b45d53bf0545", "is_disabled": 0, "fusion_lon": 0.0, "type": "electric_scooter", "lon": -76.99196533333334}, {"rental_uris": {"android": "https://dc.lft.to/lastmile_qr_scan", "ios": "https://dc.lft.to/lastmile_qr_scan"}, "fusion_lat": 0.0, "is_reserved": 0, "lat": 38.908084, "name": "014829617e36c121c1a7addf8f6d46d8", "bike_id": "014829617e36c121c1a7addf8f6d46d8", "is_disabled": 0, "fusion_lon": 0.0, "type": "electric_scooter", "lon": -77.04201816666667}, {"rental_uris": {"android": "https://dc.lft.to/lastmile_qr_scan", "ios": "https://dc.lft.to/lastmile_qr_scan"}, "fusion_lat": 0.0, "is_reserved": 0, "lat": 38.919007666666666, "name": "851df055250eb7df13c446c49473a20c", "bike_id": "851df055250eb7df13c446c49473a20c", "is_disabled": 0, "fusion_lon": 0.0, "type": "electric_scooter", "lon": -77.02055266666666}, {"rental_uris": {"android": "https://dc.lft.to/lastmile_qr_scan", "ios": "https://dc.lft.to/lastmile_qr_scan"}, "fusion_lat": 0.0, "is_reserved": 0, "lat": 38.92781216666667, "name": "dd6dfe6d908de9382708b2d543a33451", "bike_id": "dd6dfe6d908de9382708b2d543a33451", "is_disabled": 0, "fusion_lon": 0.0, "type": "electric_scooter", "lon": -77.02708483333333}, {"rental_uris": {"android": "https://dc.lft.to/lastmile_qr_scan", "ios": "https://dc.lft.to/lastmile_qr_scan"}, "fusion_lat": 0.0, "is_reserved": 0, "lat": 38.89777483333334, "name": "285be448f857988737dd9479795f53ec", "bike_id": "285be448f857988737dd9479795f53ec", "is_disabled": 0, "fusion_lon": 0.0, "type": "electric_scooter", "lon": -77.01575216666667}, {"rental_uris": {"android": "https://dc.lft.to/lastmile_qr_scan", "ios": "https://dc.lft.to/lastmile_qr_scan"}, "fusion_lat": 0.0, "is_reserved": 0, "lat": 38.8808405, "name": "3138306cd58eb5bbf5d5d60cd8c2053e", "bike_id": "3138306cd58eb5bbf5d5d60cd8c2053e", "is_disabled": 0, "fusion_lon": 0.0, "type": "electric_scooter", "lon": -76.98511766666667}, {"rental_uris": {"android": "https://dc.lft.to/lastmile_qr_scan", "ios": "https://dc.lft.to/lastmile_qr_scan"}, "fusion_lat": 0.0, "is_reserved": 0, "lat": 38.933618833333334, "name": "df4deb8a3c9ac8404dd4ed9f240375c8", "bike_id": "df4deb8a3c9ac8404dd4ed9f240375c8", "is_disabled": 0, "fusion_lon": 0.0, "type": "electric_scooter", "lon": -77.02426483333333}, {"rental_uris": {"android": "https://dc.lft.to/lastmile_qr_scan", "ios": "https://dc.lft.to/lastmile_qr_scan"}, "fusion_lat": 0.0, "is_reserved": 0, "lat": 38.950345166666665, "name": "ed4f489f4b8a9b0f748052dd81cc503f", "bike_id": "ed4f489f4b8a9b0f748052dd81cc503f", "is_disabled": 0, "fusion_lon": 0.0, "type": "electric_bike", "lon": -76.97101566666667}, {"rental_uris": {"android": "https://dc.lft.to/lastmile_qr_scan", "ios": "https://dc.lft.to/lastmile_qr_scan"}, "fusion_lat": 0.0, "is_reserved": 0, "lat": 38.887694833333335, "name": "bc2aec0596affc37e813fcb62952f51d", "bike_id": "bc2aec0596affc37e813fcb62952f51d", "is_disabled": 0, "fusion_lon": 0.0, "type": "electric_scooter", "lon": -76.93262133333333}, {"rental_uris": {"android": "https://dc.lft.to/lastmile_qr_scan", "ios": "https://dc.lft.to/lastmile_qr_scan"}, "fusion_lat": 0.0, "is_reserved": 0, "lat": 38.96965333333333, "name": "42a3d169ba4bade67f627e0238e43313", "bike_id": "42a3d169ba4bade67f627e0238e43313", "is_disabled": 0, "fusion_lon": 0.0, "type": "electric_bike", "lon": -77.02748583333333}, {"rental_uris": {"android": "https://dc.lft.to/lastmile_qr_scan", "ios": "https://dc.lft.to/lastmile_qr_scan"}, "fusion_lat": 0.0, "is_reserved": 0, "lat": 38.907314, "name": "f177f7d7d11235fc27a0b3b61134d8a0", "bike_id": "f177f7d7d11235fc27a0b3b61134d8a0", "is_disabled": 0, "fusion_lon": 0.0, "type": "electric_scooter", "lon": -77.01726366666666}, {"rental_uris": {"android": "https://dc.lft.to/lastmile_qr_scan", "ios": "https://dc.lft.to/lastmile_qr_scan"}, "fusion_lat": 0.0, "is_reserved": 0, "lat": 38.921569833333336, "name": "6bbb8fe2e40a082d7516c293a548fce7", "bike_id": "6bbb8fe2e40a082d7516c293a548fce7", "is_disabled": 0, "fusion_lon": 0.0, "type": "electric_scooter", "lon": -77.0338445}, {"rental_uris": {"android": "https://dc.lft.to/lastmile_qr_scan", "ios": "https://dc.lft.to/lastmile_qr_scan"}, "fusion_lat": 0.0, "is_reserved": 0, "lat": 38.9236455, "name": "b08ca2b6e2f4a6d19a039fcf5792dcb6", "bike_id": "b08ca2b6e2f4a6d19a039fcf5792dcb6", "is_disabled": 0, "fusion_lon": 0.0, "type": "electric_scooter", "lon": -77.05030683333334}, {"rental_uris": {"android": "https://dc.lft.to/lastmile_qr_scan", "ios": "https://dc.lft.to/lastmile_qr_scan"}, "fusion_lat": 0.0, "is_reserved": 0, "lat": 38.92029733333333, "name": "71357d9320cab61c0e3dfb22e37b91c9", "bike_id": "71357d9320cab61c0e3dfb22e37b91c9", "is_disabled": 0, "fusion_lon": 0.0, "type": "electric_scooter", "lon": -76.9854595}, {"rental_uris": {"android": "https://dc.lft.to/lastmile_qr_scan", "ios": "https://dc.lft.to/lastmile_qr_scan"}, "fusion_lat": 0.0, "is_reserved": 0, "lat": 38.88775433333333, "name": "e8f592f5d22647a3c0389e9fb4554491", "bike_id": "e8f592f5d22647a3c0389e9fb4554491", "is_disabled": 0, "fusion_lon": 0.0, "type": "electric_bike", "lon": -76.900791}, {"rental_uris": {"android": "https://dc.lft.to/lastmile_qr_scan", "ios": "https://dc.lft.to/lastmile_qr_scan"}, "fusion_lat": 0.0, "is_reserved": 0, "lat": 38.92171283333333, "name": "578bc043da44f62d38d0d8a4d10ffd92", "bike_id": "578bc043da44f62d38d0d8a4d10ffd92", "is_disabled": 0, "fusion_lon": 0.0, "type": "electric_scooter", "lon": -77.01911733333333}, {"rental_uris": {"android": "https://dc.lft.to/lastmile_qr_scan", "ios": "https://dc.lft.to/lastmile_qr_scan"}, "fusion_lat": 0.0, "is_reserved": 0, "lat": 38.899149333333334, "name": "fa72d487afe5ed57b128f39ad2afcba9", "bike_id": "fa72d487afe5ed57b128f39ad2afcba9", "is_disabled": 0, "fusion_lon": 0.0, "type": "electric_scooter", "lon": -76.93368916666667}, {"rental_uris": {"android": "https://dc.lft.to/lastmile_qr_scan", "ios": "https://dc.lft.to/lastmile_qr_scan"}, "fusion_lat": 0.0, "is_reserved": 0, "lat": 38.909118, "name": "02ba211dfa03e6da5bb1d973026b1dd5", "bike_id": "02ba211dfa03e6da5bb1d973026b1dd5", "is_disabled": 0, "fusion_lon": 0.0, "type": "electric_scooter", "lon": -77.03100233333333}, {"rental_uris": {"android": "https://dc.lft.to/lastmile_qr_scan", "ios": "https://dc.lft.to/lastmile_qr_scan"},