{"data": {"bikes": [{"fusion_lat": 0.0, "name": "2d5586e84c5743e4031e2e081cfe63f1", "is_disabled": 0, "rental_uris": {"android": "https://dc.lft.to/lastmile_qr_scan", "ios": "https://dc.lft.to/lastmile_qr_scan"}, "fusion_lon": 0.0, "lat": 38.9036835, "bike_id": "2d5586e84c5743e4031e2e081cfe63f1", "type": "electric_bike", "is_reserved": 0, "lon": -77.04033233333334}, {"fusion_lat": 0.0, "name": "08afaa49285dd9d43ba61df853de6aa2", "is_disabled": 0, "rental_uris": {"android": "https://dc.lft.to/lastmile_qr_scan", "ios": "https://dc.lft.to/lastmile_qr_scan"}, "fusion_lon": 0.0, "lat": 38.8872775, "bike_id": "08afaa49285dd9d43ba61df853de6aa2", "type": "electric_scooter", "is_reserved": 0, "lon": -77.02201066666667}, {"fusion_lat": 0.0, "name": "ddea87127c78250ee59502dda67d59a3", "is_disabled": 0, "rental_uris": {"android": "https://dc.lft.to/lastmile_qr_scan", "ios": "https://dc.lft.to/lastmile_qr_scan"}, "fusion_lon": 0.0, "lat": 38.91631666666667, "bike_id": "ddea87127c78250ee59502dda67d59a3", "type": "electric_scooter", "is_reserved": 0, "lon": -77.02950516666667}, {"fusion_lat": 0.0, "name": "566d6ff7d5d969f2839751dd13163b32", "is_disabled": 0, "rental_uris": {"android": "https://dc.lft.to/lastmile_qr_scan", "ios": "https://dc.lft.to/lastmile_qr_scan"}, "fusion_lon": 0.0, "lat": 39.01416783333333, "bike_id": "566d6ff7d5d969f2839751dd13163b32", "type": "electric_bike", "is_reserved": 0, "lon": -77.04499616666666}, {"fusion_lat": 0.0, "name": "27587f6f77cd1739486a253c3de596b8", "is_disabled": 0, "rental_uris": {"android": "https://dc.lft.to/lastmile_qr_scan", "ios": "https://dc.lft.to/lastmile_qr_scan"}, "fusion_lon": 0.0, "lat": 38.81611383333333, "bike_id": "27587f6f77cd1739486a253c3de596b8", "type": "electric_bike", "is_reserved": 0, "lon": -76.9965895}, {"fusion_lat": 0.0, "name": "9e4a34bb1190fb1aceb97e968fc6e804", "is_disabled": 0, "rental_uris": {"android": "https://dc.lft.to/lastmile_qr_scan", "ios": "https://dc.lft.to/lastmile_qr_scan"}, "fusion_lon": 0.0, "lat": 38.9006465, "bike_id": "9e4a34bb1190fb1aceb97e968fc6e804", "type": "electric_scooter", "is_reserved": 0, "lon": -76.98717183333333}, {"fusion_lat": 0.0, "name": "34d0d7dc57e0beb4dd12157856ca7dcc", "is_disabled": 0, "rental_uris": {"android": "https://dc.lft.to/lastmile_qr_scan", "ios": "https://dc.lft.to/lastmile_qr_scan"}, "fusion_lon": 0.0, "lat": 38.88509083333334, "bike_id": "34d0d7dc57e0beb4dd12157856ca7dcc", "type": "electric_scooter", "is_reserved": 0, "lon": -76.99752783333334}, {"fusion_lat": 0.0, "name": "6f8d088821412647a31e07855507fb24", "is_disabled": 0, "rental_uris": {"android": "https://dc.lft.to/lastmile_qr_scan", "ios": "https://dc.lft.to/lastmile_qr_scan"}, "fusion_lon": 0.0, "lat": 38.907037, "bike_id": "6f8d088821412647a31e07855507fb24", "type": "electric_scooter", "is_reserved": 0, "lon": -77.04200683333333}, {"fusion_lat": 0.0, "name": "320e5ef03f8920fdad102b9e0cd81351", "is_disabled": 0, "rental_uris": {"android": "https://dc.lft.to/lastmile_qr_scan", "ios": "https://dc.lft.to/lastmile_qr_scan"}, "fusion_lon": 0.0, "lat": 38.90966783333333, "bike_id": "320e5ef03f8920fdad102b9e0cd81351", "type": "electric_scooter", "is_reserved": 0, "lon": -77.03336033333333}, {"fusion_lat": 0.0, "name": "0e850cace403922360c341787e232c84", "is_disabled": 0, "rental_uris": {"android": "https://dc.lft.to/lastmile_qr_scan", "ios": "https://dc.lft.to/lastmile_qr_scan"}, "fusion_lon": 0.0, "lat": 38.9215635, "bike_id": "0e850cace403922360c341787e232c84", "type": "electric_scooter", "is_reserved": 0, "lon": -77.02095533333333}, {"fusion_lat": 0.0, "name": "9bda9f04e0b71289e6257aa564c82658", "is_disabled": 0, "rental_uris": {"android": "https://dc.lft.to/lastmile_qr_scan", "ios": "https://dc.lft.to/lastmile_qr_scan"}, "fusion_lon": 0.0, "lat": 38.849110333333336, "bike_id": "9bda9f04e0b71289e6257aa564c82658", "type": "electric_bike", "is_reserved": 0, "lon": -77.07923966666667}, {"fusion_lat": 0.0, "name": "07902272159c0d7ccfc14b0e734059ba", "is_disabled": 0, "rental_uris": {"android": "https://dc.lft.to/lastmile_qr_scan", "ios": "https://dc.lft.to/lastmile_qr_scan"}, "fusion_lon": 0.0, "lat": 38.92289983333333, "bike_id": "07902272159c0d7ccfc14b0e734059ba", "type": "electric_bike", "is_reserved": 0, "lon": -77.02243766666666}, {"fusion_lat": 0.0, "name": "3f520be19d947947e7f5ec3247e54524", "is_disabled": 0, "rental_uris": {"android": "https://dc.lft.to/lastmile_qr_scan", "ios": "https://dc.lft.to/lastmile_qr_scan"}, "fusion_lon": 0.0, "lat": 38.93401716666666, "bike_id": "3f520be19d947947e7f5ec3247e54524", "type": "electric_scooter", "is_reserved": 0, "lon": -77.057447}, {"fusion_lat": 0.0, "name": "773ed6c6217f5bda97b4971efdd4d7cb", "is_disabled": 0, "rental_uris": {"android": "https://dc.lft.to/lastmile_qr_scan", "ios": "https://dc.lft.to/lastmile_qr_scan"}, "fusion_lon": 0.0, "lat": 38.91695033333333, "bike_id": "773ed6c6217f5bda97b4971efdd4d7cb", "type": "electric_scooter", "is_reserved": 0, "lon": -77.02596266666667}, {"fusion_lat": 0.0, "name": "aa1472bb9e85ba4f38c4168e9e329734", "is_disabled": 0, "rental_uris": {"android": "https://dc.lft.to/lastmile_qr_scan", "ios": "https://dc.lft.to/lastmile_qr_scan"}, "fusion_lon": 0.0, "lat": 38.89228583333333, "bike_id": "aa1472bb9e85ba4f38c4168e9e329734", "type": "electric_scooter", "is_reserved": 0, "lon": -77.03167733333333}, {"fusion_lat": 0.0, "name": "b1fa47f7497a90773137631b4808c9d1", "is_disabled": 0, "rental_uris": {"android": "https://dc.lft.to/lastmile_qr_scan", "ios": "https://dc.lft.to/lastmile_qr_scan"}, "fusion_lon": 0.0, "lat": 38.950563, "bike_id": "b1fa47f7497a90773137631b4808c9d1", "type": "electric_scooter", "is_reserved": 0, "lon": -77.08028533333334}, {"fusion_lat": 0.0, "name": "b9d88eecc38be884f6b6b5ed7379f199", "is_disabled": 0, "rental_uris": {"android": "https://dc.lft.to/lastmile_qr_scan", "ios": "https://dc.lft.to/lastmile_qr_scan"}, "fusion_lon": 0.0, "lat": 38.90828666666667, "bike_id": "b9d88eecc38be884f6b6b5ed7379f199", "type": "electric_scooter", "is_reserved": 0, "lon": -76.98424583333333}, {"fusion_lat": 0.0, "name": "027ef1100e490878ccdb13f8d336a57b", "is_disabled": 0, "rental_uris": {"android": "https://dc.lft.to/lastmile_qr_scan", "ios": "https://dc.lft.to/lastmile_qr_scan"}, "fusion_lon": 0.0, "lat": 38.91044, "bike_id": "027ef1100e490878ccdb13f8d336a57b", "type": "electric_scooter", "is_reserved": 0, "lon": -77.0409055}, {"fusion_lat": 0.0, "name": "681be62dd485ba74ab42513cf84b9bdf", "is_disabled": 0, "rental_uris": {"android": "https://dc.lft.to/lastmile_qr_scan", "ios": "https://dc.lft.to/lastmile_qr_scan"}, "fusion_lon": 0.0, "lat": 38.911245666666666, "bike_id": "681be62dd485ba74ab42513cf84b9bdf", "type": "electric_scooter", "is_reserved": 0, "lon": -77.02196583333334}, {"fusion_lat": 0.0, "name": "4d65582a03bb6e81bd7493bc6a1818e8", "is_disabled": 0, "rental_uris": {"android": "https://dc.lft.to/lastmile_qr_scan", "ios": "https://dc.lft.to/lastmile_qr_scan"}, "fusion_lon": 0.0, "lat": 38.88593633333333, "bike_id": "4d65582a03bb6e81bd7493bc6a1818e8", "type": "electric_scooter", "is_reserved": 0, "lon": -77.0172005}, {"fusion_lat": 0.0, "name": "4ab04b53974ca91070857357d85424ee", "is_disabled": 0, "rental_uris": {"android": "https://dc.lft.to/lastmile_qr_scan", "ios": "https://dc.lft.to/lastmile_qr_scan"}, "fusion_lon": 0.0, "lat": 38.906217, "bike_id": "4ab04b53974ca91070857357d85424ee", "type": "electric_scooter", "is_reserved": 0, "lon": -77.02408916666667}, {"fusion_lat": 0.0, "name": "9325a3d841bf462a318523d3ad90a879", "is_disabled": 0, "rental_uris": {"android": "https://dc.lft.to/lastmile_qr_scan", "ios": "https://dc.lft.to/lastmile_qr_scan"}, "fusion_lon": 0.0, "lat": 38.93358666666666, "bike_id": "9325a3d841bf462a318523d3ad90a879", "type": "electric_scooter", "is_reserved": 0, "lon": -77.03435583333334}, {"fusion_lat": 0.0, "name": "0f00855d07540d27c40a976971fe18f3", "is_disabled": 0, "rental_uris": {"android": "https://dc.lft.to/lastmile_qr_scan", "ios": "https://dc.lft.to/lastmile_qr_scan"}, "fusion_lon": 0.0, "lat": 38.857687, "bike_id": "0f00855d07540d27c40a976971fe18f3", "type": "electric_bike", "is_reserved": 0, "lon": -76.98762633333334}, {"fusion_lat": 0.0, "name": "9339d0951c215ab34f8293061db1eb06", "is_disabled": 0, "rental_uris": {"android": "https://dc.lft.to/lastmile_qr_scan", "ios": "https://dc.lft.to/lastmile_qr_scan"}, "fusion_lon": 0.0, "lat": 38.90377983333333, "bike_id": "9339d0951c215ab34f8293061db1eb06", "type": "electric_scooter", "is_reserved": 0, "lon": -77.01632366666666}, {"fusion_lat": 0.0, "name": "7395faa4e252dfdf6d7306324ca3ad59", "is_disabled": 0, "rental_uris": {"android": "https://dc.lft.to/lastmile_qr_scan", "ios": "https://dc.lft.to/lastmile_qr_scan"}, "fusion_lon": 0.0, "lat": 38.912315, "bike_id": "7395faa4e252dfdf6d7306324ca3ad59", "type": "electric_scooter", "is_reserved": 0, "lon": -77.04475766666667}, {"fusion_lat": 0.0, "name": "ae66962fa433342c81ee1e3d027afc36", "is_disabled": 0, "rental_uris": {"android": "https://dc.lft.to/lastmile_qr_scan", "ios": "https://dc.lft.to/lastmile_qr_scan"}, "fusion_lon": 0.0, "lat": 38.917702, "bike_id": "ae66962fa433342c81ee1e3d027afc36", "type": "electric_scooter", "is_reserved": 0, "lon": -77.023149}, {"fusion_lat": 0.0, "name": "44d65f84da023061da913c304543c206", "is_disabled": 0, "rental_uris": {"android": "https://dc.lft.to/lastmile_qr_scan", "ios": "https://dc.lft.to/lastmile_qr_scan"}, "fusion_lon": 0.0, "lat": 38.916945, "bike_id": "44d65f84da023061da913c304543c206", "type": "electric_scooter", "is_reserved": 0, "lon": -77.0259655}, {"fusion_lat": 0.0, "name": "6104eb74d5ad0f08f47064fd7e957a9b", "is_disabled": 0, "rental_uris": {"android": "https://dc.lft.to/lastmile_qr_scan", "ios": "https://dc.lft.to/lastmile_qr_scan"}, "fusion_lon": 0.0, "lat": 38.883909833333334, "bike_id": "6104eb74d5ad0f08f47064fd7e957a9b", "type": "electric_scooter", "is_reserved": 0, "lon": -76.93043716666666}, {"fusion_lat": 0.0, "name": "b8dee823053856b8c05891a2d9850d16", "is_disabled": 0, "rental_uris": {"android": "https://dc.lft.to/lastmile_qr_scan", "ios": "https://dc.lft.to/lastmile_qr_scan"}, "fusion_lon": 0.0, "lat": 38.921501, "bike_id": "b8dee823053856b8c05891a2d9850d16", "type": "electric_scooter", "is_reserved": 0, "lon": -77.0386265}, {"fusion_lat": 0.0, "name": "e2c578e7b31025841593963e13f2a006", "is_disabled": 0, "rental_uris": {"android": "https://dc.lft.to/lastmile_qr_scan", "ios": "https://dc.lft.to/lastmile_qr_scan"}, "fusion_lon": 0.0, "lat": 38.933969, "bike_id": "e2c578e7b31025841593963e13f2a006", "type": "electric_scooter", "is_reserved": 0, "lon": -77.02848866666666}, {"fusion_lat": 0.0, "name": "a108c092bafa493120bf92aa582ebc40", "is_disabled": 0, "rental_uris": {"android": "https://dc.lft.to/lastmile_qr_scan", "ios": "https://dc.lft.to/lastmile_qr_scan"}, "fusion_lon": 0.0, "lat": 38.94087283333333, "bike_id": "a108c092bafa493120bf92aa582ebc40", "type": "electric_scooter", "is_reserved": 0, "lon": -77.06182216666667}, {"fusion_lat": 0.0, "name": "6e5934dc49c9796909a61bbb8325e87f", "is_disabled": 0, "rental_uris": {"android": "https://dc.lft.to/lastmile_qr_scan", "ios": "https://dc.lft.to/lastmile_qr_scan"}, "fusion_lon": 0.0, "lat": 38.8980975, "bike_id": "6e5934dc49c9796909a61bbb8325e87f", "type": "electric_scooter", "is_reserved": 0, "lon": -77.04669016666666}, {"fusion_lat": 0.0, "name": "a2092a70ed93367712409283e8dcaa4e", "is_disabled": 0, "rental_uris": {"android": "https://dc.lft.to/lastmile_qr_scan", "ios": "https://dc.lft.to/lastmile_qr_scan"}, "fusion_lon": 0.0, "lat": 38.92478583333333, "bike_id": "a2092a70ed93367712409283e8dcaa4e", "type": "electric_scooter", "is_reserved": 0, "lon": -77.02269733333333}, {"fusion_lat": 0.0, "name": "aeeb38f8cd2d8d89cfa2781252b1e286", "is_disabled": 0, "rental_uris": {"android": "https://dc.lft.to/lastmile_qr_scan", "ios": "https://dc.lft.to/lastmile_qr_scan"}, "fusion_lon": 0.0, "lat": 38.900381833333334, "bike_id": "aeeb38f8cd2d8d89cfa2781252b1e286", "type": "electric_bike", "is_reserved": 0, "lon": -76.972224}, {"fusion_lat": 0.0, "name": "e34ed1fdd29890303349646bde8e44ad", "is_disabled": 0, "rental_uris": {"android": "https://dc.lft.to/lastmile_qr_scan", "ios": "https://dc.lft.to/lastmile_qr_scan"}, "fusion_lon": 0.0, "lat": 38.91438866666667, "bike_id": "e34ed1fdd29890303349646bde8e44ad", "type": "electric_scooter", "is_reserved": 0, "lon": -76.99355666666666}, {"fusion_lat": 0.0, "name": "d369f6355630b428e6884cafe6b2d154", "is_disabled": 0, "rental_uris": {"android": "https://dc.lft.to/lastmile_qr_scan", "ios": "https://dc.lft.to/lastmile_qr_scan"}, "fusion_lon": 0.0, "lat": 38.911132, "bike_id": "d369f6355630b428e6884cafe6b2d154", "type": "electric_scooter", "is_reserved": 0, "lon": -77.0372635}, {"fusion_lat": 0.0, "name": "778e2101e73cce2ac29ec5143821461a", "is_disabled": 0, "rental_uris": {"android": "https://dc.lft.to/lastmile_qr_scan", "ios": "https://dc.lft.to/lastmile_qr_scan"}, "fusion_lon": 0.0, "lat": 38.909469, "bike_id": "778e2101e73cce2ac29ec5143821461a", "type": "electric_scooter", "is_reserved": 0, "lon": -77.04489766666667}, {"fusion_lat": 0.0, "name": "de3322dd4294366e0b260c7e7add47d8", "is_disabled": 0, "rental_uris": {"android": "https://dc.lft.to/lastmile_qr_scan", "ios": "https://dc.lft.to/lastmile_qr_scan"}, "fusion_lon": 0.0, "lat": 38.90435883333333, "bike_id": "de3322dd4294366e0b260c7e7add47d8", "type": "electric_scooter", "is_reserved": 0, "lon": -77.0251755}, {"fusion_lat": 0.0, "name": "76c15178687457341f2d9a4a3fee7ccf", "is_disabled": 0, "rental_uris": {"android": "https://dc.lft.to/lastmile_qr_scan", "ios": "https://dc.lft.to/lastmile_qr_scan"}, "fusion_lon": 0.0, "lat": 38.929589, "bike_id": "76c15178687457341f2d9a4a3fee7ccf", "type": "electric_scooter", "is_reserved": 0, "lon": -76.99172516666667}, {"fusion_lat": 0.0, "name": "9c16b3183d7113355e4887093bc91cea", "is_disabled": 0, "rental_uris": {"android": "https://dc.lft.to/lastmile_qr_scan", "ios": "https://dc.lft.to/lastmile_qr_scan"}, "fusion_lon": 0.0, "lat": 38.87721783333333, "bike_id": "9c16b3183d7113355e4887093bc91cea", "type": "electric_scooter", "is_reserved": 0, "lon": -77.00434466666667}, {"fusion_lat": 0.0, "name": "b1ca7270106b0ddaf161b83bcab7f469", "is_disabled": 0, "rental_uris": {"android": "https://dc.lft.to/lastmile_qr_scan", "ios": "https://dc.lft.to/lastmile_qr_scan"}, "fusion_lon": 0.0, "lat": 38.919379166666666, "bike_id": "b1ca7270106b0ddaf161b83bcab7f469", "type": "electric_scooter", "is_reserved": 0, "lon": -77.02505533333333}, {"fusion_lat": 0.0, "name": "a1d87d2c8533c34f54bfef4b56b18b31", "is_disabled": 0, "rental_uris": {"android": "https://dc.lft.to/lastmile_qr_scan", "ios": "https://dc.lft.to/lastmile_qr_scan"}, "fusion_lon": 0.0, "lat": 38.9131865, "bike_id": "a1d87d2c8533c34f54bfef4b56b18b31", "type": "electric_scooter", "is_reserved": 0, "lon": -77.01216933333333}, {"fusion_lat": 0.0, "name": "a0a0813cb61b9e5e342f87ae9f511ec2", "is_disabled": 0, "rental_uris": {"android": "https://dc.lft.to/lastmile_qr_scan", "ios": "https://dc.lft.to/lastmile_qr_scan"}, "fusion_lon": 0.0, "lat": 38.966787333333336, "bike_id": "a0a0813cb61b9e5e342f87ae9f511ec2", "type": "electric_bike", "is_reserved": 0, "lon": -77.02303583333334}, {"fusion_lat": 0.0, "name": "c26b5a905a37e5f6e7217bfdc3366196", "is_disabled": 0, "rental_uris": {"android": "https://dc.lft.to/lastmile_qr_scan", "ios": "https://dc.lft.to/lastmile_qr_scan"}, "fusion_lon": 0.0, "lat": 38.92254116666667, "bike_id": "c26b5a905a37e5f6e7217bfdc3366196", "type": "electric_scooter", "is_reserved": 0, "lon": -77.00913633333333}, {"fusion_lat": 0.0, "name": "c2ba83ed9d28e46bfb6b30aaada56996", "is_disabled": 0, "rental_uris": {"android": "https://dc.lft.to/lastmile_qr_scan", "ios": "https://dc.lft.to/lastmile_qr_scan"}, "fusion_lon": 0.0, "lat": 38.9318385, "bike_id": "c2ba83ed9d28e46bfb6b30aaada56996", "type": "electric_scooter", "is_reserved": 0, "lon": -77.03801216666666}, {"fusion_lat": 0.0, "name": "a12a34a8c10278cf8944e5d50c96a784", "is_disabled": 0, "rental_uris": {"android": "https://dc.lft.to/lastmile_qr_scan", "ios": "https://dc.lft.to/lastmile_qr_scan"}, "fusion_lon": 0.0, "lat": 38.832042666666666, "bike_id": "a12a34a8c10278cf8944e5d50c96a784", "type": "electric_bike", "is_reserved": 0, "lon": -76.99675183333333}, {"fusion_lat": 0.0, "name": "f6562fb1298da9b158c6daa843e89f3f", "is_disabled": 0, "rental_uris": {"android": "https://dc.lft.to/lastmile_qr_scan", "ios": "https://dc.lft.to/lastmile_qr_scan"}, "fusion_lon": 0.0, "lat": 38.9169185, "bike_id": "f6562fb1298da9b158c6daa843e89f3f", "type": "electric_scooter", "is_reserved": 0, "lon": -77.0351175}, {"fusion_lat": 0.0, "name": "25ad2224c31413a89e8a7e059cf6e099", "is_disabled": 0, "rental_uris": {"android": "https://dc.lft.to/lastmile_qr_scan", "ios": "https://dc.lft.to/lastmile_qr_scan"}, "fusion_lon": 0.0, "lat": 38.8871575, "bike_id": "25ad2224c31413a89e8a7e059cf6e099", "type": "electric_scooter", "is_reserved": 0, "lon": -77.01776783333334}, {"fusion_lat": 0.0, "name": "5f5182a2611774b2bfb1ddcdc592c572", "is_disabled": 0, "rental_uris": {"android": "https://dc.lft.to/lastmile_qr_scan", "ios": "https://dc.lft.to/lastmile_qr_scan"}, "fusion_lon": 0.0, "lat": 38.928636833333336, "bike_id": "5f5182a2611774b2bfb1ddcdc592c572", "type": "electric_scooter", "is_reserved": 0, "lon": -77.03218733333334}, {"fusion_lat": 0.0, "name": "e213d7acc5f8cea159ce787bc9db1b88", "is_disabled": 0, "rental_uris": {"android": "https://dc.lft.to/lastmile_qr_scan", "ios": "https://dc.lft.to/lastmile_qr_scan"}, "fusion_lon": 0.0, "lat": 38.813328166666665, "bike_id": "e213d7acc5f8cea159ce787bc9db1b88", "type": "electric_bike", "is_reserved": 0, "lon": -77.05083133333333}, {"fusion_lat": 0.0, "name": "6b512b538d2a123bac9ab9a2ed3dd98c", "is_disabled": 0, "rental_uris": {"android": "https://dc.lft.to/lastmile_qr_scan", "ios": "https://dc.lft.to/lastmile_qr_scan"}, "fusion_lon": 0.0, "lat": 38.9038715, "bike_id": "6b512b538d2a123bac9ab9a2ed3dd98c", "type": "electric_scooter", "is_reserved": 0, "lon": -77.06707866666666}, {"fusion_lat": 0.0, "name": "4de13d581e20e7170a422948e7d09812", "is_disabled": 0, "rental_uris": {"android": "https://dc.lft.to/lastmile_qr_scan", "ios": "https://dc.lft.to/lastmile_qr_scan"}, "fusion_lon": 0.0, "lat": 38.883799833333335, "bike_id": "4de13d581e20e7170a422948e7d09812", "type": "electric_scooter", "is_reserved": 0, "lon": -76.93042433333333}, {"fusion_lat": 0.0, "name": "9f08d04cf7ed59dae6bb48d61d1c9122", "is_disabled": 0, "rental_uris": {"android": "https://dc.lft.to/lastmile_qr_scan", "ios": "https://dc.lft.to/lastmile_qr_scan"}, "fusion_lon": 0.0, "lat": 38.90904366666667, "bike_id": "9f08d04cf7ed59dae6bb48d61d1c9122", "type": "electric_scooter", "is_reserved": 0, "lon": -77.044749}, {"fusion_lat": 0.0, "name": "0efab9c40fde52beeca631d60da518d9", "is_disabled": 0, "rental_uris": {"android": "https://dc.lft.to/lastmile_qr_scan", "ios": "https://dc.lft.to/lastmile_qr_scan"}, "fusion_lon": 0.0, "lat": 38.89650066666667, "bike_id": "0efab9c40fde52beeca631d60da518d9", "type": "electric_scooter", "is_reserved": 0, "lon": -77.050042}, {"fusion_lat": 0.0, "name": "31d51a6e835c1e82b5ca66b4d9d27c35", "is_disabled": 0, "rental_uris": {"android": "https://dc.lft.to/lastmile_qr_scan", "ios": "https://dc.lft.to/lastmile_qr_scan"}, "fusion_lon": 0.0, "lat": 38.949620333333336, "bike_id": "31d51a6e835c1e82b5ca66b4d9d27c35", "type": "electric_bike", "is_reserved": 0, "lon": -77.0663545}, {"fusion_lat": 0.0, "name": "711ed315ecc1b4797a15826d980e9951", "is_disabled": 0, "rental_uris": {"android": "https://dc.lft.to/lastmile_qr_scan", "ios": "https://dc.lft.to/lastmile_qr_scan"}, "fusion_lon": 0.0, "lat": 38.9589245, "bike_id": "711ed315ecc1b4797a15826d980e9951", "type": "electric_scooter", "is_reserved": 0, "lon": -77.02743633333333}, {"fusion_lat": 0.0, "name": "2d1e06bc0e836b44bdf73da833bbfa2d", "is_disabled": 0, "rental_uris": {"android": "https://dc.lft.to/lastmile_qr_scan", "ios": "https://dc.lft.to/lastmile_qr_scan"}, "fusion_lon": 0.0, "lat": 38.906652, "bike_id": "2d1e06bc0e836b44bdf73da833bbfa2d", "type": "electric_scooter", "is_reserved": 0, "lon": -77.02958866666667}, {"fusion_lat": 0.0, "name": "94d2aa9a33b0d94e184c959f6c37c5b3", "is_disabled": 0, "rental_uris": {"android": "https://dc.lft.to/lastmile_qr_scan", "ios": "https://dc.lft.to/lastmile_qr_scan"}, "fusion_lon": 0.0, "lat": 38.935462, "bike_id": "94d2aa9a33b0d94e184c959f6c37c5b3", "type": "electric_scooter", "is_reserved": 0, "lon": -77.03263233333334}, {"fusion_lat": 0.0, "name": "43ea6a9c9308b7b7983a3fb5b7665dec", "is_disabled": 0, "rental_uris": {"android": "https://dc.lft.to/lastmile_qr_scan", "ios": "https://dc.lft.to/lastmile_qr_scan"}, "fusion_lon": 0.0, "lat": 38.900626, "bike_id": "43ea6a9c9308b7b7983a3fb5b7665dec", "type": "electric_scooter", "is_reserved": 0, "lon": -76.93384766666667}, {"fusion_lat": 0.0, "name": "a76889d3df1ed6c78497bdfb1734bf55", "is_disabled": 0, "rental_uris": {"android": "https://dc.lft.to/lastmile_qr_scan", "ios": "https://dc.lft.to/lastmile_qr_scan"}, "fusion_lon": 0.0, "lat": 38.84505883333333, "bike_id": "a76889d3df1ed6c78497bdfb1734bf55", "type": "electric_bike", "is_reserved": 0, "lon": -76.9935105}, {"fusion_lat": 0.0, "name": "32bffbf214e86a7af5e7597650cab00d", "is_disabled": 0, "rental_uris": {"android": "https://dc.lft.to/lastmile_qr_scan", "ios": "https://dc.lft.to/lastmile_qr_scan"}, "fusion_lon": 0.0, "lat": 38.956224666666664, "bike_id": "32bffbf214e86a7af5e7597650cab00d", "type": "electric_scooter", "is_reserved": 0, "lon": -77.02833783333334}, {"fusion_lat": 0.0, "name": "ccf06c640d18c6040b8bbc3497c5e9a5", "is_disabled": 0, "rental_uris": {"android": "https://dc.lft.to/lastmile_qr_scan", "ios": "https://dc.lft.to/lastmile_qr_scan"}, "fusion_lon": 0.0, "lat": 38.85778766666667, "bike_id": "ccf06c640d18c6040b8bbc3497c5e9a5", "type": "electric_scooter", "is_reserved": 0, "lon": -76.97299783333334}, {"fusion_lat": 0.0, "name": "8150b152efe0179142dd388ab293e8e7", "is_disabled": 0, "rental_uris": {"android": "https://dc.lft.to/lastmile_qr_scan", "ios": "https://dc.lft.to/lastmile_qr_scan"}, "fusion_lon": 0.0, "lat": 38.903715, "bike_id": "8150b152efe0179142dd388ab293e8e7", "type": "electric_scooter", "is_reserved": 0, "lon": -77.06135716666667}, {"fusion_lat": 0.0, "name": "0173772827fd56d61b055d0eb0a54393", "is_disabled": 0, "rental_uris": {"android": "https://dc.lft.to/lastmile_qr_scan", "ios": "https://dc.lft.to/lastmile_qr_scan"}, "fusion_lon": 0.0, "lat": 38.9253385, "bike_id": "0173772827fd56d61b055d0eb0a54393", "type": "electric_scooter", "is_reserved": 0, "lon": -77.0556995}, {"fusion_lat": 0.0, "name": "4ababc1f19fac10152b43ac9332dfc2f", "is_disabled": 0, "rental_uris": {"android": "https://dc.lft.to/lastmile_qr_scan", "ios": "https://dc.lft.to/lastmile_qr_scan"}, "fusion_lon": 0.0, "lat": 38.936115, "bike_id": "4ababc1f19fac10152b43ac9332dfc2f", "type": "electric_scooter", "is_reserved": 0, "lon": -77.03794233333333}, {"fusion_lat": 0.0, "name": "1b6ad035252329e9d91bf6004a2f27ab", "is_disabled": 0, "rental_uris": {"android": "https://dc.lft.to/lastmile_qr_scan", "ios": "https://dc.lft.to/lastmile_qr_scan"}, "fusion_lon": 0.0, "lat": 38.900809, "bike_id": "1b6ad035252329e9d91bf6004a2f27ab", "type": "electric_scooter", "is_reserved": 0, "lon": -77.047875}, {"fusion_lat": 0.0, "name": "82a33ce4619d482e1e43e062195ef60b", "is_disabled": 0, "rental_uris": {"android": "https://dc.lft.to/lastmile_qr_scan", "ios": "https://dc.lft.to/lastmile_qr_scan"}, "fusion_lon": 0.0, "lat": 38.92261966666667, "bike_id": "82a33ce4619d482e1e43e062195ef60b", "type": "electric_scooter", "is_reserved": 0, "lon": -77.01954116666667}, {"fusion_lat": 0.0, "name": "c41d576047b6b9dcf37f0746b6484b99", "is_disabled": 0, "rental_uris": {"android": "https://dc.lft.to/lastmile_qr_scan", "ios": "https://dc.lft.to/lastmile_qr_scan"}, "fusion_lon": 0.0, "lat": 38.92397966666667, "bike_id": "c41d576047b6b9dcf37f0746b6484b99", "type": "electric_scooter", "is_reserved": 0, "lon": -77.02488616666666}, {"fusion_lat": 0.0, "name": "c6a5571da05cfa6ca1f837d2e9398aba", "is_disabled": 0, "rental_uris": {"android": "https://dc.lft.to/lastmile_qr_scan", "ios": "https://dc.lft.to/lastmile_qr_scan"}, "fusion_lon": 0.0, "lat": 38.90061, "bike_id": "c6a5571da05cfa6ca1f837d2e9398aba", "type": "electric_scooter", "is_reserved": 0, "lon": -77.0367305}, {"fusion_lat": 0.0, "name": "9a1bb2ee16b364021fabcf39338ca362", "is_disabled": 0, "rental_uris": {"android": "https://dc.lft.to/lastmile_qr_scan", "ios": "https://dc.lft.to/lastmile_qr_scan"}, "fusion_lon": 0.0, "lat": 38.877094666666665, "bike_id": "9a1bb2ee16b364021fabcf39338ca362", "type": "electric_scooter", "is_reserved": 0, "lon": -76.99381733333334}, {"fusion_lat": 0.0, "name": "b7c9ec933fefce67c0b170cfa95f4f80", "is_disabled": 0, "rental_uris": {"android": "https://dc.lft.to/lastmile_qr_scan", "ios": "https://dc.lft.to/lastmile_qr_scan"}, "fusion_lon": 0.0, "lat": 38.907548, "bike_id": "b7c9ec933fefce67c0b170cfa95f4f80", "type": "electric_scooter", "is_reserved": 0, "lon": -77.03619233333333}, {"fusion_lat": 0.0, "name": "e2e5435f0c7d0daf2f12d4897380d6e3", "is_disabled": 0, "rental_uris": {"android": "https://dc.lft.to/lastmile_qr_scan", "ios": "https://dc.lft.to/lastmile_qr_scan"}, "fusion_lon": 0.0, "lat": 38.89609566666667, "bike_id": "e2e5435f0c7d0daf2f12d4897380d6e3", "type": "electric_scooter", "is_reserved": 0, "lon": -77.00927516666667}, {"fusion_lat": 0.0, "name": "7d10139dc63c1ab11c3ddca202ad1b04", "is_disabled": 0, "rental_uris": {"android": "https://dc.lft.to/lastmile_qr_scan", "ios": "https://dc.lft.to/lastmile_qr_scan"}, "fusion_lon": 0.0, "lat": 38.9172725, "bike_id": "7d10139dc63c1ab11c3ddca202ad1b04", "type": "electric_scooter", "is_reserved": 0, "lon": -77.04169283333333}, {"fusion_lat": 0.0, "name": "52def7ec306f403b8c83ab94a915f6f4", "is_disabled": 0, "rental_uris": {"android": "https://dc.lft.to/lastmile_qr_scan", "ios": "https://dc.lft.to/lastmile_qr_scan"}, "fusion_lon": 0.0, "lat": 38.898749333333335, "bike_id": "52def7ec306f403b8c83ab94a915f6f4", "type": "electric_scooter", "is_reserved": 0, "lon": -76.93183183333333}, {"fusion_lat": 0.0, "name": "539f661ff50c0aba78c02078c6f6f44b", "is_disabled": 0, "rental_uris": {"android": "https://dc.lft.to/lastmile_qr_scan", "ios": "https://dc.lft.to/lastmile_qr_scan"}, "fusion_lon": 0.0, "lat": 38.886169833333334, "bike_id": "539f661ff50c0aba78c02078c6f6f44b", "type": "electric_scooter", "is_reserved": 0, "lon": -77.0155865}, {"fusion_lat": 0.0, "name": "f6861f3a9efd7320e1b8f5b1c874f0a0", "is_disabled": 0, "rental_uris": {"android": "https://dc.lft.to/lastmile_qr_scan", "ios": "https://dc.lft.to/lastmile_qr_scan"}, "fusion_lon": 0.0, "lat": 38.892211833333334, "bike_id": "f6861f3a9efd7320e1b8f5b1c874f0a0", "type": "electric_scooter", "is_reserved": 0, "lon": -77.03222916666667}, {"fusion_lat": 0.0, "name": "d09b5ebb6c8dfe46d49a9452b088e9dd", "is_disabled": 0, "rental_uris": {"android": "https://dc.lft.to/lastmile_qr_scan", "ios": "https://dc.lft.to/lastmile_qr_scan"}, "fusion_lon": 0.0, "lat": 38.917088666666665, "bike_id": "d09b5ebb6c8dfe46d49a9452b088e9dd", "type": "electric_scooter", "is_reserved": 0, "lon": -77.03216283333333}, {"fusion_lat": 0.0, "name": "e6670098cf9e1cd416c83b910d2b8057", "is_disabled": 0, "rental_uris": {"android": "https://dc.lft.to/lastmile_qr_scan", "ios": "https://dc.lft.to/lastmile_qr_scan"}, "fusion_lon": 0.0, "lat": 38.916654666666666, "bike_id": "e6670098cf9e1cd416c83b910d2b8057", "type": "electric_scooter", "is_reserved": 0, "lon": -77.03855716666666}, {"fusion_lat": 0.0, "name": "f984066a814f8b21d64e23a63f37c965", "is_disabled": 0, "rental_uris": {"android": "https://dc.lft.to/lastmile_qr_scan", "ios": "https://dc.lft.to/lastmile_qr_scan"}, "fusion_lon": 0.0, "lat": 38.8923525, "bike_id": "f984066a814f8b21d64e23a63f37c965", "type": "electric_scooter", "is_reserved": 0, "lon": -77.01713766666667}, {"fusion_lat": 0.0, "name": "241e03a4284d87c51c1104b5dc9e0283", "is_disabled": 0, "rental_uris": {"android": "https://dc.lft.to/lastmile_qr_scan", "ios": "https://dc.lft.to/lastmile_qr_scan"}, "fusion_lon": 0.0, "lat": 38.88614183333333, "bike_id": "241e03a4284d87c51c1104b5dc9e0283", "type": "electric_scooter", "is_reserved": 0, "lon": -77.0155925}, {"fusion_lat": 0.0, "name": "0a0e488047ffb0a50974626d57645fc5", "is_disabled": 0, "rental_uris": {"android": "https://dc.lft.to/lastmile_qr_scan", "ios": "https://dc.lft.to/lastmile_qr_scan"}, "fusion_lon": 0.0, "lat": 38.88160966666667, "bike_id": "0a0e488047ffb0a50974626d57645fc5", "type": "electric_scooter", "is_reserved": 0, "lon": -77.027671}, {"fusion_lat": 0.0, "name": "0db57dd13a5d3ca20ddcf8f2b2c66500", "is_disabled": 0, "rental_uris": {"android": "https://dc.lft.to/lastmile_qr_scan", "ios": "https://dc.lft.to/lastmile_qr_scan"}, "fusion_lon": 0.0, "lat": 38.90965683333334, "bike_id": "0db57dd13a5d3ca20ddcf8f2b2c66500", "type": "electric_scooter", "is_reserved": 0, "lon": -77.0090265}, {"fusion_lat": 0.0, "name": "0b5406a7c51a2861ea1764cf7c4bc52a", "is_disabled": 0, "rental_uris": {"android": "https://dc.lft.to/lastmile_qr_scan", "ios": "https://dc.lft.to/lastmile_qr_scan"}, "fusion_lon": 0.0, "lat": 38.85456816666667, "bike_id": "0b5406a7c51a2861ea1764cf7c4bc52a", "type": "electric_scooter", "is_reserved": 0, "lon": -76.97227316666667}, {"fusion_lat": 0.0, "name": "15bb07961829de35f1499ceb3289d8f3", "is_disabled": 0, "rental_uris": {"android": "https://dc.lft.to/lastmile_qr_scan", "ios": "https://dc.lft.to/lastmile_qr_scan"}, "fusion_lon": 0.0, "lat": 38.963698666666666, "bike_id": "15bb07961829de35f1499ceb3289d8f3", "type": "electric_scooter", "is_reserved": 0, "lon": -77.02046766666666}, {"fusion_lat": 0.0, "name": "839b9e2815388db59a29bd595b80824d", "is_disabled": 0, "rental_uris": {"android": "https://dc.lft.to/lastmile_qr_scan", "ios": "https://dc.lft.to/lastmile_qr_scan"}, "fusion_lon": 0.0, "lat": 38.884778833333336, "bike_id": "839b9e2815388db59a29bd595b80824d", "type": "electric_scooter", "is_reserved": 0, "lon": -76.99601166666666}, {"fusion_lat": 0.0, "name": "891a074a2defb1586f91c35e590e06c3", "is_disabled": 0, "rental_uris": {"android": "https://dc.lft.to/lastmile_qr_scan", "ios": "https://dc.lft.to/lastmile_qr_scan"}, "fusion_lon": 0.0, "lat": 38.928518333333336, "bike_id": "891a074a2defb1586f91c35e590e06c3", "type": "electric_scooter", "is_reserved": 0, "lon": -77.02441016666667}, {"fusion_lat": 0.0, "name": "90e5ee0c93c6b38dd1382f6fa7f9ce44", "is_disabled": 0, "rental_uris": {"android": "https://dc.lft.to/lastmile_qr_scan", "ios": "https://dc.lft.to/lastmile_qr_scan"}, "fusion_lon": 0.0, "lat": 38.92136083333333, "bike_id": "90e5ee0c93c6b38dd1382f6fa7f9ce44", "type": "electric_scooter", "is_reserved": 0, "lon": -77.00957766666667}, {"fusion_lat": 0.0, "name": "70f6cf7f14694fb6379769666a49179a", "is_disabled": 0, "rental_uris": {"android": "https://dc.lft.to/lastmile_qr_scan", "ios": "https://dc.lft.to/lastmile_qr_scan"}, "fusion_lon": 0.0, "lat": 38.88763516666667, "bike_id": "70f6cf7f14694fb6379769666a49179a", "type": "electric_scooter", "is_reserved": 0, "lon": -76.9774905}, {"fusion_lat": 0.0, "name": "5f218bb270aa27aa4cc9e31461409643", "is_disabled": 0, "rental_uris": {"android": "https://dc.lft.to/lastmile_qr_scan", "ios": "https://dc.lft.to/lastmile_qr_scan"}, "fusion_lon": 0.0, "lat": 38.873781, "bike_id": "5f218bb270aa27aa4cc9e31461409643", "type": "electric_scooter", "is_reserved": 0, "lon": -77.000936}, {"fusion_lat": 0.0, "name": "b3e2c1e746ebb60fe1da5fa77d11f96d", "is_disabled": 0, "rental_uris": {"android": "https://dc.lft.to/lastmile_qr_scan", "ios": "https://dc.lft.to/lastmile_qr_scan"}, "fusion_lon": 0.0, "lat": 38.870928166666666, "bike_id": "b3e2c1e746ebb60fe1da5fa77d11f96d", "type": "electric_scooter", "is_reserved": 0, "lon": -77.01219616666667}, {"fusion_lat": 0.0, "name": "9dd247fe8654f8a541b1cda0b2e14bc4", "is_disabled": 0, "rental_uris": {"android": "https://dc.lft.to/lastmile_qr_scan", "ios": "https://dc.lft.to/lastmile_qr_scan"}, "fusion_lon": 0.0, "lat": 38.896110166666666, "bike_id": "9dd247fe8654f8a541b1cda0b2e14bc4", "type": "electric_scooter", "is_reserved": 0, "lon": -77.00929916666666}, {"fusion_lat": 0.0, "name": "ebb4492a14a1e33f98a7ef79d178684f", "is_disabled": 0, "rental_uris": {"android": "https://dc.lft.to/lastmile_qr_scan", "ios": "https://dc.lft.to/lastmile_qr_scan"}, "fusion_lon": 0.0, "lat": 38.884951, "bike_id": "ebb4492a14a1e33f98a7ef79d178684f", "type": "electric_scooter", "is_reserved": 0, "lon": -77.010864}, {"fusion_lat": 0.0, "name": "842c44e00377ca3405302558a4f9d933", "is_disabled": 0, "rental_uris": {"android": "https://dc.lft.to/lastmile_qr_scan", "ios": "https://dc.lft.to/lastmile_qr_scan"}, "fusion_lon": 0.0, "lat": 38.973443333333336, "bike_id": "842c44e00377ca3405302558a4f9d933", "type": "electric_bike", "is_reserved": 0, "lon": -77.01793033333334}, {"fusion_lat": 0.0, "name": "0aaed8b0a84458eb660a4aa4e414552f", "is_disabled": 0, "rental_uris": {"android": "https://dc.lft.to/lastmile_qr_scan", "ios": "https://dc.lft.to/lastmile_qr_scan"}, "fusion_lon": 0.0, "lat": 38.90422516666667, "bike_id": "0aaed8b0a84458eb660a4aa4e414552f", "type": "electric_scooter", "is_reserved": 0, "lon": -77.02111933333333}, {"fusion_lat": 0.0, "name": "d411f0ebe2afa047ee089762be9a27df", "is_disabled": 0, "rental_uris": {"android": "https://dc.lft.to/lastmile_qr_scan", "ios": "https://dc.lft.to/lastmile_qr_scan"}, "fusion_lon": 0.0, "lat": 38.89224, "bike_id": "d411f0ebe2afa047ee089762be9a27df", "type": "electric_scooter", "is_reserved": 0, "lon": -77.01470133333333}, {"fusion_lat": 0.0, "name": "fa116d0341ce16d1d1bb5caec4373c16", "is_disabled": 0, "rental_uris": {"android": "https://dc.lft.to/lastmile_qr_scan", "ios": "https://dc.lft.to/lastmile_qr_scan"}, "fusion_lon": 0.0, "lat": 38.923755666666665, "bike_id": "fa116d0341ce16d1d1bb5caec4373c16", "type": "electric_scooter", "is_reserved": 0, "lon": -77.02133766666667}, {"fusion_lat": 0.0, "name": "8b497f6cfbf5fe284278f07b46f84932", "is_disabled": 0, "rental_uris": {"android": "https://dc.lft.to/lastmile_qr_scan", "ios": "https://dc.lft.to/lastmile_qr_scan"}, "fusion_lon": 0.0, "lat": 38.913265833333334, "bike_id": "8b497f6cfbf5fe284278f07b46f84932", "type": "electric_scooter", "is_reserved": 0, "lon": -77.0214515}, {"fusion_lat": 0.0, "name": "442b2a4e4d58c9bb8a863b0eee8d32cd", "is_disabled": 0, "rental_uris": {"android": "https://dc.lft.to/lastmile_qr_scan", "ios": "https://dc.lft.to/lastmile_qr_scan"}, "fusion_lon": 0.0, "lat": 38.883230166666664, "bike_id": "442b2a4e4d58c9bb8a863b0eee8d32cd", "type": "electric_scooter", "is_reserved": 0, "lon": -77.01681833333333}, {"fusion_lat": 0.0, "name": "8ef9c7adf4b799d6b2768620180053a4", "is_disabled": 0, "rental_uris": {"android": "https://dc.lft.to/lastmile_qr_scan", "ios": "https://dc.lft.to/lastmile_qr_scan"}, "fusion_lon": 0.0, "lat": 38.896096, "bike_id": "8ef9c7adf4b799d6b2768620180053a4", "type": "electric_scooter", "is_reserved": 0, "lon": -77.031962}, {"fusion_lat": 0.0, "name": "c5dc99def37bd9d19973f815646aa890", "is_disabled": 0, "rental_uris": {"android": "https://dc.lft.to/lastmile_qr_scan", "ios": "https://dc.lft.to/lastmile_qr_scan"}, "fusion_lon": 0.0, "lat": 38.9231805, "bike_id": "c5dc99def37bd9d19973f815646aa890", "type": "electric_scooter", "is_reserved": 0, "lon": -77.04305616666667}, {"fusion_lat": 0.0, "name": "6c9a4e9d2349eced198c63fbd9a295af", "is_disabled": 0, "rental_uris": {"android": "https://dc.lft.to/lastmile_qr_scan", "ios": "https://dc.lft.to/lastmile_qr_scan"}, "fusion_lon": 0.0, "lat": 38.9168705, "bike_id": "6c9a4e9d2349eced198c63fbd9a295af", "type": "electric_scooter", "is_reserved": 0, "lon": -77.04144433333333}, {"fusion_lat": 0.0, "name": "fd724e98f9d126ed1cabf6523ba99a62", "is_disabled": 0, "rental_uris": {"android": "https://dc.lft.to/lastmile_qr_scan", "ios": "https://dc.lft.to/lastmile_qr_scan"}, "fusion_lon": 0.0, "lat": 39.03606933333333, "bike_id": "fd724e98f9d126ed1cabf6523ba99a62", "type": "electric_bike", "is_reserved": 0, "lon": -77.05532783333334}, {"fusion_lat": 0.0, "name": "ad9fb89b91e936e722d62d44c57a2b36", "is_disabled": 0, "rental_uris": {"android": "https://dc.lft.to/lastmile_qr_scan", "ios": "https://dc.lft.to/lastmile_qr_scan"}, "fusion_lon": 0.0, "lat": 38.906138, "bike_id": "ad9fb89b91e936e722d62d44c57a2b36", "type": "electric_scooter", "is_reserved": 0, "lon": -77.05898083333334}, {"fusion_lat": 0.0, "name": "b77cf300de90f4a164cb6e36b86df111", "is_disabled": 0, "rental_uris": {"android": "https://dc.lft.to/lastmile_qr_scan", "ios": "https://dc.lft.to/lastmile_qr_scan"}, "fusion_lon": 0.0, "lat": 38.92358983333333, "bike_id": "b77cf300de90f4a164cb6e36b86df111", "type": "electric_scooter", "is_reserved": 0, "lon": -77.04321283333333}, {"fusion_lat": 0.0, "name": "12c7804d0a77e86e948390ad29a84e99", "is_disabled": 0, "rental_uris": {"android": "https://dc.lft.to/lastmile_qr_scan", "ios": "https://dc.lft.to/lastmile_qr_scan"}, "fusion_lon": 0.0, "lat": 38.92975716666667, "bike_id": "12c7804d0a77e86e948390ad29a84e99", "type": "electric_scooter", "is_reserved": 0, "lon": -77.0253015}, {"fusion_lat": 0.0, "name": "cfccb273b9f39ead296d3f588df7afc0", "is_disabled": 0, "rental_uris": {"android": "https://dc.lft.to/lastmile_qr_scan", "ios": "https://dc.lft.to/lastmile_qr_scan"}, "fusion_lon": 0.0, "lat": 38.908772, "bike_id": "cfccb273b9f39ead296d3f588df7afc0", "type": "electric_scooter", "is_reserved": 0, "lon": -77.04275416666667}, {"fusion_lat": 0.0, "name": "ba10bd2671aa312e18d9ad6bd9197664", "is_disabled": 0, "rental_uris": {"android": "https://dc.lft.to/lastmile_qr_scan", "ios": "https://dc.lft.to/lastmile_qr_scan"}, "fusion_lon": 0.0, "lat": 38.9164305, "bike_id": "ba10bd2671aa312e18d9ad6bd9197664", "type": "electric_scooter", "is_reserved": 0, "lon": -77.047954}, {"fusion_lat": 0.0, "name": "6094d8fa4e564f25b9076fe7b09f2ac5", "is_disabled": 0, "rental_uris": {"android": "https://dc.lft.to/lastmile_qr_scan", "ios": "https://dc.lft.to/lastmile_qr_scan"}, "fusion_lon": 0.0, "lat": 38.88440883333333, "bike_id": "6094d8fa4e564f25b9076fe7b09f2ac5", "type": "electric_scooter", "is_reserved": 0, "lon": -77.02594466666666}, {"fusion_lat": 0.0, "name": "49ab51d42b473bdca6e887e81105bd20", "is_disabled": 0, "rental_uris": {"android": "https://dc.lft.to/lastmile_qr_scan", "ios": "https://dc.lft.to/lastmile_qr_scan"}, "fusion_lon": 0.0, "lat": 38.89990383333333, "bike_id": "49ab51d42b473bdca6e887e81105bd20", "type": "electric_scooter", "is_reserved": 0, "lon": -76.98438566666667}, {"fusion_lat": 0.0, "name": "b6f71fda9763a6ae643dd2339b77adb3", "is_disabled": 0, "rental_uris": {"android": "https://dc.lft.to/lastmile_qr_scan", "ios": "https://dc.lft.to/lastmile_qr_scan"}, "fusion_lon": 0.0, "lat": 38.90025583333333, "bike_id": "b6f71fda9763a6ae643dd2339b77adb3", "type": "electric_scooter", "is_reserved": 0, "lon": -77.00180766666666}, {"fusion_lat": 0.0, "name": "7b674e7cde02334df297f7d653867398", "is_disabled": 0, "rental_uris": {"android": "https://dc.lft.to/lastmile_qr_scan", "ios": "https://dc.lft.to/lastmile_qr_scan"}, "fusion_lon": 0.0, "lat": 38.905298, "bike_id": "7b674e7cde02334df297f7d653867398", "type": "electric_scooter", "is_reserved": 0, "lon": -77.0593215}, {"fusion_lat": 0.0, "name": "92538f735560fa5d6fbc8621227ea0a5", "is_disabled": 0, "rental_uris": {"android": "https://dc.lft.to/lastmile_qr_scan", "ios": "https://dc.lft.to/lastmile_qr_scan"}, "fusion_lon": 0.0, "lat": 38.901392666666666, "bike_id": "92538f735560fa5d6fbc8621227ea0a5", "type": "electric_scooter", "is_reserved": 0, "lon": -76.99843083333333}, {"fusion_lat": 0.0, "name": "673bae0371e1d652125548719413ce34", "is_disabled": 0, "rental_uris": {"android": "https://dc.lft.to/lastmile_qr_scan", "ios": "https://dc.lft.to/lastmile_qr_scan"}, "fusion_lon": 0.0, "lat": 38.901855, "bike_id": "673bae0371e1d652125548719413ce34", "type": "electric_scooter", "is_reserved": 0, "lon": -77.02136716666666}, {"fusion_lat": 0.0, "name": "df26f6ad77bb01698cbf8dcddbc2410f", "is_disabled": 0, "rental_uris": {"android": "https://dc.lft.to/lastmile_qr_scan", "ios": "https://dc.lft.to/lastmile_qr_scan"}, "fusion_lon": 0.0, "lat": 38.90282233333333, "bike_id": "df26f6ad77bb01698cbf8dcddbc2410f", "type": "electric_scooter", "is_reserved": 0, "lon": -77.03355}, {"fusion_lat": 0.0, "name": "fd0e227fb9e226f072b000232936c956", "is_disabled": 0, "rental_uris": {"android": "https://dc.lft.to/lastmile_qr_scan", "ios": "https://dc.lft.to/lastmile_qr_scan"}, "fusion_lon": 0.0, "lat": 38.916927666666666, "bike_id": "fd0e227fb9e226f072b000232936c956", "type": "electric_scooter", "is_reserved": 0, "lon": -77.03718783333333}, {"fusion_lat": 0.0, "name": "628611a744abaf7b5e0b5e25baf2007e", "is_disabled": 0, "rental_uris": {"android": "https://dc.lft.to/lastmile_qr_scan", "ios": "https://dc.lft.to/lastmile_qr_scan"}, "fusion_lon": 0.0, "lat": 38.93888333333334, "bike_id": "628611a744abaf7b5e0b5e25baf2007e", "type": "electric_scooter", "is_reserved": 0, "lon": -77.02465616666667}, {"fusion_lat": 0.0, "name": "9356f23c27d99e5a01c5295aca154853", "is_disabled": 0, "rental_uris": {"android": "https://dc.lft.to/lastmile_qr_scan", "ios": "https://dc.lft.to/lastmile_qr_scan"}, "fusion_lon": 0.0, "lat": 38.9297295, "bike_id": "9356f23c27d99e5a01c5295aca154853", "type": "electric_scooter", "is_reserved": 0, "lon": -77.02793983333333}, {"fusion_lat": 0.0, "name": "98ae1f08a1fdad32b253d692d81a4506", "is_disabled": 0, "rental_uris": {"android": "https://dc.lft.to/lastmile_qr_scan", "ios": "https://dc.lft.to/lastmile_qr_scan"}, "fusion_lon": 0.0, "lat": 38.9233465, "bike_id": "98ae1f08a1fdad32b253d692d81a4506", "type": "electric_scooter", "is_reserved": 0, "lon": -77.0458155}, {"fusion_lat": 0.0, "name": "d94846049ec143e8a5f8a4c1e767c1fc", "is_disabled": 0, "rental_uris": {"android": "https://dc.lft.to/lastmile_qr_scan", "ios": "https://dc.lft.to/lastmile_qr_scan"}, "fusion_lon": 0.0, "lat": 38.853547, "bike_id": "d94846049ec143e8a5f8a4c1e767c1fc", "type": "electric_bike", "is_reserved": 0, "lon": -77.13482383333333}, {"fusion_lat": 0.0, "name": "11fbcc5b54b91c797e20c98459065a69", "is_disabled": 0, "rental_uris": {"android": "https://dc.lft.to/lastmile_qr_scan", "ios": "https://dc.lft.to/lastmile_qr_scan"}, "fusion_lon": 0.0, "lat": 38.886574333333336, "bike_id": "11fbcc5b54b91c797e20c98459065a69", "type": "electric_scooter", "is_reserved": 0, "lon": -77.001161}, {"fusion_lat": 0.0, "name": "18c1c19f724d94d4f8f3483cacfeefe7", "is_disabled": 0, "rental_uris": {"android": "https://dc.lft.to/lastmile_qr_scan", "ios": "https://dc.lft.to/lastmile_qr_scan"}, "fusion_lon": 0.0, "lat": 38.862467, "bike_id": "18c1c19f724d94d4f8f3483cacfeefe7", "type": "electric_scooter", "is_reserved": 0, "lon": -76.9949775}, {"fusion_lat": 0.0, "name": "0d2d497478e82a5957d1762242deb6ed", "is_disabled": 0, "rental_uris": {"android": "https://dc.lft.to/lastmile_qr_scan", "ios": "https://dc.lft.to/lastmile_qr_scan"}, "fusion_lon": 0.0, "lat": 38.881153166666664, "bike_id": "0d2d497478e82a5957d1762242deb6ed", "type": "electric_scooter", "is_reserved": 0, "lon": -76.9985355}, {"fusion_lat": 0.0, "name": "82f2f55e7c3fada93481b2b8a9a93fb9", "is_disabled": 0, "rental_uris": {"android": "https://dc.lft.to/lastmile_qr_scan", "ios": "https://dc.lft.to/lastmile_qr_scan"}, "fusion_lon": 0.0, "lat": 38.9236775, "bike_id": "82f2f55e7c3fada93481b2b8a9a93fb9", "type": "electric_scooter", "is_reserved": 0, "lon": -77.042557}, {"fusion_lat": 0.0, "name": "378e6ca014cc055c4eb36fdafe3738ec", "is_disabled": 0, "rental_uris": {"android": "https://dc.lft.to/lastmile_qr_scan", "ios": "https://dc.lft.to/lastmile_qr_scan"}, "fusion_lon": 0.0, "lat": 38.935267, "bike_id": "378e6ca014cc055c4eb36fdafe3738ec", "type": "electric_scooter", "is_reserved": 0, "lon": -77.03085816666666}, {"fusion_lat": 0.0, "name": "5c3dcac5ff2c0d83316c17ee0a9df9d4", "is_disabled": 0, "rental_uris": {"android": "https://dc.lft.to/lastmile_qr_scan", "ios": "https://dc.lft.to/lastmile_qr_scan"}, "fusion_lon": 0.0, "lat": 38.897413, "bike_id": "5c3dcac5ff2c0d83316c17ee0a9df9d4", "type": "electric_scooter", "is_reserved": 0, "lon": -77.02787383333333}, {"fusion_lat": 0.0, "name": "7c592e509aef68c2803ece634b20bdba", "is_disabled": 0, "rental_uris": {"android": "https://dc.lft.to/lastmile_qr_scan", "ios": "https://dc.lft.to/lastmile_qr_scan"}, "fusion_lon": 0.0, "lat": 38.91662816666667, "bike_id": "7c592e509aef68c2803ece634b20bdba", "type": "electric_scooter", "is_reserved": 0, "lon": -77.02819516666666}, {"fusion_lat": 0.0, "name": "226a3ba7c4a01be61007e63871be66f0", "is_disabled": 0, "rental_uris": {"android": "https://dc.lft.to/lastmile_qr_scan", "ios": "https://dc.lft.to/lastmile_qr_scan"}, "fusion_lon": 0.0, "lat": 38.9466, "bike_id": "226a3ba7c4a01be61007e63871be66f0", "type": "electric_bike", "is_reserved": 0, "lon": -77.00698033333333}, {"fusion_lat": 0.0, "name": "47d584e3445e62b68ed19fb2e9dbfb15", "is_disabled": 0, "rental_uris": {"android": "https://dc.lft.to/lastmile_qr_scan", "ios": "https://dc.lft.to/lastmile_qr_scan"}, "fusion_lon": 0.0, "lat": 38.91459366666667, "bike_id": "47d584e3445e62b68ed19fb2e9dbfb15", "type": "electric_scooter", "is_reserved": 0, "lon": -77.03190233333333}, {"fusion_lat": 0.0, "name": "a8bf7dfba6f146e446437cbcb529b453", "is_disabled": 0, "rental_uris": {"android": "https://dc.lft.to/lastmile_qr_scan", "ios": "https://dc.lft.to/lastmile_qr_scan"}, "fusion_lon": 0.0, "lat": 38.8923025, "bike_id": "a8bf7dfba6f146e446437cbcb529b453", "type": "electric_scooter", "is_reserved": 0, "lon": -77.03184983333334}, {"fusion_lat": 0.0, "name": "e370338f90a7f08c767b28be48dac8f0", "is_disabled": 0, "rental_uris": {"android": "https://dc.lft.to/lastmile_qr_scan", "ios": "https://dc.lft.to/lastmile_qr_scan"}, "fusion_lon": 0.0, "lat": 38.906998333333334, "bike_id": "e370338f90a7f08c767b28be48dac8f0", "type": "electric_scooter", "is_reserved": 0, "lon": -77.02380416666666}, {"fusion_lat": 0.0, "name": "d4f589ddb032d2cd4ef998f53d1a7b6b", "is_disabled": 0, "rental_uris": {"android": "https://dc.lft.to/lastmile_qr_scan", "ios": "https://dc.lft.to/lastmile_qr_scan"}, "fusion_lon": 0.0, "lat": 38.8626215, "bike_id": "d4f589ddb032d2cd4ef998f53d1a7b6b", "type": "electric_bike", "is_reserved": 0, "lon": -76.983546}, {"fusion_lat": 0.0, "name": "45af7befb833f359b9a69148559dd770", "is_disabled": 0, "rental_uris": {"android": "https://dc.lft.to/lastmile_qr_scan", "ios": "https://dc.lft.to/lastmile_qr_scan"}, "fusion_lon": 0.0, "lat": 38.886168166666664, "bike_id": "45af7befb833f359b9a69148559dd770", "type": "electric_scooter", "is_reserved": 0, "lon": -77.019818}, {"fusion_lat": 0.0, "name": "973dbb27be8d001d92c1a00b3b37137a", "is_disabled": 0, "rental_uris": {"android": "https://dc.lft.to/lastmile_qr_scan", "ios": "https://dc.lft.to/lastmile_qr_scan"}, "fusion_lon": 0.0, "lat": 38.928436833333336, "bike_id": "973dbb27be8d001d92c1a00b3b37137a", "type": "electric_scooter", "is_reserved": 0, "lon": -76.9798325}, {"fusion_lat": 0.0, "name": "b2d5eb2f69d665226b5de557c9f23c20", "is_disabled": 0, "rental_uris": {"android": "https://dc.lft.to/lastmile_qr_scan", "ios": "https://dc.lft.to/lastmile_qr_scan"}, "fusion_lon": 0.0, "lat": 38.916135, "bike_id": "b2d5eb2f69d665226b5de557c9f23c20", "type": "electric_scooter", "is_reserved": 0, "lon": -77.01127333333334}, {"fusion_lat": 0.0, "name": "53c0202fe9b038dd67f615db630422e6", "is_disabled": 0, "rental_uris": {"android": "https://dc.lft.to/lastmile_qr_scan", "ios": "https://dc.lft.to/lastmile_qr_scan"}, "fusion_lon": 0.0, "lat": 38.90927933333333, "bike_id": "53c0202fe9b038dd67f615db630422e6", "type": "electric_scooter", "is_reserved": 0, "lon": -77.04577666666667}, {"fusion_lat": 0.0, "name": "1b0bc96c24022b0c241a70f6d93374c9", "is_disabled": 0, "rental_uris": {"android": "https://dc.lft.to/lastmile_qr_scan", "ios": "https://dc.lft.to/lastmile_qr_scan"}, "fusion_lon": 0.0, "lat": 38.87999383333333, "bike_id": "1b0bc96c24022b0c241a70f6d93374c9", "type": "electric_scooter", "is_reserved": 0, "lon": -77.0374}, {"fusion_lat": 0.0, "name": "6e9eb4da8bd2661f5d90bf971a1a3a86", "is_disabled": 0, "rental_uris": {"android": "https://dc.lft.to/lastmile_qr_scan", "ios": "https://dc.lft.to/lastmile_qr_scan"}, "fusion_lon": 0.0, "lat": 38.8982725, "bike_id": "6e9eb4da8bd2661f5d90bf971a1a3a86", "type": "electric_scooter", "is_reserved": 0, "lon": -77.0273125}, {"fusion_lat": 0.0, "name": "d2d451530349175c1375fad84b1214d8", "is_disabled": 0, "rental_uris": {"android": "https://dc.lft.to/lastmile_qr_scan", "ios": "https://dc.lft.to/lastmile_qr_scan"}, "fusion_lon": 0.0, "lat": 38.91125483333333, "bike_id": "d2d451530349175c1375fad84b1214d8", "type": "electric_scooter", "is_reserved": 0, "lon": -77.02201516666666}, {"fusion_lat": 0.0, "name": "0d145698a9dced13335c05ea678ff101", "is_disabled": 0, "rental_uris": {"android": "https://dc.lft.to/lastmile_qr_scan", "ios": "https://dc.lft.to/lastmile_qr_scan"}, "fusion_lon": 0.0, "lat": 38.907329833333336, "bike_id": "0d145698a9dced13335c05ea678ff101", "type": "electric_scooter", "is_reserved": 0, "lon": -77.043574}, {"fusion_lat": 0.0, "name": "dc03c6c92793a3e3f9d43c807eb3591e", "is_disabled": 0, "rental_uris": {"android": "https://dc.lft.to/lastmile_qr_scan", "ios": "https://dc.lft.to/lastmile_qr_scan"}, "fusion_lon": 0.0, "lat": 38.90400983333333, "bike_id": "dc03c6c92793a3e3f9d43c807eb3591e", "type": "electric_scooter", "is_reserved": 0, "lon": -77.067787}, {"fusion_lat": 0.0, "name": "7b12fbdd274a99a0c7cc3bbab71ebfc5", "is_disabled": 0, "rental_uris": {"android": "https://dc.lft.to/lastmile_qr_scan", "ios": "https://dc.lft.to/lastmile_qr_scan"}, "fusion_lon": 0.0, "lat": 38.905152666666666, "bike_id": "7b12fbdd274a99a0c7cc3bbab71ebfc5", "type": "electric_scooter", "is_reserved": 0, "lon": -77.02697583333334}, {"fusion_lat": 0.0, "name": "a53056184400375e462bf0c8a284c779", "is_disabled": 0, "rental_uris": {"android": "https://dc.lft.to/lastmile_qr_scan", "ios": "https://dc.lft.to/lastmile_qr_scan"}, "fusion_lon": 0.0, "lat": 38.887303333333335, "bike_id": "a53056184400375e462bf0c8a284c779", "type": "electric_scooter", "is_reserved": 0, "lon": -77.02189833333334}, {"fusion_lat": 0.0, "name": "fa3409d42a1c1393cface08fd18e5d49", "is_disabled": 0, "rental_uris": {"android": "https://dc.lft.to/lastmile_qr_scan", "ios": "https://dc.lft.to/lastmile_qr_scan"}, "fusion_lon": 0.0, "lat": 38.8633555, "bike_id": "fa3409d42a1c1393cface08fd18e5d49", "type": "electric_bike", "is_reserved": 0, "lon": -76.98721716666667}, {"fusion_lat": 0.0, "name": "0072634f15ab035ee33aad8a0bf40fc6", "is_disabled": 0, "rental_uris": {"android": "https://dc.lft.to/lastmile_qr_scan", "ios": "https://dc.lft.to/lastmile_qr_scan"}, "fusion_lon": 0.0, "lat": 38.93190033333333, "bike_id": "0072634f15ab035ee33aad8a0bf40fc6", "type": "electric_scooter", "is_reserved": 0, "lon": -77.043002}, {"fusion_lat": 0.0, "name": "52c9b1b7dd6c624e87e6d68ce02bbcba", "is_disabled": 0, "rental_uris": {"android": "https://dc.lft.to/lastmile_qr_scan", "ios": "https://dc.lft.to/lastmile_qr_scan"}, "fusion_lon": 0.0, "lat": 38.8818175, "bike_id": "52c9b1b7dd6c624e87e6d68ce02bbcba", "type": "electric_scooter", "is_reserved": 0, "lon": -77.03572066666666}, {"fusion_lat": 0.0, "name": "6f6c60ae6203a9ae46e43c57dc3dc6df", "is_disabled": 0, "rental_uris": {"android": "https://dc.lft.to/lastmile_qr_scan", "ios": "https://dc.lft.to/lastmile_qr_scan"}, "fusion_lon": 0.0, "lat": 38.906783, "bike_id": "6f6c60ae6203a9ae46e43c57dc3dc6df", "type": "electric_bike", "is_reserved": 0, "lon": -77.063589}, {"fusion_lat": 0.0, "name": "4104c6c59be48e69dac7299dda76f820", "is_disabled": 0, "rental_uris": {"android": "https://dc.lft.to/lastmile_qr_scan", "ios": "https://dc.lft.to/lastmile_qr_scan"}, "fusion_lon": 0.0, "lat": 38.90535533333333, "bike_id": "4104c6c59be48e69dac7299dda76f820", "type": "electric_scooter", "is_reserved": 0, "lon": -77.0587835}, {"fusion_lat": 0.0, "name": "afbc469e5229e943031e1a6cf98a35e3", "is_disabled": 0, "rental_uris": {"android": "https://dc.lft.to/lastmile_qr_scan", "ios": "https://dc.lft.to/lastmile_qr_scan"}, "fusion_lon": 0.0, "lat": 38.903980833333335, "bike_id": "afbc469e5229e943031e1a6cf98a35e3", "type": "electric_scooter", "is_reserved": 0, "lon": -76.98095866666667}, {"fusion_lat": 0.0, "name": "49b586d44fa3389f76fe196f7d442eca", "is_disabled": 0, "rental_uris": {"android": "https://dc.lft.to/lastmile_qr_scan", "ios": "https://dc.lft.to/lastmile_qr_scan"}, "fusion_lon": 0.0, "lat": 38.84137116666667, "bike_id": "49b586d44fa3389f76fe196f7d442eca", "type": "electric_bike", "is_reserved": 0, "lon": -76.94760433333333}, {"fusion_lat": 0.0, "name": "9db8b97527bed84ea26cc0f0b6cfb49c", "is_disabled": 0, "rental_uris": {"android": "https://dc.lft.to/lastmile_qr_scan", "ios": "https://dc.lft.to/lastmile_qr_scan"}, "fusion_lon": 0.0, "lat": 38.9219415, "bike_id": "9db8b97527bed84ea26cc0f0b6cfb49c", "type": "electric_scooter", "is_reserved": 0, "lon": -77.05048283333333}, {"fusion_lat": 0.0, "name": "eed2ed099f6a8dc7079933563b947476", "is_disabled": 0, "rental_uris": {"android": "https://dc.lft.to/lastmile_qr_scan", "ios": "https://dc.lft.to/lastmile_qr_scan"}, "fusion_lon": 0.0, "lat": 38.912658, "bike_id": "eed2ed099f6a8dc7079933563b947476", "type": "electric_scooter", "is_reserved": 0, "lon": -77.012179}, {"fusion_lat": 0.0, "name": "63015bae00873b22442460ba3109e1b4", "is_disabled": 0, "rental_uris": {"android": "https://dc.lft.to/lastmile_qr_scan", "ios": "https://dc.lft.to/lastmile_qr_scan"}, "fusion_lon": 0.0, "lat": 38.924384833333335, "bike_id": "63015bae00873b22442460ba3109e1b4", "type": "electric_scooter", "is_reserved": 0, "lon": -77.00066666666666}, {"fusion_lat": 0.0, "name": "6516a12c826e3ebc1f38176b2f80a599", "is_disabled": 0, "rental_uris": {"android": "https://dc.lft.to/lastmile_qr_scan", "ios": "https://dc.lft.to/lastmile_qr_scan"}, "fusion_lon": 0.0, "lat": 38.905617166666666, "bike_id": "6516a12c826e3ebc1f38176b2f80a599", "type": "electric_scooter", "is_reserved": 0, "lon": -77.06264433333334}, {"fusion_lat": 0.0, "name": "ffbddeedc17a9133a8c9382550a6f0c6", "is_disabled": 0, "rental_uris": {"android": "https://dc.lft.to/lastmile_qr_scan", "ios": "https://dc.lft.to/lastmile_qr_scan"}, "fusion_lon": 0.0, "lat": 38.88726066666667, "bike_id": "ffbddeedc17a9133a8c9382550a6f0c6", "type": "electric_scooter", "is_reserved": 0, "lon": -76.98357766666666}, {"fusion_lat": 0.0, "name": "fd91400bb0c926599a6609aaa0d4f38b", "is_disabled": 0, "rental_uris": {"android": "https://dc.lft.to/lastmile_qr_scan", "ios": "https://dc.lft.to/lastmile_qr_scan"}, "fusion_lon": 0.0, "lat": 38.876382666666665, "bike_id": "fd91400bb0c926599a6609aaa0d4f38b", "type": "electric_scooter", "is_reserved": 0, "lon": -77.0091055}, {"fusion_lat": 0.0, "name": "bcad0aef20684838934a7f4dfc55477a", "is_disabled": 0, "rental_uris": {"android": "https://dc.lft.to/lastmile_qr_scan", "ios": "https://dc.lft.to/lastmile_qr_scan"}, "fusion_lon": 0.0, "lat": 38.87820416666667, "bike_id": "bcad0aef20684838934a7f4dfc55477a", "type": "electric_scooter", "is_reserved": 0, "lon": -76.9900865}, {"fusion_lat": 0.0, "name": "5efca533710e6eadc4a1e0ae4759070a", "is_disabled": 0, "rental_uris": {"android": "https://dc.lft.to/lastmile_qr_scan", "ios": "https://dc.lft.to/lastmile_qr_scan"}, "fusion_lon": 0.0, "lat": 38.92419016666667, "bike_id": "5efca533710e6eadc4a1e0ae4759070a", "type": "electric_scooter", "is_reserved": 0, "lon": -77.051808}, {"fusion_lat": 0.0, "name": "6bb512155dfe3a04f9e5da4d101cfa46", "is_disabled": 0, "rental_uris": {"android": "https://dc.lft.to/lastmile_qr_scan", "ios": "https://dc.lft.to/lastmile_qr_scan"}, "fusion_lon": 0.0, "lat": 38.89872183333333, "bike_id": "6bb512155dfe3a04f9e5da4d101cfa46", "type": "electric_scooter", "is_reserved": 0, "lon": -77.02825683333333}, {"fusion_lat": 0.0, "name": "02831e354e22ba2aee77a55b6023b7ef", "is_disabled": 0, "rental_uris": {"android": "https://dc.lft.to/lastmile_qr_scan", "ios": "https://dc.lft.to/lastmile_qr_scan"}, "fusion_lon": 0.0, "lat": 38.91264733333333, "bike_id": "02831e354e22ba2aee77a55b6023b7ef", "type": "electric_scooter", "is_reserved": 0, "lon": -77.03148216666666}, {"fusion_lat": 0.0, "name": "193e2a5e794281bb13b816c8b40268f4", "is_disabled": 0, "rental_uris": {"android": "https://dc.lft.to/lastmile_qr_scan", "ios": "https://dc.lft.to/lastmile_qr_scan"}, "fusion_lon": 0.0, "lat": 38.923324, "bike_id": "193e2a5e794281bb13b816c8b40268f4", "type": "electric_scooter", "is_reserved": 0, "lon": -77.0377205}, {"fusion_lat": 0.0, "name": "3282bfb66d3153846273ed03c13228da", "is_disabled": 0, "rental_uris": {"android": "https://dc.lft.to/lastmile_qr_scan", "ios": "https://dc.lft.to/lastmile_qr_scan"}, "fusion_lon": 0.0, "lat": 38.88396566666667, "bike_id": "3282bfb66d3153846273ed03c13228da", "type": "electric_scooter", "is_reserved": 0, "lon": -77.0303985}, {"fusion_lat": 0.0, "name": "6915478e25e19b7e663bf52b9ac1fc2e", "is_disabled": 0, "rental_uris": {"android": "https://dc.lft.to/lastmile_qr_scan", "ios": "https://dc.lft.to/lastmile_qr_scan"}, "fusion_lon": 0.0, "lat": 38.91566183333333, "bike_id": "6915478e25e19b7e663bf52b9ac1fc2e", "type": "electric_scooter", "is_reserved": 0, "lon": -77.03150166666667}, {"fusion_lat": 0.0, "name": "b8fd7c2fab734a33cefc40d7fbbed5d9", "is_disabled": 0, "rental_uris": {"android": "https://dc.lft.to/lastmile_qr_scan", "ios": "https://dc.lft.to/lastmile_qr_scan"}, "fusion_lon": 0.0, "lat": 38.931954, "bike_id": "b8fd7c2fab734a33cefc40d7fbbed5d9", "type": "electric_scooter", "is_reserved": 0, "lon": -77.02504666666667}, {"fusion_lat": 0.0, "name": "5a67c68c09455908a7ac5e202dcc1c06", "is_disabled": 0, "rental_uris": {"android": "https://dc.lft.to/lastmile_qr_scan", "ios": "https://dc.lft.to/lastmile_qr_scan"}, "fusion_lon": 0.0, "lat": 38.912698666666664, "bike_id": "5a67c68c09455908a7ac5e202dcc1c06", "type": "electric_scooter", "is_reserved": 0, "lon": -77.03887133333333}, {"fusion_lat": 0.0, "name": "a0849f56f40e51f37276ff911e1de80f", "is_disabled": 0, "rental_uris": {"android": "https://dc.lft.to/lastmile_qr_scan", "ios": "https://dc.lft.to/lastmile_qr_scan"}, "fusion_lon": 0.0, "lat": 38.922901333333336, "bike_id": "a0849f56f40e51f37276ff911e1de80f", "type": "electric_scooter", "is_reserved": 0, "lon": -77.04250416666666}, {"fusion_lat": 0.0, "name": "ec8d2f9895277a6bf4ae29dc8c4bedb0", "is_disabled": 0, "rental_uris": {"android": "https://dc.lft.to/lastmile_qr_scan", "ios": "https://dc.lft.to/lastmile_qr_scan"}, "fusion_lon": 0.0, "lat": 39.041805833333335, "bike_id": "ec8d2f9895277a6bf4ae29dc8c4bedb0", "type": "electric_bike", "is_reserved": 0, "lon": -77.052402}, {"fusion_lat": 0.0, "name": "6cebf9191f59a67adbab5cc58c709804", "is_disabled": 0, "rental_uris": {"android": "https://dc.lft.to/lastmile_qr_scan", "ios": "https://dc.lft.to/lastmile_qr_scan"}, "fusion_lon": 0.0, "lat": 38.9290905, "bike_id": "6cebf9191f59a67adbab5cc58c709804", "type": "electric_scooter", "is_reserved": 0, "lon": -77.03259666666666}, {"fusion_lat": 0.0, "name": "ddd47ad74979bd950fa9d34bd3b2aebc", "is_disabled": 0, "rental_uris": {"android": "https://dc.lft.to/lastmile_qr_scan", "ios": "https://dc.lft.to/lastmile_qr_scan"}, "fusion_lon": 0.0, "lat": 38.93331333333333, "bike_id": "ddd47ad74979bd950fa9d34bd3b2aebc", "type": "electric_scooter", "is_reserved": 0, "lon": -77.03268966666667}, {"fusion_lat": 0.0, "name": "7d237bf7e63c4067a0f807e3bd2e06ec", "is_disabled": 0, "rental_uris": {"android": "https://dc.lft.to/lastmile_qr_scan", "ios": "https://dc.lft.to/lastmile_qr_scan"}, "fusion_lon": 0.0, "lat": 38.887161666666664, "bike_id": "7d237bf7e63c4067a0f807e3bd2e06ec", "type": "electric_scooter", "is_reserved": 0, "lon": -76.99674283333333}, {"fusion_lat": 0.0, "name": "10ab7ceba81efac1b7b9decab65146bf", "is_disabled": 0, "rental_uris": {"android": "https://dc.lft.to/lastmile_qr_scan", "ios": "https://dc.lft.to/lastmile_qr_scan"}, "fusion_lon": 0.0, "lat": 38.937431, "bike_id": "10ab7ceba81efac1b7b9decab65146bf", "type": "electric_bike", "is_reserved": 0, "lon": -76.97229083333333}, {"fusion_lat": 0.0, "name": "2ba5195f69106aae7111933ef91d1326", "is_disabled": 0, "rental_uris": {"android": "https://dc.lft.to/lastmile_qr_scan", "ios": "https://dc.lft.to/lastmile_qr_scan"}, "fusion_lon": 0.0, "lat": 38.884365333333335, "bike_id": "2ba5195f69106aae7111933ef91d1326", "type": "electric_bike", "is_reserved": 0, "lon": -76.95401866666667}, {"fusion_lat": 0.0, "name": "fb7c6ac9bddaab425335f9c6bc69d5fa", "is_disabled": 0, "rental_uris": {"android": "https://dc.lft.to/lastmile_qr_scan", "ios": "https://dc.lft.to/lastmile_qr_scan"}, "fusion_lon": 0.0, "lat": 38.93291266666667, "bike_id": "fb7c6ac9bddaab425335f9c6bc69d5fa", "type": "electric_scooter", "is_reserved": 0, "lon": -77.02355366666667}, {"fusion_lat": 0.0, "name": "ee0ee9d319a7fc9850551f9aad9d4010", "is_disabled": 0, "rental_uris": {"android": "https://dc.lft.to/lastmile_qr_scan", "ios": "https://dc.lft.to/lastmile_qr_scan"}, "fusion_lon": 0.0, "lat": 38.91604533333334, "bike_id": "ee0ee9d319a7fc9850551f9aad9d4010", "type": "electric_scooter", "is_reserved": 0, "lon": -77.02209483333333}, {"fusion_lat": 0.0, "name": "dd5f992716162671078e5c063ab29729", "is_disabled": 0, "rental_uris": {"android": "https://dc.lft.to/lastmile_qr_scan", "ios": "https://dc.lft.to/lastmile_qr_scan"}, "fusion_lon": 0.0, "lat": 38.879393666666665, "bike_id": "dd5f992716162671078e5c063ab29729", "type": "electric_scooter", "is_reserved": 0, "lon": -77.00901683333333}, {"fusion_lat": 0.0, "name": "9fc892ad39a1ffeff262d7302f2bcb86", "is_disabled": 0, "rental_uris": {"android": "https://dc.lft.to/lastmile_qr_scan", "ios": "https://dc.lft.to/lastmile_qr_scan"}, "fusion_lon": 0.0, "lat": 38.87796766666666, "bike_id": "9fc892ad39a1ffeff262d7302f2bcb86", "type": "electric_scooter", "is_reserved": 0, "lon": -77.00120216666667}, {"fusion_lat": 0.0, "name": "4e33929732a9a93fda8d1092d7aec103", "is_disabled": 0, "rental_uris": {"android": "https://dc.lft.to/lastmile_qr_scan", "ios": "https://dc.lft.to/lastmile_qr_scan"}, "fusion_lon": 0.0, "lat": 38.89729783333333, "bike_id": "4e33929732a9a93fda8d1092d7aec103", "type": "electric_scooter", "is_reserved": 0, "lon": -77.04431266666667}, {"fusion_lat": 0.0, "name": "a6717d6539380d0b5bfb1ec8d1509ed4", "is_disabled": 0, "rental_uris": {"android": "https://dc.lft.to/lastmile_qr_scan", "ios": "https://dc.lft.to/lastmile_qr_scan"}, "fusion_lon": 0.0, "lat": 38.90508583333333, "bike_id": "a6717d6539380d0b5bfb1ec8d1509ed4", "type": "electric_scooter", "is_reserved": 0, "lon": -77.0676355}, {"fusion_lat": 0.0, "name": "731e0b9dd5f36d88d58fa809352a8cf8", "is_disabled": 0, "rental_uris": {"android": "https://dc.lft.to/lastmile_qr_scan", "ios": "https://dc.lft.to/lastmile_qr_scan"}, "fusion_lon": 0.0, "lat": 38.9238765, "bike_id": "731e0b9dd5f36d88d58fa809352a8cf8", "type": "electric_scooter", "is_reserved": 0, "lon": -77.03058266666666}, {"fusion_lat": 0.0, "name": "6ddb5b64d8b29cd7ad3de74fb4971beb", "is_disabled": 0, "rental_uris": {"android": "https://dc.lft.to/lastmile_qr_scan", "ios": "https://dc.lft.to/lastmile_qr_scan"}, "fusion_lon": 0.0, "lat": 38.92326933333333, "bike_id": "6ddb5b64d8b29cd7ad3de74fb4971beb", "type": "electric_scooter", "is_reserved": 0, "lon": -77.02970566666667}, {"fusion_lat": 0.0, "name": "0b4fb19fd7d9961d25eb0bf6228652b5", "is_disabled": 0, "rental_uris": {"android": "https://dc.lft.to/lastmile_qr_scan", "ios": "https://dc.lft.to/lastmile_qr_scan"}, "fusion_lon": 0.0, "lat": 38.896778, "bike_id": "0b4fb19fd7d9961d25eb0bf6228652b5", "type": "electric_scooter", "is_reserved": 0, "lon": -77.0509575}, {"fusion_lat": 0.0, "name": "7928fa80ab0e727d637380b20601455c", "is_disabled": 0, "rental_uris": {"android": "https://dc.lft.to/lastmile_qr_scan", "ios": "https://dc.lft.to/lastmile_qr_scan"}, "fusion_lon": 0.0, "lat": 38.899448166666666, "bike_id": "7928fa80ab0e727d637380b20601455c", "type": "electric_scooter", "is_reserved": 0, "lon": -76.99728933333333}, {"fusion_lat": 0.0, "name": "7572b879f639236ae792dbd417a58d74", "is_disabled": 0, "rental_uris": {"android": "https://dc.lft.to/lastmile_qr_scan", "ios": "https://dc.lft.to/lastmile_qr_scan"}, "fusion_lon": 0.0, "lat": 38.923603666666665, "bike_id": "7572b879f639236ae792dbd417a58d74", "type": "electric_scooter", "is_reserved": 0, "lon": -77.0322375}, {"fusion_lat": 0.0, "name": "f0236ac3d88c1f1941d2a0f2892ea988", "is_disabled": 0, "rental_uris": {"android": "https://dc.lft.to/lastmile_qr_scan", "ios": "https://dc.lft.to/lastmile_qr_scan"}, "fusion_lon": 0.0, "lat": 38.92452133333333, "bike_id": "f0236ac3d88c1f1941d2a0f2892ea988", "type": "electric_scooter", "is_reserved": 0, "lon": -77.00879983333333}, {"fusion_lat": 0.0, "name": "188cb6fbf8860c44473cdabcf61770ae", "is_disabled": 0, "rental_uris": {"android": "https://dc.lft.to/lastmile_qr_scan", "ios": "https://dc.lft.to/lastmile_qr_scan"}, "fusion_lon": 0.0, "lat": 38.902539833333336, "bike_id": "188cb6fbf8860c44473cdabcf61770ae", "type": "electric_scooter", "is_reserved": 0, "lon": -77.04364683333333}, {"fusion_lat": 0.0, "name": "dcf0a5009f25f0ca8a214f92426b1848", "is_disabled": 0, "rental_uris": {"android": "https://dc.lft.to/lastmile_qr_scan", "ios": "https://dc.lft.to/lastmile_qr_scan"}, "fusion_lon": 0.0, "lat": 38.8830705, "bike_id": "dcf0a5009f25f0ca8a214f92426b1848", "type": "electric_scooter", "is_reserved": 0, "lon": -77.0139965}, {"fusion_lat": 0.0, "name": "32f1d8f5b5fb02bd3e3ac48d1db65ac8", "is_disabled": 0, "rental_uris": {"android": "https://dc.lft.to/lastmile_qr_scan", "ios": "https://dc.lft.to/lastmile_qr_scan"}, "fusion_lon": 0.0, "lat": 38.9725795, "bike_id": "32f1d8f5b5fb02bd3e3ac48d1db65ac8", "type": "electric_bike", "is_reserved": 0, "lon": -76.992737}, {"fusion_lat": 0.0, "name": "95a9c733886965e1e47e0e0bb7d92a0c", "is_disabled": 0, "rental_uris": {"android": "https://dc.lft.to/lastmile_qr_scan", "ios": "https://dc.lft.to/lastmile_qr_scan"}, "fusion_lon": 0.0, "lat": 39.038987166666665, "bike_id": "95a9c733886965e1e47e0e0bb7d92a0c", "type": "electric_bike", "is_reserved": 0, "lon": -77.0503165}, {"fusion_lat": 0.0, "name": "e7ecc8741e5abee290e6f17787b6b7cf", "is_disabled": 0, "rental_uris": {"android": "https://dc.lft.to/lastmile_qr_scan", "ios": "https://dc.lft.to/lastmile_qr_scan"}, "fusion_lon": 0.0, "lat": 38.91554766666667, "bike_id": "e7ecc8741e5abee290e6f17787b6b7cf", "type": "electric_scooter", "is_reserved": 0, "lon": -77.03241233333334}, {"fusion_lat": 0.0, "name": "30d1d4ae484ed426ff4f87dc52789a9b", "is_disabled": 0, "rental_uris": {"android": "https://dc.lft.to/lastmile_qr_scan", "ios": "https://dc.lft.to/lastmile_qr_scan"}, "fusion_lon": 0.0, "lat": 38.922584666666665, "bike_id": "30d1d4ae484ed426ff4f87dc52789a9b", "type": "electric_bike", "is_reserved": 0, "lon": -77.07028533333333}, {"fusion_lat": 0.0, "name": "6744b26815d2b154e42e56283a54ba7a", "is_disabled": 0, "rental_uris": {"android": "https://dc.lft.to/lastmile_qr_scan", "ios": "https://dc.lft.to/lastmile_qr_scan"}, "fusion_lon": 0.0, "lat": 38.909621666666666, "bike_id": "6744b26815d2b154e42e56283a54ba7a", "type": "electric_scooter", "is_reserved": 0, "lon": -77.03933}, {"fusion_lat": 0.0, "name": "ad7eb0e7ff6ee4485f92f9828d5751b4", "is_disabled": 0, "rental_uris": {"android": "https://dc.lft.to/lastmile_qr_scan", "ios": "https://dc.lft.to/lastmile_qr_scan"}, "fusion_lon": 0.0, "lat": 38.89017483333333, "bike_id": "ad7eb0e7ff6ee4485f92f9828d5751b4", "type": "electric_scooter", "is_reserved": 0, "lon": -76.93741433333334}, {"fusion_lat": 0.0, "name": "7d1888a1814d796f35c33c6b5b5cc57e", "is_disabled": 0, "rental_uris": {"android": "https://dc.lft.to/lastmile_qr_scan", "ios": "https://dc.lft.to/lastmile_qr_scan"}, "fusion_lon": 0.0, "lat": 38.92456716666667, "bike_id": "7d1888a1814d796f35c33c6b5b5cc57e", "type": "electric_scooter", "is_reserved": 0, "lon": -77.02410183333333}, {"fusion_lat": 0.0, "name": "91b549564de4a66763e2bd08c278ccc4", "is_disabled": 0, "rental_uris": {"android": "https://dc.lft.to/lastmile_qr_scan", "ios": "https://dc.lft.to/lastmile_qr_scan"}, "fusion_lon": 0.0, "lat": 38.9202645, "bike_id": "91b549564de4a66763e2bd08c278ccc4", "type": "electric_scooter", "is_reserved": 0, "lon": -77.0306915}, {"fusion_lat": 0.0, "name": "095df16b50009defa1e665131b278c8d", "is_disabled": 0, "rental_uris": {"android": "https://dc.lft.to/lastmile_qr_scan", "ios": "https://dc.lft.to/lastmile_qr_scan"}, "fusion_lon": 0.0, "lat": 38.892261500000004, "bike_id": "095df16b50009defa1e665131b278c8d", "type": "electric_scooter", "is_reserved": 0, "lon": -77.03221833333333}, {"fusion_lat": 0.0, "name": "0556d21b0f822730283de0fb46f9ee6e", "is_disabled": 0, "rental_uris": {"android": "https://dc.lft.to/lastmile_qr_scan", "ios": "https://dc.lft.to/lastmile_qr_scan"}, "fusion_lon": 0.0, "lat": 38.914205333333335, "bike_id": "0556d21b0f822730283de0fb46f9ee6e", "type": "electric_scooter", "is_reserved": 0, "lon": -77.03177133333334}, {"fusion_lat": 0.0, "name": "d01d7e51444e8344a5c8357bcb624d32", "is_disabled": 0, "rental_uris": {"android": "https://dc.lft.to/lastmile_qr_scan", "ios": "https://dc.lft.to/lastmile_qr_scan"}, "fusion_lon": 0.0, "lat": 38.90145916666667, "bike_id": "d01d7e51444e8344a5c8357bcb624d32", "type": "electric_scooter", "is_reserved": 0, "lon": -77.03855366666667}, {"fusion_lat": 0.0, "name": "4390ee37bd6cd1dc55ad82718cd2389e", "is_disabled": 0, "rental_uris": {"android": "https://dc.lft.to/lastmile_qr_scan", "ios": "https://dc.lft.to/lastmile_qr_scan"}, "fusion_lon": 0.0, "lat": 38.91815716666667, "bike_id": "4390ee37bd6cd1dc55ad82718cd2389e", "type": "electric_scooter", "is_reserved": 0, "lon": -77.0328165}, {"fusion_lat": 0.0, "name": "5806cd7a14f2bed2cc868c010f3f12f5", "is_disabled": 0, "rental_uris": {"android": "https://dc.lft.to/lastmile_qr_scan", "ios": "https://dc.lft.to/lastmile_qr_scan"}, "fusion_lon": 0.0, "lat": 38.920690666666665, "bike_id": "5806cd7a14f2bed2cc868c010f3f12f5", "type": "electric_scooter", "is_reserved": 0, "lon": -77.02851583333333}, {"fusion_lat": 0.0, "name": "e9b80628cd7eaed3e5034945b50d0a17", "is_disabled": 0, "rental_uris": {"android": "https://dc.lft.to/lastmile_qr_scan", "ios": "https://dc.lft.to/lastmile_qr_scan"}, "fusion_lon": 0.0, "lat": 38.93462316666667, "bike_id": "e9b80628cd7eaed3e5034945b50d0a17", "type": "electric_scooter", "is_reserved": 0, "lon": -77.05779766666667}, {"fusion_lat": 0.0, "name": "58236b7b422c795f1bf96be74435f16a", "is_disabled": 0, "rental_uris": {"android": "https://dc.lft.to/lastmile_qr_scan", "ios": "https://dc.lft.to/lastmile_qr_scan"}, "fusion_lon": 0.0, "lat": 38.929359166666664, "bike_id": "58236b7b422c795f1bf96be74435f16a", "type": "electric_scooter", "is_reserved": 0, "lon": -77.03283833333333}, {"fusion_lat": 0.0, "name": "1689ce05450c058d616ff5fcab092ad3", "is_disabled": 0, "rental_uris": {"android": "https://dc.lft.to/lastmile_qr_scan", "ios": "https://dc.lft.to/lastmile_qr_scan"}, "fusion_lon": 0.0, "lat": 38.88727183333334, "bike_id": "1689ce05450c058d616ff5fcab092ad3", "type": "electric_scooter", "is_reserved": 0, "lon": -77.02198783333333}, {"fusion_lat": 0.0, "name": "b0571e0fbcca7f396fa99ea8bae74a58", "is_disabled": 0, "rental_uris": {"android": "https://dc.lft.to/lastmile_qr_scan", "ios": "https://dc.lft.to/lastmile_qr_scan"}, "fusion_lon": 0.0, "lat": 38.90725283333333, "bike_id": "b0571e0fbcca7f396fa99ea8bae74a58", "type": "electric_scooter", "is_reserved": 0, "lon": -77.04295516666667}, {"fusion_lat": 0.0, "name": "60064532a31cf40f0b79356d9fa10bec", "is_disabled": 0, "rental_uris": {"android": "https://dc.lft.to/lastmile_qr_scan", "ios": "https://dc.lft.to/lastmile_qr_scan"}, "fusion_lon": 0.0, "lat": 38.930669333333334, "bike_id": "60064532a31cf40f0b79356d9fa10bec", "type": "electric_scooter", "is_reserved": 0, "lon": -77.03955833333333}, {"fusion_lat": 0.0, "name": "d0e6f02334fe9de18885ad30a3381c6a", "is_disabled": 0, "rental_uris": {"android": "https://dc.lft.to/lastmile_qr_scan", "ios": "https://dc.lft.to/lastmile_qr_scan"}, "fusion_lon": 0.0, "lat": 38.91830783333333, "bike_id": "d0e6f02334fe9de18885ad30a3381c6a", "type": "electric_scooter", "is_reserved": 0, "lon": -77.02397016666667}, {"fusion_lat": 0.0, "name": "e3fbf96fb1be77b276b94d598329cda1", "is_disabled": 0, "rental_uris": {"android": "https://dc.lft.to/lastmile_qr_scan", "ios": "https://dc.lft.to/lastmile_qr_scan"}, "fusion_lon": 0.0, "lat": 38.87641966666666, "bike_id": "e3fbf96fb1be77b276b94d598329cda1", "type": "electric_scooter", "is_reserved": 0, "lon": -77.001127}, {"fusion_lat": 0.0, "name": "c50685f9862b1982699342dd4b9cd4cf", "is_disabled": 0, "rental_uris": {"android": "https://dc.lft.to/lastmile_qr_scan", "ios": "https://dc.lft.to/lastmile_qr_scan"}, "fusion_lon": 0.0, "lat": 38.88122366666666, "bike_id": "c50685f9862b1982699342dd4b9cd4cf", "type": "electric_scooter", "is_reserved": 0, "lon": -76.9928365}, {"fusion_lat": 0.0, "name": "62c11e257428044088efd117ac5cf04d", "is_disabled": 0, "rental_uris": {"android": "https://dc.lft.to/lastmile_qr_scan", "ios": "https://dc.lft.to/lastmile_qr_scan"}, "fusion_lon": 0.0, "lat": 38.8996005, "bike_id": "62c11e257428044088efd117ac5cf04d", "type": "electric_bike", "is_reserved": 0, "lon": -76.98680266666666}, {"fusion_lat": 0.0, "name": "6b3e4f7d964581aa83cdfbee43afa3de", "is_disabled": 0, "rental_uris": {"android": "https://dc.lft.to/lastmile_qr_scan", "ios": "https://dc.lft.to/lastmile_qr_scan"}, "fusion_lon": 0.0, "lat": 38.9052335, "bike_id": "6b3e4f7d964581aa83cdfbee43afa3de", "type": "electric_scooter", "is_reserved": 0, "lon": -77.03469333333334}, {"fusion_lat": 0.0, "name": "3120ac4132ecc37452f59ecd263a1820", "is_disabled": 0, "rental_uris": {"android": "https://dc.lft.to/lastmile_qr_scan", "ios": "https://dc.lft.to/lastmile_qr_scan"}, "fusion_lon": 0.0, "lat": 38.90178433333333, "bike_id": "3120ac4132ecc37452f59ecd263a1820", "type": "electric_scooter", "is_reserved": 0, "lon": -76.94143566666666}, {"fusion_lat": 0.0, "name": "e10568042d70e00900aaf7115804abf2", "is_disabled": 0, "rental_uris": {"android": "https://dc.lft.to/lastmile_qr_scan", "ios": "https://dc.lft.to/lastmile_qr_scan"}, "fusion_lon": 0.0, "lat": 38.92038566666667, "bike_id": "e10568042d70e00900aaf7115804abf2", "type": "electric_bike", "is_reserved": 0, "lon": -76.97955116666667}, {"fusion_lat": 0.0, "name": "3801841a9d6ec1d83393e2fd403987e1", "is_disabled": 0, "rental_uris": {"android": "https://dc.lft.to/lastmile_qr_scan", "ios": "https://dc.lft.to/lastmile_qr_scan"}, "fusion_lon": 0.0, "lat": 38.895182166666665, "bike_id": "3801841a9d6ec1d83393e2fd403987e1", "type": "electric_scooter", "is_reserved": 0, "lon": -76.9808105}, {"fusion_lat": 0.0, "name": "8281bdba7cbbe29898470e2289855ea0", "is_disabled": 0, "rental_uris": {"android": "https://dc.lft.to/lastmile_qr_scan", "ios": "https://dc.lft.to/lastmile_qr_scan"}, "fusion_lon": 0.0, "lat": 38.9573435, "bike_id": "8281bdba7cbbe29898470e2289855ea0", "type": "electric_scooter", "is_reserved": 0, "lon": -77.0240615}, {"fusion_lat": 0.0, "name": "cb8d9e0f6e5bb829f73a082dc0f9dd2c", "is_disabled": 0, "rental_uris": {"android": "https://dc.lft.to/lastmile_qr_scan", "ios": "https://dc.lft.to/lastmile_qr_scan"}, "fusion_lon": 0.0, "lat": 38.93521416666667, "bike_id": "cb8d9e0f6e5bb829f73a082dc0f9dd2c", "type": "electric_scooter", "is_reserved": 0, "lon": -77.087018}, {"fusion_lat": 0.0, "name": "a2f4b324779ac243db504c13957b41f5", "is_disabled": 0, "rental_uris": {"android": "https://dc.lft.to/lastmile_qr_scan", "ios": "https://dc.lft.to/lastmile_qr_scan"}, "fusion_lon": 0.0, "lat": 38.90889, "bike_id": "a2f4b324779ac243db504c13957b41f5", "type": "electric_scooter", "is_reserved": 0, "lon": -77.02306333333334}, {"fusion_lat": 0.0, "name": "8eea87aba9c40f348a9c9ee50e305d6f", "is_disabled": 0, "rental_uris": {"android": "https://dc.lft.to/lastmile_qr_scan", "ios": "https://dc.lft.to/lastmile_qr_scan"}, "fusion_lon": 0.0, "lat": 38.90008383333333, "bike_id": "8eea87aba9c40f348a9c9ee50e305d6f", "type": "electric_scooter", "is_reserved": 0, "lon": -77.01190233333334}, {"fusion_lat": 0.0, "name": "b23e5c16285a4a0a30c12c341a68f999", "is_disabled": 0, "rental_uris": {"android": "https://dc.lft.to/lastmile_qr_scan", "ios": "https://dc.lft.to/lastmile_qr_scan"}, "fusion_lon": 0.0, "lat": 38.91474066666667, "bike_id": "b23e5c16285a4a0a30c12c341a68f999", "type": "electric_scooter", "is_reserved": 0, "lon": -77.02200316666666}, {"fusion_lat": 0.0, "name": "ca45fd9c55f54914117c99d6b09e064d", "is_disabled": 0, "rental_uris": {"android": "https://dc.lft.to/lastmile_qr_scan", "ios": "https://dc.lft.to/lastmile_qr_scan"}, "fusion_lon": 0.0, "lat": 38.92697666666667, "bike_id": "ca45fd9c55f54914117c99d6b09e064d", "type": "electric_scooter", "is_reserved": 0, "lon": -77.02422033333333}, {"fusion_lat": 0.0, "name": "bd24ea28b99bbb14bc2945149612face", "is_disabled": 0, "rental_uris": {"android": "https://dc.lft.to/lastmile_qr_scan", "ios": "https://dc.lft.to/lastmile_qr_scan"}, "fusion_lon": 0.0, "lat": 38.95637266666667, "bike_id": "bd24ea28b99bbb14bc2945149612face", "type": "electric_scooter", "is_reserved": 0, "lon": -77.0330625}, {"fusion_lat": 0.0, "name": "a117a9db6f8845c1157564cc997d0ef4", "is_disabled": 0, "rental_uris": {"android": "https://dc.lft.to/lastmile_qr_scan", "ios": "https://dc.lft.to/lastmile_qr_scan"}, "fusion_lon": 0.0, "lat": 38.957454166666665, "bike_id": "a117a9db6f8845c1157564cc997d0ef4", "type": "electric_bike", "is_reserved": 0, "lon": -76.97253683333334}, {"fusion_lat": 0.0, "name": "a7afe3d13f2e82de52d9b1db6a0b783f", "is_disabled": 0, "rental_uris": {"android": "https://dc.lft.to/lastmile_qr_scan", "ios": "https://dc.lft.to/lastmile_qr_scan"}, "fusion_lon": 0.0, "lat": 38.95061616666667, "bike_id": "a7afe3d13f2e82de52d9b1db6a0b783f", "type": "electric_bike", "is_reserved": 0, "lon": -77.07233483333333}, {"fusion_lat": 0.0, "name": "67a50ce76d79b13dd19b78d8b1b5b47d", "is_disabled": 0, "rental_uris": {"android": "https://dc.lft.to/lastmile_qr_scan", "ios": "https://dc.lft.to/lastmile_qr_scan"}, "fusion_lon": 0.0, "lat": 38.9001655, "bike_id": "67a50ce76d79b13dd19b78d8b1b5b47d", "type": "electric_scooter", "is_reserved": 0, "lon": -77.04492383333333}, {"fusion_lat": 0.0, "name": "3a2e746ca0ba5b898a577a9edac5748e", "is_disabled": 0, "rental_uris": {"android": "https://dc.lft.to/lastmile_qr_scan", "ios": "https://dc.lft.to/lastmile_qr_scan"}, "fusion_lon": 0.0, "lat": 38.8922885, "bike_id": "3a2e746ca0ba5b898a577a9edac5748e", "type": "electric_scooter", "is_reserved": 0, "lon": -77.03181133333334}, {"fusion_lat": 0.0, "name": "223cc9185d44e741d43c3c3eccfd28ba", "is_disabled": 0, "rental_uris": {"android": "https://dc.lft.to/lastmile_qr_scan", "ios": "https://dc.lft.to/lastmile_qr_scan"}, "fusion_lon": 0.0, "lat": 38.920814, "bike_id": "223cc9185d44e741d43c3c3eccfd28ba", "type": "electric_scooter", "is_reserved": 0, "lon": -77.07368833333334}, {"fusion_lat": 0.0, "name": "f857e9fbfd297b65fcbcc4dd155e22e3", "is_disabled": 0, "rental_uris": {"android": "https://dc.lft.to/lastmile_qr_scan", "ios": "https://dc.lft.to/lastmile_qr_scan"}, "fusion_lon": 0.0, "lat": 38.95884066666667, "bike_id": "f857e9fbfd297b65fcbcc4dd155e22e3", "type": "electric_bike", "is_reserved": 0, "lon": -76.97050666666667}, {"fusion_lat": 0.0, "name": "b67e1ed5da1414745e1ba13bd3ee5c27", "is_disabled": 0, "rental_uris": {"android": "https://dc.lft.to/lastmile_qr_scan", "ios": "https://dc.lft.to/lastmile_qr_scan"}, "fusion_lon": 0.0, "lat": 38.93368183333333, "bike_id": "b67e1ed5da1414745e1ba13bd3ee5c27", "type": "electric_scooter", "is_reserved": 0, "lon": -77.02416683333334}, {"fusion_lat": 0.0, "name": "e1084fc4e03393a1632a062c76a43be9", "is_disabled": 0, "rental_uris": {"android": "https://dc.lft.to/lastmile_qr_scan", "ios": "https://dc.lft.to/lastmile_qr_scan"}, "fusion_lon": 0.0, "lat": 38.921588, "bike_id": "e1084fc4e03393a1632a062c76a43be9", "type": "electric_scooter", "is_reserved": 0, "lon": -77.0339255}, {"fusion_lat": 0.0, "name": "bf008d1a8dcf97ca4acdd7422d9debde", "is_disabled": 0, "rental_uris": {"android": "https://dc.lft.to/lastmile_qr_scan", "ios": "https://dc.lft.to/lastmile_qr_scan"}, "fusion_lon": 0.0, "lat": 38.9028385, "bike_id": "bf008d1a8dcf97ca4acdd7422d9debde", "type": "electric_scooter", "is_reserved": 0, "lon": -77.03349116666666}, {"fusion_lat": 0.0, "name": "15dae8167c9d82a9fcae7727090f6e3d", "is_disabled": 0, "rental_uris": {"android": "https://dc.lft.to/lastmile_qr_scan", "ios": "https://dc.lft.to/lastmile_qr_scan"}, "fusion_lon": 0.0, "lat": 38.914187, "bike_id": "15dae8167c9d82a9fcae7727090f6e3d", "type": "electric_scooter", "is_reserved": 0, "lon": -77.03202466666667}, {"fusion_lat": 0.0, "name": "cfccec61e83c1b70aad357ca16d19ccb", "is_disabled": 0, "rental_uris": {"android": "https://dc.lft.to/lastmile_qr_scan", "ios": "https://dc.lft.to/lastmile_qr_scan"}, "fusion_lon": 0.0, "lat": 38.9233085, "bike_id": "cfccec61e83c1b70aad357ca16d19ccb", "type": "electric_scooter", "is_reserved": 0, "lon": -77.0430135}, {"fusion_lat": 0.0, "name": "81da7e3f997f59b39e66a15231c65b80", "is_disabled": 0, "rental_uris": {"android": "https://dc.lft.to/lastmile_qr_scan", "ios": "https://dc.lft.to/lastmile_qr_scan"}, "fusion_lon": 0.0, "lat": 38.903681, "bike_id": "81da7e3f997f59b39e66a15231c65b80", "type": "electric_scooter", "is_reserved": 0, "lon": -77.0177815}, {"fusion_lat": 0.0, "name": "34fe5fbb3a28ef077284bc685fddb957", "is_disabled": 0, "rental_uris": {"android": "https://dc.lft.to/lastmile_qr_scan", "ios": "https://dc.lft.to/lastmile_qr_scan"}, "fusion_lon": 0.0, "lat": 38.89788016666667, "bike_id": "34fe5fbb3a28ef077284bc685fddb957", "type": "electric_scooter", "is_reserved": 0, "lon": -77.0120995}, {"fusion_lat": 0.0, "name": "495f6320003052d11e48d1149422036f", "is_disabled": 0, "rental_uris": {"android": "https://dc.lft.to/lastmile_qr_scan", "ios": "https://dc.lft.to/lastmile_qr_scan"}, "fusion_lon": 0.0, "lat": 38.95292883333333, "bike_id": "495f6320003052d11e48d1149422036f", "type": "electric_scooter", "is_reserved": 0, "lon": -77.06851933333333}, {"fusion_lat": 0.0, "name": "af562a16d81a929016f479d28dc66a59", "is_disabled": 0, "rental_uris": {"android": "https://dc.lft.to/lastmile_qr_scan", "ios": "https://dc.lft.to/lastmile_qr_scan"}, "fusion_lon": 0.0, "lat": 38.928949833333334, "bike_id": "af562a16d81a929016f479d28dc66a59", "type": "electric_bike", "is_reserved": 0, "lon": -77.23178833333333}, {"fusion_lat": 0.0, "name": "12e93baf4165a8d23373134ccc9317e2", "is_disabled": 0, "rental_uris": {"android": "https://dc.lft.to/lastmile_qr_scan", "ios": "https://dc.lft.to/lastmile_qr_scan"}, "fusion_lon": 0.0, "lat": 38.897657, "bike_id": "12e93baf4165a8d23373134ccc9317e2", "type": "electric_scooter", "is_reserved": 0, "lon": -77.02021916666666}, {"fusion_lat": 0.0, "name": "e70ac040d491606cdbfa736ef62f14ae", "is_disabled": 0, "rental_uris": {"android": "https://dc.lft.to/lastmile_qr_scan", "ios": "https://dc.lft.to/lastmile_qr_scan"}, "fusion_lon": 0.0, "lat": 38.916856833333334, "bike_id": "e70ac040d491606cdbfa736ef62f14ae", "type": "electric_scooter", "is_reserved": 0, "lon": -77.0363165}, {"fusion_lat": 0.0, "name": "df364ffa4a71b1a6059addce3c34dd16", "is_disabled": 0, "rental_uris": {"android": "https://dc.lft.to/lastmile_qr_scan", "ios": "https://dc.lft.to/lastmile_qr_scan"}, "fusion_lon": 0.0, "lat": 38.9026, "bike_id": "df364ffa4a71b1a6059addce3c34dd16", "type": "electric_scooter", "is_reserved": 0, "lon": -77.0272155}, {"fusion_lat": 0.0, "name": "52e5e8ff2629cb36e043161f2e496459", "is_disabled": 0, "rental_uris": {"android": "https://dc.lft.to/lastmile_qr_scan", "ios": "https://dc.lft.to/lastmile_qr_scan"}, "fusion_lon": 0.0, "lat": 38.90803716666667, "bike_id": "52e5e8ff2629cb36e043161f2e496459", "type": "electric_scooter", "is_reserved": 0, "lon": -77.00251116666666}, {"fusion_lat": 0.0, "name": "35be724163150abdee963ab587f54368", "is_disabled": 0, "rental_uris": {"android": "https://dc.lft.to/lastmile_qr_scan", "ios": "https://dc.lft.to/lastmile_qr_scan"}, "fusion_lon": 0.0, "lat": 38.93817166666667, "bike_id": "35be724163150abdee963ab587f54368", "type": "electric_scooter", "is_reserved": 0, "lon": -77.06016583333333}, {"fusion_lat": 0.0, "name": "579ac4ca91b285a8fb52cf5f183dbc2e", "is_disabled": 0, "rental_uris": {"android": "https://dc.lft.to/lastmile_qr_scan", "ios": "https://dc.lft.to/lastmile_qr_scan"}, "fusion_lon": 0.0, "lat": 38.90220516666667, "bike_id": "579ac4ca91b285a8fb52cf5f183dbc2e", "type": "electric_scooter", "is_reserved": 0, "lon": -76.99507233333334}, {"fusion_lat": 0.0, "name": "bd8dfca1cd95c176c06d34cce26aee86", "is_disabled": 0, "rental_uris": {"android": "https://dc.lft.to/lastmile_qr_scan", "ios": "https://dc.lft.to/lastmile_qr_scan"}, "fusion_lon": 0.0, "lat": 38.906792, "bike_id": "bd8dfca1cd95c176c06d34cce26aee86", "type": "electric_scooter", "is_reserved": 0, "lon": -77.06122366666666}, {"fusion_lat": 0.0, "name": "f46464af201ff8cdbc647c8c2e492b0b", "is_disabled": 0, "rental_uris": {"android": "https://dc.lft.to/lastmile_qr_scan", "ios": "https://dc.lft.to/lastmile_qr_scan"}, "fusion_lon": 0.0, "lat": 38.9340165, "bike_id": "f46464af201ff8cdbc647c8c2e492b0b", "type": "electric_scooter", "is_reserved": 0, "lon": -77.05770916666667}, {"fusion_lat": 0.0, "name": "18a96d8c412db81e2679d07b570434fa", "is_disabled": 0, "rental_uris": {"android": "https://dc.lft.to/lastmile_qr_scan", "ios": "https://dc.lft.to/lastmile_qr_scan"}, "fusion_lon": 0.0, "lat": 38.90774616666667, "bike_id": "18a96d8c412db81e2679d07b570434fa", "type": "electric_scooter", "is_reserved": 0, "lon": -77.03862816666667}, {"fusion_lat": 0.0, "name": "65e72969eec3017cc52e5ffb4f4d4a34", "is_disabled": 0, "rental_uris": {"android": "https://dc.lft.to/lastmile_qr_scan", "ios": "https://dc.lft.to/lastmile_qr_scan"}, "fusion_lon": 0.0, "lat": 38.918032, "bike_id": "65e72969eec3017cc52e5ffb4f4d4a34", "type": "electric_scooter", "is_reserved": 0, "lon": -77.032103}, {"fusion_lat": 0.0, "name": "769dcd9b4a32ffabf6c57d5e0404d576", "is_disabled": 0, "rental_uris": {"android": "https://dc.lft.to/lastmile_qr_scan", "ios": "https://dc.lft.to/lastmile_qr_scan"}, "fusion_lon": 0.0, "lat": 38.8651705, "bike_id": "769dcd9b4a32ffabf6c57d5e0404d576", "type": "electric_bike", "is_reserved": 0, "lon": -77.1293485}, {"fusion_lat": 0.0, "name": "2fda8ad356e29abb594dd12f3ed49d23", "is_disabled": 0, "rental_uris": {"android": "https://dc.lft.to/lastmile_qr_scan", "ios": "https://dc.lft.to/lastmile_qr_scan"}, "fusion_lon": 0.0, "lat": 38.90973266666666, "bike_id": "2fda8ad356e29abb594dd12f3ed49d23", "type": "electric_scooter", "is_reserved": 0, "lon": -77.04877183333333}, {"fusion_lat": 0.0, "name": "2e01c677c2eb6e85d4b83bd60653d1b8", "is_disabled": 0, "rental_uris": {"android": "https://dc.lft.to/lastmile_qr_scan", "ios": "https://dc.lft.to/lastmile_qr_scan"}, "fusion_lon": 0.0, "lat": 38.89237416666667, "bike_id": "2e01c677c2eb6e85d4b83bd60653d1b8", "type": "electric_scooter", "is_reserved": 0, "lon": -77.031752}, {"fusion_lat": 0.0, "name": "b2b75b33bf1ace3c0aade77294fa5e02", "is_disabled": 0, "rental_uris": {"android": "https://dc.lft.to/lastmile_qr_scan", "ios": "https://dc.lft.to/lastmile_qr_scan"}, "fusion_lon": 0.0, "lat": 38.90727833333333, "bike_id": "b2b75b33bf1ace3c0aade77294fa5e02", "type": "electric_scooter", "is_reserved": 0, "lon": -77.00953533333333}, {"fusion_lat": 0.0, "name": "1061794e52e9a01693c29ad0ad4eb50b", "is_disabled": 0, "rental_uris": {"android": "https://dc.lft.to/lastmile_qr_scan", "ios": "https://dc.lft.to/lastmile_qr_scan"}, "fusion_lon": 0.0, "lat": 38.93247983333333, "bike_id": "1061794e52e9a01693c29ad0ad4eb50b", "type": "electric_scooter", "is_reserved": 0, "lon": -77.0327465}, {"fusion_lat": 0.0, "name": "72bda9dc1f94aba69090941ecd6c03da", "is_disabled": 0, "rental_uris": {"android": "https://dc.lft.to/lastmile_qr_scan", "ios": "https://dc.lft.to/lastmile_qr_scan"}, "fusion_lon": 0.0, "lat": 38.90349833333333, "bike_id": "72bda9dc1f94aba69090941ecd6c03da", "type": "electric_scooter", "is_reserved": 0, "lon": -76.974768}, {"fusion_lat": 0.0, "name": "e3df57639f3e88e20c7aa718d2e4ef0a", "is_disabled": 0, "rental_uris": {"android": "https://dc.lft.to/lastmile_qr_scan", "ios": "https://dc.lft.to/lastmile_qr_scan"}, "fusion_lon": 0.0, "lat": 38.88317883333333, "bike_id": "e3df57639f3e88e20c7aa718d2e4ef0a", "type": "electric_scooter", "is_reserved": 0, "lon": -77.01379133333333}, {"fusion_lat": 0.0, "name": "8c458bf4ea4f11ea5ce2aeec7fc48297", "is_disabled": 0, "rental_uris": {"android": "https://dc.lft.to/lastmile_qr_scan", "ios": "https://dc.lft.to/lastmile_qr_scan"}, "fusion_lon": 0.0, "lat": 38.9025925, "bike_id": "8c458bf4ea4f11ea5ce2aeec7fc48297", "type": "electric_scooter", "is_reserved": 0, "lon": -77.03382716666667}, {"fusion_lat": 0.0, "name": "d5e02e52438a81a07acfeb7e5a231d25", "is_disabled": 0, "rental_uris": {"android": "https://dc.lft.to/lastmile_qr_scan", "ios": "https://dc.lft.to/lastmile_qr_scan"}, "fusion_lon": 0.0, "lat": 38.91702183333334, "bike_id": "d5e02e52438a81a07acfeb7e5a231d25", "type": "electric_scooter", "is_reserved": 0, "lon": -77.02962233333334}, {"fusion_lat": 0.0, "name": "34d660697d893e2dc8519a4517afd160", "is_disabled": 0, "rental_uris": {"android": "https://dc.lft.to/lastmile_qr_scan", "ios": "https://dc.lft.to/lastmile_qr_scan"}, "fusion_lon": 0.0, "lat": 38.905248, "bike_id": "34d660697d893e2dc8519a4517afd160", "type": "electric_scooter", "is_reserved": 0, "lon": -77.06447283333334}, {"fusion_lat": 0.0, "name": "9b848148adf392fb9416f4dc8ef4c856", "is_disabled": 0, "rental_uris": {"android": "https://dc.lft.to/lastmile_qr_scan", "ios": "https://dc.lft.to/lastmile_qr_scan"}, "fusion_lon": 0.0, "lat": 38.88739366666667, "bike_id": "9b848148adf392fb9416f4dc8ef4c856", "type": "electric_scooter", "is_reserved": 0, "lon": -77.01472716666666}, {"fusion_lat": 0.0, "name": "f49efc245ba39f9be807b6e4714dc532", "is_disabled": 0, "rental_uris": {"android": "https://dc.lft.to/lastmile_qr_scan", "ios": "https://dc.lft.to/lastmile_qr_scan"}, "fusion_lon": 0.0, "lat": 38.901180333333336, "bike_id": "f49efc245ba39f9be807b6e4714dc532", "type": "electric_scooter", "is_reserved": 0, "lon": -77.060212}, {"fusion_lat": 0.0, "name": "5f79db4d8c3e2b412e34e877a7fcce51", "is_disabled": 0, "rental_uris": {"android": "https://dc.lft.to/lastmile_qr_scan", "ios": "https://dc.lft.to/lastmile_qr_scan"}, "fusion_lon": 0.0, "lat": 38.901874, "bike_id": "5f79db4d8c3e2b412e34e877a7fcce51", "type": "electric_scooter", "is_reserved": 0, "lon": -76.92896883333333}, {"fusion_lat": 0.0, "name": "b9426d1f0d830a18b84ab43da33850ce", "is_disabled": 0, "rental_uris": {"android": "https://dc.lft.to/lastmile_qr_scan", "ios": "https://dc.lft.to/lastmile_qr_scan"}, "fusion_lon": 0.0, "lat": 38.90950083333333, "bike_id": "b9426d1f0d830a18b84ab43da33850ce", "type": "electric_scooter", "is_reserved": 0, "lon": -77.03394816666666}, {"fusion_lat": 0.0, "name": "329353668d2cae90c80ae8ecb7575a03", "is_disabled": 0, "rental_uris": {"android": "https://dc.lft.to/lastmile_qr_scan", "ios": "https://dc.lft.to/lastmile_qr_scan"}, "fusion_lon": 0.0, "lat": 38.85511966666667, "bike_id": "329353668d2cae90c80ae8ecb7575a03", "type": "electric_bike", "is_reserved": 0, "lon": -77.10540066666667}, {"fusion_lat": 0.0, "name": "01547e9fbfee89e823fe8bd6aa311ac8", "is_disabled": 0, "rental_uris": {"android": "https://dc.lft.to/lastmile_qr_scan", "ios": "https://dc.lft.to/lastmile_qr_scan"}, "fusion_lon": 0.0, "lat": 38.9204915, "bike_id": "01547e9fbfee89e823fe8bd6aa311ac8", "type": "electric_scooter", "is_reserved": 0, "lon": -77.0020695}, {"fusion_lat": 0.0, "name": "586cad54106788702da76546722d15bc", "is_disabled": 0, "rental_uris": {"android": "https://dc.lft.to/lastmile_qr_scan", "ios": "https://dc.lft.to/lastmile_qr_scan"}, "fusion_lon": 0.0, "lat": 38.88743516666667, "bike_id": "586cad54106788702da76546722d15bc", "type": "electric_scooter", "is_reserved": 0, "lon": -76.99622266666667}, {"fusion_lat": 0.0, "name": "a4a775e8d796d543b4ab519b5b01860d", "is_disabled": 0, "rental_uris": {"android": "https://dc.lft.to/lastmile_qr_scan", "ios": "https://dc.lft.to/lastmile_qr_scan"}, "fusion_lon": 0.0, "lat": 38.9233375, "bike_id": "a4a775e8d796d543b4ab519b5b01860d", "type": "electric_scooter", "is_reserved": 0, "lon": -77.04301933333333}, {"fusion_lat": 0.0, "name": "d903ed38bab54ad00a10dfac796a8bf8", "is_disabled": 0, "rental_uris": {"android": "https://dc.lft.to/lastmile_qr_scan", "ios": "https://dc.lft.to/lastmile_qr_scan"}, "fusion_lon": 0.0, "lat": 38.903135166666665, "bike_id": "d903ed38bab54ad00a10dfac796a8bf8", "type": "electric_scooter", "is_reserved": 0, "lon": -76.97804783333333}, {"fusion_lat": 0.0, "name": "ed62d872463ee9062eea7c5fe995481b", "is_disabled": 0, "rental_uris": {"android": "https://dc.lft.to/lastmile_qr_scan", "ios": "https://dc.lft.to/lastmile_qr_scan"}, "fusion_lon": 0.0, "lat": 38.92875166666666, "bike_id": "ed62d872463ee9062eea7c5fe995481b", "type": "electric_scooter", "is_reserved": 0, "lon": -77.033366}, {"fusion_lat": 0.0, "name": "81c9454be5e7ff4b14245baeb7c39230", "is_disabled": 0, "rental_uris": {"android": "https://dc.lft.to/lastmile_qr_scan", "ios": "https://dc.lft.to/lastmile_qr_scan"}, "fusion_lon": 0.0, "lat": 38.88018833333334, "bike_id": "81c9454be5e7ff4b14245baeb7c39230", "type": "electric_scooter", "is_reserved": 0, "lon": -76.93114766666666}, {"fusion_lat": 0.0, "name": "19433492780119700bb91e032278935b", "is_disabled": 0, "rental_uris": {"android": "https://dc.lft.to/lastmile_qr_scan", "ios": "https://dc.lft.to/lastmile_qr_scan"}, "fusion_lon": 0.0, "lat": 38.90145533333333, "bike_id": "19433492780119700bb91e032278935b", "type": "electric_scooter", "is_reserved": 0, "lon": -77.01835266666667}, {"fusion_lat": 0.0, "name": "477cf28cef7536c097e99b8a4df76c9e", "is_disabled": 0, "rental_uris": {"android": "https://dc.lft.to/lastmile_qr_scan", "ios": "https://dc.lft.to/lastmile_qr_scan"}, "fusion_lon": 0.0, "lat": 38.888739, "bike_id": "477cf28cef7536c097e99b8a4df76c9e", "type": "electric_scooter", "is_reserved": 0, "lon": -76.98454466666666}, {"fusion_lat": 0.0, "name": "e4c29b95c73498d889487ec05b3510c6", "is_disabled": 0, "rental_uris": {"android": "https://dc.lft.to/lastmile_qr_scan", "ios": "https://dc.lft.to/lastmile_qr_scan"}, "fusion_lon": 0.0, "lat": 38.8792075, "bike_id": "e4c29b95c73498d889487ec05b3510c6", "type": "electric_scooter", "is_reserved": 0, "lon": -76.99503616666667}, {"fusion_lat": 0.0, "name": "41d9f8ecee2c437efa23463814086012", "is_disabled": 0, "rental_uris": {"android": "https://dc.lft.to/lastmile_qr_scan", "ios": "https://dc.lft.to/lastmile_qr_scan"}, "fusion_lon": 0.0, "lat": 38.919708666666665, "bike_id": "41d9f8ecee2c437efa23463814086012", "type": "electric_scooter", "is_reserved": 0, "lon": -77.00107466666667}, {"fusion_lat": 0.0, "name": "09ebe7f69c0d2dde9b270771933c6631", "is_disabled": 0, "rental_uris": {"android": "https://dc.lft.to/lastmile_qr_scan", "ios": "https://dc.lft.to/lastmile_qr_scan"}, "fusion_lon": 0.0, "lat": 38.9041825, "bike_id": "09ebe7f69c0d2dde9b270771933c6631", "type": "electric_scooter", "is_reserved": 0, "lon": -77.03538333333333}, {"fusion_lat": 0.0, "name": "b0ff1ae9e5f1bcd1ea117044ab8b0e14", "is_disabled": 0, "rental_uris": {"android": "https://dc.lft.to/lastmile_qr_scan", "ios": "https://dc.lft.to/lastmile_qr_scan"}, "fusion_lon": 0.0, "lat": 38.928255666666665, "bike_id": "b0ff1ae9e5f1bcd1ea117044ab8b0e14", "type": "electric_scooter", "is_reserved": 0, "lon": -77.01409716666667}, {"fusion_lat": 0.0, "name": "efa6a377f916592a72cacd63729e244c", "is_disabled": 0, "rental_uris": {"android": "https://dc.lft.to/lastmile_qr_scan", "ios": "https://dc.lft.to/lastmile_qr_scan"}, "fusion_lon": 0.0, "lat": 38.91552466666667, "bike_id": "efa6a377f916592a72cacd63729e244c", "type": "electric_scooter", "is_reserved": 0, "lon": -77.01202933333333}, {"fusion_lat": 0.0, "name": "c831d68fbc5ac45a5c961ce7b75bc914", "is_disabled": 0, "rental_uris": {"android": "https://dc.lft.to/lastmile_qr_scan", "ios": "https://dc.lft.to/lastmile_qr_scan"}, "fusion_lon": 0.0, "lat": 38.8662435, "bike_id": "c831d68fbc5ac45a5c961ce7b75bc914", "type": "electric_bike", "is_reserved": 0, "lon": -76.94577283333334}, {"fusion_lat": 0.0, "name": "791001f7b9ce9884146f2b5c9d1eb769", "is_disabled": 0, "rental_uris": {"android": "https://dc.lft.to/lastmile_qr_scan", "ios": "https://dc.lft.to/lastmile_qr_scan"}, "fusion_lon": 0.0, "lat": 38.90436316666667, "bike_id": "791001f7b9ce9884146f2b5c9d1eb769", "type": "electric_scooter", "is_reserved": 0, "lon": -77.02519916666667}, {"fusion_lat": 0.0, "name": "c90dc5c89cb41a365aaaff8595a259cc", "is_disabled": 0, "rental_uris": {"android": "https://dc.lft.to/lastmile_qr_scan", "ios": "https://dc.lft.to/lastmile_qr_scan"}, "fusion_lon": 0.0, "lat": 38.916685, "bike_id": "c90dc5c89cb41a365aaaff8595a259cc", "type": "electric_scooter", "is_reserved": 0, "lon": -77.03855516666667}, {"fusion_lat": 0.0, "name": "93faea5c5d34361ebf7fbfc85adba590", "is_disabled": 0, "rental_uris": {"android": "https://dc.lft.to/lastmile_qr_scan", "ios": "https://dc.lft.to/lastmile_qr_scan"}, "fusion_lon": 0.0, "lat": 38.914155666666666, "bike_id": "93faea5c5d34361ebf7fbfc85adba590", "type": "electric_scooter", "is_reserved": 0, "lon": -77.031738}, {"fusion_lat": 0.0, "name": "afeadba6efd827fc4703d9efceff432f", "is_disabled": 0, "rental_uris": {"android": "https://dc.lft.to/lastmile_qr_scan", "ios": "https://dc.lft.to/lastmile_qr_scan"}, "fusion_lon": 0.0, "lat": 38.930184833333335, "bike_id": "afeadba6efd827fc4703d9efceff432f", "type": "electric_scooter", "is_reserved": 0, "lon": -77.03788216666666}, {"fusion_lat": 0.0, "name": "80e38c7e494ef2f87f727a405431f617", "is_disabled": 0, "rental_uris": {"android": "https://dc.lft.to/lastmile_qr_scan", "ios": "https://dc.lft.to/lastmile_qr_scan"}, "fusion_lon": 0.0, "lat": 38.9229415, "bike_id": "80e38c7e494ef2f87f727a405431f617", "type": "electric_scooter", "is_reserved": 0, "lon": -77.04144683333334}, {"fusion_lat": 0.0, "name": "d8053b4cfe6181185b59cda6514bbcaa", "is_disabled": 0, "rental_uris": {"android": "https://dc.lft.to/lastmile_qr_scan", "ios": "https://dc.lft.to/lastmile_qr_scan"}, "fusion_lon": 0.0, "lat": 38.89222866666667, "bike_id": "d8053b4cfe6181185b59cda6514bbcaa", "type": "electric_scooter", "is_reserved": 0, "lon": -77.02794883333334}, {"fusion_lat": 0.0, "name": "5621902d09428b76a29d9fdb9ed3c121", "is_disabled": 0, "rental_uris": {"android": "https://dc.lft.to/lastmile_qr_scan", "ios": "https://dc.lft.to/lastmile_qr_scan"}, "fusion_lon": 0.0, "lat": 38.91116533333334, "bike_id": "5621902d09428b76a29d9fdb9ed3c121", "type": "electric_scooter", "is_reserved": 0, "lon": -77.03260333333333}, {"fusion_lat": 0.0, "name": "d8d2ce33e3cc579c936a2a71dd5539d8", "is_disabled": 0, "rental_uris": {"android": "https://dc.lft.to/lastmile_qr_scan", "ios": "https://dc.lft.to/lastmile_qr_scan"}, "fusion_lon": 0.0, "lat": 38.90124766666667, "bike_id": "d8d2ce33e3cc579c936a2a71dd5539d8", "type": "electric_scooter", "is_reserved": 0, "lon": -77.06041383333333}, {"fusion_lat": 0.0, "name": "668f2a1b0013e5f535eba277a41f5492", "is_disabled": 0, "rental_uris": {"android": "https://dc.lft.to/lastmile_qr_scan", "ios": "https://dc.lft.to/lastmile_qr_scan"}, "fusion_lon": 0.0, "lat": 38.934624166666666, "bike_id": "668f2a1b0013e5f535eba277a41f5492", "type": "electric_scooter", "is_reserved": 0, "lon": -77.02342583333333}, {"fusion_lat": 0.0, "name": "d9d51eddc425e985b49a1cab1e51c84b", "is_disabled": 0, "rental_uris": {"android": "https://dc.lft.to/lastmile_qr_scan", "ios": "https://dc.lft.to/lastmile_qr_scan"}, "fusion_lon": 0.0, "lat": 38.863367333333336, "bike_id": "d9d51eddc425e985b49a1cab1e51c84b", "type": "electric_bike", "is_reserved": 0, "lon": -76.987211},