{"data": {"bikes": [{"rental_uris": {"ios": "https://dc.lft.to/lastmile_qr_scan", "android": "https://dc.lft.to/lastmile_qr_scan"}, "lon": -77.04378916666667, "type": "electric_scooter", "fusion_lat": 0.0, "lat": 38.92066166666667, "name": "6ea7ac72d7f234535c0fe692a3e8b6e6", "fusion_lon": 0.0, "bike_id": "6ea7ac72d7f234535c0fe692a3e8b6e6", "is_disabled": 0, "is_reserved": 0}, {"rental_uris": {"ios": "https://dc.lft.to/lastmile_qr_scan", "android": "https://dc.lft.to/lastmile_qr_scan"}, "lon": -77.02896366666667, "type": "electric_scooter", "fusion_lat": 0.0, "lat": 38.9168975, "name": "fc75c0f219d5111572d7279385bacd90", "fusion_lon": 0.0, "bike_id": "fc75c0f219d5111572d7279385bacd90", "is_disabled": 0, "is_reserved": 0}, {"rental_uris": {"ios": "https://dc.lft.to/lastmile_qr_scan", "android": "https://dc.lft.to/lastmile_qr_scan"}, "lon": -77.02186766666667, "type": "electric_scooter", "fusion_lat": 0.0, "lat": 38.915081666666666, "name": "de10e4d445c4a31b9ac36d3b3747cd27", "fusion_lon": 0.0, "bike_id": "de10e4d445c4a31b9ac36d3b3747cd27", "is_disabled": 0, "is_reserved": 0}, {"rental_uris": {"ios": "https://dc.lft.to/lastmile_qr_scan", "android": "https://dc.lft.to/lastmile_qr_scan"}, "lon": -77.0439695, "type": "electric_scooter", "fusion_lat": 0.0, "lat": 38.916429, "name": "4b170a997e2bfe2878538554e50cfa18", "fusion_lon": 0.0, "bike_id": "4b170a997e2bfe2878538554e50cfa18", "is_disabled": 0, "is_reserved": 0}, {"rental_uris": {"ios": "https://dc.lft.to/lastmile_qr_scan", "android": "https://dc.lft.to/lastmile_qr_scan"}, "lon": -77.03228316666667, "type": "electric_scooter", "fusion_lat": 0.0, "lat": 38.925758333333334, "name": "258db49d3a2932a2a07db6f8ef49599a", "fusion_lon": 0.0, "bike_id": "258db49d3a2932a2a07db6f8ef49599a", "is_disabled": 0, "is_reserved": 0}, {"rental_uris": {"ios": "https://dc.lft.to/lastmile_qr_scan", "android": "https://dc.lft.to/lastmile_qr_scan"}, "lon": -77.03722333333333, "type": "electric_scooter", "fusion_lat": 0.0, "lat": 38.93359366666667, "name": "5939414fbbe37cfe2a21835b6384af93", "fusion_lon": 0.0, "bike_id": "5939414fbbe37cfe2a21835b6384af93", "is_disabled": 0, "is_reserved": 0}, {"rental_uris": {"ios": "https://dc.lft.to/lastmile_qr_scan", "android": "https://dc.lft.to/lastmile_qr_scan"}, "lon": -76.97809966666667, "type": "electric_scooter", "fusion_lat": 0.0, "lat": 38.90672383333333, "name": "360c01e67ba06c63d135a730c68fcaa5", "fusion_lon": 0.0, "bike_id": "360c01e67ba06c63d135a730c68fcaa5", "is_disabled": 0, "is_reserved": 0}, {"rental_uris": {"ios": "https://dc.lft.to/lastmile_qr_scan", "android": "https://dc.lft.to/lastmile_qr_scan"}, "lon": -77.02201466666666, "type": "electric_scooter", "fusion_lat": 0.0, "lat": 38.89429883333333, "name": "0a9ee5eb3ab1781d6bc04c63d925437b", "fusion_lon": 0.0, "bike_id": "0a9ee5eb3ab1781d6bc04c63d925437b", "is_disabled": 0, "is_reserved": 0}, {"rental_uris": {"ios": "https://dc.lft.to/lastmile_qr_scan", "android": "https://dc.lft.to/lastmile_qr_scan"}, "lon": -77.05139866666667, "type": "electric_scooter", "fusion_lat": 0.0, "lat": 38.90228416666667, "name": "20329df6a861775845c9880588ac2c55", "fusion_lon": 0.0, "bike_id": "20329df6a861775845c9880588ac2c55", "is_disabled": 0, "is_reserved": 0}, {"rental_uris": {"ios": "https://dc.lft.to/lastmile_qr_scan", "android": "https://dc.lft.to/lastmile_qr_scan"}, "lon": -77.024127, "type": "electric_scooter", "fusion_lat": 0.0, "lat": 38.892158, "name": "e7c2f8e8acd6ac66b073b2227dfc592e", "fusion_lon": 0.0, "bike_id": "e7c2f8e8acd6ac66b073b2227dfc592e", "is_disabled": 0, "is_reserved": 0}, {"rental_uris": {"ios": "https://dc.lft.to/lastmile_qr_scan", "android": "https://dc.lft.to/lastmile_qr_scan"}, "lon": -77.03836766666667, "type": "electric_scooter", "fusion_lat": 0.0, "lat": 38.91558466666667, "name": "22b149e91e88dceccd25ce74c8c6a23e", "fusion_lon": 0.0, "bike_id": "22b149e91e88dceccd25ce74c8c6a23e", "is_disabled": 0, "is_reserved": 0}, {"rental_uris": {"ios": "https://dc.lft.to/lastmile_qr_scan", "android": "https://dc.lft.to/lastmile_qr_scan"}, "lon": -77.11200133333334, "type": "electric_bike", "fusion_lat": 0.0, "lat": 38.81302816666667, "name": "6b841165e5602cd44bd11ece9e6ef393", "fusion_lon": 0.0, "bike_id": "6b841165e5602cd44bd11ece9e6ef393", "is_disabled": 0, "is_reserved": 0}, {"rental_uris": {"ios": "https://dc.lft.to/lastmile_qr_scan", "android": "https://dc.lft.to/lastmile_qr_scan"}, "lon": -77.1225755, "type": "electric_bike", "fusion_lat": 0.0, "lat": 38.891875666666664, "name": "095b076a09021a0e298785f9fafcf964", "fusion_lon": 0.0, "bike_id": "095b076a09021a0e298785f9fafcf964", "is_disabled": 0, "is_reserved": 0}, {"rental_uris": {"ios": "https://dc.lft.to/lastmile_qr_scan", "android": "https://dc.lft.to/lastmile_qr_scan"}, "lon": -77.04509533333334, "type": "electric_scooter", "fusion_lat": 0.0, "lat": 38.915679833333336, "name": "f7004680cca8027669264bbcb1b30fd6", "fusion_lon": 0.0, "bike_id": "f7004680cca8027669264bbcb1b30fd6", "is_disabled": 0, "is_reserved": 0}, {"rental_uris": {"ios": "https://dc.lft.to/lastmile_qr_scan", "android": "https://dc.lft.to/lastmile_qr_scan"}, "lon": -76.93521833333334, "type": "electric_bike", "fusion_lat": 0.0, "lat": 38.955402, "name": "f2702305bfb78556d4f7bbc0dbc1dabd", "fusion_lon": 0.0, "bike_id": "f2702305bfb78556d4f7bbc0dbc1dabd", "is_disabled": 0, "is_reserved": 0}, {"rental_uris": {"ios": "https://dc.lft.to/lastmile_qr_scan", "android": "https://dc.lft.to/lastmile_qr_scan"}, "lon": -77.07676383333333, "type": "electric_bike", "fusion_lat": 0.0, "lat": 38.831922666666664, "name": "5c9f8868408370d021b5a656d4cd435b", "fusion_lon": 0.0, "bike_id": "5c9f8868408370d021b5a656d4cd435b", "is_disabled": 0, "is_reserved": 0}, {"rental_uris": {"ios": "https://dc.lft.to/lastmile_qr_scan", "android": "https://dc.lft.to/lastmile_qr_scan"}, "lon": -76.99774983333333, "type": "electric_scooter", "fusion_lat": 0.0, "lat": 38.844178166666666, "name": "0e5427236620defb5320a95e52696196", "fusion_lon": 0.0, "bike_id": "0e5427236620defb5320a95e52696196", "is_disabled": 0, "is_reserved": 0}, {"rental_uris": {"ios": "https://dc.lft.to/lastmile_qr_scan", "android": "https://dc.lft.to/lastmile_qr_scan"}, "lon": -77.04278933333333, "type": "electric_scooter", "fusion_lat": 0.0, "lat": 38.92250883333333, "name": "126457c1f44df0ed6fd311bcc0fbbfa5", "fusion_lon": 0.0, "bike_id": "126457c1f44df0ed6fd311bcc0fbbfa5", "is_disabled": 0, "is_reserved": 0}, {"rental_uris": {"ios": "https://dc.lft.to/lastmile_qr_scan", "android": "https://dc.lft.to/lastmile_qr_scan"}, "lon": -77.02282533333333, "type": "electric_scooter", "fusion_lat": 0.0, "lat": 38.8986385, "name": "12454e82dead3106a06ece0238dd2c72", "fusion_lon": 0.0, "bike_id": "12454e82dead3106a06ece0238dd2c72", "is_disabled": 0, "is_reserved": 0}, {"rental_uris": {"ios": "https://dc.lft.to/lastmile_qr_scan", "android": "https://dc.lft.to/lastmile_qr_scan"}, "lon": -77.020222, "type": "electric_scooter", "fusion_lat": 0.0, "lat": 38.9324945, "name": "f743635871ae8b4173dbfa6d567cface", "fusion_lon": 0.0, "bike_id": "f743635871ae8b4173dbfa6d567cface", "is_disabled": 0, "is_reserved": 0}, {"rental_uris": {"ios": "https://dc.lft.to/lastmile_qr_scan", "android": "https://dc.lft.to/lastmile_qr_scan"}, "lon": -77.03252166666667, "type": "electric_scooter", "fusion_lat": 0.0, "lat": 38.9290285, "name": "99a1102927b2d8ecdcad9e52ebbb6b9c", "fusion_lon": 0.0, "bike_id": "99a1102927b2d8ecdcad9e52ebbb6b9c", "is_disabled": 0, "is_reserved": 0}, {"rental_uris": {"ios": "https://dc.lft.to/lastmile_qr_scan", "android": "https://dc.lft.to/lastmile_qr_scan"}, "lon": -77.03762716666667, "type": "electric_scooter", "fusion_lat": 0.0, "lat": 38.92473066666667, "name": "fd0f8c594d9880834837eee146d45226", "fusion_lon": 0.0, "bike_id": "fd0f8c594d9880834837eee146d45226", "is_disabled": 0, "is_reserved": 0}, {"rental_uris": {"ios": "https://dc.lft.to/lastmile_qr_scan", "android": "https://dc.lft.to/lastmile_qr_scan"}, "lon": -77.02475166666666, "type": "electric_scooter", "fusion_lat": 0.0, "lat": 38.934033, "name": "ac8630d553c8e9af43b0ab38e89f4cb5", "fusion_lon": 0.0, "bike_id": "ac8630d553c8e9af43b0ab38e89f4cb5", "is_disabled": 0, "is_reserved": 0}, {"rental_uris": {"ios": "https://dc.lft.to/lastmile_qr_scan", "android": "https://dc.lft.to/lastmile_qr_scan"}, "lon": -77.022194, "type": "electric_scooter", "fusion_lat": 0.0, "lat": 38.90567216666667, "name": "231f5e2fa328c6e95f72a1af06df5613", "fusion_lon": 0.0, "bike_id": "231f5e2fa328c6e95f72a1af06df5613", "is_disabled": 0, "is_reserved": 0}, {"rental_uris": {"ios": "https://dc.lft.to/lastmile_qr_scan", "android": "https://dc.lft.to/lastmile_qr_scan"}, "lon": -77.029778, "type": "electric_scooter", "fusion_lat": 0.0, "lat": 38.96227416666667, "name": "72eafc0e2ea8e5630e548af4a55e920f", "fusion_lon": 0.0, "bike_id": "72eafc0e2ea8e5630e548af4a55e920f", "is_disabled": 0, "is_reserved": 0}, {"rental_uris": {"ios": "https://dc.lft.to/lastmile_qr_scan", "android": "https://dc.lft.to/lastmile_qr_scan"}, "lon": -76.946631, "type": "electric_scooter", "fusion_lat": 0.0, "lat": 38.897997833333335, "name": "ba410ac443565f5d96a0846c95340506", "fusion_lon": 0.0, "bike_id": "ba410ac443565f5d96a0846c95340506", "is_disabled": 0, "is_reserved": 0}, {"rental_uris": {"ios": "https://dc.lft.to/lastmile_qr_scan", "android": "https://dc.lft.to/lastmile_qr_scan"}, "lon": -76.92717383333333, "type": "electric_scooter", "fusion_lat": 0.0, "lat": 38.88038733333333, "name": "5cbc04c40737deabc3fe4cd464620639", "fusion_lon": 0.0, "bike_id": "5cbc04c40737deabc3fe4cd464620639", "is_disabled": 0, "is_reserved": 0}, {"rental_uris": {"ios": "https://dc.lft.to/lastmile_qr_scan", "android": "https://dc.lft.to/lastmile_qr_scan"}, "lon": -77.10334733333333, "type": "electric_bike", "fusion_lat": 0.0, "lat": 38.852283666666665, "name": "93ee2ea6668e243c4df3b6e8d625542b", "fusion_lon": 0.0, "bike_id": "93ee2ea6668e243c4df3b6e8d625542b", "is_disabled": 0, "is_reserved": 0}, {"rental_uris": {"ios": "https://dc.lft.to/lastmile_qr_scan", "android": "https://dc.lft.to/lastmile_qr_scan"}, "lon": -77.02709116666666, "type": "electric_scooter", "fusion_lat": 0.0, "lat": 38.88133216666667, "name": "9b37c6b898e93c18854a0664b06c39ac", "fusion_lon": 0.0, "bike_id": "9b37c6b898e93c18854a0664b06c39ac", "is_disabled": 0, "is_reserved": 0}, {"rental_uris": {"ios": "https://dc.lft.to/lastmile_qr_scan", "android": "https://dc.lft.to/lastmile_qr_scan"}, "lon": -77.03029383333333, "type": "electric_scooter", "fusion_lat": 0.0, "lat": 38.896806833333336, "name": "0288c43dbb7c6024cf618fefb966a4bc", "fusion_lon": 0.0, "bike_id": "0288c43dbb7c6024cf618fefb966a4bc", "is_disabled": 0, "is_reserved": 0}, {"rental_uris": {"ios": "https://dc.lft.to/lastmile_qr_scan", "android": "https://dc.lft.to/lastmile_qr_scan"}, "lon": -77.00709266666667, "type": "electric_scooter", "fusion_lat": 0.0, "lat": 38.8848745, "name": "ee8b7ee140a76242ff72f2d97f5cd402", "fusion_lon": 0.0, "bike_id": "ee8b7ee140a76242ff72f2d97f5cd402", "is_disabled": 0, "is_reserved": 0}, {"rental_uris": {"ios": "https://dc.lft.to/lastmile_qr_scan", "android": "https://dc.lft.to/lastmile_qr_scan"}, "lon": -77.01275583333333, "type": "electric_bike", "fusion_lat": 0.0, "lat": 38.881221333333336, "name": "1b7481b10e4e246037127226300113bf", "fusion_lon": 0.0, "bike_id": "1b7481b10e4e246037127226300113bf", "is_disabled": 0, "is_reserved": 0}, {"rental_uris": {"ios": "https://dc.lft.to/lastmile_qr_scan", "android": "https://dc.lft.to/lastmile_qr_scan"}, "lon": -77.027239, "type": "electric_scooter", "fusion_lat": 0.0, "lat": 38.93398083333334, "name": "f66f0d3e36721be95b2d5036e65a61b1", "fusion_lon": 0.0, "bike_id": "f66f0d3e36721be95b2d5036e65a61b1", "is_disabled": 0, "is_reserved": 0}, {"rental_uris": {"ios": "https://dc.lft.to/lastmile_qr_scan", "android": "https://dc.lft.to/lastmile_qr_scan"}, "lon": -77.001352, "type": "electric_scooter", "fusion_lat": 0.0, "lat": 38.904096, "name": "da9c3ee7123db7b019dc93fea5b984ea", "fusion_lon": 0.0, "bike_id": "da9c3ee7123db7b019dc93fea5b984ea", "is_disabled": 0, "is_reserved": 0}, {"rental_uris": {"ios": "https://dc.lft.to/lastmile_qr_scan", "android": "https://dc.lft.to/lastmile_qr_scan"}, "lon": -77.00773616666666, "type": "electric_scooter", "fusion_lat": 0.0, "lat": 38.876278, "name": "705894367913d7fb2f44b4d8db7dbbf3", "fusion_lon": 0.0, "bike_id": "705894367913d7fb2f44b4d8db7dbbf3", "is_disabled": 0, "is_reserved": 0}, {"rental_uris": {"ios": "https://dc.lft.to/lastmile_qr_scan", "android": "https://dc.lft.to/lastmile_qr_scan"}, "lon": -77.0472635, "type": "electric_scooter", "fusion_lat": 0.0, "lat": 38.884362333333335, "name": "6a7749f7f18f020ef1d49d5dc4ed4d79", "fusion_lon": 0.0, "bike_id": "6a7749f7f18f020ef1d49d5dc4ed4d79", "is_disabled": 0, "is_reserved": 0}, {"rental_uris": {"ios": "https://dc.lft.to/lastmile_qr_scan", "android": "https://dc.lft.to/lastmile_qr_scan"}, "lon": -76.937345, "type": "electric_scooter", "fusion_lat": 0.0, "lat": 38.89015666666667, "name": "2edfd839c78a4fa2df3b9abd133196f0", "fusion_lon": 0.0, "bike_id": "2edfd839c78a4fa2df3b9abd133196f0", "is_disabled": 0, "is_reserved": 0}, {"rental_uris": {"ios": "https://dc.lft.to/lastmile_qr_scan", "android": "https://dc.lft.to/lastmile_qr_scan"}, "lon": -77.02104016666667, "type": "electric_scooter", "fusion_lat": 0.0, "lat": 38.87927616666666, "name": "6d9acd68bb4221d0248b1781fa363406", "fusion_lon": 0.0, "bike_id": "6d9acd68bb4221d0248b1781fa363406", "is_disabled": 0, "is_reserved": 0}, {"rental_uris": {"ios": "https://dc.lft.to/lastmile_qr_scan", "android": "https://dc.lft.to/lastmile_qr_scan"}, "lon": -76.93370833333333, "type": "electric_scooter", "fusion_lat": 0.0, "lat": 38.899113666666665, "name": "94ad89ef4598fc87ebc742cd06eb6b6b", "fusion_lon": 0.0, "bike_id": "94ad89ef4598fc87ebc742cd06eb6b6b", "is_disabled": 0, "is_reserved": 0}, {"rental_uris": {"ios": "https://dc.lft.to/lastmile_qr_scan", "android": "https://dc.lft.to/lastmile_qr_scan"}, "lon": -77.05744333333334, "type": "electric_scooter", "fusion_lat": 0.0, "lat": 38.933948, "name": "6813620b5b7320d1bff73444f66404ff", "fusion_lon": 0.0, "bike_id": "6813620b5b7320d1bff73444f66404ff", "is_disabled": 0, "is_reserved": 0}, {"rental_uris": {"ios": "https://dc.lft.to/lastmile_qr_scan", "android": "https://dc.lft.to/lastmile_qr_scan"}, "lon": -77.19905183333333, "type": "electric_bike", "fusion_lat": 0.0, "lat": 38.875253666666666, "name": "298aeb5d874f679145ac7e3c37c88f90", "fusion_lon": 0.0, "bike_id": "298aeb5d874f679145ac7e3c37c88f90", "is_disabled": 0, "is_reserved": 0}, {"rental_uris": {"ios": "https://dc.lft.to/lastmile_qr_scan", "android": "https://dc.lft.to/lastmile_qr_scan"}, "lon": -77.0321875, "type": "electric_bike", "fusion_lat": 0.0, "lat": 38.91405683333333, "name": "a2256bc79f396424b86f80b20771ab95", "fusion_lon": 0.0, "bike_id": "a2256bc79f396424b86f80b20771ab95", "is_disabled": 0, "is_reserved": 0}, {"rental_uris": {"ios": "https://dc.lft.to/lastmile_qr_scan", "android": "https://dc.lft.to/lastmile_qr_scan"}, "lon": -77.04820783333334, "type": "electric_scooter", "fusion_lat": 0.0, "lat": 38.9165415, "name": "7fc9c4a9b2a3b2b28b54901894fca2c7", "fusion_lon": 0.0, "bike_id": "7fc9c4a9b2a3b2b28b54901894fca2c7", "is_disabled": 0, "is_reserved": 0}, {"rental_uris": {"ios": "https://dc.lft.to/lastmile_qr_scan", "android": "https://dc.lft.to/lastmile_qr_scan"}, "lon": -77.034216, "type": "electric_scooter", "fusion_lat": 0.0, "lat": 38.919127, "name": "3aef78d1a9ce84f35605b89f0285f438", "fusion_lon": 0.0, "bike_id": "3aef78d1a9ce84f35605b89f0285f438", "is_disabled": 0, "is_reserved": 0}, {"rental_uris": {"ios": "https://dc.lft.to/lastmile_qr_scan", "android": "https://dc.lft.to/lastmile_qr_scan"}, "lon": -77.02947166666667, "type": "electric_scooter", "fusion_lat": 0.0, "lat": 38.897111833333334, "name": "24ba0595ab439b65e89bedaed18ca3ba", "fusion_lon": 0.0, "bike_id": "24ba0595ab439b65e89bedaed18ca3ba", "is_disabled": 0, "is_reserved": 0}, {"rental_uris": {"ios": "https://dc.lft.to/lastmile_qr_scan", "android": "https://dc.lft.to/lastmile_qr_scan"}, "lon": -77.02684883333333, "type": "electric_scooter", "fusion_lat": 0.0, "lat": 38.90349883333333, "name": "dba33203a50854d90c68178c23707119", "fusion_lon": 0.0, "bike_id": "dba33203a50854d90c68178c23707119", "is_disabled": 0, "is_reserved": 0}, {"rental_uris": {"ios": "https://dc.lft.to/lastmile_qr_scan", "android": "https://dc.lft.to/lastmile_qr_scan"}, "lon": -77.02399733333333, "type": "electric_scooter", "fusion_lat": 0.0, "lat": 38.93075, "name": "d5dbd9acd10c3207ce616ebf77be0fe5", "fusion_lon": 0.0, "bike_id": "d5dbd9acd10c3207ce616ebf77be0fe5", "is_disabled": 0, "is_reserved": 0}, {"rental_uris": {"ios": "https://dc.lft.to/lastmile_qr_scan", "android": "https://dc.lft.to/lastmile_qr_scan"}, "lon": -77.04686916666667, "type": "electric_scooter", "fusion_lat": 0.0, "lat": 38.892218, "name": "5e03a5c750191f16889f69551c3ee3dc", "fusion_lon": 0.0, "bike_id": "5e03a5c750191f16889f69551c3ee3dc", "is_disabled": 0, "is_reserved": 0}, {"rental_uris": {"ios": "https://dc.lft.to/lastmile_qr_scan", "android": "https://dc.lft.to/lastmile_qr_scan"}, "lon": -77.03128383333333, "type": "electric_scooter", "fusion_lat": 0.0, "lat": 38.9169775, "name": "8244d4906430b8e252509433bff34af6", "fusion_lon": 0.0, "bike_id": "8244d4906430b8e252509433bff34af6", "is_disabled": 0, "is_reserved": 0}, {"rental_uris": {"ios": "https://dc.lft.to/lastmile_qr_scan", "android": "https://dc.lft.to/lastmile_qr_scan"}, "lon": -77.0484205, "type": "electric_scooter", "fusion_lat": 0.0, "lat": 38.92042433333334, "name": "308837d05a1d312d0eff29a8bbdac251", "fusion_lon": 0.0, "bike_id": "308837d05a1d312d0eff29a8bbdac251", "is_disabled": 0, "is_reserved": 0}, {"rental_uris": {"ios": "https://dc.lft.to/lastmile_qr_scan", "android": "https://dc.lft.to/lastmile_qr_scan"}, "lon": -76.90430416666666, "type": "electric_bike", "fusion_lat": 0.0, "lat": 38.89771983333333, "name": "9de69f034542c9a3a93c59e6ff9de087", "fusion_lon": 0.0, "bike_id": "9de69f034542c9a3a93c59e6ff9de087", "is_disabled": 0, "is_reserved": 0}, {"rental_uris": {"ios": "https://dc.lft.to/lastmile_qr_scan", "android": "https://dc.lft.to/lastmile_qr_scan"}, "lon": -77.04062583333334, "type": "electric_scooter", "fusion_lat": 0.0, "lat": 38.92641416666667, "name": "4a86367a29cd5789d88097b130b81ad6", "fusion_lon": 0.0, "bike_id": "4a86367a29cd5789d88097b130b81ad6", "is_disabled": 0, "is_reserved": 0}, {"rental_uris": {"ios": "https://dc.lft.to/lastmile_qr_scan", "android": "https://dc.lft.to/lastmile_qr_scan"}, "lon": -77.0237525, "type": "electric_scooter", "fusion_lat": 0.0, "lat": 38.8953105, "name": "9f4b225b9625f947b0bd01edc9770e95", "fusion_lon": 0.0, "bike_id": "9f4b225b9625f947b0bd01edc9770e95", "is_disabled": 0, "is_reserved": 0}, {"rental_uris": {"ios": "https://dc.lft.to/lastmile_qr_scan", "android": "https://dc.lft.to/lastmile_qr_scan"}, "lon": -77.01965666666666, "type": "electric_scooter", "fusion_lat": 0.0, "lat": 38.9340385, "name": "4eb9fa981b9690e95da92256fe688a2c", "fusion_lon": 0.0, "bike_id": "4eb9fa981b9690e95da92256fe688a2c", "is_disabled": 0, "is_reserved": 0}, {"rental_uris": {"ios": "https://dc.lft.to/lastmile_qr_scan", "android": "https://dc.lft.to/lastmile_qr_scan"}, "lon": -77.03284833333333, "type": "electric_scooter", "fusion_lat": 0.0, "lat": 38.9389675, "name": "f35f0938f524a7510fb8cf7d8dc358d5", "fusion_lon": 0.0, "bike_id": "f35f0938f524a7510fb8cf7d8dc358d5", "is_disabled": 0, "is_reserved": 0}, {"rental_uris": {"ios": "https://dc.lft.to/lastmile_qr_scan", "android": "https://dc.lft.to/lastmile_qr_scan"}, "lon": -76.986895, "type": "electric_scooter", "fusion_lat": 0.0, "lat": 38.90692133333334, "name": "b5f4df54c2f772ce47601451752d3901", "fusion_lon": 0.0, "bike_id": "b5f4df54c2f772ce47601451752d3901", "is_disabled": 0, "is_reserved": 0}, {"rental_uris": {"ios": "https://dc.lft.to/lastmile_qr_scan", "android": "https://dc.lft.to/lastmile_qr_scan"}, "lon": -77.0468215, "type": "electric_scooter", "fusion_lat": 0.0, "lat": 38.900651833333335, "name": "ff0a816b7f05d73273c3ce7013e85b9a", "fusion_lon": 0.0, "bike_id": "ff0a816b7f05d73273c3ce7013e85b9a", "is_disabled": 0, "is_reserved": 0}, {"rental_uris": {"ios": "https://dc.lft.to/lastmile_qr_scan", "android": "https://dc.lft.to/lastmile_qr_scan"}, "lon": -77.040235, "type": "electric_scooter", "fusion_lat": 0.0, "lat": 38.918400166666665, "name": "f1be745570bad6703ae838f0222265be", "fusion_lon": 0.0, "bike_id": "f1be745570bad6703ae838f0222265be", "is_disabled": 0, "is_reserved": 0}, {"rental_uris": {"ios": "https://dc.lft.to/lastmile_qr_scan", "android": "https://dc.lft.to/lastmile_qr_scan"}, "lon": -76.9886785, "type": "electric_scooter", "fusion_lat": 0.0, "lat": 38.832117833333335, "name": "f5e978ab29278433f3e6f9b24a0324d4", "fusion_lon": 0.0, "bike_id": "f5e978ab29278433f3e6f9b24a0324d4", "is_disabled": 0, "is_reserved": 0}, {"rental_uris": {"ios": "https://dc.lft.to/lastmile_qr_scan", "android": "https://dc.lft.to/lastmile_qr_scan"}, "lon": -77.03172966666666, "type": "electric_scooter", "fusion_lat": 0.0, "lat": 38.899542333333336, "name": "32bb17f0f7ccef6706e30d89891f2247", "fusion_lon": 0.0, "bike_id": "32bb17f0f7ccef6706e30d89891f2247", "is_disabled": 0, "is_reserved": 0}, {"rental_uris": {"ios": "https://dc.lft.to/lastmile_qr_scan", "android": "https://dc.lft.to/lastmile_qr_scan"}, "lon": -77.016877, "type": "electric_bike", "fusion_lat": 0.0, "lat": 38.975196833333335, "name": "b84f602928ad59fc71c24579dcd724a3", "fusion_lon": 0.0, "bike_id": "b84f602928ad59fc71c24579dcd724a3", "is_disabled": 0, "is_reserved": 0}, {"rental_uris": {"ios": "https://dc.lft.to/lastmile_qr_scan", "android": "https://dc.lft.to/lastmile_qr_scan"}, "lon": -77.02421833333334, "type": "electric_scooter", "fusion_lat": 0.0, "lat": 38.92651683333333, "name": "5bb1aa5e56f7033ce84f0b758d02c9c2", "fusion_lon": 0.0, "bike_id": "5bb1aa5e56f7033ce84f0b758d02c9c2", "is_disabled": 0, "is_reserved": 0}, {"rental_uris": {"ios": "https://dc.lft.to/lastmile_qr_scan", "android": "https://dc.lft.to/lastmile_qr_scan"}, "lon": -77.04267033333333, "type": "electric_scooter", "fusion_lat": 0.0, "lat": 38.895855, "name": "fcc54a3536055120fb83b71e06be6d83", "fusion_lon": 0.0, "bike_id": "fcc54a3536055120fb83b71e06be6d83", "is_disabled": 0, "is_reserved": 0}, {"rental_uris": {"ios": "https://dc.lft.to/lastmile_qr_scan", "android": "https://dc.lft.to/lastmile_qr_scan"}, "lon": -77.06400933333333, "type": "electric_bike", "fusion_lat": 0.0, "lat": 38.84347066666667, "name": "cf1c3b0c961344f9d172bc3c3cc94846", "fusion_lon": 0.0, "bike_id": "cf1c3b0c961344f9d172bc3c3cc94846", "is_disabled": 0, "is_reserved": 0}, {"rental_uris": {"ios": "https://dc.lft.to/lastmile_qr_scan", "android": "https://dc.lft.to/lastmile_qr_scan"}, "lon": -77.0539925, "type": "electric_scooter", "fusion_lat": 0.0, "lat": 38.902448666666665, "name": "e2bb2f88cfb74505f8078e0bc6e8d7e6", "fusion_lon": 0.0, "bike_id": "e2bb2f88cfb74505f8078e0bc6e8d7e6", "is_disabled": 0, "is_reserved": 0}, {"rental_uris": {"ios": "https://dc.lft.to/lastmile_qr_scan", "android": "https://dc.lft.to/lastmile_qr_scan"}, "lon": -77.022308, "type": "electric_scooter", "fusion_lat": 0.0, "lat": 38.89618083333333, "name": "05137bc9c9d6739c77fe43904dc5ee4c", "fusion_lon": 0.0, "bike_id": "05137bc9c9d6739c77fe43904dc5ee4c", "is_disabled": 0, "is_reserved": 0}, {"rental_uris": {"ios": "https://dc.lft.to/lastmile_qr_scan", "android": "https://dc.lft.to/lastmile_qr_scan"}, "lon": -77.007765, "type": "electric_scooter", "fusion_lat": 0.0, "lat": 38.879185666666665, "name": "1eb69539c7c77f8282423d13bfc177cb", "fusion_lon": 0.0, "bike_id": "1eb69539c7c77f8282423d13bfc177cb", "is_disabled": 0, "is_reserved": 0}, {"rental_uris": {"ios": "https://dc.lft.to/lastmile_qr_scan", "android": "https://dc.lft.to/lastmile_qr_scan"}, "lon": -77.03350483333334, "type": "electric_scooter", "fusion_lat": 0.0, "lat": 38.885433166666665, "name": "530f227048f25be414c432031d26c5da", "fusion_lon": 0.0, "bike_id": "530f227048f25be414c432031d26c5da", "is_disabled": 0, "is_reserved": 0}, {"rental_uris": {"ios": "https://dc.lft.to/lastmile_qr_scan", "android": "https://dc.lft.to/lastmile_qr_scan"}, "lon": -76.9969195, "type": "electric_scooter", "fusion_lat": 0.0, "lat": 38.9001195, "name": "0d64a53006be960d95f4d4c8baf969fc", "fusion_lon": 0.0, "bike_id": "0d64a53006be960d95f4d4c8baf969fc", "is_disabled": 0, "is_reserved": 0}, {"rental_uris": {"ios": "https://dc.lft.to/lastmile_qr_scan", "android": "https://dc.lft.to/lastmile_qr_scan"}, "lon": -76.928869, "type": "electric_scooter", "fusion_lat": 0.0, "lat": 38.893294833333336, "name": "51d0675a5dda4549466a7fd7c9cf36d1", "fusion_lon": 0.0, "bike_id": "51d0675a5dda4549466a7fd7c9cf36d1", "is_disabled": 0, "is_reserved": 0}, {"rental_uris": {"ios": "https://dc.lft.to/lastmile_qr_scan", "android": "https://dc.lft.to/lastmile_qr_scan"}, "lon": -76.96629366666667, "type": "electric_bike", "fusion_lat": 0.0, "lat": 38.941976, "name": "b21ba12c3be27944cb45a91d91c4a326", "fusion_lon": 0.0, "bike_id": "b21ba12c3be27944cb45a91d91c4a326", "is_disabled": 0, "is_reserved": 0}, {"rental_uris": {"ios": "https://dc.lft.to/lastmile_qr_scan", "android": "https://dc.lft.to/lastmile_qr_scan"}, "lon": -77.04609733333334, "type": "electric_scooter", "fusion_lat": 0.0, "lat": 38.903858666666665, "name": "f77e8faeb6bd95ebe90cfa9524a70542", "fusion_lon": 0.0, "bike_id": "f77e8faeb6bd95ebe90cfa9524a70542", "is_disabled": 0, "is_reserved": 0}, {"rental_uris": {"ios": "https://dc.lft.to/lastmile_qr_scan", "android": "https://dc.lft.to/lastmile_qr_scan"}, "lon": -77.03666316666667, "type": "electric_scooter", "fusion_lat": 0.0, "lat": 38.92111533333333, "name": "ebc0373161748f12ac9e05a95094f10b", "fusion_lon": 0.0, "bike_id": "ebc0373161748f12ac9e05a95094f10b", "is_disabled": 0, "is_reserved": 0}, {"rental_uris": {"ios": "https://dc.lft.to/lastmile_qr_scan", "android": "https://dc.lft.to/lastmile_qr_scan"}, "lon": -77.026998, "type": "electric_scooter", "fusion_lat": 0.0, "lat": 38.94975983333333, "name": "67fe13637387034b2dca14e61a95ff82", "fusion_lon": 0.0, "bike_id": "67fe13637387034b2dca14e61a95ff82", "is_disabled": 0, "is_reserved": 0}, {"rental_uris": {"ios": "https://dc.lft.to/lastmile_qr_scan", "android": "https://dc.lft.to/lastmile_qr_scan"}, "lon": -77.011167, "type": "electric_scooter", "fusion_lat": 0.0, "lat": 38.915524833333336, "name": "4a63ad87c75f05d4c7149248d98d9c2d", "fusion_lon": 0.0, "bike_id": "4a63ad87c75f05d4c7149248d98d9c2d", "is_disabled": 0, "is_reserved": 0}, {"rental_uris": {"ios": "https://dc.lft.to/lastmile_qr_scan", "android": "https://dc.lft.to/lastmile_qr_scan"}, "lon": -77.04451366666666, "type": "electric_scooter", "fusion_lat": 0.0, "lat": 38.9101705, "name": "fa0bab9fcf4ba6b1f9dafdb0837890aa", "fusion_lon": 0.0, "bike_id": "fa0bab9fcf4ba6b1f9dafdb0837890aa", "is_disabled": 0, "is_reserved": 0}, {"rental_uris": {"ios": "https://dc.lft.to/lastmile_qr_scan", "android": "https://dc.lft.to/lastmile_qr_scan"}, "lon": -77.360992, "type": "electric_bike", "fusion_lat": 0.0, "lat": 38.939547166666664, "name": "7b4d6deec29f669197dde0437a5c7744", "fusion_lon": 0.0, "bike_id": "7b4d6deec29f669197dde0437a5c7744", "is_disabled": 0, "is_reserved": 0}, {"rental_uris": {"ios": "https://dc.lft.to/lastmile_qr_scan", "android": "https://dc.lft.to/lastmile_qr_scan"}, "lon": -77.02201683333334, "type": "electric_scooter", "fusion_lat": 0.0, "lat": 38.903124, "name": "d940affa6cb770717a7d5ee2001d17bd", "fusion_lon": 0.0, "bike_id": "d940affa6cb770717a7d5ee2001d17bd", "is_disabled": 0, "is_reserved": 0}, {"rental_uris": {"ios": "https://dc.lft.to/lastmile_qr_scan", "android": "https://dc.lft.to/lastmile_qr_scan"}, "lon": -76.97983416666666, "type": "electric_bike", "fusion_lat": 0.0, "lat": 38.87752666666667, "name": "c2c9822e93fbfe4f558dc9415245a690", "fusion_lon": 0.0, "bike_id": "c2c9822e93fbfe4f558dc9415245a690", "is_disabled": 0, "is_reserved": 0}, {"rental_uris": {"ios": "https://dc.lft.to/lastmile_qr_scan", "android": "https://dc.lft.to/lastmile_qr_scan"}, "lon": -77.02072266666667, "type": "electric_scooter", "fusion_lat": 0.0, "lat": 38.915479500000004, "name": "852dcb6cb12b317db50a06f5335d1a41", "fusion_lon": 0.0, "bike_id": "852dcb6cb12b317db50a06f5335d1a41", "is_disabled": 0, "is_reserved": 0}, {"rental_uris": {"ios": "https://dc.lft.to/lastmile_qr_scan", "android": "https://dc.lft.to/lastmile_qr_scan"}, "lon": -76.9253655, "type": "electric_bike", "fusion_lat": 0.0, "lat": 38.95925866666666, "name": "31dde16563c881c25c55312023c5d211", "fusion_lon": 0.0, "bike_id": "31dde16563c881c25c55312023c5d211", "is_disabled": 0, "is_reserved": 0}, {"rental_uris": {"ios": "https://dc.lft.to/lastmile_qr_scan", "android": "https://dc.lft.to/lastmile_qr_scan"}, "lon": -77.033821, "type": "electric_scooter", "fusion_lat": 0.0, "lat": 38.89923483333333, "name": "2d029c4c62f14c263deca106b19abdfd", "fusion_lon": 0.0, "bike_id": "2d029c4c62f14c263deca106b19abdfd", "is_disabled": 0, "is_reserved": 0}, {"rental_uris": {"ios": "https://dc.lft.to/lastmile_qr_scan", "android": "https://dc.lft.to/lastmile_qr_scan"}, "lon": -77.06171116666667, "type": "electric_scooter", "fusion_lat": 0.0, "lat": 38.905260166666665, "name": "31fcd40cf00edf92255a3dcac3c35576", "fusion_lon": 0.0, "bike_id": "31fcd40cf00edf92255a3dcac3c35576", "is_disabled": 0, "is_reserved": 0}, {"rental_uris": {"ios": "https://dc.lft.to/lastmile_qr_scan", "android": "https://dc.lft.to/lastmile_qr_scan"}, "lon": -77.02192433333333, "type": "electric_scooter", "fusion_lat": 0.0, "lat": 38.89841833333333, "name": "ed49f4c0c46bd99eb21f3bb0b88fc4c9", "fusion_lon": 0.0, "bike_id": "ed49f4c0c46bd99eb21f3bb0b88fc4c9", "is_disabled": 0, "is_reserved": 0}, {"rental_uris": {"ios": "https://dc.lft.to/lastmile_qr_scan", "android": "https://dc.lft.to/lastmile_qr_scan"}, "lon": -77.050432, "type": "electric_scooter", "fusion_lat": 0.0, "lat": 38.923608, "name": "36fad7ebd657f3831237048ea73a294f", "fusion_lon": 0.0, "bike_id": "36fad7ebd657f3831237048ea73a294f", "is_disabled": 0, "is_reserved": 0}, {"rental_uris": {"ios": "https://dc.lft.to/lastmile_qr_scan", "android": "https://dc.lft.to/lastmile_qr_scan"}, "lon": -77.0475085, "type": "electric_scooter", "fusion_lat": 0.0, "lat": 38.9124315, "name": "67092e9957195d151d90bce31b691bd0", "fusion_lon": 0.0, "bike_id": "67092e9957195d151d90bce31b691bd0", "is_disabled": 0, "is_reserved": 0}, {"rental_uris": {"ios": "https://dc.lft.to/lastmile_qr_scan", "android": "https://dc.lft.to/lastmile_qr_scan"}, "lon": -77.05332633333333, "type": "electric_scooter", "fusion_lat": 0.0, "lat": 38.900150833333335, "name": "9828f0a660d1a1427a0133ece2e22bfa", "fusion_lon": 0.0, "bike_id": "9828f0a660d1a1427a0133ece2e22bfa", "is_disabled": 0, "is_reserved": 0}, {"rental_uris": {"ios": "https://dc.lft.to/lastmile_qr_scan", "android": "https://dc.lft.to/lastmile_qr_scan"}, "lon": -77.00789566666667, "type": "electric_bike", "fusion_lat": 0.0, "lat": 38.926912, "name": "46564a4f47da0e5836e8f537301a378b", "fusion_lon": 0.0, "bike_id": "46564a4f47da0e5836e8f537301a378b", "is_disabled": 0, "is_reserved": 0}, {"rental_uris": {"ios": "https://dc.lft.to/lastmile_qr_scan", "android": "https://dc.lft.to/lastmile_qr_scan"}, "lon": -77.03771833333333, "type": "electric_scooter", "fusion_lat": 0.0, "lat": 38.92011816666667, "name": "9c9b9cf581131db08244426710cd8568", "fusion_lon": 0.0, "bike_id": "9c9b9cf581131db08244426710cd8568", "is_disabled": 0, "is_reserved": 0}, {"rental_uris": {"ios": "https://dc.lft.to/lastmile_qr_scan", "android": "https://dc.lft.to/lastmile_qr_scan"}, "lon": -77.041508, "type": "electric_scooter", "fusion_lat": 0.0, "lat": 38.917410333333336, "name": "1532373155273e29da8e2abc94db2784", "fusion_lon": 0.0, "bike_id": "1532373155273e29da8e2abc94db2784", "is_disabled": 0, "is_reserved": 0}, {"rental_uris": {"ios": "https://dc.lft.to/lastmile_qr_scan", "android": "https://dc.lft.to/lastmile_qr_scan"}, "lon": -77.00215283333333, "type": "electric_scooter", "fusion_lat": 0.0, "lat": 38.9002905, "name": "637d9ed03cb8cd0bb0f99c8544bbea4c", "fusion_lon": 0.0, "bike_id": "637d9ed03cb8cd0bb0f99c8544bbea4c", "is_disabled": 0, "is_reserved": 0}, {"rental_uris": {"ios": "https://dc.lft.to/lastmile_qr_scan", "android": "https://dc.lft.to/lastmile_qr_scan"}, "lon": -77.00265316666666, "type": "electric_bike", "fusion_lat": 0.0, "lat": 38.91193116666667, "name": "fa3492bfc9a2a68887c5e73862267b50", "fusion_lon": 0.0, "bike_id": "fa3492bfc9a2a68887c5e73862267b50", "is_disabled": 0, "is_reserved": 0}, {"rental_uris": {"ios": "https://dc.lft.to/lastmile_qr_scan", "android": "https://dc.lft.to/lastmile_qr_scan"}, "lon": -76.98882766666667, "type": "electric_scooter", "fusion_lat": 0.0, "lat": 38.866585666666666, "name": "61da5f012f78c6203ce79bf79de167de", "fusion_lon": 0.0, "bike_id": "61da5f012f78c6203ce79bf79de167de", "is_disabled": 0, "is_reserved": 0}, {"rental_uris": {"ios": "https://dc.lft.to/lastmile_qr_scan", "android": "https://dc.lft.to/lastmile_qr_scan"}, "lon": -77.01148066666667, "type": "electric_bike", "fusion_lat": 0.0, "lat": 38.911787833333335, "name": "ec4ed0eb83d8c8c39ffae9c38c8d7eca", "fusion_lon": 0.0, "bike_id": "ec4ed0eb83d8c8c39ffae9c38c8d7eca", "is_disabled": 0, "is_reserved": 0}, {"rental_uris": {"ios": "https://dc.lft.to/lastmile_qr_scan", "android": "https://dc.lft.to/lastmile_qr_scan"}, "lon": -77.03698533333333, "type": "electric_scooter", "fusion_lat": 0.0, "lat": 38.9264045, "name": "31cf6a52280feac6a21be73f8effb57e", "fusion_lon": 0.0, "bike_id": "31cf6a52280feac6a21be73f8effb57e", "is_disabled": 0, "is_reserved": 0}, {"rental_uris": {"ios": "https://dc.lft.to/lastmile_qr_scan", "android": "https://dc.lft.to/lastmile_qr_scan"}, "lon": -77.04016133333333, "type": "electric_scooter", "fusion_lat": 0.0, "lat": 38.91801316666667, "name": "b4fd6b7bb809cca78300c0d3642dc615", "fusion_lon": 0.0, "bike_id": "b4fd6b7bb809cca78300c0d3642dc615", "is_disabled": 0, "is_reserved": 0}, {"rental_uris": {"ios": "https://dc.lft.to/lastmile_qr_scan", "android": "https://dc.lft.to/lastmile_qr_scan"}, "lon": -77.04121233333333, "type": "electric_scooter", "fusion_lat": 0.0, "lat": 38.917065666666666, "name": "9a794c1f15c694ad51cf987dc6527fdb", "fusion_lon": 0.0, "bike_id": "9a794c1f15c694ad51cf987dc6527fdb", "is_disabled": 0, "is_reserved": 0}, {"rental_uris": {"ios": "https://dc.lft.to/lastmile_qr_scan", "android": "https://dc.lft.to/lastmile_qr_scan"}, "lon": -77.02566816666666, "type": "electric_scooter", "fusion_lat": 0.0, "lat": 38.9148205, "name": "77b46e4a95d162864b56532f677c2ce9", "fusion_lon": 0.0, "bike_id": "77b46e4a95d162864b56532f677c2ce9", "is_disabled": 0, "is_reserved": 0}, {"rental_uris": {"ios": "https://dc.lft.to/lastmile_qr_scan", "android": "https://dc.lft.to/lastmile_qr_scan"}, "lon": -77.00579566666667, "type": "electric_scooter", "fusion_lat": 0.0, "lat": 38.87227516666667, "name": "e77d9611a17d5481eb41b24a8d57e2ff", "fusion_lon": 0.0, "bike_id": "e77d9611a17d5481eb41b24a8d57e2ff", "is_disabled": 0, "is_reserved": 0}, {"rental_uris": {"ios": "https://dc.lft.to/lastmile_qr_scan", "android": "https://dc.lft.to/lastmile_qr_scan"}, "lon": -77.09659883333333, "type": "electric_scooter", "fusion_lat": 0.0, "lat": 38.916257, "name": "26ee9b3f9fb8148a9cf0970c2af9b65e", "fusion_lon": 0.0, "bike_id": "26ee9b3f9fb8148a9cf0970c2af9b65e", "is_disabled": 0, "is_reserved": 0}, {"rental_uris": {"ios": "https://dc.lft.to/lastmile_qr_scan", "android": "https://dc.lft.to/lastmile_qr_scan"}, "lon": -77.027174, "type": "electric_scooter", "fusion_lat": 0.0, "lat": 38.92484966666667, "name": "fca226afa286c038e436c904a20d7d63", "fusion_lon": 0.0, "bike_id": "fca226afa286c038e436c904a20d7d63", "is_disabled": 0, "is_reserved": 0}, {"rental_uris": {"ios": "https://dc.lft.to/lastmile_qr_scan", "android": "https://dc.lft.to/lastmile_qr_scan"}, "lon": -77.0279075, "type": "electric_scooter", "fusion_lat": 0.0, "lat": 38.896232833333336, "name": "032dd75da5bcbcbf38e28f0988db1a31", "fusion_lon": 0.0, "bike_id": "032dd75da5bcbcbf38e28f0988db1a31", "is_disabled": 0, "is_reserved": 0}, {"rental_uris": {"ios": "https://dc.lft.to/lastmile_qr_scan", "android": "https://dc.lft.to/lastmile_qr_scan"}, "lon": -77.032127, "type": "electric_scooter", "fusion_lat": 0.0, "lat": 38.91114916666667, "name": "aaca820027160df513024f468bc43594", "fusion_lon": 0.0, "bike_id": "aaca820027160df513024f468bc43594", "is_disabled": 0, "is_reserved": 0}, {"rental_uris": {"ios": "https://dc.lft.to/lastmile_qr_scan", "android": "https://dc.lft.to/lastmile_qr_scan"}, "lon": -77.036795, "type": "electric_scooter", "fusion_lat": 0.0, "lat": 38.9293875, "name": "f28f140bb5dbd36e9c016cad4e6e78a2", "fusion_lon": 0.0, "bike_id": "f28f140bb5dbd36e9c016cad4e6e78a2", "is_disabled": 0, "is_reserved": 0}, {"rental_uris": {"ios": "https://dc.lft.to/lastmile_qr_scan", "android": "https://dc.lft.to/lastmile_qr_scan"}, "lon": -77.07561316666667, "type": "electric_scooter", "fusion_lat": 0.0, "lat": 38.92086283333333, "name": "69a4695aa047e33f51d437735684dcca", "fusion_lon": 0.0, "bike_id": "69a4695aa047e33f51d437735684dcca", "is_disabled": 0, "is_reserved": 0}, {"rental_uris": {"ios": "https://dc.lft.to/lastmile_qr_scan", "android": "https://dc.lft.to/lastmile_qr_scan"}, "lon": -77.01768483333333, "type": "electric_scooter", "fusion_lat": 0.0, "lat": 38.883878833333334, "name": "af8718cb815be93c70ff4481a6bd6c6b", "fusion_lon": 0.0, "bike_id": "af8718cb815be93c70ff4481a6bd6c6b", "is_disabled": 0, "is_reserved": 0}, {"rental_uris": {"ios": "https://dc.lft.to/lastmile_qr_scan", "android": "https://dc.lft.to/lastmile_qr_scan"}, "lon": -77.01817933333334, "type": "electric_scooter", "fusion_lat": 0.0, "lat": 38.929710166666666, "name": "dd7590d6db19db64920c7f9090b00089", "fusion_lon": 0.0, "bike_id": "dd7590d6db19db64920c7f9090b00089", "is_disabled": 0, "is_reserved": 0}, {"rental_uris": {"ios": "https://dc.lft.to/lastmile_qr_scan", "android": "https://dc.lft.to/lastmile_qr_scan"}, "lon": -77.01374466666667, "type": "electric_scooter", "fusion_lat": 0.0, "lat": 38.869536833333335, "name": "c98e561529a8e2acfe9be49dd23a0ba5", "fusion_lon": 0.0, "bike_id": "c98e561529a8e2acfe9be49dd23a0ba5", "is_disabled": 0, "is_reserved": 0}, {"rental_uris": {"ios": "https://dc.lft.to/lastmile_qr_scan", "android": "https://dc.lft.to/lastmile_qr_scan"}, "lon": -77.03059, "type": "electric_scooter", "fusion_lat": 0.0, "lat": 38.89465466666667, "name": "89e9edc7478fb17652c9f95c5f6bd525", "fusion_lon": 0.0, "bike_id": "89e9edc7478fb17652c9f95c5f6bd525", "is_disabled": 0, "is_reserved": 0}, {"rental_uris": {"ios": "https://dc.lft.to/lastmile_qr_scan", "android": "https://dc.lft.to/lastmile_qr_scan"}, "lon": -76.99001383333334, "type": "electric_scooter", "fusion_lat": 0.0, "lat": 38.865048, "name": "bbcc3b9eacfb3bd053a954a11206795f", "fusion_lon": 0.0, "bike_id": "bbcc3b9eacfb3bd053a954a11206795f", "is_disabled": 0, "is_reserved": 0}, {"rental_uris": {"ios": "https://dc.lft.to/lastmile_qr_scan", "android": "https://dc.lft.to/lastmile_qr_scan"}, "lon": -77.01967583333334, "type": "electric_scooter", "fusion_lat": 0.0, "lat": 38.897184333333335, "name": "083334de933f1d72c9340f71d7c768f0", "fusion_lon": 0.0, "bike_id": "083334de933f1d72c9340f71d7c768f0", "is_disabled": 0, "is_reserved": 0}, {"rental_uris": {"ios": "https://dc.lft.to/lastmile_qr_scan", "android": "https://dc.lft.to/lastmile_qr_scan"}, "lon": -77.01257166666667, "type": "electric_bike", "fusion_lat": 0.0, "lat": 38.9038025, "name": "9f4dbfc0922550b71137b2c082875335", "fusion_lon": 0.0, "bike_id": "9f4dbfc0922550b71137b2c082875335", "is_disabled": 0, "is_reserved": 0}, {"rental_uris": {"ios": "https://dc.lft.to/lastmile_qr_scan", "android": "https://dc.lft.to/lastmile_qr_scan"}, "lon": -77.01557566666666, "type": "electric_scooter", "fusion_lat": 0.0, "lat": 38.884924833333336, "name": "d9698f22215163913a87151424ca0765", "fusion_lon": 0.0, "bike_id": "d9698f22215163913a87151424ca0765", "is_disabled": 0, "is_reserved": 0}, {"rental_uris": {"ios": "https://dc.lft.to/lastmile_qr_scan", "android": "https://dc.lft.to/lastmile_qr_scan"}, "lon": -77.02373366666667, "type": "electric_scooter", "fusion_lat": 0.0, "lat": 38.902966666666664, "name": "e5b42b17dcecf2dbac5eef408449eedf", "fusion_lon": 0.0, "bike_id": "e5b42b17dcecf2dbac5eef408449eedf", "is_disabled": 0, "is_reserved": 0}, {"rental_uris": {"ios": "https://dc.lft.to/lastmile_qr_scan", "android": "https://dc.lft.to/lastmile_qr_scan"}, "lon": -77.03240483333333, "type": "electric_bike", "fusion_lat": 0.0, "lat": 38.962831, "name": "15f5a16625751d57f587aed6040bffb6", "fusion_lon": 0.0, "bike_id": "15f5a16625751d57f587aed6040bffb6", "is_disabled": 0, "is_reserved": 0}, {"rental_uris": {"ios": "https://dc.lft.to/lastmile_qr_scan", "android": "https://dc.lft.to/lastmile_qr_scan"}, "lon": -77.021479, "type": "electric_scooter", "fusion_lat": 0.0, "lat": 38.89478116666667, "name": "5140f4fddcd237042269be6c40e65082", "fusion_lon": 0.0, "bike_id": "5140f4fddcd237042269be6c40e65082", "is_disabled": 0, "is_reserved": 0}, {"rental_uris": {"ios": "https://dc.lft.to/lastmile_qr_scan", "android": "https://dc.lft.to/lastmile_qr_scan"}, "lon": -76.957524, "type": "electric_scooter", "fusion_lat": 0.0, "lat": 38.884288833333336, "name": "06352f7c573e1bdb3a90ec50aa505d2f", "fusion_lon": 0.0, "bike_id": "06352f7c573e1bdb3a90ec50aa505d2f", "is_disabled": 0, "is_reserved": 0}, {"rental_uris": {"ios": "https://dc.lft.to/lastmile_qr_scan", "android": "https://dc.lft.to/lastmile_qr_scan"}, "lon": -77.0161595, "type": "electric_scooter", "fusion_lat": 0.0, "lat": 38.899759833333334, "name": "05bcf8ab707a0ed276a694d14191b87a", "fusion_lon": 0.0, "bike_id": "05bcf8ab707a0ed276a694d14191b87a", "is_disabled": 0, "is_reserved": 0}, {"rental_uris": {"ios": "https://dc.lft.to/lastmile_qr_scan", "android": "https://dc.lft.to/lastmile_qr_scan"}, "lon": -76.98133016666667, "type": "electric_scooter", "fusion_lat": 0.0, "lat": 38.857059666666665, "name": "c1e3436b6048082aac711b4b288396f4", "fusion_lon": 0.0, "bike_id": "c1e3436b6048082aac711b4b288396f4", "is_disabled": 0, "is_reserved": 0}, {"rental_uris": {"ios": "https://dc.lft.to/lastmile_qr_scan", "android": "https://dc.lft.to/lastmile_qr_scan"}, "lon": -77.05476433333334, "type": "electric_scooter", "fusion_lat": 0.0, "lat": 38.910688, "name": "39cde1dd19b320b2481282a780059888", "fusion_lon": 0.0, "bike_id": "39cde1dd19b320b2481282a780059888", "is_disabled": 0, "is_reserved": 0}, {"rental_uris": {"ios": "https://dc.lft.to/lastmile_qr_scan", "android": "https://dc.lft.to/lastmile_qr_scan"}, "lon": -77.02286916666667, "type": "electric_scooter", "fusion_lat": 0.0, "lat": 38.89705516666667, "name": "f2138d6edff99dab310a799291d1b4e9", "fusion_lon": 0.0, "bike_id": "f2138d6edff99dab310a799291d1b4e9", "is_disabled": 0, "is_reserved": 0}, {"rental_uris": {"ios": "https://dc.lft.to/lastmile_qr_scan", "android": "https://dc.lft.to/lastmile_qr_scan"}, "lon": -77.03031716666666, "type": "electric_scooter", "fusion_lat": 0.0, "lat": 38.898259833333334, "name": "9273d5c2037972e4e32c77b9cf8254dc", "fusion_lon": 0.0, "bike_id": "9273d5c2037972e4e32c77b9cf8254dc", "is_disabled": 0, "is_reserved": 0}, {"rental_uris": {"ios": "https://dc.lft.to/lastmile_qr_scan", "android": "https://dc.lft.to/lastmile_qr_scan"}, "lon": -77.055648, "type": "electric_scooter", "fusion_lat": 0.0, "lat": 38.925308666666666, "name": "4cd23f351ade4cfdb71c08fcea3424a7", "fusion_lon": 0.0, "bike_id": "4cd23f351ade4cfdb71c08fcea3424a7", "is_disabled": 0, "is_reserved": 0}, {"rental_uris": {"ios": "https://dc.lft.to/lastmile_qr_scan", "android": "https://dc.lft.to/lastmile_qr_scan"}, "lon": -77.047242, "type": "electric_scooter", "fusion_lat": 0.0, "lat": 38.89954933333333, "name": "31dd3765befb64252f5ce58f5f7e0e65", "fusion_lon": 0.0, "bike_id": "31dd3765befb64252f5ce58f5f7e0e65", "is_disabled": 0, "is_reserved": 0}, {"rental_uris": {"ios": "https://dc.lft.to/lastmile_qr_scan", "android": "https://dc.lft.to/lastmile_qr_scan"}, "lon": -76.99459416666667, "type": "electric_scooter", "fusion_lat": 0.0, "lat": 38.85160283333333, "name": "45733b7ceb6468a82b691680db3b89e2", "fusion_lon": 0.0, "bike_id": "45733b7ceb6468a82b691680db3b89e2", "is_disabled": 0, "is_reserved": 0}, {"rental_uris": {"ios": "https://dc.lft.to/lastmile_qr_scan", "android": "https://dc.lft.to/lastmile_qr_scan"}, "lon": -77.04330666666667, "type": "electric_scooter", "fusion_lat": 0.0, "lat": 38.91038233333333, "name": "1e5b2f123364eae43a860e4a3e81b9bb", "fusion_lon": 0.0, "bike_id": "1e5b2f123364eae43a860e4a3e81b9bb", "is_disabled": 0, "is_reserved": 0}, {"rental_uris": {"ios": "https://dc.lft.to/lastmile_qr_scan", "android": "https://dc.lft.to/lastmile_qr_scan"}, "lon": -77.08045416666667, "type": "electric_bike", "fusion_lat": 0.0, "lat": 38.84835, "name": "1211cd32fd2417f604b986069642f3ce", "fusion_lon": 0.0, "bike_id": "1211cd32fd2417f604b986069642f3ce", "is_disabled": 0, "is_reserved": 0}, {"rental_uris": {"ios": "https://dc.lft.to/lastmile_qr_scan", "android": "https://dc.lft.to/lastmile_qr_scan"}, "lon": -76.93962166666667, "type": "electric_scooter", "fusion_lat": 0.0, "lat": 38.899640166666664, "name": "908ffb6fca725195d4c1bf5773b5e771", "fusion_lon": 0.0, "bike_id": "908ffb6fca725195d4c1bf5773b5e771", "is_disabled": 0, "is_reserved": 0}, {"rental_uris": {"ios": "https://dc.lft.to/lastmile_qr_scan", "android": "https://dc.lft.to/lastmile_qr_scan"}, "lon": -77.03922733333333, "type": "electric_scooter", "fusion_lat": 0.0, "lat": 38.8987615, "name": "22a5e1cae624ccb9ac79fcc34a0e4a5e", "fusion_lon": 0.0, "bike_id": "22a5e1cae624ccb9ac79fcc34a0e4a5e", "is_disabled": 0, "is_reserved": 0}, {"rental_uris": {"ios": "https://dc.lft.to/lastmile_qr_scan", "android": "https://dc.lft.to/lastmile_qr_scan"}, "lon": -77.03562666666667, "type": "electric_scooter", "fusion_lat": 0.0, "lat": 38.93977, "name": "3842f138dff7e5f2eb2dd8a4216982ac", "fusion_lon": 0.0, "bike_id": "3842f138dff7e5f2eb2dd8a4216982ac", "is_disabled": 0, "is_reserved": 0}, {"rental_uris": {"ios": "https://dc.lft.to/lastmile_qr_scan", "android": "https://dc.lft.to/lastmile_qr_scan"}, "lon": -77.03808, "type": "electric_scooter", "fusion_lat": 0.0, "lat": 38.93109883333333, "name": "933a9fac4f47844f372c6fd9ed293d0e", "fusion_lon": 0.0, "bike_id": "933a9fac4f47844f372c6fd9ed293d0e", "is_disabled": 0, "is_reserved": 0}, {"rental_uris": {"ios": "https://dc.lft.to/lastmile_qr_scan", "android": "https://dc.lft.to/lastmile_qr_scan"}, "lon": -77.02727116666667, "type": "electric_scooter", "fusion_lat": 0.0, "lat": 38.896114, "name": "436235af99bdfe51e02219b4f958b468", "fusion_lon": 0.0, "bike_id": "436235af99bdfe51e02219b4f958b468", "is_disabled": 0, "is_reserved": 0}, {"rental_uris": {"ios": "https://dc.lft.to/lastmile_qr_scan", "android": "https://dc.lft.to/lastmile_qr_scan"}, "lon": -77.03581533333333, "type": "electric_scooter", "fusion_lat": 0.0, "lat": 38.933926, "name": "0f7eb9f754d1fffe3c15ec3785bd8711", "fusion_lon": 0.0, "bike_id": "0f7eb9f754d1fffe3c15ec3785bd8711", "is_disabled": 0, "is_reserved": 0}, {"rental_uris": {"ios": "https://dc.lft.to/lastmile_qr_scan", "android": "https://dc.lft.to/lastmile_qr_scan"}, "lon": -77.04391366666667, "type": "electric_scooter", "fusion_lat": 0.0, "lat": 38.923477, "name": "b26e085201b65b817bf2a69629185439", "fusion_lon": 0.0, "bike_id": "b26e085201b65b817bf2a69629185439", "is_disabled": 0, "is_reserved": 0}, {"rental_uris": {"ios": "https://dc.lft.to/lastmile_qr_scan", "android": "https://dc.lft.to/lastmile_qr_scan"}, "lon": -77.02202583333333, "type": "electric_scooter", "fusion_lat": 0.0, "lat": 38.909540166666666, "name": "2ffdc221928fb48931a610c2c437dce4", "fusion_lon": 0.0, "bike_id": "2ffdc221928fb48931a610c2c437dce4", "is_disabled": 0, "is_reserved": 0}, {"rental_uris": {"ios": "https://dc.lft.to/lastmile_qr_scan", "android": "https://dc.lft.to/lastmile_qr_scan"}, "lon": -77.04623266666667, "type": "electric_bike", "fusion_lat": 0.0, "lat": 38.9990565, "name": "1724f9e81071dc673f992bbf09318d9e", "fusion_lon": 0.0, "bike_id": "1724f9e81071dc673f992bbf09318d9e", "is_disabled": 0, "is_reserved": 0}, {"rental_uris": {"ios": "https://dc.lft.to/lastmile_qr_scan", "android": "https://dc.lft.to/lastmile_qr_scan"}, "lon": -77.06475116666667, "type": "electric_bike", "fusion_lat": 0.0, "lat": 38.97381816666667, "name": "f105a839f875ab76ebbf899048a479ac", "fusion_lon": 0.0, "bike_id": "f105a839f875ab76ebbf899048a479ac", "is_disabled": 0, "is_reserved": 0}, {"rental_uris": {"ios": "https://dc.lft.to/lastmile_qr_scan", "android": "https://dc.lft.to/lastmile_qr_scan"}, "lon": -77.03840566666666, "type": "electric_scooter", "fusion_lat": 0.0, "lat": 38.9077365, "name": "b4e51f35bde9d47dc5e6ed53fd0f3806", "fusion_lon": 0.0, "bike_id": "b4e51f35bde9d47dc5e6ed53fd0f3806", "is_disabled": 0, "is_reserved": 0}, {"rental_uris": {"ios": "https://dc.lft.to/lastmile_qr_scan", "android": "https://dc.lft.to/lastmile_qr_scan"}, "lon": -77.0592165, "type": "electric_scooter", "fusion_lat": 0.0, "lat": 38.9054535, "name": "3894a24b8c6e546f07429edb1ad6d520", "fusion_lon": 0.0, "bike_id": "3894a24b8c6e546f07429edb1ad6d520", "is_disabled": 0, "is_reserved": 0}, {"rental_uris": {"ios": "https://dc.lft.to/lastmile_qr_scan", "android": "https://dc.lft.to/lastmile_qr_scan"}, "lon": -77.09626033333333, "type": "electric_bike", "fusion_lat": 0.0, "lat": 38.84569416666667, "name": "1081e05fdab4e58173700aa86c450f0e", "fusion_lon": 0.0, "bike_id": "1081e05fdab4e58173700aa86c450f0e", "is_disabled": 0, "is_reserved": 0}, {"rental_uris": {"ios": "https://dc.lft.to/lastmile_qr_scan", "android": "https://dc.lft.to/lastmile_qr_scan"}, "lon": -76.99001716666666, "type": "electric_scooter", "fusion_lat": 0.0, "lat": 38.90389416666667, "name": "a1917826711aa829af0da15d75146adc", "fusion_lon": 0.0, "bike_id": "a1917826711aa829af0da15d75146adc", "is_disabled": 0, "is_reserved": 0}, {"rental_uris": {"ios": "https://dc.lft.to/lastmile_qr_scan", "android": "https://dc.lft.to/lastmile_qr_scan"}, "lon": -77.024129, "type": "electric_scooter", "fusion_lat": 0.0, "lat": 38.921812333333335, "name": "55360a927ac04884319411984a31a7ed", "fusion_lon": 0.0, "bike_id": "55360a927ac04884319411984a31a7ed", "is_disabled": 0, "is_reserved": 0}, {"rental_uris": {"ios": "https://dc.lft.to/lastmile_qr_scan", "android": "https://dc.lft.to/lastmile_qr_scan"}, "lon": -77.03984383333334, "type": "electric_scooter", "fusion_lat": 0.0, "lat": 38.89224266666667, "name": "f5f2a344eeb792f74b9f48b2f89a3170", "fusion_lon": 0.0, "bike_id": "f5f2a344eeb792f74b9f48b2f89a3170", "is_disabled": 0, "is_reserved": 0}, {"rental_uris": {"ios": "https://dc.lft.to/lastmile_qr_scan", "android": "https://dc.lft.to/lastmile_qr_scan"}, "lon": -76.9485605, "type": "electric_scooter", "fusion_lat": 0.0, "lat": 38.895884, "name": "aac58bcac6e3813ee5168697ddd092bb", "fusion_lon": 0.0, "bike_id": "aac58bcac6e3813ee5168697ddd092bb", "is_disabled": 0, "is_reserved": 0}, {"rental_uris": {"ios": "https://dc.lft.to/lastmile_qr_scan", "android": "https://dc.lft.to/lastmile_qr_scan"}, "lon": -76.91661333333333, "type": "electric_bike", "fusion_lat": 0.0, "lat": 38.86866666666667, "name": "ac6a6448ba66b03802c19a2009e23db5", "fusion_lon": 0.0, "bike_id": "ac6a6448ba66b03802c19a2009e23db5", "is_disabled": 0, "is_reserved": 0}, {"rental_uris": {"ios": "https://dc.lft.to/lastmile_qr_scan", "android": "https://dc.lft.to/lastmile_qr_scan"}, "lon": -77.050431, "type": "electric_scooter", "fusion_lat": 0.0, "lat": 38.92363, "name": "3e2e1b9ea71e3d7f92f2c00c1a6e57e6", "fusion_lon": 0.0, "bike_id": "3e2e1b9ea71e3d7f92f2c00c1a6e57e6", "is_disabled": 0, "is_reserved": 0}, {"rental_uris": {"ios": "https://dc.lft.to/lastmile_qr_scan", "android": "https://dc.lft.to/lastmile_qr_scan"}, "lon": -77.01069883333334, "type": "electric_scooter", "fusion_lat": 0.0, "lat": 38.8747135, "name": "6b235b4c1a5257234a83a5c129894742", "fusion_lon": 0.0, "bike_id": "6b235b4c1a5257234a83a5c129894742", "is_disabled": 0, "is_reserved": 0}, {"rental_uris": {"ios": "https://dc.lft.to/lastmile_qr_scan", "android": "https://dc.lft.to/lastmile_qr_scan"}, "lon": -77.02601833333334, "type": "electric_scooter", "fusion_lat": 0.0, "lat": 38.90512566666666, "name": "2b4f157bc0f49e4d94b407734f4df867", "fusion_lon": 0.0, "bike_id": "2b4f157bc0f49e4d94b407734f4df867", "is_disabled": 0, "is_reserved": 0}, {"rental_uris": {"ios": "https://dc.lft.to/lastmile_qr_scan", "android": "https://dc.lft.to/lastmile_qr_scan"}, "lon": -77.00973666666667, "type": "electric_scooter", "fusion_lat": 0.0, "lat": 38.914143333333335, "name": "f3c980f8eaff9251d9c4eb48c9555fe9", "fusion_lon": 0.0, "bike_id": "f3c980f8eaff9251d9c4eb48c9555fe9", "is_disabled": 0, "is_reserved": 0}, {"rental_uris": {"ios": "https://dc.lft.to/lastmile_qr_scan", "android": "https://dc.lft.to/lastmile_qr_scan"}, "lon": -77.04673666666666, "type": "electric_scooter", "fusion_lat": 0.0, "lat": 38.905220166666666, "name": "d6d797bae5a9f84bf1e43d063e8690d9", "fusion_lon": 0.0, "bike_id": "d6d797bae5a9f84bf1e43d063e8690d9", "is_disabled": 0, "is_reserved": 0}, {"rental_uris": {"ios": "https://dc.lft.to/lastmile_qr_scan", "android": "https://dc.lft.to/lastmile_qr_scan"}, "lon": -77.02951266666666, "type": "electric_scooter", "fusion_lat": 0.0, "lat": 38.90501483333333, "name": "2b72445205ce46c9ecce423da4f8dc72", "fusion_lon": 0.0, "bike_id": "2b72445205ce46c9ecce423da4f8dc72", "is_disabled": 0, "is_reserved": 0}, {"rental_uris": {"ios": "https://dc.lft.to/lastmile_qr_scan", "android": "https://dc.lft.to/lastmile_qr_scan"}, "lon": -77.12624616666666, "type": "electric_bike", "fusion_lat": 0.0, "lat": 39.05810816666666, "name": "81d0a31642cd1c1fdd6868f978048f57", "fusion_lon": 0.0, "bike_id": "81d0a31642cd1c1fdd6868f978048f57", "is_disabled": 0, "is_reserved": 0}, {"rental_uris": {"ios": "https://dc.lft.to/lastmile_qr_scan", "android": "https://dc.lft.to/lastmile_qr_scan"}, "lon": -77.01402983333334, "type": "electric_scooter", "fusion_lat": 0.0, "lat": 38.928454, "name": "ffaaea184c121d3a41b88918b18692a2", "fusion_lon": 0.0, "bike_id": "ffaaea184c121d3a41b88918b18692a2", "is_disabled": 0, "is_reserved": 0}, {"rental_uris": {"ios": "https://dc.lft.to/lastmile_qr_scan", "android": "https://dc.lft.to/lastmile_qr_scan"}, "lon": -77.00520366666667, "type": "electric_scooter", "fusion_lat": 0.0, "lat": 38.905584166666664, "name": "8a988f5a92aea4b98583be7091b3f4dd", "fusion_lon": 0.0, "bike_id": "8a988f5a92aea4b98583be7091b3f4dd", "is_disabled": 0, "is_reserved": 0}, {"rental_uris": {"ios": "https://dc.lft.to/lastmile_qr_scan", "android": "https://dc.lft.to/lastmile_qr_scan"}, "lon": -77.17853116666667, "type": "electric_bike", "fusion_lat": 0.0, "lat": 39.08898283333333, "name": "e41d062f18f2a3cbb2c88c78a9e6d7bb", "fusion_lon": 0.0, "bike_id": "e41d062f18f2a3cbb2c88c78a9e6d7bb", "is_disabled": 0, "is_reserved": 0}, {"rental_uris": {"ios": "https://dc.lft.to/lastmile_qr_scan", "android": "https://dc.lft.to/lastmile_qr_scan"}, "lon": -76.98094783333333, "type": "electric_bike", "fusion_lat": 0.0, "lat": 38.953518333333335, "name": "8218c2645c9b7673ae4dd069967254a3", "fusion_lon": 0.0, "bike_id": "8218c2645c9b7673ae4dd069967254a3", "is_disabled": 0, "is_reserved": 0}, {"rental_uris": {"ios": "https://dc.lft.to/lastmile_qr_scan", "android": "https://dc.lft.to/lastmile_qr_scan"}, "lon": -76.97826133333334, "type": "electric_bike", "fusion_lat": 0.0, "lat": 38.84607116666667, "name": "928f092a40179fe094011b83933ba9f2", "fusion_lon": 0.0, "bike_id": "928f092a40179fe094011b83933ba9f2", "is_disabled": 0, "is_reserved": 0}, {"rental_uris": {"ios": "https://dc.lft.to/lastmile_qr_scan", "android": "https://dc.lft.to/lastmile_qr_scan"}, "lon": -77.0588255, "type": "electric_scooter", "fusion_lat": 0.0, "lat": 38.93634816666667, "name": "563453aeaa407985bb462cd412de201e", "fusion_lon": 0.0, "bike_id": "563453aeaa407985bb462cd412de201e", "is_disabled": 0, "is_reserved": 0}, {"rental_uris": {"ios": "https://dc.lft.to/lastmile_qr_scan", "android": "https://dc.lft.to/lastmile_qr_scan"}, "lon": -77.00577966666667, "type": "electric_scooter", "fusion_lat": 0.0, "lat": 38.872250666666666, "name": "ea501c465aa445e5c58eec9fc712d4c0", "fusion_lon": 0.0, "bike_id": "ea501c465aa445e5c58eec9fc712d4c0", "is_disabled": 0, "is_reserved": 0}, {"rental_uris": {"ios": "https://dc.lft.to/lastmile_qr_scan", "android": "https://dc.lft.to/lastmile_qr_scan"}, "lon": -77.02161783333334, "type": "electric_scooter", "fusion_lat": 0.0, "lat": 38.926094666666664, "name": "1fec186277f5ff9b53c7ecc191738422", "fusion_lon": 0.0, "bike_id": "1fec186277f5ff9b53c7ecc191738422", "is_disabled": 0, "is_reserved": 0}, {"rental_uris": {"ios": "https://dc.lft.to/lastmile_qr_scan", "android": "https://dc.lft.to/lastmile_qr_scan"}, "lon": -77.03474983333334, "type": "electric_scooter", "fusion_lat": 0.0, "lat": 38.92055716666667, "name": "00198181a82d26457f981e37fcf9744e", "fusion_lon": 0.0, "bike_id": "00198181a82d26457f981e37fcf9744e", "is_disabled": 0, "is_reserved": 0}, {"rental_uris": {"ios": "https://dc.lft.to/lastmile_qr_scan", "android": "https://dc.lft.to/lastmile_qr_scan"}, "lon": -77.0221885, "type": "electric_scooter", "fusion_lat": 0.0, "lat": 38.9386905, "name": "5c20906603f14abdaaf4e07327362d81", "fusion_lon": 0.0, "bike_id": "5c20906603f14abdaaf4e07327362d81", "is_disabled": 0, "is_reserved": 0}, {"rental_uris": {"ios": "https://dc.lft.to/lastmile_qr_scan", "android": "https://dc.lft.to/lastmile_qr_scan"}, "lon": -76.98614433333333, "type": "electric_scooter", "fusion_lat": 0.0, "lat": 38.868268, "name": "5c3bd75ece154a6e1975592073de45e5", "fusion_lon": 0.0, "bike_id": "5c3bd75ece154a6e1975592073de45e5", "is_disabled": 0, "is_reserved": 0}, {"rental_uris": {"ios": "https://dc.lft.to/lastmile_qr_scan", "android": "https://dc.lft.to/lastmile_qr_scan"}, "lon": -77.04506183333334, "type": "electric_scooter", "fusion_lat": 0.0, "lat": 38.912013, "name": "18b685fe69d26380b19bfede9974fa76", "fusion_lon": 0.0, "bike_id": "18b685fe69d26380b19bfede9974fa76", "is_disabled": 0, "is_reserved": 0}, {"rental_uris": {"ios": "https://dc.lft.to/lastmile_qr_scan", "android": "https://dc.lft.to/lastmile_qr_scan"}, "lon": -77.03101916666667, "type": "electric_scooter", "fusion_lat": 0.0, "lat": 38.9141405, "name": "45b71b41a4f784787d42cc164edf3ca5", "fusion_lon": 0.0, "bike_id": "45b71b41a4f784787d42cc164edf3ca5", "is_disabled": 0, "is_reserved": 0}, {"rental_uris": {"ios": "https://dc.lft.to/lastmile_qr_scan", "android": "https://dc.lft.to/lastmile_qr_scan"}, "lon": -77.042535, "type": "electric_scooter", "fusion_lat": 0.0, "lat": 38.91599, "name": "3e3074a731082539f08e0057d7bd3a23", "fusion_lon": 0.0, "bike_id": "3e3074a731082539f08e0057d7bd3a23", "is_disabled": 0, "is_reserved": 0}, {"rental_uris": {"ios": "https://dc.lft.to/lastmile_qr_scan", "android": "https://dc.lft.to/lastmile_qr_scan"}, "lon": -77.03719483333333, "type": "electric_scooter", "fusion_lat": 0.0, "lat": 38.90576033333333, "name": "4dcebad963f07fbf1595bd8d7af9a6cd", "fusion_lon": 0.0, "bike_id": "4dcebad963f07fbf1595bd8d7af9a6cd", "is_disabled": 0, "is_reserved": 0}, {"rental_uris": {"ios": "https://dc.lft.to/lastmile_qr_scan", "android": "https://dc.lft.to/lastmile_qr_scan"}, "lon": -77.01378816666667, "type": "electric_scooter", "fusion_lat": 0.0, "lat": 38.88654233333333, "name": "56c44b3ffce865a5482c77b26a1b0042", "fusion_lon": 0.0, "bike_id": "56c44b3ffce865a5482c77b26a1b0042", "is_disabled": 0, "is_reserved": 0}, {"rental_uris": {"ios": "https://dc.lft.to/lastmile_qr_scan", "android": "https://dc.lft.to/lastmile_qr_scan"}, "lon": -76.93175766666667, "type": "electric_scooter", "fusion_lat": 0.0, "lat": 38.898804, "name": "7e075111b246af0bf0a478450a4bcdc1", "fusion_lon": 0.0, "bike_id": "7e075111b246af0bf0a478450a4bcdc1", "is_disabled": 0, "is_reserved": 0}, {"rental_uris": {"ios": "https://dc.lft.to/lastmile_qr_scan", "android": "https://dc.lft.to/lastmile_qr_scan"}, "lon": -77.03447816666667, "type": "electric_scooter", "fusion_lat": 0.0, "lat": 38.909419166666666, "name": "fe725b11dc5f66b6ee88579ad7178962", "fusion_lon": 0.0, "bike_id": "fe725b11dc5f66b6ee88579ad7178962", "is_disabled": 0, "is_reserved": 0}, {"rental_uris": {"ios": "https://dc.lft.to/lastmile_qr_scan", "android": "https://dc.lft.to/lastmile_qr_scan"}, "lon": -76.95187716666666, "type": "electric_bike", "fusion_lat": 0.0, "lat": 38.90684066666667, "name": "bb16a614fe78947b0a73b70d9c13bec3", "fusion_lon": 0.0, "bike_id": "bb16a614fe78947b0a73b70d9c13bec3", "is_disabled": 0, "is_reserved": 0}, {"rental_uris": {"ios": "https://dc.lft.to/lastmile_qr_scan", "android": "https://dc.lft.to/lastmile_qr_scan"}, "lon": -76.99958866666667, "type": "electric_scooter", "fusion_lat": 0.0, "lat": 38.904898333333335, "name": "65db7a600528e1e3dd7e1ba770cfe83f", "fusion_lon": 0.0, "bike_id": "65db7a600528e1e3dd7e1ba770cfe83f", "is_disabled": 0, "is_reserved": 0}, {"rental_uris": {"ios": "https://dc.lft.to/lastmile_qr_scan", "android": "https://dc.lft.to/lastmile_qr_scan"}, "lon": -77.01103566666667, "type": "electric_scooter", "fusion_lat": 0.0, "lat": 38.903509666666665, "name": "82387d8bda47109a3cf05e92b1f6ae71", "fusion_lon": 0.0, "bike_id": "82387d8bda47109a3cf05e92b1f6ae71", "is_disabled": 0, "is_reserved": 0}, {"rental_uris": {"ios": "https://dc.lft.to/lastmile_qr_scan", "android": "https://dc.lft.to/lastmile_qr_scan"}, "lon": -77.08190533333334, "type": "electric_bike", "fusion_lat": 0.0, "lat": 38.92201033333333, "name": "6d811fe83ccb2eac11026be50beb2795", "fusion_lon": 0.0, "bike_id": "6d811fe83ccb2eac11026be50beb2795", "is_disabled": 0, "is_reserved": 0}, {"rental_uris": {"ios": "https://dc.lft.to/lastmile_qr_scan", "android": "https://dc.lft.to/lastmile_qr_scan"}, "lon": -77.07149083333333, "type": "electric_scooter", "fusion_lat": 0.0, "lat": 38.95277466666667, "name": "d3ed92b7abdab692eb9aef3ef8a66c6f", "fusion_lon": 0.0, "bike_id": "d3ed92b7abdab692eb9aef3ef8a66c6f", "is_disabled": 0, "is_reserved": 0}, {"rental_uris": {"ios": "https://dc.lft.to/lastmile_qr_scan", "android": "https://dc.lft.to/lastmile_qr_scan"}, "lon": -77.03670616666666, "type": "electric_scooter", "fusion_lat": 0.0, "lat": 38.9187225, "name": "852611f8c27aa60d78604b66266d65aa", "fusion_lon": 0.0, "bike_id": "852611f8c27aa60d78604b66266d65aa", "is_disabled": 0, "is_reserved": 0}, {"rental_uris": {"ios": "https://dc.lft.to/lastmile_qr_scan", "android": "https://dc.lft.to/lastmile_qr_scan"}, "lon": -77.042891, "type": "electric_scooter", "fusion_lat": 0.0, "lat": 38.89528933333333, "name": "ba4e3a10b8e48d3cd3075ce447e04d6a", "fusion_lon": 0.0, "bike_id": "ba4e3a10b8e48d3cd3075ce447e04d6a", "is_disabled": 0, "is_reserved": 0}, {"rental_uris": {"ios": "https://dc.lft.to/lastmile_qr_scan", "android": "https://dc.lft.to/lastmile_qr_scan"}, "lon": -76.9889445, "type": "electric_scooter", "fusion_lat": 0.0, "lat": 38.8669315, "name": "720dc95dff0dea6d814ab4d95abe1b2e", "fusion_lon": 0.0, "bike_id": "720dc95dff0dea6d814ab4d95abe1b2e", "is_disabled": 0, "is_reserved": 0}, {"rental_uris": {"ios": "https://dc.lft.to/lastmile_qr_scan", "android": "https://dc.lft.to/lastmile_qr_scan"}, "lon": -76.950636, "type": "electric_bike", "fusion_lat": 0.0, "lat": 38.9351665, "name": "cce11c3943c27d42522275fd57e0b07d", "fusion_lon": 0.0, "bike_id": "cce11c3943c27d42522275fd57e0b07d", "is_disabled": 0, "is_reserved": 0}, {"rental_uris": {"ios": "https://dc.lft.to/lastmile_qr_scan", "android": "https://dc.lft.to/lastmile_qr_scan"}, "lon": -77.04875666666666, "type": "electric_bike", "fusion_lat": 0.0, "lat": 38.9010075, "name": "5fb3ad9adf08d16dc56792b45842adf7", "fusion_lon": 0.0, "bike_id": "5fb3ad9adf08d16dc56792b45842adf7", "is_disabled": 0, "is_reserved": 0}, {"rental_uris": {"ios": "https://dc.lft.to/lastmile_qr_scan", "android": "https://dc.lft.to/lastmile_qr_scan"}, "lon": -77.05696883333333, "type": "electric_scooter", "fusion_lat": 0.0, "lat": 38.905364666666664, "name": "e00338da390b4a83203867fdc05587e6", "fusion_lon": 0.0, "bike_id": "e00338da390b4a83203867fdc05587e6", "is_disabled": 0, "is_reserved": 0}, {"rental_uris": {"ios": "https://dc.lft.to/lastmile_qr_scan", "android": "https://dc.lft.to/lastmile_qr_scan"}, "lon": -76.98704083333334, "type": "electric_scooter", "fusion_lat": 0.0, "lat": 38.865369, "name": "bca39ef3d2afc353c337fe7cecfc7f51", "fusion_lon": 0.0, "bike_id": "bca39ef3d2afc353c337fe7cecfc7f51", "is_disabled": 0, "is_reserved": 0}, {"rental_uris": {"ios": "https://dc.lft.to/lastmile_qr_scan", "android": "https://dc.lft.to/lastmile_qr_scan"}, "lon": -77.021398, "type": "electric_scooter", "fusion_lat": 0.0, "lat": 38.9160165, "name": "97140c7ed5493bea68243682a94a3202", "fusion_lon": 0.0, "bike_id": "97140c7ed5493bea68243682a94a3202", "is_disabled": 0, "is_reserved": 0}, {"rental_uris": {"ios": "https://dc.lft.to/lastmile_qr_scan", "android": "https://dc.lft.to/lastmile_qr_scan"}, "lon": -76.9871465, "type": "electric_scooter", "fusion_lat": 0.0, "lat": 38.9026495, "name": "a3245f9443a44d992719b7c0151d35c4", "fusion_lon": 0.0, "bike_id": "a3245f9443a44d992719b7c0151d35c4", "is_disabled": 0, "is_reserved": 0}, {"rental_uris": {"ios": "https://dc.lft.to/lastmile_qr_scan", "android": "https://dc.lft.to/lastmile_qr_scan"}, "lon": -77.17837033333333, "type": "electric_bike", "fusion_lat": 0.0, "lat": 39.08855283333333, "name": "ae2995aedbd3e923ccec329efba1d636", "fusion_lon": 0.0, "bike_id": "ae2995aedbd3e923ccec329efba1d636", "is_disabled": 0, "is_reserved": 0}, {"rental_uris": {"ios": "https://dc.lft.to/lastmile_qr_scan", "android": "https://dc.lft.to/lastmile_qr_scan"}, "lon": -77.03425966666667, "type": "electric_scooter", "fusion_lat": 0.0, "lat": 38.9096305, "name": "7a574d71a098f21bccdadbfe18508c19", "fusion_lon": 0.0, "bike_id": "7a574d71a098f21bccdadbfe18508c19", "is_disabled": 0, "is_reserved": 0}, {"rental_uris": {"ios": "https://dc.lft.to/lastmile_qr_scan", "android": "https://dc.lft.to/lastmile_qr_scan"}, "lon": -77.01187583333333, "type": "electric_scooter", "fusion_lat": 0.0, "lat": 38.9002935, "name": "e3673407573b200041099f22c4d7dccd", "fusion_lon": 0.0, "bike_id": "e3673407573b200041099f22c4d7dccd", "is_disabled": 0, "is_reserved": 0}, {"rental_uris": {"ios": "https://dc.lft.to/lastmile_qr_scan", "android": "https://dc.lft.to/lastmile_qr_scan"}, "lon": -76.98707733333333, "type": "electric_scooter", "fusion_lat": 0.0, "lat": 38.8653805, "name": "6a94bc9ba481b57164901c1ecb62ce35", "fusion_lon": 0.0, "bike_id": "6a94bc9ba481b57164901c1ecb62ce35", "is_disabled": 0, "is_reserved": 0}, {"rental_uris": {"ios": "https://dc.lft.to/lastmile_qr_scan", "android": "https://dc.lft.to/lastmile_qr_scan"}, "lon": -77.03752416666667, "type": "electric_scooter", "fusion_lat": 0.0, "lat": 38.929025333333335, "name": "e242904281cc41f830974dbbeb74e0dc", "fusion_lon": 0.0, "bike_id": "e242904281cc41f830974dbbeb74e0dc", "is_disabled": 0, "is_reserved": 0}, {"rental_uris": {"ios": "https://dc.lft.to/lastmile_qr_scan", "android": "https://dc.lft.to/lastmile_qr_scan"}, "lon": -77.0381965, "type": "electric_scooter", "fusion_lat": 0.0, "lat": 38.909591666666664, "name": "b599790c1ff70a41f8bac60b05edabdf", "fusion_lon": 0.0, "bike_id": "b599790c1ff70a41f8bac60b05edabdf", "is_disabled": 0, "is_reserved": 0}, {"rental_uris": {"ios": "https://dc.lft.to/lastmile_qr_scan", "android": "https://dc.lft.to/lastmile_qr_scan"}, "lon": -77.005243, "type": "electric_scooter", "fusion_lat": 0.0, "lat": 38.92897583333333, "name": "2b5f9d15affd1273afee299631daa403", "fusion_lon": 0.0, "bike_id": "2b5f9d15affd1273afee299631daa403", "is_disabled": 0, "is_reserved": 0}, {"rental_uris": {"ios": "https://dc.lft.to/lastmile_qr_scan", "android": "https://dc.lft.to/lastmile_qr_scan"}, "lon": -77.07709516666667, "type": "electric_scooter", "fusion_lat": 0.0, "lat": 38.956131, "name": "d5ae35e1c3ac81a6d6cb3bb08c42f28b", "fusion_lon": 0.0, "bike_id": "d5ae35e1c3ac81a6d6cb3bb08c42f28b", "is_disabled": 0, "is_reserved": 0}, {"rental_uris": {"ios": "https://dc.lft.to/lastmile_qr_scan", "android": "https://dc.lft.to/lastmile_qr_scan"}, "lon": -77.035412, "type": "electric_scooter", "fusion_lat": 0.0, "lat": 38.91804666666667, "name": "b34b00d87959670804e3f909e7f58b6d", "fusion_lon": 0.0, "bike_id": "b34b00d87959670804e3f909e7f58b6d", "is_disabled": 0, "is_reserved": 0}, {"rental_uris": {"ios": "https://dc.lft.to/lastmile_qr_scan", "android": "https://dc.lft.to/lastmile_qr_scan"}, "lon": -77.03341733333333, "type": "electric_scooter", "fusion_lat": 0.0, "lat": 38.900435, "name": "e0faa1788f780cbd1d05f9a7aeb35ea4", "fusion_lon": 0.0, "bike_id": "e0faa1788f780cbd1d05f9a7aeb35ea4", "is_disabled": 0, "is_reserved": 0}, {"rental_uris": {"ios": "https://dc.lft.to/lastmile_qr_scan", "android": "https://dc.lft.to/lastmile_qr_scan"}, "lon": -77.03181633333334, "type": "electric_scooter", "fusion_lat": 0.0, "lat": 38.89963783333334, "name": "6bab153dbdb639bf3538bf3d763ab1a6", "fusion_lon": 0.0, "bike_id": "6bab153dbdb639bf3538bf3d763ab1a6", "is_disabled": 0, "is_reserved": 0}, {"rental_uris": {"ios": "https://dc.lft.to/lastmile_qr_scan", "android": "https://dc.lft.to/lastmile_qr_scan"}, "lon": -77.00207016666667, "type": "electric_scooter", "fusion_lat": 0.0, "lat": 38.897236166666666, "name": "9051054eae444401a12d2bdc06c85b19", "fusion_lon": 0.0, "bike_id": "9051054eae444401a12d2bdc06c85b19", "is_disabled": 0, "is_reserved": 0}, {"rental_uris": {"ios": "https://dc.lft.to/lastmile_qr_scan", "android": "https://dc.lft.to/lastmile_qr_scan"}, "lon": -77.02416633333333, "type": "electric_scooter", "fusion_lat": 0.0, "lat": 38.921792833333335, "name": "561966ce6e12ce313ec41f002a9e0bc7", "fusion_lon": 0.0, "bike_id": "561966ce6e12ce313ec41f002a9e0bc7", "is_disabled": 0, "is_reserved": 0}, {"rental_uris": {"ios": "https://dc.lft.to/lastmile_qr_scan", "android": "https://dc.lft.to/lastmile_qr_scan"}, "lon": -77.042109, "type": "electric_scooter", "fusion_lat": 0.0, "lat": 38.90724216666667, "name": "e2429a8e34f9d8cf452edc1f016bf69c", "fusion_lon": 0.0, "bike_id": "e2429a8e34f9d8cf452edc1f016bf69c", "is_disabled": 0, "is_reserved": 0}, {"rental_uris": {"ios": "https://dc.lft.to/lastmile_qr_scan", "android": "https://dc.lft.to/lastmile_qr_scan"}, "lon": -76.98200733333333, "type": "electric_scooter", "fusion_lat": 0.0, "lat": 38.903924833333335, "name": "4e602e71942885bb700431755eba4329", "fusion_lon": 0.0, "bike_id": "4e602e71942885bb700431755eba4329", "is_disabled": 0, "is_reserved": 0}, {"rental_uris": {"ios": "https://dc.lft.to/lastmile_qr_scan", "android": "https://dc.lft.to/lastmile_qr_scan"}, "lon": -77.02280033333334, "type": "electric_scooter", "fusion_lat": 0.0, "lat": 38.87842033333333, "name": "653bf7ca65b0565d7571efcd8d2de939", "fusion_lon": 0.0, "bike_id": "653bf7ca65b0565d7571efcd8d2de939", "is_disabled": 0, "is_reserved": 0}, {"rental_uris": {"ios": "https://dc.lft.to/lastmile_qr_scan", "android": "https://dc.lft.to/lastmile_qr_scan"}, "lon": -77.07093483333334, "type": "electric_scooter", "fusion_lat": 0.0, "lat": 38.899133166666665, "name": "13c34185609922b923549718a3953a2c", "fusion_lon": 0.0, "bike_id": "13c34185609922b923549718a3953a2c", "is_disabled": 0, "is_reserved": 0}, {"rental_uris": {"ios": "https://dc.lft.to/lastmile_qr_scan", "android": "https://dc.lft.to/lastmile_qr_scan"}, "lon": -77.03133083333333, "type": "electric_scooter", "fusion_lat": 0.0, "lat": 38.911249, "name": "ce58f9bf3c663ee0a302b5a44ee90864", "fusion_lon": 0.0, "bike_id": "ce58f9bf3c663ee0a302b5a44ee90864", "is_disabled": 0, "is_reserved": 0}, {"rental_uris": {"ios": "https://dc.lft.to/lastmile_qr_scan", "android": "https://dc.lft.to/lastmile_qr_scan"}, "lon": -77.0415795, "type": "electric_scooter", "fusion_lat": 0.0, "lat": 38.91501816666667, "name": "9fc4aef7d692d4f9112593aad1c6f432", "fusion_lon": 0.0, "bike_id": "9fc4aef7d692d4f9112593aad1c6f432", "is_disabled": 0, "is_reserved": 0}, {"rental_uris": {"ios": "https://dc.lft.to/lastmile_qr_scan", "android": "https://dc.lft.to/lastmile_qr_scan"}, "lon": -77.0513425, "type": "electric_scooter", "fusion_lat": 0.0, "lat": 38.90613333333334, "name": "4978d8c1cf2822aa22e0170b7faf9b55", "fusion_lon": 0.0, "bike_id": "4978d8c1cf2822aa22e0170b7faf9b55", "is_disabled": 0, "is_reserved": 0}, {"rental_uris": {"ios": "https://dc.lft.to/lastmile_qr_scan", "android": "https://dc.lft.to/lastmile_qr_scan"}, "lon": -77.02268783333334, "type": "electric_scooter", "fusion_lat": 0.0, "lat": 38.924096, "name": "41afc765602f28fc85889a2e9616135a", "fusion_lon": 0.0, "bike_id": "41afc765602f28fc85889a2e9616135a", "is_disabled": 0, "is_reserved": 0}, {"rental_uris": {"ios": "https://dc.lft.to/lastmile_qr_scan", "android": "https://dc.lft.to/lastmile_qr_scan"}, "lon": -77.03139816666666, "type": "electric_scooter", "fusion_lat": 0.0, "lat": 38.927168333333334, "name": "4e7bb7fea32cbe54a0454b0a5ef7ac27", "fusion_lon": 0.0, "bike_id": "4e7bb7fea32cbe54a0454b0a5ef7ac27", "is_disabled": 0, "is_reserved": 0}, {"rental_uris": {"ios": "https://dc.lft.to/lastmile_qr_scan", "android": "https://dc.lft.to/lastmile_qr_scan"}, "lon": -77.01170783333333, "type": "electric_bike", "fusion_lat": 0.0, "lat": 38.872360666666665, "name": "34c089f7860bb453862d4ee61341492f", "fusion_lon": 0.0, "bike_id": "34c089f7860bb453862d4ee61341492f", "is_disabled": 0, "is_reserved": 0}, {"rental_uris": {"ios": "https://dc.lft.to/lastmile_qr_scan", "android": "https://dc.lft.to/lastmile_qr_scan"}, "lon": -77.03798083333334, "type": "electric_scooter", "fusion_lat": 0.0, "lat": 38.92506516666667, "name": "d4bf175888573cedcfb0cf085f4f7ec0", "fusion_lon": 0.0, "bike_id": "d4bf175888573cedcfb0cf085f4f7ec0", "is_disabled": 0, "is_reserved": 0}, {"rental_uris": {"ios": "https://dc.lft.to/lastmile_qr_scan", "android": "https://dc.lft.to/lastmile_qr_scan"}, "lon": -76.9081635, "type": "electric_bike", "fusion_lat": 0.0, "lat": 38.99450216666666, "name": "73efa2f61bde70c65cb18eca95d55972", "fusion_lon": 0.0, "bike_id": "73efa2f61bde70c65cb18eca95d55972", "is_disabled": 0, "is_reserved": 0}, {"rental_uris": {"ios": "https://dc.lft.to/lastmile_qr_scan", "android": "https://dc.lft.to/lastmile_qr_scan"}, "lon": -77.04818733333333, "type": "electric_scooter", "fusion_lat": 0.0, "lat": 38.913337166666665, "name": "7f065125bc7e7ca18ec9205b917ff027", "fusion_lon": 0.0, "bike_id": "7f065125bc7e7ca18ec9205b917ff027", "is_disabled": 0, "is_reserved": 0}, {"rental_uris": {"ios": "https://dc.lft.to/lastmile_qr_scan", "android": "https://dc.lft.to/lastmile_qr_scan"}, "lon": -76.99955033333333, "type": "electric_scooter", "fusion_lat": 0.0, "lat": 38.9086475, "name": "a3b956a8e1c7c3c130cfa82e395f08d9", "fusion_lon": 0.0, "bike_id": "a3b956a8e1c7c3c130cfa82e395f08d9", "is_disabled": 0, "is_reserved": 0}, {"rental_uris": {"ios": "https://dc.lft.to/lastmile_qr_scan", "android": "https://dc.lft.to/lastmile_qr_scan"}, "lon": -77.05925366666666, "type": "electric_scooter", "fusion_lat": 0.0, "lat": 38.90548016666666, "name": "c7cb7025c3787f94ebf8518300bf381f", "fusion_lon": 0.0, "bike_id": "c7cb7025c3787f94ebf8518300bf381f", "is_disabled": 0, "is_reserved": 0}, {"rental_uris": {"ios": "https://dc.lft.to/lastmile_qr_scan", "android": "https://dc.lft.to/lastmile_qr_scan"}, "lon": -77.027655, "type": "electric_scooter", "fusion_lat": 0.0, "lat": 38.905033333333336, "name": "448d196a234a9eafbb1ba2f45ab85dce", "fusion_lon": 0.0, "bike_id": "448d196a234a9eafbb1ba2f45ab85dce", "is_disabled": 0, "is_reserved": 0}, {"rental_uris": {"ios": "https://dc.lft.to/lastmile_qr_scan", "android": "https://dc.lft.to/lastmile_qr_scan"}, "lon": -76.93175633333334, "type": "electric_scooter", "fusion_lat": 0.0, "lat": 38.89882566666667, "name": "946bec0f1cf274039966943a45bf8911", "fusion_lon": 0.0, "bike_id": "946bec0f1cf274039966943a45bf8911", "is_disabled": 0, "is_reserved": 0}, {"rental_uris": {"ios": "https://dc.lft.to/lastmile_qr_scan", "android": "https://dc.lft.to/lastmile_qr_scan"}, "lon": -76.975079, "type": "electric_scooter", "fusion_lat": 0.0, "lat": 38.86920283333333, "name": "75f57cab32b179ca2b74c88951b8d22c", "fusion_lon": 0.0, "bike_id": "75f57cab32b179ca2b74c88951b8d22c", "is_disabled": 0, "is_reserved": 0}, {"rental_uris": {"ios": "https://dc.lft.to/lastmile_qr_scan", "android": "https://dc.lft.to/lastmile_qr_scan"}, "lon": -77.07253766666666, "type": "electric_scooter", "fusion_lat": 0.0, "lat": 38.9332, "name": "69c8d887b4a774be4b9d604112a6429b", "fusion_lon": 0.0, "bike_id": "69c8d887b4a774be4b9d604112a6429b", "is_disabled": 0, "is_reserved": 0}, {"rental_uris": {"ios": "https://dc.lft.to/lastmile_qr_scan", "android": "https://dc.lft.to/lastmile_qr_scan"}, "lon": -77.05899266666667, "type": "electric_scooter", "fusion_lat": 0.0, "lat": 38.90216, "name": "0f6140d1f5ab611b7c3ab3ce08d3d2a2", "fusion_lon": 0.0, "bike_id": "0f6140d1f5ab611b7c3ab3ce08d3d2a2", "is_disabled": 0, "is_reserved": 0}, {"rental_uris": {"ios": "https://dc.lft.to/lastmile_qr_scan", "android": "https://dc.lft.to/lastmile_qr_scan"}, "lon": -77.02071116666667, "type": "electric_scooter", "fusion_lat": 0.0, "lat": 38.915491333333335, "name": "b99328e0e49fd78208675fa4e9c8379e", "fusion_lon": 0.0, "bike_id": "b99328e0e49fd78208675fa4e9c8379e", "is_disabled": 0, "is_reserved": 0}, {"rental_uris": {"ios": "https://dc.lft.to/lastmile_qr_scan", "android": "https://dc.lft.to/lastmile_qr_scan"}, "lon": -77.02189, "type": "electric_scooter", "fusion_lat": 0.0, "lat": 38.898787, "name": "51ce261734dad9062b56ae2d034c9bd0", "fusion_lon": 0.0, "bike_id": "51ce261734dad9062b56ae2d034c9bd0", "is_disabled": 0, "is_reserved": 0}, {"rental_uris": {"ios": "https://dc.lft.to/lastmile_qr_scan", "android": "https://dc.lft.to/lastmile_qr_scan"}, "lon": -76.99511433333333, "type": "electric_scooter", "fusion_lat": 0.0, "lat": 38.899578166666664, "name": "86b09515b9604880f0f839e6a75c813f", "fusion_lon": 0.0, "bike_id": "86b09515b9604880f0f839e6a75c813f", "is_disabled": 0, "is_reserved": 0}, {"rental_uris": {"ios": "https://dc.lft.to/lastmile_qr_scan", "android": "https://dc.lft.to/lastmile_qr_scan"}, "lon": -77.03461566666667, "type": "electric_scooter", "fusion_lat": 0.0, "lat": 38.91672916666667, "name": "7f55dda2db9820cc3c2d920e4d0ba999", "fusion_lon": 0.0, "bike_id": "7f55dda2db9820cc3c2d920e4d0ba999", "is_disabled": 0, "is_reserved": 0}, {"rental_uris": {"ios": "https://dc.lft.to/lastmile_qr_scan", "android": "https://dc.lft.to/lastmile_qr_scan"}, "lon": -77.052201, "type": "electric_scooter", "fusion_lat": 0.0, "lat": 38.92491783333333, "name": "f4ecb31be548bce738c0cd32f74fa9af", "fusion_lon": 0.0, "bike_id": "f4ecb31be548bce738c0cd32f74fa9af", "is_disabled": 0, "is_reserved": 0}, {"rental_uris": {"ios": "https://dc.lft.to/lastmile_qr_scan", "android": "https://dc.lft.to/lastmile_qr_scan"}, "lon": -77.021015, "type": "electric_scooter", "fusion_lat": 0.0, "lat": 38.8791565, "name": "cf015473a027323d3c43857d551f5bc4", "fusion_lon": 0.0, "bike_id": "cf015473a027323d3c43857d551f5bc4", "is_disabled": 0, "is_reserved": 0}, {"rental_uris": {"ios": "https://dc.lft.to/lastmile_qr_scan", "android": "https://dc.lft.to/lastmile_qr_scan"}, "lon": -77.0321585, "type": "electric_scooter", "fusion_lat": 0.0, "lat": 38.91815366666667, "name": "7c1f815ea94e9a773954943689bf6fad", "fusion_lon": 0.0, "bike_id": "7c1f815ea94e9a773954943689bf6fad", "is_disabled": 0, "is_reserved": 0}, {"rental_uris": {"ios": "https://dc.lft.to/lastmile_qr_scan", "android": "https://dc.lft.to/lastmile_qr_scan"}, "lon": -77.05601366666667, "type": "electric_scooter", "fusion_lat": 0.0, "lat": 38.93688783333333, "name": "5b8edf082a108eecce8b912ecb213e44", "fusion_lon": 0.0, "bike_id": "5b8edf082a108eecce8b912ecb213e44", "is_disabled": 0, "is_reserved": 0}, {"rental_uris": {"ios": "https://dc.lft.to/lastmile_qr_scan", "android": "https://dc.lft.to/lastmile_qr_scan"}, "lon": -77.00296366666667, "type": "electric_scooter", "fusion_lat": 0.0, "lat": 38.9087925, "name": "f53507203d6fcfe8f281ca0ae57a9df5", "fusion_lon": 0.0, "bike_id": "f53507203d6fcfe8f281ca0ae57a9df5", "is_disabled": 0, "is_reserved": 0}, {"rental_uris": {"ios": "https://dc.lft.to/lastmile_qr_scan", "android": "https://dc.lft.to/lastmile_qr_scan"}, "lon": -77.0020785, "type": "electric_scooter", "fusion_lat": 0.0, "lat": 38.900305333333336, "name": "462e37c5b003c457e854a26a8ef9b685", "fusion_lon": 0.0, "bike_id": "462e37c5b003c457e854a26a8ef9b685", "is_disabled": 0, "is_reserved": 0}, {"rental_uris": {"ios": "https://dc.lft.to/lastmile_qr_scan", "android": "https://dc.lft.to/lastmile_qr_scan"}, "lon": -77.03444233333333, "type": "electric_scooter", "fusion_lat": 0.0, "lat": 38.909691333333335, "name": "ee171211fd49120c2537864774157744", "fusion_lon": 0.0, "bike_id": "ee171211fd49120c2537864774157744", "is_disabled": 0, "is_reserved": 0}, {"rental_uris": {"ios": "https://dc.lft.to/lastmile_qr_scan", "android": "https://dc.lft.to/lastmile_qr_scan"}, "lon": -77.04999866666667, "type": "electric_scooter", "fusion_lat": 0.0, "lat": 38.892305, "name": "95796e64cde3cbbe501b4c2f55d66262", "fusion_lon": 0.0, "bike_id": "95796e64cde3cbbe501b4c2f55d66262", "is_disabled": 0, "is_reserved": 0}, {"rental_uris": {"ios": "https://dc.lft.to/lastmile_qr_scan", "android": "https://dc.lft.to/lastmile_qr_scan"}, "lon": -76.995192, "type": "electric_scooter", "fusion_lat": 0.0, "lat": 38.86259583333333, "name": "898d94ea57e4f062ce896ecccf6f1fb9", "fusion_lon": 0.0, "bike_id": "898d94ea57e4f062ce896ecccf6f1fb9", "is_disabled": 0, "is_reserved": 0}, {"rental_uris": {"ios": "https://dc.lft.to/lastmile_qr_scan", "android": "https://dc.lft.to/lastmile_qr_scan"}, "lon": -77.03664583333334, "type": "electric_scooter", "fusion_lat": 0.0, "lat": 38.932045, "name": "885685dab1eb4120c0e6d3f5085d465e", "fusion_lon": 0.0, "bike_id": "885685dab1eb4120c0e6d3f5085d465e", "is_disabled": 0, "is_reserved": 0}, {"rental_uris": {"ios": "https://dc.lft.to/lastmile_qr_scan", "android": "https://dc.lft.to/lastmile_qr_scan"}, "lon": -77.02359183333333, "type": "electric_scooter", "fusion_lat": 0.0, "lat": 38.9452245, "name": "018a23fd53d47c5284b17131e49fcc43", "fusion_lon": 0.0, "bike_id": "018a23fd53d47c5284b17131e49fcc43", "is_disabled": 0, "is_reserved": 0}, {"rental_uris": {"ios": "https://dc.lft.to/lastmile_qr_scan", "android": "https://dc.lft.to/lastmile_qr_scan"}, "lon": -77.023904, "type": "electric_scooter", "fusion_lat": 0.0, "lat": 38.89898683333333, "name": "f377b31c1cbff9c2dc87830afd4334eb", "fusion_lon": 0.0, "bike_id": "f377b31c1cbff9c2dc87830afd4334eb", "is_disabled": 0, "is_reserved": 0}, {"rental_uris": {"ios": "https://dc.lft.to/lastmile_qr_scan", "android": "https://dc.lft.to/lastmile_qr_scan"}, "lon": -77.038369, "type": "electric_scooter", "fusion_lat": 0.0, "lat": 38.9155635, "name": "2d36b378f155488cbc6d82a60331831f", "fusion_lon": 0.0, "bike_id": "2d36b378f155488cbc6d82a60331831f", "is_disabled": 0, "is_reserved": 0}, {"rental_uris": {"ios": "https://dc.lft.to/lastmile_qr_scan", "android": "https://dc.lft.to/lastmile_qr_scan"}, "lon": -77.0297075, "type": "electric_scooter", "fusion_lat": 0.0, "lat": 38.936107666666665, "name": "29d696c832d33dd0ad729573d7f5a4a9", "fusion_lon": 0.0, "bike_id": "29d696c832d33dd0ad729573d7f5a4a9", "is_disabled": 0, "is_reserved": 0}, {"rental_uris": {"ios": "https://dc.lft.to/lastmile_qr_scan", "android": "https://dc.lft.to/lastmile_qr_scan"}, "lon": -76.99447033333334, "type": "electric_scooter", "fusion_lat": 0.0, "lat": 38.90012183333333, "name": "7262fac353edc89baf5aed9b606f38ea", "fusion_lon": 0.0, "bike_id": "7262fac353edc89baf5aed9b606f38ea", "is_disabled": 0, "is_reserved": 0}, {"rental_uris": {"ios": "https://dc.lft.to/lastmile_qr_scan", "android": "https://dc.lft.to/lastmile_qr_scan"}, "lon": -77.0528715, "type": "electric_scooter", "fusion_lat": 0.0, "lat": 38.910562, "name": "2ce651f71d669c8a9d4817f8a7c9f003", "fusion_lon": 0.0, "bike_id": "2ce651f71d669c8a9d4817f8a7c9f003", "is_disabled": 0, "is_reserved": 0}, {"rental_uris": {"ios": "https://dc.lft.to/lastmile_qr_scan", "android": "https://dc.lft.to/lastmile_qr_scan"}, "lon": -77.0438015, "type": "electric_scooter", "fusion_lat": 0.0, "lat": 38.920697, "name": "f927295b97bee0d2e8a0b3c986c5f9e6", "fusion_lon": 0.0, "bike_id": "f927295b97bee0d2e8a0b3c986c5f9e6", "is_disabled": 0, "is_reserved": 0}, {"rental_uris": {"ios": "https://dc.lft.to/lastmile_qr_scan", "android": "https://dc.lft.to/lastmile_qr_scan"}, "lon": -77.04866116666666, "type": "electric_scooter", "fusion_lat": 0.0, "lat": 38.906399, "name": "502dbdf3bac71b32df28f4548729f94b", "fusion_lon": 0.0, "bike_id": "502dbdf3bac71b32df28f4548729f94b", "is_disabled": 0, "is_reserved": 0}, {"rental_uris": {"ios": "https://dc.lft.to/lastmile_qr_scan", "android": "https://dc.lft.to/lastmile_qr_scan"}, "lon": -77.04388016666667, "type": "electric_scooter", "fusion_lat": 0.0, "lat": 38.910316, "name": "7b9c2742291ed3949ce3e36c8d265058", "fusion_lon": 0.0, "bike_id": "7b9c2742291ed3949ce3e36c8d265058", "is_disabled": 0, "is_reserved": 0}, {"rental_uris": {"ios": "https://dc.lft.to/lastmile_qr_scan", "android": "https://dc.lft.to/lastmile_qr_scan"}, "lon": -77.04566266666667, "type": "electric_scooter", "fusion_lat": 0.0, "lat": 38.91419233333333, "name": "e52ace397c3e35a40e5ba2a77f578b50", "fusion_lon": 0.0, "bike_id": "e52ace397c3e35a40e5ba2a77f578b50", "is_disabled": 0, "is_reserved": 0}, {"rental_uris": {"ios": "https://dc.lft.to/lastmile_qr_scan", "android": "https://dc.lft.to/lastmile_qr_scan"}, "lon": -76.89536716666667, "type": "electric_bike", "fusion_lat": 0.0, "lat": 38.94547683333333, "name": "b3ff1eaa44f75c6d5dfde6c23ad67aa1", "fusion_lon": 0.0, "bike_id": "b3ff1eaa44f75c6d5dfde6c23ad67aa1", "is_disabled": 0, "is_reserved": 0}, {"rental_uris": {"ios": "https://dc.lft.to/lastmile_qr_scan", "android": "https://dc.lft.to/lastmile_qr_scan"}, "lon": -76.94870783333333, "type": "electric_scooter", "fusion_lat": 0.0, "lat": 38.89484266666667, "name": "bb2a8688fca78aa6d3aee16652362be3", "fusion_lon": 0.0, "bike_id": "bb2a8688fca78aa6d3aee16652362be3", "is_disabled": 0, "is_reserved": 0}, {"rental_uris": {"ios": "https://dc.lft.to/lastmile_qr_scan", "android": "https://dc.lft.to/lastmile_qr_scan"}, "lon": -77.0227465, "type": "electric_scooter", "fusion_lat": 0.0, "lat": 38.89612133333333, "name": "1a4e009e57c35d8901d2ca8a16e978b4", "fusion_lon": 0.0, "bike_id": "1a4e009e57c35d8901d2ca8a16e978b4", "is_disabled": 0, "is_reserved": 0}, {"rental_uris": {"ios": "https://dc.lft.to/lastmile_qr_scan", "android": "https://dc.lft.to/lastmile_qr_scan"}, "lon": -77.02459316666666, "type": "electric_scooter", "fusion_lat": 0.0, "lat": 38.91688533333333, "name": "7719125fa9b4334fd8e3ac790df697e4", "fusion_lon": 0.0, "bike_id": "7719125fa9b4334fd8e3ac790df697e4", "is_disabled": 0, "is_reserved": 0}, {"rental_uris": {"ios": "https://dc.lft.to/lastmile_qr_scan", "android": "https://dc.lft.to/lastmile_qr_scan"}, "lon": -77.04552616666666, "type": "electric_scooter", "fusion_lat": 0.0, "lat": 38.9037025, "name": "49575ad9baff7dd1f34abf215122d644", "fusion_lon": 0.0, "bike_id": "49575ad9baff7dd1f34abf215122d644", "is_disabled": 0, "is_reserved": 0}, {"rental_uris": {"ios": "https://dc.lft.to/lastmile_qr_scan", "android": "https://dc.lft.to/lastmile_qr_scan"}, "lon": -77.04302933333334, "type": "electric_scooter", "fusion_lat": 0.0, "lat": 38.90551933333333, "name": "82e438001fa4884ac022ded450e0085c", "fusion_lon": 0.0, "bike_id": "82e438001fa4884ac022ded450e0085c", "is_disabled": 0, "is_reserved": 0}, {"rental_uris": {"ios": "https://dc.lft.to/lastmile_qr_scan", "android": "https://dc.lft.to/lastmile_qr_scan"}, "lon": -76.99142733333333, "type": "electric_scooter", "fusion_lat": 0.0, "lat": 38.893387833333335, "name": "0fe5b92fbf66411fe7cc3e38027d8f2d", "fusion_lon": 0.0, "bike_id": "0fe5b92fbf66411fe7cc3e38027d8f2d", "is_disabled": 0, "is_reserved": 0}, {"rental_uris": {"ios": "https://dc.lft.to/lastmile_qr_scan", "android": "https://dc.lft.to/lastmile_qr_scan"}, "lon": -77.0121575, "type": "electric_scooter", "fusion_lat": 0.0, "lat": 38.920328166666664, "name": "85310e785dbf7ca7362e55b99f5fb486", "fusion_lon": 0.0, "bike_id": "85310e785dbf7ca7362e55b99f5fb486", "is_disabled": 0, "is_reserved": 0}, {"rental_uris": {"ios": "https://dc.lft.to/lastmile_qr_scan", "android": "https://dc.lft.to/lastmile_qr_scan"}, "lon": -77.021485, "type": "electric_bike", "fusion_lat": 0.0, "lat": 38.97323016666667, "name": "c3c10174b9012929510a266b3af816a9", "fusion_lon": 0.0, "bike_id": "c3c10174b9012929510a266b3af816a9", "is_disabled": 0, "is_reserved": 0}, {"rental_uris": {"ios": "https://dc.lft.to/lastmile_qr_scan", "android": "https://dc.lft.to/lastmile_qr_scan"}, "lon": -77.03770516666667, "type": "electric_scooter", "fusion_lat": 0.0, "lat": 38.91691866666667, "name": "8c8379df4279e08dac48058bb0e5a0ff", "fusion_lon": 0.0, "bike_id": "8c8379df4279e08dac48058bb0e5a0ff", "is_disabled": 0, "is_reserved": 0}, {"rental_uris": {"ios": "https://dc.lft.to/lastmile_qr_scan", "android": "https://dc.lft.to/lastmile_qr_scan"}, "lon": -77.02713783333333, "type": "electric_scooter", "fusion_lat": 0.0, "lat": 38.916700166666665, "name": "607a26115ef771efff99995bf0c66358", "fusion_lon": 0.0, "bike_id": "607a26115ef771efff99995bf0c66358", "is_disabled": 0, "is_reserved": 0}, {"rental_uris": {"ios": "https://dc.lft.to/lastmile_qr_scan", "android": "https://dc.lft.to/lastmile_qr_scan"}, "lon": -77.01077083333334, "type": "electric_scooter", "fusion_lat": 0.0, "lat": 38.90345166666667, "name": "0495221ab99b57cb887dceae6435fb93", "fusion_lon": 0.0, "bike_id": "0495221ab99b57cb887dceae6435fb93", "is_disabled": 0, "is_reserved": 0}, {"rental_uris": {"ios": "https://dc.lft.to/lastmile_qr_scan", "android": "https://dc.lft.to/lastmile_qr_scan"}, "lon": -76.96528183333334, "type": "electric_scooter", "fusion_lat": 0.0, "lat": 38.876279333333336, "name": "b0f8cacec7f74d88252df7a63e8f14b1", "fusion_lon": 0.0, "bike_id": "b0f8cacec7f74d88252df7a63e8f14b1", "is_disabled": 0, "is_reserved": 0}, {"rental_uris": {"ios": "https://dc.lft.to/lastmile_qr_scan", "android": "https://dc.lft.to/lastmile_qr_scan"}, "lon": -76.96374883333333, "type": "electric_bike", "fusion_lat": 0.0, "lat": 38.94901566666667, "name": "878dc46d9af6512f40e1d0436bf95a3c", "fusion_lon": 0.0, "bike_id": "878dc46d9af6512f40e1d0436bf95a3c", "is_disabled": 0, "is_reserved": 0}, {"rental_uris": {"ios": "https://dc.lft.to/lastmile_qr_scan", "android": "https://dc.lft.to/lastmile_qr_scan"}, "lon": -76.94760833333333, "type": "electric_scooter", "fusion_lat": 0.0, "lat": 38.90056033333333, "name": "51a6ca2e189f08730c74f9ac1d571c9c", "fusion_lon": 0.0, "bike_id": "51a6ca2e189f08730c74f9ac1d571c9c", "is_disabled": 0, "is_reserved": 0}, {"rental_uris": {"ios": "https://dc.lft.to/lastmile_qr_scan", "android": "https://dc.lft.to/lastmile_qr_scan"}, "lon": -77.02711633333334, "type": "electric_scooter", "fusion_lat": 0.0, "lat": 38.918175166666664, "name": "feade2428ae043b2966722fd9567f84f", "fusion_lon": 0.0, "bike_id": "feade2428ae043b2966722fd9567f84f", "is_disabled": 0, "is_reserved": 0}, {"rental_uris": {"ios": "https://dc.lft.to/lastmile_qr_scan", "android": "https://dc.lft.to/lastmile_qr_scan"}, "lon": -77.033347, "type": "electric_scooter", "fusion_lat": 0.0, "lat": 38.91982433333333, "name": "dd05b9cd645099b0f82b2b9254cce37b", "fusion_lon": 0.0, "bike_id": "dd05b9cd645099b0f82b2b9254cce37b", "is_disabled": 0, "is_reserved": 0}, {"rental_uris": {"ios": "https://dc.lft.to/lastmile_qr_scan", "android": "https://dc.lft.to/lastmile_qr_scan"}, "lon": -77.03454133333334, "type": "electric_scooter", "fusion_lat": 0.0, "lat": 38.918140333333334, "name": "06da72c3448b6e90187e9187b11d80d8", "fusion_lon": 0.0, "bike_id": "06da72c3448b6e90187e9187b11d80d8", "is_disabled": 0, "is_reserved": 0}, {"rental_uris": {"ios": "https://dc.lft.to/lastmile_qr_scan", "android": "https://dc.lft.to/lastmile_qr_scan"}, "lon": -77.03220516666667, "type": "electric_scooter", "fusion_lat": 0.0, "lat": 38.91186, "name": "e32689b968c37e2cb16c545a74494f86", "fusion_lon": 0.0, "bike_id": "e32689b968c37e2cb16c545a74494f86", "is_disabled": 0, "is_reserved": 0}, {"rental_uris": {"ios": "https://dc.lft.to/lastmile_qr_scan", "android": "https://dc.lft.to/lastmile_qr_scan"}, "lon": -77.02128883333333, "type": "electric_bike", "fusion_lat": 0.0, "lat": 38.916383333333336, "name": "e3097dd2e7b2054361acda40e7bf72ce", "fusion_lon": 0.0, "bike_id": "e3097dd2e7b2054361acda40e7bf72ce", "is_disabled": 0, "is_reserved": 0}, {"rental_uris": {"ios": "https://dc.lft.to/lastmile_qr_scan", "android": "https://dc.lft.to/lastmile_qr_scan"}, "lon": -77.03221083333334, "type": "electric_scooter", "fusion_lat": 0.0, "lat": 38.925846166666666, "name": "faa64fefd59deeb124a6989a931c4b49", "fusion_lon": 0.0, "bike_id": "faa64fefd59deeb124a6989a931c4b49", "is_disabled": 0, "is_reserved": 0}, {"rental_uris": {"ios": "https://dc.lft.to/lastmile_qr_scan", "android": "https://dc.lft.to/lastmile_qr_scan"}, "lon": -77.02996933333333, "type": "electric_scooter", "fusion_lat": 0.0, "lat": 38.924802666666665, "name": "6a6d77b23a78a27bdb3c6bc0aae39a14", "fusion_lon": 0.0, "bike_id": "6a6d77b23a78a27bdb3c6bc0aae39a14", "is_disabled": 0, "is_reserved": 0}, {"rental_uris": {"ios": "https://dc.lft.to/lastmile_qr_scan", "android": "https://dc.lft.to/lastmile_qr_scan"}, "lon": -77.1273945, "type": "electric_bike", "fusion_lat": 0.0, "lat": 38.88820466666667, "name": "42e7ebe696f90c11ac38f95270300dbe", "fusion_lon": 0.0, "bike_id": "42e7ebe696f90c11ac38f95270300dbe", "is_disabled": 0, "is_reserved": 0}, {"rental_uris": {"ios": "https://dc.lft.to/lastmile_qr_scan", "android": "https://dc.lft.to/lastmile_qr_scan"}, "lon": -77.02607166666667, "type": "electric_scooter", "fusion_lat": 0.0, "lat": 38.91690416666667, "name": "c03b4a93fd7f7cb5175a77fc233a4f21", "fusion_lon": 0.0, "bike_id": "c03b4a93fd7f7cb5175a77fc233a4f21", "is_disabled": 0, "is_reserved": 0}, {"rental_uris": {"ios": "https://dc.lft.to/lastmile_qr_scan", "android": "https://dc.lft.to/lastmile_qr_scan"}, "lon": -76.9379855, "type": "electric_scooter", "fusion_lat": 0.0, "lat": 38.912836166666665, "name": "841694a8e27d3e47cd68a521860ef524", "fusion_lon": 0.0, "bike_id": "841694a8e27d3e47cd68a521860ef524", "is_disabled": 0, "is_reserved": 0}, {"rental_uris": {"ios": "https://dc.lft.to/lastmile_qr_scan", "android": "https://dc.lft.to/lastmile_qr_scan"}, "lon": -77.03252833333333, "type": "electric_scooter", "fusion_lat": 0.0, "lat": 38.91117933333334, "name": "87dcee0b0178fd05d1d8a2adb8fdab05", "fusion_lon": 0.0, "bike_id": "87dcee0b0178fd05d1d8a2adb8fdab05", "is_disabled": 0, "is_reserved": 0}, {"rental_uris": {"ios": "https://dc.lft.to/lastmile_qr_scan", "android": "https://dc.lft.to/lastmile_qr_scan"}, "lon": -76.97890283333334, "type": "electric_scooter", "fusion_lat": 0.0, "lat": 38.91674, "name": "9323d8497eb277752f5d381c90e0cb9b", "fusion_lon": 0.0, "bike_id": "9323d8497eb277752f5d381c90e0cb9b", "is_disabled": 0, "is_reserved": 0}, {"rental_uris": {"ios": "https://dc.lft.to/lastmile_qr_scan", "android": "https://dc.lft.to/lastmile_qr_scan"}, "lon": -76.98769566666667, "type": "electric_scooter", "fusion_lat": 0.0, "lat": 38.911728333333336, "name": "de0ada7ce4b14f21fdc31c3e3ec377be", "fusion_lon": 0.0, "bike_id": "de0ada7ce4b14f21fdc31c3e3ec377be", "is_disabled": 0, "is_reserved": 0}, {"rental_uris": {"ios": "https://dc.lft.to/lastmile_qr_scan", "android": "https://dc.lft.to/lastmile_qr_scan"}, "lon": -77.008544, "type": "electric_scooter", "fusion_lat": 0.0, "lat": 38.92592916666667, "name": "0f63f195b43cad276aa9fa338c4831cf", "fusion_lon": 0.0, "bike_id": "0f63f195b43cad276aa9fa338c4831cf", "is_disabled": 0, "is_reserved": 0}, {"rental_uris": {"ios": "https://dc.lft.to/lastmile_qr_scan", "android": "https://dc.lft.to/lastmile_qr_scan"}, "lon": -76.99538816666667, "type": "electric_scooter", "fusion_lat": 0.0, "lat": 38.926665, "name": "3712547af9917515dd7855362c055704", "fusion_lon": 0.0, "bike_id": "3712547af9917515dd7855362c055704", "is_disabled": 0, "is_reserved": 0}, {"rental_uris": {"ios": "https://dc.lft.to/lastmile_qr_scan", "android": "https://dc.lft.to/lastmile_qr_scan"}, "lon": -77.08365766666667, "type": "electric_scooter", "fusion_lat": 0.0, "lat": 38.93033333333333, "name": "2b75904fd560a6bebaf67a6b1820b6b5", "fusion_lon": 0.0, "bike_id": "2b75904fd560a6bebaf67a6b1820b6b5", "is_disabled": 0, "is_reserved": 0}, {"rental_uris": {"ios": "https://dc.lft.to/lastmile_qr_scan", "android": "https://dc.lft.to/lastmile_qr_scan"}, "lon": -77.05137333333333, "type": "electric_scooter", "fusion_lat": 0.0, "lat": 38.902333, "name": "9852d412e421ca67dc91b9e3c0b203bb", "fusion_lon": 0.0, "bike_id": "9852d412e421ca67dc91b9e3c0b203bb", "is_disabled": 0, "is_reserved": 0}, {"rental_uris": {"ios": "https://dc.lft.to/lastmile_qr_scan", "android": "https://dc.lft.to/lastmile_qr_scan"}, "lon": -77.01761466666666, "type": "electric_scooter", "fusion_lat": 0.0, "lat": 38.9388985, "name": "b9090a588b499448ad9c1db6ebf46d68", "fusion_lon": 0.0, "bike_id": "b9090a588b499448ad9c1db6ebf46d68", "is_disabled": 0, "is_reserved": 0}, {"rental_uris": {"ios": "https://dc.lft.to/lastmile_qr_scan", "android": "https://dc.lft.to/lastmile_qr_scan"}, "lon": -77.03926816666667, "type": "electric_scooter", "fusion_lat": 0.0, "lat": 38.899515666666666, "name": "de92618b3b7516ae288d25d79c4ce190", "fusion_lon": 0.0, "bike_id": "de92618b3b7516ae288d25d79c4ce190", "is_disabled": 0, "is_reserved": 0}, {"rental_uris": {"ios": "https://dc.lft.to/lastmile_qr_scan", "android": "https://dc.lft.to/lastmile_qr_scan"}, "lon": -77.0515135, "type": "electric_scooter", "fusion_lat": 0.0, "lat": 38.89752416666666, "name": "4486162c3e8ed096730ffe41a7198483", "fusion_lon": 0.0, "bike_id": "4486162c3e8ed096730ffe41a7198483", "is_disabled": 0, "is_reserved": 0}, {"rental_uris": {"ios": "https://dc.lft.to/lastmile_qr_scan", "android": "https://dc.lft.to/lastmile_qr_scan"}, "lon": -77.12961233333333, "type": "electric_bike", "fusion_lat": 0.0, "lat": 38.85217016666667, "name": "547a96bf6312af027f847a0f3e6b0600", "fusion_lon": 0.0, "bike_id": "547a96bf6312af027f847a0f3e6b0600", "is_disabled": 0, "is_reserved": 0}, {"rental_uris": {"ios": "https://dc.lft.to/lastmile_qr_scan", "android": "https://dc.lft.to/lastmile_qr_scan"}, "lon": -77.039666, "type": "electric_scooter", "fusion_lat": 0.0, "lat": 38.907102333333334, "name": "9999aa782b9d9e4587eb7a39901ee35d", "fusion_lon": 0.0, "bike_id": "9999aa782b9d9e4587eb7a39901ee35d", "is_disabled": 0, "is_reserved": 0}, {"rental_uris": {"ios": "https://dc.lft.to/lastmile_qr_scan", "android": "https://dc.lft.to/lastmile_qr_scan"}, "lon": -76.99690516666666, "type": "electric_scooter", "fusion_lat": 0.0, "lat": 38.90083633333333, "name": "f9705fef2d083dc9915379292d11079b", "fusion_lon": 0.0, "bike_id": "f9705fef2d083dc9915379292d11079b", "is_disabled": 0, "is_reserved": 0}, {"rental_uris": {"ios": "https://dc.lft.to/lastmile_qr_scan", "android": "https://dc.lft.to/lastmile_qr_scan"}, "lon": -76.94771033333333, "type": "electric_scooter", "fusion_lat": 0.0, "lat": 38.900760166666664, "name": "9a23ac9870ab450fa10a92df33017a2d", "fusion_lon": 0.0, "bike_id": "9a23ac9870ab450fa10a92df33017a2d", "is_disabled": 0, "is_reserved": 0}, {"rental_uris": {"ios": "https://dc.lft.to/lastmile_qr_scan", "android": "https://dc.lft.to/lastmile_qr_scan"}, "lon": -76.972923, "type": "electric_scooter", "fusion_lat": 0.0, "lat": 38.903356333333335, "name": "7968d20fbd420760f87d065b4e609e20", "fusion_lon": 0.0, "bike_id": "7968d20fbd420760f87d065b4e609e20", "is_disabled": 0, "is_reserved": 0}, {"rental_uris": {"ios": "https://dc.lft.to/lastmile_qr_scan", "android": "https://dc.lft.to/lastmile_qr_scan"}, "lon": -77.0433825, "type": "electric_scooter", "fusion_lat": 0.0, "lat": 38.91590433333333, "name": "44325d765bd7866548b59ce278171bf9", "fusion_lon": 0.0, "bike_id": "44325d765bd7866548b59ce278171bf9", "is_disabled": 0, "is_reserved": 0}, {"rental_uris": {"ios": "https://dc.lft.to/lastmile_qr_scan", "android": "https://dc.lft.to/lastmile_qr_scan"},