{"data": {"bikes": [{"rental_uris": {"ios": "https://dc.lft.to/lastmile_qr_scan", "android": "https://dc.lft.to/lastmile_qr_scan"}, "lat": 38.94562, "lon": -76.96687066666667, "fusion_lat": 0.0, "name": "fa8272c8a68688842af5800cac97de83", "is_disabled": 0, "is_reserved": 0, "bike_id": "fa8272c8a68688842af5800cac97de83", "fusion_lon": 0.0, "type": "electric_bike"}, {"rental_uris": {"ios": "https://dc.lft.to/lastmile_qr_scan", "android": "https://dc.lft.to/lastmile_qr_scan"}, "lat": 38.88841566666667, "lon": -77.04903566666667, "fusion_lat": 0.0, "name": "b0e3177493b05a7d9c139a02f0a8e195", "is_disabled": 0, "is_reserved": 0, "bike_id": "b0e3177493b05a7d9c139a02f0a8e195", "fusion_lon": 0.0, "type": "electric_scooter"}, {"rental_uris": {"ios": "https://dc.lft.to/lastmile_qr_scan", "android": "https://dc.lft.to/lastmile_qr_scan"}, "lat": 38.933905333333335, "lon": -77.05739583333333, "fusion_lat": 0.0, "name": "2e53de08787f3907cd7abad04599ba8c", "is_disabled": 0, "is_reserved": 0, "bike_id": "2e53de08787f3907cd7abad04599ba8c", "fusion_lon": 0.0, "type": "electric_scooter"}, {"rental_uris": {"ios": "https://dc.lft.to/lastmile_qr_scan", "android": "https://dc.lft.to/lastmile_qr_scan"}, "lat": 38.861498833333336, "lon": -77.091412, "fusion_lat": 0.0, "name": "23ecd222f446603a94b98adf07856bc1", "is_disabled": 0, "is_reserved": 0, "bike_id": "23ecd222f446603a94b98adf07856bc1", "fusion_lon": 0.0, "type": "electric_bike"}, {"rental_uris": {"ios": "https://dc.lft.to/lastmile_qr_scan", "android": "https://dc.lft.to/lastmile_qr_scan"}, "lat": 38.92278533333333, "lon": -77.0366415, "fusion_lat": 0.0, "name": "ff468126baf2fbbb010095b2ffe20d7e", "is_disabled": 0, "is_reserved": 0, "bike_id": "ff468126baf2fbbb010095b2ffe20d7e", "fusion_lon": 0.0, "type": "electric_scooter"}, {"rental_uris": {"ios": "https://dc.lft.to/lastmile_qr_scan", "android": "https://dc.lft.to/lastmile_qr_scan"}, "lat": 38.907295833333336, "lon": -77.02375566666667, "fusion_lat": 0.0, "name": "5edc9cbeccc4f03e866f9cad5172cc5e", "is_disabled": 0, "is_reserved": 0, "bike_id": "5edc9cbeccc4f03e866f9cad5172cc5e", "fusion_lon": 0.0, "type": "electric_scooter"}, {"rental_uris": {"ios": "https://dc.lft.to/lastmile_qr_scan", "android": "https://dc.lft.to/lastmile_qr_scan"}, "lat": 38.908044, "lon": -77.030541, "fusion_lat": 0.0, "name": "dee9650221c8c3ad4b344247d017d00d", "is_disabled": 0, "is_reserved": 0, "bike_id": "dee9650221c8c3ad4b344247d017d00d", "fusion_lon": 0.0, "type": "electric_scooter"}, {"rental_uris": {"ios": "https://dc.lft.to/lastmile_qr_scan", "android": "https://dc.lft.to/lastmile_qr_scan"}, "lat": 38.893294, "lon": -77.0467535, "fusion_lat": 0.0, "name": "4a032b67aa57df3c26b07a1045799518", "is_disabled": 0, "is_reserved": 0, "bike_id": "4a032b67aa57df3c26b07a1045799518", "fusion_lon": 0.0, "type": "electric_scooter"}, {"rental_uris": {"ios": "https://dc.lft.to/lastmile_qr_scan", "android": "https://dc.lft.to/lastmile_qr_scan"}, "lat": 38.90275, "lon": -77.05808166666667, "fusion_lat": 0.0, "name": "0b619ad3996858bc3eef3f6d39b92234", "is_disabled": 0, "is_reserved": 0, "bike_id": "0b619ad3996858bc3eef3f6d39b92234", "fusion_lon": 0.0, "type": "electric_scooter"}, {"rental_uris": {"ios": "https://dc.lft.to/lastmile_qr_scan", "android": "https://dc.lft.to/lastmile_qr_scan"}, "lat": 38.87066683333333, "lon": -76.97093716666667, "fusion_lat": 0.0, "name": "8244405e186a5a94b6a81d969ac3fb19", "is_disabled": 0, "is_reserved": 0, "bike_id": "8244405e186a5a94b6a81d969ac3fb19", "fusion_lon": 0.0, "type": "electric_scooter"}, {"rental_uris": {"ios": "https://dc.lft.to/lastmile_qr_scan", "android": "https://dc.lft.to/lastmile_qr_scan"}, "lat": 38.934754833333336, "lon": -77.0222735, "fusion_lat": 0.0, "name": "8c236b45c6fad68de5e9e5e39399dbf2", "is_disabled": 0, "is_reserved": 0, "bike_id": "8c236b45c6fad68de5e9e5e39399dbf2", "fusion_lon": 0.0, "type": "electric_scooter"}, {"rental_uris": {"ios": "https://dc.lft.to/lastmile_qr_scan", "android": "https://dc.lft.to/lastmile_qr_scan"}, "lat": 38.93228416666667, "lon": -77.038608, "fusion_lat": 0.0, "name": "2713988c8b9fdd33f09e3fb7cac80ef9", "is_disabled": 0, "is_reserved": 0, "bike_id": "2713988c8b9fdd33f09e3fb7cac80ef9", "fusion_lon": 0.0, "type": "electric_scooter"}, {"rental_uris": {"ios": "https://dc.lft.to/lastmile_qr_scan", "android": "https://dc.lft.to/lastmile_qr_scan"}, "lat": 38.898655166666664, "lon": -76.94639216666667, "fusion_lat": 0.0, "name": "07cb4a317c3d1a181865cd455d343191", "is_disabled": 0, "is_reserved": 0, "bike_id": "07cb4a317c3d1a181865cd455d343191", "fusion_lon": 0.0, "type": "electric_scooter"}, {"rental_uris": {"ios": "https://dc.lft.to/lastmile_qr_scan", "android": "https://dc.lft.to/lastmile_qr_scan"}, "lat": 38.9222345, "lon": -77.20138883333334, "fusion_lat": 0.0, "name": "b0339a7b4474f2c5a50fcba0630d83c3", "is_disabled": 0, "is_reserved": 0, "bike_id": "b0339a7b4474f2c5a50fcba0630d83c3", "fusion_lon": 0.0, "type": "electric_bike"}, {"rental_uris": {"ios": "https://dc.lft.to/lastmile_qr_scan", "android": "https://dc.lft.to/lastmile_qr_scan"}, "lat": 38.91565283333333, "lon": -77.02209216666667, "fusion_lat": 0.0, "name": "f25575960a95be7ee49e4fbbc3c6ed7d", "is_disabled": 0, "is_reserved": 0, "bike_id": "f25575960a95be7ee49e4fbbc3c6ed7d", "fusion_lon": 0.0, "type": "electric_scooter"}, {"rental_uris": {"ios": "https://dc.lft.to/lastmile_qr_scan", "android": "https://dc.lft.to/lastmile_qr_scan"}, "lat": 38.904694166666665, "lon": -76.97611316666666, "fusion_lat": 0.0, "name": "af48986fd6ff8bd4a707d03079de9e42", "is_disabled": 0, "is_reserved": 0, "bike_id": "af48986fd6ff8bd4a707d03079de9e42", "fusion_lon": 0.0, "type": "electric_scooter"}, {"rental_uris": {"ios": "https://dc.lft.to/lastmile_qr_scan", "android": "https://dc.lft.to/lastmile_qr_scan"}, "lat": 38.881221833333335, "lon": -77.02355633333333, "fusion_lat": 0.0, "name": "1fa85eb3dff318ee38157e7bfcd2f660", "is_disabled": 0, "is_reserved": 0, "bike_id": "1fa85eb3dff318ee38157e7bfcd2f660", "fusion_lon": 0.0, "type": "electric_scooter"}, {"rental_uris": {"ios": "https://dc.lft.to/lastmile_qr_scan", "android": "https://dc.lft.to/lastmile_qr_scan"}, "lat": 38.904732333333335, "lon": -77.04359716666667, "fusion_lat": 0.0, "name": "f8563dc8f619a16f6d9340be855ea217", "is_disabled": 0, "is_reserved": 0, "bike_id": "f8563dc8f619a16f6d9340be855ea217", "fusion_lon": 0.0, "type": "electric_scooter"}, {"rental_uris": {"ios": "https://dc.lft.to/lastmile_qr_scan", "android": "https://dc.lft.to/lastmile_qr_scan"}, "lat": 38.91211966666667, "lon": -77.0446505, "fusion_lat": 0.0, "name": "5af1b6cedfdc13d76e0c3aea0334e727", "is_disabled": 0, "is_reserved": 0, "bike_id": "5af1b6cedfdc13d76e0c3aea0334e727", "fusion_lon": 0.0, "type": "electric_scooter"}, {"rental_uris": {"ios": "https://dc.lft.to/lastmile_qr_scan", "android": "https://dc.lft.to/lastmile_qr_scan"}, "lat": 38.87372, "lon": -77.00110066666667, "fusion_lat": 0.0, "name": "4925dd9e0087764e2a029585919e4482", "is_disabled": 0, "is_reserved": 0, "bike_id": "4925dd9e0087764e2a029585919e4482", "fusion_lon": 0.0, "type": "electric_scooter"}, {"rental_uris": {"ios": "https://dc.lft.to/lastmile_qr_scan", "android": "https://dc.lft.to/lastmile_qr_scan"}, "lat": 38.90513166666667, "lon": -77.00133083333333, "fusion_lat": 0.0, "name": "ef1c46333cc2a75afbfd5dcc71fe5336", "is_disabled": 0, "is_reserved": 0, "bike_id": "ef1c46333cc2a75afbfd5dcc71fe5336", "fusion_lon": 0.0, "type": "electric_scooter"}, {"rental_uris": {"ios": "https://dc.lft.to/lastmile_qr_scan", "android": "https://dc.lft.to/lastmile_qr_scan"}, "lat": 38.90782216666667, "lon": -77.07155116666667, "fusion_lat": 0.0, "name": "899b5d60b3b1263f342546aa55b91973", "is_disabled": 0, "is_reserved": 0, "bike_id": "899b5d60b3b1263f342546aa55b91973", "fusion_lon": 0.0, "type": "electric_scooter"}, {"rental_uris": {"ios": "https://dc.lft.to/lastmile_qr_scan", "android": "https://dc.lft.to/lastmile_qr_scan"}, "lat": 38.905405, "lon": -77.0221845, "fusion_lat": 0.0, "name": "fa4be511477561a3bcb954762636e605", "is_disabled": 0, "is_reserved": 0, "bike_id": "fa4be511477561a3bcb954762636e605", "fusion_lon": 0.0, "type": "electric_scooter"}, {"rental_uris": {"ios": "https://dc.lft.to/lastmile_qr_scan", "android": "https://dc.lft.to/lastmile_qr_scan"}, "lat": 38.93223366666667, "lon": -77.18121683333334, "fusion_lat": 0.0, "name": "b467627b420348e0c7660b628a37b371", "is_disabled": 0, "is_reserved": 0, "bike_id": "b467627b420348e0c7660b628a37b371", "fusion_lon": 0.0, "type": "electric_bike"}, {"rental_uris": {"ios": "https://dc.lft.to/lastmile_qr_scan", "android": "https://dc.lft.to/lastmile_qr_scan"}, "lat": 38.921727833333335, "lon": -77.0191285, "fusion_lat": 0.0, "name": "44f689ae9df7197719eef0138d23a01b", "is_disabled": 0, "is_reserved": 0, "bike_id": "44f689ae9df7197719eef0138d23a01b", "fusion_lon": 0.0, "type": "electric_scooter"}, {"rental_uris": {"ios": "https://dc.lft.to/lastmile_qr_scan", "android": "https://dc.lft.to/lastmile_qr_scan"}, "lat": 38.885149, "lon": -76.9563005, "fusion_lat": 0.0, "name": "5c5dcb317f894712d1b8fd62dd4b7f8f", "is_disabled": 0, "is_reserved": 0, "bike_id": "5c5dcb317f894712d1b8fd62dd4b7f8f", "fusion_lon": 0.0, "type": "electric_bike"}, {"rental_uris": {"ios": "https://dc.lft.to/lastmile_qr_scan", "android": "https://dc.lft.to/lastmile_qr_scan"}, "lat": 38.90772033333333, "lon": -77.040093, "fusion_lat": 0.0, "name": "1ceeb57b63d81cfbfaf3c6faa54eb2bd", "is_disabled": 0, "is_reserved": 0, "bike_id": "1ceeb57b63d81cfbfaf3c6faa54eb2bd", "fusion_lon": 0.0, "type": "electric_scooter"}, {"rental_uris": {"ios": "https://dc.lft.to/lastmile_qr_scan", "android": "https://dc.lft.to/lastmile_qr_scan"}, "lat": 38.8746785, "lon": -77.00916766666667, "fusion_lat": 0.0, "name": "d14aea1d56713bb7a0a7e79679b63a41", "is_disabled": 0, "is_reserved": 0, "bike_id": "d14aea1d56713bb7a0a7e79679b63a41", "fusion_lon": 0.0, "type": "electric_scooter"}, {"rental_uris": {"ios": "https://dc.lft.to/lastmile_qr_scan", "android": "https://dc.lft.to/lastmile_qr_scan"}, "lat": 38.9287475, "lon": -77.02771766666666, "fusion_lat": 0.0, "name": "b2784695fc5cd883e490da9a17a56bdf", "is_disabled": 0, "is_reserved": 0, "bike_id": "b2784695fc5cd883e490da9a17a56bdf", "fusion_lon": 0.0, "type": "electric_scooter"}, {"rental_uris": {"ios": "https://dc.lft.to/lastmile_qr_scan", "android": "https://dc.lft.to/lastmile_qr_scan"}, "lat": 38.90248866666667, "lon": -77.0247875, "fusion_lat": 0.0, "name": "df9f0b2b74fced3c67272fe4a2c20cc6", "is_disabled": 0, "is_reserved": 0, "bike_id": "df9f0b2b74fced3c67272fe4a2c20cc6", "fusion_lon": 0.0, "type": "electric_scooter"}, {"rental_uris": {"ios": "https://dc.lft.to/lastmile_qr_scan", "android": "https://dc.lft.to/lastmile_qr_scan"}, "lat": 38.9067735, "lon": -76.98000583333334, "fusion_lat": 0.0, "name": "21688b713356ac9308bdc5391776a5ac", "is_disabled": 0, "is_reserved": 0, "bike_id": "21688b713356ac9308bdc5391776a5ac", "fusion_lon": 0.0, "type": "electric_scooter"}, {"rental_uris": {"ios": "https://dc.lft.to/lastmile_qr_scan", "android": "https://dc.lft.to/lastmile_qr_scan"}, "lat": 38.916117666666665, "lon": -77.04891566666667, "fusion_lat": 0.0, "name": "44352d642fea85b41455b7e167e15c58", "is_disabled": 0, "is_reserved": 0, "bike_id": "44352d642fea85b41455b7e167e15c58", "fusion_lon": 0.0, "type": "electric_scooter"}, {"rental_uris": {"ios": "https://dc.lft.to/lastmile_qr_scan", "android": "https://dc.lft.to/lastmile_qr_scan"}, "lat": 38.8999995, "lon": -76.985558, "fusion_lat": 0.0, "name": "8e006dc7348faa55ebf01a09889869cf", "is_disabled": 0, "is_reserved": 0, "bike_id": "8e006dc7348faa55ebf01a09889869cf", "fusion_lon": 0.0, "type": "electric_scooter"}, {"rental_uris": {"ios": "https://dc.lft.to/lastmile_qr_scan", "android": "https://dc.lft.to/lastmile_qr_scan"}, "lat": 38.916883166666665, "lon": -77.02374833333333, "fusion_lat": 0.0, "name": "1a75355247a09983bae342af84bc3ee6", "is_disabled": 0, "is_reserved": 0, "bike_id": "1a75355247a09983bae342af84bc3ee6", "fusion_lon": 0.0, "type": "electric_scooter"}, {"rental_uris": {"ios": "https://dc.lft.to/lastmile_qr_scan", "android": "https://dc.lft.to/lastmile_qr_scan"}, "lat": 38.8669785, "lon": -76.98712666666667, "fusion_lat": 0.0, "name": "9019751999046e103a5ef991feb3830c", "is_disabled": 0, "is_reserved": 0, "bike_id": "9019751999046e103a5ef991feb3830c", "fusion_lon": 0.0, "type": "electric_scooter"}, {"rental_uris": {"ios": "https://dc.lft.to/lastmile_qr_scan", "android": "https://dc.lft.to/lastmile_qr_scan"}, "lat": 38.978590833333335, "lon": -76.940449, "fusion_lat": 0.0, "name": "d3f633d4161e0fcebd6b10b34d025b1e", "is_disabled": 0, "is_reserved": 0, "bike_id": "d3f633d4161e0fcebd6b10b34d025b1e", "fusion_lon": 0.0, "type": "electric_bike"}, {"rental_uris": {"ios": "https://dc.lft.to/lastmile_qr_scan", "android": "https://dc.lft.to/lastmile_qr_scan"}, "lat": 38.90246416666667, "lon": -77.04618133333334, "fusion_lat": 0.0, "name": "94c808402feba13df18054f24a8190bd", "is_disabled": 0, "is_reserved": 0, "bike_id": "94c808402feba13df18054f24a8190bd", "fusion_lon": 0.0, "type": "electric_scooter"}, {"rental_uris": {"ios": "https://dc.lft.to/lastmile_qr_scan", "android": "https://dc.lft.to/lastmile_qr_scan"}, "lat": 38.91555483333333, "lon": -77.023955, "fusion_lat": 0.0, "name": "a21a1fb95cb3b9666aab0631134cd380", "is_disabled": 0, "is_reserved": 0, "bike_id": "a21a1fb95cb3b9666aab0631134cd380", "fusion_lon": 0.0, "type": "electric_scooter"}, {"rental_uris": {"ios": "https://dc.lft.to/lastmile_qr_scan", "android": "https://dc.lft.to/lastmile_qr_scan"}, "lat": 38.878788166666666, "lon": -77.01910116666667, "fusion_lat": 0.0, "name": "0e23323821a00e31c27a294341bd33be", "is_disabled": 0, "is_reserved": 0, "bike_id": "0e23323821a00e31c27a294341bd33be", "fusion_lon": 0.0, "type": "electric_scooter"}, {"rental_uris": {"ios": "https://dc.lft.to/lastmile_qr_scan", "android": "https://dc.lft.to/lastmile_qr_scan"}, "lat": 38.9307295, "lon": -77.02830883333333, "fusion_lat": 0.0, "name": "7d1f955478ed88ceffd232a4b7858843", "is_disabled": 0, "is_reserved": 0, "bike_id": "7d1f955478ed88ceffd232a4b7858843", "fusion_lon": 0.0, "type": "electric_scooter"}, {"rental_uris": {"ios": "https://dc.lft.to/lastmile_qr_scan", "android": "https://dc.lft.to/lastmile_qr_scan"}, "lat": 38.8986925, "lon": -76.94637933333334, "fusion_lat": 0.0, "name": "dcec175ae76cee8bf00f1dd0e292e8f1", "is_disabled": 0, "is_reserved": 0, "bike_id": "dcec175ae76cee8bf00f1dd0e292e8f1", "fusion_lon": 0.0, "type": "electric_scooter"}, {"rental_uris": {"ios": "https://dc.lft.to/lastmile_qr_scan", "android": "https://dc.lft.to/lastmile_qr_scan"}, "lat": 38.928271, "lon": -77.02254616666667, "fusion_lat": 0.0, "name": "9662f58a25e48daa1441e5f844e2db38", "is_disabled": 0, "is_reserved": 0, "bike_id": "9662f58a25e48daa1441e5f844e2db38", "fusion_lon": 0.0, "type": "electric_scooter"}, {"rental_uris": {"ios": "https://dc.lft.to/lastmile_qr_scan", "android": "https://dc.lft.to/lastmile_qr_scan"}, "lat": 38.8877145, "lon": -77.02613733333334, "fusion_lat": 0.0, "name": "60e1c98fca22190f7c49c97dfab38848", "is_disabled": 0, "is_reserved": 0, "bike_id": "60e1c98fca22190f7c49c97dfab38848", "fusion_lon": 0.0, "type": "electric_scooter"}, {"rental_uris": {"ios": "https://dc.lft.to/lastmile_qr_scan", "android": "https://dc.lft.to/lastmile_qr_scan"}, "lat": 38.90090433333334, "lon": -77.03212033333334, "fusion_lat": 0.0, "name": "0421c77e632b58ab9ac2c20a753f7877", "is_disabled": 0, "is_reserved": 0, "bike_id": "0421c77e632b58ab9ac2c20a753f7877", "fusion_lon": 0.0, "type": "electric_scooter"}, {"rental_uris": {"ios": "https://dc.lft.to/lastmile_qr_scan", "android": "https://dc.lft.to/lastmile_qr_scan"}, "lat": 38.9142795, "lon": -77.03182616666666, "fusion_lat": 0.0, "name": "9347235c655fb93b43230801b094abb6", "is_disabled": 0, "is_reserved": 0, "bike_id": "9347235c655fb93b43230801b094abb6", "fusion_lon": 0.0, "type": "electric_scooter"}, {"rental_uris": {"ios": "https://dc.lft.to/lastmile_qr_scan", "android": "https://dc.lft.to/lastmile_qr_scan"}, "lat": 38.9191785, "lon": -77.024481, "fusion_lat": 0.0, "name": "97b4191818a154c645c61abe4a6f3201", "is_disabled": 0, "is_reserved": 0, "bike_id": "97b4191818a154c645c61abe4a6f3201", "fusion_lon": 0.0, "type": "electric_scooter"}, {"rental_uris": {"ios": "https://dc.lft.to/lastmile_qr_scan", "android": "https://dc.lft.to/lastmile_qr_scan"}, "lat": 38.90250566666667, "lon": -77.03420316666667, "fusion_lat": 0.0, "name": "518a7180ce5faa5bcfc6690ac222fed1", "is_disabled": 0, "is_reserved": 0, "bike_id": "518a7180ce5faa5bcfc6690ac222fed1", "fusion_lon": 0.0, "type": "electric_scooter"}, {"rental_uris": {"ios": "https://dc.lft.to/lastmile_qr_scan", "android": "https://dc.lft.to/lastmile_qr_scan"}, "lat": 38.9277665, "lon": -77.0526335, "fusion_lat": 0.0, "name": "b09aef3f096b9b3c1ffc88912bfc6ff3", "is_disabled": 0, "is_reserved": 0, "bike_id": "b09aef3f096b9b3c1ffc88912bfc6ff3", "fusion_lon": 0.0, "type": "electric_scooter"}, {"rental_uris": {"ios": "https://dc.lft.to/lastmile_qr_scan", "android": "https://dc.lft.to/lastmile_qr_scan"}, "lat": 38.89842133333333, "lon": -77.04831283333333, "fusion_lat": 0.0, "name": "424d84348296a86cff498a3ba5124d99", "is_disabled": 0, "is_reserved": 0, "bike_id": "424d84348296a86cff498a3ba5124d99", "fusion_lon": 0.0, "type": "electric_scooter"}, {"rental_uris": {"ios": "https://dc.lft.to/lastmile_qr_scan", "android": "https://dc.lft.to/lastmile_qr_scan"}, "lat": 38.8776315, "lon": -77.01049933333333, "fusion_lat": 0.0, "name": "8d66e1efeac9af6b334a5a77a77bfeb5", "is_disabled": 0, "is_reserved": 0, "bike_id": "8d66e1efeac9af6b334a5a77a77bfeb5", "fusion_lon": 0.0, "type": "electric_bike"}, {"rental_uris": {"ios": "https://dc.lft.to/lastmile_qr_scan", "android": "https://dc.lft.to/lastmile_qr_scan"}, "lat": 38.903135666666664, "lon": -77.051857, "fusion_lat": 0.0, "name": "13ef374a7b782c5d300d7d37989326f7", "is_disabled": 0, "is_reserved": 0, "bike_id": "13ef374a7b782c5d300d7d37989326f7", "fusion_lon": 0.0, "type": "electric_scooter"}, {"rental_uris": {"ios": "https://dc.lft.to/lastmile_qr_scan", "android": "https://dc.lft.to/lastmile_qr_scan"}, "lat": 38.91826066666667, "lon": -77.04929066666666, "fusion_lat": 0.0, "name": "549a80de8cb2a2c8593bc6a0a44680b6", "is_disabled": 0, "is_reserved": 0, "bike_id": "549a80de8cb2a2c8593bc6a0a44680b6", "fusion_lon": 0.0, "type": "electric_scooter"}, {"rental_uris": {"ios": "https://dc.lft.to/lastmile_qr_scan", "android": "https://dc.lft.to/lastmile_qr_scan"}, "lat": 38.907504, "lon": -77.03213016666666, "fusion_lat": 0.0, "name": "e9d0dd8b85d35e687fccebade9ea4589", "is_disabled": 0, "is_reserved": 0, "bike_id": "e9d0dd8b85d35e687fccebade9ea4589", "fusion_lon": 0.0, "type": "electric_scooter"}, {"rental_uris": {"ios": "https://dc.lft.to/lastmile_qr_scan", "android": "https://dc.lft.to/lastmile_qr_scan"}, "lat": 38.91062516666667, "lon": -77.0551935, "fusion_lat": 0.0, "name": "15d6242a143eb42c97672a9f62b3062f", "is_disabled": 0, "is_reserved": 0, "bike_id": "15d6242a143eb42c97672a9f62b3062f", "fusion_lon": 0.0, "type": "electric_bike"}, {"rental_uris": {"ios": "https://dc.lft.to/lastmile_qr_scan", "android": "https://dc.lft.to/lastmile_qr_scan"}, "lat": 38.92154433333333, "lon": -77.03865216666667, "fusion_lat": 0.0, "name": "b92894f3cc80ad68bcd980d1eaeee112", "is_disabled": 0, "is_reserved": 0, "bike_id": "b92894f3cc80ad68bcd980d1eaeee112", "fusion_lon": 0.0, "type": "electric_scooter"}, {"rental_uris": {"ios": "https://dc.lft.to/lastmile_qr_scan", "android": "https://dc.lft.to/lastmile_qr_scan"}, "lat": 38.92051216666667, "lon": -77.0334425, "fusion_lat": 0.0, "name": "a9c0cc0ae3751e6a9d35a886906fc732", "is_disabled": 0, "is_reserved": 0, "bike_id": "a9c0cc0ae3751e6a9d35a886906fc732", "fusion_lon": 0.0, "type": "electric_scooter"}, {"rental_uris": {"ios": "https://dc.lft.to/lastmile_qr_scan", "android": "https://dc.lft.to/lastmile_qr_scan"}, "lat": 38.90047966666667, "lon": -76.9829065, "fusion_lat": 0.0, "name": "41c150d1a3c34c7a6d74a59324cda167", "is_disabled": 0, "is_reserved": 0, "bike_id": "41c150d1a3c34c7a6d74a59324cda167", "fusion_lon": 0.0, "type": "electric_scooter"}, {"rental_uris": {"ios": "https://dc.lft.to/lastmile_qr_scan", "android": "https://dc.lft.to/lastmile_qr_scan"}, "lat": 38.879121833333336, "lon": -77.02351116666667, "fusion_lat": 0.0, "name": "1cd3a2aed49f16f1a572b1b889aec916", "is_disabled": 0, "is_reserved": 0, "bike_id": "1cd3a2aed49f16f1a572b1b889aec916", "fusion_lon": 0.0, "type": "electric_scooter"}, {"rental_uris": {"ios": "https://dc.lft.to/lastmile_qr_scan", "android": "https://dc.lft.to/lastmile_qr_scan"}, "lat": 38.86212, "lon": -76.99479066666666, "fusion_lat": 0.0, "name": "a77e584425da3df002eca765b096fe7e", "is_disabled": 0, "is_reserved": 0, "bike_id": "a77e584425da3df002eca765b096fe7e", "fusion_lon": 0.0, "type": "electric_scooter"}, {"rental_uris": {"ios": "https://dc.lft.to/lastmile_qr_scan", "android": "https://dc.lft.to/lastmile_qr_scan"}, "lat": 38.9482285, "lon": -77.02486033333334, "fusion_lat": 0.0, "name": "4933132eab7cda424b01cef33d5e832f", "is_disabled": 0, "is_reserved": 0, "bike_id": "4933132eab7cda424b01cef33d5e832f", "fusion_lon": 0.0, "type": "electric_scooter"}, {"rental_uris": {"ios": "https://dc.lft.to/lastmile_qr_scan", "android": "https://dc.lft.to/lastmile_qr_scan"}, "lat": 38.898517166666664, "lon": -76.9290475, "fusion_lat": 0.0, "name": "860aed37524b2241fc906683751d5bc4", "is_disabled": 0, "is_reserved": 0, "bike_id": "860aed37524b2241fc906683751d5bc4", "fusion_lon": 0.0, "type": "electric_scooter"}, {"rental_uris": {"ios": "https://dc.lft.to/lastmile_qr_scan", "android": "https://dc.lft.to/lastmile_qr_scan"}, "lat": 38.9154715, "lon": -77.03196616666666, "fusion_lat": 0.0, "name": "36109953c4213e59897c4bdb016ed5d9", "is_disabled": 0, "is_reserved": 0, "bike_id": "36109953c4213e59897c4bdb016ed5d9", "fusion_lon": 0.0, "type": "electric_scooter"}, {"rental_uris": {"ios": "https://dc.lft.to/lastmile_qr_scan", "android": "https://dc.lft.to/lastmile_qr_scan"}, "lat": 38.9318, "lon": -77.0430145, "fusion_lat": 0.0, "name": "99e7ac9d50cd40ac772fe9e2c2c33fa2", "is_disabled": 0, "is_reserved": 0, "bike_id": "99e7ac9d50cd40ac772fe9e2c2c33fa2", "fusion_lon": 0.0, "type": "electric_scooter"}, {"rental_uris": {"ios": "https://dc.lft.to/lastmile_qr_scan", "android": "https://dc.lft.to/lastmile_qr_scan"}, "lat": 38.893898166666666, "lon": -77.02265433333334, "fusion_lat": 0.0, "name": "b6b6de5e4847256f789fd41ba536e0ec", "is_disabled": 0, "is_reserved": 0, "bike_id": "b6b6de5e4847256f789fd41ba536e0ec", "fusion_lon": 0.0, "type": "electric_scooter"}, {"rental_uris": {"ios": "https://dc.lft.to/lastmile_qr_scan", "android": "https://dc.lft.to/lastmile_qr_scan"}, "lat": 38.902729, "lon": -77.01805833333333, "fusion_lat": 0.0, "name": "c3d267394a4ae543fb102e83e61d0adb", "is_disabled": 0, "is_reserved": 0, "bike_id": "c3d267394a4ae543fb102e83e61d0adb", "fusion_lon": 0.0, "type": "electric_scooter"}, {"rental_uris": {"ios": "https://dc.lft.to/lastmile_qr_scan", "android": "https://dc.lft.to/lastmile_qr_scan"}, "lat": 38.91473166666667, "lon": -77.04555033333334, "fusion_lat": 0.0, "name": "783b8eeb163991d3903c54d4673fde9a", "is_disabled": 0, "is_reserved": 0, "bike_id": "783b8eeb163991d3903c54d4673fde9a", "fusion_lon": 0.0, "type": "electric_scooter"}, {"rental_uris": {"ios": "https://dc.lft.to/lastmile_qr_scan", "android": "https://dc.lft.to/lastmile_qr_scan"}, "lat": 38.916917833333336, "lon": -77.02370633333334, "fusion_lat": 0.0, "name": "5cbbf24edb6833ebab7729cb580a3704", "is_disabled": 0, "is_reserved": 0, "bike_id": "5cbbf24edb6833ebab7729cb580a3704", "fusion_lon": 0.0, "type": "electric_scooter"}, {"rental_uris": {"ios": "https://dc.lft.to/lastmile_qr_scan", "android": "https://dc.lft.to/lastmile_qr_scan"}, "lat": 38.89226266666667, "lon": -77.02960866666666, "fusion_lat": 0.0, "name": "45b8755665dcfe60b6d5c35b12f3ae36", "is_disabled": 0, "is_reserved": 0, "bike_id": "45b8755665dcfe60b6d5c35b12f3ae36", "fusion_lon": 0.0, "type": "electric_scooter"}, {"rental_uris": {"ios": "https://dc.lft.to/lastmile_qr_scan", "android": "https://dc.lft.to/lastmile_qr_scan"}, "lat": 38.9234195, "lon": -77.01891116666667, "fusion_lat": 0.0, "name": "be162b9ae73d5e6ba6cc5fca4cde19b8", "is_disabled": 0, "is_reserved": 0, "bike_id": "be162b9ae73d5e6ba6cc5fca4cde19b8", "fusion_lon": 0.0, "type": "electric_scooter"}, {"rental_uris": {"ios": "https://dc.lft.to/lastmile_qr_scan", "android": "https://dc.lft.to/lastmile_qr_scan"}, "lat": 38.900634, "lon": -76.9338635, "fusion_lat": 0.0, "name": "e3e180756850f840c4bc7d95c92fe738", "is_disabled": 0, "is_reserved": 0, "bike_id": "e3e180756850f840c4bc7d95c92fe738", "fusion_lon": 0.0, "type": "electric_scooter"}, {"rental_uris": {"ios": "https://dc.lft.to/lastmile_qr_scan", "android": "https://dc.lft.to/lastmile_qr_scan"}, "lat": 38.9015945, "lon": -77.0150405, "fusion_lat": 0.0, "name": "1e74d6b29876218a54aede1c0e4da0a6", "is_disabled": 0, "is_reserved": 0, "bike_id": "1e74d6b29876218a54aede1c0e4da0a6", "fusion_lon": 0.0, "type": "electric_scooter"}, {"rental_uris": {"ios": "https://dc.lft.to/lastmile_qr_scan", "android": "https://dc.lft.to/lastmile_qr_scan"}, "lat": 38.912715, "lon": -77.0221125, "fusion_lat": 0.0, "name": "a0dde959fdda65c4dcb13c3943bc2e8b", "is_disabled": 0, "is_reserved": 0, "bike_id": "a0dde959fdda65c4dcb13c3943bc2e8b", "fusion_lon": 0.0, "type": "electric_scooter"}, {"rental_uris": {"ios": "https://dc.lft.to/lastmile_qr_scan", "android": "https://dc.lft.to/lastmile_qr_scan"}, "lat": 38.956333, "lon": -76.9386935, "fusion_lat": 0.0, "name": "aa61b15fc6dd45ae02909306db356015", "is_disabled": 0, "is_reserved": 0, "bike_id": "aa61b15fc6dd45ae02909306db356015", "fusion_lon": 0.0, "type": "electric_bike"}, {"rental_uris": {"ios": "https://dc.lft.to/lastmile_qr_scan", "android": "https://dc.lft.to/lastmile_qr_scan"}, "lat": 38.90188966666667, "lon": -77.0129995, "fusion_lat": 0.0, "name": "9fb1497b594574ada619c1176a87624b", "is_disabled": 0, "is_reserved": 0, "bike_id": "9fb1497b594574ada619c1176a87624b", "fusion_lon": 0.0, "type": "electric_scooter"}, {"rental_uris": {"ios": "https://dc.lft.to/lastmile_qr_scan", "android": "https://dc.lft.to/lastmile_qr_scan"}, "lat": 38.867013, "lon": -76.9871125, "fusion_lat": 0.0, "name": "a22db0bfd69d57b9e0c674800e080e11", "is_disabled": 0, "is_reserved": 0, "bike_id": "a22db0bfd69d57b9e0c674800e080e11", "fusion_lon": 0.0, "type": "electric_scooter"}, {"rental_uris": {"ios": "https://dc.lft.to/lastmile_qr_scan", "android": "https://dc.lft.to/lastmile_qr_scan"}, "lat": 38.906134333333334, "lon": -77.0411445, "fusion_lat": 0.0, "name": "3737b69c05ac204ad1a4c35a796c294e", "is_disabled": 0, "is_reserved": 0, "bike_id": "3737b69c05ac204ad1a4c35a796c294e", "fusion_lon": 0.0, "type": "electric_scooter"}, {"rental_uris": {"ios": "https://dc.lft.to/lastmile_qr_scan", "android": "https://dc.lft.to/lastmile_qr_scan"}, "lat": 38.92482016666666, "lon": -77.03100216666667, "fusion_lat": 0.0, "name": "6a064a50545d799acb65aa93e0f0f18a", "is_disabled": 0, "is_reserved": 0, "bike_id": "6a064a50545d799acb65aa93e0f0f18a", "fusion_lon": 0.0, "type": "electric_scooter"}, {"rental_uris": {"ios": "https://dc.lft.to/lastmile_qr_scan", "android": "https://dc.lft.to/lastmile_qr_scan"}, "lat": 38.917204, "lon": -77.03236883333334, "fusion_lat": 0.0, "name": "cbf9c55307871ce07096fb6feee92020", "is_disabled": 0, "is_reserved": 0, "bike_id": "cbf9c55307871ce07096fb6feee92020", "fusion_lon": 0.0, "type": "electric_scooter"}, {"rental_uris": {"ios": "https://dc.lft.to/lastmile_qr_scan", "android": "https://dc.lft.to/lastmile_qr_scan"}, "lat": 38.904608333333336, "lon": -77.04373733333334, "fusion_lat": 0.0, "name": "4dadbe5f1b7532ca1438bdfcd1c9beb3", "is_disabled": 0, "is_reserved": 0, "bike_id": "4dadbe5f1b7532ca1438bdfcd1c9beb3", "fusion_lon": 0.0, "type": "electric_scooter"}, {"rental_uris": {"ios": "https://dc.lft.to/lastmile_qr_scan", "android": "https://dc.lft.to/lastmile_qr_scan"}, "lat": 38.9002905, "lon": -77.00058866666667, "fusion_lat": 0.0, "name": "9467e143ebb6b16e4e870f9bbb9350fd", "is_disabled": 0, "is_reserved": 0, "bike_id": "9467e143ebb6b16e4e870f9bbb9350fd", "fusion_lon": 0.0, "type": "electric_scooter"}, {"rental_uris": {"ios": "https://dc.lft.to/lastmile_qr_scan", "android": "https://dc.lft.to/lastmile_qr_scan"}, "lat": 38.87493466666667, "lon": -76.999716, "fusion_lat": 0.0, "name": "9276c5ba054337ae9fe3ee2763c8571d", "is_disabled": 0, "is_reserved": 0, "bike_id": "9276c5ba054337ae9fe3ee2763c8571d", "fusion_lon": 0.0, "type": "electric_scooter"}, {"rental_uris": {"ios": "https://dc.lft.to/lastmile_qr_scan", "android": "https://dc.lft.to/lastmile_qr_scan"}, "lat": 38.907347333333334, "lon": -77.06898116666666, "fusion_lat": 0.0, "name": "728306ed7e4c796b19a4146a802bad19", "is_disabled": 0, "is_reserved": 0, "bike_id": "728306ed7e4c796b19a4146a802bad19", "fusion_lon": 0.0, "type": "electric_scooter"}, {"rental_uris": {"ios": "https://dc.lft.to/lastmile_qr_scan", "android": "https://dc.lft.to/lastmile_qr_scan"}, "lat": 38.859365833333335, "lon": -77.11827983333333, "fusion_lat": 0.0, "name": "475cf493dcd8abab2ebe73a5ce5b2f8e", "is_disabled": 0, "is_reserved": 0, "bike_id": "475cf493dcd8abab2ebe73a5ce5b2f8e", "fusion_lon": 0.0, "type": "electric_bike"}, {"rental_uris": {"ios": "https://dc.lft.to/lastmile_qr_scan", "android": "https://dc.lft.to/lastmile_qr_scan"}, "lat": 38.82369883333333, "lon": -77.002159, "fusion_lat": 0.0, "name": "e6186a8b6ae48108683ad2c92ee13061", "is_disabled": 0, "is_reserved": 0, "bike_id": "e6186a8b6ae48108683ad2c92ee13061", "fusion_lon": 0.0, "type": "electric_bike"}, {"rental_uris": {"ios": "https://dc.lft.to/lastmile_qr_scan", "android": "https://dc.lft.to/lastmile_qr_scan"}, "lat": 38.87471383333333, "lon": -77.000423, "fusion_lat": 0.0, "name": "92affb846178bf86c1bd3829f7f95d4f", "is_disabled": 0, "is_reserved": 0, "bike_id": "92affb846178bf86c1bd3829f7f95d4f", "fusion_lon": 0.0, "type": "electric_scooter"}, {"rental_uris": {"ios": "https://dc.lft.to/lastmile_qr_scan", "android": "https://dc.lft.to/lastmile_qr_scan"}, "lat": 38.902684, "lon": -77.03707633333333, "fusion_lat": 0.0, "name": "ee5e374dd8f6c2508bb96b2fe6c1fc4e", "is_disabled": 0, "is_reserved": 0, "bike_id": "ee5e374dd8f6c2508bb96b2fe6c1fc4e", "fusion_lon": 0.0, "type": "electric_scooter"}, {"rental_uris": {"ios": "https://dc.lft.to/lastmile_qr_scan", "android": "https://dc.lft.to/lastmile_qr_scan"}, "lat": 38.9037525, "lon": -77.04192933333333, "fusion_lat": 0.0, "name": "8afc4ae0ce3646a45c22aef70d5faebc", "is_disabled": 0, "is_reserved": 0, "bike_id": "8afc4ae0ce3646a45c22aef70d5faebc", "fusion_lon": 0.0, "type": "electric_scooter"}, {"rental_uris": {"ios": "https://dc.lft.to/lastmile_qr_scan", "android": "https://dc.lft.to/lastmile_qr_scan"}, "lat": 38.93522433333333, "lon": -77.03353316666667, "fusion_lat": 0.0, "name": "dd66df31b14e1ee6859a6a7286c2a891", "is_disabled": 0, "is_reserved": 0, "bike_id": "dd66df31b14e1ee6859a6a7286c2a891", "fusion_lon": 0.0, "type": "electric_scooter"}, {"rental_uris": {"ios": "https://dc.lft.to/lastmile_qr_scan", "android": "https://dc.lft.to/lastmile_qr_scan"}, "lat": 38.92147666666666, "lon": -76.99562966666667, "fusion_lat": 0.0, "name": "dfa9cc19d4c5a5387bd2137b3e347e10", "is_disabled": 0, "is_reserved": 0, "bike_id": "dfa9cc19d4c5a5387bd2137b3e347e10", "fusion_lon": 0.0, "type": "electric_scooter"}, {"rental_uris": {"ios": "https://dc.lft.to/lastmile_qr_scan", "android": "https://dc.lft.to/lastmile_qr_scan"}, "lat": 38.918178833333336, "lon": -77.03165866666667, "fusion_lat": 0.0, "name": "261affeb918a432f052e96b9fdc8ee77", "is_disabled": 0, "is_reserved": 0, "bike_id": "261affeb918a432f052e96b9fdc8ee77", "fusion_lon": 0.0, "type": "electric_scooter"}, {"rental_uris": {"ios": "https://dc.lft.to/lastmile_qr_scan", "android": "https://dc.lft.to/lastmile_qr_scan"}, "lat": 38.91968333333333, "lon": -77.03826766666667, "fusion_lat": 0.0, "name": "264f781c76d561703cf5a832edac837c", "is_disabled": 0, "is_reserved": 0, "bike_id": "264f781c76d561703cf5a832edac837c", "fusion_lon": 0.0, "type": "electric_scooter"}, {"rental_uris": {"ios": "https://dc.lft.to/lastmile_qr_scan", "android": "https://dc.lft.to/lastmile_qr_scan"}, "lat": 38.93458, "lon": -77.04542383333333, "fusion_lat": 0.0, "name": "0c64d68ff0c3c23499cd830d6110b358", "is_disabled": 0, "is_reserved": 0, "bike_id": "0c64d68ff0c3c23499cd830d6110b358", "fusion_lon": 0.0, "type": "electric_scooter"}, {"rental_uris": {"ios": "https://dc.lft.to/lastmile_qr_scan", "android": "https://dc.lft.to/lastmile_qr_scan"}, "lat": 38.89892966666667, "lon": -77.04159716666666, "fusion_lat": 0.0, "name": "c33ee6ab9bab3a02846dcaee51ae86c4", "is_disabled": 0, "is_reserved": 0, "bike_id": "c33ee6ab9bab3a02846dcaee51ae86c4", "fusion_lon": 0.0, "type": "electric_scooter"}, {"rental_uris": {"ios": "https://dc.lft.to/lastmile_qr_scan", "android": "https://dc.lft.to/lastmile_qr_scan"}, "lat": 38.899187, "lon": -76.93369516666667, "fusion_lat": 0.0, "name": "8f4533ba58a816d6c73d5360a4b16539", "is_disabled": 0, "is_reserved": 0, "bike_id": "8f4533ba58a816d6c73d5360a4b16539", "fusion_lon": 0.0, "type": "electric_scooter"}, {"rental_uris": {"ios": "https://dc.lft.to/lastmile_qr_scan", "android": "https://dc.lft.to/lastmile_qr_scan"}, "lat": 38.915631833333336, "lon": -77.02593283333333, "fusion_lat": 0.0, "name": "fcce4e1916320b5f98c2a82626fc91bc", "is_disabled": 0, "is_reserved": 0, "bike_id": "fcce4e1916320b5f98c2a82626fc91bc", "fusion_lon": 0.0, "type": "electric_scooter"}, {"rental_uris": {"ios": "https://dc.lft.to/lastmile_qr_scan", "android": "https://dc.lft.to/lastmile_qr_scan"}, "lat": 38.900894666666666, "lon": -77.01769, "fusion_lat": 0.0, "name": "2b7239585e35a5e51253b3d2358789bc", "is_disabled": 0, "is_reserved": 0, "bike_id": "2b7239585e35a5e51253b3d2358789bc", "fusion_lon": 0.0, "type": "electric_scooter"}, {"rental_uris": {"ios": "https://dc.lft.to/lastmile_qr_scan", "android": "https://dc.lft.to/lastmile_qr_scan"}, "lat": 38.92254033333333, "lon": -77.0420725, "fusion_lat": 0.0, "name": "c8e1b04f5b6442dabd62b5fa3924a21a", "is_disabled": 0, "is_reserved": 0, "bike_id": "c8e1b04f5b6442dabd62b5fa3924a21a", "fusion_lon": 0.0, "type": "electric_scooter"}, {"rental_uris": {"ios": "https://dc.lft.to/lastmile_qr_scan", "android": "https://dc.lft.to/lastmile_qr_scan"}, "lat": 38.87879066666667, "lon": -77.01747, "fusion_lat": 0.0, "name": "47816c20de2becc898531a2446e88d57", "is_disabled": 0, "is_reserved": 0, "bike_id": "47816c20de2becc898531a2446e88d57", "fusion_lon": 0.0, "type": "electric_scooter"}, {"rental_uris": {"ios": "https://dc.lft.to/lastmile_qr_scan", "android": "https://dc.lft.to/lastmile_qr_scan"}, "lat": 38.92140066666666, "lon": -77.04347066666666, "fusion_lat": 0.0, "name": "456e2287ee0de5d140d154c1ec41af77", "is_disabled": 0, "is_reserved": 0, "bike_id": "456e2287ee0de5d140d154c1ec41af77", "fusion_lon": 0.0, "type": "electric_scooter"}, {"rental_uris": {"ios": "https://dc.lft.to/lastmile_qr_scan", "android": "https://dc.lft.to/lastmile_qr_scan"}, "lat": 38.922752, "lon": -77.02230133333333, "fusion_lat": 0.0, "name": "10fed8b061a537a81128646bc2e670a9", "is_disabled": 0, "is_reserved": 0, "bike_id": "10fed8b061a537a81128646bc2e670a9", "fusion_lon": 0.0, "type": "electric_scooter"}, {"rental_uris": {"ios": "https://dc.lft.to/lastmile_qr_scan", "android": "https://dc.lft.to/lastmile_qr_scan"}, "lat": 38.937304, "lon": -77.03265533333334, "fusion_lat": 0.0, "name": "05080d7e7f08259c8b82cba6ca06c47d", "is_disabled": 0, "is_reserved": 0, "bike_id": "05080d7e7f08259c8b82cba6ca06c47d", "fusion_lon": 0.0, "type": "electric_scooter"}, {"rental_uris": {"ios": "https://dc.lft.to/lastmile_qr_scan", "android": "https://dc.lft.to/lastmile_qr_scan"}, "lat": 38.93244766666667, "lon": -76.99510016666666, "fusion_lat": 0.0, "name": "2ac19064b403f39ada5b2c57245b3a66", "is_disabled": 0, "is_reserved": 0, "bike_id": "2ac19064b403f39ada5b2c57245b3a66", "fusion_lon": 0.0, "type": "electric_scooter"}, {"rental_uris": {"ios": "https://dc.lft.to/lastmile_qr_scan", "android": "https://dc.lft.to/lastmile_qr_scan"}, "lat": 38.93714816666667, "lon": -77.03634183333334, "fusion_lat": 0.0, "name": "4db8d2207afa295751a6411679f6b166", "is_disabled": 0, "is_reserved": 0, "bike_id": "4db8d2207afa295751a6411679f6b166", "fusion_lon": 0.0, "type": "electric_scooter"}, {"rental_uris": {"ios": "https://dc.lft.to/lastmile_qr_scan", "android": "https://dc.lft.to/lastmile_qr_scan"}, "lat": 38.87890216666667, "lon": -77.02247916666667, "fusion_lat": 0.0, "name": "fa7f36d17ab1f13fb08400c18ef41d80", "is_disabled": 0, "is_reserved": 0, "bike_id": "fa7f36d17ab1f13fb08400c18ef41d80", "fusion_lon": 0.0, "type": "electric_scooter"}, {"rental_uris": {"ios": "https://dc.lft.to/lastmile_qr_scan", "android": "https://dc.lft.to/lastmile_qr_scan"}, "lat": 38.905651666666664, "lon": -77.06281483333333, "fusion_lat": 0.0, "name": "b07b212d2dc361ab6cd184c6b4642d15", "is_disabled": 0, "is_reserved": 0, "bike_id": "b07b212d2dc361ab6cd184c6b4642d15", "fusion_lon": 0.0, "type": "electric_scooter"}, {"rental_uris": {"ios": "https://dc.lft.to/lastmile_qr_scan", "android": "https://dc.lft.to/lastmile_qr_scan"}, "lat": 38.91713, "lon": -77.03197383333334, "fusion_lat": 0.0, "name": "ece1c8df8035637f637403df5231f2a7", "is_disabled": 0, "is_reserved": 0, "bike_id": "ece1c8df8035637f637403df5231f2a7", "fusion_lon": 0.0, "type": "electric_scooter"}, {"rental_uris": {"ios": "https://dc.lft.to/lastmile_qr_scan", "android": "https://dc.lft.to/lastmile_qr_scan"}, "lat": 38.9152515, "lon": -77.012198, "fusion_lat": 0.0, "name": "9c65b25322ceefbf978dc482e785ae17", "is_disabled": 0, "is_reserved": 0, "bike_id": "9c65b25322ceefbf978dc482e785ae17", "fusion_lon": 0.0, "type": "electric_scooter"}, {"rental_uris": {"ios": "https://dc.lft.to/lastmile_qr_scan", "android": "https://dc.lft.to/lastmile_qr_scan"}, "lat": 38.910136333333334, "lon": -77.02855033333333, "fusion_lat": 0.0, "name": "dc64ad8ade275882ef358b4bf3c11642", "is_disabled": 0, "is_reserved": 0, "bike_id": "dc64ad8ade275882ef358b4bf3c11642", "fusion_lon": 0.0, "type": "electric_scooter"}, {"rental_uris": {"ios": "https://dc.lft.to/lastmile_qr_scan", "android": "https://dc.lft.to/lastmile_qr_scan"}, "lat": 38.897386166666664, "lon": -77.02565883333334, "fusion_lat": 0.0, "name": "0ec4d926978959bec62901adcd782596", "is_disabled": 0, "is_reserved": 0, "bike_id": "0ec4d926978959bec62901adcd782596", "fusion_lon": 0.0, "type": "electric_scooter"}, {"rental_uris": {"ios": "https://dc.lft.to/lastmile_qr_scan", "android": "https://dc.lft.to/lastmile_qr_scan"}, "lat": 38.917131, "lon": -77.02294616666667, "fusion_lat": 0.0, "name": "74ceef0885d4606850cdf9d762cc3579", "is_disabled": 0, "is_reserved": 0, "bike_id": "74ceef0885d4606850cdf9d762cc3579", "fusion_lon": 0.0, "type": "electric_scooter"}, {"rental_uris": {"ios": "https://dc.lft.to/lastmile_qr_scan", "android": "https://dc.lft.to/lastmile_qr_scan"}, "lat": 38.886592, "lon": -77.02827133333334, "fusion_lat": 0.0, "name": "f7a37cfbeecacd8a55e010a7dcc65bd8", "is_disabled": 0, "is_reserved": 0, "bike_id": "f7a37cfbeecacd8a55e010a7dcc65bd8", "fusion_lon": 0.0, "type": "electric_scooter"}, {"rental_uris": {"ios": "https://dc.lft.to/lastmile_qr_scan", "android": "https://dc.lft.to/lastmile_qr_scan"}, "lat": 38.9234595, "lon": -77.03494116666667, "fusion_lat": 0.0, "name": "e946b5d88c9d8d4cb327b9882376992e", "is_disabled": 0, "is_reserved": 0, "bike_id": "e946b5d88c9d8d4cb327b9882376992e", "fusion_lon": 0.0, "type": "electric_scooter"}, {"rental_uris": {"ios": "https://dc.lft.to/lastmile_qr_scan", "android": "https://dc.lft.to/lastmile_qr_scan"}, "lat": 38.9026045, "lon": -77.01734216666667, "fusion_lat": 0.0, "name": "e2636ad23ebd0d3dfeb9d322225883fa", "is_disabled": 0, "is_reserved": 0, "bike_id": "e2636ad23ebd0d3dfeb9d322225883fa", "fusion_lon": 0.0, "type": "electric_scooter"}, {"rental_uris": {"ios": "https://dc.lft.to/lastmile_qr_scan", "android": "https://dc.lft.to/lastmile_qr_scan"}, "lat": 38.90607466666667, "lon": -77.0565505, "fusion_lat": 0.0, "name": "ade08db729779a5daa2701c69ae6ab19", "is_disabled": 0, "is_reserved": 0, "bike_id": "ade08db729779a5daa2701c69ae6ab19", "fusion_lon": 0.0, "type": "electric_scooter"}, {"rental_uris": {"ios": "https://dc.lft.to/lastmile_qr_scan", "android": "https://dc.lft.to/lastmile_qr_scan"}, "lat": 38.9042215, "lon": -77.02399016666666, "fusion_lat": 0.0, "name": "2695421a093eb56045dc49976a4f8883", "is_disabled": 0, "is_reserved": 0, "bike_id": "2695421a093eb56045dc49976a4f8883", "fusion_lon": 0.0, "type": "electric_scooter"}, {"rental_uris": {"ios": "https://dc.lft.to/lastmile_qr_scan", "android": "https://dc.lft.to/lastmile_qr_scan"}, "lat": 38.884857333333336, "lon": -77.034753, "fusion_lat": 0.0, "name": "3869edadfe1f38b60439e7f68a1e7c1c", "is_disabled": 0, "is_reserved": 0, "bike_id": "3869edadfe1f38b60439e7f68a1e7c1c", "fusion_lon": 0.0, "type": "electric_scooter"}, {"rental_uris": {"ios": "https://dc.lft.to/lastmile_qr_scan", "android": "https://dc.lft.to/lastmile_qr_scan"}, "lat": 38.84471766666667, "lon": -76.978565, "fusion_lat": 0.0, "name": "e893a0284cb44ae427a051983dafa852", "is_disabled": 0, "is_reserved": 0, "bike_id": "e893a0284cb44ae427a051983dafa852", "fusion_lon": 0.0, "type": "electric_bike"}, {"rental_uris": {"ios": "https://dc.lft.to/lastmile_qr_scan", "android": "https://dc.lft.to/lastmile_qr_scan"}, "lat": 38.904301833333335, "lon": -76.98277166666666, "fusion_lat": 0.0, "name": "b2365569284cd49424fdf92251fd2678", "is_disabled": 0, "is_reserved": 0, "bike_id": "b2365569284cd49424fdf92251fd2678", "fusion_lon": 0.0, "type": "electric_scooter"}, {"rental_uris": {"ios": "https://dc.lft.to/lastmile_qr_scan", "android": "https://dc.lft.to/lastmile_qr_scan"}, "lat": 38.966800166666665, "lon": -77.02252083333333, "fusion_lat": 0.0, "name": "d7f21953879c43d4301f6867574e6352", "is_disabled": 0, "is_reserved": 0, "bike_id": "d7f21953879c43d4301f6867574e6352", "fusion_lon": 0.0, "type": "electric_bike"}, {"rental_uris": {"ios": "https://dc.lft.to/lastmile_qr_scan", "android": "https://dc.lft.to/lastmile_qr_scan"}, "lat": 38.917596333333336, "lon": -77.0270685, "fusion_lat": 0.0, "name": "a22f40dc248283b97fff5faafe437cbb", "is_disabled": 0, "is_reserved": 0, "bike_id": "a22f40dc248283b97fff5faafe437cbb", "fusion_lon": 0.0, "type": "electric_scooter"}, {"rental_uris": {"ios": "https://dc.lft.to/lastmile_qr_scan", "android": "https://dc.lft.to/lastmile_qr_scan"}, "lat": 38.90192066666667, "lon": -76.97879133333333, "fusion_lat": 0.0, "name": "31de6f67979022cda3516c35867c40fd", "is_disabled": 0, "is_reserved": 0, "bike_id": "31de6f67979022cda3516c35867c40fd", "fusion_lon": 0.0, "type": "electric_scooter"}, {"rental_uris": {"ios": "https://dc.lft.to/lastmile_qr_scan", "android": "https://dc.lft.to/lastmile_qr_scan"}, "lat": 38.932415, "lon": -76.995111, "fusion_lat": 0.0, "name": "b1e8063900659ca27f2b21aa3ddbe0bb", "is_disabled": 0, "is_reserved": 0, "bike_id": "b1e8063900659ca27f2b21aa3ddbe0bb", "fusion_lon": 0.0, "type": "electric_scooter"}, {"rental_uris": {"ios": "https://dc.lft.to/lastmile_qr_scan", "android": "https://dc.lft.to/lastmile_qr_scan"}, "lat": 38.91808, "lon": -77.02487266666667, "fusion_lat": 0.0, "name": "24e8f3e1286ec2016a0fce8832d55395", "is_disabled": 0, "is_reserved": 0, "bike_id": "24e8f3e1286ec2016a0fce8832d55395", "fusion_lon": 0.0, "type": "electric_scooter"}, {"rental_uris": {"ios": "https://dc.lft.to/lastmile_qr_scan", "android": "https://dc.lft.to/lastmile_qr_scan"}, "lat": 38.88372566666666, "lon": -76.99542166666667, "fusion_lat": 0.0, "name": "4654ce429cd1da6b2d75a3a7d4d6c065", "is_disabled": 0, "is_reserved": 0, "bike_id": "4654ce429cd1da6b2d75a3a7d4d6c065", "fusion_lon": 0.0, "type": "electric_scooter"}, {"rental_uris": {"ios": "https://dc.lft.to/lastmile_qr_scan", "android": "https://dc.lft.to/lastmile_qr_scan"}, "lat": 38.90868233333333, "lon": -77.01624633333333, "fusion_lat": 0.0, "name": "4608af9eeb15dc07bf1fb5b2ba44e0a7", "is_disabled": 0, "is_reserved": 0, "bike_id": "4608af9eeb15dc07bf1fb5b2ba44e0a7", "fusion_lon": 0.0, "type": "electric_scooter"}, {"rental_uris": {"ios": "https://dc.lft.to/lastmile_qr_scan", "android": "https://dc.lft.to/lastmile_qr_scan"}, "lat": 39.024349, "lon": -77.13099666666666, "fusion_lat": 0.0, "name": "ddd9c27e40fe7f561b63bb6a7f3d1f3a", "is_disabled": 0, "is_reserved": 0, "bike_id": "ddd9c27e40fe7f561b63bb6a7f3d1f3a", "fusion_lon": 0.0, "type": "electric_bike"}, {"rental_uris": {"ios": "https://dc.lft.to/lastmile_qr_scan", "android": "https://dc.lft.to/lastmile_qr_scan"}, "lat": 38.922193, "lon": -77.043326, "fusion_lat": 0.0, "name": "4206b55fee9cff044656045096678b3c", "is_disabled": 0, "is_reserved": 0, "bike_id": "4206b55fee9cff044656045096678b3c", "fusion_lon": 0.0, "type": "electric_scooter"}, {"rental_uris": {"ios": "https://dc.lft.to/lastmile_qr_scan", "android": "https://dc.lft.to/lastmile_qr_scan"}, "lat": 38.934583, "lon": -76.96440266666667, "fusion_lat": 0.0, "name": "7868555ced2bfebdb6f1e9cdd9d30118", "is_disabled": 0, "is_reserved": 0, "bike_id": "7868555ced2bfebdb6f1e9cdd9d30118", "fusion_lon": 0.0, "type": "electric_scooter"}, {"rental_uris": {"ios": "https://dc.lft.to/lastmile_qr_scan", "android": "https://dc.lft.to/lastmile_qr_scan"}, "lat": 38.90213816666667, "lon": -77.01974033333333, "fusion_lat": 0.0, "name": "ee5174f9d832b8f4d87bce9bb2f7364c", "is_disabled": 0, "is_reserved": 0, "bike_id": "ee5174f9d832b8f4d87bce9bb2f7364c", "fusion_lon": 0.0, "type": "electric_scooter"}, {"rental_uris": {"ios": "https://dc.lft.to/lastmile_qr_scan", "android": "https://dc.lft.to/lastmile_qr_scan"}, "lat": 38.90778983333333, "lon": -77.037744, "fusion_lat": 0.0, "name": "b5ba8c6658e6fb7f7ad601b32ca9e31f", "is_disabled": 0, "is_reserved": 0, "bike_id": "b5ba8c6658e6fb7f7ad601b32ca9e31f", "fusion_lon": 0.0, "type": "electric_scooter"}, {"rental_uris": {"ios": "https://dc.lft.to/lastmile_qr_scan", "android": "https://dc.lft.to/lastmile_qr_scan"}, "lat": 38.917805333333334, "lon": -77.02308933333333, "fusion_lat": 0.0, "name": "6ad86b3e8312bff6e834734b5ac76ae6", "is_disabled": 0, "is_reserved": 0, "bike_id": "6ad86b3e8312bff6e834734b5ac76ae6", "fusion_lon": 0.0, "type": "electric_scooter"}, {"rental_uris": {"ios": "https://dc.lft.to/lastmile_qr_scan", "android": "https://dc.lft.to/lastmile_qr_scan"}, "lat": 38.9149355, "lon": -77.0454805, "fusion_lat": 0.0, "name": "fb3f3f3d24ac9ac52b4be3be105d3b93", "is_disabled": 0, "is_reserved": 0, "bike_id": "fb3f3f3d24ac9ac52b4be3be105d3b93", "fusion_lon": 0.0, "type": "electric_scooter"}, {"rental_uris": {"ios": "https://dc.lft.to/lastmile_qr_scan", "android": "https://dc.lft.to/lastmile_qr_scan"}, "lat": 38.86703166666667, "lon": -76.98710633333333, "fusion_lat": 0.0, "name": "dcf1f882d11f85c6b298a1b20f6aa04a", "is_disabled": 0, "is_reserved": 0, "bike_id": "dcf1f882d11f85c6b298a1b20f6aa04a", "fusion_lon": 0.0, "type": "electric_scooter"}, {"rental_uris": {"ios": "https://dc.lft.to/lastmile_qr_scan", "android": "https://dc.lft.to/lastmile_qr_scan"}, "lat": 38.89603416666667, "lon": -77.0445135, "fusion_lat": 0.0, "name": "507718d8aee74987299638f70cdac239", "is_disabled": 0, "is_reserved": 0, "bike_id": "507718d8aee74987299638f70cdac239", "fusion_lon": 0.0, "type": "electric_scooter"}, {"rental_uris": {"ios": "https://dc.lft.to/lastmile_qr_scan", "android": "https://dc.lft.to/lastmile_qr_scan"}, "lat": 38.91703183333333, "lon": -77.0287305, "fusion_lat": 0.0, "name": "ade70de7293cd95e430c62fce8faa149", "is_disabled": 0, "is_reserved": 0, "bike_id": "ade70de7293cd95e430c62fce8faa149", "fusion_lon": 0.0, "type": "electric_scooter"}, {"rental_uris": {"ios": "https://dc.lft.to/lastmile_qr_scan", "android": "https://dc.lft.to/lastmile_qr_scan"}, "lat": 38.931413166666665, "lon": -77.04243633333333, "fusion_lat": 0.0, "name": "75f83586c02be2d6da7cbb1175c42340", "is_disabled": 0, "is_reserved": 0, "bike_id": "75f83586c02be2d6da7cbb1175c42340", "fusion_lon": 0.0, "type": "electric_scooter"}, {"rental_uris": {"ios": "https://dc.lft.to/lastmile_qr_scan", "android": "https://dc.lft.to/lastmile_qr_scan"}, "lat": 38.908612, "lon": -76.999613, "fusion_lat": 0.0, "name": "c751b8d17969dc6b5c4647228da9ee74", "is_disabled": 0, "is_reserved": 0, "bike_id": "c751b8d17969dc6b5c4647228da9ee74", "fusion_lon": 0.0, "type": "electric_scooter"}, {"rental_uris": {"ios": "https://dc.lft.to/lastmile_qr_scan", "android": "https://dc.lft.to/lastmile_qr_scan"}, "lat": 38.92033133333334, "lon": -77.04084233333333, "fusion_lat": 0.0, "name": "5cecc4f0608abc8bd93a9405ff5f6ecd", "is_disabled": 0, "is_reserved": 0, "bike_id": "5cecc4f0608abc8bd93a9405ff5f6ecd", "fusion_lon": 0.0, "type": "electric_scooter"}, {"rental_uris": {"ios": "https://dc.lft.to/lastmile_qr_scan", "android": "https://dc.lft.to/lastmile_qr_scan"}, "lat": 38.899929666666665, "lon": -77.02444183333333, "fusion_lat": 0.0, "name": "219ab2c48878c77a295ef79e7111a5b2", "is_disabled": 0, "is_reserved": 0, "bike_id": "219ab2c48878c77a295ef79e7111a5b2", "fusion_lon": 0.0, "type": "electric_scooter"}, {"rental_uris": {"ios": "https://dc.lft.to/lastmile_qr_scan", "android": "https://dc.lft.to/lastmile_qr_scan"}, "lat": 38.89827783333333, "lon": -77.05144333333334, "fusion_lat": 0.0, "name": "b0770e40a8608c5599e952979771ca31", "is_disabled": 0, "is_reserved": 0, "bike_id": "b0770e40a8608c5599e952979771ca31", "fusion_lon": 0.0, "type": "electric_scooter"}, {"rental_uris": {"ios": "https://dc.lft.to/lastmile_qr_scan", "android": "https://dc.lft.to/lastmile_qr_scan"}, "lat": 38.80016483333333, "lon": -77.05479733333334, "fusion_lat": 0.0, "name": "1d73764b6b1dcbcf3071523acfbede16", "is_disabled": 0, "is_reserved": 0, "bike_id": "1d73764b6b1dcbcf3071523acfbede16", "fusion_lon": 0.0, "type": "electric_bike"}, {"rental_uris": {"ios": "https://dc.lft.to/lastmile_qr_scan", "android": "https://dc.lft.to/lastmile_qr_scan"}, "lat": 38.8393395, "lon": -77.079045, "fusion_lat": 0.0, "name": "3e074a7dfcda7baf2c05fc4800b11d16", "is_disabled": 0, "is_reserved": 0, "bike_id": "3e074a7dfcda7baf2c05fc4800b11d16", "fusion_lon": 0.0, "type": "electric_bike"}, {"rental_uris": {"ios": "https://dc.lft.to/lastmile_qr_scan", "android": "https://dc.lft.to/lastmile_qr_scan"}, "lat": 38.90545733333333, "lon": -77.04861166666667, "fusion_lat": 0.0, "name": "741675dc625ca3aa3c681f0f4092db00", "is_disabled": 0, "is_reserved": 0, "bike_id": "741675dc625ca3aa3c681f0f4092db00", "fusion_lon": 0.0, "type": "electric_scooter"}, {"rental_uris": {"ios": "https://dc.lft.to/lastmile_qr_scan", "android": "https://dc.lft.to/lastmile_qr_scan"}, "lat": 38.9172205, "lon": -77.032371, "fusion_lat": 0.0, "name": "ed54d90c025cd11234be25e74bd20051", "is_disabled": 0, "is_reserved": 0, "bike_id": "ed54d90c025cd11234be25e74bd20051", "fusion_lon": 0.0, "type": "electric_scooter"}, {"rental_uris": {"ios": "https://dc.lft.to/lastmile_qr_scan", "android": "https://dc.lft.to/lastmile_qr_scan"}, "lat": 38.911250333333335, "lon": -77.03227733333334, "fusion_lat": 0.0, "name": "8ad3088cf07a14d582d1f32173fbe7c9", "is_disabled": 0, "is_reserved": 0, "bike_id": "8ad3088cf07a14d582d1f32173fbe7c9", "fusion_lon": 0.0, "type": "electric_scooter"}, {"rental_uris": {"ios": "https://dc.lft.to/lastmile_qr_scan", "android": "https://dc.lft.to/lastmile_qr_scan"}, "lat": 38.91922016666667, "lon": -77.02395366666667, "fusion_lat": 0.0, "name": "3453755aed5e7737545dfb0e1667c407", "is_disabled": 0, "is_reserved": 0, "bike_id": "3453755aed5e7737545dfb0e1667c407", "fusion_lon": 0.0, "type": "electric_scooter"}, {"rental_uris": {"ios": "https://dc.lft.to/lastmile_qr_scan", "android": "https://dc.lft.to/lastmile_qr_scan"}, "lat": 38.88432533333334, "lon": -76.95758583333334, "fusion_lat": 0.0, "name": "27a71d4a8b44d2fc646bc898aad6b933", "is_disabled": 0, "is_reserved": 0, "bike_id": "27a71d4a8b44d2fc646bc898aad6b933", "fusion_lon": 0.0, "type": "electric_scooter"}, {"rental_uris": {"ios": "https://dc.lft.to/lastmile_qr_scan", "android": "https://dc.lft.to/lastmile_qr_scan"}, "lat": 38.93391833333333, "lon": -77.03217433333333, "fusion_lat": 0.0, "name": "4b7bf6d520fa92148f88542570c268ec", "is_disabled": 0, "is_reserved": 0, "bike_id": "4b7bf6d520fa92148f88542570c268ec", "fusion_lon": 0.0, "type": "electric_scooter"}, {"rental_uris": {"ios": "https://dc.lft.to/lastmile_qr_scan", "android": "https://dc.lft.to/lastmile_qr_scan"}, "lat": 38.80446666666667, "lon": -77.05392316666666, "fusion_lat": 0.0, "name": "853dc7894c171aed621eba1398069e18", "is_disabled": 0, "is_reserved": 0, "bike_id": "853dc7894c171aed621eba1398069e18", "fusion_lon": 0.0, "type": "electric_bike"}, {"rental_uris": {"ios": "https://dc.lft.to/lastmile_qr_scan", "android": "https://dc.lft.to/lastmile_qr_scan"}, "lat": 38.91186183333333, "lon": -77.03970716666667, "fusion_lat": 0.0, "name": "7a95d56a90cd52be2984b50b4de1210e", "is_disabled": 0, "is_reserved": 0, "bike_id": "7a95d56a90cd52be2984b50b4de1210e", "fusion_lon": 0.0, "type": "electric_scooter"}, {"rental_uris": {"ios": "https://dc.lft.to/lastmile_qr_scan", "android": "https://dc.lft.to/lastmile_qr_scan"}, "lat": 38.966272833333335, "lon": -77.01997183333333, "fusion_lat": 0.0, "name": "d3fbf7577b7f161511c5b2d3a5382a17", "is_disabled": 0, "is_reserved": 0, "bike_id": "d3fbf7577b7f161511c5b2d3a5382a17", "fusion_lon": 0.0, "type": "electric_scooter"}, {"rental_uris": {"ios": "https://dc.lft.to/lastmile_qr_scan", "android": "https://dc.lft.to/lastmile_qr_scan"}, "lat": 38.89505783333333, "lon": -77.0033645, "fusion_lat": 0.0, "name": "c0932fe24a9ebd1024fd7d62df3d65e2", "is_disabled": 0, "is_reserved": 0, "bike_id": "c0932fe24a9ebd1024fd7d62df3d65e2", "fusion_lon": 0.0, "type": "electric_scooter"}, {"rental_uris": {"ios": "https://dc.lft.to/lastmile_qr_scan", "android": "https://dc.lft.to/lastmile_qr_scan"}, "lat": 38.95088483333333, "lon": -76.99793083333333, "fusion_lat": 0.0, "name": "bd557c400bde7acb9728816de45dec71", "is_disabled": 0, "is_reserved": 0, "bike_id": "bd557c400bde7acb9728816de45dec71", "fusion_lon": 0.0, "type": "electric_bike"}, {"rental_uris": {"ios": "https://dc.lft.to/lastmile_qr_scan", "android": "https://dc.lft.to/lastmile_qr_scan"}, "lat": 38.92510716666666, "lon": -77.00887333333333, "fusion_lat": 0.0, "name": "745f910964b1572ec974277a86ad2f0c", "is_disabled": 0, "is_reserved": 0, "bike_id": "745f910964b1572ec974277a86ad2f0c", "fusion_lon": 0.0, "type": "electric_scooter"}, {"rental_uris": {"ios": "https://dc.lft.to/lastmile_qr_scan", "android": "https://dc.lft.to/lastmile_qr_scan"}, "lat": 38.9303145, "lon": -77.03294866666667, "fusion_lat": 0.0, "name": "411b1b828750e4cbfad38f3226a261a2", "is_disabled": 0, "is_reserved": 0, "bike_id": "411b1b828750e4cbfad38f3226a261a2", "fusion_lon": 0.0, "type": "electric_scooter"}, {"rental_uris": {"ios": "https://dc.lft.to/lastmile_qr_scan", "android": "https://dc.lft.to/lastmile_qr_scan"}, "lat": 38.89722016666666, "lon": -77.02711133333334, "fusion_lat": 0.0, "name": "b4834fc6f76c547d0b5e3c265b988a88", "is_disabled": 0, "is_reserved": 0, "bike_id": "b4834fc6f76c547d0b5e3c265b988a88", "fusion_lon": 0.0, "type": "electric_scooter"}, {"rental_uris": {"ios": "https://dc.lft.to/lastmile_qr_scan", "android": "https://dc.lft.to/lastmile_qr_scan"}, "lat": 38.949243333333335, "lon": -77.01858166666666, "fusion_lat": 0.0, "name": "33491ed2ce0e5c8335b9fe229ed426b2", "is_disabled": 0, "is_reserved": 0, "bike_id": "33491ed2ce0e5c8335b9fe229ed426b2", "fusion_lon": 0.0, "type": "electric_scooter"}, {"rental_uris": {"ios": "https://dc.lft.to/lastmile_qr_scan", "android": "https://dc.lft.to/lastmile_qr_scan"}, "lat": 38.917397666666666, "lon": -77.03192666666666, "fusion_lat": 0.0, "name": "0920420353dd0746f10554dd7115de64", "is_disabled": 0, "is_reserved": 0, "bike_id": "0920420353dd0746f10554dd7115de64", "fusion_lon": 0.0, "type": "electric_scooter"}, {"rental_uris": {"ios": "https://dc.lft.to/lastmile_qr_scan", "android": "https://dc.lft.to/lastmile_qr_scan"}, "lat": 38.8971235, "lon": -77.04885366666667, "fusion_lat": 0.0, "name": "c3f76cdf80293face1f6ed94db71d5b0", "is_disabled": 0, "is_reserved": 0, "bike_id": "c3f76cdf80293face1f6ed94db71d5b0", "fusion_lon": 0.0, "type": "electric_scooter"}, {"rental_uris": {"ios": "https://dc.lft.to/lastmile_qr_scan", "android": "https://dc.lft.to/lastmile_qr_scan"}, "lat": 38.90981333333333, "lon": -77.03442383333334, "fusion_lat": 0.0, "name": "de681d0a8e3169bf018888b5ade6e07e", "is_disabled": 0, "is_reserved": 0, "bike_id": "de681d0a8e3169bf018888b5ade6e07e", "fusion_lon": 0.0, "type": "electric_scooter"}, {"rental_uris": {"ios": "https://dc.lft.to/lastmile_qr_scan", "android": "https://dc.lft.to/lastmile_qr_scan"}, "lat": 38.90945166666667, "lon": -77.04410783333333, "fusion_lat": 0.0, "name": "d88ed16b0c53d07dce842a07f4e76ace", "is_disabled": 0, "is_reserved": 0, "bike_id": "d88ed16b0c53d07dce842a07f4e76ace", "fusion_lon": 0.0, "type": "electric_scooter"}, {"rental_uris": {"ios": "https://dc.lft.to/lastmile_qr_scan", "android": "https://dc.lft.to/lastmile_qr_scan"}, "lat": 38.902846, "lon": -77.03922966666667, "fusion_lat": 0.0, "name": "0a5249d771c2a5541b2a29fb42169c70", "is_disabled": 0, "is_reserved": 0, "bike_id": "0a5249d771c2a5541b2a29fb42169c70", "fusion_lon": 0.0, "type": "electric_scooter"}, {"rental_uris": {"ios": "https://dc.lft.to/lastmile_qr_scan", "android": "https://dc.lft.to/lastmile_qr_scan"}, "lat": 38.91562666666667, "lon": -77.010368, "fusion_lat": 0.0, "name": "1496734ba3902a7e94303860bfd16b31", "is_disabled": 0, "is_reserved": 0, "bike_id": "1496734ba3902a7e94303860bfd16b31", "fusion_lon": 0.0, "type": "electric_scooter"}, {"rental_uris": {"ios": "https://dc.lft.to/lastmile_qr_scan", "android": "https://dc.lft.to/lastmile_qr_scan"}, "lat": 38.920662666666665, "lon": -77.03250816666667, "fusion_lat": 0.0, "name": "a0ca28b5673c0a4e422d5ca541c95254", "is_disabled": 0, "is_reserved": 0, "bike_id": "a0ca28b5673c0a4e422d5ca541c95254", "fusion_lon": 0.0, "type": "electric_scooter"}, {"rental_uris": {"ios": "https://dc.lft.to/lastmile_qr_scan", "android": "https://dc.lft.to/lastmile_qr_scan"}, "lat": 38.89766683333333, "lon": -77.01198166666667, "fusion_lat": 0.0, "name": "c980e6a055c082c141bac7f1cdd240e6", "is_disabled": 0, "is_reserved": 0, "bike_id": "c980e6a055c082c141bac7f1cdd240e6", "fusion_lon": 0.0, "type": "electric_scooter"}, {"rental_uris": {"ios": "https://dc.lft.to/lastmile_qr_scan", "android": "https://dc.lft.to/lastmile_qr_scan"}, "lat": 38.915405, "lon": -77.044604, "fusion_lat": 0.0, "name": "4735dd3831eb21d89bb5acda808e2ba5", "is_disabled": 0, "is_reserved": 0, "bike_id": "4735dd3831eb21d89bb5acda808e2ba5", "fusion_lon": 0.0, "type": "electric_scooter"}, {"rental_uris": {"ios": "https://dc.lft.to/lastmile_qr_scan", "android": "https://dc.lft.to/lastmile_qr_scan"}, "lat": 38.90301183333333, "lon": -77.0059715, "fusion_lat": 0.0, "name": "e702b6aab64075906d8ed5372b7fdc57", "is_disabled": 0, "is_reserved": 0, "bike_id": "e702b6aab64075906d8ed5372b7fdc57", "fusion_lon": 0.0, "type": "electric_scooter"}, {"rental_uris": {"ios": "https://dc.lft.to/lastmile_qr_scan", "android": "https://dc.lft.to/lastmile_qr_scan"}, "lat": 38.916706, "lon": -77.02391216666666, "fusion_lat": 0.0, "name": "40378eaa213716ff321b4018c6cde958", "is_disabled": 0, "is_reserved": 0, "bike_id": "40378eaa213716ff321b4018c6cde958", "fusion_lon": 0.0, "type": "electric_scooter"}, {"rental_uris": {"ios": "https://dc.lft.to/lastmile_qr_scan", "android": "https://dc.lft.to/lastmile_qr_scan"}, "lat": 38.859059, "lon": -76.99545266666667, "fusion_lat": 0.0, "name": "b226a53656c1d347d5bf9f933a84081d", "is_disabled": 0, "is_reserved": 0, "bike_id": "b226a53656c1d347d5bf9f933a84081d", "fusion_lon": 0.0, "type": "electric_scooter"}, {"rental_uris": {"ios": "https://dc.lft.to/lastmile_qr_scan", "android": "https://dc.lft.to/lastmile_qr_scan"}, "lat": 38.9278175, "lon": -77.0278, "fusion_lat": 0.0, "name": "f0a0a9b36dda712fd3efad593a253615", "is_disabled": 0, "is_reserved": 0, "bike_id": "f0a0a9b36dda712fd3efad593a253615", "fusion_lon": 0.0, "type": "electric_scooter"}, {"rental_uris": {"ios": "https://dc.lft.to/lastmile_qr_scan", "android": "https://dc.lft.to/lastmile_qr_scan"}, "lat": 38.90168383333334, "lon": -77.02917733333334, "fusion_lat": 0.0, "name": "32d769a4f9eba7648ec5efce14e380c2", "is_disabled": 0, "is_reserved": 0, "bike_id": "32d769a4f9eba7648ec5efce14e380c2", "fusion_lon": 0.0, "type": "electric_scooter"}, {"rental_uris": {"ios": "https://dc.lft.to/lastmile_qr_scan", "android": "https://dc.lft.to/lastmile_qr_scan"}, "lat": 38.8874345, "lon": -77.03164883333334, "fusion_lat": 0.0, "name": "70f3c7a2ce2c56fc115f345a0e430711", "is_disabled": 0, "is_reserved": 0, "bike_id": "70f3c7a2ce2c56fc115f345a0e430711", "fusion_lon": 0.0, "type": "electric_scooter"}, {"rental_uris": {"ios": "https://dc.lft.to/lastmile_qr_scan", "android": "https://dc.lft.to/lastmile_qr_scan"}, "lat": 38.9011565, "lon": -76.98061783333333, "fusion_lat": 0.0, "name": "541aa539be36bf0e0129845f441f0761", "is_disabled": 0, "is_reserved": 0, "bike_id": "541aa539be36bf0e0129845f441f0761", "fusion_lon": 0.0, "type": "electric_bike"}, {"rental_uris": {"ios": "https://dc.lft.to/lastmile_qr_scan", "android": "https://dc.lft.to/lastmile_qr_scan"}, "lat": 38.908680833333335, "lon": -76.99800233333333, "fusion_lat": 0.0, "name": "f0017b05d9ea171051069e37015d8b14", "is_disabled": 0, "is_reserved": 0, "bike_id": "f0017b05d9ea171051069e37015d8b14", "fusion_lon": 0.0, "type": "electric_scooter"}, {"rental_uris": {"ios": "https://dc.lft.to/lastmile_qr_scan", "android": "https://dc.lft.to/lastmile_qr_scan"}, "lat": 38.929137, "lon": -77.02091033333333, "fusion_lat": 0.0, "name": "fe4cfe90753e0a18bf521f3b57b8d0c2", "is_disabled": 0, "is_reserved": 0, "bike_id": "fe4cfe90753e0a18bf521f3b57b8d0c2", "fusion_lon": 0.0, "type": "electric_scooter"}, {"rental_uris": {"ios": "https://dc.lft.to/lastmile_qr_scan", "android": "https://dc.lft.to/lastmile_qr_scan"}, "lat": 38.9389175, "lon": -77.03317216666666, "fusion_lat": 0.0, "name": "210e1e17b9f3c2dd6a6fbec06b91a53e", "is_disabled": 0, "is_reserved": 0, "bike_id": "210e1e17b9f3c2dd6a6fbec06b91a53e", "fusion_lon": 0.0, "type": "electric_scooter"}, {"rental_uris": {"ios": "https://dc.lft.to/lastmile_qr_scan", "android": "https://dc.lft.to/lastmile_qr_scan"}, "lat": 38.92359583333333, "lon": -77.05194316666666, "fusion_lat": 0.0, "name": "d7f33e4cd7ef97ca5ec644a556e4a8b0", "is_disabled": 0, "is_reserved": 0, "bike_id": "d7f33e4cd7ef97ca5ec644a556e4a8b0", "fusion_lon": 0.0, "type": "electric_scooter"}, {"rental_uris": {"ios": "https://dc.lft.to/lastmile_qr_scan", "android": "https://dc.lft.to/lastmile_qr_scan"}, "lat": 38.901651, "lon": -76.93028916666667, "fusion_lat": 0.0, "name": "e62610bb0b8e96a17d2d210d66f21517", "is_disabled": 0, "is_reserved": 0, "bike_id": "e62610bb0b8e96a17d2d210d66f21517", "fusion_lon": 0.0, "type": "electric_scooter"}, {"rental_uris": {"ios": "https://dc.lft.to/lastmile_qr_scan", "android": "https://dc.lft.to/lastmile_qr_scan"}, "lat": 38.8783475, "lon": -76.983555, "fusion_lat": 0.0, "name": "f44f278476a962b5528be7d0803db5f8", "is_disabled": 0, "is_reserved": 0, "bike_id": "f44f278476a962b5528be7d0803db5f8", "fusion_lon": 0.0, "type": "electric_bike"}, {"rental_uris": {"ios": "https://dc.lft.to/lastmile_qr_scan", "android": "https://dc.lft.to/lastmile_qr_scan"}, "lat": 38.903368666666665, "lon": -77.0618755, "fusion_lat": 0.0, "name": "5af38371b55123a183dd9f8d1d81894f", "is_disabled": 0, "is_reserved": 0, "bike_id": "5af38371b55123a183dd9f8d1d81894f", "fusion_lon": 0.0, "type": "electric_scooter"}, {"rental_uris": {"ios": "https://dc.lft.to/lastmile_qr_scan", "android": "https://dc.lft.to/lastmile_qr_scan"}, "lat": 38.88267316666666, "lon": -77.0051075, "fusion_lat": 0.0, "name": "8b7a1a47a9d49253587f6d3233f4ec72", "is_disabled": 0, "is_reserved": 0, "bike_id": "8b7a1a47a9d49253587f6d3233f4ec72", "fusion_lon": 0.0, "type": "electric_scooter"}, {"rental_uris": {"ios": "https://dc.lft.to/lastmile_qr_scan", "android": "https://dc.lft.to/lastmile_qr_scan"}, "lat": 38.9236055, "lon": -77.05134183333334, "fusion_lat": 0.0, "name": "8e37fded493c365a5638d6f753f5052d", "is_disabled": 0, "is_reserved": 0, "bike_id": "8e37fded493c365a5638d6f753f5052d", "fusion_lon": 0.0, "type": "electric_scooter"}, {"rental_uris": {"ios": "https://dc.lft.to/lastmile_qr_scan", "android": "https://dc.lft.to/lastmile_qr_scan"}, "lat": 38.90692216666667, "lon": -77.023747, "fusion_lat": 0.0, "name": "01e424cf6f096fd49907491482d03446", "is_disabled": 0, "is_reserved": 0, "bike_id": "01e424cf6f096fd49907491482d03446", "fusion_lon": 0.0, "type": "electric_scooter"}, {"rental_uris": {"ios": "https://dc.lft.to/lastmile_qr_scan", "android": "https://dc.lft.to/lastmile_qr_scan"}, "lat": 38.90193633333333, "lon": -77.012868, "fusion_lat": 0.0, "name": "590228d96acd52562191d3a3c6752576", "is_disabled": 0, "is_reserved": 0, "bike_id": "590228d96acd52562191d3a3c6752576", "fusion_lon": 0.0, "type": "electric_scooter"}, {"rental_uris": {"ios": "https://dc.lft.to/lastmile_qr_scan", "android": "https://dc.lft.to/lastmile_qr_scan"}, "lat": 38.92451483333333, "lon": -77.22558116666667, "fusion_lat": 0.0, "name": "6556b6101f97667289cac129fae8661d", "is_disabled": 0, "is_reserved": 0, "bike_id": "6556b6101f97667289cac129fae8661d", "fusion_lon": 0.0, "type": "electric_bike"}, {"rental_uris": {"ios": "https://dc.lft.to/lastmile_qr_scan", "android": "https://dc.lft.to/lastmile_qr_scan"}, "lat": 38.902097, "lon": -76.97408166666666, "fusion_lat": 0.0, "name": "57e463d2fece54170ebba7cbf1d934f7", "is_disabled": 0, "is_reserved": 0, "bike_id": "57e463d2fece54170ebba7cbf1d934f7", "fusion_lon": 0.0, "type": "electric_bike"}, {"rental_uris": {"ios": "https://dc.lft.to/lastmile_qr_scan", "android": "https://dc.lft.to/lastmile_qr_scan"}, "lat": 38.90552683333333, "lon": -77.04172583333333, "fusion_lat": 0.0, "name": "ad16ab1e38ffdef662f3f3758fe2014b", "is_disabled": 0, "is_reserved": 0, "bike_id": "ad16ab1e38ffdef662f3f3758fe2014b", "fusion_lon": 0.0, "type": "electric_scooter"}, {"rental_uris": {"ios": "https://dc.lft.to/lastmile_qr_scan", "android": "https://dc.lft.to/lastmile_qr_scan"}, "lat": 38.903751166666666, "lon": -77.03122516666667, "fusion_lat": 0.0, "name": "2678b8628789d31dab5bac0ea06613de", "is_disabled": 0, "is_reserved": 0, "bike_id": "2678b8628789d31dab5bac0ea06613de", "fusion_lon": 0.0, "type": "electric_scooter"}, {"rental_uris": {"ios": "https://dc.lft.to/lastmile_qr_scan", "android": "https://dc.lft.to/lastmile_qr_scan"}, "lat": 38.914752666666665, "lon": -77.04347766666666, "fusion_lat": 0.0, "name": "37f0aa1bee88dbea11338da1155c044b", "is_disabled": 0, "is_reserved": 0, "bike_id": "37f0aa1bee88dbea11338da1155c044b", "fusion_lon": 0.0, "type": "electric_scooter"}, {"rental_uris": {"ios": "https://dc.lft.to/lastmile_qr_scan", "android": "https://dc.lft.to/lastmile_qr_scan"}, "lat": 38.9168535, "lon": -77.02960783333333, "fusion_lat": 0.0, "name": "7e62f788623889915b99acd7c916ad46", "is_disabled": 0, "is_reserved": 0, "bike_id": "7e62f788623889915b99acd7c916ad46", "fusion_lon": 0.0, "type": "electric_scooter"}, {"rental_uris": {"ios": "https://dc.lft.to/lastmile_qr_scan", "android": "https://dc.lft.to/lastmile_qr_scan"}, "lat": 38.9367055, "lon": -76.95203566666666, "fusion_lat": 0.0, "name": "fa4a7f1abf92e00f8a566628cae98f91", "is_disabled": 0, "is_reserved": 0, "bike_id": "fa4a7f1abf92e00f8a566628cae98f91", "fusion_lon": 0.0, "type": "electric_bike"}, {"rental_uris": {"ios": "https://dc.lft.to/lastmile_qr_scan", "android": "https://dc.lft.to/lastmile_qr_scan"}, "lat": 38.941956166666664, "lon": -77.0243775, "fusion_lat": 0.0, "name": "7826637c5781a9b9812f1bfda93b8ad5", "is_disabled": 0, "is_reserved": 0, "bike_id": "7826637c5781a9b9812f1bfda93b8ad5", "fusion_lon": 0.0, "type": "electric_scooter"}, {"rental_uris": {"ios": "https://dc.lft.to/lastmile_qr_scan", "android": "https://dc.lft.to/lastmile_qr_scan"}, "lat": 38.9844875, "lon": -77.02643466666666, "fusion_lat": 0.0, "name": "ec4fc2f9357fff426762de4c8986e0c9", "is_disabled": 0, "is_reserved": 0, "bike_id": "ec4fc2f9357fff426762de4c8986e0c9", "fusion_lon": 0.0, "type": "electric_scooter"}, {"rental_uris": {"ios": "https://dc.lft.to/lastmile_qr_scan", "android": "https://dc.lft.to/lastmile_qr_scan"}, "lat": 38.92642883333333, "lon": -76.98424166666666, "fusion_lat": 0.0, "name": "7aa0735f227486b84f1a8dad3440b27f", "is_disabled": 0, "is_reserved": 0, "bike_id": "7aa0735f227486b84f1a8dad3440b27f", "fusion_lon": 0.0, "type": "electric_bike"}, {"rental_uris": {"ios": "https://dc.lft.to/lastmile_qr_scan", "android": "https://dc.lft.to/lastmile_qr_scan"}, "lat": 38.92858066666667, "lon": -77.03015433333333, "fusion_lat": 0.0, "name": "930a4873e9b6d641a15e26586299b9a6", "is_disabled": 0, "is_reserved": 0, "bike_id": "930a4873e9b6d641a15e26586299b9a6", "fusion_lon": 0.0, "type": "electric_scooter"}, {"rental_uris": {"ios": "https://dc.lft.to/lastmile_qr_scan", "android": "https://dc.lft.to/lastmile_qr_scan"}, "lat": 38.908444833333334, "lon": -77.03466266666666, "fusion_lat": 0.0, "name": "b5ffc32596ebdd162ac73676151324ca", "is_disabled": 0, "is_reserved": 0, "bike_id": "b5ffc32596ebdd162ac73676151324ca", "fusion_lon": 0.0, "type": "electric_scooter"}, {"rental_uris": {"ios": "https://dc.lft.to/lastmile_qr_scan", "android": "https://dc.lft.to/lastmile_qr_scan"}, "lat": 38.9199545, "lon": -77.02173733333333, "fusion_lat": 0.0, "name": "e356344eb6e44cd67c9ebb089a219c17", "is_disabled": 0, "is_reserved": 0, "bike_id": "e356344eb6e44cd67c9ebb089a219c17", "fusion_lon": 0.0, "type": "electric_scooter"}, {"rental_uris": {"ios": "https://dc.lft.to/lastmile_qr_scan", "android": "https://dc.lft.to/lastmile_qr_scan"}, "lat": 38.886042, "lon": -76.9955525, "fusion_lat": 0.0, "name": "dee1d12fe1119f68eb1470a2b8bba1ea", "is_disabled": 0, "is_reserved": 0, "bike_id": "dee1d12fe1119f68eb1470a2b8bba1ea", "fusion_lon": 0.0, "type": "electric_scooter"}, {"rental_uris": {"ios": "https://dc.lft.to/lastmile_qr_scan", "android": "https://dc.lft.to/lastmile_qr_scan"}, "lat": 38.909019666666666, "lon": -77.04560466666666, "fusion_lat": 0.0, "name": "d80d1ce081c99bc9e7e828922117952e", "is_disabled": 0, "is_reserved": 0, "bike_id": "d80d1ce081c99bc9e7e828922117952e", "fusion_lon": 0.0, "type": "electric_scooter"}, {"rental_uris": {"ios": "https://dc.lft.to/lastmile_qr_scan", "android": "https://dc.lft.to/lastmile_qr_scan"}, "lat": 38.90866783333333, "lon": -76.997898, "fusion_lat": 0.0, "name": "21d790285b1da787de0ea716d225066b", "is_disabled": 0, "is_reserved": 0, "bike_id": "21d790285b1da787de0ea716d225066b", "fusion_lon": 0.0, "type": "electric_scooter"}, {"rental_uris": {"ios": "https://dc.lft.to/lastmile_qr_scan", "android": "https://dc.lft.to/lastmile_qr_scan"}, "lat": 38.9127325, "lon": -77.04463883333334, "fusion_lat": 0.0, "name": "e4865958fc8352881851305b8d3e922c", "is_disabled": 0, "is_reserved": 0, "bike_id": "e4865958fc8352881851305b8d3e922c", "fusion_lon": 0.0, "type": "electric_scooter"}, {"rental_uris": {"ios": "https://dc.lft.to/lastmile_qr_scan", "android": "https://dc.lft.to/lastmile_qr_scan"}, "lat": 38.9655105, "lon": -77.03624466666666, "fusion_lat": 0.0, "name": "d335cce11fa20c235ab7a723feeeb834", "is_disabled": 0, "is_reserved": 0, "bike_id": "d335cce11fa20c235ab7a723feeeb834", "fusion_lon": 0.0, "type": "electric_scooter"}, {"rental_uris": {"ios": "https://dc.lft.to/lastmile_qr_scan", "android": "https://dc.lft.to/lastmile_qr_scan"}, "lat": 38.83811683333333, "lon": -77.09524333333333, "fusion_lat": 0.0, "name": "f164f15f321893a30a703cb96c6ebc93", "is_disabled": 0, "is_reserved": 0, "bike_id": "f164f15f321893a30a703cb96c6ebc93", "fusion_lon": 0.0, "type": "electric_bike"}, {"rental_uris": {"ios": "https://dc.lft.to/lastmile_qr_scan", "android": "https://dc.lft.to/lastmile_qr_scan"}, "lat": 38.899554333333334, "lon": -77.04511416666666, "fusion_lat": 0.0, "name": "93d5495fb34b72d06bae1f8b3f13daa4", "is_disabled": 0, "is_reserved": 0, "bike_id": "93d5495fb34b72d06bae1f8b3f13daa4", "fusion_lon": 0.0, "type": "electric_scooter"}, {"rental_uris": {"ios": "https://dc.lft.to/lastmile_qr_scan", "android": "https://dc.lft.to/lastmile_qr_scan"}, "lat": 38.9028585, "lon": -77.03927966666667, "fusion_lat": 0.0, "name": "a5099ced38667aedb124b147f371fcf0", "is_disabled": 0, "is_reserved": 0, "bike_id": "a5099ced38667aedb124b147f371fcf0", "fusion_lon": 0.0, "type": "electric_scooter"}, {"rental_uris": {"ios": "https://dc.lft.to/lastmile_qr_scan", "android": "https://dc.lft.to/lastmile_qr_scan"}, "lat": 38.885178, "lon": -76.99093283333333, "fusion_lat": 0.0, "name": "fb2ba0a02c3e8ee1f4b15ae3eba06690", "is_disabled": 0, "is_reserved": 0, "bike_id": "fb2ba0a02c3e8ee1f4b15ae3eba06690", "fusion_lon": 0.0, "type": "electric_scooter"}, {"rental_uris": {"ios": "https://dc.lft.to/lastmile_qr_scan", "android": "https://dc.lft.to/lastmile_qr_scan"}, "lat": 38.80703883333334, "lon": -77.06177183333334, "fusion_lat": 0.0, "name": "1b112a55c0410789425115b8dde79627", "is_disabled": 0, "is_reserved": 0, "bike_id": "1b112a55c0410789425115b8dde79627", "fusion_lon": 0.0, "type": "electric_bike"}, {"rental_uris": {"ios": "https://dc.lft.to/lastmile_qr_scan", "android": "https://dc.lft.to/lastmile_qr_scan"}, "lat": 38.87363633333333, "lon": -76.97027433333334, "fusion_lat": 0.0, "name": "1dc60f2d38a76b45db693d1cdfcb6506", "is_disabled": 0, "is_reserved": 0, "bike_id": "1dc60f2d38a76b45db693d1cdfcb6506", "fusion_lon": 0.0, "type": "electric_scooter"}, {"rental_uris": {"ios": "https://dc.lft.to/lastmile_qr_scan", "android": "https://dc.lft.to/lastmile_qr_scan"}, "lat": 38.91469166666667, "lon": -77.0458755, "fusion_lat": 0.0, "name": "25a623961be742ba52c91b34f0d910b8", "is_disabled": 0, "is_reserved": 0, "bike_id": "25a623961be742ba52c91b34f0d910b8", "fusion_lon": 0.0, "type": "electric_scooter"}, {"rental_uris": {"ios": "https://dc.lft.to/lastmile_qr_scan", "android": "https://dc.lft.to/lastmile_qr_scan"}, "lat": 38.9096025, "lon": -77.0328725, "fusion_lat": 0.0, "name": "2ed290bfb21d10f1dd62d8096ea52b78", "is_disabled": 0, "is_reserved": 0, "bike_id": "2ed290bfb21d10f1dd62d8096ea52b78", "fusion_lon": 0.0, "type": "electric_scooter"}, {"rental_uris": {"ios": "https://dc.lft.to/lastmile_qr_scan", "android": "https://dc.lft.to/lastmile_qr_scan"}, "lat": 38.90680116666667, "lon": -77.023855, "fusion_lat": 0.0, "name": "5c12afe9b9d6a5dbec82b67852e3f79d", "is_disabled": 0, "is_reserved": 0, "bike_id": "5c12afe9b9d6a5dbec82b67852e3f79d", "fusion_lon": 0.0, "type": "electric_scooter"}, {"rental_uris": {"ios": "https://dc.lft.to/lastmile_qr_scan", "android": "https://dc.lft.to/lastmile_qr_scan"}, "lat": 38.887444, "lon": -77.03163133333334, "fusion_lat": 0.0, "name": "65df86700c417471a8c1ce881d7c01d0", "is_disabled": 0, "is_reserved": 0, "bike_id": "65df86700c417471a8c1ce881d7c01d0", "fusion_lon": 0.0, "type": "electric_scooter"}, {"rental_uris": {"ios": "https://dc.lft.to/lastmile_qr_scan", "android": "https://dc.lft.to/lastmile_qr_scan"}, "lat": 38.89523533333333, "lon": -77.02286216666667, "fusion_lat": 0.0, "name": "604923cd4b1576961997887ac3dee739", "is_disabled": 0, "is_reserved": 0, "bike_id": "604923cd4b1576961997887ac3dee739", "fusion_lon": 0.0, "type": "electric_scooter"}, {"rental_uris": {"ios": "https://dc.lft.to/lastmile_qr_scan", "android": "https://dc.lft.to/lastmile_qr_scan"}, "lat": 38.90874933333333, "lon": -77.04102716666667, "fusion_lat": 0.0, "name": "5f9b5b112ea4cc9024b3ae12cca72b1a", "is_disabled": 0, "is_reserved": 0, "bike_id": "5f9b5b112ea4cc9024b3ae12cca72b1a", "fusion_lon": 0.0, "type": "electric_scooter"}, {"rental_uris": {"ios": "https://dc.lft.to/lastmile_qr_scan", "android": "https://dc.lft.to/lastmile_qr_scan"}, "lat": 38.905279166666666, "lon": -77.061573, "fusion_lat": 0.0, "name": "6a5bd4cd286627f5f0ab5cd23a22ef8c", "is_disabled": 0, "is_reserved": 0, "bike_id": "6a5bd4cd286627f5f0ab5cd23a22ef8c", "fusion_lon": 0.0, "type": "electric_scooter"}, {"rental_uris": {"ios": "https://dc.lft.to/lastmile_qr_scan", "android": "https://dc.lft.to/lastmile_qr_scan"}, "lat": 38.911215, "lon": -77.0440555, "fusion_lat": 0.0, "name": "b66abeca4d45f4bb6737c2e683c80b5b", "is_disabled": 0, "is_reserved": 0, "bike_id": "b66abeca4d45f4bb6737c2e683c80b5b", "fusion_lon": 0.0, "type": "electric_scooter"}, {"rental_uris": {"ios": "https://dc.lft.to/lastmile_qr_scan", "android": "https://dc.lft.to/lastmile_qr_scan"}, "lat": 38.902642, "lon": -77.061609, "fusion_lat": 0.0, "name": "e3be056a8344d4936b538f6ee025cf09", "is_disabled": 0, "is_reserved": 0, "bike_id": "e3be056a8344d4936b538f6ee025cf09", "fusion_lon": 0.0, "type": "electric_scooter"}, {"rental_uris": {"ios": "https://dc.lft.to/lastmile_qr_scan", "android": "https://dc.lft.to/lastmile_qr_scan"}, "lat": 38.93045216666667, "lon": -77.00216733333333, "fusion_lat": 0.0, "name": "e02fc23713763ce749f731ba9c8a58f0", "is_disabled": 0, "is_reserved": 0, "bike_id": "e02fc23713763ce749f731ba9c8a58f0", "fusion_lon": 0.0, "type": "electric_scooter"}, {"rental_uris": {"ios": "https://dc.lft.to/lastmile_qr_scan", "android": "https://dc.lft.to/lastmile_qr_scan"}, "lat": 38.8849355, "lon": -77.00728483333333, "fusion_lat": 0.0, "name": "68c505632af29c2f1ccd1e7f4ae0032c", "is_disabled": 0, "is_reserved": 0, "bike_id": "68c505632af29c2f1ccd1e7f4ae0032c", "fusion_lon": 0.0, "type": "electric_scooter"}, {"rental_uris": {"ios": "https://dc.lft.to/lastmile_qr_scan", "android": "https://dc.lft.to/lastmile_qr_scan"}, "lat": 38.88400633333333, "lon": -77.02416366666667, "fusion_lat": 0.0, "name": "2a7c868ca27218bba7b57d61f932dd2c", "is_disabled": 0, "is_reserved": 0, "bike_id": "2a7c868ca27218bba7b57d61f932dd2c", "fusion_lon": 0.0, "type": "electric_bike"}, {"rental_uris": {"ios": "https://dc.lft.to/lastmile_qr_scan", "android": "https://dc.lft.to/lastmile_qr_scan"}, "lat": 38.880287833333334, "lon": -77.02223466666666, "fusion_lat": 0.0, "name": "3c5b04a15d775940541af503f072cd4e", "is_disabled": 0, "is_reserved": 0, "bike_id": "3c5b04a15d775940541af503f072cd4e", "fusion_lon": 0.0, "type": "electric_scooter"}, {"rental_uris": {"ios": "https://dc.lft.to/lastmile_qr_scan", "android": "https://dc.lft.to/lastmile_qr_scan"}, "lat": 38.894306, "lon": -77.03964916666666, "fusion_lat": 0.0, "name": "2c1aa4d7ca8f46f93360a42117dec7c6", "is_disabled": 0, "is_reserved": 0, "bike_id": "2c1aa4d7ca8f46f93360a42117dec7c6", "fusion_lon": 0.0, "type": "electric_scooter"}, {"rental_uris": {"ios": "https://dc.lft.to/lastmile_qr_scan", "android": "https://dc.lft.to/lastmile_qr_scan"}, "lat": 38.9660685, "lon": -77.01981833333333, "fusion_lat": 0.0, "name": "f1924a7ddbe86ed38fc91c6336d4d4ef", "is_disabled": 0, "is_reserved": 0, "bike_id": "f1924a7ddbe86ed38fc91c6336d4d4ef", "fusion_lon": 0.0, "type": "electric_scooter"}, {"rental_uris": {"ios": "https://dc.lft.to/lastmile_qr_scan", "android": "https://dc.lft.to/lastmile_qr_scan"}, "lat": 38.8988425, "lon": -76.93176633333333, "fusion_lat": 0.0, "name": "7fe2a2630d3857cdac217c52177af1c7", "is_disabled": 0, "is_reserved": 0, "bike_id": "7fe2a2630d3857cdac217c52177af1c7", "fusion_lon": 0.0, "type": "electric_scooter"}, {"rental_uris": {"ios": "https://dc.lft.to/lastmile_qr_scan", "android": "https://dc.lft.to/lastmile_qr_scan"}, "lat": 38.917434, "lon": -77.03183783333333, "fusion_lat": 0.0, "name": "c81083efeb9d90ea6f567ceacb8d53e5", "is_disabled": 0, "is_reserved": 0, "bike_id": "c81083efeb9d90ea6f567ceacb8d53e5", "fusion_lon": 0.0, "type": "electric_scooter"}, {"rental_uris": {"ios": "https://dc.lft.to/lastmile_qr_scan", "android": "https://dc.lft.to/lastmile_qr_scan"}, "lat": 38.916189833333334, "lon": -77.04841233333333, "fusion_lat": 0.0, "name": "1929c7a1d8b8af4e40dd14054c9210bd", "is_disabled": 0, "is_reserved": 0, "bike_id": "1929c7a1d8b8af4e40dd14054c9210bd", "fusion_lon": 0.0, "type": "electric_scooter"}, {"rental_uris": {"ios": "https://dc.lft.to/lastmile_qr_scan", "android": "https://dc.lft.to/lastmile_qr_scan"}, "lat": 38.88818416666667, "lon": -76.930094, "fusion_lat": 0.0, "name": "c1219c46f105a58fb1e826fd9c3fc825", "is_disabled": 0, "is_reserved": 0, "bike_id": "c1219c46f105a58fb1e826fd9c3fc825", "fusion_lon": 0.0, "type": "electric_scooter"}, {"rental_uris": {"ios": "https://dc.lft.to/lastmile_qr_scan", "android": "https://dc.lft.to/lastmile_qr_scan"}, "lat": 38.900531666666666, "lon": -77.03649483333334, "fusion_lat": 0.0, "name": "610702263359f557a6d3d05873df656b", "is_disabled": 0, "is_reserved": 0, "bike_id": "610702263359f557a6d3d05873df656b", "fusion_lon": 0.0, "type": "electric_scooter"}, {"rental_uris": {"ios": "https://dc.lft.to/lastmile_qr_scan", "android": "https://dc.lft.to/lastmile_qr_scan"}, "lat": 38.90126683333333, "lon": -77.04365333333334, "fusion_lat": 0.0, "name": "c6ce8d75f5b1533312c72158e42703d5", "is_disabled": 0, "is_reserved": 0, "bike_id": "c6ce8d75f5b1533312c72158e42703d5", "fusion_lon": 0.0, "type": "electric_scooter"}, {"rental_uris": {"ios": "https://dc.lft.to/lastmile_qr_scan", "android": "https://dc.lft.to/lastmile_qr_scan"}, "lat": 38.9222445, "lon": -77.03453816666666, "fusion_lat": 0.0, "name": "7d42add964ce578183dca1c3a07eb64d", "is_disabled": 0, "is_reserved": 0, "bike_id": "7d42add964ce578183dca1c3a07eb64d", "fusion_lon": 0.0, "type": "electric_scooter"}, {"rental_uris": {"ios": "https://dc.lft.to/lastmile_qr_scan", "android": "https://dc.lft.to/lastmile_qr_scan"}, "lat": 38.9072075, "lon": -77.02269816666667, "fusion_lat": 0.0, "name": "f4c958cd06cee0e9c4b1b7dbec3057dc", "is_disabled": 0, "is_reserved": 0, "bike_id": "f4c958cd06cee0e9c4b1b7dbec3057dc", "fusion_lon": 0.0, "type": "electric_scooter"}, {"rental_uris": {"ios": "https://dc.lft.to/lastmile_qr_scan", "android": "https://dc.lft.to/lastmile_qr_scan"}, "lat": 38.9212065, "lon": -77.03656516666666, "fusion_lat": 0.0, "name": "602f00b9b012dfc9dffb21c34764cc67", "is_disabled": 0, "is_reserved": 0, "bike_id": "602f00b9b012dfc9dffb21c34764cc67", "fusion_lon": 0.0, "type": "electric_scooter"}, {"rental_uris": {"ios": "https://dc.lft.to/lastmile_qr_scan", "android": "https://dc.lft.to/lastmile_qr_scan"}, "lat": 39.0399085, "lon": -76.9992475, "fusion_lat": 0.0, "name": "b52754291f2e05cd86326e6fd6f50b9d", "is_disabled": 0, "is_reserved": 0, "bike_id": "b52754291f2e05cd86326e6fd6f50b9d", "fusion_lon": 0.0, "type": "electric_bike"}, {"rental_uris": {"ios": "https://dc.lft.to/lastmile_qr_scan", "android": "https://dc.lft.to/lastmile_qr_scan"}, "lat": 38.91867533333333, "lon": -77.04065566666667, "fusion_lat": 0.0, "name": "4b967f287cbe9f29296ba4beee467bfa", "is_disabled": 0, "is_reserved": 0, "bike_id": "4b967f287cbe9f29296ba4beee467bfa", "fusion_lon": 0.0, "type": "electric_scooter"}, {"rental_uris": {"ios": "https://dc.lft.to/lastmile_qr_scan", "android": "https://dc.lft.to/lastmile_qr_scan"}, "lat": 38.91573783333333, "lon": -77.031868, "fusion_lat": 0.0, "name": "7ed10e2893e6b5e627c2adf7be17506d", "is_disabled": 0, "is_reserved": 0, "bike_id": "7ed10e2893e6b5e627c2adf7be17506d", "fusion_lon": 0.0, "type": "electric_scooter"}, {"rental_uris": {"ios": "https://dc.lft.to/lastmile_qr_scan", "android": "https://dc.lft.to/lastmile_qr_scan"}, "lat": 38.865064333333336, "lon": -76.99005083333333, "fusion_lat": 0.0, "name": "e25b0334f2c10df8d6f4cf71d36aace5", "is_disabled": 0, "is_reserved": 0, "bike_id": "e25b0334f2c10df8d6f4cf71d36aace5", "fusion_lon": 0.0, "type": "electric_scooter"}, {"rental_uris": {"ios": "https://dc.lft.to/lastmile_qr_scan", "android": "https://dc.lft.to/lastmile_qr_scan"}, "lat": 38.86248883333333, "lon": -76.99265416666667, "fusion_lat": 0.0, "name": "bb7661be6365c2095ed5ee24554950a0", "is_disabled": 0, "is_reserved": 0, "bike_id": "bb7661be6365c2095ed5ee24554950a0", "fusion_lon": 0.0, "type": "electric_scooter"}, {"rental_uris": {"ios": "https://dc.lft.to/lastmile_qr_scan", "android": "https://dc.lft.to/lastmile_qr_scan"}, "lat": 38.939163666666666, "lon": -77.060374, "fusion_lat": 0.0, "name": "cb0363665b8ab549fcb72f6b4a9930a5", "is_disabled": 0, "is_reserved": 0, "bike_id": "cb0363665b8ab549fcb72f6b4a9930a5", "fusion_lon": 0.0, "type": "electric_scooter"}, {"rental_uris": {"ios": "https://dc.lft.to/lastmile_qr_scan", "android": "https://dc.lft.to/lastmile_qr_scan"}, "lat": 38.862516666666664, "lon": -76.99553166666666, "fusion_lat": 0.0, "name": "90c884bfce9c81d8c8fc2d6ab2aa7cfe", "is_disabled": 0, "is_reserved": 0, "bike_id": "90c884bfce9c81d8c8fc2d6ab2aa7cfe", "fusion_lon": 0.0, "type": "electric_scooter"}, {"rental_uris": {"ios": "https://dc.lft.to/lastmile_qr_scan", "android": "https://dc.lft.to/lastmile_qr_scan"}, "lat": 38.921897, "lon": -77.04008883333333, "fusion_lat": 0.0, "name": "bd914abf5b5ab19380d820f8763d8e85", "is_disabled": 0, "is_reserved": 0, "bike_id": "bd914abf5b5ab19380d820f8763d8e85", "fusion_lon": 0.0, "type": "electric_scooter"}, {"rental_uris": {"ios": "https://dc.lft.to/lastmile_qr_scan", "android": "https://dc.lft.to/lastmile_qr_scan"}, "lat": 38.909867, "lon": -77.02211316666667, "fusion_lat": 0.0, "name": "1e3105ef04a04f37ea084e8562825090", "is_disabled": 0, "is_reserved": 0, "bike_id": "1e3105ef04a04f37ea084e8562825090", "fusion_lon": 0.0, "type": "electric_scooter"}, {"rental_uris": {"ios": "https://dc.lft.to/lastmile_qr_scan", "android": "https://dc.lft.to/lastmile_qr_scan"}, "lat": 38.917078, "lon": -77.02609816666667, "fusion_lat": 0.0, "name": "41c2b2607e4e90aeb46eb64f6343548f", "is_disabled": 0, "is_reserved": 0, "bike_id": "41c2b2607e4e90aeb46eb64f6343548f", "fusion_lon": 0.0, "type": "electric_scooter"}, {"rental_uris": {"ios": "https://dc.lft.to/lastmile_qr_scan", "android": "https://dc.lft.to/lastmile_qr_scan"}, "lat": 38.90377066666667, "lon": -77.0402005, "fusion_lat": 0.0, "name": "09d1591a4f74c6f0fa4f4ea767325fcd", "is_disabled": 0, "is_reserved": 0, "bike_id": "09d1591a4f74c6f0fa4f4ea767325fcd", "fusion_lon": 0.0, "type": "electric_scooter"}, {"rental_uris": {"ios": "https://dc.lft.to/lastmile_qr_scan", "android": "https://dc.lft.to/lastmile_qr_scan"}, "lat": 38.87706416666666, "lon": -77.00334466666666, "fusion_lat": 0.0, "name": "930b7fc07030ef00a7498b56b5c6036f", "is_disabled": 0, "is_reserved": 0, "bike_id": "930b7fc07030ef00a7498b56b5c6036f", "fusion_lon": 0.0, "type": "electric_scooter"}, {"rental_uris": {"ios": "https://dc.lft.to/lastmile_qr_scan", "android": "https://dc.lft.to/lastmile_qr_scan"}, "lat": 38.887476666666664, "lon": -76.90088266666666, "fusion_lat": 0.0, "name": "0f949b8204dde7b10e060691a7b2e911", "is_disabled": 0, "is_reserved": 0, "bike_id": "0f949b8204dde7b10e060691a7b2e911", "fusion_lon": 0.0, "type": "electric_bike"}, {"rental_uris": {"ios": "https://dc.lft.to/lastmile_qr_scan", "android": "https://dc.lft.to/lastmile_qr_scan"}, "lat": 38.8966385, "lon": -77.0115815, "fusion_lat": 0.0, "name": "32223f0a5fdf11c194e68b01405b632b", "is_disabled": 0, "is_reserved": 0, "bike_id": "32223f0a5fdf11c194e68b01405b632b", "fusion_lon": 0.0, "type": "electric_scooter"}, {"rental_uris": {"ios": "https://dc.lft.to/lastmile_qr_scan", "android": "https://dc.lft.to/lastmile_qr_scan"}, "lat": 38.9352935, "lon": -77.02363116666666, "fusion_lat": 0.0, "name": "6936115006c02a36fc8007383a59a6ee", "is_disabled": 0, "is_reserved": 0, "bike_id": "6936115006c02a36fc8007383a59a6ee", "fusion_lon": 0.0, "type": "electric_scooter"}, {"rental_uris": {"ios": "https://dc.lft.to/lastmile_qr_scan", "android": "https://dc.lft.to/lastmile_qr_scan"}, "lat": 38.92163516666667, "lon": -77.0333535, "fusion_lat": 0.0, "name": "43954e2ab1a39c309cfb397f8c6bd331", "is_disabled": 0, "is_reserved": 0, "bike_id": "43954e2ab1a39c309cfb397f8c6bd331", "fusion_lon": 0.0, "type": "electric_scooter"}, {"rental_uris": {"ios": "https://dc.lft.to/lastmile_qr_scan", "android": "https://dc.lft.to/lastmile_qr_scan"}, "lat": 38.918171, "lon": -77.025786, "fusion_lat": 0.0, "name": "1d2462398a6b68c7198bc0b7fc8dfb1f", "is_disabled": 0, "is_reserved": 0, "bike_id": "1d2462398a6b68c7198bc0b7fc8dfb1f", "fusion_lon": 0.0, "type": "electric_scooter"}, {"rental_uris": {"ios": "https://dc.lft.to/lastmile_qr_scan", "android": "https://dc.lft.to/lastmile_qr_scan"}, "lat": 38.90454883333334, "lon": -77.05324916666666, "fusion_lat": 0.0, "name": "1553fe5519a4bce7472ba3a813bbc4c6", "is_disabled": 0, "is_reserved": 0, "bike_id": "1553fe5519a4bce7472ba3a813bbc4c6", "fusion_lon": 0.0, "type": "electric_scooter"}, {"rental_uris": {"ios": "https://dc.lft.to/lastmile_qr_scan", "android": "https://dc.lft.to/lastmile_qr_scan"}, "lat": 38.884377666666666, "lon": -77.00345383333334, "fusion_lat": 0.0, "name": "1fe3a80ddfe457693429fb5ea9961aab", "is_disabled": 0, "is_reserved": 0, "bike_id": "1fe3a80ddfe457693429fb5ea9961aab", "fusion_lon": 0.0, "type": "electric_scooter"}, {"rental_uris": {"ios": "https://dc.lft.to/lastmile_qr_scan", "android": "https://dc.lft.to/lastmile_qr_scan"}, "lat": 38.8972665, "lon": -77.02163566666667, "fusion_lat": 0.0, "name": "cbe5a8632cb53b2d91e54963b1e55491", "is_disabled": 0, "is_reserved": 0, "bike_id": "cbe5a8632cb53b2d91e54963b1e55491", "fusion_lon": 0.0, "type": "electric_scooter"}, {"rental_uris": {"ios": "https://dc.lft.to/lastmile_qr_scan", "android": "https://dc.lft.to/lastmile_qr_scan"}, "lat": 38.90336766666667, "lon": -77.01622166666667, "fusion_lat": 0.0, "name": "0290efb0f50c54792c25b1e76d4ec507", "is_disabled": 0, "is_reserved": 0, "bike_id": "0290efb0f50c54792c25b1e76d4ec507", "fusion_lon": 0.0, "type": "electric_scooter"}, {"rental_uris": {"ios": "https://dc.lft.to/lastmile_qr_scan", "android": "https://dc.lft.to/lastmile_qr_scan"}, "lat": 38.918176333333335, "lon": -77.0320945, "fusion_lat": 0.0, "name": "b6767385ef532eb962306526e0954ebb", "is_disabled": 0, "is_reserved": 0, "bike_id": "b6767385ef532eb962306526e0954ebb", "fusion_lon": 0.0, "type": "electric_scooter"}, {"rental_uris": {"ios": "https://dc.lft.to/lastmile_qr_scan", "android": "https://dc.lft.to/lastmile_qr_scan"}, "lat": 38.8870345, "lon": -77.01369666666666, "fusion_lat": 0.0, "name": "595a944bdca3b721c4c19aa1a66a3ef1", "is_disabled": 0, "is_reserved": 0, "bike_id": "595a944bdca3b721c4c19aa1a66a3ef1", "fusion_lon": 0.0, "type": "electric_scooter"}, {"rental_uris": {"ios": "https://dc.lft.to/lastmile_qr_scan", "android": "https://dc.lft.to/lastmile_qr_scan"}, "lat": 38.902289833333334, "lon": -77.05985383333334, "fusion_lat": 0.0, "name": "f0000cb0916116d4eda3021fe87c7065", "is_disabled": 0, "is_reserved": 0, "bike_id": "f0000cb0916116d4eda3021fe87c7065", "fusion_lon": 0.0, "type": "electric_scooter"}, {"rental_uris": {"ios": "https://dc.lft.to/lastmile_qr_scan", "android": "https://dc.lft.to/lastmile_qr_scan"}, "lat": 38.864686, "lon": -76.98229283333333, "fusion_lat": 0.0, "name": "9054c5a5809d90be3a5a0335adfd9b97", "is_disabled": 0, "is_reserved": 0, "bike_id": "9054c5a5809d90be3a5a0335adfd9b97", "fusion_lon": 0.0, "type": "electric_scooter"}, {"rental_uris": {"ios": "https://dc.lft.to/lastmile_qr_scan", "android": "https://dc.lft.to/lastmile_qr_scan"}, "lat": 38.94292683333333, "lon": -77.021707, "fusion_lat": 0.0, "name": "944f926c6e65eac04f87c817b1d111a3", "is_disabled": 0, "is_reserved": 0, "bike_id": "944f926c6e65eac04f87c817b1d111a3", "fusion_lon": 0.0, "type": "electric_scooter"}, {"rental_uris": {"ios": "https://dc.lft.to/lastmile_qr_scan", "android": "https://dc.lft.to/lastmile_qr_scan"}, "lat": 38.91110716666667, "lon": -77.043667, "fusion_lat": 0.0, "name": "edf16aa28532efa2b342853f6ab08053", "is_disabled": 0, "is_reserved": 0, "bike_id": "edf16aa28532efa2b342853f6ab08053", "fusion_lon": 0.0, "type": "electric_scooter"}, {"rental_uris": {"ios": "https://dc.lft.to/lastmile_qr_scan", "android": "https://dc.lft.to/lastmile_qr_scan"}, "lat": 38.941720833333335, "lon": -76.992565, "fusion_lat": 0.0, "name": "a197abb5a294a90c16fd284b48407523", "is_disabled": 0, "is_reserved": 0, "bike_id": "a197abb5a294a90c16fd284b48407523", "fusion_lon": 0.0, "type": "electric_bike"}, {"rental_uris": {"ios": "https://dc.lft.to/lastmile_qr_scan", "android": "https://dc.lft.to/lastmile_qr_scan"}, "lat": 38.92623316666667, "lon": -77.04222033333333, "fusion_lat": 0.0, "name": "318c8b35836317312238fda41e7f53f4", "is_disabled": 0, "is_reserved": 0, "bike_id": "318c8b35836317312238fda41e7f53f4", "fusion_lon": 0.0, "type": "electric_scooter"}, {"rental_uris": {"ios": "https://dc.lft.to/lastmile_qr_scan", "android": "https://dc.lft.to/lastmile_qr_scan"}, "lat": 38.89668666666667, "lon": -76.9883755, "fusion_lat": 0.0, "name": "24fe3921f5e6b25bf87d1bab595acbff", "is_disabled": 0, "is_reserved": 0, "bike_id": "24fe3921f5e6b25bf87d1bab595acbff", "fusion_lon": 0.0, "type": "electric_scooter"}, {"rental_uris": {"ios": "https://dc.lft.to/lastmile_qr_scan", "android": "https://dc.lft.to/lastmile_qr_scan"}, "lat": 38.874213, "lon": -77.08571466666666, "fusion_lat": 0.0, "name": "e308e4a8e9b26a2c14010214f97836e2", "is_disabled": 0, "is_reserved": 0, "bike_id": "e308e4a8e9b26a2c14010214f97836e2", "fusion_lon": 0.0, "type": "electric_bike"}, {"rental_uris": {"ios": "https://dc.lft.to/lastmile_qr_scan", "android": "https://dc.lft.to/lastmile_qr_scan"}, "lat": 38.8950975, "lon": -77.01076116666667, "fusion_lat": 0.0, "name": "7782d2c1bc956fc3cb2bd082e6a9cdc5", "is_disabled": 0, "is_reserved": 0, "bike_id": "7782d2c1bc956fc3cb2bd082e6a9cdc5", "fusion_lon": 0.0, "type": "electric_scooter"}, {"rental_uris": {"ios": "https://dc.lft.to/lastmile_qr_scan", "android": "https://dc.lft.to/lastmile_qr_scan"}, "lat": 38.896150166666665, "lon": -77.02625916666666, "fusion_lat": 0.0, "name": "8b16d438dd9674681c7189e6de4cf5c4", "is_disabled": 0, "is_reserved": 0, "bike_id": "8b16d438dd9674681c7189e6de4cf5c4", "fusion_lon": 0.0, "type": "electric_scooter"}, {"rental_uris": {"ios": "https://dc.lft.to/lastmile_qr_scan", "android": "https://dc.lft.to/lastmile_qr_scan"}, "lat": 38.923085666666665, "lon": -77.04462333333333, "fusion_lat": 0.0, "name": "57a53e3bc606cb994e4e33aacb937bfc", "is_disabled": 0, "is_reserved": 0, "bike_id": "57a53e3bc606cb994e4e33aacb937bfc", "fusion_lon": 0.0, "type": "electric_scooter"}, {"rental_uris": {"ios": "https://dc.lft.to/lastmile_qr_scan", "android": "https://dc.lft.to/lastmile_qr_scan"}, "lat": 38.88715533333333, "lon": -76.99628416666667, "fusion_lat": 0.0, "name": "d435a8dd468dcb7f3ce63459a200d79e", "is_disabled": 0, "is_reserved": 0, "bike_id": "d435a8dd468dcb7f3ce63459a200d79e", "fusion_lon": 0.0, "type": "electric_scooter"}, {"rental_uris": {"ios": "https://dc.lft.to/lastmile_qr_scan", "android": "https://dc.lft.to/lastmile_qr_scan"}, "lat": 38.907285, "lon": -77.04071316666666, "fusion_lat": 0.0, "name": "4465efd53b10a70a8b1f9719438b1955", "is_disabled": 0, "is_reserved": 0, "bike_id": "4465efd53b10a70a8b1f9719438b1955", "fusion_lon": 0.0, "type": "electric_scooter"}, {"rental_uris": {"ios": "https://dc.lft.to/lastmile_qr_scan", "android": "https://dc.lft.to/lastmile_qr_scan"}, "lat": 38.898401166666666, "lon": -77.044323, "fusion_lat": 0.0, "name": "a4214e13e1bb0dff93323b4116870eab", "is_disabled": 0, "is_reserved": 0, "bike_id": "a4214e13e1bb0dff93323b4116870eab", "fusion_lon": 0.0, "type": "electric_scooter"}, {"rental_uris": {"ios": "https://dc.lft.to/lastmile_qr_scan", "android": "https://dc.lft.to/lastmile_qr_scan"}, "lat": 38.9111045, "lon": -77.03286433333334, "fusion_lat": 0.0, "name": "780aa9d6faf0142eb57b1d294cb175c3", "is_disabled": 0, "is_reserved": 0, "bike_id": "780aa9d6faf0142eb57b1d294cb175c3", "fusion_lon": 0.0, "type": "electric_scooter"}, {"rental_uris": {"ios": "https://dc.lft.to/lastmile_qr_scan", "android": "https://dc.lft.to/lastmile_qr_scan"}, "lat": 38.91406116666667, "lon": -77.02377583333333, "fusion_lat": 0.0, "name": "bfffa3d4809e769ff2270a8ff89fcef2", "is_disabled": 0, "is_reserved": 0, "bike_id": "bfffa3d4809e769ff2270a8ff89fcef2", "fusion_lon": 0.0, "type": "electric_scooter"}, {"rental_uris": {"ios": "https://dc.lft.to/lastmile_qr_scan", "android": "https://dc.lft.to/lastmile_qr_scan"}, "lat": 38.91406583333333, "lon": -77.02009866666667, "fusion_lat": 0.0, "name": "55eac6f7ed948f8ad3a77382e4fe9081", "is_disabled": 0, "is_reserved": 0, "bike_id": "55eac6f7ed948f8ad3a77382e4fe9081", "fusion_lon": 0.0, "type": "electric_scooter"}, {"rental_uris": {"ios": "https://dc.lft.to/lastmile_qr_scan", "android": "https://dc.lft.to/lastmile_qr_scan"}, "lat": 38.841463166666664, "lon": -77.1146495, "fusion_lat": 0.0, "name": "b9df2747724c1eee5d75df1a46b38e40", "is_disabled": 0, "is_reserved": 0, "bike_id": "b9df2747724c1eee5d75df1a46b38e40", "fusion_lon": 0.0, "type": "electric_bike"}, {"rental_uris": {"ios": "https://dc.lft.to/lastmile_qr_scan", "android": "https://dc.lft.to/lastmile_qr_scan"}, "lat": 38.933999166666666, "lon": -77.0221745, "fusion_lat": 0.0, "name": "540876d5af71cd1ae4949d1a0eb694ec", "is_disabled": 0, "is_reserved": 0, "bike_id": "540876d5af71cd1ae4949d1a0eb694ec", "fusion_lon": 0.0, "type": "electric_scooter"}, {"rental_uris": {"ios": "https://dc.lft.to/lastmile_qr_scan", "android": "https://dc.lft.to/lastmile_qr_scan"}, "lat": 38.90523183333333, "lon": -77.0661405, "fusion_lat": 0.0, "name": "a2071c67151d548afaced69a9815f6f1", "is_disabled": 0, "is_reserved": 0, "bike_id": "a2071c67151d548afaced69a9815f6f1", "fusion_lon": 0.0, "type": "electric_scooter"}, {"rental_uris": {"ios": "https://dc.lft.to/lastmile_qr_scan", "android": "https://dc.lft.to/lastmile_qr_scan"}, "lat": 38.906935833333335, "lon": -77.02595233333334, "fusion_lat": 0.0, "name": "02f80523c37def27cfa2cbc4dd846e07", "is_disabled": 0, "is_reserved": 0, "bike_id": "02f80523c37def27cfa2cbc4dd846e07", "fusion_lon": 0.0, "type": "electric_scooter"}, {"rental_uris": {"ios": "https://dc.lft.to/lastmile_qr_scan", "android": "https://dc.lft.to/lastmile_qr_scan"}, "lat": 38.9922285, "lon": -76.9444865, "fusion_lat": 0.0, "name": "c2ce99ba63afd49286dd38facec30cce", "is_disabled": 0, "is_reserved": 0, "bike_id": "c2ce99ba63afd49286dd38facec30cce", "fusion_lon": 0.0, "type": "electric_bike"}, {"rental_uris": {"ios": "https://dc.lft.to/lastmile_qr_scan", "android": "https://dc.lft.to/lastmile_qr_scan"}, "lat": 38.855654333333334, "lon": -77.11314283333333, "fusion_lat": 0.0, "name": "f37709c0a04bf17d46d5ef3be6fd855c", "is_disabled": 0, "is_reserved": 0, "bike_id": "f37709c0a04bf17d46d5ef3be6fd855c", "fusion_lon": 0.0, "type": "electric_bike"}, {"rental_uris": {"ios": "https://dc.lft.to/lastmile_qr_scan", "android": "https://dc.lft.to/lastmile_qr_scan"}, "lat": 38.92769916666666, "lon": -77.0273315, "fusion_lat": 0.0, "name": "98373dd16b2acea6dacac02753a97c56", "is_disabled": 0, "is_reserved": 0, "bike_id": "98373dd16b2acea6dacac02753a97c56", "fusion_lon": 0.0, "type": "electric_scooter"}, {"rental_uris": {"ios": "https://dc.lft.to/lastmile_qr_scan", "android": "https://dc.lft.to/lastmile_qr_scan"}, "lat": 38.854813666666665, "lon": -77.11604433333333, "fusion_lat": 0.0, "name": "b722263b8cc19da10ee853299829e4bf", "is_disabled": 0, "is_reserved": 0, "bike_id": "b722263b8cc19da10ee853299829e4bf", "fusion_lon": 0.0, "type": "electric_bike"}, {"rental_uris": {"ios": "https://dc.lft.to/lastmile_qr_scan", "android": "https://dc.lft.to/lastmile_qr_scan"}, "lat": 38.907219166666664, "lon": -77.04093183333333, "fusion_lat": 0.0, "name": "68d91ff27071eb90d2f731ee218f82b4", "is_disabled": 0, "is_reserved": 0, "bike_id": "68d91ff27071eb90d2f731ee218f82b4", "fusion_lon": 0.0, "type": "electric_scooter"}, {"rental_uris": {"ios": "https://dc.lft.to/lastmile_qr_scan", "android": "https://dc.lft.to/lastmile_qr_scan"}, "lat": 38.91809416666667, "lon": -77.02495933333333, "fusion_lat": 0.0, "name": "dbd4c4421696f6f9779c6afd27a8338a", "is_disabled": 0, "is_reserved": 0, "bike_id": "dbd4c4421696f6f9779c6afd27a8338a", "fusion_lon": 0.0, "type": "electric_scooter"}, {"rental_uris": {"ios": "https://dc.lft.to/lastmile_qr_scan", "android": "https://dc.lft.to/lastmile_qr_scan"},