{"data": {"bikes": [{"fusion_lat": 0.0, "lon": -77.03261966666666, "is_reserved": 0, "bike_id": "8d40044475f64717f24b87b4633d2fc3", "fusion_lon": 0.0, "rental_uris": {"android": "https://dc.lft.to/lastmile_qr_scan", "ios": "https://dc.lft.to/lastmile_qr_scan"}, "name": "8d40044475f64717f24b87b4633d2fc3", "type": "electric_scooter", "lat": 38.90270666666667, "is_disabled": 0}, {"fusion_lat": 0.0, "lon": -76.97331066666666, "is_reserved": 0, "bike_id": "175331772a460ad8c57427377be97b0b", "fusion_lon": 0.0, "rental_uris": {"android": "https://dc.lft.to/lastmile_qr_scan", "ios": "https://dc.lft.to/lastmile_qr_scan"}, "name": "175331772a460ad8c57427377be97b0b", "type": "electric_scooter", "lat": 38.90407833333333, "is_disabled": 0}, {"fusion_lat": 0.0, "lon": -77.00209166666667, "is_reserved": 0, "bike_id": "cc10702a0aecc2e41c9a20b76b7578e0", "fusion_lon": 0.0, "rental_uris": {"android": "https://dc.lft.to/lastmile_qr_scan", "ios": "https://dc.lft.to/lastmile_qr_scan"}, "name": "cc10702a0aecc2e41c9a20b76b7578e0", "type": "electric_scooter", "lat": 38.895422333333336, "is_disabled": 0}, {"fusion_lat": 0.0, "lon": -77.00293416666666, "is_reserved": 0, "bike_id": "896727b5fad5fcc545d90d33373f1dd0", "fusion_lon": 0.0, "rental_uris": {"android": "https://dc.lft.to/lastmile_qr_scan", "ios": "https://dc.lft.to/lastmile_qr_scan"}, "name": "896727b5fad5fcc545d90d33373f1dd0", "type": "electric_scooter", "lat": 38.89491316666667, "is_disabled": 0}, {"fusion_lat": 0.0, "lon": -77.00046883333333, "is_reserved": 0, "bike_id": "4d3c71e3f8ff01dfbe2c965787e90faf", "fusion_lon": 0.0, "rental_uris": {"android": "https://dc.lft.to/lastmile_qr_scan", "ios": "https://dc.lft.to/lastmile_qr_scan"}, "name": "4d3c71e3f8ff01dfbe2c965787e90faf", "type": "electric_scooter", "lat": 38.90011833333333, "is_disabled": 0}, {"fusion_lat": 0.0, "lon": -77.03067183333333, "is_reserved": 0, "bike_id": "b76e43590fb6739e30830685469035bd", "fusion_lon": 0.0, "rental_uris": {"android": "https://dc.lft.to/lastmile_qr_scan", "ios": "https://dc.lft.to/lastmile_qr_scan"}, "name": "b76e43590fb6739e30830685469035bd", "type": "electric_scooter", "lat": 38.9225425, "is_disabled": 0}, {"fusion_lat": 0.0, "lon": -76.9936205, "is_reserved": 0, "bike_id": "07025e750e9d75095943ca971ea9cef5", "fusion_lon": 0.0, "rental_uris": {"android": "https://dc.lft.to/lastmile_qr_scan", "ios": "https://dc.lft.to/lastmile_qr_scan"}, "name": "07025e750e9d75095943ca971ea9cef5", "type": "electric_scooter", "lat": 38.92839716666667, "is_disabled": 0}, {"fusion_lat": 0.0, "lon": -77.06299533333333, "is_reserved": 0, "bike_id": "67e1244e5860c4680fbefc3b5a2ea05a", "fusion_lon": 0.0, "rental_uris": {"android": "https://dc.lft.to/lastmile_qr_scan", "ios": "https://dc.lft.to/lastmile_qr_scan"}, "name": "67e1244e5860c4680fbefc3b5a2ea05a", "type": "electric_scooter", "lat": 38.943452666666666, "is_disabled": 0}, {"fusion_lat": 0.0, "lon": -77.029461, "is_reserved": 0, "bike_id": "bc67d30ec9fa86a04734e68f3887952d", "fusion_lon": 0.0, "rental_uris": {"android": "https://dc.lft.to/lastmile_qr_scan", "ios": "https://dc.lft.to/lastmile_qr_scan"}, "name": "bc67d30ec9fa86a04734e68f3887952d", "type": "electric_scooter", "lat": 38.91406166666667, "is_disabled": 0}, {"fusion_lat": 0.0, "lon": -77.00375566666666, "is_reserved": 0, "bike_id": "295624ad06f8e35c346d54a8822556fa", "fusion_lon": 0.0, "rental_uris": {"android": "https://dc.lft.to/lastmile_qr_scan", "ios": "https://dc.lft.to/lastmile_qr_scan"}, "name": "295624ad06f8e35c346d54a8822556fa", "type": "electric_scooter", "lat": 38.897357666666664, "is_disabled": 0}, {"fusion_lat": 0.0, "lon": -77.03339116666666, "is_reserved": 0, "bike_id": "416d7853e879c26d7b99cafe3d6ada66", "fusion_lon": 0.0, "rental_uris": {"android": "https://dc.lft.to/lastmile_qr_scan", "ios": "https://dc.lft.to/lastmile_qr_scan"}, "name": "416d7853e879c26d7b99cafe3d6ada66", "type": "electric_scooter", "lat": 38.91706166666667, "is_disabled": 0}, {"fusion_lat": 0.0, "lon": -77.026936, "is_reserved": 0, "bike_id": "cfc8c2eb670742e97f792d7dd597317e", "fusion_lon": 0.0, "rental_uris": {"android": "https://dc.lft.to/lastmile_qr_scan", "ios": "https://dc.lft.to/lastmile_qr_scan"}, "name": "cfc8c2eb670742e97f792d7dd597317e", "type": "electric_scooter", "lat": 38.92331033333333, "is_disabled": 0}, {"fusion_lat": 0.0, "lon": -76.98697283333334, "is_reserved": 0, "bike_id": "4646cbf11401491d9ebc566828f3aec5", "fusion_lon": 0.0, "rental_uris": {"android": "https://dc.lft.to/lastmile_qr_scan", "ios": "https://dc.lft.to/lastmile_qr_scan"}, "name": "4646cbf11401491d9ebc566828f3aec5", "type": "electric_scooter", "lat": 38.8625315, "is_disabled": 0}, {"fusion_lat": 0.0, "lon": -77.0432885, "is_reserved": 0, "bike_id": "eaddaa9d4a5cf4fcad6c161677dcd243", "fusion_lon": 0.0, "rental_uris": {"android": "https://dc.lft.to/lastmile_qr_scan", "ios": "https://dc.lft.to/lastmile_qr_scan"}, "name": "eaddaa9d4a5cf4fcad6c161677dcd243", "type": "electric_scooter", "lat": 38.892258, "is_disabled": 0}, {"fusion_lat": 0.0, "lon": -77.00106133333334, "is_reserved": 0, "bike_id": "64b552fc9e2a302027b283720800f5ab", "fusion_lon": 0.0, "rental_uris": {"android": "https://dc.lft.to/lastmile_qr_scan", "ios": "https://dc.lft.to/lastmile_qr_scan"}, "name": "64b552fc9e2a302027b283720800f5ab", "type": "electric_scooter", "lat": 38.824471, "is_disabled": 0}, {"fusion_lat": 0.0, "lon": -77.10604016666667, "is_reserved": 0, "bike_id": "7828e55d427d3e491637f5b586a8ce1c", "fusion_lon": 0.0, "rental_uris": {"android": "https://dc.lft.to/lastmile_qr_scan", "ios": "https://dc.lft.to/lastmile_qr_scan"}, "name": "7828e55d427d3e491637f5b586a8ce1c", "type": "electric_bike", "lat": 38.92897416666667, "is_disabled": 0}, {"fusion_lat": 0.0, "lon": -77.03486583333333, "is_reserved": 0, "bike_id": "574f30d7e08f9e320ea3de8c29909eac", "fusion_lon": 0.0, "rental_uris": {"android": "https://dc.lft.to/lastmile_qr_scan", "ios": "https://dc.lft.to/lastmile_qr_scan"}, "name": "574f30d7e08f9e320ea3de8c29909eac", "type": "electric_scooter", "lat": 38.923428, "is_disabled": 0}, {"fusion_lat": 0.0, "lon": -77.02119566666667, "is_reserved": 0, "bike_id": "8b230d029c2800429d9a0f4dd893c983", "fusion_lon": 0.0, "rental_uris": {"android": "https://dc.lft.to/lastmile_qr_scan", "ios": "https://dc.lft.to/lastmile_qr_scan"}, "name": "8b230d029c2800429d9a0f4dd893c983", "type": "electric_scooter", "lat": 38.923445, "is_disabled": 0}, {"fusion_lat": 0.0, "lon": -76.98608, "is_reserved": 0, "bike_id": "fc5f6b569345d474b95a52f2ab14773c", "fusion_lon": 0.0, "rental_uris": {"android": "https://dc.lft.to/lastmile_qr_scan", "ios": "https://dc.lft.to/lastmile_qr_scan"}, "name": "fc5f6b569345d474b95a52f2ab14773c", "type": "electric_scooter", "lat": 38.8607745, "is_disabled": 0}, {"fusion_lat": 0.0, "lon": -77.032099, "is_reserved": 0, "bike_id": "624fba3702797ed7b5e544da27d63f66", "fusion_lon": 0.0, "rental_uris": {"android": "https://dc.lft.to/lastmile_qr_scan", "ios": "https://dc.lft.to/lastmile_qr_scan"}, "name": "624fba3702797ed7b5e544da27d63f66", "type": "electric_scooter", "lat": 38.916438, "is_disabled": 0}, {"fusion_lat": 0.0, "lon": -77.02533416666667, "is_reserved": 0, "bike_id": "1875b9e1d6c361861b5648b49e83fecb", "fusion_lon": 0.0, "rental_uris": {"android": "https://dc.lft.to/lastmile_qr_scan", "ios": "https://dc.lft.to/lastmile_qr_scan"}, "name": "1875b9e1d6c361861b5648b49e83fecb", "type": "electric_scooter", "lat": 38.914832, "is_disabled": 0}, {"fusion_lat": 0.0, "lon": -77.02187333333333, "is_reserved": 0, "bike_id": "9fdb81e18c1f15a5e4b1de886dd51af4", "fusion_lon": 0.0, "rental_uris": {"android": "https://dc.lft.to/lastmile_qr_scan", "ios": "https://dc.lft.to/lastmile_qr_scan"}, "name": "9fdb81e18c1f15a5e4b1de886dd51af4", "type": "electric_scooter", "lat": 38.91459366666667, "is_disabled": 0}, {"fusion_lat": 0.0, "lon": -76.9872775, "is_reserved": 0, "bike_id": "7a91c086ff3ad38cf07600e3b1d50304", "fusion_lon": 0.0, "rental_uris": {"android": "https://dc.lft.to/lastmile_qr_scan", "ios": "https://dc.lft.to/lastmile_qr_scan"}, "name": "7a91c086ff3ad38cf07600e3b1d50304", "type": "electric_scooter", "lat": 38.86710566666667, "is_disabled": 0}, {"fusion_lat": 0.0, "lon": -76.98538616666667, "is_reserved": 0, "bike_id": "78c3677f8225cfe27fceaae3800bd1d9", "fusion_lon": 0.0, "rental_uris": {"android": "https://dc.lft.to/lastmile_qr_scan", "ios": "https://dc.lft.to/lastmile_qr_scan"}, "name": "78c3677f8225cfe27fceaae3800bd1d9", "type": "electric_scooter", "lat": 38.9102635, "is_disabled": 0}, {"fusion_lat": 0.0, "lon": -76.96150916666667, "is_reserved": 0, "bike_id": "bb74db6dfc50545b43b23078e5cbd756", "fusion_lon": 0.0, "rental_uris": {"android": "https://dc.lft.to/lastmile_qr_scan", "ios": "https://dc.lft.to/lastmile_qr_scan"}, "name": "bb74db6dfc50545b43b23078e5cbd756", "type": "electric_scooter", "lat": 38.883648, "is_disabled": 0}, {"fusion_lat": 0.0, "lon": -77.04106333333333, "is_reserved": 0, "bike_id": "93d7f460c6f93611a9919dbda0e5d620", "fusion_lon": 0.0, "rental_uris": {"android": "https://dc.lft.to/lastmile_qr_scan", "ios": "https://dc.lft.to/lastmile_qr_scan"}, "name": "93d7f460c6f93611a9919dbda0e5d620", "type": "electric_scooter", "lat": 38.9172345, "is_disabled": 0}, {"fusion_lat": 0.0, "lon": -77.02740283333333, "is_reserved": 0, "bike_id": "9e651fa71cf44881a93a98d0532f371e", "fusion_lon": 0.0, "rental_uris": {"android": "https://dc.lft.to/lastmile_qr_scan", "ios": "https://dc.lft.to/lastmile_qr_scan"}, "name": "9e651fa71cf44881a93a98d0532f371e", "type": "electric_scooter", "lat": 38.92859166666667, "is_disabled": 0}, {"fusion_lat": 0.0, "lon": -77.02696266666666, "is_reserved": 0, "bike_id": "cbfac0cb0c84393d481c6166e33ee918", "fusion_lon": 0.0, "rental_uris": {"android": "https://dc.lft.to/lastmile_qr_scan", "ios": "https://dc.lft.to/lastmile_qr_scan"}, "name": "cbfac0cb0c84393d481c6166e33ee918", "type": "electric_scooter", "lat": 38.92368966666667, "is_disabled": 0}, {"fusion_lat": 0.0, "lon": -77.027947, "is_reserved": 0, "bike_id": "ad09967863434bfe0a39c76813e4e977", "fusion_lon": 0.0, "rental_uris": {"android": "https://dc.lft.to/lastmile_qr_scan", "ios": "https://dc.lft.to/lastmile_qr_scan"}, "name": "ad09967863434bfe0a39c76813e4e977", "type": "electric_scooter", "lat": 38.93085833333333, "is_disabled": 0}, {"fusion_lat": 0.0, "lon": -77.03860033333333, "is_reserved": 0, "bike_id": "bd7d6293e349e27f058c64baa52b44d2", "fusion_lon": 0.0, "rental_uris": {"android": "https://dc.lft.to/lastmile_qr_scan", "ios": "https://dc.lft.to/lastmile_qr_scan"}, "name": "bd7d6293e349e27f058c64baa52b44d2", "type": "electric_scooter", "lat": 38.9066285, "is_disabled": 0}, {"fusion_lat": 0.0, "lon": -77.00974283333333, "is_reserved": 0, "bike_id": "bad1f814e7e9fdaca64b3aec20b67406", "fusion_lon": 0.0, "rental_uris": {"android": "https://dc.lft.to/lastmile_qr_scan", "ios": "https://dc.lft.to/lastmile_qr_scan"}, "name": "bad1f814e7e9fdaca64b3aec20b67406", "type": "electric_scooter", "lat": 38.914107666666666, "is_disabled": 0}, {"fusion_lat": 0.0, "lon": -77.0270985, "is_reserved": 0, "bike_id": "fbb8d132d22f1eeecf5f4ed68c6fb4f2", "fusion_lon": 0.0, "rental_uris": {"android": "https://dc.lft.to/lastmile_qr_scan", "ios": "https://dc.lft.to/lastmile_qr_scan"}, "name": "fbb8d132d22f1eeecf5f4ed68c6fb4f2", "type": "electric_scooter", "lat": 38.90669466666667, "is_disabled": 0}, {"fusion_lat": 0.0, "lon": -77.07076433333333, "is_reserved": 0, "bike_id": "6b3f2b27ee8ab70a7bfb5616acb25863", "fusion_lon": 0.0, "rental_uris": {"android": "https://dc.lft.to/lastmile_qr_scan", "ios": "https://dc.lft.to/lastmile_qr_scan"}, "name": "6b3f2b27ee8ab70a7bfb5616acb25863", "type": "electric_scooter", "lat": 38.93172783333333, "is_disabled": 0}, {"fusion_lat": 0.0, "lon": -77.0256685, "is_reserved": 0, "bike_id": "5244222c6e3c6a109ddf76e4059f4203", "fusion_lon": 0.0, "rental_uris": {"android": "https://dc.lft.to/lastmile_qr_scan", "ios": "https://dc.lft.to/lastmile_qr_scan"}, "name": "5244222c6e3c6a109ddf76e4059f4203", "type": "electric_scooter", "lat": 38.88070966666667, "is_disabled": 0}, {"fusion_lat": 0.0, "lon": -76.93757583333333, "is_reserved": 0, "bike_id": "14171a7cb780fbb8e1bd224eae6b2981", "fusion_lon": 0.0, "rental_uris": {"android": "https://dc.lft.to/lastmile_qr_scan", "ios": "https://dc.lft.to/lastmile_qr_scan"}, "name": "14171a7cb780fbb8e1bd224eae6b2981", "type": "electric_scooter", "lat": 38.8904455, "is_disabled": 0}, {"fusion_lat": 0.0, "lon": -76.9811555, "is_reserved": 0, "bike_id": "54d3a4bf017d5c0e3635bce89a8e1a1f", "fusion_lon": 0.0, "rental_uris": {"android": "https://dc.lft.to/lastmile_qr_scan", "ios": "https://dc.lft.to/lastmile_qr_scan"}, "name": "54d3a4bf017d5c0e3635bce89a8e1a1f", "type": "electric_scooter", "lat": 38.904066, "is_disabled": 0}, {"fusion_lat": 0.0, "lon": -76.98344666666667, "is_reserved": 0, "bike_id": "2ecc22bfe7221e2e3121e2a16dc5f2f7", "fusion_lon": 0.0, "rental_uris": {"android": "https://dc.lft.to/lastmile_qr_scan", "ios": "https://dc.lft.to/lastmile_qr_scan"}, "name": "2ecc22bfe7221e2e3121e2a16dc5f2f7", "type": "electric_scooter", "lat": 38.915446833333334, "is_disabled": 0}, {"fusion_lat": 0.0, "lon": -77.00563983333333, "is_reserved": 0, "bike_id": "be247c7e918c890af7c38e43266b1c79", "fusion_lon": 0.0, "rental_uris": {"android": "https://dc.lft.to/lastmile_qr_scan", "ios": "https://dc.lft.to/lastmile_qr_scan"}, "name": "be247c7e918c890af7c38e43266b1c79", "type": "electric_scooter", "lat": 38.9056585, "is_disabled": 0}, {"fusion_lat": 0.0, "lon": -77.03089816666666, "is_reserved": 0, "bike_id": "46f4e26253da8109d8f06c2c1ce7ef6d", "fusion_lon": 0.0, "rental_uris": {"android": "https://dc.lft.to/lastmile_qr_scan", "ios": "https://dc.lft.to/lastmile_qr_scan"}, "name": "46f4e26253da8109d8f06c2c1ce7ef6d", "type": "electric_scooter", "lat": 38.922526166666664, "is_disabled": 0}, {"fusion_lat": 0.0, "lon": -77.032014, "is_reserved": 0, "bike_id": "1d149943879d8b13ebd2c7fd66ed87f0", "fusion_lon": 0.0, "rental_uris": {"android": "https://dc.lft.to/lastmile_qr_scan", "ios": "https://dc.lft.to/lastmile_qr_scan"}, "name": "1d149943879d8b13ebd2c7fd66ed87f0", "type": "electric_scooter", "lat": 38.9164825, "is_disabled": 0}, {"fusion_lat": 0.0, "lon": -77.027964, "is_reserved": 0, "bike_id": "b036d8fa5e99f0cb275d2c14a78f1c8d", "fusion_lon": 0.0, "rental_uris": {"android": "https://dc.lft.to/lastmile_qr_scan", "ios": "https://dc.lft.to/lastmile_qr_scan"}, "name": "b036d8fa5e99f0cb275d2c14a78f1c8d", "type": "electric_scooter", "lat": 38.953987, "is_disabled": 0}, {"fusion_lat": 0.0, "lon": -77.01219916666666, "is_reserved": 0, "bike_id": "92ae5a89c687b875fd48d6d804621931", "fusion_lon": 0.0, "rental_uris": {"android": "https://dc.lft.to/lastmile_qr_scan", "ios": "https://dc.lft.to/lastmile_qr_scan"}, "name": "92ae5a89c687b875fd48d6d804621931", "type": "electric_scooter", "lat": 38.91755933333334, "is_disabled": 0}, {"fusion_lat": 0.0, "lon": -76.99830333333334, "is_reserved": 0, "bike_id": "5ecc4dd0b4c67bbe9f4b671ae97e47a0", "fusion_lon": 0.0, "rental_uris": {"android": "https://dc.lft.to/lastmile_qr_scan", "ios": "https://dc.lft.to/lastmile_qr_scan"}, "name": "5ecc4dd0b4c67bbe9f4b671ae97e47a0", "type": "electric_scooter", "lat": 38.908704666666665, "is_disabled": 0}, {"fusion_lat": 0.0, "lon": -77.031863, "is_reserved": 0, "bike_id": "afd979de5e62df997a75ce454e666a99", "fusion_lon": 0.0, "rental_uris": {"android": "https://dc.lft.to/lastmile_qr_scan", "ios": "https://dc.lft.to/lastmile_qr_scan"}, "name": "afd979de5e62df997a75ce454e666a99", "type": "electric_scooter", "lat": 38.909187833333334, "is_disabled": 0}, {"fusion_lat": 0.0, "lon": -77.0239605, "is_reserved": 0, "bike_id": "6aba37459fb2f256907035c25c28470a", "fusion_lon": 0.0, "rental_uris": {"android": "https://dc.lft.to/lastmile_qr_scan", "ios": "https://dc.lft.to/lastmile_qr_scan"}, "name": "6aba37459fb2f256907035c25c28470a", "type": "electric_scooter", "lat": 38.92600016666667, "is_disabled": 0}, {"fusion_lat": 0.0, "lon": -76.9869475, "is_reserved": 0, "bike_id": "610439f79016e2de2dbe8fe26ba8da05", "fusion_lon": 0.0, "rental_uris": {"android": "https://dc.lft.to/lastmile_qr_scan", "ios": "https://dc.lft.to/lastmile_qr_scan"}, "name": "610439f79016e2de2dbe8fe26ba8da05", "type": "electric_scooter", "lat": 38.9070195, "is_disabled": 0}, {"fusion_lat": 0.0, "lon": -76.96930133333333, "is_reserved": 0, "bike_id": "064cf8b2d73aeed223f4ec4e3ab1ee95", "fusion_lon": 0.0, "rental_uris": {"android": "https://dc.lft.to/lastmile_qr_scan", "ios": "https://dc.lft.to/lastmile_qr_scan"}, "name": "064cf8b2d73aeed223f4ec4e3ab1ee95", "type": "electric_bike", "lat": 38.95114516666667, "is_disabled": 0}, {"fusion_lat": 0.0, "lon": -76.9882585, "is_reserved": 0, "bike_id": "07f62f5199e48038775029df6a666525", "fusion_lon": 0.0, "rental_uris": {"android": "https://dc.lft.to/lastmile_qr_scan", "ios": "https://dc.lft.to/lastmile_qr_scan"}, "name": "07f62f5199e48038775029df6a666525", "type": "electric_scooter", "lat": 38.890772, "is_disabled": 0}, {"fusion_lat": 0.0, "lon": -77.041046, "is_reserved": 0, "bike_id": "6ef1bbdf46e84c9b402630b09f95c910", "fusion_lon": 0.0, "rental_uris": {"android": "https://dc.lft.to/lastmile_qr_scan", "ios": "https://dc.lft.to/lastmile_qr_scan"}, "name": "6ef1bbdf46e84c9b402630b09f95c910", "type": "electric_scooter", "lat": 38.910489, "is_disabled": 0}, {"fusion_lat": 0.0, "lon": -77.03222733333334, "is_reserved": 0, "bike_id": "a9c728bbddba642b7ee6aff57e1e3e28", "fusion_lon": 0.0, "rental_uris": {"android": "https://dc.lft.to/lastmile_qr_scan", "ios": "https://dc.lft.to/lastmile_qr_scan"}, "name": "a9c728bbddba642b7ee6aff57e1e3e28", "type": "electric_scooter", "lat": 38.91429, "is_disabled": 0}, {"fusion_lat": 0.0, "lon": -76.995533, "is_reserved": 0, "bike_id": "cc9cd06175c9f3386f135a1904bf2d00", "fusion_lon": 0.0, "rental_uris": {"android": "https://dc.lft.to/lastmile_qr_scan", "ios": "https://dc.lft.to/lastmile_qr_scan"}, "name": "cc9cd06175c9f3386f135a1904bf2d00", "type": "electric_scooter", "lat": 38.86259533333333, "is_disabled": 0}, {"fusion_lat": 0.0, "lon": -77.228007, "is_reserved": 0, "bike_id": "90f97385864392748cfdfdeb5fc21352", "fusion_lon": 0.0, "rental_uris": {"android": "https://dc.lft.to/lastmile_qr_scan", "ios": "https://dc.lft.to/lastmile_qr_scan"}, "name": "90f97385864392748cfdfdeb5fc21352", "type": "electric_bike", "lat": 38.910154166666665, "is_disabled": 0}, {"fusion_lat": 0.0, "lon": -77.0298345, "is_reserved": 0, "bike_id": "add2a70e263cdec9eb3a296fb4255a0d", "fusion_lon": 0.0, "rental_uris": {"android": "https://dc.lft.to/lastmile_qr_scan", "ios": "https://dc.lft.to/lastmile_qr_scan"}, "name": "add2a70e263cdec9eb3a296fb4255a0d", "type": "electric_scooter", "lat": 38.92200666666667, "is_disabled": 0}, {"fusion_lat": 0.0, "lon": -77.00239516666667, "is_reserved": 0, "bike_id": "192dfc6c9ee5042a43f2446a700f380f", "fusion_lon": 0.0, "rental_uris": {"android": "https://dc.lft.to/lastmile_qr_scan", "ios": "https://dc.lft.to/lastmile_qr_scan"}, "name": "192dfc6c9ee5042a43f2446a700f380f", "type": "electric_scooter", "lat": 38.95722283333333, "is_disabled": 0}, {"fusion_lat": 0.0, "lon": -77.01699166666667, "is_reserved": 0, "bike_id": "55f50a1dbc72ee7e6071755b6913d5fc", "fusion_lon": 0.0, "rental_uris": {"android": "https://dc.lft.to/lastmile_qr_scan", "ios": "https://dc.lft.to/lastmile_qr_scan"}, "name": "55f50a1dbc72ee7e6071755b6913d5fc", "type": "electric_scooter", "lat": 38.97503, "is_disabled": 0}, {"fusion_lat": 0.0, "lon": -77.03338383333333, "is_reserved": 0, "bike_id": "c80bbd7ce95fe4b782f308f823d17f56", "fusion_lon": 0.0, "rental_uris": {"android": "https://dc.lft.to/lastmile_qr_scan", "ios": "https://dc.lft.to/lastmile_qr_scan"}, "name": "c80bbd7ce95fe4b782f308f823d17f56", "type": "electric_scooter", "lat": 38.921654833333335, "is_disabled": 0}, {"fusion_lat": 0.0, "lon": -77.02602416666667, "is_reserved": 0, "bike_id": "ce3b27844e03f5fc83934e0916bd9909", "fusion_lon": 0.0, "rental_uris": {"android": "https://dc.lft.to/lastmile_qr_scan", "ios": "https://dc.lft.to/lastmile_qr_scan"}, "name": "ce3b27844e03f5fc83934e0916bd9909", "type": "electric_scooter", "lat": 38.91695983333334, "is_disabled": 0}, {"fusion_lat": 0.0, "lon": -77.032129, "is_reserved": 0, "bike_id": "117f34d144d4733a287152ae6696ac04", "fusion_lon": 0.0, "rental_uris": {"android": "https://dc.lft.to/lastmile_qr_scan", "ios": "https://dc.lft.to/lastmile_qr_scan"}, "name": "117f34d144d4733a287152ae6696ac04", "type": "electric_scooter", "lat": 38.917806666666664, "is_disabled": 0}, {"fusion_lat": 0.0, "lon": -77.04560583333334, "is_reserved": 0, "bike_id": "1454ee1876b4f849b924ac15a7da9ab3", "fusion_lon": 0.0, "rental_uris": {"android": "https://dc.lft.to/lastmile_qr_scan", "ios": "https://dc.lft.to/lastmile_qr_scan"}, "name": "1454ee1876b4f849b924ac15a7da9ab3", "type": "electric_scooter", "lat": 38.92416216666667, "is_disabled": 0}, {"fusion_lat": 0.0, "lon": -77.01102666666667, "is_reserved": 0, "bike_id": "c17e0f3b075160d1fa20691c275e1c1e", "fusion_lon": 0.0, "rental_uris": {"android": "https://dc.lft.to/lastmile_qr_scan", "ios": "https://dc.lft.to/lastmile_qr_scan"}, "name": "c17e0f3b075160d1fa20691c275e1c1e", "type": "electric_scooter", "lat": 38.894936, "is_disabled": 0}, {"fusion_lat": 0.0, "lon": -77.01807566666666, "is_reserved": 0, "bike_id": "ae2d77374c8cdb3881ef9b3971dbbe2b", "fusion_lon": 0.0, "rental_uris": {"android": "https://dc.lft.to/lastmile_qr_scan", "ios": "https://dc.lft.to/lastmile_qr_scan"}, "name": "ae2d77374c8cdb3881ef9b3971dbbe2b", "type": "electric_scooter", "lat": 38.9043075, "is_disabled": 0}, {"fusion_lat": 0.0, "lon": -77.00151733333334, "is_reserved": 0, "bike_id": "72b6686d30f46966cd764b462bab5080", "fusion_lon": 0.0, "rental_uris": {"android": "https://dc.lft.to/lastmile_qr_scan", "ios": "https://dc.lft.to/lastmile_qr_scan"}, "name": "72b6686d30f46966cd764b462bab5080", "type": "electric_scooter", "lat": 38.907632166666666, "is_disabled": 0}, {"fusion_lat": 0.0, "lon": -77.013427, "is_reserved": 0, "bike_id": "49ca39a02610f8250ff4afb5191ce7a1", "fusion_lon": 0.0, "rental_uris": {"android": "https://dc.lft.to/lastmile_qr_scan", "ios": "https://dc.lft.to/lastmile_qr_scan"}, "name": "49ca39a02610f8250ff4afb5191ce7a1", "type": "electric_scooter", "lat": 38.9264275, "is_disabled": 0}, {"fusion_lat": 0.0, "lon": -77.01371216666666, "is_reserved": 0, "bike_id": "aa29868de1eaab6e212de71e0224317a", "fusion_lon": 0.0, "rental_uris": {"android": "https://dc.lft.to/lastmile_qr_scan", "ios": "https://dc.lft.to/lastmile_qr_scan"}, "name": "aa29868de1eaab6e212de71e0224317a", "type": "electric_scooter", "lat": 38.88708483333333, "is_disabled": 0}, {"fusion_lat": 0.0, "lon": -77.07985333333333, "is_reserved": 0, "bike_id": "12e691d772202096c2adee38547345d2", "fusion_lon": 0.0, "rental_uris": {"android": "https://dc.lft.to/lastmile_qr_scan", "ios": "https://dc.lft.to/lastmile_qr_scan"}, "name": "12e691d772202096c2adee38547345d2", "type": "electric_scooter", "lat": 38.919490833333334, "is_disabled": 0}, {"fusion_lat": 0.0, "lon": -76.98691516666666, "is_reserved": 0, "bike_id": "3fee55188f7f36326a019db2a8a853df", "fusion_lon": 0.0, "rental_uris": {"android": "https://dc.lft.to/lastmile_qr_scan", "ios": "https://dc.lft.to/lastmile_qr_scan"}, "name": "3fee55188f7f36326a019db2a8a853df", "type": "electric_bike", "lat": 38.944721333333334, "is_disabled": 0}, {"fusion_lat": 0.0, "lon": -77.078901, "is_reserved": 0, "bike_id": "db681ec7aa724f166a41c1ef56f53a49", "fusion_lon": 0.0, "rental_uris": {"android": "https://dc.lft.to/lastmile_qr_scan", "ios": "https://dc.lft.to/lastmile_qr_scan"}, "name": "db681ec7aa724f166a41c1ef56f53a49", "type": "electric_scooter", "lat": 38.94802383333333, "is_disabled": 0}, {"fusion_lat": 0.0, "lon": -77.00916283333333, "is_reserved": 0, "bike_id": "12493cac9e2c8a7a81ae940c3f17400d", "fusion_lon": 0.0, "rental_uris": {"android": "https://dc.lft.to/lastmile_qr_scan", "ios": "https://dc.lft.to/lastmile_qr_scan"}, "name": "12493cac9e2c8a7a81ae940c3f17400d", "type": "electric_scooter", "lat": 38.896524166666666, "is_disabled": 0}, {"fusion_lat": 0.0, "lon": -77.02961433333333, "is_reserved": 0, "bike_id": "b3dc14a95335dec6ad25561f10086464", "fusion_lon": 0.0, "rental_uris": {"android": "https://dc.lft.to/lastmile_qr_scan", "ios": "https://dc.lft.to/lastmile_qr_scan"}, "name": "b3dc14a95335dec6ad25561f10086464", "type": "electric_scooter", "lat": 38.922632166666666, "is_disabled": 0}, {"fusion_lat": 0.0, "lon": -76.9959955, "is_reserved": 0, "bike_id": "e5ba65684046ef8114971b56972c5a8f", "fusion_lon": 0.0, "rental_uris": {"android": "https://dc.lft.to/lastmile_qr_scan", "ios": "https://dc.lft.to/lastmile_qr_scan"}, "name": "e5ba65684046ef8114971b56972c5a8f", "type": "electric_scooter", "lat": 38.85698216666667, "is_disabled": 0}, {"fusion_lat": 0.0, "lon": -77.03825433333333, "is_reserved": 0, "bike_id": "4439dca27940cacd0a0e25a49c4f4371", "fusion_lon": 0.0, "rental_uris": {"android": "https://dc.lft.to/lastmile_qr_scan", "ios": "https://dc.lft.to/lastmile_qr_scan"}, "name": "4439dca27940cacd0a0e25a49c4f4371", "type": "electric_scooter", "lat": 38.908775166666665, "is_disabled": 0}, {"fusion_lat": 0.0, "lon": -77.046613, "is_reserved": 0, "bike_id": "2306ced27c1ccf7d666f2d1781043c15", "fusion_lon": 0.0, "rental_uris": {"android": "https://dc.lft.to/lastmile_qr_scan", "ios": "https://dc.lft.to/lastmile_qr_scan"}, "name": "2306ced27c1ccf7d666f2d1781043c15", "type": "electric_scooter", "lat": 38.9127025, "is_disabled": 0}, {"fusion_lat": 0.0, "lon": -76.98826216666667, "is_reserved": 0, "bike_id": "cac9295649630c116d9795706daa5564", "fusion_lon": 0.0, "rental_uris": {"android": "https://dc.lft.to/lastmile_qr_scan", "ios": "https://dc.lft.to/lastmile_qr_scan"}, "name": "cac9295649630c116d9795706daa5564", "type": "electric_scooter", "lat": 38.89074566666667, "is_disabled": 0}, {"fusion_lat": 0.0, "lon": -76.995429, "is_reserved": 0, "bike_id": "eb445549a25e70fc86474b109b89adc8", "fusion_lon": 0.0, "rental_uris": {"android": "https://dc.lft.to/lastmile_qr_scan", "ios": "https://dc.lft.to/lastmile_qr_scan"}, "name": "eb445549a25e70fc86474b109b89adc8", "type": "electric_scooter", "lat": 38.926722166666664, "is_disabled": 0}, {"fusion_lat": 0.0, "lon": -76.98096316666667, "is_reserved": 0, "bike_id": "fbb2c4220b3ad517ad2de519333d1573", "fusion_lon": 0.0, "rental_uris": {"android": "https://dc.lft.to/lastmile_qr_scan", "ios": "https://dc.lft.to/lastmile_qr_scan"}, "name": "fbb2c4220b3ad517ad2de519333d1573", "type": "electric_bike", "lat": 38.953557833333335, "is_disabled": 0}, {"fusion_lat": 0.0, "lon": -77.01973866666667, "is_reserved": 0, "bike_id": "43d607d779cd2cd06e28b5b07db87439", "fusion_lon": 0.0, "rental_uris": {"android": "https://dc.lft.to/lastmile_qr_scan", "ios": "https://dc.lft.to/lastmile_qr_scan"}, "name": "43d607d779cd2cd06e28b5b07db87439", "type": "electric_scooter", "lat": 38.912786833333335, "is_disabled": 0}, {"fusion_lat": 0.0, "lon": -77.01035983333334, "is_reserved": 0, "bike_id": "b96381beee18d56b04bcee2e7958d8a1", "fusion_lon": 0.0, "rental_uris": {"android": "https://dc.lft.to/lastmile_qr_scan", "ios": "https://dc.lft.to/lastmile_qr_scan"}, "name": "b96381beee18d56b04bcee2e7958d8a1", "type": "electric_scooter", "lat": 38.91915516666667, "is_disabled": 0}, {"fusion_lat": 0.0, "lon": -77.02395066666666, "is_reserved": 0, "bike_id": "629ee5550773bea55f15d309834fbb1e", "fusion_lon": 0.0, "rental_uris": {"android": "https://dc.lft.to/lastmile_qr_scan", "ios": "https://dc.lft.to/lastmile_qr_scan"}, "name": "629ee5550773bea55f15d309834fbb1e", "type": "electric_scooter", "lat": 38.919976166666665, "is_disabled": 0}, {"fusion_lat": 0.0, "lon": -76.99552616666666, "is_reserved": 0, "bike_id": "cd20f90d7b78f3882a4aceaf9342b7c9", "fusion_lon": 0.0, "rental_uris": {"android": "https://dc.lft.to/lastmile_qr_scan", "ios": "https://dc.lft.to/lastmile_qr_scan"}, "name": "cd20f90d7b78f3882a4aceaf9342b7c9", "type": "electric_scooter", "lat": 38.862591, "is_disabled": 0}, {"fusion_lat": 0.0, "lon": -77.01081516666666, "is_reserved": 0, "bike_id": "c494183ff71d369da23b0550f294004f", "fusion_lon": 0.0, "rental_uris": {"android": "https://dc.lft.to/lastmile_qr_scan", "ios": "https://dc.lft.to/lastmile_qr_scan"}, "name": "c494183ff71d369da23b0550f294004f", "type": "electric_scooter", "lat": 38.87084333333333, "is_disabled": 0}, {"fusion_lat": 0.0, "lon": -77.031407, "is_reserved": 0, "bike_id": "a9460289b35738df3eea62bf08ea9587", "fusion_lon": 0.0, "rental_uris": {"android": "https://dc.lft.to/lastmile_qr_scan", "ios": "https://dc.lft.to/lastmile_qr_scan"}, "name": "a9460289b35738df3eea62bf08ea9587", "type": "electric_scooter", "lat": 38.925697166666666, "is_disabled": 0}, {"fusion_lat": 0.0, "lon": -77.02614033333333, "is_reserved": 0, "bike_id": "1f967d686ed21f9cd60408d53698e42a", "fusion_lon": 0.0, "rental_uris": {"android": "https://dc.lft.to/lastmile_qr_scan", "ios": "https://dc.lft.to/lastmile_qr_scan"}, "name": "1f967d686ed21f9cd60408d53698e42a", "type": "electric_scooter", "lat": 38.908631, "is_disabled": 0}, {"fusion_lat": 0.0, "lon": -77.0351445, "is_reserved": 0, "bike_id": "1f21c10bd5f05a328273b25e135d3544", "fusion_lon": 0.0, "rental_uris": {"android": "https://dc.lft.to/lastmile_qr_scan", "ios": "https://dc.lft.to/lastmile_qr_scan"}, "name": "1f21c10bd5f05a328273b25e135d3544", "type": "electric_scooter", "lat": 38.92158, "is_disabled": 0}, {"fusion_lat": 0.0, "lon": -76.93134266666667, "is_reserved": 0, "bike_id": "62d8901e1acbef25af76df13785e7c6b", "fusion_lon": 0.0, "rental_uris": {"android": "https://dc.lft.to/lastmile_qr_scan", "ios": "https://dc.lft.to/lastmile_qr_scan"}, "name": "62d8901e1acbef25af76df13785e7c6b", "type": "electric_scooter", "lat": 38.87613233333333, "is_disabled": 0}, {"fusion_lat": 0.0, "lon": -77.02365966666666, "is_reserved": 0, "bike_id": "7344f67f85a3e69df9ba3299808f628c", "fusion_lon": 0.0, "rental_uris": {"android": "https://dc.lft.to/lastmile_qr_scan", "ios": "https://dc.lft.to/lastmile_qr_scan"}, "name": "7344f67f85a3e69df9ba3299808f628c", "type": "electric_scooter", "lat": 38.892206, "is_disabled": 0}, {"fusion_lat": 0.0, "lon": -77.0391615, "is_reserved": 0, "bike_id": "ef20965541740f9ea3ce44a2132df078", "fusion_lon": 0.0, "rental_uris": {"android": "https://dc.lft.to/lastmile_qr_scan", "ios": "https://dc.lft.to/lastmile_qr_scan"}, "name": "ef20965541740f9ea3ce44a2132df078", "type": "electric_scooter", "lat": 38.923142666666664, "is_disabled": 0}, {"fusion_lat": 0.0, "lon": -77.02340166666667, "is_reserved": 0, "bike_id": "8416d9f2e8ceb03addfbda8f414284b1", "fusion_lon": 0.0, "rental_uris": {"android": "https://dc.lft.to/lastmile_qr_scan", "ios": "https://dc.lft.to/lastmile_qr_scan"}, "name": "8416d9f2e8ceb03addfbda8f414284b1", "type": "electric_scooter", "lat": 38.920804833333335, "is_disabled": 0}, {"fusion_lat": 0.0, "lon": -77.03597466666666, "is_reserved": 0, "bike_id": "16f16b0df1285f44ff38cea7d1861a81", "fusion_lon": 0.0, "rental_uris": {"android": "https://dc.lft.to/lastmile_qr_scan", "ios": "https://dc.lft.to/lastmile_qr_scan"}, "name": "16f16b0df1285f44ff38cea7d1861a81", "type": "electric_scooter", "lat": 38.936757166666666, "is_disabled": 0}, {"fusion_lat": 0.0, "lon": -77.04113466666666, "is_reserved": 0, "bike_id": "e3fdec6adc83a3565c79b990062d4311", "fusion_lon": 0.0, "rental_uris": {"android": "https://dc.lft.to/lastmile_qr_scan", "ios": "https://dc.lft.to/lastmile_qr_scan"}, "name": "e3fdec6adc83a3565c79b990062d4311", "type": "electric_scooter", "lat": 38.92446416666667, "is_disabled": 0}, {"fusion_lat": 0.0, "lon": -77.071457, "is_reserved": 0, "bike_id": "dc0aa8f7b4c05b7b96ef7a2f7fc45faf", "fusion_lon": 0.0, "rental_uris": {"android": "https://dc.lft.to/lastmile_qr_scan", "ios": "https://dc.lft.to/lastmile_qr_scan"}, "name": "dc0aa8f7b4c05b7b96ef7a2f7fc45faf", "type": "electric_scooter", "lat": 38.92030783333333, "is_disabled": 0}, {"fusion_lat": 0.0, "lon": -77.03208366666667, "is_reserved": 0, "bike_id": "7c0db4c1f0d07ff1febff576278eb0e6", "fusion_lon": 0.0, "rental_uris": {"android": "https://dc.lft.to/lastmile_qr_scan", "ios": "https://dc.lft.to/lastmile_qr_scan"}, "name": "7c0db4c1f0d07ff1febff576278eb0e6", "type": "electric_scooter", "lat": 38.916717, "is_disabled": 0}, {"fusion_lat": 0.0, "lon": -77.0236685, "is_reserved": 0, "bike_id": "183862dcfcd54db7c2c01d6994e27323", "fusion_lon": 0.0, "rental_uris": {"android": "https://dc.lft.to/lastmile_qr_scan", "ios": "https://dc.lft.to/lastmile_qr_scan"}, "name": "183862dcfcd54db7c2c01d6994e27323", "type": "electric_scooter", "lat": 38.908098, "is_disabled": 0}, {"fusion_lat": 0.0, "lon": -77.031735, "is_reserved": 0, "bike_id": "efb20d673b9a99c8b222895ff0210c66", "fusion_lon": 0.0, "rental_uris": {"android": "https://dc.lft.to/lastmile_qr_scan", "ios": "https://dc.lft.to/lastmile_qr_scan"}, "name": "efb20d673b9a99c8b222895ff0210c66", "type": "electric_bike", "lat": 38.9209485, "is_disabled": 0}, {"fusion_lat": 0.0, "lon": -76.98344933333334, "is_reserved": 0, "bike_id": "26d808e58d11aa429e9e9caefff8247f", "fusion_lon": 0.0, "rental_uris": {"android": "https://dc.lft.to/lastmile_qr_scan", "ios": "https://dc.lft.to/lastmile_qr_scan"}, "name": "26d808e58d11aa429e9e9caefff8247f", "type": "electric_scooter", "lat": 38.9154495, "is_disabled": 0}, {"fusion_lat": 0.0, "lon": -76.9961355, "is_reserved": 0, "bike_id": "1bcbb1c7979e61a056a67c439e94b5af", "fusion_lon": 0.0, "rental_uris": {"android": "https://dc.lft.to/lastmile_qr_scan", "ios": "https://dc.lft.to/lastmile_qr_scan"}, "name": "1bcbb1c7979e61a056a67c439e94b5af", "type": "electric_scooter", "lat": 38.887022, "is_disabled": 0}, {"fusion_lat": 0.0, "lon": -77.02955266666666, "is_reserved": 0, "bike_id": "9c7ff8b3ba6d8c1f5833cc3d7d3717c8", "fusion_lon": 0.0, "rental_uris": {"android": "https://dc.lft.to/lastmile_qr_scan", "ios": "https://dc.lft.to/lastmile_qr_scan"}, "name": "9c7ff8b3ba6d8c1f5833cc3d7d3717c8", "type": "electric_scooter", "lat": 38.915423, "is_disabled": 0}, {"fusion_lat": 0.0, "lon": -76.99763583333333, "is_reserved": 0, "bike_id": "7ab45fd249fa967cf8f668a10c1d1725", "fusion_lon": 0.0, "rental_uris": {"android": "https://dc.lft.to/lastmile_qr_scan", "ios": "https://dc.lft.to/lastmile_qr_scan"}, "name": "7ab45fd249fa967cf8f668a10c1d1725", "type": "electric_scooter", "lat": 38.900293, "is_disabled": 0}, {"fusion_lat": 0.0, "lon": -77.03871933333333, "is_reserved": 0, "bike_id": "8f85939c9c17ad5d71a296f3d844d8be", "fusion_lon": 0.0, "rental_uris": {"android": "https://dc.lft.to/lastmile_qr_scan", "ios": "https://dc.lft.to/lastmile_qr_scan"}, "name": "8f85939c9c17ad5d71a296f3d844d8be", "type": "electric_scooter", "lat": 38.921584333333335, "is_disabled": 0}, {"fusion_lat": 0.0, "lon": -77.073899, "is_reserved": 0, "bike_id": "4cf9f74fb2ace2cb67cec250dd14c904", "fusion_lon": 0.0, "rental_uris": {"android": "https://dc.lft.to/lastmile_qr_scan", "ios": "https://dc.lft.to/lastmile_qr_scan"}, "name": "4cf9f74fb2ace2cb67cec250dd14c904", "type": "electric_bike", "lat": 38.961855666666665, "is_disabled": 0}, {"fusion_lat": 0.0, "lon": -77.012072, "is_reserved": 0, "bike_id": "560b53308f15654ce7860a715e78666c", "fusion_lon": 0.0, "rental_uris": {"android": "https://dc.lft.to/lastmile_qr_scan", "ios": "https://dc.lft.to/lastmile_qr_scan"}, "name": "560b53308f15654ce7860a715e78666c", "type": "electric_scooter", "lat": 38.91839366666667, "is_disabled": 0}, {"fusion_lat": 0.0, "lon": -77.04022716666667, "is_reserved": 0, "bike_id": "55f07064fe9472a1b4da06abf83da1b1", "fusion_lon": 0.0, "rental_uris": {"android": "https://dc.lft.to/lastmile_qr_scan", "ios": "https://dc.lft.to/lastmile_qr_scan"}, "name": "55f07064fe9472a1b4da06abf83da1b1", "type": "electric_scooter", "lat": 38.918379333333334, "is_disabled": 0}, {"fusion_lat": 0.0, "lon": -77.02957116666667, "is_reserved": 0, "bike_id": "29c59bac1de27d6deb86bce6089cb2f1", "fusion_lon": 0.0, "rental_uris": {"android": "https://dc.lft.to/lastmile_qr_scan", "ios": "https://dc.lft.to/lastmile_qr_scan"}, "name": "29c59bac1de27d6deb86bce6089cb2f1", "type": "electric_scooter", "lat": 38.92862616666667, "is_disabled": 0}, {"fusion_lat": 0.0, "lon": -76.96246066666667, "is_reserved": 0, "bike_id": "3b3f419a4e65a79253bd65a94f3841e7", "fusion_lon": 0.0, "rental_uris": {"android": "https://dc.lft.to/lastmile_qr_scan", "ios": "https://dc.lft.to/lastmile_qr_scan"}, "name": "3b3f419a4e65a79253bd65a94f3841e7", "type": "electric_scooter", "lat": 38.8776805, "is_disabled": 0}, {"fusion_lat": 0.0, "lon": -77.0393725, "is_reserved": 0, "bike_id": "e424837bb7866b9d922c24738dd6d554", "fusion_lon": 0.0, "rental_uris": {"android": "https://dc.lft.to/lastmile_qr_scan", "ios": "https://dc.lft.to/lastmile_qr_scan"}, "name": "e424837bb7866b9d922c24738dd6d554", "type": "electric_scooter", "lat": 38.91757616666666, "is_disabled": 0}, {"fusion_lat": 0.0, "lon": -77.026632, "is_reserved": 0, "bike_id": "db8ad3cd3107ce37fe9b98f13d9f0964", "fusion_lon": 0.0, "rental_uris": {"android": "https://dc.lft.to/lastmile_qr_scan", "ios": "https://dc.lft.to/lastmile_qr_scan"}, "name": "db8ad3cd3107ce37fe9b98f13d9f0964", "type": "electric_scooter", "lat": 38.930995333333335, "is_disabled": 0}, {"fusion_lat": 0.0, "lon": -77.03777316666667, "is_reserved": 0, "bike_id": "1b01be0eb3f05a5f9d9550badd14575e", "fusion_lon": 0.0, "rental_uris": {"android": "https://dc.lft.to/lastmile_qr_scan", "ios": "https://dc.lft.to/lastmile_qr_scan"}, "name": "1b01be0eb3f05a5f9d9550badd14575e", "type": "electric_scooter", "lat": 38.92205166666667, "is_disabled": 0}, {"fusion_lat": 0.0, "lon": -77.03842216666666, "is_reserved": 0, "bike_id": "5af346ecde60e14d89ab97fe0aba91be", "fusion_lon": 0.0, "rental_uris": {"android": "https://dc.lft.to/lastmile_qr_scan", "ios": "https://dc.lft.to/lastmile_qr_scan"}, "name": "5af346ecde60e14d89ab97fe0aba91be", "type": "electric_scooter", "lat": 38.931638, "is_disabled": 0}, {"fusion_lat": 0.0, "lon": -77.032364, "is_reserved": 0, "bike_id": "a09c31994d7b62a84c1bbf2bf1a73cd8", "fusion_lon": 0.0, "rental_uris": {"android": "https://dc.lft.to/lastmile_qr_scan", "ios": "https://dc.lft.to/lastmile_qr_scan"}, "name": "a09c31994d7b62a84c1bbf2bf1a73cd8", "type": "electric_scooter", "lat": 38.92638133333333, "is_disabled": 0}, {"fusion_lat": 0.0, "lon": -77.04104966666667, "is_reserved": 0, "bike_id": "dbd16479518dc80fe28937946645f45b", "fusion_lon": 0.0, "rental_uris": {"android": "https://dc.lft.to/lastmile_qr_scan", "ios": "https://dc.lft.to/lastmile_qr_scan"}, "name": "dbd16479518dc80fe28937946645f45b", "type": "electric_scooter", "lat": 38.927954, "is_disabled": 0}, {"fusion_lat": 0.0, "lon": -77.023866, "is_reserved": 0, "bike_id": "1b4238feb7b0d6d56430bbab92dfe33d", "fusion_lon": 0.0, "rental_uris": {"android": "https://dc.lft.to/lastmile_qr_scan", "ios": "https://dc.lft.to/lastmile_qr_scan"}, "name": "1b4238feb7b0d6d56430bbab92dfe33d", "type": "electric_scooter", "lat": 38.908109333333336, "is_disabled": 0}, {"fusion_lat": 0.0, "lon": -77.02329166666667, "is_reserved": 0, "bike_id": "8576eea8b50af73a996af245ab2342ea", "fusion_lon": 0.0, "rental_uris": {"android": "https://dc.lft.to/lastmile_qr_scan", "ios": "https://dc.lft.to/lastmile_qr_scan"}, "name": "8576eea8b50af73a996af245ab2342ea", "type": "electric_scooter", "lat": 38.935984, "is_disabled": 0}, {"fusion_lat": 0.0, "lon": -77.02413033333333, "is_reserved": 0, "bike_id": "2d3e7e10bf58ce973b3bb2dd2bc97150", "fusion_lon": 0.0, "rental_uris": {"android": "https://dc.lft.to/lastmile_qr_scan", "ios": "https://dc.lft.to/lastmile_qr_scan"}, "name": "2d3e7e10bf58ce973b3bb2dd2bc97150", "type": "electric_scooter", "lat": 38.892536, "is_disabled": 0}, {"fusion_lat": 0.0, "lon": -77.023393, "is_reserved": 0, "bike_id": "a3cff9d27fbf839d8b3eb40a3101feb0", "fusion_lon": 0.0, "rental_uris": {"android": "https://dc.lft.to/lastmile_qr_scan", "ios": "https://dc.lft.to/lastmile_qr_scan"}, "name": "a3cff9d27fbf839d8b3eb40a3101feb0", "type": "electric_scooter", "lat": 38.9171185, "is_disabled": 0}, {"fusion_lat": 0.0, "lon": -77.02133933333333, "is_reserved": 0, "bike_id": "155b3f5d2a4cde33386bbf6f3768bbce", "fusion_lon": 0.0, "rental_uris": {"android": "https://dc.lft.to/lastmile_qr_scan", "ios": "https://dc.lft.to/lastmile_qr_scan"}, "name": "155b3f5d2a4cde33386bbf6f3768bbce", "type": "electric_scooter", "lat": 38.9242165, "is_disabled": 0}, {"fusion_lat": 0.0, "lon": -77.0091425, "is_reserved": 0, "bike_id": "d3e2f6cf651e0782af9aaa00800cee4b", "fusion_lon": 0.0, "rental_uris": {"android": "https://dc.lft.to/lastmile_qr_scan", "ios": "https://dc.lft.to/lastmile_qr_scan"}, "name": "d3e2f6cf651e0782af9aaa00800cee4b", "type": "electric_scooter", "lat": 38.89563316666667, "is_disabled": 0}, {"fusion_lat": 0.0, "lon": -77.01976466666666, "is_reserved": 0, "bike_id": "174aad0e46e3cdbf43e0931d58b3f88a", "fusion_lon": 0.0, "rental_uris": {"android": "https://dc.lft.to/lastmile_qr_scan", "ios": "https://dc.lft.to/lastmile_qr_scan"}, "name": "174aad0e46e3cdbf43e0931d58b3f88a", "type": "electric_scooter", "lat": 38.88333316666667, "is_disabled": 0}, {"fusion_lat": 0.0, "lon": -76.9958205, "is_reserved": 0, "bike_id": "0c86bee88648a6c7fcfe9059e051ff60", "fusion_lon": 0.0, "rental_uris": {"android": "https://dc.lft.to/lastmile_qr_scan", "ios": "https://dc.lft.to/lastmile_qr_scan"}, "name": "0c86bee88648a6c7fcfe9059e051ff60", "type": "electric_bike", "lat": 38.8529325, "is_disabled": 0}, {"fusion_lat": 0.0, "lon": -77.02474433333333, "is_reserved": 0, "bike_id": "fd5306160d23c5c0b3fe42195b55c405", "fusion_lon": 0.0, "rental_uris": {"android": "https://dc.lft.to/lastmile_qr_scan", "ios": "https://dc.lft.to/lastmile_qr_scan"}, "name": "fd5306160d23c5c0b3fe42195b55c405", "type": "electric_scooter", "lat": 38.933202, "is_disabled": 0}, {"fusion_lat": 0.0, "lon": -77.03656083333334, "is_reserved": 0, "bike_id": "a3123f78080ffc30c1fd5da772f5425e", "fusion_lon": 0.0, "rental_uris": {"android": "https://dc.lft.to/lastmile_qr_scan", "ios": "https://dc.lft.to/lastmile_qr_scan"}, "name": "a3123f78080ffc30c1fd5da772f5425e", "type": "electric_scooter", "lat": 38.918276666666664, "is_disabled": 0}, {"fusion_lat": 0.0, "lon": -77.0410345, "is_reserved": 0, "bike_id": "3f3037945673c4d04b2572c77fe787ce", "fusion_lon": 0.0, "rental_uris": {"android": "https://dc.lft.to/lastmile_qr_scan", "ios": "https://dc.lft.to/lastmile_qr_scan"}, "name": "3f3037945673c4d04b2572c77fe787ce", "type": "electric_scooter", "lat": 38.917746666666666, "is_disabled": 0}, {"fusion_lat": 0.0, "lon": -77.08585233333334, "is_reserved": 0, "bike_id": "e831b29ba9f16f71f6016967eae529e2", "fusion_lon": 0.0, "rental_uris": {"android": "https://dc.lft.to/lastmile_qr_scan", "ios": "https://dc.lft.to/lastmile_qr_scan"}, "name": "e831b29ba9f16f71f6016967eae529e2", "type": "electric_bike", "lat": 38.84428716666667, "is_disabled": 0}, {"fusion_lat": 0.0, "lon": -76.92209633333333, "is_reserved": 0, "bike_id": "06aab438a7e099f22991215b12e0e07a", "fusion_lon": 0.0, "rental_uris": {"android": "https://dc.lft.to/lastmile_qr_scan", "ios": "https://dc.lft.to/lastmile_qr_scan"}, "name": "06aab438a7e099f22991215b12e0e07a", "type": "electric_bike", "lat": 38.894961333333335, "is_disabled": 0}, {"fusion_lat": 0.0, "lon": -77.073884, "is_reserved": 0, "bike_id": "ae9e1878d8c433e88971598af1b3bfae", "fusion_lon": 0.0, "rental_uris": {"android": "https://dc.lft.to/lastmile_qr_scan", "ios": "https://dc.lft.to/lastmile_qr_scan"}, "name": "ae9e1878d8c433e88971598af1b3bfae", "type": "electric_bike", "lat": 38.961763166666664, "is_disabled": 0}, {"fusion_lat": 0.0, "lon": -77.0320965, "is_reserved": 0, "bike_id": "fda05f0e341a8aa9896dd046441f1476", "fusion_lon": 0.0, "rental_uris": {"android": "https://dc.lft.to/lastmile_qr_scan", "ios": "https://dc.lft.to/lastmile_qr_scan"}, "name": "fda05f0e341a8aa9896dd046441f1476", "type": "electric_scooter", "lat": 38.91339966666666, "is_disabled": 0}, {"fusion_lat": 0.0, "lon": -77.03867566666666, "is_reserved": 0, "bike_id": "181060acf005c53f588028687d5d7e7c", "fusion_lon": 0.0, "rental_uris": {"android": "https://dc.lft.to/lastmile_qr_scan", "ios": "https://dc.lft.to/lastmile_qr_scan"}, "name": "181060acf005c53f588028687d5d7e7c", "type": "electric_scooter", "lat": 38.91690833333333, "is_disabled": 0}, {"fusion_lat": 0.0, "lon": -76.990466, "is_reserved": 0, "bike_id": "ae02956609dfeafee94def898e8e8586", "fusion_lon": 0.0, "rental_uris": {"android": "https://dc.lft.to/lastmile_qr_scan", "ios": "https://dc.lft.to/lastmile_qr_scan"}, "name": "ae02956609dfeafee94def898e8e8586", "type": "electric_scooter", "lat": 38.863657833333335, "is_disabled": 0}, {"fusion_lat": 0.0, "lon": -77.02970333333333, "is_reserved": 0, "bike_id": "5a197f418f7098d4cd0c5ac6a1322493", "fusion_lon": 0.0, "rental_uris": {"android": "https://dc.lft.to/lastmile_qr_scan", "ios": "https://dc.lft.to/lastmile_qr_scan"}, "name": "5a197f418f7098d4cd0c5ac6a1322493", "type": "electric_scooter", "lat": 38.925685, "is_disabled": 0}, {"fusion_lat": 0.0, "lon": -77.06402483333333, "is_reserved": 0, "bike_id": "5b7c3c104cde89bb281d35ccab4427a7", "fusion_lon": 0.0, "rental_uris": {"android": "https://dc.lft.to/lastmile_qr_scan", "ios": "https://dc.lft.to/lastmile_qr_scan"}, "name": "5b7c3c104cde89bb281d35ccab4427a7", "type": "electric_scooter", "lat": 38.943232333333334, "is_disabled": 0}, {"fusion_lat": 0.0, "lon": -76.9903625, "is_reserved": 0, "bike_id": "ff9e75dff9a1c078100c4d6c0db79537", "fusion_lon": 0.0, "rental_uris": {"android": "https://dc.lft.to/lastmile_qr_scan", "ios": "https://dc.lft.to/lastmile_qr_scan"}, "name": "ff9e75dff9a1c078100c4d6c0db79537", "type": "electric_scooter", "lat": 38.902925, "is_disabled": 0}, {"fusion_lat": 0.0, "lon": -77.0332585, "is_reserved": 0, "bike_id": "5fd9659df5df027b8b8d09a0d91d8b01", "fusion_lon": 0.0, "rental_uris": {"android": "https://dc.lft.to/lastmile_qr_scan", "ios": "https://dc.lft.to/lastmile_qr_scan"}, "name": "5fd9659df5df027b8b8d09a0d91d8b01", "type": "electric_scooter", "lat": 38.915562, "is_disabled": 0}, {"fusion_lat": 0.0, "lon": -77.04380233333333, "is_reserved": 0, "bike_id": "2ceef7ddec212d5e6c6d0c95ba7278b3", "fusion_lon": 0.0, "rental_uris": {"android": "https://dc.lft.to/lastmile_qr_scan", "ios": "https://dc.lft.to/lastmile_qr_scan"}, "name": "2ceef7ddec212d5e6c6d0c95ba7278b3", "type": "electric_scooter", "lat": 38.89224516666667, "is_disabled": 0}, {"fusion_lat": 0.0, "lon": -76.98390116666667, "is_reserved": 0, "bike_id": "24df44176452d7d8936384cdaa988942", "fusion_lon": 0.0, "rental_uris": {"android": "https://dc.lft.to/lastmile_qr_scan", "ios": "https://dc.lft.to/lastmile_qr_scan"}, "name": "24df44176452d7d8936384cdaa988942", "type": "electric_scooter", "lat": 38.867073500000004, "is_disabled": 0}, {"fusion_lat": 0.0, "lon": -77.00965983333333, "is_reserved": 0, "bike_id": "750cc78116c1af256d235367961666ec", "fusion_lon": 0.0, "rental_uris": {"android": "https://dc.lft.to/lastmile_qr_scan", "ios": "https://dc.lft.to/lastmile_qr_scan"}, "name": "750cc78116c1af256d235367961666ec", "type": "electric_scooter", "lat": 38.91704416666666, "is_disabled": 0}, {"fusion_lat": 0.0, "lon": -77.0588785, "is_reserved": 0, "bike_id": "7259630b1790a783da6bca4dc58f10ce", "fusion_lon": 0.0, "rental_uris": {"android": "https://dc.lft.to/lastmile_qr_scan", "ios": "https://dc.lft.to/lastmile_qr_scan"}, "name": "7259630b1790a783da6bca4dc58f10ce", "type": "electric_scooter", "lat": 38.9182805, "is_disabled": 0}, {"fusion_lat": 0.0, "lon": -76.97565733333333, "is_reserved": 0, "bike_id": "98b29977a3b0fae11dd6420a19774233", "fusion_lon": 0.0, "rental_uris": {"android": "https://dc.lft.to/lastmile_qr_scan", "ios": "https://dc.lft.to/lastmile_qr_scan"}, "name": "98b29977a3b0fae11dd6420a19774233", "type": "electric_bike", "lat": 38.92461333333333, "is_disabled": 0}, {"fusion_lat": 0.0, "lon": -76.98112316666666, "is_reserved": 0, "bike_id": "8f88955c6bcb18164dc883dc86ee2bc6", "fusion_lon": 0.0, "rental_uris": {"android": "https://dc.lft.to/lastmile_qr_scan", "ios": "https://dc.lft.to/lastmile_qr_scan"}, "name": "8f88955c6bcb18164dc883dc86ee2bc6", "type": "electric_scooter", "lat": 38.904069166666666, "is_disabled": 0}, {"fusion_lat": 0.0, "lon": -77.01226866666667, "is_reserved": 0, "bike_id": "45ab2c64715a83e696bb3d0132873ab5", "fusion_lon": 0.0, "rental_uris": {"android": "https://dc.lft.to/lastmile_qr_scan", "ios": "https://dc.lft.to/lastmile_qr_scan"}, "name": "45ab2c64715a83e696bb3d0132873ab5", "type": "electric_scooter", "lat": 38.914345, "is_disabled": 0}, {"fusion_lat": 0.0, "lon": -77.02322966666667, "is_reserved": 0, "bike_id": "7f374b5d808885fcf5286f46bffd385f", "fusion_lon": 0.0, "rental_uris": {"android": "https://dc.lft.to/lastmile_qr_scan", "ios": "https://dc.lft.to/lastmile_qr_scan"}, "name": "7f374b5d808885fcf5286f46bffd385f", "type": "electric_scooter", "lat": 38.90924033333334, "is_disabled": 0}, {"fusion_lat": 0.0, "lon": -77.04686666666667, "is_reserved": 0, "bike_id": "7bdc294e9df514ba80ee5b27fb17df15", "fusion_lon": 0.0, "rental_uris": {"android": "https://dc.lft.to/lastmile_qr_scan", "ios": "https://dc.lft.to/lastmile_qr_scan"}, "name": "7bdc294e9df514ba80ee5b27fb17df15", "type": "electric_scooter", "lat": 38.92133716666667, "is_disabled": 0}, {"fusion_lat": 0.0, "lon": -77.07101466666667, "is_reserved": 0, "bike_id": "cc2242f11945863699525ca086194edc", "fusion_lon": 0.0, "rental_uris": {"android": "https://dc.lft.to/lastmile_qr_scan", "ios": "https://dc.lft.to/lastmile_qr_scan"}, "name": "cc2242f11945863699525ca086194edc", "type": "electric_scooter", "lat": 38.90776916666667, "is_disabled": 0}, {"fusion_lat": 0.0, "lon": -77.01717266666667, "is_reserved": 0, "bike_id": "ff03967ad69bb0d729569b45d966337a", "fusion_lon": 0.0, "rental_uris": {"android": "https://dc.lft.to/lastmile_qr_scan", "ios": "https://dc.lft.to/lastmile_qr_scan"}, "name": "ff03967ad69bb0d729569b45d966337a", "type": "electric_scooter", "lat": 38.974897, "is_disabled": 0}, {"fusion_lat": 0.0, "lon": -77.05218066666667, "is_reserved": 0, "bike_id": "e955b8a1eddde66bcd997e2d286acccf", "fusion_lon": 0.0, "rental_uris": {"android": "https://dc.lft.to/lastmile_qr_scan", "ios": "https://dc.lft.to/lastmile_qr_scan"}, "name": "e955b8a1eddde66bcd997e2d286acccf", "type": "electric_scooter", "lat": 38.91562916666667, "is_disabled": 0}, {"fusion_lat": 0.0, "lon": -76.9361005, "is_reserved": 0, "bike_id": "c16ee3b5af56227995c0832a3a28f17e", "fusion_lon": 0.0, "rental_uris": {"android": "https://dc.lft.to/lastmile_qr_scan", "ios": "https://dc.lft.to/lastmile_qr_scan"}, "name": "c16ee3b5af56227995c0832a3a28f17e", "type": "electric_scooter", "lat": 38.886716, "is_disabled": 0}, {"fusion_lat": 0.0, "lon": -77.00440233333333, "is_reserved": 0, "bike_id": "1053ddd037b6ecb79508ecd79d8b3049", "fusion_lon": 0.0, "rental_uris": {"android": "https://dc.lft.to/lastmile_qr_scan", "ios": "https://dc.lft.to/lastmile_qr_scan"}, "name": "1053ddd037b6ecb79508ecd79d8b3049", "type": "electric_scooter", "lat": 38.91335766666667, "is_disabled": 0}, {"fusion_lat": 0.0, "lon": -77.0116275, "is_reserved": 0, "bike_id": "bc9c526f7bd90f42cf2d9df68e47321c", "fusion_lon": 0.0, "rental_uris": {"android": "https://dc.lft.to/lastmile_qr_scan", "ios": "https://dc.lft.to/lastmile_qr_scan"}, "name": "bc9c526f7bd90f42cf2d9df68e47321c", "type": "electric_scooter", "lat": 38.96989416666667, "is_disabled": 0}, {"fusion_lat": 0.0, "lon": -77.03821816666667, "is_reserved": 0, "bike_id": "8f6770782c5d9e6c08d9f47cc6a426f3", "fusion_lon": 0.0, "rental_uris": {"android": "https://dc.lft.to/lastmile_qr_scan", "ios": "https://dc.lft.to/lastmile_qr_scan"}, "name": "8f6770782c5d9e6c08d9f47cc6a426f3", "type": "electric_scooter", "lat": 38.925127333333336, "is_disabled": 0}, {"fusion_lat": 0.0, "lon": -77.027238, "is_reserved": 0, "bike_id": "fb3eb3336d5469c55c1b431811ce7eee", "fusion_lon": 0.0, "rental_uris": {"android": "https://dc.lft.to/lastmile_qr_scan", "ios": "https://dc.lft.to/lastmile_qr_scan"}, "name": "fb3eb3336d5469c55c1b431811ce7eee", "type": "electric_scooter", "lat": 38.949572333333336, "is_disabled": 0}, {"fusion_lat": 0.0, "lon": -77.0256435, "is_reserved": 0, "bike_id": "f6458e6bd9ba7456dd1e91881ca203af", "fusion_lon": 0.0, "rental_uris": {"android": "https://dc.lft.to/lastmile_qr_scan", "ios": "https://dc.lft.to/lastmile_qr_scan"}, "name": "f6458e6bd9ba7456dd1e91881ca203af", "type": "electric_scooter", "lat": 38.9386035, "is_disabled": 0}, {"fusion_lat": 0.0, "lon": -77.030268, "is_reserved": 0, "bike_id": "3a12a026a9f15bf00303a4f38d5bfc32", "fusion_lon": 0.0, "rental_uris": {"android": "https://dc.lft.to/lastmile_qr_scan", "ios": "https://dc.lft.to/lastmile_qr_scan"}, "name": "3a12a026a9f15bf00303a4f38d5bfc32", "type": "electric_scooter", "lat": 38.89617916666667, "is_disabled": 0}, {"fusion_lat": 0.0, "lon": -77.057468, "is_reserved": 0, "bike_id": "7dff2c156173bb920e4bc654121f3479", "fusion_lon": 0.0, "rental_uris": {"android": "https://dc.lft.to/lastmile_qr_scan", "ios": "https://dc.lft.to/lastmile_qr_scan"}, "name": "7dff2c156173bb920e4bc654121f3479", "type": "electric_scooter", "lat": 38.933904166666665, "is_disabled": 0}, {"fusion_lat": 0.0, "lon": -77.06280533333333, "is_reserved": 0, "bike_id": "3f637ebc0bbb73307c210f5489a0462f", "fusion_lon": 0.0, "rental_uris": {"android": "https://dc.lft.to/lastmile_qr_scan", "ios": "https://dc.lft.to/lastmile_qr_scan"}, "name": "3f637ebc0bbb73307c210f5489a0462f", "type": "electric_scooter", "lat": 38.905783166666666, "is_disabled": 0}, {"fusion_lat": 0.0, "lon": -76.999341, "is_reserved": 0, "bike_id": "2756b848c03be678ab64c85284d8a627", "fusion_lon": 0.0, "rental_uris": {"android": "https://dc.lft.to/lastmile_qr_scan", "ios": "https://dc.lft.to/lastmile_qr_scan"}, "name": "2756b848c03be678ab64c85284d8a627", "type": "electric_scooter", "lat": 38.84301266666667, "is_disabled": 0}, {"fusion_lat": 0.0, "lon": -77.032934, "is_reserved": 0, "bike_id": "e818e5470beff4d0a5910930b7484166", "fusion_lon": 0.0, "rental_uris": {"android": "https://dc.lft.to/lastmile_qr_scan", "ios": "https://dc.lft.to/lastmile_qr_scan"}, "name": "e818e5470beff4d0a5910930b7484166", "type": "electric_bike", "lat": 38.92625733333333, "is_disabled": 0}, {"fusion_lat": 0.0, "lon": -77.02490966666667, "is_reserved": 0, "bike_id": "7ac75fbb7edb7101cb29ad6e702037af", "fusion_lon": 0.0, "rental_uris": {"android": "https://dc.lft.to/lastmile_qr_scan", "ios": "https://dc.lft.to/lastmile_qr_scan"}, "name": "7ac75fbb7edb7101cb29ad6e702037af", "type": "electric_scooter", "lat": 38.937602166666665, "is_disabled": 0}, {"fusion_lat": 0.0, "lon": -76.998363, "is_reserved": 0, "bike_id": "1df4206d8df9b092ea391e2eaaf1b15c", "fusion_lon": 0.0, "rental_uris": {"android": "https://dc.lft.to/lastmile_qr_scan", "ios": "https://dc.lft.to/lastmile_qr_scan"}, "name": "1df4206d8df9b092ea391e2eaaf1b15c", "type": "electric_scooter", "lat": 38.90027383333333, "is_disabled": 0}, {"fusion_lat": 0.0, "lon": -76.9487725, "is_reserved": 0, "bike_id": "169123c2b1dc794fd6c79f65c346b1a1", "fusion_lon": 0.0, "rental_uris": {"android": "https://dc.lft.to/lastmile_qr_scan", "ios": "https://dc.lft.to/lastmile_qr_scan"}, "name": "169123c2b1dc794fd6c79f65c346b1a1", "type": "electric_scooter", "lat": 38.89547533333333, "is_disabled": 0}, {"fusion_lat": 0.0, "lon": -77.01079433333334, "is_reserved": 0, "bike_id": "920da07b3a85e323137d625203003fb7", "fusion_lon": 0.0, "rental_uris": {"android": "https://dc.lft.to/lastmile_qr_scan", "ios": "https://dc.lft.to/lastmile_qr_scan"}, "name": "920da07b3a85e323137d625203003fb7", "type": "electric_scooter", "lat": 38.91774633333333, "is_disabled": 0}, {"fusion_lat": 0.0, "lon": -77.041915, "is_reserved": 0, "bike_id": "5723e2b6519ccc85b2d1c13e6e619c44", "fusion_lon": 0.0, "rental_uris": {"android": "https://dc.lft.to/lastmile_qr_scan", "ios": "https://dc.lft.to/lastmile_qr_scan"}, "name": "5723e2b6519ccc85b2d1c13e6e619c44", "type": "electric_scooter", "lat": 38.91970216666667, "is_disabled": 0}, {"fusion_lat": 0.0, "lon": -77.01525783333334, "is_reserved": 0, "bike_id": "54cb32da8affc9d3d3e8a0fd31746ef6", "fusion_lon": 0.0, "rental_uris": {"android": "https://dc.lft.to/lastmile_qr_scan", "ios": "https://dc.lft.to/lastmile_qr_scan"}, "name": "54cb32da8affc9d3d3e8a0fd31746ef6", "type": "electric_bike", "lat": 38.91868266666667, "is_disabled": 0}, {"fusion_lat": 0.0, "lon": -77.01863583333333, "is_reserved": 0, "bike_id": "00e9050f4cb223a75ce52148afdfe0a4", "fusion_lon": 0.0, "rental_uris": {"android": "https://dc.lft.to/lastmile_qr_scan", "ios": "https://dc.lft.to/lastmile_qr_scan"}, "name": "00e9050f4cb223a75ce52148afdfe0a4", "type": "electric_scooter", "lat": 38.97368266666667, "is_disabled": 0}, {"fusion_lat": 0.0, "lon": -76.99640066666667, "is_reserved": 0, "bike_id": "fc7e98b0ce6f78bdc8f801fe8b1a7ccf", "fusion_lon": 0.0, "rental_uris": {"android": "https://dc.lft.to/lastmile_qr_scan", "ios": "https://dc.lft.to/lastmile_qr_scan"}, "name": "fc7e98b0ce6f78bdc8f801fe8b1a7ccf", "type": "electric_scooter", "lat": 38.9002325, "is_disabled": 0}, {"fusion_lat": 0.0, "lon": -77.07330516666667, "is_reserved": 0, "bike_id": "bf2b622f435fdcac4d0093895b9103dc", "fusion_lon": 0.0, "rental_uris": {"android": "https://dc.lft.to/lastmile_qr_scan", "ios": "https://dc.lft.to/lastmile_qr_scan"}, "name": "bf2b622f435fdcac4d0093895b9103dc", "type": "electric_scooter", "lat": 38.92607616666667, "is_disabled": 0}, {"fusion_lat": 0.0, "lon": -76.99379783333333, "is_reserved": 0, "bike_id": "925665ac8a4e77342727c509a65a3d51", "fusion_lon": 0.0, "rental_uris": {"android": "https://dc.lft.to/lastmile_qr_scan", "ios": "https://dc.lft.to/lastmile_qr_scan"}, "name": "925665ac8a4e77342727c509a65a3d51", "type": "electric_bike", "lat": 38.97188383333334, "is_disabled": 0}, {"fusion_lat": 0.0, "lon": -77.038657, "is_reserved": 0, "bike_id": "b0f12ffdfa4d22ca09309a505857bdb7", "fusion_lon": 0.0, "rental_uris": {"android": "https://dc.lft.to/lastmile_qr_scan", "ios": "https://dc.lft.to/lastmile_qr_scan"}, "name": "b0f12ffdfa4d22ca09309a505857bdb7", "type": "electric_scooter", "lat": 38.945042, "is_disabled": 0}, {"fusion_lat": 0.0, "lon": -77.00741066666667, "is_reserved": 0, "bike_id": "2018d6bbf3e3e66c978fd05d8c17b6d0", "fusion_lon": 0.0, "rental_uris": {"android": "https://dc.lft.to/lastmile_qr_scan", "ios": "https://dc.lft.to/lastmile_qr_scan"}, "name": "2018d6bbf3e3e66c978fd05d8c17b6d0", "type": "electric_scooter", "lat": 38.876592, "is_disabled": 0}, {"fusion_lat": 0.0, "lon": -77.04681066666667, "is_reserved": 0, "bike_id": "770575ecf27429ea49930a021bc0276c", "fusion_lon": 0.0, "rental_uris": {"android": "https://dc.lft.to/lastmile_qr_scan", "ios": "https://dc.lft.to/lastmile_qr_scan"}, "name": "770575ecf27429ea49930a021bc0276c", "type": "electric_scooter", "lat": 38.89652783333333, "is_disabled": 0}, {"fusion_lat": 0.0, "lon": -77.07007566666667, "is_reserved": 0, "bike_id": "112a6b6b25026e1d3f8e7fd18913ba26", "fusion_lon": 0.0, "rental_uris": {"android": "https://dc.lft.to/lastmile_qr_scan", "ios": "https://dc.lft.to/lastmile_qr_scan"}, "name": "112a6b6b25026e1d3f8e7fd18913ba26", "type": "electric_scooter", "lat": 38.958513333333336, "is_disabled": 0}, {"fusion_lat": 0.0, "lon": -76.99715316666666, "is_reserved": 0, "bike_id": "501d1756ecbe59769ccbb9ef11113b31", "fusion_lon": 0.0, "rental_uris": {"android": "https://dc.lft.to/lastmile_qr_scan", "ios": "https://dc.lft.to/lastmile_qr_scan"}, "name": "501d1756ecbe59769ccbb9ef11113b31", "type": "electric_scooter", "lat": 38.90778566666667, "is_disabled": 0}, {"fusion_lat": 0.0, "lon": -76.94876783333333, "is_reserved": 0, "bike_id": "f6b752c6b31974224310f24df23fefa4", "fusion_lon": 0.0, "rental_uris": {"android": "https://dc.lft.to/lastmile_qr_scan", "ios": "https://dc.lft.to/lastmile_qr_scan"}, "name": "f6b752c6b31974224310f24df23fefa4", "type": "electric_scooter", "lat": 38.8955155, "is_disabled": 0}, {"fusion_lat": 0.0, "lon": -76.95023316666666, "is_reserved": 0, "bike_id": "44a4935f278ce7a1bcba0084d95febf3", "fusion_lon": 0.0, "rental_uris": {"android": "https://dc.lft.to/lastmile_qr_scan", "ios": "https://dc.lft.to/lastmile_qr_scan"}, "name": "44a4935f278ce7a1bcba0084d95febf3", "type": "electric_scooter", "lat": 38.893920333333334, "is_disabled": 0}, {"fusion_lat": 0.0, "lon": -76.98718566666666, "is_reserved": 0, "bike_id": "a8ac0fb746bf68dfd331e488e04b7776", "fusion_lon": 0.0, "rental_uris": {"android": "https://dc.lft.to/lastmile_qr_scan", "ios": "https://dc.lft.to/lastmile_qr_scan"}, "name": "a8ac0fb746bf68dfd331e488e04b7776", "type": "electric_scooter", "lat": 38.867055666666666, "is_disabled": 0}, {"fusion_lat": 0.0, "lon": -77.00198283333333, "is_reserved": 0, "bike_id": "cda71257631e7afd9d255bd6f79210cd", "fusion_lon": 0.0, "rental_uris": {"android": "https://dc.lft.to/lastmile_qr_scan", "ios": "https://dc.lft.to/lastmile_qr_scan"}, "name": "cda71257631e7afd9d255bd6f79210cd", "type": "electric_scooter", "lat": 38.900359, "is_disabled": 0}, {"fusion_lat": 0.0, "lon": -76.99057883333333, "is_reserved": 0, "bike_id": "7d33abf7f1e761ee3e6aba3e12da0b9c", "fusion_lon": 0.0, "rental_uris": {"android": "https://dc.lft.to/lastmile_qr_scan", "ios": "https://dc.lft.to/lastmile_qr_scan"}, "name": "7d33abf7f1e761ee3e6aba3e12da0b9c", "type": "electric_scooter", "lat": 38.86357016666667, "is_disabled": 0}, {"fusion_lat": 0.0, "lon": -77.02826716666667, "is_reserved": 0, "bike_id": "bdedbef1b521bcb8b7cf5b091f6576db", "fusion_lon": 0.0, "rental_uris": {"android": "https://dc.lft.to/lastmile_qr_scan", "ios": "https://dc.lft.to/lastmile_qr_scan"}, "name": "bdedbef1b521bcb8b7cf5b091f6576db", "type": "electric_scooter", "lat": 38.917959, "is_disabled": 0}, {"fusion_lat": 0.0, "lon": -77.02903283333333, "is_reserved": 0, "bike_id": "a9084eadf0c27e415fd16defacfc72a5", "fusion_lon": 0.0, "rental_uris": {"android": "https://dc.lft.to/lastmile_qr_scan", "ios": "https://dc.lft.to/lastmile_qr_scan"}, "name": "a9084eadf0c27e415fd16defacfc72a5", "type": "electric_scooter", "lat": 38.916728666666664, "is_disabled": 0}, {"fusion_lat": 0.0, "lon": -76.99761016666666, "is_reserved": 0, "bike_id": "c12ce8bf1ecb2db602fb193d40cf8d1c", "fusion_lon": 0.0, "rental_uris": {"android": "https://dc.lft.to/lastmile_qr_scan", "ios": "https://dc.lft.to/lastmile_qr_scan"}, "name": "c12ce8bf1ecb2db602fb193d40cf8d1c", "type": "electric_scooter", "lat": 38.88768533333333, "is_disabled": 0}, {"fusion_lat": 0.0, "lon": -77.0034155, "is_reserved": 0, "bike_id": "514a84703389caf2e3acf17038ffa53d", "fusion_lon": 0.0, "rental_uris": {"android": "https://dc.lft.to/lastmile_qr_scan", "ios": "https://dc.lft.to/lastmile_qr_scan"}, "name": "514a84703389caf2e3acf17038ffa53d", "type": "electric_scooter", "lat": 38.9036295, "is_disabled": 0}, {"fusion_lat": 0.0, "lon": -77.043595, "is_reserved": 0, "bike_id": "97597b4e689a28b6c22398a7c0f8ebfa", "fusion_lon": 0.0, "rental_uris": {"android": "https://dc.lft.to/lastmile_qr_scan", "ios": "https://dc.lft.to/lastmile_qr_scan"}, "name": "97597b4e689a28b6c22398a7c0f8ebfa", "type": "electric_scooter", "lat": 38.892319666666666, "is_disabled": 0}, {"fusion_lat": 0.0, "lon": -76.94201166666667, "is_reserved": 0, "bike_id": "7c1da7b61d195b91b1c489b3642e0ce7", "fusion_lon": 0.0, "rental_uris": {"android": "https://dc.lft.to/lastmile_qr_scan", "ios": "https://dc.lft.to/lastmile_qr_scan"}, "name": "7c1da7b61d195b91b1c489b3642e0ce7", "type": "electric_scooter", "lat": 38.89376633333333, "is_disabled": 0}, {"fusion_lat": 0.0, "lon": -77.03151516666667, "is_reserved": 0, "bike_id": "ad108a23ff0623ccdd9b1f385638175f", "fusion_lon": 0.0, "rental_uris": {"android": "https://dc.lft.to/lastmile_qr_scan", "ios": "https://dc.lft.to/lastmile_qr_scan"}, "name": "ad108a23ff0623ccdd9b1f385638175f", "type": "electric_scooter", "lat": 38.927926166666666, "is_disabled": 0}, {"fusion_lat": 0.0, "lon": -77.0788245, "is_reserved": 0, "bike_id": "84e5b2e07e78ce09aa747e10dc7e2b87", "fusion_lon": 0.0, "rental_uris": {"android": "https://dc.lft.to/lastmile_qr_scan", "ios": "https://dc.lft.to/lastmile_qr_scan"}, "name": "84e5b2e07e78ce09aa747e10dc7e2b87", "type": "electric_bike", "lat": 38.950283166666665, "is_disabled": 0}, {"fusion_lat": 0.0, "lon": -76.94684083333334, "is_reserved": 0, "bike_id": "0c32c31fca5d691afc89ac91a6c629c5", "fusion_lon": 0.0, "rental_uris": {"android": "https://dc.lft.to/lastmile_qr_scan", "ios": "https://dc.lft.to/lastmile_qr_scan"}, "name": "0c32c31fca5d691afc89ac91a6c629c5", "type": "electric_scooter", "lat": 38.88631133333333, "is_disabled": 0}, {"fusion_lat": 0.0, "lon": -77.03851633333333, "is_reserved": 0, "bike_id": "3449dfd410ae74d72150a3653459cab5", "fusion_lon": 0.0, "rental_uris": {"android": "https://dc.lft.to/lastmile_qr_scan", "ios": "https://dc.lft.to/lastmile_qr_scan"}, "name": "3449dfd410ae74d72150a3653459cab5", "type": "electric_scooter", "lat": 38.925298833333336, "is_disabled": 0}, {"fusion_lat": 0.0, "lon": -77.00388383333333, "is_reserved": 0, "bike_id": "0584acd6fecb20598fe6aaf2cd54b510", "fusion_lon": 0.0, "rental_uris": {"android": "https://dc.lft.to/lastmile_qr_scan", "ios": "https://dc.lft.to/lastmile_qr_scan"}, "name": "0584acd6fecb20598fe6aaf2cd54b510", "type": "electric_scooter", "lat": 38.876405166666665, "is_disabled": 0}, {"fusion_lat": 0.0, "lon": -77.03250833333334, "is_reserved": 0, "bike_id": "3eb318d91817253651f00dc747da82a3", "fusion_lon": 0.0, "rental_uris": {"android": "https://dc.lft.to/lastmile_qr_scan", "ios": "https://dc.lft.to/lastmile_qr_scan"}, "name": "3eb318d91817253651f00dc747da82a3", "type": "electric_scooter", "lat": 38.91567416666667, "is_disabled": 0}, {"fusion_lat": 0.0, "lon": -77.04503383333333, "is_reserved": 0, "bike_id": "feae53b86865e73209b0d3cbfae9de0c", "fusion_lon": 0.0, "rental_uris": {"android": "https://dc.lft.to/lastmile_qr_scan", "ios": "https://dc.lft.to/lastmile_qr_scan"}, "name": "feae53b86865e73209b0d3cbfae9de0c", "type": "electric_scooter", "lat": 38.90520883333333, "is_disabled": 0}, {"fusion_lat": 0.0, "lon": -77.03437083333333, "is_reserved": 0, "bike_id": "776f291025eb5ac49c5fb571aed3cfea", "fusion_lon": 0.0, "rental_uris": {"android": "https://dc.lft.to/lastmile_qr_scan", "ios": "https://dc.lft.to/lastmile_qr_scan"}, "name": "776f291025eb5ac49c5fb571aed3cfea", "type": "electric_scooter", "lat": 38.918121666666664, "is_disabled": 0}, {"fusion_lat": 0.0, "lon": -77.02630333333333, "is_reserved": 0, "bike_id": "806bf5298dccb912224c4101d2337ff6", "fusion_lon": 0.0, "rental_uris": {"android": "https://dc.lft.to/lastmile_qr_scan", "ios": "https://dc.lft.to/lastmile_qr_scan"}, "name": "806bf5298dccb912224c4101d2337ff6", "type": "electric_bike", "lat": 38.9622675, "is_disabled": 0}, {"fusion_lat": 0.0, "lon": -77.03869666666667, "is_reserved": 0, "bike_id": "e5a9bcce11ac79b3cb77f42cbac85259", "fusion_lon": 0.0, "rental_uris": {"android": "https://dc.lft.to/lastmile_qr_scan", "ios": "https://dc.lft.to/lastmile_qr_scan"}, "name": "e5a9bcce11ac79b3cb77f42cbac85259", "type": "electric_scooter", "lat": 38.9215065, "is_disabled": 0}, {"fusion_lat": 0.0, "lon": -77.02484333333334, "is_reserved": 0, "bike_id": "71a127c045b719fa2df9db0855215008", "fusion_lon": 0.0, "rental_uris": {"android": "https://dc.lft.to/lastmile_qr_scan", "ios": "https://dc.lft.to/lastmile_qr_scan"}, "name": "71a127c045b719fa2df9db0855215008", "type": "electric_scooter", "lat": 38.93881666666667, "is_disabled": 0}, {"fusion_lat": 0.0, "lon": -77.07154333333334, "is_reserved": 0, "bike_id": "7d742a0787164c4e289787de131c713a", "fusion_lon": 0.0, "rental_uris": {"android": "https://dc.lft.to/lastmile_qr_scan", "ios": "https://dc.lft.to/lastmile_qr_scan"}, "name": "7d742a0787164c4e289787de131c713a", "type": "electric_scooter", "lat": 38.94562833333333, "is_disabled": 0}, {"fusion_lat": 0.0, "lon": -77.01948633333333, "is_reserved": 0, "bike_id": "34174348c83f1d3e856e43ed9a93eb20", "fusion_lon": 0.0, "rental_uris": {"android": "https://dc.lft.to/lastmile_qr_scan", "ios": "https://dc.lft.to/lastmile_qr_scan"}, "name": "34174348c83f1d3e856e43ed9a93eb20", "type": "electric_scooter", "lat": 38.9024265, "is_disabled": 0}, {"fusion_lat": 0.0, "lon": -77.0651585, "is_reserved": 0, "bike_id": "e2cf8ce0a60b33c8e90e38d47ca22cec", "fusion_lon": 0.0, "rental_uris": {"android": "https://dc.lft.to/lastmile_qr_scan", "ios": "https://dc.lft.to/lastmile_qr_scan"}, "name": "e2cf8ce0a60b33c8e90e38d47ca22cec", "type": "electric_scooter", "lat": 38.90529433333333, "is_disabled": 0}, {"fusion_lat": 0.0, "lon": -77.06671566666667, "is_reserved": 0, "bike_id": "fd11ab409dd9b9ab0172b0da26de7b06", "fusion_lon": 0.0, "rental_uris": {"android": "https://dc.lft.to/lastmile_qr_scan", "ios": "https://dc.lft.to/lastmile_qr_scan"}, "name": "fd11ab409dd9b9ab0172b0da26de7b06", "type": "electric_scooter", "lat": 38.94968716666666, "is_disabled": 0}, {"fusion_lat": 0.0, "lon": -77.02380133333334, "is_reserved": 0, "bike_id": "e8bc91df991e95df2036b0f6dba351f6", "fusion_lon": 0.0, "rental_uris": {"android": "https://dc.lft.to/lastmile_qr_scan", "ios": "https://dc.lft.to/lastmile_qr_scan"}, "name": "e8bc91df991e95df2036b0f6dba351f6", "type": "electric_scooter", "lat": 38.899749666666665, "is_disabled": 0}, {"fusion_lat": 0.0, "lon": -77.03215716666666, "is_reserved": 0, "bike_id": "6d6029c640d34ab81f0dbc37886121cb", "fusion_lon": 0.0, "rental_uris": {"android": "https://dc.lft.to/lastmile_qr_scan", "ios": "https://dc.lft.to/lastmile_qr_scan"}, "name": "6d6029c640d34ab81f0dbc37886121cb", "type": "electric_bike", "lat": 38.93312933333333, "is_disabled": 0}, {"fusion_lat": 0.0, "lon": -77.02769, "is_reserved": 0, "bike_id": "50706c918ade83d8c2ae1e8b141009c9", "fusion_lon": 0.0, "rental_uris": {"android": "https://dc.lft.to/lastmile_qr_scan", "ios": "https://dc.lft.to/lastmile_qr_scan"}, "name": "50706c918ade83d8c2ae1e8b141009c9", "type": "electric_scooter", "lat": 38.95434266666667, "is_disabled": 0}, {"fusion_lat": 0.0, "lon": -76.96600766666667, "is_reserved": 0, "bike_id": "74eae201075361c32bc40154cb55d636", "fusion_lon": 0.0, "rental_uris": {"android": "https://dc.lft.to/lastmile_qr_scan", "ios": "https://dc.lft.to/lastmile_qr_scan"}, "name": "74eae201075361c32bc40154cb55d636", "type": "electric_scooter", "lat": 38.871127666666666, "is_disabled": 0}, {"fusion_lat": 0.0, "lon": -77.02174083333334, "is_reserved": 0, "bike_id": "d28cf4d150ab817d4a1294028e1539ed", "fusion_lon": 0.0, "rental_uris": {"android": "https://dc.lft.to/lastmile_qr_scan", "ios": "https://dc.lft.to/lastmile_qr_scan"}, "name": "d28cf4d150ab817d4a1294028e1539ed", "type": "electric_scooter", "lat": 38.942926166666666, "is_disabled": 0}, {"fusion_lat": 0.0, "lon": -77.05577333333333, "is_reserved": 0, "bike_id": "38f314b2d9768617b2a253d4424df581", "fusion_lon": 0.0, "rental_uris": {"android": "https://dc.lft.to/lastmile_qr_scan", "ios": "https://dc.lft.to/lastmile_qr_scan"}, "name": "38f314b2d9768617b2a253d4424df581", "type": "electric_scooter", "lat": 38.9362025, "is_disabled": 0}, {"fusion_lat": 0.0, "lon": -77.051379, "is_reserved": 0, "bike_id": "6ad3c81a326241a4cdd4e9e708da8e50", "fusion_lon": 0.0, "rental_uris": {"android": "https://dc.lft.to/lastmile_qr_scan", "ios": "https://dc.lft.to/lastmile_qr_scan"}, "name": "6ad3c81a326241a4cdd4e9e708da8e50", "type": "electric_scooter", "lat": 38.90714533333333, "is_disabled": 0}, {"fusion_lat": 0.0, "lon": -77.03140266666666, "is_reserved": 0, "bike_id": "26868767b09bb6cf67210c6059ce087e", "fusion_lon": 0.0, "rental_uris": {"android": "https://dc.lft.to/lastmile_qr_scan", "ios": "https://dc.lft.to/lastmile_qr_scan"}, "name": "26868767b09bb6cf67210c6059ce087e", "type": "electric_scooter", "lat": 38.904497, "is_disabled": 0}, {"fusion_lat": 0.0, "lon": -77.007025, "is_reserved": 0, "bike_id": "147a5305180c98d0e141a9264c2a59a7", "fusion_lon": 0.0, "rental_uris": {"android": "https://dc.lft.to/lastmile_qr_scan", "ios": "https://dc.lft.to/lastmile_qr_scan"}, "name": "147a5305180c98d0e141a9264c2a59a7", "type": "electric_scooter", "lat": 38.905628666666665, "is_disabled": 0}, {"fusion_lat": 0.0, "lon": -76.99827333333333, "is_reserved": 0, "bike_id": "f311e1c95fc8276560335f4d3d892d51", "fusion_lon": 0.0, "rental_uris": {"android": "https://dc.lft.to/lastmile_qr_scan", "ios": "https://dc.lft.to/lastmile_qr_scan"}, "name": "f311e1c95fc8276560335f4d3d892d51", "type": "electric_scooter", "lat": 38.8853525, "is_disabled": 0}, {"fusion_lat": 0.0, "lon": -77.00772333333333, "is_reserved": 0, "bike_id": "a12525ccb0d3abd1466df2199058c2c7", "fusion_lon": 0.0, "rental_uris": {"android": "https://dc.lft.to/lastmile_qr_scan", "ios": "https://dc.lft.to/lastmile_qr_scan"}, "name": "a12525ccb0d3abd1466df2199058c2c7", "type": "electric_scooter", "lat": 38.92671333333333, "is_disabled": 0}, {"fusion_lat": 0.0, "lon": -76.9993885, "is_reserved": 0, "bike_id": "862dbd56b8e055b28e8817fd8f9cab9f", "fusion_lon": 0.0, "rental_uris": {"android": "https://dc.lft.to/lastmile_qr_scan", "ios": "https://dc.lft.to/lastmile_qr_scan"}, "name": "862dbd56b8e055b28e8817fd8f9cab9f", "type": "electric_scooter", "lat": 38.84302533333333, "is_disabled": 0}, {"fusion_lat": 0.0, "lon": -77.0249455, "is_reserved": 0, "bike_id": "bef4e0a6a0f22ec03a0c13df820a3f90", "fusion_lon": 0.0, "rental_uris": {"android": "https://dc.lft.to/lastmile_qr_scan", "ios": "https://dc.lft.to/lastmile_qr_scan"}, "name": "bef4e0a6a0f22ec03a0c13df820a3f90", "type": "electric_scooter", "lat": 38.94184966666667, "is_disabled": 0}, {"fusion_lat": 0.0, "lon": -76.967117, "is_reserved": 0, "bike_id": "d850a9a1e577fcfaf3b3e48bc6bdb14c", "fusion_lon": 0.0, "rental_uris": {"android": "https://dc.lft.to/lastmile_qr_scan", "ios": "https://dc.lft.to/lastmile_qr_scan"}, "name": "d850a9a1e577fcfaf3b3e48bc6bdb14c", "type": "electric_scooter", "lat": 38.847958166666665, "is_disabled": 0}, {"fusion_lat": 0.0, "lon": -77.06580616666666, "is_reserved": 0, "bike_id": "2dad604ab2aef7445ecd1ffdfe156040", "fusion_lon": 0.0, "rental_uris": {"android": "https://dc.lft.to/lastmile_qr_scan", "ios": "https://dc.lft.to/lastmile_qr_scan"}, "name": "2dad604ab2aef7445ecd1ffdfe156040", "type": "electric_bike", "lat": 38.911344666666665, "is_disabled": 0}, {"fusion_lat": 0.0, "lon": -77.00070733333334, "is_reserved": 0, "bike_id": "e5980b1ff2a27f861267d697524aec5b", "fusion_lon": 0.0, "rental_uris": {"android": "https://dc.lft.to/lastmile_qr_scan", "ios": "https://dc.lft.to/lastmile_qr_scan"}, "name": "e5980b1ff2a27f861267d697524aec5b", "type": "electric_scooter", "lat": 38.92435716666667, "is_disabled": 0}, {"fusion_lat": 0.0, "lon": -76.97333233333333, "is_reserved": 0, "bike_id": "4efbb6ab457ad64c36facae05e1ea29e", "fusion_lon": 0.0, "rental_uris": {"android": "https://dc.lft.to/lastmile_qr_scan", "ios": "https://dc.lft.to/lastmile_qr_scan"}, "name": "4efbb6ab457ad64c36facae05e1ea29e", "type": "electric_scooter", "lat": 38.904116333333334, "is_disabled": 0}, {"fusion_lat": 0.0, "lon": -76.9442525, "is_reserved": 0, "bike_id": "421bb0e0cf56e6beef38b19b275ffaeb", "fusion_lon": 0.0, "rental_uris": {"android": "https://dc.lft.to/lastmile_qr_scan", "ios": "https://dc.lft.to/lastmile_qr_scan"}, "name": "421bb0e0cf56e6beef38b19b275ffaeb", "type": "electric_bike", "lat": 38.96622, "is_disabled": 0}, {"fusion_lat": 0.0, "lon": -77.01753466666666, "is_reserved": 0, "bike_id": "2bd5baecff2faec7d7587bb79bbbfc89", "fusion_lon": 0.0, "rental_uris": {"android": "https://dc.lft.to/lastmile_qr_scan", "ios": "https://dc.lft.to/lastmile_qr_scan"}, "name": "2bd5baecff2faec7d7587bb79bbbfc89", "type": "electric_scooter", "lat": 38.8726865, "is_disabled": 0}, {"fusion_lat": 0.0, "lon": -77.00723516666666, "is_reserved": 0, "bike_id": "c1f5781d27232e8ca8d8c82bcf9f200a", "fusion_lon": 0.0, "rental_uris": {"android": "https://dc.lft.to/lastmile_qr_scan", "ios": "https://dc.lft.to/lastmile_qr_scan"}, "name": "c1f5781d27232e8ca8d8c82bcf9f200a", "type": "electric_scooter", "lat": 38.878385333333334, "is_disabled": 0}, {"fusion_lat": 0.0, "lon": -77.04211283333333, "is_reserved": 0, "bike_id": "10f44817faf595847f0038b7f5d52da0", "fusion_lon": 0.0, "rental_uris": {"android": "https://dc.lft.to/lastmile_qr_scan", "ios": "https://dc.lft.to/lastmile_qr_scan"}, "name": "10f44817faf595847f0038b7f5d52da0", "type": "electric_scooter", "lat": 38.919682, "is_disabled": 0}, {"fusion_lat": 0.0, "lon": -77.024615, "is_reserved": 0, "bike_id": "6e3fb66d97402df2e34c083715c81590", "fusion_lon": 0.0, "rental_uris": {"android": "https://dc.lft.to/lastmile_qr_scan", "ios": "https://dc.lft.to/lastmile_qr_scan"}, "name": "6e3fb66d97402df2e34c083715c81590", "type": "electric_scooter", "lat": 38.937121833333336, "is_disabled": 0}, {"fusion_lat": 0.0, "lon": -77.0161825, "is_reserved": 0, "bike_id": "d019fba237f357724a0888c1e865c773", "fusion_lon": 0.0, "rental_uris": {"android": "https://dc.lft.to/lastmile_qr_scan", "ios": "https://dc.lft.to/lastmile_qr_scan"}, "name": "d019fba237f357724a0888c1e865c773", "type": "electric_scooter", "lat": 38.883265, "is_disabled": 0}, {"fusion_lat": 0.0, "lon": -76.99750233333333, "is_reserved": 0, "bike_id": "e34a31db4d440e0847f512e1a9452de1", "fusion_lon": 0.0, "rental_uris": {"android": "https://dc.lft.to/lastmile_qr_scan", "ios": "https://dc.lft.to/lastmile_qr_scan"}, "name": "e34a31db4d440e0847f512e1a9452de1", "type": "electric_scooter", "lat": 38.908478, "is_disabled": 0}, {"fusion_lat": 0.0, "lon": -77.03452716666666, "is_reserved": 0, "bike_id": "03cbaee66eb7467d431f96fb2cc34dcb", "fusion_lon": 0.0, "rental_uris": {"android": "https://dc.lft.to/lastmile_qr_scan", "ios": "https://dc.lft.to/lastmile_qr_scan"}, "name": "03cbaee66eb7467d431f96fb2cc34dcb", "type": "electric_scooter", "lat": 38.91821266666667, "is_disabled": 0}, {"fusion_lat": 0.0, "lon": -77.0385085, "is_reserved": 0, "bike_id": "ac139cb7b98a0ff5bf703396b6ac812c", "fusion_lon": 0.0, "rental_uris": {"android": "https://dc.lft.to/lastmile_qr_scan", "ios": "https://dc.lft.to/lastmile_qr_scan"}, "name": "ac139cb7b98a0ff5bf703396b6ac812c", "type": "electric_scooter", "lat": 38.90992883333333, "is_disabled": 0}, {"fusion_lat": 0.0, "lon": -77.07350733333334, "is_reserved": 0, "bike_id": "5f071dc05d31da1c3a42022f4b38541f", "fusion_lon": 0.0, "rental_uris": {"android": "https://dc.lft.to/lastmile_qr_scan", "ios": "https://dc.lft.to/lastmile_qr_scan"}, "name": "5f071dc05d31da1c3a42022f4b38541f", "type": "electric_scooter", "lat": 38.91098616666667, "is_disabled": 0}, {"fusion_lat": 0.0, "lon": -76.98148583333334, "is_reserved": 0, "bike_id": "8ef6e3e92e51411d0ec3c18bf334d319", "fusion_lon": 0.0, "rental_uris": {"android": "https://dc.lft.to/lastmile_qr_scan", "ios": "https://dc.lft.to/lastmile_qr_scan"}, "name": "8ef6e3e92e51411d0ec3c18bf334d319", "type": "electric_scooter", "lat": 38.905666833333335, "is_disabled": 0}, {"fusion_lat": 0.0, "lon": -77.061316, "is_reserved": 0, "bike_id": "34f87e43f6065d837a5a46d2427cfbda", "fusion_lon": 0.0, "rental_uris": {"android": "https://dc.lft.to/lastmile_qr_scan", "ios": "https://dc.lft.to/lastmile_qr_scan"}, "name": "34f87e43f6065d837a5a46d2427cfbda", "type": "electric_scooter", "lat": 38.9408445, "is_disabled": 0}, {"fusion_lat": 0.0, "lon": -77.04334433333334, "is_reserved": 0, "bike_id": "680f9922b3e49c863ff6830ea3420b04", "fusion_lon": 0.0, "rental_uris": {"android": "https://dc.lft.to/lastmile_qr_scan", "ios": "https://dc.lft.to/lastmile_qr_scan"}, "name": "680f9922b3e49c863ff6830ea3420b04", "type": "electric_scooter", "lat": 38.90438116666667, "is_disabled": 0}, {"fusion_lat": 0.0, "lon": -77.06051033333334, "is_reserved": 0, "bike_id": "2f7e1dc1b3a44449ab005c8fbc02296e", "fusion_lon": 0.0, "rental_uris": {"android": "https://dc.lft.to/lastmile_qr_scan", "ios": "https://dc.lft.to/lastmile_qr_scan"}, "name": "2f7e1dc1b3a44449ab005c8fbc02296e", "type": "electric_scooter", "lat": 38.939135, "is_disabled": 0}, {"fusion_lat": 0.0, "lon": -77.02976716666667, "is_reserved": 0, "bike_id": "ebf0de6a47e5aac115c4735fd254105b", "fusion_lon": 0.0, "rental_uris": {"android": "https://dc.lft.to/lastmile_qr_scan", "ios": "https://dc.lft.to/lastmile_qr_scan"}, "name": "ebf0de6a47e5aac115c4735fd254105b", "type": "electric_scooter", "lat": 38.910587166666666, "is_disabled": 0}, {"fusion_lat": 0.0, "lon": -77.04023266666667, "is_reserved": 0, "bike_id": "7ca60f20d23d2d718f3040450af24831", "fusion_lon": 0.0, "rental_uris": {"android": "https://dc.lft.to/lastmile_qr_scan", "ios": "https://dc.lft.to/lastmile_qr_scan"}, "name": "7ca60f20d23d2d718f3040450af24831", "type": "electric_scooter", "lat": 38.924509666666665, "is_disabled": 0}, {"fusion_lat": 0.0, "lon": -77.0333155, "is_reserved": 0, "bike_id": "6405332bbe2df6e0e19b12170918aced", "fusion_lon": 0.0, "rental_uris": {"android": "https://dc.lft.to/lastmile_qr_scan", "ios": "https://dc.lft.to/lastmile_qr_scan"}, "name": "6405332bbe2df6e0e19b12170918aced", "type": "electric_scooter", "lat": 38.947173166666666, "is_disabled": 0}, {"fusion_lat": 0.0, "lon": -76.9961405, "is_reserved": 0, "bike_id": "ecc75f797d9a22fb741e75dd160bdff7", "fusion_lon": 0.0, "rental_uris": {"android": "https://dc.lft.to/lastmile_qr_scan", "ios": "https://dc.lft.to/lastmile_qr_scan"}, "name": "ecc75f797d9a22fb741e75dd160bdff7", "type": "electric_scooter", "lat": 38.900147833333335, "is_disabled": 0}, {"fusion_lat": 0.0, "lon": -76.99467033333333, "is_reserved": 0, "bike_id": "91e7a1676c9d27ea82f664222f902a7c", "fusion_lon": 0.0, "rental_uris": {"android": "https://dc.lft.to/lastmile_qr_scan", "ios": "https://dc.lft.to/lastmile_qr_scan"}, "name": "91e7a1676c9d27ea82f664222f902a7c", "type": "electric_scooter", "lat": 38.86226416666667, "is_disabled": 0}, {"fusion_lat": 0.0, "lon": -77.09065616666666, "is_reserved": 0, "bike_id": "76f01b5bd42471ff9a74344a442121c1", "fusion_lon": 0.0, "rental_uris": {"android": "https://dc.lft.to/lastmile_qr_scan", "ios": "https://dc.lft.to/lastmile_qr_scan"}, "name": "76f01b5bd42471ff9a74344a442121c1", "type": "electric_bike", "lat": 38.86260733333334, "is_disabled": 0}, {"fusion_lat": 0.0, "lon": -76.93753516666666, "is_reserved": 0, "bike_id": "10f06ef1fae1b0bae6d0de464e410d4c", "fusion_lon": 0.0, "rental_uris": {"android": "https://dc.lft.to/lastmile_qr_scan", "ios": "https://dc.lft.to/lastmile_qr_scan"}, "name": "10f06ef1fae1b0bae6d0de464e410d4c", "type": "electric_scooter", "lat": 38.89045383333333, "is_disabled": 0}, {"fusion_lat": 0.0, "lon": -76.94383283333333, "is_reserved": 0, "bike_id": "4784878c013d375f1a3044d4c34c8263", "fusion_lon": 0.0, "rental_uris": {"android": "https://dc.lft.to/lastmile_qr_scan", "ios": "https://dc.lft.to/lastmile_qr_scan"}, "name": "4784878c013d375f1a3044d4c34c8263", "type": "electric_scooter", "lat": 38.8932475, "is_disabled": 0}, {"fusion_lat": 0.0, "lon": -77.03382033333334, "is_reserved": 0, "bike_id": "5e14c3a10451681e95056db150c1b6a2", "fusion_lon": 0.0, "rental_uris": {"android": "https://dc.lft.to/lastmile_qr_scan", "ios": "https://dc.lft.to/lastmile_qr_scan"}, "name": "5e14c3a10451681e95056db150c1b6a2", "type": "electric_scooter", "lat": 38.899303333333336, "is_disabled": 0}, {"fusion_lat": 0.0, "lon": -77.02991983333334, "is_reserved": 0, "bike_id": "d97bb594d0ea79e2e18dd0ec932c905f", "fusion_lon": 0.0, "rental_uris": {"android": "https://dc.lft.to/lastmile_qr_scan", "ios": "https://dc.lft.to/lastmile_qr_scan"}, "name": "d97bb594d0ea79e2e18dd0ec932c905f", "type": "electric_bike", "lat": 38.934581333333334, "is_disabled": 0}, {"fusion_lat": 0.0, "lon": -76.98626483333334, "is_reserved": 0, "bike_id": "dc12faf4df88ca616854d4b6c6807dd7", "fusion_lon": 0.0, "rental_uris": {"android": "https://dc.lft.to/lastmile_qr_scan", "ios": "https://dc.lft.to/lastmile_qr_scan"}, "name": "dc12faf4df88ca616854d4b6c6807dd7", "type": "electric_scooter", "lat": 38.901172333333335, "is_disabled": 0}, {"fusion_lat": 0.0, "lon": -76.97832383333333, "is_reserved": 0, "bike_id": "e1cc355b9051487fd8aa1e1f31b3d3fe", "fusion_lon": 0.0, "rental_uris": {"android": "https://dc.lft.to/lastmile_qr_scan", "ios": "https://dc.lft.to/lastmile_qr_scan"}, "name": "e1cc355b9051487fd8aa1e1f31b3d3fe", "type": "electric_bike", "lat": 38.84367833333334, "is_disabled": 0}, {"fusion_lat": 0.0, "lon": -76.98711733333333, "is_reserved": 0, "bike_id": "6f064767e8b47e26e90db48425b068e7", "fusion_lon": 0.0, "rental_uris": {"android": "https://dc.lft.to/lastmile_qr_scan", "ios": "https://dc.lft.to/lastmile_qr_scan"}, "name": "6f064767e8b47e26e90db48425b068e7", "type": "electric_scooter", "lat": 38.899714, "is_disabled": 0}, {"fusion_lat": 0.0, "lon": -77.03232433333334, "is_reserved": 0, "bike_id": "d8e2b55fb74392f3a1755e9ac84c09d4", "fusion_lon": 0.0, "rental_uris": {"android": "https://dc.lft.to/lastmile_qr_scan", "ios": "https://dc.lft.to/lastmile_qr_scan"}, "name": "d8e2b55fb74392f3a1755e9ac84c09d4", "type": "electric_scooter", "lat": 38.915688833333334, "is_disabled": 0}, {"fusion_lat": 0.0, "lon": -77.00834033333334, "is_reserved": 0, "bike_id": "5d13f01003dac5beb71d1d0d07dd9c94", "fusion_lon": 0.0, "rental_uris": {"android": "https://dc.lft.to/lastmile_qr_scan", "ios": "https://dc.lft.to/lastmile_qr_scan"}, "name": "5d13f01003dac5beb71d1d0d07dd9c94", "type": "electric_scooter", "lat": 38.9224565, "is_disabled": 0}, {"fusion_lat": 0.0, "lon": -76.997776, "is_reserved": 0, "bike_id": "afeaae3c1e922427a8141e2995be6211", "fusion_lon": 0.0, "rental_uris": {"android": "https://dc.lft.to/lastmile_qr_scan", "ios": "https://dc.lft.to/lastmile_qr_scan"}, "name": "afeaae3c1e922427a8141e2995be6211", "type": "electric_scooter", "lat": 38.844282, "is_disabled": 0}, {"fusion_lat": 0.0, "lon": -76.9496485, "is_reserved": 0, "bike_id": "6b453ccf154bf7c9850f44021e1dc9ba", "fusion_lon": 0.0, "rental_uris": {"android": "https://dc.lft.to/lastmile_qr_scan", "ios": "https://dc.lft.to/lastmile_qr_scan"}, "name": "6b453ccf154bf7c9850f44021e1dc9ba", "type": "electric_scooter", "lat": 38.89439316666667, "is_disabled": 0}, {"fusion_lat": 0.0, "lon": -77.017783, "is_reserved": 0, "bike_id": "473639e64502f60d54483bc18deeee28", "fusion_lon": 0.0, "rental_uris": {"android": "https://dc.lft.to/lastmile_qr_scan", "ios": "https://dc.lft.to/lastmile_qr_scan"}, "name": "473639e64502f60d54483bc18deeee28", "type": "electric_scooter", "lat": 38.921141666666664, "is_disabled": 0}, {"fusion_lat": 0.0, "lon": -77.025948, "is_reserved": 0, "bike_id": "0b18eae214380b5bd99b4eb0baa3bc99", "fusion_lon": 0.0, "rental_uris": {"android": "https://dc.lft.to/lastmile_qr_scan", "ios": "https://dc.lft.to/lastmile_qr_scan"}, "name": "0b18eae214380b5bd99b4eb0baa3bc99", "type": "electric_scooter", "lat": 38.96396383333333, "is_disabled": 0}, {"fusion_lat": 0.0, "lon": -77.0323255, "is_reserved": 0, "bike_id": "342bb9ef0f5362b4700811624f3dde3a", "fusion_lon": 0.0, "rental_uris": {"android": "https://dc.lft.to/lastmile_qr_scan", "ios": "https://dc.lft.to/lastmile_qr_scan"}, "name": "342bb9ef0f5362b4700811624f3dde3a", "type": "electric_scooter", "lat": 38.896738666666664, "is_disabled": 0}, {"fusion_lat": 0.0, "lon": -76.97431116666667, "is_reserved": 0, "bike_id": "a717fa3f0856bdbc1e15415145336428", "fusion_lon": 0.0, "rental_uris": {"android": "https://dc.lft.to/lastmile_qr_scan", "ios": "https://dc.lft.to/lastmile_qr_scan"}, "name": "a717fa3f0856bdbc1e15415145336428", "type": "electric_scooter", "lat": 38.904052666666665, "is_disabled": 0}, {"fusion_lat": 0.0, "lon": -77.0190685, "is_reserved": 0, "bike_id": "5039c09da51610b82809d2df47188f6c", "fusion_lon": 0.0, "rental_uris": {"android": "https://dc.lft.to/lastmile_qr_scan", "ios": "https://dc.lft.to/lastmile_qr_scan"}, "name": "5039c09da51610b82809d2df47188f6c", "type": "electric_scooter", "lat": 38.91935633333333, "is_disabled": 0}, {"fusion_lat": 0.0, "lon": -77.03475066666667, "is_reserved": 0, "bike_id": "fae01f6f1f9e8bdb2be6d77cf0abb3a9", "fusion_lon": 0.0, "rental_uris": {"android": "https://dc.lft.to/lastmile_qr_scan", "ios": "https://dc.lft.to/lastmile_qr_scan"}, "name": "fae01f6f1f9e8bdb2be6d77cf0abb3a9", "type": "electric_scooter", "lat": 38.90549, "is_disabled": 0}, {"fusion_lat": 0.0, "lon": -77.0279785, "is_reserved": 0, "bike_id": "41346b056e464da3f8600f7b4a854087", "fusion_lon": 0.0, "rental_uris": {"android": "https://dc.lft.to/lastmile_qr_scan", "ios": "https://dc.lft.to/lastmile_qr_scan"}, "name": "41346b056e464da3f8600f7b4a854087", "type": "electric_scooter", "lat": 38.93084066666667, "is_disabled": 0}, {"fusion_lat": 0.0, "lon": -76.97726466666667, "is_reserved": 0, "bike_id": "f2f7fc62f14810ad8a2e9fe37bfc957e", "fusion_lon": 0.0, "rental_uris": {"android": "https://dc.lft.to/lastmile_qr_scan", "ios": "https://dc.lft.to/lastmile_qr_scan"}, "name": "f2f7fc62f14810ad8a2e9fe37bfc957e", "type": "electric_scooter", "lat": 38.8724845, "is_disabled": 0}, {"fusion_lat": 0.0, "lon": -77.02349666666667, "is_reserved": 0, "bike_id": "55b5e117f1e0e6397ba370bb3b3db7e3", "fusion_lon": 0.0, "rental_uris": {"android": "https://dc.lft.to/lastmile_qr_scan", "ios": "https://dc.lft.to/lastmile_qr_scan"}, "name": "55b5e117f1e0e6397ba370bb3b3db7e3", "type": "electric_scooter", "lat": 38.946181333333335, "is_disabled": 0}, {"fusion_lat": 0.0, "lon": -77.03189383333333, "is_reserved": 0, "bike_id": "6b420480f54e6bfbe8b7ca1043422240", "fusion_lon": 0.0, "rental_uris": {"android": "https://dc.lft.to/lastmile_qr_scan", "ios": "https://dc.lft.to/lastmile_qr_scan"}, "name": "6b420480f54e6bfbe8b7ca1043422240", "type": "electric_scooter", "lat": 38.918007833333334, "is_disabled": 0}, {"fusion_lat": 0.0, "lon": -77.02101233333333, "is_reserved": 0, "bike_id": "5b0396b416d0bf307cadcfaa1c34bb28", "fusion_lon": 0.0, "rental_uris": {"android": "https://dc.lft.to/lastmile_qr_scan", "ios": "https://dc.lft.to/lastmile_qr_scan"}, "name": "5b0396b416d0bf307cadcfaa1c34bb28", "type": "electric_scooter", "lat": 38.92149116666667, "is_disabled": 0}, {"fusion_lat": 0.0, "lon": -76.99062433333333, "is_reserved": 0, "bike_id": "f7a2331b1344cd3626550bbc0504fd77", "fusion_lon": 0.0, "rental_uris": {"android": "https://dc.lft.to/lastmile_qr_scan", "ios": "https://dc.lft.to/lastmile_qr_scan"}, "name": "f7a2331b1344cd3626550bbc0504fd77", "type": "electric_scooter", "lat": 38.863577, "is_disabled": 0}, {"fusion_lat": 0.0, "lon": -77.03148233333333, "is_reserved": 0, "bike_id": "f973f779c37ae2591876760ac58c7c8d", "fusion_lon": 0.0, "rental_uris": {"android": "https://dc.lft.to/lastmile_qr_scan", "ios": "https://dc.lft.to/lastmile_qr_scan"}, "name": "f973f779c37ae2591876760ac58c7c8d", "type": "electric_scooter", "lat": 38.914169, "is_disabled": 0}, {"fusion_lat": 0.0, "lon": -77.0235615, "is_reserved": 0, "bike_id": "dbdfb61a35364d638c5601b80e88145f", "fusion_lon": 0.0, "rental_uris": {"android": "https://dc.lft.to/lastmile_qr_scan", "ios": "https://dc.lft.to/lastmile_qr_scan"}, "name": "dbdfb61a35364d638c5601b80e88145f", "type": "electric_scooter", "lat": 38.93068533333334, "is_disabled": 0}, {"fusion_lat": 0.0, "lon": -77.04448383333333, "is_reserved": 0, "bike_id": "76c614f34078c81a2dd4b462c4980d50", "fusion_lon": 0.0, "rental_uris": {"android": "https://dc.lft.to/lastmile_qr_scan", "ios": "https://dc.lft.to/lastmile_qr_scan"}, "name": "76c614f34078c81a2dd4b462c4980d50", "type": "electric_scooter", "lat": 38.92171333333334, "is_disabled": 0}, {"fusion_lat": 0.0, "lon": -77.031832, "is_reserved": 0, "bike_id": "c72783b3600c2744647f779ccb762e04", "fusion_lon": 0.0, "rental_uris": {"android": "https://dc.lft.to/lastmile_qr_scan", "ios": "https://dc.lft.to/lastmile_qr_scan"}, "name": "c72783b3600c2744647f779ccb762e04", "type": "electric_scooter", "lat": 38.917856666666665, "is_disabled": 0}, {"fusion_lat": 0.0, "lon": -77.03078833333333, "is_reserved": 0, "bike_id": "b7c1edad7007ea7914358f9d74bb0580", "fusion_lon": 0.0, "rental_uris": {"android": "https://dc.lft.to/lastmile_qr_scan", "ios": "https://dc.lft.to/lastmile_qr_scan"}, "name": "b7c1edad7007ea7914358f9d74bb0580", "type": "electric_scooter", "lat": 38.905735, "is_disabled": 0}, {"fusion_lat": 0.0, "lon": -77.026562, "is_reserved": 0, "bike_id": "3b37c30700383566d9e0d679c0c7ed4b", "fusion_lon": 0.0, "rental_uris": {"android": "https://dc.lft.to/lastmile_qr_scan", "ios": "https://dc.lft.to/lastmile_qr_scan"}, "name": "3b37c30700383566d9e0d679c0c7ed4b", "type": "electric_scooter", "lat": 38.8922235, "is_disabled": 0}, {"fusion_lat": 0.0, "lon": -76.95656466666667, "is_reserved": 0, "bike_id": "afa8f9577e671a63d33ed45802d88ebb", "fusion_lon": 0.0, "rental_uris": {"android": "https://dc.lft.to/lastmile_qr_scan", "ios": "https://dc.lft.to/lastmile_qr_scan"}, "name": "afa8f9577e671a63d33ed45802d88ebb", "type": "electric_scooter", "lat": 38.89552466666667, "is_disabled": 0}, {"fusion_lat": 0.0, "lon": -76.9916805, "is_reserved": 0, "bike_id": "cf3c551ce1917a28de55e2ed45889590", "fusion_lon": 0.0, "rental_uris": {"android": "https://dc.lft.to/lastmile_qr_scan", "ios": "https://dc.lft.to/lastmile_qr_scan"}, "name": "cf3c551ce1917a28de55e2ed45889590", "type": "electric_scooter", "lat": 38.898001666666666, "is_disabled": 0}, {"fusion_lat": 0.0, "lon": -76.99010683333333, "is_reserved": 0, "bike_id": "2e60c89fb586b072249504058d8f7f24", "fusion_lon": 0.0, "rental_uris": {"android": "https://dc.lft.to/lastmile_qr_scan", "ios": "https://dc.lft.to/lastmile_qr_scan"}, "name": "2e60c89fb586b072249504058d8f7f24", "type": "electric_scooter", "lat": 38.903927833333334, "is_disabled": 0}, {"fusion_lat": 0.0, "lon": -77.01406433333334, "is_reserved": 0, "bike_id": "8536d84b3b54c53911104ef6cb3dd4c6", "fusion_lon": 0.0, "rental_uris": {"android": "https://dc.lft.to/lastmile_qr_scan", "ios": "https://dc.lft.to/lastmile_qr_scan"}, "name": "8536d84b3b54c53911104ef6cb3dd4c6", "type": "electric_scooter", "lat": 38.887463333333336, "is_disabled": 0}, {"fusion_lat": 0.0, "lon": -77.02734733333334, "is_reserved": 0, "bike_id": "1a60cac8356e3d2b1723748f086b178a", "fusion_lon": 0.0, "rental_uris": {"android": "https://dc.lft.to/lastmile_qr_scan", "ios": "https://dc.lft.to/lastmile_qr_scan"}, "name": "1a60cac8356e3d2b1723748f086b178a", "type": "electric_scooter", "lat": 38.935430833333335, "is_disabled": 0}, {"fusion_lat": 0.0, "lon": -77.02092616666667, "is_reserved": 0, "bike_id": "7fad0136264edabe09ef34c657601873", "fusion_lon": 0.0, "rental_uris": {"android": "https://dc.lft.to/lastmile_qr_scan", "ios": "https://dc.lft.to/lastmile_qr_scan"}, "name": "7fad0136264edabe09ef34c657601873", "type": "electric_scooter", "lat": 38.881869333333334, "is_disabled": 0}, {"fusion_lat": 0.0, "lon": -77.17842466666667, "is_reserved": 0, "bike_id": "1914ad4ebda0a0ff64bf67245283b894", "fusion_lon": 0.0, "rental_uris": {"android": "https://dc.lft.to/lastmile_qr_scan", "ios": "https://dc.lft.to/lastmile_qr_scan"}, "name": "1914ad4ebda0a0ff64bf67245283b894", "type": "electric_bike", "lat": 39.088605333333334, "is_disabled": 0}, {"fusion_lat": 0.0, "lon": -77.0429625, "is_reserved": 0, "bike_id": "31847579ac0804344e62a4b555e1acc6", "fusion_lon": 0.0, "rental_uris": {"android": "https://dc.lft.to/lastmile_qr_scan", "ios": "https://dc.lft.to/lastmile_qr_scan"}, "name": "31847579ac0804344e62a4b555e1acc6", "type": "electric_scooter", "lat": 38.9169655, "is_disabled": 0}, {"fusion_lat": 0.0, "lon": -77.01449083333333, "is_reserved": 0, "bike_id": "6b7fc74ee1705a347066800bbf23926c", "fusion_lon": 0.0, "rental_uris": {"android": "https://dc.lft.to/lastmile_qr_scan", "ios": "https://dc.lft.to/lastmile_qr_scan"}, "name": "6b7fc74ee1705a347066800bbf23926c", "type": "electric_bike", "lat": 38.876775, "is_disabled": 0}, {"fusion_lat": 0.0, "lon": -77.03853033333333, "is_reserved": 0, "bike_id": "c4ace71c0cb04095ed314cb59c339578", "fusion_lon": 0.0, "rental_uris": {"android": "https://dc.lft.to/lastmile_qr_scan", "ios": "https://dc.lft.to/lastmile_qr_scan"}, "name": "c4ace71c0cb04095ed314cb59c339578", "type": "electric_scooter", "lat": 38.921622, "is_disabled": 0}, {"fusion_lat": 0.0, "lon": -77.059105, "is_reserved": 0, "bike_id": "6d9fb67a7e3fc51319387c62564bade8", "fusion_lon": 0.0, "rental_uris": {"android": "https://dc.lft.to/lastmile_qr_scan", "ios": "https://dc.lft.to/lastmile_qr_scan"}, "name": "6d9fb67a7e3fc51319387c62564bade8", "type": "electric_scooter", "lat": 38.90160816666667, "is_disabled": 0}, {"fusion_lat": 0.0, "lon": -77.0602185, "is_reserved": 0, "bike_id": "6f1406286b818052614cd06e23aa684c", "fusion_lon": 0.0, "rental_uris": {"android": "https://dc.lft.to/lastmile_qr_scan", "ios": "https://dc.lft.to/lastmile_qr_scan"}, "name": "6f1406286b818052614cd06e23aa684c", "type": "electric_scooter", "lat": 38.90445366666667, "is_disabled": 0}, {"fusion_lat": 0.0, "lon": -76.98716083333333, "is_reserved": 0, "bike_id": "06c3cf65fcd5a932206b90da531d046a", "fusion_lon": 0.0, "rental_uris": {"android": "https://dc.lft.to/lastmile_qr_scan", "ios": "https://dc.lft.to/lastmile_qr_scan"}, "name": "06c3cf65fcd5a932206b90da531d046a", "type": "electric_scooter", "lat": 38.866289, "is_disabled": 0}, {"fusion_lat": 0.0, "lon": -77.05489333333334, "is_reserved": 0, "bike_id": "5e3a874c010cd1efc30103fc6c2079bd", "fusion_lon": 0.0, "rental_uris": {"android": "https://dc.lft.to/lastmile_qr_scan", "ios": "https://dc.lft.to/lastmile_qr_scan"}, "name": "5e3a874c010cd1efc30103fc6c2079bd", "type": "electric_scooter", "lat": 38.893845166666665, "is_disabled": 0}, {"fusion_lat": 0.0, "lon": -77.01987416666667, "is_reserved": 0, "bike_id": "d8fe44ad744ba3c4b48fe3347c0a399e", "fusion_lon": 0.0, "rental_uris": {"android": "https://dc.lft.to/lastmile_qr_scan", "ios": "https://dc.lft.to/lastmile_qr_scan"}, "name": "d8fe44ad744ba3c4b48fe3347c0a399e", "type": "electric_scooter", "lat": 38.885910333333335, "is_disabled": 0}, {"fusion_lat": 0.0, "lon": -77.02703216666667, "is_reserved": 0, "bike_id": "af23970f2ef2517aaa62c4537770d1fb", "fusion_lon": 0.0, "rental_uris": {"android": "https://dc.lft.to/lastmile_qr_scan", "ios": "https://dc.lft.to/lastmile_qr_scan"}, "name": "af23970f2ef2517aaa62c4537770d1fb", "type": "electric_scooter", "lat": 38.90663833333333, "is_disabled": 0}, {"fusion_lat": 0.0, "lon": -77.019861, "is_reserved": 0, "bike_id": "119a6c51c82d4bbef8c79db57bba2192", "fusion_lon": 0.0, "rental_uris": {"android": "https://dc.lft.to/lastmile_qr_scan", "ios": "https://dc.lft.to/lastmile_qr_scan"}, "name": "119a6c51c82d4bbef8c79db57bba2192", "type": "electric_scooter", "lat": 38.95028, "is_disabled": 0}, {"fusion_lat": 0.0, "lon": -77.02517316666666, "is_reserved": 0, "bike_id": "b238b2d0296fa9ee149f796b9329f2d5", "fusion_lon": 0.0, "rental_uris": {"android": "https://dc.lft.to/lastmile_qr_scan", "ios": "https://dc.lft.to/lastmile_qr_scan"}, "name": "b238b2d0296fa9ee149f796b9329f2d5", "type": "electric_scooter", "lat": 38.916941666666666, "is_disabled": 0}, {"fusion_lat": 0.0, "lon": -76.95410816666667, "is_reserved": 0, "bike_id": "f687840f1befbb4dd7e75f9d432e9c31", "fusion_lon": 0.0, "rental_uris": {"android": "https://dc.lft.to/lastmile_qr_scan", "ios": "https://dc.lft.to/lastmile_qr_scan"}, "name": "f687840f1befbb4dd7e75f9d432e9c31", "type": "electric_scooter", "lat": 38.88468266666667, "is_disabled": 0}, {"fusion_lat": 0.0, "lon": -77.023649, "is_reserved": 0, "bike_id": "4c52c260c19face5acaed533f11c8bae", "fusion_lon": 0.0, "rental_uris": {"android": "https://dc.lft.to/lastmile_qr_scan", "ios": "https://dc.lft.to/lastmile_qr_scan"}, "name": "4c52c260c19face5acaed533f11c8bae", "type": "electric_scooter", "lat": 38.8922515, "is_disabled": 0}, {"fusion_lat": 0.0, "lon": -77.06321766666667, "is_reserved": 0, "bike_id": "ffadcf11177fdbf3436959f2555baf04", "fusion_lon": 0.0, "rental_uris": {"android": "https://dc.lft.to/lastmile_qr_scan", "ios": "https://dc.lft.to/lastmile_qr_scan"}, "name": "ffadcf11177fdbf3436959f2555baf04", "type": "electric_scooter", "lat": 38.94414316666666, "is_disabled": 0}, {"fusion_lat": 0.0, "lon": -77.05009283333334, "is_reserved": 0, "bike_id": "4653fbe4937a8b0e0ae2b04d9b06d91e", "fusion_lon": 0.0, "rental_uris": {"android": "https://dc.lft.to/lastmile_qr_scan", "ios": "https://dc.lft.to/lastmile_qr_scan"}, "name": "4653fbe4937a8b0e0ae2b04d9b06d91e", "type": "electric_scooter", "lat": 38.90563233333334, "is_disabled": 0},