{"data": {"bikes": [{"fusion_lat": 0.0, "name": "3032640d02274be08ab38771f095be45", "lon": -77.02981, "rental_uris": {"android": "https://dc.lft.to/lastmile_qr_scan", "ios": "https://dc.lft.to/lastmile_qr_scan"}, "fusion_lon": 0.0, "bike_id": "3032640d02274be08ab38771f095be45", "is_disabled": 0, "lat": 38.924044, "is_reserved": 0, "type": "electric_scooter"}, {"fusion_lat": 0.0, "name": "84f634ea23d9eaf810ceebf66f3b7556", "lon": -77.01894966666667, "rental_uris": {"android": "https://dc.lft.to/lastmile_qr_scan", "ios": "https://dc.lft.to/lastmile_qr_scan"}, "fusion_lon": 0.0, "bike_id": "84f634ea23d9eaf810ceebf66f3b7556", "is_disabled": 0, "lat": 38.8746845, "is_reserved": 0, "type": "electric_scooter"}, {"fusion_lat": 0.0, "name": "fa385c62748ad856fc3da24f14feb9c2", "lon": -77.02363466666667, "rental_uris": {"android": "https://dc.lft.to/lastmile_qr_scan", "ios": "https://dc.lft.to/lastmile_qr_scan"}, "fusion_lon": 0.0, "bike_id": "fa385c62748ad856fc3da24f14feb9c2", "is_disabled": 0, "lat": 38.920627, "is_reserved": 0, "type": "electric_scooter"}, {"fusion_lat": 0.0, "name": "fa9636ec7093c7dd286fa492bc402947", "lon": -77.03530183333334, "rental_uris": {"android": "https://dc.lft.to/lastmile_qr_scan", "ios": "https://dc.lft.to/lastmile_qr_scan"}, "fusion_lon": 0.0, "bike_id": "fa9636ec7093c7dd286fa492bc402947", "is_disabled": 0, "lat": 38.935741, "is_reserved": 0, "type": "electric_scooter"}, {"fusion_lat": 0.0, "name": "a7b659bad37827c041e79bf8ac5619bc", "lon": -77.0180055, "rental_uris": {"android": "https://dc.lft.to/lastmile_qr_scan", "ios": "https://dc.lft.to/lastmile_qr_scan"}, "fusion_lon": 0.0, "bike_id": "a7b659bad37827c041e79bf8ac5619bc", "is_disabled": 0, "lat": 38.901399166666664, "is_reserved": 0, "type": "electric_scooter"}, {"fusion_lat": 0.0, "name": "d1578e4585162eed43b4616cd6eddd26", "lon": -77.02682566666667, "rental_uris": {"android": "https://dc.lft.to/lastmile_qr_scan", "ios": "https://dc.lft.to/lastmile_qr_scan"}, "fusion_lon": 0.0, "bike_id": "d1578e4585162eed43b4616cd6eddd26", "is_disabled": 0, "lat": 38.94325116666667, "is_reserved": 0, "type": "electric_scooter"}, {"fusion_lat": 0.0, "name": "8ac6912b9575019a0f7dbb0d854b61de", "lon": -77.0347275, "rental_uris": {"android": "https://dc.lft.to/lastmile_qr_scan", "ios": "https://dc.lft.to/lastmile_qr_scan"}, "fusion_lon": 0.0, "bike_id": "8ac6912b9575019a0f7dbb0d854b61de", "is_disabled": 0, "lat": 38.9204775, "is_reserved": 0, "type": "electric_scooter"}, {"fusion_lat": 0.0, "name": "aaf4023087c0758e5b07b31791ee2bd9", "lon": -76.99109466666667, "rental_uris": {"android": "https://dc.lft.to/lastmile_qr_scan", "ios": "https://dc.lft.to/lastmile_qr_scan"}, "fusion_lon": 0.0, "bike_id": "aaf4023087c0758e5b07b31791ee2bd9", "is_disabled": 0, "lat": 38.903184833333334, "is_reserved": 0, "type": "electric_scooter"}, {"fusion_lat": 0.0, "name": "9ad4cb4d9e06438c4e01361f91aa81bd", "lon": -76.9984005, "rental_uris": {"android": "https://dc.lft.to/lastmile_qr_scan", "ios": "https://dc.lft.to/lastmile_qr_scan"}, "fusion_lon": 0.0, "bike_id": "9ad4cb4d9e06438c4e01361f91aa81bd", "is_disabled": 0, "lat": 38.88083866666667, "is_reserved": 0, "type": "electric_scooter"}, {"fusion_lat": 0.0, "name": "d9f7fbd59a975f633d6aa5098488dd25", "lon": -77.06973666666667, "rental_uris": {"android": "https://dc.lft.to/lastmile_qr_scan", "ios": "https://dc.lft.to/lastmile_qr_scan"}, "fusion_lon": 0.0, "bike_id": "d9f7fbd59a975f633d6aa5098488dd25", "is_disabled": 0, "lat": 38.952721, "is_reserved": 0, "type": "electric_scooter"}, {"fusion_lat": 0.0, "name": "ebbfee77d8ef3145d082bb0dced7cec9", "lon": -77.00329166666667, "rental_uris": {"android": "https://dc.lft.to/lastmile_qr_scan", "ios": "https://dc.lft.to/lastmile_qr_scan"}, "fusion_lon": 0.0, "bike_id": "ebbfee77d8ef3145d082bb0dced7cec9", "is_disabled": 0, "lat": 38.9026445, "is_reserved": 0, "type": "electric_scooter"}, {"fusion_lat": 0.0, "name": "9ecd7a52dacb72a024683408d502c8c4", "lon": -76.98526733333334, "rental_uris": {"android": "https://dc.lft.to/lastmile_qr_scan", "ios": "https://dc.lft.to/lastmile_qr_scan"}, "fusion_lon": 0.0, "bike_id": "9ecd7a52dacb72a024683408d502c8c4", "is_disabled": 0, "lat": 38.86005266666667, "is_reserved": 0, "type": "electric_scooter"}, {"fusion_lat": 0.0, "name": "4fae83eea90209b4ed1e41a7c78877e9", "lon": -77.03271516666666, "rental_uris": {"android": "https://dc.lft.to/lastmile_qr_scan", "ios": "https://dc.lft.to/lastmile_qr_scan"}, "fusion_lon": 0.0, "bike_id": "4fae83eea90209b4ed1e41a7c78877e9", "is_disabled": 0, "lat": 38.92745683333333, "is_reserved": 0, "type": "electric_scooter"}, {"fusion_lat": 0.0, "name": "6f663c323bc480b9baa5158b3be7b721", "lon": -77.01770583333334, "rental_uris": {"android": "https://dc.lft.to/lastmile_qr_scan", "ios": "https://dc.lft.to/lastmile_qr_scan"}, "fusion_lon": 0.0, "bike_id": "6f663c323bc480b9baa5158b3be7b721", "is_disabled": 0, "lat": 38.874788333333335, "is_reserved": 0, "type": "electric_scooter"}, {"fusion_lat": 0.0, "name": "8ca77f866b109af0f3ffb2f6945b2697", "lon": -77.04641166666667, "rental_uris": {"android": "https://dc.lft.to/lastmile_qr_scan", "ios": "https://dc.lft.to/lastmile_qr_scan"}, "fusion_lon": 0.0, "bike_id": "8ca77f866b109af0f3ffb2f6945b2697", "is_disabled": 0, "lat": 38.89224083333333, "is_reserved": 0, "type": "electric_scooter"}, {"fusion_lat": 0.0, "name": "40055734326a912199f7ae6f59e50578", "lon": -76.93476683333333, "rental_uris": {"android": "https://dc.lft.to/lastmile_qr_scan", "ios": "https://dc.lft.to/lastmile_qr_scan"}, "fusion_lon": 0.0, "bike_id": "40055734326a912199f7ae6f59e50578", "is_disabled": 0, "lat": 38.895000333333336, "is_reserved": 0, "type": "electric_scooter"}, {"fusion_lat": 0.0, "name": "acfd337a5f72c5bb7bd8303b4d7bc176", "lon": -77.02858933333333, "rental_uris": {"android": "https://dc.lft.to/lastmile_qr_scan", "ios": "https://dc.lft.to/lastmile_qr_scan"}, "fusion_lon": 0.0, "bike_id": "acfd337a5f72c5bb7bd8303b4d7bc176", "is_disabled": 0, "lat": 38.9340505, "is_reserved": 0, "type": "electric_scooter"}, {"fusion_lat": 0.0, "name": "02a3fc87fd69bbdecb298ed78802f280", "lon": -77.03320066666667, "rental_uris": {"android": "https://dc.lft.to/lastmile_qr_scan", "ios": "https://dc.lft.to/lastmile_qr_scan"}, "fusion_lon": 0.0, "bike_id": "02a3fc87fd69bbdecb298ed78802f280", "is_disabled": 0, "lat": 38.9031805, "is_reserved": 0, "type": "electric_scooter"}, {"fusion_lat": 0.0, "name": "6cef7151eabe24baeb067b2f5d8b5d9e", "lon": -77.0417285, "rental_uris": {"android": "https://dc.lft.to/lastmile_qr_scan", "ios": "https://dc.lft.to/lastmile_qr_scan"}, "fusion_lon": 0.0, "bike_id": "6cef7151eabe24baeb067b2f5d8b5d9e", "is_disabled": 0, "lat": 38.91172683333333, "is_reserved": 0, "type": "electric_scooter"}, {"fusion_lat": 0.0, "name": "1554a9d817db0efd57ceba160210c4e2", "lon": -76.99930266666667, "rental_uris": {"android": "https://dc.lft.to/lastmile_qr_scan", "ios": "https://dc.lft.to/lastmile_qr_scan"}, "fusion_lon": 0.0, "bike_id": "1554a9d817db0efd57ceba160210c4e2", "is_disabled": 0, "lat": 38.84314883333333, "is_reserved": 0, "type": "electric_scooter"}, {"fusion_lat": 0.0, "name": "19bd14a09518f4423bd7d2e5d8d58696", "lon": -77.04174733333333, "rental_uris": {"android": "https://dc.lft.to/lastmile_qr_scan", "ios": "https://dc.lft.to/lastmile_qr_scan"}, "fusion_lon": 0.0, "bike_id": "19bd14a09518f4423bd7d2e5d8d58696", "is_disabled": 0, "lat": 38.9074435, "is_reserved": 0, "type": "electric_scooter"}, {"fusion_lat": 0.0, "name": "fd4971482df1fed85c3d10296b2ced5a", "lon": -77.04375716666667, "rental_uris": {"android": "https://dc.lft.to/lastmile_qr_scan", "ios": "https://dc.lft.to/lastmile_qr_scan"}, "fusion_lon": 0.0, "bike_id": "fd4971482df1fed85c3d10296b2ced5a", "is_disabled": 0, "lat": 38.892143833333336, "is_reserved": 0, "type": "electric_scooter"}, {"fusion_lat": 0.0, "name": "370ab00d61853d86ab9ea40bca80e252", "lon": -76.990189, "rental_uris": {"android": "https://dc.lft.to/lastmile_qr_scan", "ios": "https://dc.lft.to/lastmile_qr_scan"}, "fusion_lon": 0.0, "bike_id": "370ab00d61853d86ab9ea40bca80e252", "is_disabled": 0, "lat": 38.882625833333336, "is_reserved": 0, "type": "electric_scooter"}, {"fusion_lat": 0.0, "name": "53e3b7b8c37d6cda4043ba0ab7c9625d", "lon": -76.99133, "rental_uris": {"android": "https://dc.lft.to/lastmile_qr_scan", "ios": "https://dc.lft.to/lastmile_qr_scan"}, "fusion_lon": 0.0, "bike_id": "53e3b7b8c37d6cda4043ba0ab7c9625d", "is_disabled": 0, "lat": 38.908753, "is_reserved": 0, "type": "electric_scooter"}, {"fusion_lat": 0.0, "name": "5e888efa675b488f5cd4e1f07e64fac8", "lon": -77.0220635, "rental_uris": {"android": "https://dc.lft.to/lastmile_qr_scan", "ios": "https://dc.lft.to/lastmile_qr_scan"}, "fusion_lon": 0.0, "bike_id": "5e888efa675b488f5cd4e1f07e64fac8", "is_disabled": 0, "lat": 38.915247, "is_reserved": 0, "type": "electric_scooter"}, {"fusion_lat": 0.0, "name": "d96832b75dda86dbda26636095945743", "lon": -77.036629, "rental_uris": {"android": "https://dc.lft.to/lastmile_qr_scan", "ios": "https://dc.lft.to/lastmile_qr_scan"}, "fusion_lon": 0.0, "bike_id": "d96832b75dda86dbda26636095945743", "is_disabled": 0, "lat": 38.918553833333334, "is_reserved": 0, "type": "electric_scooter"}, {"fusion_lat": 0.0, "name": "a913ba58036e3af4fea8408beb92a145", "lon": -77.03179166666666, "rental_uris": {"android": "https://dc.lft.to/lastmile_qr_scan", "ios": "https://dc.lft.to/lastmile_qr_scan"}, "fusion_lon": 0.0, "bike_id": "a913ba58036e3af4fea8408beb92a145", "is_disabled": 0, "lat": 38.9180425, "is_reserved": 0, "type": "electric_scooter"}, {"fusion_lat": 0.0, "name": "4819300b4dad7d15e4dfca7a017123c7", "lon": -77.05818816666667, "rental_uris": {"android": "https://dc.lft.to/lastmile_qr_scan", "ios": "https://dc.lft.to/lastmile_qr_scan"}, "fusion_lon": 0.0, "bike_id": "4819300b4dad7d15e4dfca7a017123c7", "is_disabled": 0, "lat": 38.9055, "is_reserved": 0, "type": "electric_scooter"}, {"fusion_lat": 0.0, "name": "984e2ba613d12a85e2d42aeb580da286", "lon": -77.04153583333333, "rental_uris": {"android": "https://dc.lft.to/lastmile_qr_scan", "ios": "https://dc.lft.to/lastmile_qr_scan"}, "fusion_lon": 0.0, "bike_id": "984e2ba613d12a85e2d42aeb580da286", "is_disabled": 0, "lat": 38.91718483333333, "is_reserved": 0, "type": "electric_scooter"}, {"fusion_lat": 0.0, "name": "d76d0faa93558cd6f7050b4c2cbb7f5d", "lon": -77.07456, "rental_uris": {"android": "https://dc.lft.to/lastmile_qr_scan", "ios": "https://dc.lft.to/lastmile_qr_scan"}, "fusion_lon": 0.0, "bike_id": "d76d0faa93558cd6f7050b4c2cbb7f5d", "is_disabled": 0, "lat": 38.94506533333333, "is_reserved": 0, "type": "electric_scooter"}, {"fusion_lat": 0.0, "name": "e218e5b85859622b48d89a80a8230676", "lon": -77.125291, "rental_uris": {"android": "https://dc.lft.to/lastmile_qr_scan", "ios": "https://dc.lft.to/lastmile_qr_scan"}, "fusion_lon": 0.0, "bike_id": "e218e5b85859622b48d89a80a8230676", "is_disabled": 0, "lat": 39.05632283333333, "is_reserved": 0, "type": "electric_bike"}, {"fusion_lat": 0.0, "name": "18729f19b3af56e0f580bacb2c98a4e2", "lon": -77.03516683333334, "rental_uris": {"android": "https://dc.lft.to/lastmile_qr_scan", "ios": "https://dc.lft.to/lastmile_qr_scan"}, "fusion_lon": 0.0, "bike_id": "18729f19b3af56e0f580bacb2c98a4e2", "is_disabled": 0, "lat": 38.9169925, "is_reserved": 0, "type": "electric_scooter"}, {"fusion_lat": 0.0, "name": "ad7e1da544d9a416ff944fb144823145", "lon": -77.0187115, "rental_uris": {"android": "https://dc.lft.to/lastmile_qr_scan", "ios": "https://dc.lft.to/lastmile_qr_scan"}, "fusion_lon": 0.0, "bike_id": "ad7e1da544d9a416ff944fb144823145", "is_disabled": 0, "lat": 38.907159666666665, "is_reserved": 0, "type": "electric_scooter"}, {"fusion_lat": 0.0, "name": "2f1b98a0531d362a4300a17f793675f2", "lon": -77.02827933333333, "rental_uris": {"android": "https://dc.lft.to/lastmile_qr_scan", "ios": "https://dc.lft.to/lastmile_qr_scan"}, "fusion_lon": 0.0, "bike_id": "2f1b98a0531d362a4300a17f793675f2", "is_disabled": 0, "lat": 38.895581666666665, "is_reserved": 0, "type": "electric_scooter"}, {"fusion_lat": 0.0, "name": "62ee863790e496e8d571cdbd1130392e", "lon": -77.02206383333333, "rental_uris": {"android": "https://dc.lft.to/lastmile_qr_scan", "ios": "https://dc.lft.to/lastmile_qr_scan"}, "fusion_lon": 0.0, "bike_id": "62ee863790e496e8d571cdbd1130392e", "is_disabled": 0, "lat": 38.88713933333333, "is_reserved": 0, "type": "electric_scooter"}, {"fusion_lat": 0.0, "name": "1c48ad998515a0957ee628fe741e9506", "lon": -77.03379583333333, "rental_uris": {"android": "https://dc.lft.to/lastmile_qr_scan", "ios": "https://dc.lft.to/lastmile_qr_scan"}, "fusion_lon": 0.0, "bike_id": "1c48ad998515a0957ee628fe741e9506", "is_disabled": 0, "lat": 38.9110915, "is_reserved": 0, "type": "electric_scooter"}, {"fusion_lat": 0.0, "name": "2dfd1430e6e9a7d6c222764aeff8af1a", "lon": -77.01549333333334, "rental_uris": {"android": "https://dc.lft.to/lastmile_qr_scan", "ios": "https://dc.lft.to/lastmile_qr_scan"}, "fusion_lon": 0.0, "bike_id": "2dfd1430e6e9a7d6c222764aeff8af1a", "is_disabled": 0, "lat": 38.8847745, "is_reserved": 0, "type": "electric_scooter"}, {"fusion_lat": 0.0, "name": "78ce4bde68238fbeb1b79382babd74f6", "lon": -77.004572, "rental_uris": {"android": "https://dc.lft.to/lastmile_qr_scan", "ios": "https://dc.lft.to/lastmile_qr_scan"}, "fusion_lon": 0.0, "bike_id": "78ce4bde68238fbeb1b79382babd74f6", "is_disabled": 0, "lat": 38.914387166666664, "is_reserved": 0, "type": "electric_scooter"}, {"fusion_lat": 0.0, "name": "140efb246fd0cee1e6cac38b8526cd33", "lon": -77.01959483333333, "rental_uris": {"android": "https://dc.lft.to/lastmile_qr_scan", "ios": "https://dc.lft.to/lastmile_qr_scan"}, "fusion_lon": 0.0, "bike_id": "140efb246fd0cee1e6cac38b8526cd33", "is_disabled": 0, "lat": 38.92209166666667, "is_reserved": 0, "type": "electric_scooter"}, {"fusion_lat": 0.0, "name": "dd78842ab0d20ae282e20d3adfce3b03", "lon": -76.94155216666667, "rental_uris": {"android": "https://dc.lft.to/lastmile_qr_scan", "ios": "https://dc.lft.to/lastmile_qr_scan"}, "fusion_lon": 0.0, "bike_id": "dd78842ab0d20ae282e20d3adfce3b03", "is_disabled": 0, "lat": 38.883629, "is_reserved": 0, "type": "electric_scooter"}, {"fusion_lat": 0.0, "name": "21a735035a714eb5cdc9003cb8258e24", "lon": -77.04019983333333, "rental_uris": {"android": "https://dc.lft.to/lastmile_qr_scan", "ios": "https://dc.lft.to/lastmile_qr_scan"}, "fusion_lon": 0.0, "bike_id": "21a735035a714eb5cdc9003cb8258e24", "is_disabled": 0, "lat": 38.925756166666666, "is_reserved": 0, "type": "electric_scooter"}, {"fusion_lat": 0.0, "name": "84c67c672f08455bfe9968d31cf0a9ba", "lon": -77.0299615, "rental_uris": {"android": "https://dc.lft.to/lastmile_qr_scan", "ios": "https://dc.lft.to/lastmile_qr_scan"}, "fusion_lon": 0.0, "bike_id": "84c67c672f08455bfe9968d31cf0a9ba", "is_disabled": 0, "lat": 38.9224805, "is_reserved": 0, "type": "electric_scooter"}, {"fusion_lat": 0.0, "name": "e46acd33d483f8b553118445e15ccd1a", "lon": -77.01999016666667, "rental_uris": {"android": "https://dc.lft.to/lastmile_qr_scan", "ios": "https://dc.lft.to/lastmile_qr_scan"}, "fusion_lon": 0.0, "bike_id": "e46acd33d483f8b553118445e15ccd1a", "is_disabled": 0, "lat": 38.913538333333335, "is_reserved": 0, "type": "electric_scooter"}, {"fusion_lat": 0.0, "name": "8f7a353c60f530dcf7ab469272c56d07", "lon": -76.91760866666667, "rental_uris": {"android": "https://dc.lft.to/lastmile_qr_scan", "ios": "https://dc.lft.to/lastmile_qr_scan"}, "fusion_lon": 0.0, "bike_id": "8f7a353c60f530dcf7ab469272c56d07", "is_disabled": 0, "lat": 38.8883715, "is_reserved": 0, "type": "electric_scooter"}, {"fusion_lat": 0.0, "name": "5b26f12d29371519ff045c636d501636", "lon": -77.035042, "rental_uris": {"android": "https://dc.lft.to/lastmile_qr_scan", "ios": "https://dc.lft.to/lastmile_qr_scan"}, "fusion_lon": 0.0, "bike_id": "5b26f12d29371519ff045c636d501636", "is_disabled": 0, "lat": 38.91873483333333, "is_reserved": 0, "type": "electric_scooter"}, {"fusion_lat": 0.0, "name": "439bc7e16f825c2553f2400600334b31", "lon": -77.03661, "rental_uris": {"android": "https://dc.lft.to/lastmile_qr_scan", "ios": "https://dc.lft.to/lastmile_qr_scan"}, "fusion_lon": 0.0, "bike_id": "439bc7e16f825c2553f2400600334b31", "is_disabled": 0, "lat": 38.923827, "is_reserved": 0, "type": "electric_scooter"}, {"fusion_lat": 0.0, "name": "e62390695e69ddd5c1770050c09281c3", "lon": -77.04689066666667, "rental_uris": {"android": "https://dc.lft.to/lastmile_qr_scan", "ios": "https://dc.lft.to/lastmile_qr_scan"}, "fusion_lon": 0.0, "bike_id": "e62390695e69ddd5c1770050c09281c3", "is_disabled": 0, "lat": 38.92097283333333, "is_reserved": 0, "type": "electric_scooter"}, {"fusion_lat": 0.0, "name": "0b6e5deba1be5f031453dd2cbfe81b0a", "lon": -77.02219833333334, "rental_uris": {"android": "https://dc.lft.to/lastmile_qr_scan", "ios": "https://dc.lft.to/lastmile_qr_scan"}, "fusion_lon": 0.0, "bike_id": "0b6e5deba1be5f031453dd2cbfe81b0a", "is_disabled": 0, "lat": 38.905423666666664, "is_reserved": 0, "type": "electric_scooter"}, {"fusion_lat": 0.0, "name": "5c617bff50c4c1c1ecce7583fa54b758", "lon": -77.03280983333333, "rental_uris": {"android": "https://dc.lft.to/lastmile_qr_scan", "ios": "https://dc.lft.to/lastmile_qr_scan"}, "fusion_lon": 0.0, "bike_id": "5c617bff50c4c1c1ecce7583fa54b758", "is_disabled": 0, "lat": 38.909687, "is_reserved": 0, "type": "electric_scooter"}, {"fusion_lat": 0.0, "name": "28270eed7cc6ce33c508656da2142256", "lon": -77.03442566666666, "rental_uris": {"android": "https://dc.lft.to/lastmile_qr_scan", "ios": "https://dc.lft.to/lastmile_qr_scan"}, "fusion_lon": 0.0, "bike_id": "28270eed7cc6ce33c508656da2142256", "is_disabled": 0, "lat": 38.928716, "is_reserved": 0, "type": "electric_scooter"}, {"fusion_lat": 0.0, "name": "afbf867260e395cf933f00e5171479c2", "lon": -77.07035216666667, "rental_uris": {"android": "https://dc.lft.to/lastmile_qr_scan", "ios": "https://dc.lft.to/lastmile_qr_scan"}, "fusion_lon": 0.0, "bike_id": "afbf867260e395cf933f00e5171479c2", "is_disabled": 0, "lat": 38.9225025, "is_reserved": 0, "type": "electric_scooter"}, {"fusion_lat": 0.0, "name": "4a6713377da13be4a430cae5ea9f6edf", "lon": -76.990599, "rental_uris": {"android": "https://dc.lft.to/lastmile_qr_scan", "ios": "https://dc.lft.to/lastmile_qr_scan"}, "fusion_lon": 0.0, "bike_id": "4a6713377da13be4a430cae5ea9f6edf", "is_disabled": 0, "lat": 38.8637025, "is_reserved": 0, "type": "electric_scooter"}, {"fusion_lat": 0.0, "name": "d20905cd98e6b68d50ce0cbb66b7a5d0", "lon": -77.03208066666667, "rental_uris": {"android": "https://dc.lft.to/lastmile_qr_scan", "ios": "https://dc.lft.to/lastmile_qr_scan"}, "fusion_lon": 0.0, "bike_id": "d20905cd98e6b68d50ce0cbb66b7a5d0", "is_disabled": 0, "lat": 38.89215383333333, "is_reserved": 0, "type": "electric_scooter"}, {"fusion_lat": 0.0, "name": "a83e8607eec3f7e0ed021299f9a53621", "lon": -77.006685, "rental_uris": {"android": "https://dc.lft.to/lastmile_qr_scan", "ios": "https://dc.lft.to/lastmile_qr_scan"}, "fusion_lon": 0.0, "bike_id": "a83e8607eec3f7e0ed021299f9a53621", "is_disabled": 0, "lat": 38.899947166666664, "is_reserved": 0, "type": "electric_scooter"}, {"fusion_lat": 0.0, "name": "17172888551b1145731999b393118dc5", "lon": -77.02996666666667, "rental_uris": {"android": "https://dc.lft.to/lastmile_qr_scan", "ios": "https://dc.lft.to/lastmile_qr_scan"}, "fusion_lon": 0.0, "bike_id": "17172888551b1145731999b393118dc5", "is_disabled": 0, "lat": 38.9170045, "is_reserved": 0, "type": "electric_scooter"}, {"fusion_lat": 0.0, "name": "d0bdfb1ac697315d2e73e9b6186b5408", "lon": -77.009499, "rental_uris": {"android": "https://dc.lft.to/lastmile_qr_scan", "ios": "https://dc.lft.to/lastmile_qr_scan"}, "fusion_lon": 0.0, "bike_id": "d0bdfb1ac697315d2e73e9b6186b5408", "is_disabled": 0, "lat": 38.876303, "is_reserved": 0, "type": "electric_scooter"}, {"fusion_lat": 0.0, "name": "c1be0cad0aa159e7b33d6103a6bb02bb", "lon": -77.03958333333334, "rental_uris": {"android": "https://dc.lft.to/lastmile_qr_scan", "ios": "https://dc.lft.to/lastmile_qr_scan"}, "fusion_lon": 0.0, "bike_id": "c1be0cad0aa159e7b33d6103a6bb02bb", "is_disabled": 0, "lat": 38.898883, "is_reserved": 0, "type": "electric_scooter"}, {"fusion_lat": 0.0, "name": "eff555eaa98cd726f93d20688e94f77c", "lon": -77.18567516666667, "rental_uris": {"android": "https://dc.lft.to/lastmile_qr_scan", "ios": "https://dc.lft.to/lastmile_qr_scan"}, "fusion_lon": 0.0, "bike_id": "eff555eaa98cd726f93d20688e94f77c", "is_disabled": 0, "lat": 38.929652833333336, "is_reserved": 0, "type": "electric_bike"}, {"fusion_lat": 0.0, "name": "7cbf35a9f443a8d6bafa29fefd88003b", "lon": -76.98242983333333, "rental_uris": {"android": "https://dc.lft.to/lastmile_qr_scan", "ios": "https://dc.lft.to/lastmile_qr_scan"}, "fusion_lon": 0.0, "bike_id": "7cbf35a9f443a8d6bafa29fefd88003b", "is_disabled": 0, "lat": 38.95327833333333, "is_reserved": 0, "type": "electric_bike"}, {"fusion_lat": 0.0, "name": "89e57b980f2bc1cfb3a9d33a94d741a8", "lon": -76.9891605, "rental_uris": {"android": "https://dc.lft.to/lastmile_qr_scan", "ios": "https://dc.lft.to/lastmile_qr_scan"}, "fusion_lon": 0.0, "bike_id": "89e57b980f2bc1cfb3a9d33a94d741a8", "is_disabled": 0, "lat": 38.954365833333334, "is_reserved": 0, "type": "electric_bike"}, {"fusion_lat": 0.0, "name": "e49896320673d0d8f3d5bd165ec333ce", "lon": -77.04654633333334, "rental_uris": {"android": "https://dc.lft.to/lastmile_qr_scan", "ios": "https://dc.lft.to/lastmile_qr_scan"}, "fusion_lon": 0.0, "bike_id": "e49896320673d0d8f3d5bd165ec333ce", "is_disabled": 0, "lat": 39.05496083333333, "is_reserved": 0, "type": "electric_bike"}, {"fusion_lat": 0.0, "name": "d7e1d825d2103196f183a8188f2689fc", "lon": -76.8840335, "rental_uris": {"android": "https://dc.lft.to/lastmile_qr_scan", "ios": "https://dc.lft.to/lastmile_qr_scan"}, "fusion_lon": 0.0, "bike_id": "d7e1d825d2103196f183a8188f2689fc", "is_disabled": 0, "lat": 38.9316645, "is_reserved": 0, "type": "electric_bike"}, {"fusion_lat": 0.0, "name": "ec3f394f00c53946aee05cf7fc3aa99e", "lon": -76.99379983333333, "rental_uris": {"android": "https://dc.lft.to/lastmile_qr_scan", "ios": "https://dc.lft.to/lastmile_qr_scan"}, "fusion_lon": 0.0, "bike_id": "ec3f394f00c53946aee05cf7fc3aa99e", "is_disabled": 0, "lat": 38.936708, "is_reserved": 0, "type": "electric_bike"}, {"fusion_lat": 0.0, "name": "28097f2eb34622ee7b1fb0aa558b7e37", "lon": -77.00296666666667, "rental_uris": {"android": "https://dc.lft.to/lastmile_qr_scan", "ios": "https://dc.lft.to/lastmile_qr_scan"}, "fusion_lon": 0.0, "bike_id": "28097f2eb34622ee7b1fb0aa558b7e37", "is_disabled": 0, "lat": 38.952979, "is_reserved": 0, "type": "electric_scooter"}, {"fusion_lat": 0.0, "name": "2c330627a3e5c09d648311977e2fd2be", "lon": -77.007665, "rental_uris": {"android": "https://dc.lft.to/lastmile_qr_scan", "ios": "https://dc.lft.to/lastmile_qr_scan"}, "fusion_lon": 0.0, "bike_id": "2c330627a3e5c09d648311977e2fd2be", "is_disabled": 0, "lat": 38.907267, "is_reserved": 0, "type": "electric_scooter"}, {"fusion_lat": 0.0, "name": "33d1d5fb039ef70e4550b12ce61f083a", "lon": -77.0413965, "rental_uris": {"android": "https://dc.lft.to/lastmile_qr_scan", "ios": "https://dc.lft.to/lastmile_qr_scan"}, "fusion_lon": 0.0, "bike_id": "33d1d5fb039ef70e4550b12ce61f083a", "is_disabled": 0, "lat": 38.9264195, "is_reserved": 0, "type": "electric_scooter"}, {"fusion_lat": 0.0, "name": "dce22fdc990d267da3c76ce81b52b5d3", "lon": -77.0059435, "rental_uris": {"android": "https://dc.lft.to/lastmile_qr_scan", "ios": "https://dc.lft.to/lastmile_qr_scan"}, "fusion_lon": 0.0, "bike_id": "dce22fdc990d267da3c76ce81b52b5d3", "is_disabled": 0, "lat": 38.836920166666665, "is_reserved": 0, "type": "electric_scooter"}, {"fusion_lat": 0.0, "name": "247321bd63e03edbd2509bb0847199c1", "lon": -77.0174845, "rental_uris": {"android": "https://dc.lft.to/lastmile_qr_scan", "ios": "https://dc.lft.to/lastmile_qr_scan"}, "fusion_lon": 0.0, "bike_id": "247321bd63e03edbd2509bb0847199c1", "is_disabled": 0, "lat": 38.90246533333333, "is_reserved": 0, "type": "electric_scooter"}, {"fusion_lat": 0.0, "name": "3e6a261944de6b90b5af03aa956aa481", "lon": -77.0467375, "rental_uris": {"android": "https://dc.lft.to/lastmile_qr_scan", "ios": "https://dc.lft.to/lastmile_qr_scan"}, "fusion_lon": 0.0, "bike_id": "3e6a261944de6b90b5af03aa956aa481", "is_disabled": 0, "lat": 38.902430333333335, "is_reserved": 0, "type": "electric_scooter"}, {"fusion_lat": 0.0, "name": "a26c495601aa30771b1bf9c3b84dcd03", "lon": -77.0359235, "rental_uris": {"android": "https://dc.lft.to/lastmile_qr_scan", "ios": "https://dc.lft.to/lastmile_qr_scan"}, "fusion_lon": 0.0, "bike_id": "a26c495601aa30771b1bf9c3b84dcd03", "is_disabled": 0, "lat": 38.936757, "is_reserved": 0, "type": "electric_scooter"}, {"fusion_lat": 0.0, "name": "2815b82b9ef3b1680f63c7d27c446915", "lon": -77.06288483333333, "rental_uris": {"android": "https://dc.lft.to/lastmile_qr_scan", "ios": "https://dc.lft.to/lastmile_qr_scan"}, "fusion_lon": 0.0, "bike_id": "2815b82b9ef3b1680f63c7d27c446915", "is_disabled": 0, "lat": 38.90495516666667, "is_reserved": 0, "type": "electric_scooter"}, {"fusion_lat": 0.0, "name": "f601755283c91b98b9d550f8c6d0aec0", "lon": -77.01543133333334, "rental_uris": {"android": "https://dc.lft.to/lastmile_qr_scan", "ios": "https://dc.lft.to/lastmile_qr_scan"}, "fusion_lon": 0.0, "bike_id": "f601755283c91b98b9d550f8c6d0aec0", "is_disabled": 0, "lat": 38.941105, "is_reserved": 0, "type": "electric_scooter"}, {"fusion_lat": 0.0, "name": "2dda663cdc0c0ba12950055b066231bf", "lon": -77.03025583333333, "rental_uris": {"android": "https://dc.lft.to/lastmile_qr_scan", "ios": "https://dc.lft.to/lastmile_qr_scan"}, "fusion_lon": 0.0, "bike_id": "2dda663cdc0c0ba12950055b066231bf", "is_disabled": 0, "lat": 38.9180335, "is_reserved": 0, "type": "electric_scooter"}, {"fusion_lat": 0.0, "name": "7569a96c99655df7888f6f877748a95e", "lon": -77.03270683333334, "rental_uris": {"android": "https://dc.lft.to/lastmile_qr_scan", "ios": "https://dc.lft.to/lastmile_qr_scan"}, "fusion_lon": 0.0, "bike_id": "7569a96c99655df7888f6f877748a95e", "is_disabled": 0, "lat": 38.929799, "is_reserved": 0, "type": "electric_scooter"}, {"fusion_lat": 0.0, "name": "c813fc870dff51a3783b50fa121f2a43", "lon": -76.99781266666666, "rental_uris": {"android": "https://dc.lft.to/lastmile_qr_scan", "ios": "https://dc.lft.to/lastmile_qr_scan"}, "fusion_lon": 0.0, "bike_id": "c813fc870dff51a3783b50fa121f2a43", "is_disabled": 0, "lat": 38.844227833333335, "is_reserved": 0, "type": "electric_scooter"}, {"fusion_lat": 0.0, "name": "78dd60c38d5be8527a8e1ee482c8f593", "lon": -77.04434533333334, "rental_uris": {"android": "https://dc.lft.to/lastmile_qr_scan", "ios": "https://dc.lft.to/lastmile_qr_scan"}, "fusion_lon": 0.0, "bike_id": "78dd60c38d5be8527a8e1ee482c8f593", "is_disabled": 0, "lat": 38.90562583333333, "is_reserved": 0, "type": "electric_scooter"}, {"fusion_lat": 0.0, "name": "76df392027ce21ac3e0f4f8f844858b1", "lon": -77.04726483333333, "rental_uris": {"android": "https://dc.lft.to/lastmile_qr_scan", "ios": "https://dc.lft.to/lastmile_qr_scan"}, "fusion_lon": 0.0, "bike_id": "76df392027ce21ac3e0f4f8f844858b1", "is_disabled": 0, "lat": 38.899559833333335, "is_reserved": 0, "type": "electric_scooter"}, {"fusion_lat": 0.0, "name": "f662c2efcc4bf2e62438f381fed7d6c8", "lon": -77.03466933333333, "rental_uris": {"android": "https://dc.lft.to/lastmile_qr_scan", "ios": "https://dc.lft.to/lastmile_qr_scan"}, "fusion_lon": 0.0, "bike_id": "f662c2efcc4bf2e62438f381fed7d6c8", "is_disabled": 0, "lat": 38.92056183333333, "is_reserved": 0, "type": "electric_scooter"}, {"fusion_lat": 0.0, "name": "88ddb3f3adb2e013eb6d1b960c1ba959", "lon": -77.052834, "rental_uris": {"android": "https://dc.lft.to/lastmile_qr_scan", "ios": "https://dc.lft.to/lastmile_qr_scan"}, "fusion_lon": 0.0, "bike_id": "88ddb3f3adb2e013eb6d1b960c1ba959", "is_disabled": 0, "lat": 38.92355516666667, "is_reserved": 0, "type": "electric_scooter"}, {"fusion_lat": 0.0, "name": "8abba74643fff6d5af33cf12f1920923", "lon": -77.02831283333333, "rental_uris": {"android": "https://dc.lft.to/lastmile_qr_scan", "ios": "https://dc.lft.to/lastmile_qr_scan"}, "fusion_lon": 0.0, "bike_id": "8abba74643fff6d5af33cf12f1920923", "is_disabled": 0, "lat": 38.88725916666667, "is_reserved": 0, "type": "electric_scooter"}, {"fusion_lat": 0.0, "name": "8ca20f1f9d787b0420f44c8ca72e6d5c", "lon": -76.95256816666667, "rental_uris": {"android": "https://dc.lft.to/lastmile_qr_scan", "ios": "https://dc.lft.to/lastmile_qr_scan"}, "fusion_lon": 0.0, "bike_id": "8ca20f1f9d787b0420f44c8ca72e6d5c", "is_disabled": 0, "lat": 38.906898, "is_reserved": 0, "type": "electric_bike"}, {"fusion_lat": 0.0, "name": "df93d9d0c704bc4193e675cfb234906e", "lon": -77.04660266666667, "rental_uris": {"android": "https://dc.lft.to/lastmile_qr_scan", "ios": "https://dc.lft.to/lastmile_qr_scan"}, "fusion_lon": 0.0, "bike_id": "df93d9d0c704bc4193e675cfb234906e", "is_disabled": 0, "lat": 38.90264883333333, "is_reserved": 0, "type": "electric_scooter"}, {"fusion_lat": 0.0, "name": "7f467ac44958a28d8bd1eabe44bb0e7b", "lon": -77.02594233333333, "rental_uris": {"android": "https://dc.lft.to/lastmile_qr_scan", "ios": "https://dc.lft.to/lastmile_qr_scan"}, "fusion_lon": 0.0, "bike_id": "7f467ac44958a28d8bd1eabe44bb0e7b", "is_disabled": 0, "lat": 38.89610066666667, "is_reserved": 0, "type": "electric_scooter"}, {"fusion_lat": 0.0, "name": "e58915bd11d2437d1fbd6c0f2ad99086", "lon": -77.02247666666666, "rental_uris": {"android": "https://dc.lft.to/lastmile_qr_scan", "ios": "https://dc.lft.to/lastmile_qr_scan"}, "fusion_lon": 0.0, "bike_id": "e58915bd11d2437d1fbd6c0f2ad99086", "is_disabled": 0, "lat": 38.89392616666667, "is_reserved": 0, "type": "electric_scooter"}, {"fusion_lat": 0.0, "name": "d8080cf97ca569b16d72f861e9d94804", "lon": -77.00715166666667, "rental_uris": {"android": "https://dc.lft.to/lastmile_qr_scan", "ios": "https://dc.lft.to/lastmile_qr_scan"}, "fusion_lon": 0.0, "bike_id": "d8080cf97ca569b16d72f861e9d94804", "is_disabled": 0, "lat": 38.9459735, "is_reserved": 0, "type": "electric_bike"}, {"fusion_lat": 0.0, "name": "e5bca5f397a8ec5e1f77f8b91f7ef40b", "lon": -77.04505083333333, "rental_uris": {"android": "https://dc.lft.to/lastmile_qr_scan", "ios": "https://dc.lft.to/lastmile_qr_scan"}, "fusion_lon": 0.0, "bike_id": "e5bca5f397a8ec5e1f77f8b91f7ef40b", "is_disabled": 0, "lat": 38.9111155, "is_reserved": 0, "type": "electric_scooter"}, {"fusion_lat": 0.0, "name": "54ef1db6518971b2bb363643304ba607", "lon": -77.0515615, "rental_uris": {"android": "https://dc.lft.to/lastmile_qr_scan", "ios": "https://dc.lft.to/lastmile_qr_scan"}, "fusion_lon": 0.0, "bike_id": "54ef1db6518971b2bb363643304ba607", "is_disabled": 0, "lat": 38.9237275, "is_reserved": 0, "type": "electric_scooter"}, {"fusion_lat": 0.0, "name": "40f9c5cf81b935c5aefb476b88392651", "lon": -77.0310915, "rental_uris": {"android": "https://dc.lft.to/lastmile_qr_scan", "ios": "https://dc.lft.to/lastmile_qr_scan"}, "fusion_lon": 0.0, "bike_id": "40f9c5cf81b935c5aefb476b88392651", "is_disabled": 0, "lat": 38.93241733333333, "is_reserved": 0, "type": "electric_scooter"}, {"fusion_lat": 0.0, "name": "c307244d354477e70d83bf9cd3614023", "lon": -77.04365016666667, "rental_uris": {"android": "https://dc.lft.to/lastmile_qr_scan", "ios": "https://dc.lft.to/lastmile_qr_scan"}, "fusion_lon": 0.0, "bike_id": "c307244d354477e70d83bf9cd3614023", "is_disabled": 0, "lat": 38.90450516666667, "is_reserved": 0, "type": "electric_scooter"}, {"fusion_lat": 0.0, "name": "b5b29bdf9a249def39c898def083a407", "lon": -77.07021, "rental_uris": {"android": "https://dc.lft.to/lastmile_qr_scan", "ios": "https://dc.lft.to/lastmile_qr_scan"}, "fusion_lon": 0.0, "bike_id": "b5b29bdf9a249def39c898def083a407", "is_disabled": 0, "lat": 38.90673133333333, "is_reserved": 0, "type": "electric_scooter"}, {"fusion_lat": 0.0, "name": "2d9b816fc70bd6e2e9e8f70a9c3d2f8d", "lon": -77.0305455, "rental_uris": {"android": "https://dc.lft.to/lastmile_qr_scan", "ios": "https://dc.lft.to/lastmile_qr_scan"}, "fusion_lon": 0.0, "bike_id": "2d9b816fc70bd6e2e9e8f70a9c3d2f8d", "is_disabled": 0, "lat": 38.897458, "is_reserved": 0, "type": "electric_scooter"}, {"fusion_lat": 0.0, "name": "d5d64af6f610e6e4a1983a7f72a80b90", "lon": -76.93145066666666, "rental_uris": {"android": "https://dc.lft.to/lastmile_qr_scan", "ios": "https://dc.lft.to/lastmile_qr_scan"}, "fusion_lon": 0.0, "bike_id": "d5d64af6f610e6e4a1983a7f72a80b90", "is_disabled": 0, "lat": 38.8784505, "is_reserved": 0, "type": "electric_scooter"}, {"fusion_lat": 0.0, "name": "157c964113e496005745723f4336ad28", "lon": -76.9930295, "rental_uris": {"android": "https://dc.lft.to/lastmile_qr_scan", "ios": "https://dc.lft.to/lastmile_qr_scan"}, "fusion_lon": 0.0, "bike_id": "157c964113e496005745723f4336ad28", "is_disabled": 0, "lat": 38.89999483333333, "is_reserved": 0, "type": "electric_scooter"}, {"fusion_lat": 0.0, "name": "805d26decfdf8008882a3e9641faaf3e", "lon": -77.07347216666666, "rental_uris": {"android": "https://dc.lft.to/lastmile_qr_scan", "ios": "https://dc.lft.to/lastmile_qr_scan"}, "fusion_lon": 0.0, "bike_id": "805d26decfdf8008882a3e9641faaf3e", "is_disabled": 0, "lat": 38.934740166666664, "is_reserved": 0, "type": "electric_scooter"}, {"fusion_lat": 0.0, "name": "b852e868ed6408e3216700fadeb73a18", "lon": -77.04125216666667, "rental_uris": {"android": "https://dc.lft.to/lastmile_qr_scan", "ios": "https://dc.lft.to/lastmile_qr_scan"}, "fusion_lon": 0.0, "bike_id": "b852e868ed6408e3216700fadeb73a18", "is_disabled": 0, "lat": 38.91705233333333, "is_reserved": 0, "type": "electric_scooter"}, {"fusion_lat": 0.0, "name": "cbf8ef0c6e8465e7292484899d3cf6a0", "lon": -77.02211016666666, "rental_uris": {"android": "https://dc.lft.to/lastmile_qr_scan", "ios": "https://dc.lft.to/lastmile_qr_scan"}, "fusion_lon": 0.0, "bike_id": "cbf8ef0c6e8465e7292484899d3cf6a0", "is_disabled": 0, "lat": 38.8873765, "is_reserved": 0, "type": "electric_scooter"}, {"fusion_lat": 0.0, "name": "3fd67f6bfc99dfb8b660ca147982bdfb", "lon": -76.93880016666667, "rental_uris": {"android": "https://dc.lft.to/lastmile_qr_scan", "ios": "https://dc.lft.to/lastmile_qr_scan"}, "fusion_lon": 0.0, "bike_id": "3fd67f6bfc99dfb8b660ca147982bdfb", "is_disabled": 0, "lat": 38.90081, "is_reserved": 0, "type": "electric_scooter"}, {"fusion_lat": 0.0, "name": "8369aa33261aaa2275b6cf670796b46b", "lon": -77.03372666666667, "rental_uris": {"android": "https://dc.lft.to/lastmile_qr_scan", "ios": "https://dc.lft.to/lastmile_qr_scan"}, "fusion_lon": 0.0, "bike_id": "8369aa33261aaa2275b6cf670796b46b", "is_disabled": 0, "lat": 38.927917666666666, "is_reserved": 0, "type": "electric_scooter"}, {"fusion_lat": 0.0, "name": "6b17cee1753f4f88cafa4f804d09494a", "lon": -77.03467466666666, "rental_uris": {"android": "https://dc.lft.to/lastmile_qr_scan", "ios": "https://dc.lft.to/lastmile_qr_scan"}, "fusion_lon": 0.0, "bike_id": "6b17cee1753f4f88cafa4f804d09494a", "is_disabled": 0, "lat": 38.9101655, "is_reserved": 0, "type": "electric_scooter"}, {"fusion_lat": 0.0, "name": "f6e12465b9bacdd72b7616243ae47e89", "lon": -76.98876866666667, "rental_uris": {"android": "https://dc.lft.to/lastmile_qr_scan", "ios": "https://dc.lft.to/lastmile_qr_scan"}, "fusion_lon": 0.0, "bike_id": "f6e12465b9bacdd72b7616243ae47e89", "is_disabled": 0, "lat": 38.921899333333336, "is_reserved": 0, "type": "electric_scooter"}, {"fusion_lat": 0.0, "name": "4134cf2e8d898952e3dfc59300901b15", "lon": -76.97342566666667, "rental_uris": {"android": "https://dc.lft.to/lastmile_qr_scan", "ios": "https://dc.lft.to/lastmile_qr_scan"}, "fusion_lon": 0.0, "bike_id": "4134cf2e8d898952e3dfc59300901b15", "is_disabled": 0, "lat": 38.8650645, "is_reserved": 0, "type": "electric_bike"}, {"fusion_lat": 0.0, "name": "d309047474dc7d4fa809243971375cfc", "lon": -76.9900255, "rental_uris": {"android": "https://dc.lft.to/lastmile_qr_scan", "ios": "https://dc.lft.to/lastmile_qr_scan"}, "fusion_lon": 0.0, "bike_id": "d309047474dc7d4fa809243971375cfc", "is_disabled": 0, "lat": 38.865034333333334, "is_reserved": 0, "type": "electric_scooter"}, {"fusion_lat": 0.0, "name": "6aff784f22fbba3e8dd640f0d31beaa4", "lon": -77.01895416666666, "rental_uris": {"android": "https://dc.lft.to/lastmile_qr_scan", "ios": "https://dc.lft.to/lastmile_qr_scan"}, "fusion_lon": 0.0, "bike_id": "6aff784f22fbba3e8dd640f0d31beaa4", "is_disabled": 0, "lat": 38.90890483333333, "is_reserved": 0, "type": "electric_scooter"}, {"fusion_lat": 0.0, "name": "163c4f0da06e22d984d70508cbee2946", "lon": -76.93283366666667, "rental_uris": {"android": "https://dc.lft.to/lastmile_qr_scan", "ios": "https://dc.lft.to/lastmile_qr_scan"}, "fusion_lon": 0.0, "bike_id": "163c4f0da06e22d984d70508cbee2946", "is_disabled": 0, "lat": 38.954199833333334, "is_reserved": 0, "type": "electric_bike"}, {"fusion_lat": 0.0, "name": "4ad1f78325b23ffe32fb1a4434bf8221", "lon": -77.02397116666667, "rental_uris": {"android": "https://dc.lft.to/lastmile_qr_scan", "ios": "https://dc.lft.to/lastmile_qr_scan"}, "fusion_lon": 0.0, "bike_id": "4ad1f78325b23ffe32fb1a4434bf8221", "is_disabled": 0, "lat": 38.91907633333334, "is_reserved": 0, "type": "electric_scooter"}, {"fusion_lat": 0.0, "name": "5af9497f6f38c8b8e440d315ba7779ca", "lon": -77.02474566666666, "rental_uris": {"android": "https://dc.lft.to/lastmile_qr_scan", "ios": "https://dc.lft.to/lastmile_qr_scan"}, "fusion_lon": 0.0, "bike_id": "5af9497f6f38c8b8e440d315ba7779ca", "is_disabled": 0, "lat": 38.939080833333335, "is_reserved": 0, "type": "electric_scooter"}, {"fusion_lat": 0.0, "name": "0ea107862133e9c5a26916e2e2aeb577", "lon": -77.00942933333333, "rental_uris": {"android": "https://dc.lft.to/lastmile_qr_scan", "ios": "https://dc.lft.to/lastmile_qr_scan"}, "fusion_lon": 0.0, "bike_id": "0ea107862133e9c5a26916e2e2aeb577", "is_disabled": 0, "lat": 38.876285, "is_reserved": 0, "type": "electric_scooter"}, {"fusion_lat": 0.0, "name": "7717b6fd5926a7f23d92b2211f197ddf", "lon": -77.072494, "rental_uris": {"android": "https://dc.lft.to/lastmile_qr_scan", "ios": "https://dc.lft.to/lastmile_qr_scan"}, "fusion_lon": 0.0, "bike_id": "7717b6fd5926a7f23d92b2211f197ddf", "is_disabled": 0, "lat": 38.93949683333334, "is_reserved": 0, "type": "electric_scooter"}, {"fusion_lat": 0.0, "name": "b332c8c3474f593e10963a6818f6010b", "lon": -77.04951916666667, "rental_uris": {"android": "https://dc.lft.to/lastmile_qr_scan", "ios": "https://dc.lft.to/lastmile_qr_scan"}, "fusion_lon": 0.0, "bike_id": "b332c8c3474f593e10963a6818f6010b", "is_disabled": 0, "lat": 38.9006795, "is_reserved": 0, "type": "electric_scooter"}, {"fusion_lat": 0.0, "name": "80f07236723691de034049a8ac2f4c59", "lon": -77.04176333333334, "rental_uris": {"android": "https://dc.lft.to/lastmile_qr_scan", "ios": "https://dc.lft.to/lastmile_qr_scan"}, "fusion_lon": 0.0, "bike_id": "80f07236723691de034049a8ac2f4c59", "is_disabled": 0, "lat": 38.918169166666665, "is_reserved": 0, "type": "electric_scooter"}, {"fusion_lat": 0.0, "name": "9bf863c37e71db20a30a8a72527fd40a", "lon": -77.02352316666666, "rental_uris": {"android": "https://dc.lft.to/lastmile_qr_scan", "ios": "https://dc.lft.to/lastmile_qr_scan"}, "fusion_lon": 0.0, "bike_id": "9bf863c37e71db20a30a8a72527fd40a", "is_disabled": 0, "lat": 38.9352195, "is_reserved": 0, "type": "electric_scooter"}, {"fusion_lat": 0.0, "name": "207f41dfa91030881a98e12caaddabd3", "lon": -77.02169283333333, "rental_uris": {"android": "https://dc.lft.to/lastmile_qr_scan", "ios": "https://dc.lft.to/lastmile_qr_scan"}, "fusion_lon": 0.0, "bike_id": "207f41dfa91030881a98e12caaddabd3", "is_disabled": 0, "lat": 38.897336833333334, "is_reserved": 0, "type": "electric_scooter"}, {"fusion_lat": 0.0, "name": "2deb263b7a6c05e5c2d19030195c8c72", "lon": -77.0201725, "rental_uris": {"android": "https://dc.lft.to/lastmile_qr_scan", "ios": "https://dc.lft.to/lastmile_qr_scan"}, "fusion_lon": 0.0, "bike_id": "2deb263b7a6c05e5c2d19030195c8c72", "is_disabled": 0, "lat": 38.899771666666666, "is_reserved": 0, "type": "electric_scooter"}, {"fusion_lat": 0.0, "name": "e3f17ef0ce40a3d2f55af921d9e09536", "lon": -77.02737733333333, "rental_uris": {"android": "https://dc.lft.to/lastmile_qr_scan", "ios": "https://dc.lft.to/lastmile_qr_scan"}, "fusion_lon": 0.0, "bike_id": "e3f17ef0ce40a3d2f55af921d9e09536", "is_disabled": 0, "lat": 38.887429, "is_reserved": 0, "type": "electric_scooter"}, {"fusion_lat": 0.0, "name": "fb97fa6f27aca567e159603dcaab45f6", "lon": -77.00896083333333, "rental_uris": {"android": "https://dc.lft.to/lastmile_qr_scan", "ios": "https://dc.lft.to/lastmile_qr_scan"}, "fusion_lon": 0.0, "bike_id": "fb97fa6f27aca567e159603dcaab45f6", "is_disabled": 0, "lat": 38.8748935, "is_reserved": 0, "type": "electric_scooter"}, {"fusion_lat": 0.0, "name": "c052f8ad369587ca2980f6132df7e3dd", "lon": -77.045203, "rental_uris": {"android": "https://dc.lft.to/lastmile_qr_scan", "ios": "https://dc.lft.to/lastmile_qr_scan"}, "fusion_lon": 0.0, "bike_id": "c052f8ad369587ca2980f6132df7e3dd", "is_disabled": 0, "lat": 38.90965933333333, "is_reserved": 0, "type": "electric_scooter"}, {"fusion_lat": 0.0, "name": "6959f77faaf911864b0546fec6bbdb3e", "lon": -77.03585066666666, "rental_uris": {"android": "https://dc.lft.to/lastmile_qr_scan", "ios": "https://dc.lft.to/lastmile_qr_scan"}, "fusion_lon": 0.0, "bike_id": "6959f77faaf911864b0546fec6bbdb3e", "is_disabled": 0, "lat": 38.99223466666667, "is_reserved": 0, "type": "electric_scooter"}, {"fusion_lat": 0.0, "name": "0b21964d10a6f578170c2543ebe19869", "lon": -77.03195333333333, "rental_uris": {"android": "https://dc.lft.to/lastmile_qr_scan", "ios": "https://dc.lft.to/lastmile_qr_scan"}, "fusion_lon": 0.0, "bike_id": "0b21964d10a6f578170c2543ebe19869", "is_disabled": 0, "lat": 38.915979, "is_reserved": 0, "type": "electric_scooter"}, {"fusion_lat": 0.0, "name": "83f6e612e34221b4ba9f65fd6606ee0f", "lon": -77.08338466666666, "rental_uris": {"android": "https://dc.lft.to/lastmile_qr_scan", "ios": "https://dc.lft.to/lastmile_qr_scan"}, "fusion_lon": 0.0, "bike_id": "83f6e612e34221b4ba9f65fd6606ee0f", "is_disabled": 0, "lat": 38.854394166666665, "is_reserved": 0, "type": "electric_bike"}, {"fusion_lat": 0.0, "name": "dfa87667ea0e26db8d7bc9b4a06cd300", "lon": -77.0466805, "rental_uris": {"android": "https://dc.lft.to/lastmile_qr_scan", "ios": "https://dc.lft.to/lastmile_qr_scan"}, "fusion_lon": 0.0, "bike_id": "dfa87667ea0e26db8d7bc9b4a06cd300", "is_disabled": 0, "lat": 38.902530166666665, "is_reserved": 0, "type": "electric_scooter"}, {"fusion_lat": 0.0, "name": "77e1766802eb34ef32074506c1a86a6b", "lon": -77.032766, "rental_uris": {"android": "https://dc.lft.to/lastmile_qr_scan", "ios": "https://dc.lft.to/lastmile_qr_scan"}, "fusion_lon": 0.0, "bike_id": "77e1766802eb34ef32074506c1a86a6b", "is_disabled": 0, "lat": 38.921527, "is_reserved": 0, "type": "electric_scooter"}, {"fusion_lat": 0.0, "name": "41d3363ef82fe7c564190cdc377acc27", "lon": -76.98765816666666, "rental_uris": {"android": "https://dc.lft.to/lastmile_qr_scan", "ios": "https://dc.lft.to/lastmile_qr_scan"}, "fusion_lon": 0.0, "bike_id": "41d3363ef82fe7c564190cdc377acc27", "is_disabled": 0, "lat": 38.857650666666665, "is_reserved": 0, "type": "electric_bike"}, {"fusion_lat": 0.0, "name": "227435cd92a6fc222b01a4fe10fc969f", "lon": -77.04659883333333, "rental_uris": {"android": "https://dc.lft.to/lastmile_qr_scan", "ios": "https://dc.lft.to/lastmile_qr_scan"}, "fusion_lon": 0.0, "bike_id": "227435cd92a6fc222b01a4fe10fc969f", "is_disabled": 0, "lat": 38.892508166666666, "is_reserved": 0, "type": "electric_scooter"}, {"fusion_lat": 0.0, "name": "a266b9446aa77396a8f16834c6b9a93d", "lon": -77.02121866666667, "rental_uris": {"android": "https://dc.lft.to/lastmile_qr_scan", "ios": "https://dc.lft.to/lastmile_qr_scan"}, "fusion_lon": 0.0, "bike_id": "a266b9446aa77396a8f16834c6b9a93d", "is_disabled": 0, "lat": 38.927946666666664, "is_reserved": 0, "type": "electric_scooter"}, {"fusion_lat": 0.0, "name": "4bf84e0d6b9f05658ad338159826ca42", "lon": -77.04364683333333, "rental_uris": {"android": "https://dc.lft.to/lastmile_qr_scan", "ios": "https://dc.lft.to/lastmile_qr_scan"}, "fusion_lon": 0.0, "bike_id": "4bf84e0d6b9f05658ad338159826ca42", "is_disabled": 0, "lat": 38.90141416666667, "is_reserved": 0, "type": "electric_scooter"}, {"fusion_lat": 0.0, "name": "ed0b09fee8736fb33fe5f7a5e7115c3a", "lon": -77.03470683333333, "rental_uris": {"android": "https://dc.lft.to/lastmile_qr_scan", "ios": "https://dc.lft.to/lastmile_qr_scan"}, "fusion_lon": 0.0, "bike_id": "ed0b09fee8736fb33fe5f7a5e7115c3a", "is_disabled": 0, "lat": 38.926432, "is_reserved": 0, "type": "electric_scooter"}, {"fusion_lat": 0.0, "name": "4a36f346f74bfd882a26ca73edb26170", "lon": -77.0195415, "rental_uris": {"android": "https://dc.lft.to/lastmile_qr_scan", "ios": "https://dc.lft.to/lastmile_qr_scan"}, "fusion_lon": 0.0, "bike_id": "4a36f346f74bfd882a26ca73edb26170", "is_disabled": 0, "lat": 38.923121333333334, "is_reserved": 0, "type": "electric_scooter"}, {"fusion_lat": 0.0, "name": "32843ffe95fe855a04c1ba5a07321cb1", "lon": -77.0202095, "rental_uris": {"android": "https://dc.lft.to/lastmile_qr_scan", "ios": "https://dc.lft.to/lastmile_qr_scan"}, "fusion_lon": 0.0, "bike_id": "32843ffe95fe855a04c1ba5a07321cb1", "is_disabled": 0, "lat": 38.91407016666667, "is_reserved": 0, "type": "electric_scooter"}, {"fusion_lat": 0.0, "name": "e906884a1022e90a81db080c053d21b7", "lon": -77.04539183333333, "rental_uris": {"android": "https://dc.lft.to/lastmile_qr_scan", "ios": "https://dc.lft.to/lastmile_qr_scan"}, "fusion_lon": 0.0, "bike_id": "e906884a1022e90a81db080c053d21b7", "is_disabled": 0, "lat": 38.90060233333333, "is_reserved": 0, "type": "electric_scooter"}, {"fusion_lat": 0.0, "name": "774cbd249224f5ea168adc5c70ae6dee", "lon": -77.02449516666667, "rental_uris": {"android": "https://dc.lft.to/lastmile_qr_scan", "ios": "https://dc.lft.to/lastmile_qr_scan"}, "fusion_lon": 0.0, "bike_id": "774cbd249224f5ea168adc5c70ae6dee", "is_disabled": 0, "lat": 38.938505166666666, "is_reserved": 0, "type": "electric_scooter"}, {"fusion_lat": 0.0, "name": "be76b6d67ffa5ae13ff23867d7204394", "lon": -76.98882533333334, "rental_uris": {"android": "https://dc.lft.to/lastmile_qr_scan", "ios": "https://dc.lft.to/lastmile_qr_scan"}, "fusion_lon": 0.0, "bike_id": "be76b6d67ffa5ae13ff23867d7204394", "is_disabled": 0, "lat": 38.8665725, "is_reserved": 0, "type": "electric_scooter"}, {"fusion_lat": 0.0, "name": "4d03963a0198f2eb39b82232730033c9", "lon": -77.23331583333334, "rental_uris": {"android": "https://dc.lft.to/lastmile_qr_scan", "ios": "https://dc.lft.to/lastmile_qr_scan"}, "fusion_lon": 0.0, "bike_id": "4d03963a0198f2eb39b82232730033c9", "is_disabled": 0, "lat": 38.87273883333334, "is_reserved": 0, "type": "electric_bike"}, {"fusion_lat": 0.0, "name": "f3d1a86b06d0f783f35c60414154d3ed", "lon": -77.01946433333333, "rental_uris": {"android": "https://dc.lft.to/lastmile_qr_scan", "ios": "https://dc.lft.to/lastmile_qr_scan"}, "fusion_lon": 0.0, "bike_id": "f3d1a86b06d0f783f35c60414154d3ed", "is_disabled": 0, "lat": 38.92256916666667, "is_reserved": 0, "type": "electric_scooter"}, {"fusion_lat": 0.0, "name": "bde3da4a24ba49e3fd428c24e1303a0c", "lon": -77.02443683333334, "rental_uris": {"android": "https://dc.lft.to/lastmile_qr_scan", "ios": "https://dc.lft.to/lastmile_qr_scan"}, "fusion_lon": 0.0, "bike_id": "bde3da4a24ba49e3fd428c24e1303a0c", "is_disabled": 0, "lat": 38.9006525, "is_reserved": 0, "type": "electric_scooter"}, {"fusion_lat": 0.0, "name": "32536179a23566fa8f4ebb6676be3c64", "lon": -76.948235, "rental_uris": {"android": "https://dc.lft.to/lastmile_qr_scan", "ios": "https://dc.lft.to/lastmile_qr_scan"}, "fusion_lon": 0.0, "bike_id": "32536179a23566fa8f4ebb6676be3c64", "is_disabled": 0, "lat": 38.893716, "is_reserved": 0, "type": "electric_scooter"}, {"fusion_lat": 0.0, "name": "931bb0a51beadc477aeebe99ef7b5ce0", "lon": -77.05006216666666, "rental_uris": {"android": "https://dc.lft.to/lastmile_qr_scan", "ios": "https://dc.lft.to/lastmile_qr_scan"}, "fusion_lon": 0.0, "bike_id": "931bb0a51beadc477aeebe99ef7b5ce0", "is_disabled": 0, "lat": 38.892287333333336, "is_reserved": 0, "type": "electric_scooter"}, {"fusion_lat": 0.0, "name": "71eeee1087dfc0374cc09fdc3dd5e137", "lon": -77.068916, "rental_uris": {"android": "https://dc.lft.to/lastmile_qr_scan", "ios": "https://dc.lft.to/lastmile_qr_scan"}, "fusion_lon": 0.0, "bike_id": "71eeee1087dfc0374cc09fdc3dd5e137", "is_disabled": 0, "lat": 38.9051185, "is_reserved": 0, "type": "electric_scooter"}, {"fusion_lat": 0.0, "name": "22ed9dd887df0b0eb13df008c643b02a", "lon": -77.0235535, "rental_uris": {"android": "https://dc.lft.to/lastmile_qr_scan", "ios": "https://dc.lft.to/lastmile_qr_scan"}, "fusion_lon": 0.0, "bike_id": "22ed9dd887df0b0eb13df008c643b02a", "is_disabled": 0, "lat": 38.931767666666666, "is_reserved": 0, "type": "electric_scooter"}, {"fusion_lat": 0.0, "name": "b096915c70568cf4bb8649b3c0ddda86", "lon": -77.03833616666667, "rental_uris": {"android": "https://dc.lft.to/lastmile_qr_scan", "ios": "https://dc.lft.to/lastmile_qr_scan"}, "fusion_lon": 0.0, "bike_id": "b096915c70568cf4bb8649b3c0ddda86", "is_disabled": 0, "lat": 38.912512, "is_reserved": 0, "type": "electric_scooter"}, {"fusion_lat": 0.0, "name": "63942f44b46238fb79f077e194efff68", "lon": -77.04383083333333, "rental_uris": {"android": "https://dc.lft.to/lastmile_qr_scan", "ios": "https://dc.lft.to/lastmile_qr_scan"}, "fusion_lon": 0.0, "bike_id": "63942f44b46238fb79f077e194efff68", "is_disabled": 0, "lat": 38.897326666666665, "is_reserved": 0, "type": "electric_scooter"}, {"fusion_lat": 0.0, "name": "3944d8750a0f6809793081a5ac8659dd", "lon": -77.01199116666666, "rental_uris": {"android": "https://dc.lft.to/lastmile_qr_scan", "ios": "https://dc.lft.to/lastmile_qr_scan"}, "fusion_lon": 0.0, "bike_id": "3944d8750a0f6809793081a5ac8659dd", "is_disabled": 0, "lat": 38.915473, "is_reserved": 0, "type": "electric_scooter"}, {"fusion_lat": 0.0, "name": "a11981d180304799764526cf5305c1b1", "lon": -77.044676, "rental_uris": {"android": "https://dc.lft.to/lastmile_qr_scan", "ios": "https://dc.lft.to/lastmile_qr_scan"}, "fusion_lon": 0.0, "bike_id": "a11981d180304799764526cf5305c1b1", "is_disabled": 0, "lat": 38.8922535, "is_reserved": 0, "type": "electric_scooter"}, {"fusion_lat": 0.0, "name": "eaf22fa45c1f56e346ae79cae4576dae", "lon": -77.048669, "rental_uris": {"android": "https://dc.lft.to/lastmile_qr_scan", "ios": "https://dc.lft.to/lastmile_qr_scan"}, "fusion_lon": 0.0, "bike_id": "eaf22fa45c1f56e346ae79cae4576dae", "is_disabled": 0, "lat": 38.900374666666664, "is_reserved": 0, "type": "electric_scooter"}, {"fusion_lat": 0.0, "name": "3e68081b7dca5fa5e9a2766290c2ab0b", "lon": -77.04493633333334, "rental_uris": {"android": "https://dc.lft.to/lastmile_qr_scan", "ios": "https://dc.lft.to/lastmile_qr_scan"}, "fusion_lon": 0.0, "bike_id": "3e68081b7dca5fa5e9a2766290c2ab0b", "is_disabled": 0, "lat": 38.9093105, "is_reserved": 0, "type": "electric_scooter"}, {"fusion_lat": 0.0, "name": "4a90a8f423872a85495ddea4e9b3d471", "lon": -77.02711366666666, "rental_uris": {"android": "https://dc.lft.to/lastmile_qr_scan", "ios": "https://dc.lft.to/lastmile_qr_scan"}, "fusion_lon": 0.0, "bike_id": "4a90a8f423872a85495ddea4e9b3d471", "is_disabled": 0, "lat": 38.89730566666667, "is_reserved": 0, "type": "electric_scooter"}, {"fusion_lat": 0.0, "name": "cb74c640629f95d500a14ca7e0f32965", "lon": -76.9827995, "rental_uris": {"android": "https://dc.lft.to/lastmile_qr_scan", "ios": "https://dc.lft.to/lastmile_qr_scan"}, "fusion_lon": 0.0, "bike_id": "cb74c640629f95d500a14ca7e0f32965", "is_disabled": 0, "lat": 38.903394666666664, "is_reserved": 0, "type": "electric_scooter"}, {"fusion_lat": 0.0, "name": "790ffc614ab454fba48043b66fa3b050", "lon": -76.999445, "rental_uris": {"android": "https://dc.lft.to/lastmile_qr_scan", "ios": "https://dc.lft.to/lastmile_qr_scan"}, "fusion_lon": 0.0, "bike_id": "790ffc614ab454fba48043b66fa3b050", "is_disabled": 0, "lat": 38.8963695, "is_reserved": 0, "type": "electric_scooter"}, {"fusion_lat": 0.0, "name": "a4af0feb81d978f9609b4ddd1336705e", "lon": -76.98909966666666, "rental_uris": {"android": "https://dc.lft.to/lastmile_qr_scan", "ios": "https://dc.lft.to/lastmile_qr_scan"}, "fusion_lon": 0.0, "bike_id": "a4af0feb81d978f9609b4ddd1336705e", "is_disabled": 0, "lat": 38.904717166666664, "is_reserved": 0, "type": "electric_scooter"}, {"fusion_lat": 0.0, "name": "a6befc7764a555850cbf6574411d9089", "lon": -77.04613333333333, "rental_uris": {"android": "https://dc.lft.to/lastmile_qr_scan", "ios": "https://dc.lft.to/lastmile_qr_scan"}, "fusion_lon": 0.0, "bike_id": "a6befc7764a555850cbf6574411d9089", "is_disabled": 0, "lat": 38.91708783333333, "is_reserved": 0, "type": "electric_scooter"}, {"fusion_lat": 0.0, "name": "a14f0cc36d9a1b13f060b7dda89207d0", "lon": -77.02431333333334, "rental_uris": {"android": "https://dc.lft.to/lastmile_qr_scan", "ios": "https://dc.lft.to/lastmile_qr_scan"}, "fusion_lon": 0.0, "bike_id": "a14f0cc36d9a1b13f060b7dda89207d0", "is_disabled": 0, "lat": 38.91551466666667, "is_reserved": 0, "type": "electric_scooter"}, {"fusion_lat": 0.0, "name": "f36f2a5809f987457c4b27aa95a2aa0f", "lon": -77.0350185, "rental_uris": {"android": "https://dc.lft.to/lastmile_qr_scan", "ios": "https://dc.lft.to/lastmile_qr_scan"}, "fusion_lon": 0.0, "bike_id": "f36f2a5809f987457c4b27aa95a2aa0f", "is_disabled": 0, "lat": 38.92146116666667, "is_reserved": 0, "type": "electric_scooter"}, {"fusion_lat": 0.0, "name": "3565bdfa15084789b8e92c5bb3bf4d83", "lon": -77.04167483333333, "rental_uris": {"android": "https://dc.lft.to/lastmile_qr_scan", "ios": "https://dc.lft.to/lastmile_qr_scan"}, "fusion_lon": 0.0, "bike_id": "3565bdfa15084789b8e92c5bb3bf4d83", "is_disabled": 0, "lat": 38.90731783333333, "is_reserved": 0, "type": "electric_scooter"}, {"fusion_lat": 0.0, "name": "6c7853b7b563a39ef690f0726392e8c7", "lon": -77.03970116666666, "rental_uris": {"android": "https://dc.lft.to/lastmile_qr_scan", "ios": "https://dc.lft.to/lastmile_qr_scan"}, "fusion_lon": 0.0, "bike_id": "6c7853b7b563a39ef690f0726392e8c7", "is_disabled": 0, "lat": 38.9327065, "is_reserved": 0, "type": "electric_scooter"}, {"fusion_lat": 0.0, "name": "d5b1fbf2eefaa0f07584da65d292b542", "lon": -77.060162, "rental_uris": {"android": "https://dc.lft.to/lastmile_qr_scan", "ios": "https://dc.lft.to/lastmile_qr_scan"}, "fusion_lon": 0.0, "bike_id": "d5b1fbf2eefaa0f07584da65d292b542", "is_disabled": 0, "lat": 38.90397816666667, "is_reserved": 0, "type": "electric_scooter"}, {"fusion_lat": 0.0, "name": "9713758cbde68c5876af24051ccc92b9", "lon": -77.043255, "rental_uris": {"android": "https://dc.lft.to/lastmile_qr_scan", "ios": "https://dc.lft.to/lastmile_qr_scan"}, "fusion_lon": 0.0, "bike_id": "9713758cbde68c5876af24051ccc92b9", "is_disabled": 0, "lat": 38.92614716666667, "is_reserved": 0, "type": "electric_scooter"}, {"fusion_lat": 0.0, "name": "740068568d368a989fa4b5ddebc0f196", "lon": -77.04565066666666, "rental_uris": {"android": "https://dc.lft.to/lastmile_qr_scan", "ios": "https://dc.lft.to/lastmile_qr_scan"}, "fusion_lon": 0.0, "bike_id": "740068568d368a989fa4b5ddebc0f196", "is_disabled": 0, "lat": 38.90232833333334, "is_reserved": 0, "type": "electric_scooter"}, {"fusion_lat": 0.0, "name": "d80af96968756e1956376358b4e775eb", "lon": -77.00813216666667, "rental_uris": {"android": "https://dc.lft.to/lastmile_qr_scan", "ios": "https://dc.lft.to/lastmile_qr_scan"}, "fusion_lon": 0.0, "bike_id": "d80af96968756e1956376358b4e775eb", "is_disabled": 0, "lat": 38.876495, "is_reserved": 0, "type": "electric_scooter"}, {"fusion_lat": 0.0, "name": "ada321bde4b076b195c71b7d85683adf", "lon": -76.99385066666666, "rental_uris": {"android": "https://dc.lft.to/lastmile_qr_scan", "ios": "https://dc.lft.to/lastmile_qr_scan"}, "fusion_lon": 0.0, "bike_id": "ada321bde4b076b195c71b7d85683adf", "is_disabled": 0, "lat": 38.954980166666665, "is_reserved": 0, "type": "electric_bike"}, {"fusion_lat": 0.0, "name": "384a18abd3b3fee19c7c6ad86e614a44", "lon": -77.012859, "rental_uris": {"android": "https://dc.lft.to/lastmile_qr_scan", "ios": "https://dc.lft.to/lastmile_qr_scan"}, "fusion_lon": 0.0, "bike_id": "384a18abd3b3fee19c7c6ad86e614a44", "is_disabled": 0, "lat": 38.906142833333334, "is_reserved": 0, "type": "electric_scooter"}, {"fusion_lat": 0.0, "name": "0626323d8cc69b0cf1a2c9a5b26e1053", "lon": -77.0332935, "rental_uris": {"android": "https://dc.lft.to/lastmile_qr_scan", "ios": "https://dc.lft.to/lastmile_qr_scan"}, "fusion_lon": 0.0, "bike_id": "0626323d8cc69b0cf1a2c9a5b26e1053", "is_disabled": 0, "lat": 38.911036333333335, "is_reserved": 0, "type": "electric_scooter"}, {"fusion_lat": 0.0, "name": "8299b9de79132bd34d6b05753ee2f55b", "lon": -77.01786233333333, "rental_uris": {"android": "https://dc.lft.to/lastmile_qr_scan", "ios": "https://dc.lft.to/lastmile_qr_scan"}, "fusion_lon": 0.0, "bike_id": "8299b9de79132bd34d6b05753ee2f55b", "is_disabled": 0, "lat": 38.9214485, "is_reserved": 0, "type": "electric_scooter"}, {"fusion_lat": 0.0, "name": "b246fca865c7be3951a9857764b917cc", "lon": -77.0151595, "rental_uris": {"android": "https://dc.lft.to/lastmile_qr_scan", "ios": "https://dc.lft.to/lastmile_qr_scan"}, "fusion_lon": 0.0, "bike_id": "b246fca865c7be3951a9857764b917cc", "is_disabled": 0, "lat": 38.95826516666666, "is_reserved": 0, "type": "electric_scooter"}, {"fusion_lat": 0.0, "name": "5b0197dee7bc097ef4156e62ff19156f", "lon": -77.03076516666667, "rental_uris": {"android": "https://dc.lft.to/lastmile_qr_scan", "ios": "https://dc.lft.to/lastmile_qr_scan"}, "fusion_lon": 0.0, "bike_id": "5b0197dee7bc097ef4156e62ff19156f", "is_disabled": 0, "lat": 39.042315333333335, "is_reserved": 0, "type": "electric_bike"}, {"fusion_lat": 0.0, "name": "23b8fb614b6c8eaf260917967037b064", "lon": -76.9650535, "rental_uris": {"android": "https://dc.lft.to/lastmile_qr_scan", "ios": "https://dc.lft.to/lastmile_qr_scan"}, "fusion_lon": 0.0, "bike_id": "23b8fb614b6c8eaf260917967037b064", "is_disabled": 0, "lat": 38.876430666666664, "is_reserved": 0, "type": "electric_scooter"}, {"fusion_lat": 0.0, "name": "7c4da8ae43f81e784ffbf7dc3bae44f2", "lon": -77.05183783333334, "rental_uris": {"android": "https://dc.lft.to/lastmile_qr_scan", "ios": "https://dc.lft.to/lastmile_qr_scan"}, "fusion_lon": 0.0, "bike_id": "7c4da8ae43f81e784ffbf7dc3bae44f2", "is_disabled": 0, "lat": 38.92426283333333, "is_reserved": 0, "type": "electric_scooter"}, {"fusion_lat": 0.0, "name": "9c0043d95bdc461c3d1198a7c6173d66", "lon": -77.04537633333334, "rental_uris": {"android": "https://dc.lft.to/lastmile_qr_scan", "ios": "https://dc.lft.to/lastmile_qr_scan"}, "fusion_lon": 0.0, "bike_id": "9c0043d95bdc461c3d1198a7c6173d66", "is_disabled": 0, "lat": 38.90061933333333, "is_reserved": 0, "type": "electric_scooter"}, {"fusion_lat": 0.0, "name": "311f25fe5c2194f8da1643e934abd5dd", "lon": -77.01360216666667, "rental_uris": {"android": "https://dc.lft.to/lastmile_qr_scan", "ios": "https://dc.lft.to/lastmile_qr_scan"}, "fusion_lon": 0.0, "bike_id": "311f25fe5c2194f8da1643e934abd5dd", "is_disabled": 0, "lat": 38.897467666666664, "is_reserved": 0, "type": "electric_scooter"}, {"fusion_lat": 0.0, "name": "02c6957f3a4d7278146ec1540146ba3b", "lon": -77.0261265, "rental_uris": {"android": "https://dc.lft.to/lastmile_qr_scan", "ios": "https://dc.lft.to/lastmile_qr_scan"}, "fusion_lon": 0.0, "bike_id": "02c6957f3a4d7278146ec1540146ba3b", "is_disabled": 0, "lat": 38.9191155, "is_reserved": 0, "type": "electric_scooter"}, {"fusion_lat": 0.0, "name": "a9fe02c8b95ca47894c9acbb313cac03", "lon": -77.04308083333333, "rental_uris": {"android": "https://dc.lft.to/lastmile_qr_scan", "ios": "https://dc.lft.to/lastmile_qr_scan"}, "fusion_lon": 0.0, "bike_id": "a9fe02c8b95ca47894c9acbb313cac03", "is_disabled": 0, "lat": 38.89221516666667, "is_reserved": 0, "type": "electric_scooter"}, {"fusion_lat": 0.0, "name": "64091e814afcffd925d3cbed741a5ac4", "lon": -77.02893416666667, "rental_uris": {"android": "https://dc.lft.to/lastmile_qr_scan", "ios": "https://dc.lft.to/lastmile_qr_scan"}, "fusion_lon": 0.0, "bike_id": "64091e814afcffd925d3cbed741a5ac4", "is_disabled": 0, "lat": 38.90162516666667, "is_reserved": 0, "type": "electric_scooter"}, {"fusion_lat": 0.0, "name": "a92c7f789927edbc2efbd4e6dffda0fe", "lon": -77.02082833333333, "rental_uris": {"android": "https://dc.lft.to/lastmile_qr_scan", "ios": "https://dc.lft.to/lastmile_qr_scan"}, "fusion_lon": 0.0, "bike_id": "a92c7f789927edbc2efbd4e6dffda0fe", "is_disabled": 0, "lat": 38.90970016666667, "is_reserved": 0, "type": "electric_scooter"}, {"fusion_lat": 0.0, "name": "82423c0f0d71d932552d7ee350cdb11c", "lon": -77.04552383333333, "rental_uris": {"android": "https://dc.lft.to/lastmile_qr_scan", "ios": "https://dc.lft.to/lastmile_qr_scan"}, "fusion_lon": 0.0, "bike_id": "82423c0f0d71d932552d7ee350cdb11c", "is_disabled": 0, "lat": 38.917803166666666, "is_reserved": 0, "type": "electric_scooter"}, {"fusion_lat": 0.0, "name": "55dd72e6fb4384bd837882a115b0aa79", "lon": -77.02712316666667, "rental_uris": {"android": "https://dc.lft.to/lastmile_qr_scan", "ios": "https://dc.lft.to/lastmile_qr_scan"}, "fusion_lon": 0.0, "bike_id": "55dd72e6fb4384bd837882a115b0aa79", "is_disabled": 0, "lat": 38.906583499999996, "is_reserved": 0, "type": "electric_scooter"}, {"fusion_lat": 0.0, "name": "ca8c1e36f50339e907998df7b48602e5", "lon": -77.03640366666667, "rental_uris": {"android": "https://dc.lft.to/lastmile_qr_scan", "ios": "https://dc.lft.to/lastmile_qr_scan"}, "fusion_lon": 0.0, "bike_id": "ca8c1e36f50339e907998df7b48602e5", "is_disabled": 0, "lat": 38.922746333333336, "is_reserved": 0, "type": "electric_scooter"}, {"fusion_lat": 0.0, "name": "edb12ceb5f7bd7e284f80f63e01d1f6c", "lon": -76.9973705, "rental_uris": {"android": "https://dc.lft.to/lastmile_qr_scan", "ios": "https://dc.lft.to/lastmile_qr_scan"}, "fusion_lon": 0.0, "bike_id": "edb12ceb5f7bd7e284f80f63e01d1f6c", "is_disabled": 0, "lat": 38.88992316666667, "is_reserved": 0, "type": "electric_scooter"}, {"fusion_lat": 0.0, "name": "103980cb17e5463ec31a1cd78ce98369", "lon": -77.0227955, "rental_uris": {"android": "https://dc.lft.to/lastmile_qr_scan", "ios": "https://dc.lft.to/lastmile_qr_scan"}, "fusion_lon": 0.0, "bike_id": "103980cb17e5463ec31a1cd78ce98369", "is_disabled": 0, "lat": 38.907739666666664, "is_reserved": 0, "type": "electric_scooter"}, {"fusion_lat": 0.0, "name": "68954db0b756429a1949a0491ded5be4", "lon": -77.041677, "rental_uris": {"android": "https://dc.lft.to/lastmile_qr_scan", "ios": "https://dc.lft.to/lastmile_qr_scan"}, "fusion_lon": 0.0, "bike_id": "68954db0b756429a1949a0491ded5be4", "is_disabled": 0, "lat": 38.91485316666667, "is_reserved": 0, "type": "electric_scooter"}, {"fusion_lat": 0.0, "name": "1af2abc501bee5713d937711296482ae", "lon": -77.02850833333333, "rental_uris": {"android": "https://dc.lft.to/lastmile_qr_scan", "ios": "https://dc.lft.to/lastmile_qr_scan"}, "fusion_lon": 0.0, "bike_id": "1af2abc501bee5713d937711296482ae", "is_disabled": 0, "lat": 38.9347495, "is_reserved": 0, "type": "electric_scooter"}, {"fusion_lat": 0.0, "name": "0e23fa33a61cf1eee2c7f58d7f882d19", "lon": -77.0513405, "rental_uris": {"android": "https://dc.lft.to/lastmile_qr_scan", "ios": "https://dc.lft.to/lastmile_qr_scan"}, "fusion_lon": 0.0, "bike_id": "0e23fa33a61cf1eee2c7f58d7f882d19", "is_disabled": 0, "lat": 38.923624833333335, "is_reserved": 0, "type": "electric_scooter"}, {"fusion_lat": 0.0, "name": "f558e83bff05b1ed4532b37485d05d99", "lon": -77.03271633333334, "rental_uris": {"android": "https://dc.lft.to/lastmile_qr_scan", "ios": "https://dc.lft.to/lastmile_qr_scan"}, "fusion_lon": 0.0, "bike_id": "f558e83bff05b1ed4532b37485d05d99", "is_disabled": 0, "lat": 38.9325815, "is_reserved": 0, "type": "electric_scooter"}, {"fusion_lat": 0.0, "name": "f0626fd122cd2e5a04cfa6d5b02c358f", "lon": -77.02625633333334, "rental_uris": {"android": "https://dc.lft.to/lastmile_qr_scan", "ios": "https://dc.lft.to/lastmile_qr_scan"}, "fusion_lon": 0.0, "bike_id": "f0626fd122cd2e5a04cfa6d5b02c358f", "is_disabled": 0, "lat": 38.89214833333333, "is_reserved": 0, "type": "electric_scooter"}, {"fusion_lat": 0.0, "name": "cc52b2fa32c73df0c98c37828c8e6a72", "lon": -77.01344566666667, "rental_uris": {"android": "https://dc.lft.to/lastmile_qr_scan", "ios": "https://dc.lft.to/lastmile_qr_scan"}, "fusion_lon": 0.0, "bike_id": "cc52b2fa32c73df0c98c37828c8e6a72", "is_disabled": 0, "lat": 38.87813933333334, "is_reserved": 0, "type": "electric_scooter"}, {"fusion_lat": 0.0, "name": "06ce9115ad3af3e4febb6ea0ea68d785", "lon": -77.02770733333334, "rental_uris": {"android": "https://dc.lft.to/lastmile_qr_scan", "ios": "https://dc.lft.to/lastmile_qr_scan"}, "fusion_lon": 0.0, "bike_id": "06ce9115ad3af3e4febb6ea0ea68d785", "is_disabled": 0, "lat": 38.8919965, "is_reserved": 0, "type": "electric_scooter"}, {"fusion_lat": 0.0, "name": "2d59ca1292a693b93c82c1b6ed5bb2b2", "lon": -77.02384816666667, "rental_uris": {"android": "https://dc.lft.to/lastmile_qr_scan", "ios": "https://dc.lft.to/lastmile_qr_scan"}, "fusion_lon": 0.0, "bike_id": "2d59ca1292a693b93c82c1b6ed5bb2b2", "is_disabled": 0, "lat": 38.903715, "is_reserved": 0, "type": "electric_scooter"}, {"fusion_lat": 0.0, "name": "6a9387625b8b69563e12df3fcfb2ba1e", "lon": -77.05489516666667, "rental_uris": {"android": "https://dc.lft.to/lastmile_qr_scan", "ios": "https://dc.lft.to/lastmile_qr_scan"}, "fusion_lon": 0.0, "bike_id": "6a9387625b8b69563e12df3fcfb2ba1e", "is_disabled": 0, "lat": 39.0147595, "is_reserved": 0, "type": "electric_bike"}, {"fusion_lat": 0.0, "name": "de05867b67e8c9e03ee3530ddd755169", "lon": -76.9819715, "rental_uris": {"android": "https://dc.lft.to/lastmile_qr_scan", "ios": "https://dc.lft.to/lastmile_qr_scan"}, "fusion_lon": 0.0, "bike_id": "de05867b67e8c9e03ee3530ddd755169", "is_disabled": 0, "lat": 38.9673975, "is_reserved": 0, "type": "electric_bike"}, {"fusion_lat": 0.0, "name": "c7538e3eb8b0fb357a795f84cbfb94d1", "lon": -77.04707516666667, "rental_uris": {"android": "https://dc.lft.to/lastmile_qr_scan", "ios": "https://dc.lft.to/lastmile_qr_scan"}, "fusion_lon": 0.0, "bike_id": "c7538e3eb8b0fb357a795f84cbfb94d1", "is_disabled": 0, "lat": 38.91265533333333, "is_reserved": 0, "type": "electric_scooter"}, {"fusion_lat": 0.0, "name": "5cf16ec5305d5345d45764143e2d9cac", "lon": -76.99977733333333, "rental_uris": {"android": "https://dc.lft.to/lastmile_qr_scan", "ios": "https://dc.lft.to/lastmile_qr_scan"}, "fusion_lon": 0.0, "bike_id": "5cf16ec5305d5345d45764143e2d9cac", "is_disabled": 0, "lat": 38.9533915, "is_reserved": 0, "type": "electric_scooter"}, {"fusion_lat": 0.0, "name": "6772d147e07ab457479d2d0e0d7b240f", "lon": -77.08176716666667, "rental_uris": {"android": "https://dc.lft.to/lastmile_qr_scan", "ios": "https://dc.lft.to/lastmile_qr_scan"}, "fusion_lon": 0.0, "bike_id": "6772d147e07ab457479d2d0e0d7b240f", "is_disabled": 0, "lat": 38.88870216666667, "is_reserved": 0, "type": "electric_bike"}, {"fusion_lat": 0.0, "name": "eef200b51157a9da45b9b71fee3541b6", "lon": -77.03185266666667, "rental_uris": {"android": "https://dc.lft.to/lastmile_qr_scan", "ios": "https://dc.lft.to/lastmile_qr_scan"}, "fusion_lon": 0.0, "bike_id": "eef200b51157a9da45b9b71fee3541b6", "is_disabled": 0, "lat": 38.90944966666667, "is_reserved": 0, "type": "electric_scooter"}, {"fusion_lat": 0.0, "name": "5112d1141d7881cd60588b3e1a69ff77", "lon": -77.0118865, "rental_uris": {"android": "https://dc.lft.to/lastmile_qr_scan", "ios": "https://dc.lft.to/lastmile_qr_scan"}, "fusion_lon": 0.0, "bike_id": "5112d1141d7881cd60588b3e1a69ff77", "is_disabled": 0, "lat": 38.90020533333333, "is_reserved": 0, "type": "electric_scooter"}, {"fusion_lat": 0.0, "name": "e32220c9991bc2cd09a0d5c1cae2f0b1", "lon": -77.03078383333333, "rental_uris": {"android": "https://dc.lft.to/lastmile_qr_scan", "ios": "https://dc.lft.to/lastmile_qr_scan"}, "fusion_lon": 0.0, "bike_id": "e32220c9991bc2cd09a0d5c1cae2f0b1", "is_disabled": 0, "lat": 38.92241033333333, "is_reserved": 0, "type": "electric_scooter"}, {"fusion_lat": 0.0, "name": "e6cd0abbd1e33f6900e6cf752fc72c26", "lon": -77.03079233333334, "rental_uris": {"android": "https://dc.lft.to/lastmile_qr_scan", "ios": "https://dc.lft.to/lastmile_qr_scan"}, "fusion_lon": 0.0, "bike_id": "e6cd0abbd1e33f6900e6cf752fc72c26", "is_disabled": 0, "lat": 38.88036066666667, "is_reserved": 0, "type": "electric_scooter"}, {"fusion_lat": 0.0, "name": "d1f10c659233bed85e21fbb6f4ad1bc1", "lon": -77.09588933333333, "rental_uris": {"android": "https://dc.lft.to/lastmile_qr_scan", "ios": "https://dc.lft.to/lastmile_qr_scan"}, "fusion_lon": 0.0, "bike_id": "d1f10c659233bed85e21fbb6f4ad1bc1", "is_disabled": 0, "lat": 38.980857666666665, "is_reserved": 0, "type": "electric_bike"}, {"fusion_lat": 0.0, "name": "8bd3c0a6785724b56f560fece3cdaea8", "lon": -77.0572595, "rental_uris": {"android": "https://dc.lft.to/lastmile_qr_scan", "ios": "https://dc.lft.to/lastmile_qr_scan"}, "fusion_lon": 0.0, "bike_id": "8bd3c0a6785724b56f560fece3cdaea8", "is_disabled": 0, "lat": 38.93360233333333, "is_reserved": 0, "type": "electric_scooter"}, {"fusion_lat": 0.0, "name": "a3298537c2a91a6ad981a65a93c78c23", "lon": -77.02264366666667, "rental_uris": {"android": "https://dc.lft.to/lastmile_qr_scan", "ios": "https://dc.lft.to/lastmile_qr_scan"}, "fusion_lon": 0.0, "bike_id": "a3298537c2a91a6ad981a65a93c78c23", "is_disabled": 0, "lat": 38.9267665, "is_reserved": 0, "type": "electric_scooter"}, {"fusion_lat": 0.0, "name": "7d55247430af07c311557a88213080ba", "lon": -76.9557975, "rental_uris": {"android": "https://dc.lft.to/lastmile_qr_scan", "ios": "https://dc.lft.to/lastmile_qr_scan"}, "fusion_lon": 0.0, "bike_id": "7d55247430af07c311557a88213080ba", "is_disabled": 0, "lat": 38.8876345, "is_reserved": 0, "type": "electric_scooter"}, {"fusion_lat": 0.0, "name": "dbf0ed1e2a105239f2b18cb044f844b2", "lon": -77.03851316666666, "rental_uris": {"android": "https://dc.lft.to/lastmile_qr_scan", "ios": "https://dc.lft.to/lastmile_qr_scan"}, "fusion_lon": 0.0, "bike_id": "dbf0ed1e2a105239f2b18cb044f844b2", "is_disabled": 0, "lat": 38.91662133333333, "is_reserved": 0, "type": "electric_scooter"}, {"fusion_lat": 0.0, "name": "c94e948491b2fc1f149be0d08f651366", "lon": -77.04391016666666, "rental_uris": {"android": "https://dc.lft.to/lastmile_qr_scan", "ios": "https://dc.lft.to/lastmile_qr_scan"}, "fusion_lon": 0.0, "bike_id": "c94e948491b2fc1f149be0d08f651366", "is_disabled": 0, "lat": 39.047149833333336, "is_reserved": 0, "type": "electric_bike"}, {"fusion_lat": 0.0, "name": "ce3630e86b2685807959d924965cbfee", "lon": -77.02974133333333, "rental_uris": {"android": "https://dc.lft.to/lastmile_qr_scan", "ios": "https://dc.lft.to/lastmile_qr_scan"}, "fusion_lon": 0.0, "bike_id": "ce3630e86b2685807959d924965cbfee", "is_disabled": 0, "lat": 38.91723983333333, "is_reserved": 0, "type": "electric_scooter"}, {"fusion_lat": 0.0, "name": "7f7c54682678e74f6682072378056f83", "lon": -77.02532166666667, "rental_uris": {"android": "https://dc.lft.to/lastmile_qr_scan", "ios": "https://dc.lft.to/lastmile_qr_scan"}, "fusion_lon": 0.0, "bike_id": "7f7c54682678e74f6682072378056f83", "is_disabled": 0, "lat": 38.941806166666666, "is_reserved": 0, "type": "electric_scooter"}, {"fusion_lat": 0.0, "name": "540886a82b7f9069c2b0a1bd114b0f0c", "lon": -77.05824233333334, "rental_uris": {"android": "https://dc.lft.to/lastmile_qr_scan", "ios": "https://dc.lft.to/lastmile_qr_scan"}, "fusion_lon": 0.0, "bike_id": "540886a82b7f9069c2b0a1bd114b0f0c", "is_disabled": 0, "lat": 38.935423166666666, "is_reserved": 0, "type": "electric_scooter"}, {"fusion_lat": 0.0, "name": "594c708c24305cf086524060d211bfc6", "lon": -76.98550183333333, "rental_uris": {"android": "https://dc.lft.to/lastmile_qr_scan", "ios": "https://dc.lft.to/lastmile_qr_scan"}, "fusion_lon": 0.0, "bike_id": "594c708c24305cf086524060d211bfc6", "is_disabled": 0, "lat": 38.92015883333333, "is_reserved": 0, "type": "electric_scooter"}, {"fusion_lat": 0.0, "name": "88d6a3e6afe7dc96a0250b5e61def92c", "lon": -77.0215505, "rental_uris": {"android": "https://dc.lft.to/lastmile_qr_scan", "ios": "https://dc.lft.to/lastmile_qr_scan"}, "fusion_lon": 0.0, "bike_id": "88d6a3e6afe7dc96a0250b5e61def92c", "is_disabled": 0, "lat": 38.92600216666666, "is_reserved": 0, "type": "electric_scooter"}, {"fusion_lat": 0.0, "name": "de87ddf130e36b3885086689cfbabd0b", "lon": -77.03216783333333, "rental_uris": {"android": "https://dc.lft.to/lastmile_qr_scan", "ios": "https://dc.lft.to/lastmile_qr_scan"}, "fusion_lon": 0.0, "bike_id": "de87ddf130e36b3885086689cfbabd0b", "is_disabled": 0, "lat": 38.892184666666665, "is_reserved": 0, "type": "electric_scooter"}, {"fusion_lat": 0.0, "name": "d5760729858cc7491d461d1a75eb4be8", "lon": -77.00951733333333, "rental_uris": {"android": "https://dc.lft.to/lastmile_qr_scan", "ios": "https://dc.lft.to/lastmile_qr_scan"}, "fusion_lon": 0.0, "bike_id": "d5760729858cc7491d461d1a75eb4be8", "is_disabled": 0, "lat": 38.894947333333334, "is_reserved": 0, "type": "electric_scooter"}, {"fusion_lat": 0.0, "name": "64c517604b09823df88f4b6e958f9eec", "lon": -77.0440085, "rental_uris": {"android": "https://dc.lft.to/lastmile_qr_scan", "ios": "https://dc.lft.to/lastmile_qr_scan"}, "fusion_lon": 0.0, "bike_id": "64c517604b09823df88f4b6e958f9eec", "is_disabled": 0, "lat": 38.909348666666666, "is_reserved": 0, "type": "electric_scooter"}, {"fusion_lat": 0.0, "name": "0de8db7f2eeddd259de49debf7b38c17", "lon": -77.02843266666666, "rental_uris": {"android": "https://dc.lft.to/lastmile_qr_scan", "ios": "https://dc.lft.to/lastmile_qr_scan"}, "fusion_lon": 0.0, "bike_id": "0de8db7f2eeddd259de49debf7b38c17", "is_disabled": 0, "lat": 38.925741333333335, "is_reserved": 0, "type": "electric_scooter"}, {"fusion_lat": 0.0, "name": "104ec088fcc4a8eef43c84924cc9aab8", "lon": -77.03307633333333, "rental_uris": {"android": "https://dc.lft.to/lastmile_qr_scan", "ios": "https://dc.lft.to/lastmile_qr_scan"}, "fusion_lon": 0.0, "bike_id": "104ec088fcc4a8eef43c84924cc9aab8", "is_disabled": 0, "lat": 38.9264935, "is_reserved": 0, "type": "electric_scooter"}, {"fusion_lat": 0.0, "name": "cefa1f37a9682c442ae9e12997b68079", "lon": -77.05543066666667, "rental_uris": {"android": "https://dc.lft.to/lastmile_qr_scan", "ios": "https://dc.lft.to/lastmile_qr_scan"}, "fusion_lon": 0.0, "bike_id": "cefa1f37a9682c442ae9e12997b68079", "is_disabled": 0, "lat": 38.9300185, "is_reserved": 0, "type": "electric_scooter"}, {"fusion_lat": 0.0, "name": "28228bc98580154df97ee9403efb53f7", "lon": -77.02769783333333, "rental_uris": {"android": "https://dc.lft.to/lastmile_qr_scan", "ios": "https://dc.lft.to/lastmile_qr_scan"}, "fusion_lon": 0.0, "bike_id": "28228bc98580154df97ee9403efb53f7", "is_disabled": 0, "lat": 38.934587666666665, "is_reserved": 0, "type": "electric_scooter"}, {"fusion_lat": 0.0, "name": "16206a323190df6526284aa05e512dcd", "lon": -77.02451416666666, "rental_uris": {"android": "https://dc.lft.to/lastmile_qr_scan", "ios": "https://dc.lft.to/lastmile_qr_scan"}, "fusion_lon": 0.0, "bike_id": "16206a323190df6526284aa05e512dcd", "is_disabled": 0, "lat": 38.914079, "is_reserved": 0, "type": "electric_scooter"}, {"fusion_lat": 0.0, "name": "231ee2c69e59352a6b3c4d45141cf980", "lon": -77.03211016666667, "rental_uris": {"android": "https://dc.lft.to/lastmile_qr_scan", "ios": "https://dc.lft.to/lastmile_qr_scan"}, "fusion_lon": 0.0, "bike_id": "231ee2c69e59352a6b3c4d45141cf980", "is_disabled": 0, "lat": 38.8927405, "is_reserved": 0, "type": "electric_scooter"}, {"fusion_lat": 0.0, "name": "64f3cf702defdfe7a659f4830ad51d8b", "lon": -77.0221245, "rental_uris": {"android": "https://dc.lft.to/lastmile_qr_scan", "ios": "https://dc.lft.to/lastmile_qr_scan"}, "fusion_lon": 0.0, "bike_id": "64f3cf702defdfe7a659f4830ad51d8b", "is_disabled": 0, "lat": 38.887090666666666, "is_reserved": 0, "type": "electric_scooter"}, {"fusion_lat": 0.0, "name": "5d8e6974ae44c75c630e81a5786d820a", "lon": -76.98309083333334, "rental_uris": {"android": "https://dc.lft.to/lastmile_qr_scan", "ios": "https://dc.lft.to/lastmile_qr_scan"}, "fusion_lon": 0.0, "bike_id": "5d8e6974ae44c75c630e81a5786d820a", "is_disabled": 0, "lat": 38.9466835, "is_reserved": 0, "type": "electric_bike"}, {"fusion_lat": 0.0, "name": "811d2b1ab8ae6e32de4f51654083fc17", "lon": -77.03502983333334, "rental_uris": {"android": "https://dc.lft.to/lastmile_qr_scan", "ios": "https://dc.lft.to/lastmile_qr_scan"}, "fusion_lon": 0.0, "bike_id": "811d2b1ab8ae6e32de4f51654083fc17", "is_disabled": 0, "lat": 38.91182416666667, "is_reserved": 0, "type": "electric_scooter"}, {"fusion_lat": 0.0, "name": "bd63e7488b420c94ae881dc5cab1d646", "lon": -77.10131216666667, "rental_uris": {"android": "https://dc.lft.to/lastmile_qr_scan", "ios": "https://dc.lft.to/lastmile_qr_scan"}, "fusion_lon": 0.0, "bike_id": "bd63e7488b420c94ae881dc5cab1d646", "is_disabled": 0, "lat": 38.8520275, "is_reserved": 0, "type": "electric_bike"}, {"fusion_lat": 0.0, "name": "5bb52b5eb7f98ac60b7739a33991fafd", "lon": -77.0325885, "rental_uris": {"android": "https://dc.lft.to/lastmile_qr_scan", "ios": "https://dc.lft.to/lastmile_qr_scan"}, "fusion_lon": 0.0, "bike_id": "5bb52b5eb7f98ac60b7739a33991fafd", "is_disabled": 0, "lat": 38.91031066666667, "is_reserved": 0, "type": "electric_scooter"}, {"fusion_lat": 0.0, "name": "471269c69d3a7af4157c8b4c81586732", "lon": -76.949932, "rental_uris": {"android": "https://dc.lft.to/lastmile_qr_scan", "ios": "https://dc.lft.to/lastmile_qr_scan"}, "fusion_lon": 0.0, "bike_id": "471269c69d3a7af4157c8b4c81586732", "is_disabled": 0, "lat": 38.893623833333336, "is_reserved": 0, "type": "electric_scooter"}, {"fusion_lat": 0.0, "name": "3974e83ecc9d86105ff04bf3a36e4413", "lon": -76.93368333333333, "rental_uris": {"android": "https://dc.lft.to/lastmile_qr_scan", "ios": "https://dc.lft.to/lastmile_qr_scan"}, "fusion_lon": 0.0, "bike_id": "3974e83ecc9d86105ff04bf3a36e4413", "is_disabled": 0, "lat": 38.89913883333333, "is_reserved": 0, "type": "electric_scooter"}, {"fusion_lat": 0.0, "name": "1f08ab1023a6cd1eca504ef7aefd94ab", "lon": -76.98547966666666, "rental_uris": {"android": "https://dc.lft.to/lastmile_qr_scan", "ios": "https://dc.lft.to/lastmile_qr_scan"}, "fusion_lon": 0.0, "bike_id": "1f08ab1023a6cd1eca504ef7aefd94ab", "is_disabled": 0, "lat": 38.866937166666666, "is_reserved": 0, "type": "electric_scooter"}, {"fusion_lat": 0.0, "name": "ebcbc9b2547cd89b3a2329f42f9a0aeb", "lon": -77.03686216666667, "rental_uris": {"android": "https://dc.lft.to/lastmile_qr_scan", "ios": "https://dc.lft.to/lastmile_qr_scan"}, "fusion_lon": 0.0, "bike_id": "ebcbc9b2547cd89b3a2329f42f9a0aeb", "is_disabled": 0, "lat": 38.91676233333333, "is_reserved": 0, "type": "electric_scooter"}, {"fusion_lat": 0.0, "name": "b9631eeee325e5fec7dd3ef9316ced30", "lon": -77.02748766666667, "rental_uris": {"android": "https://dc.lft.to/lastmile_qr_scan", "ios": "https://dc.lft.to/lastmile_qr_scan"}, "fusion_lon": 0.0, "bike_id": "b9631eeee325e5fec7dd3ef9316ced30", "is_disabled": 0, "lat": 38.94175033333333, "is_reserved": 0, "type": "electric_scooter"}, {"fusion_lat": 0.0, "name": "564cf0c1d47d45a66841a857c11286c8", "lon": -77.05339066666667, "rental_uris": {"android": "https://dc.lft.to/lastmile_qr_scan", "ios": "https://dc.lft.to/lastmile_qr_scan"}, "fusion_lon": 0.0, "bike_id": "564cf0c1d47d45a66841a857c11286c8", "is_disabled": 0, "lat": 38.904127833333334, "is_reserved": 0, "type": "electric_scooter"}, {"fusion_lat": 0.0, "name": "d59e95af08d1c48d661a17ede3cb5095", "lon": -77.00333516666667, "rental_uris": {"android": "https://dc.lft.to/lastmile_qr_scan", "ios": "https://dc.lft.to/lastmile_qr_scan"}, "fusion_lon": 0.0, "bike_id": "d59e95af08d1c48d661a17ede3cb5095", "is_disabled": 0, "lat": 38.8935395, "is_reserved": 0, "type": "electric_scooter"}, {"fusion_lat": 0.0, "name": "cd82ca771e8a94f2b73fc1a29d7748c5", "lon": -77.04358316666666, "rental_uris": {"android": "https://dc.lft.to/lastmile_qr_scan", "ios": "https://dc.lft.to/lastmile_qr_scan"}, "fusion_lon": 0.0, "bike_id": "cd82ca771e8a94f2b73fc1a29d7748c5", "is_disabled": 0, "lat": 38.89237333333333, "is_reserved": 0, "type": "electric_scooter"}, {"fusion_lat": 0.0, "name": "d01b1d7a9d8ba08d68547abbb9ea4d2c", "lon": -77.04508483333333, "rental_uris": {"android": "https://dc.lft.to/lastmile_qr_scan", "ios": "https://dc.lft.to/lastmile_qr_scan"}, "fusion_lon": 0.0, "bike_id": "d01b1d7a9d8ba08d68547abbb9ea4d2c", "is_disabled": 0, "lat": 38.9195145, "is_reserved": 0, "type": "electric_bike"}, {"fusion_lat": 0.0, "name": "6666d96dab9771af171914e23dab727f", "lon": -77.02723466666667, "rental_uris": {"android": "https://dc.lft.to/lastmile_qr_scan", "ios": "https://dc.lft.to/lastmile_qr_scan"}, "fusion_lon": 0.0, "bike_id": "6666d96dab9771af171914e23dab727f", "is_disabled": 0, "lat": 38.940827166666665, "is_reserved": 0, "type": "electric_scooter"}, {"fusion_lat": 0.0, "name": "0c0a8c8ec52fd4944d273628345765c1", "lon": -77.00609066666667, "rental_uris": {"android": "https://dc.lft.to/lastmile_qr_scan", "ios": "https://dc.lft.to/lastmile_qr_scan"}, "fusion_lon": 0.0, "bike_id": "0c0a8c8ec52fd4944d273628345765c1", "is_disabled": 0, "lat": 38.8717785, "is_reserved": 0, "type": "electric_scooter"}, {"fusion_lat": 0.0, "name": "7177d465e42b00b3a7dc3473f2113a9e", "lon": -77.03295483333333, "rental_uris": {"android": "https://dc.lft.to/lastmile_qr_scan", "ios": "https://dc.lft.to/lastmile_qr_scan"}, "fusion_lon": 0.0, "bike_id": "7177d465e42b00b3a7dc3473f2113a9e", "is_disabled": 0, "lat": 38.9350685, "is_reserved": 0, "type": "electric_scooter"}, {"fusion_lat": 0.0, "name": "70d922691443d8bfaab482a1c419f157", "lon": -77.02050466666667, "rental_uris": {"android": "https://dc.lft.to/lastmile_qr_scan", "ios": "https://dc.lft.to/lastmile_qr_scan"}, "fusion_lon": 0.0, "bike_id": "70d922691443d8bfaab482a1c419f157", "is_disabled": 0, "lat": 38.915555833333336, "is_reserved": 0, "type": "electric_scooter"}, {"fusion_lat": 0.0, "name": "14e26b3026dbdb8380d99cb715e775a4", "lon": -76.9805005, "rental_uris": {"android": "https://dc.lft.to/lastmile_qr_scan", "ios": "https://dc.lft.to/lastmile_qr_scan"}, "fusion_lon": 0.0, "bike_id": "14e26b3026dbdb8380d99cb715e775a4", "is_disabled": 0, "lat": 38.90254816666667, "is_reserved": 0, "type": "electric_scooter"}, {"fusion_lat": 0.0, "name": "73b495914cbb3b59b91cd85c92d73ac5", "lon": -77.03059766666667, "rental_uris": {"android": "https://dc.lft.to/lastmile_qr_scan", "ios": "https://dc.lft.to/lastmile_qr_scan"}, "fusion_lon": 0.0, "bike_id": "73b495914cbb3b59b91cd85c92d73ac5", "is_disabled": 0, "lat": 38.91692033333333, "is_reserved": 0, "type": "electric_scooter"}, {"fusion_lat": 0.0, "name": "4213e2e20c8a297411f8759e78be8006", "lon": -76.975433, "rental_uris": {"android": "https://dc.lft.to/lastmile_qr_scan", "ios": "https://dc.lft.to/lastmile_qr_scan"}, "fusion_lon": 0.0, "bike_id": "4213e2e20c8a297411f8759e78be8006", "is_disabled": 0, "lat": 38.90326666666667, "is_reserved": 0, "type": "electric_bike"}, {"fusion_lat": 0.0, "name": "437a14e1bfd8c475811ef4b92c4fd28d", "lon": -77.09103716666667, "rental_uris": {"android": "https://dc.lft.to/lastmile_qr_scan", "ios": "https://dc.lft.to/lastmile_qr_scan"}, "fusion_lon": 0.0, "bike_id": "437a14e1bfd8c475811ef4b92c4fd28d", "is_disabled": 0, "lat": 38.941512333333336, "is_reserved": 0, "type": "electric_scooter"}, {"fusion_lat": 0.0, "name": "ce166c500c6dd334d20de8002ce83eb5", "lon": -76.98079766666666, "rental_uris": {"android": "https://dc.lft.to/lastmile_qr_scan", "ios": "https://dc.lft.to/lastmile_qr_scan"}, "fusion_lon": 0.0, "bike_id": "ce166c500c6dd334d20de8002ce83eb5", "is_disabled": 0, "lat": 38.919491666666666, "is_reserved": 0, "type": "electric_scooter"}, {"fusion_lat": 0.0, "name": "1b2134e2b0ae489d6003088ddae67dc0", "lon": -76.93022633333334, "rental_uris": {"android": "https://dc.lft.to/lastmile_qr_scan", "ios": "https://dc.lft.to/lastmile_qr_scan"}, "fusion_lon": 0.0, "bike_id": "1b2134e2b0ae489d6003088ddae67dc0", "is_disabled": 0, "lat": 38.901646666666664, "is_reserved": 0, "type": "electric_scooter"}, {"fusion_lat": 0.0, "name": "3899b209db9369638ad7d85bcdf8d25b", "lon": -77.0591815, "rental_uris": {"android": "https://dc.lft.to/lastmile_qr_scan", "ios": "https://dc.lft.to/lastmile_qr_scan"}, "fusion_lon": 0.0, "bike_id": "3899b209db9369638ad7d85bcdf8d25b", "is_disabled": 0, "lat": 38.905514, "is_reserved": 0, "type": "electric_scooter"}, {"fusion_lat": 0.0, "name": "5abfee6a5883d1394b7f5c7e0630da93", "lon": -76.92883933333333, "rental_uris": {"android": "https://dc.lft.to/lastmile_qr_scan", "ios": "https://dc.lft.to/lastmile_qr_scan"}, "fusion_lon": 0.0, "bike_id": "5abfee6a5883d1394b7f5c7e0630da93", "is_disabled": 0, "lat": 38.97837533333333, "is_reserved": 0, "type": "electric_bike"}, {"fusion_lat": 0.0, "name": "f8363bf793ef4ef855aec65f872806ca", "lon": -77.036645, "rental_uris": {"android": "https://dc.lft.to/lastmile_qr_scan", "ios": "https://dc.lft.to/lastmile_qr_scan"}, "fusion_lon": 0.0, "bike_id": "f8363bf793ef4ef855aec65f872806ca", "is_disabled": 0, "lat": 38.90275583333333, "is_reserved": 0, "type": "electric_scooter"}, {"fusion_lat": 0.0, "name": "e3ee01ea7d562553b44797dca1671947", "lon": -77.04214316666666, "rental_uris": {"android": "https://dc.lft.to/lastmile_qr_scan", "ios": "https://dc.lft.to/lastmile_qr_scan"}, "fusion_lon": 0.0, "bike_id": "e3ee01ea7d562553b44797dca1671947", "is_disabled": 0, "lat": 38.911182, "is_reserved": 0, "type": "electric_scooter"}, {"fusion_lat": 0.0, "name": "aae05894ec07c143b06e65273872096e", "lon": -76.930066, "rental_uris": {"android": "https://dc.lft.to/lastmile_qr_scan", "ios": "https://dc.lft.to/lastmile_qr_scan"}, "fusion_lon": 0.0, "bike_id": "aae05894ec07c143b06e65273872096e", "is_disabled": 0, "lat": 38.896521666666665, "is_reserved": 0, "type": "electric_bike"}, {"fusion_lat": 0.0, "name": "d6583509427464f84281ee15546edf1d", "lon": -77.03447083333333, "rental_uris": {"android": "https://dc.lft.to/lastmile_qr_scan", "ios": "https://dc.lft.to/lastmile_qr_scan"}, "fusion_lon": 0.0, "bike_id": "d6583509427464f84281ee15546edf1d", "is_disabled": 0, "lat": 38.91819016666667, "is_reserved": 0, "type": "electric_scooter"}, {"fusion_lat": 0.0, "name": "830be5c5de8f35eb79a2c8b1744f8945", "lon": -77.08025966666666, "rental_uris": {"android": "https://dc.lft.to/lastmile_qr_scan", "ios": "https://dc.lft.to/lastmile_qr_scan"}, "fusion_lon": 0.0, "bike_id": "830be5c5de8f35eb79a2c8b1744f8945", "is_disabled": 0, "lat": 38.950574333333336, "is_reserved": 0, "type": "electric_scooter"}, {"fusion_lat": 0.0, "name": "f8aaaf7ea6b4778c6f9a27bcedb64d79", "lon": -77.04368883333333, "rental_uris": {"android": "https://dc.lft.to/lastmile_qr_scan", "ios": "https://dc.lft.to/lastmile_qr_scan"}, "fusion_lon": 0.0, "bike_id": "f8aaaf7ea6b4778c6f9a27bcedb64d79", "is_disabled": 0, "lat": 38.922350333333334, "is_reserved": 0, "type": "electric_scooter"}, {"fusion_lat": 0.0, "name": "13c02af04f74ce8662aabc983ad6552d", "lon": -77.04531233333333, "rental_uris": {"android": "https://dc.lft.to/lastmile_qr_scan", "ios": "https://dc.lft.to/lastmile_qr_scan"}, "fusion_lon": 0.0, "bike_id": "13c02af04f74ce8662aabc983ad6552d", "is_disabled": 0, "lat": 38.9132705, "is_reserved": 0, "type": "electric_scooter"}, {"fusion_lat": 0.0, "name": "61dca496587a7623edc910ac5d3e5b3f", "lon": -76.98235616666666, "rental_uris": {"android": "https://dc.lft.to/lastmile_qr_scan", "ios": "https://dc.lft.to/lastmile_qr_scan"}, "fusion_lon": 0.0, "bike_id": "61dca496587a7623edc910ac5d3e5b3f", "is_disabled": 0, "lat": 38.864649, "is_reserved": 0, "type": "electric_scooter"}, {"fusion_lat": 0.0, "name": "3dc70db96630e073872f6dba53d738d1", "lon": -77.02708633333333, "rental_uris": {"android": "https://dc.lft.to/lastmile_qr_scan", "ios": "https://dc.lft.to/lastmile_qr_scan"}, "fusion_lon": 0.0, "bike_id": "3dc70db96630e073872f6dba53d738d1", "is_disabled": 0, "lat": 38.94984383333333, "is_reserved": 0, "type": "electric_scooter"}, {"fusion_lat": 0.0, "name": "ada50ff500508ef653e956661697f031", "lon": -77.118315, "rental_uris": {"android": "https://dc.lft.to/lastmile_qr_scan", "ios": "https://dc.lft.to/lastmile_qr_scan"}, "fusion_lon": 0.0, "bike_id": "ada50ff500508ef653e956661697f031", "is_disabled": 0, "lat": 38.859347, "is_reserved": 0, "type": "electric_bike"}, {"fusion_lat": 0.0, "name": "b2cd676d9be629145afa1da1d4769c85", "lon": -77.0221125, "rental_uris": {"android": "https://dc.lft.to/lastmile_qr_scan", "ios": "https://dc.lft.to/lastmile_qr_scan"}, "fusion_lon": 0.0, "bike_id": "b2cd676d9be629145afa1da1d4769c85", "is_disabled": 0, "lat": 38.887072333333336, "is_reserved": 0, "type": "electric_scooter"}, {"fusion_lat": 0.0, "name": "e3003c5c1579927310f6f1a95869abbd", "lon": -77.04249, "rental_uris": {"android": "https://dc.lft.to/lastmile_qr_scan", "ios": "https://dc.lft.to/lastmile_qr_scan"}, "fusion_lon": 0.0, "bike_id": "e3003c5c1579927310f6f1a95869abbd", "is_disabled": 0, "lat": 38.92237383333333, "is_reserved": 0, "type": "electric_scooter"}, {"fusion_lat": 0.0, "name": "2def67368ef9baac579ae04aa5b16a92", "lon": -76.93384166666667, "rental_uris": {"android": "https://dc.lft.to/lastmile_qr_scan", "ios": "https://dc.lft.to/lastmile_qr_scan"}, "fusion_lon": 0.0, "bike_id": "2def67368ef9baac579ae04aa5b16a92", "is_disabled": 0, "lat": 38.899157, "is_reserved": 0, "type": "electric_scooter"}, {"fusion_lat": 0.0, "name": "0a47d4d909b3109d4906a12d19cc519a", "lon": -77.01268, "rental_uris": {"android": "https://dc.lft.to/lastmile_qr_scan", "ios": "https://dc.lft.to/lastmile_qr_scan"}, "fusion_lon": 0.0, "bike_id": "0a47d4d909b3109d4906a12d19cc519a", "is_disabled": 0, "lat": 38.897388666666664, "is_reserved": 0, "type": "electric_scooter"}, {"fusion_lat": 0.0, "name": "06a7b553e3d4090e4e9b69742944904e", "lon": -77.04759583333333, "rental_uris": {"android": "https://dc.lft.to/lastmile_qr_scan", "ios": "https://dc.lft.to/lastmile_qr_scan"}, "fusion_lon": 0.0, "bike_id": "06a7b553e3d4090e4e9b69742944904e", "is_disabled": 0, "lat": 38.90084316666667, "is_reserved": 0, "type": "electric_scooter"}, {"fusion_lat": 0.0, "name": "f6816176a8bcb0f59468839d9d3aaf8c", "lon": -77.04109533333333, "rental_uris": {"android": "https://dc.lft.to/lastmile_qr_scan", "ios": "https://dc.lft.to/lastmile_qr_scan"}, "fusion_lon": 0.0, "bike_id": "f6816176a8bcb0f59468839d9d3aaf8c", "is_disabled": 0, "lat": 38.924484166666666, "is_reserved": 0, "type": "electric_scooter"}, {"fusion_lat": 0.0, "name": "b587042fa5b2105b8c39d4c1d0f6fed9", "lon": -77.0399895, "rental_uris": {"android": "https://dc.lft.to/lastmile_qr_scan", "ios": "https://dc.lft.to/lastmile_qr_scan"}, "fusion_lon": 0.0, "bike_id": "b587042fa5b2105b8c39d4c1d0f6fed9", "is_disabled": 0, "lat": 38.888719, "is_reserved": 0, "type": "electric_scooter"}, {"fusion_lat": 0.0, "name": "db9b37da9d4df891aeda1cd9ea34ff67", "lon": -76.93385016666667, "rental_uris": {"android": "https://dc.lft.to/lastmile_qr_scan", "ios": "https://dc.lft.to/lastmile_qr_scan"}, "fusion_lon": 0.0, "bike_id": "db9b37da9d4df891aeda1cd9ea34ff67", "is_disabled": 0, "lat": 38.899162, "is_reserved": 0, "type": "electric_scooter"}, {"fusion_lat": 0.0, "name": "f8b11e7238de595b8438833e8118757f", "lon": -77.03156383333334, "rental_uris": {"android": "https://dc.lft.to/lastmile_qr_scan", "ios": "https://dc.lft.to/lastmile_qr_scan"}, "fusion_lon": 0.0, "bike_id": "f8b11e7238de595b8438833e8118757f", "is_disabled": 0, "lat": 38.9135605, "is_reserved": 0, "type": "electric_scooter"}, {"fusion_lat": 0.0, "name": "5056928e392fb478169ba823f44f7063", "lon": -76.978659, "rental_uris": {"android": "https://dc.lft.to/lastmile_qr_scan", "ios": "https://dc.lft.to/lastmile_qr_scan"}, "fusion_lon": 0.0, "bike_id": "5056928e392fb478169ba823f44f7063", "is_disabled": 0, "lat": 38.88305183333333, "is_reserved": 0, "type": "electric_scooter"}, {"fusion_lat": 0.0, "name": "ca0a3f409e4f8c659d76315dadb1ab55", "lon": -77.02327533333333, "rental_uris": {"android": "https://dc.lft.to/lastmile_qr_scan", "ios": "https://dc.lft.to/lastmile_qr_scan"}, "fusion_lon": 0.0, "bike_id": "ca0a3f409e4f8c659d76315dadb1ab55", "is_disabled": 0, "lat": 38.9167125, "is_reserved": 0, "type": "electric_scooter"}, {"fusion_lat": 0.0, "name": "9e1c59af9bec42917dad53dc562fe4c7", "lon": -77.0466175, "rental_uris": {"android": "https://dc.lft.to/lastmile_qr_scan", "ios": "https://dc.lft.to/lastmile_qr_scan"}, "fusion_lon": 0.0, "bike_id": "9e1c59af9bec42917dad53dc562fe4c7", "is_disabled": 0, "lat": 38.89248716666667, "is_reserved": 0, "type": "electric_scooter"}, {"fusion_lat": 0.0, "name": "ccea96a0c5b415deaa010c56049b5f44", "lon": -77.03670216666667, "rental_uris": {"android": "https://dc.lft.to/lastmile_qr_scan", "ios": "https://dc.lft.to/lastmile_qr_scan"}, "fusion_lon": 0.0, "bike_id": "ccea96a0c5b415deaa010c56049b5f44", "is_disabled": 0, "lat": 38.92117116666667, "is_reserved": 0, "type": "electric_scooter"}, {"fusion_lat": 0.0, "name": "d9dbca12e467973075d943ce96cbcdfd", "lon": -77.02345516666666, "rental_uris": {"android": "https://dc.lft.to/lastmile_qr_scan", "ios": "https://dc.lft.to/lastmile_qr_scan"}, "fusion_lon": 0.0, "bike_id": "d9dbca12e467973075d943ce96cbcdfd", "is_disabled": 0, "lat": 38.8922175, "is_reserved": 0, "type": "electric_scooter"}, {"fusion_lat": 0.0, "name": "5e0dcecd0af0590075737c3fe90ac15d", "lon": -77.02981333333334, "rental_uris": {"android": "https://dc.lft.to/lastmile_qr_scan", "ios": "https://dc.lft.to/lastmile_qr_scan"}, "fusion_lon": 0.0, "bike_id": "5e0dcecd0af0590075737c3fe90ac15d", "is_disabled": 0, "lat": 38.93981083333333, "is_reserved": 0, "type": "electric_scooter"}, {"fusion_lat": 0.0, "name": "53e0f9d5254d28309741f59cff0f36b7", "lon": -77.05499016666667, "rental_uris": {"android": "https://dc.lft.to/lastmile_qr_scan", "ios": "https://dc.lft.to/lastmile_qr_scan"}, "fusion_lon": 0.0, "bike_id": "53e0f9d5254d28309741f59cff0f36b7", "is_disabled": 0, "lat": 38.929604, "is_reserved": 0, "type": "electric_scooter"}, {"fusion_lat": 0.0, "name": "167a3db9ee09cb1795649ed944150aef", "lon": -77.04980366666666, "rental_uris": {"android": "https://dc.lft.to/lastmile_qr_scan", "ios": "https://dc.lft.to/lastmile_qr_scan"}, "fusion_lon": 0.0, "bike_id": "167a3db9ee09cb1795649ed944150aef", "is_disabled": 0, "lat": 39.06292883333333, "is_reserved": 0, "type": "electric_bike"}, {"fusion_lat": 0.0, "name": "7aea082fc978347d484516690d2c7e06", "lon": -77.02212783333333, "rental_uris": {"android": "https://dc.lft.to/lastmile_qr_scan", "ios": "https://dc.lft.to/lastmile_qr_scan"}, "fusion_lon": 0.0, "bike_id": "7aea082fc978347d484516690d2c7e06", "is_disabled": 0, "lat": 38.9246875, "is_reserved": 0, "type": "electric_scooter"}, {"fusion_lat": 0.0, "name": "2cab2feb4a4835943c52df8c5234f7d2", "lon": -77.032626, "rental_uris": {"android": "https://dc.lft.to/lastmile_qr_scan", "ios": "https://dc.lft.to/lastmile_qr_scan"}, "fusion_lon": 0.0, "bike_id": "2cab2feb4a4835943c52df8c5234f7d2", "is_disabled": 0, "lat": 38.9209715, "is_reserved": 0, "type": "electric_scooter"}, {"fusion_lat": 0.0, "name": "25a27fef74d53e9307e0deea5af02967", "lon": -77.04419666666666, "rental_uris": {"android": "https://dc.lft.to/lastmile_qr_scan", "ios": "https://dc.lft.to/lastmile_qr_scan"}, "fusion_lon": 0.0, "bike_id": "25a27fef74d53e9307e0deea5af02967", "is_disabled": 0, "lat": 38.909436666666664, "is_reserved": 0, "type": "electric_scooter"}, {"fusion_lat": 0.0, "name": "6b2ab7f94acb9159a0053e9b10ab200b", "lon": -77.0417765, "rental_uris": {"android": "https://dc.lft.to/lastmile_qr_scan", "ios": "https://dc.lft.to/lastmile_qr_scan"}, "fusion_lon": 0.0, "bike_id": "6b2ab7f94acb9159a0053e9b10ab200b", "is_disabled": 0, "lat": 38.91852466666667, "is_reserved": 0, "type": "electric_scooter"}, {"fusion_lat": 0.0, "name": "726d590a88f5a2122f3b48fe65f64d7b", "lon": -77.02565666666666, "rental_uris": {"android": "https://dc.lft.to/lastmile_qr_scan", "ios": "https://dc.lft.to/lastmile_qr_scan"}, "fusion_lon": 0.0, "bike_id": "726d590a88f5a2122f3b48fe65f64d7b", "is_disabled": 0, "lat": 38.938649, "is_reserved": 0, "type": "electric_scooter"}, {"fusion_lat": 0.0, "name": "2843188b1bf6b13b87d9d47d692b55cb", "lon": -77.03977233333333, "rental_uris": {"android": "https://dc.lft.to/lastmile_qr_scan", "ios": "https://dc.lft.to/lastmile_qr_scan"}, "fusion_lon": 0.0, "bike_id": "2843188b1bf6b13b87d9d47d692b55cb", "is_disabled": 0, "lat": 38.904684833333334, "is_reserved": 0, "type": "electric_scooter"}, {"fusion_lat": 0.0, "name": "df1a00f0a8e375d17c6a22aec673d5c6", "lon": -77.0511625, "rental_uris": {"android": "https://dc.lft.to/lastmile_qr_scan", "ios": "https://dc.lft.to/lastmile_qr_scan"}, "fusion_lon": 0.0, "bike_id": "df1a00f0a8e375d17c6a22aec673d5c6", "is_disabled": 0, "lat": 38.9236415, "is_reserved": 0, "type": "electric_scooter"}, {"fusion_lat": 0.0, "name": "fd247664a8ecb9d3e7ca4f073498232c", "lon": -77.13104366666667, "rental_uris": {"android": "https://dc.lft.to/lastmile_qr_scan", "ios": "https://dc.lft.to/lastmile_qr_scan"}, "fusion_lon": 0.0, "bike_id": "fd247664a8ecb9d3e7ca4f073498232c", "is_disabled": 0, "lat": 39.0243045, "is_reserved": 0, "type": "electric_bike"}, {"fusion_lat": 0.0, "name": "a1475b8e907c7727d6ae96a6b77c92f9", "lon": -76.98618366666666, "rental_uris": {"android": "https://dc.lft.to/lastmile_qr_scan", "ios": "https://dc.lft.to/lastmile_qr_scan"}, "fusion_lon": 0.0, "bike_id": "a1475b8e907c7727d6ae96a6b77c92f9", "is_disabled": 0, "lat": 38.93969, "is_reserved": 0, "type": "electric_bike"}, {"fusion_lat": 0.0, "name": "07e1b7a07587fcad6f0dbe5efb6932fc", "lon": -77.0248045, "rental_uris": {"android": "https://dc.lft.to/lastmile_qr_scan", "ios": "https://dc.lft.to/lastmile_qr_scan"}, "fusion_lon": 0.0, "bike_id": "07e1b7a07587fcad6f0dbe5efb6932fc", "is_disabled": 0, "lat": 38.9390155, "is_reserved": 0, "type": "electric_scooter"}, {"fusion_lat": 0.0, "name": "97261bb6975dd50ae04e99ae76745e01", "lon": -77.04569016666666, "rental_uris": {"android": "https://dc.lft.to/lastmile_qr_scan", "ios": "https://dc.lft.to/lastmile_qr_scan"}, "fusion_lon": 0.0, "bike_id": "97261bb6975dd50ae04e99ae76745e01", "is_disabled": 0, "lat": 38.9025225, "is_reserved": 0, "type": "electric_scooter"}, {"fusion_lat": 0.0, "name": "0d79c1323f161793c99a7a3e5906bc19", "lon": -76.9929735, "rental_uris": {"android": "https://dc.lft.to/lastmile_qr_scan", "ios": "https://dc.lft.to/lastmile_qr_scan"}, "fusion_lon": 0.0, "bike_id": "0d79c1323f161793c99a7a3e5906bc19", "is_disabled": 0, "lat": 38.85757366666667, "is_reserved": 0, "type": "electric_scooter"}, {"fusion_lat": 0.0, "name": "9c51a832240b9314fd3cc7d2e1292cff", "lon": -77.0295645, "rental_uris": {"android": "https://dc.lft.to/lastmile_qr_scan", "ios": "https://dc.lft.to/lastmile_qr_scan"}, "fusion_lon": 0.0, "bike_id": "9c51a832240b9314fd3cc7d2e1292cff", "is_disabled": 0, "lat": 38.916736666666665, "is_reserved": 0, "type": "electric_scooter"}, {"fusion_lat": 0.0, "name": "ddb3859e63644fcbc573cbcd218498ca", "lon": -76.991453, "rental_uris": {"android": "https://dc.lft.to/lastmile_qr_scan", "ios": "https://dc.lft.to/lastmile_qr_scan"}, "fusion_lon": 0.0, "bike_id": "ddb3859e63644fcbc573cbcd218498ca", "is_disabled": 0, "lat": 38.88596733333333, "is_reserved": 0, "type": "electric_scooter"}, {"fusion_lat": 0.0, "name": "01f471315b8ea904476f5ab4177a2c4a", "lon": -77.0294095, "rental_uris": {"android": "https://dc.lft.to/lastmile_qr_scan", "ios": "https://dc.lft.to/lastmile_qr_scan"}, "fusion_lon": 0.0, "bike_id": "01f471315b8ea904476f5ab4177a2c4a", "is_disabled": 0, "lat": 38.939746166666666, "is_reserved": 0, "type": "electric_scooter"}, {"fusion_lat": 0.0, "name": "12d8add58ff8fa5242d438ffa4c57125", "lon": -77.24557366666667, "rental_uris": {"android": "https://dc.lft.to/lastmile_qr_scan", "ios": "https://dc.lft.to/lastmile_qr_scan"}, "fusion_lon": 0.0, "bike_id": "12d8add58ff8fa5242d438ffa4c57125", "is_disabled": 0, "lat": 38.882374666666664, "is_reserved": 0, "type": "electric_bike"}, {"fusion_lat": 0.0, "name": "aca4b2542e0ccb2e57c0295a8b22b6f2", "lon": -77.0413565, "rental_uris": {"android": "https://dc.lft.to/lastmile_qr_scan", "ios": "https://dc.lft.to/lastmile_qr_scan"},