{"data": {"bikes": [{"is_reserved": 0, "fusion_lon": 0.0, "fusion_lat": 0.0, "name": "5991f61d88ddd26a18ce2c1e04c8a83c", "type": "electric_scooter", "is_disabled": 0, "lat": 38.91981466666667, "rental_uris": {"android": "https://dc.lft.to/lastmile_qr_scan", "ios": "https://dc.lft.to/lastmile_qr_scan"}, "bike_id": "5991f61d88ddd26a18ce2c1e04c8a83c", "lon": -77.03248966666666}, {"is_reserved": 0, "fusion_lon": 0.0, "fusion_lat": 0.0, "name": "2cc8489ed59fab5cb1116e66489ba154", "type": "electric_scooter", "is_disabled": 0, "lat": 38.917599833333334, "rental_uris": {"android": "https://dc.lft.to/lastmile_qr_scan", "ios": "https://dc.lft.to/lastmile_qr_scan"}, "bike_id": "2cc8489ed59fab5cb1116e66489ba154", "lon": -77.04774783333333}, {"is_reserved": 0, "fusion_lon": 0.0, "fusion_lat": 0.0, "name": "080c8ebe15f1373f42de59d51290fc57", "type": "electric_scooter", "is_disabled": 0, "lat": 38.91242866666666, "rental_uris": {"android": "https://dc.lft.to/lastmile_qr_scan", "ios": "https://dc.lft.to/lastmile_qr_scan"}, "bike_id": "080c8ebe15f1373f42de59d51290fc57", "lon": -77.009171}, {"is_reserved": 0, "fusion_lon": 0.0, "fusion_lat": 0.0, "name": "995a261a15e8362b171b11d5b4a8f2d0", "type": "electric_scooter", "is_disabled": 0, "lat": 38.90415866666667, "rental_uris": {"android": "https://dc.lft.to/lastmile_qr_scan", "ios": "https://dc.lft.to/lastmile_qr_scan"}, "bike_id": "995a261a15e8362b171b11d5b4a8f2d0", "lon": -77.0184285}, {"is_reserved": 0, "fusion_lon": 0.0, "fusion_lat": 0.0, "name": "09b48ef4e6f97241ed9379ce2a9397e9", "type": "electric_bike", "is_disabled": 0, "lat": 38.865195166666666, "rental_uris": {"android": "https://dc.lft.to/lastmile_qr_scan", "ios": "https://dc.lft.to/lastmile_qr_scan"}, "bike_id": "09b48ef4e6f97241ed9379ce2a9397e9", "lon": -76.97336533333333}, {"is_reserved": 0, "fusion_lon": 0.0, "fusion_lat": 0.0, "name": "86dc0f1a603317e1535fbd9d5f8a1a5b", "type": "electric_scooter", "is_disabled": 0, "lat": 38.88746016666666, "rental_uris": {"android": "https://dc.lft.to/lastmile_qr_scan", "ios": "https://dc.lft.to/lastmile_qr_scan"}, "bike_id": "86dc0f1a603317e1535fbd9d5f8a1a5b", "lon": -77.0273495}, {"is_reserved": 0, "fusion_lon": 0.0, "fusion_lat": 0.0, "name": "69392be9e1a2974b90725f9db16f4f7d", "type": "electric_bike", "is_disabled": 0, "lat": 38.86582116666666, "rental_uris": {"android": "https://dc.lft.to/lastmile_qr_scan", "ios": "https://dc.lft.to/lastmile_qr_scan"}, "bike_id": "69392be9e1a2974b90725f9db16f4f7d", "lon": -77.04761733333333}, {"is_reserved": 0, "fusion_lon": 0.0, "fusion_lat": 0.0, "name": "5db01f8055f08a0c2a1a61bf80767fb1", "type": "electric_scooter", "is_disabled": 0, "lat": 38.91876216666667, "rental_uris": {"android": "https://dc.lft.to/lastmile_qr_scan", "ios": "https://dc.lft.to/lastmile_qr_scan"}, "bike_id": "5db01f8055f08a0c2a1a61bf80767fb1", "lon": -77.04198083333333}, {"is_reserved": 0, "fusion_lon": 0.0, "fusion_lat": 0.0, "name": "28adb539c21e9076fc59964447914485", "type": "electric_scooter", "is_disabled": 0, "lat": 38.939579333333334, "rental_uris": {"android": "https://dc.lft.to/lastmile_qr_scan", "ios": "https://dc.lft.to/lastmile_qr_scan"}, "bike_id": "28adb539c21e9076fc59964447914485", "lon": -77.07252883333334}, {"is_reserved": 0, "fusion_lon": 0.0, "fusion_lat": 0.0, "name": "433737654d591ed78e734bf29b0dcd02", "type": "electric_scooter", "is_disabled": 0, "lat": 38.865053833333334, "rental_uris": {"android": "https://dc.lft.to/lastmile_qr_scan", "ios": "https://dc.lft.to/lastmile_qr_scan"}, "bike_id": "433737654d591ed78e734bf29b0dcd02", "lon": -76.99003216666667}, {"is_reserved": 0, "fusion_lon": 0.0, "fusion_lat": 0.0, "name": "59ac50292d79039d7b7727701027aa4d", "type": "electric_scooter", "is_disabled": 0, "lat": 38.939063166666664, "rental_uris": {"android": "https://dc.lft.to/lastmile_qr_scan", "ios": "https://dc.lft.to/lastmile_qr_scan"}, "bike_id": "59ac50292d79039d7b7727701027aa4d", "lon": -77.02475683333333}, {"is_reserved": 0, "fusion_lon": 0.0, "fusion_lat": 0.0, "name": "851dba426876ed9923bf8c963411a32e", "type": "electric_scooter", "is_disabled": 0, "lat": 38.912726166666666, "rental_uris": {"android": "https://dc.lft.to/lastmile_qr_scan", "ios": "https://dc.lft.to/lastmile_qr_scan"}, "bike_id": "851dba426876ed9923bf8c963411a32e", "lon": -77.03123483333333}, {"is_reserved": 0, "fusion_lon": 0.0, "fusion_lat": 0.0, "name": "0ce75888adc25e6de081865bc1a834cf", "type": "electric_scooter", "is_disabled": 0, "lat": 38.938648, "rental_uris": {"android": "https://dc.lft.to/lastmile_qr_scan", "ios": "https://dc.lft.to/lastmile_qr_scan"}, "bike_id": "0ce75888adc25e6de081865bc1a834cf", "lon": -77.02649433333333}, {"is_reserved": 0, "fusion_lon": 0.0, "fusion_lat": 0.0, "name": "edd9fd97c965de2241b17251c7fbd8e7", "type": "electric_scooter", "is_disabled": 0, "lat": 38.9363495, "rental_uris": {"android": "https://dc.lft.to/lastmile_qr_scan", "ios": "https://dc.lft.to/lastmile_qr_scan"}, "bike_id": "edd9fd97c965de2241b17251c7fbd8e7", "lon": -77.03653}, {"is_reserved": 0, "fusion_lon": 0.0, "fusion_lat": 0.0, "name": "46a6a3416ea8b36d713aeb80129b15ca", "type": "electric_scooter", "is_disabled": 0, "lat": 38.929210833333336, "rental_uris": {"android": "https://dc.lft.to/lastmile_qr_scan", "ios": "https://dc.lft.to/lastmile_qr_scan"}, "bike_id": "46a6a3416ea8b36d713aeb80129b15ca", "lon": -77.03749}, {"is_reserved": 0, "fusion_lon": 0.0, "fusion_lat": 0.0, "name": "b717b72b1b289d69e3da5dcef197b7a7", "type": "electric_scooter", "is_disabled": 0, "lat": 38.9114, "rental_uris": {"android": "https://dc.lft.to/lastmile_qr_scan", "ios": "https://dc.lft.to/lastmile_qr_scan"}, "bike_id": "b717b72b1b289d69e3da5dcef197b7a7", "lon": -77.03204833333334}, {"is_reserved": 0, "fusion_lon": 0.0, "fusion_lat": 0.0, "name": "716bd208ab7a5436a60ff761a3cb8f67", "type": "electric_scooter", "is_disabled": 0, "lat": 38.942007833333335, "rental_uris": {"android": "https://dc.lft.to/lastmile_qr_scan", "ios": "https://dc.lft.to/lastmile_qr_scan"}, "bike_id": "716bd208ab7a5436a60ff761a3cb8f67", "lon": -77.02505716666667}, {"is_reserved": 0, "fusion_lon": 0.0, "fusion_lat": 0.0, "name": "1fe811825e35307f03051992ca266c00", "type": "electric_scooter", "is_disabled": 0, "lat": 38.95629433333333, "rental_uris": {"android": "https://dc.lft.to/lastmile_qr_scan", "ios": "https://dc.lft.to/lastmile_qr_scan"}, "bike_id": "1fe811825e35307f03051992ca266c00", "lon": -77.02455983333333}, {"is_reserved": 0, "fusion_lon": 0.0, "fusion_lat": 0.0, "name": "2805e28389b625ab769805e45419ac54", "type": "electric_scooter", "is_disabled": 0, "lat": 38.91798083333333, "rental_uris": {"android": "https://dc.lft.to/lastmile_qr_scan", "ios": "https://dc.lft.to/lastmile_qr_scan"}, "bike_id": "2805e28389b625ab769805e45419ac54", "lon": -77.042725}, {"is_reserved": 0, "fusion_lon": 0.0, "fusion_lat": 0.0, "name": "d59f40a6088c9e709598d1d69618222c", "type": "electric_scooter", "is_disabled": 0, "lat": 38.93576083333333, "rental_uris": {"android": "https://dc.lft.to/lastmile_qr_scan", "ios": "https://dc.lft.to/lastmile_qr_scan"}, "bike_id": "d59f40a6088c9e709598d1d69618222c", "lon": -77.02124733333333}, {"is_reserved": 0, "fusion_lon": 0.0, "fusion_lat": 0.0, "name": "a340e84fdec53d58ee59bed85cf0dcd4", "type": "electric_scooter", "is_disabled": 0, "lat": 38.88722633333333, "rental_uris": {"android": "https://dc.lft.to/lastmile_qr_scan", "ios": "https://dc.lft.to/lastmile_qr_scan"}, "bike_id": "a340e84fdec53d58ee59bed85cf0dcd4", "lon": -77.02202166666666}, {"is_reserved": 0, "fusion_lon": 0.0, "fusion_lat": 0.0, "name": "9b52c4c470768a2815fdfa965377ce1a", "type": "electric_scooter", "is_disabled": 0, "lat": 38.919251333333335, "rental_uris": {"android": "https://dc.lft.to/lastmile_qr_scan", "ios": "https://dc.lft.to/lastmile_qr_scan"}, "bike_id": "9b52c4c470768a2815fdfa965377ce1a", "lon": -77.0461755}, {"is_reserved": 0, "fusion_lon": 0.0, "fusion_lat": 0.0, "name": "3d62256a2c531254b225e068e04c4bc6", "type": "electric_scooter", "is_disabled": 0, "lat": 38.89975966666667, "rental_uris": {"android": "https://dc.lft.to/lastmile_qr_scan", "ios": "https://dc.lft.to/lastmile_qr_scan"}, "bike_id": "3d62256a2c531254b225e068e04c4bc6", "lon": -76.93265766666667}, {"is_reserved": 0, "fusion_lon": 0.0, "fusion_lat": 0.0, "name": "3e0c513e0de4dceb9914ee741110cda6", "type": "electric_scooter", "is_disabled": 0, "lat": 38.89795983333333, "rental_uris": {"android": "https://dc.lft.to/lastmile_qr_scan", "ios": "https://dc.lft.to/lastmile_qr_scan"}, "bike_id": "3e0c513e0de4dceb9914ee741110cda6", "lon": -77.04486166666666}, {"is_reserved": 0, "fusion_lon": 0.0, "fusion_lat": 0.0, "name": "9beaf4f249fdd23aff072ee322473570", "type": "electric_bike", "is_disabled": 0, "lat": 38.8520875, "rental_uris": {"android": "https://dc.lft.to/lastmile_qr_scan", "ios": "https://dc.lft.to/lastmile_qr_scan"}, "bike_id": "9beaf4f249fdd23aff072ee322473570", "lon": -77.10128666666667}, {"is_reserved": 0, "fusion_lon": 0.0, "fusion_lat": 0.0, "name": "e1e363c81beb1834d2f822e1948242ce", "type": "electric_scooter", "is_disabled": 0, "lat": 38.899158166666666, "rental_uris": {"android": "https://dc.lft.to/lastmile_qr_scan", "ios": "https://dc.lft.to/lastmile_qr_scan"}, "bike_id": "e1e363c81beb1834d2f822e1948242ce", "lon": -76.9336655}, {"is_reserved": 0, "fusion_lon": 0.0, "fusion_lat": 0.0, "name": "3b8482c298e51f792f3bd34cccf9781e", "type": "electric_bike", "is_disabled": 0, "lat": 38.946796166666665, "rental_uris": {"android": "https://dc.lft.to/lastmile_qr_scan", "ios": "https://dc.lft.to/lastmile_qr_scan"}, "bike_id": "3b8482c298e51f792f3bd34cccf9781e", "lon": -76.98309683333333}, {"is_reserved": 0, "fusion_lon": 0.0, "fusion_lat": 0.0, "name": "fcb8fefbb7ebbbb95774bbb11db4a33a", "type": "electric_scooter", "is_disabled": 0, "lat": 38.917705833333336, "rental_uris": {"android": "https://dc.lft.to/lastmile_qr_scan", "ios": "https://dc.lft.to/lastmile_qr_scan"}, "bike_id": "fcb8fefbb7ebbbb95774bbb11db4a33a", "lon": -77.02340166666667}, {"is_reserved": 0, "fusion_lon": 0.0, "fusion_lat": 0.0, "name": "e080d74b23a361d048f9a9b9dd026081", "type": "electric_scooter", "is_disabled": 0, "lat": 38.9171445, "rental_uris": {"android": "https://dc.lft.to/lastmile_qr_scan", "ios": "https://dc.lft.to/lastmile_qr_scan"}, "bike_id": "e080d74b23a361d048f9a9b9dd026081", "lon": -77.0386005}, {"is_reserved": 0, "fusion_lon": 0.0, "fusion_lat": 0.0, "name": "f66ba77aa289ee6fa5d117539c7d24bc", "type": "electric_scooter", "is_disabled": 0, "lat": 38.90565983333333, "rental_uris": {"android": "https://dc.lft.to/lastmile_qr_scan", "ios": "https://dc.lft.to/lastmile_qr_scan"}, "bike_id": "f66ba77aa289ee6fa5d117539c7d24bc", "lon": -77.02757966666667}, {"is_reserved": 0, "fusion_lon": 0.0, "fusion_lat": 0.0, "name": "e825c34471c07f34246874e2426a7005", "type": "electric_scooter", "is_disabled": 0, "lat": 38.89222933333333, "rental_uris": {"android": "https://dc.lft.to/lastmile_qr_scan", "ios": "https://dc.lft.to/lastmile_qr_scan"}, "bike_id": "e825c34471c07f34246874e2426a7005", "lon": -77.02179566666666}, {"is_reserved": 0, "fusion_lon": 0.0, "fusion_lat": 0.0, "name": "20ee4948a9bb292c93e53c0d11ecc4e4", "type": "electric_scooter", "is_disabled": 0, "lat": 38.922660666666665, "rental_uris": {"android": "https://dc.lft.to/lastmile_qr_scan", "ios": "https://dc.lft.to/lastmile_qr_scan"}, "bike_id": "20ee4948a9bb292c93e53c0d11ecc4e4", "lon": -77.022438}, {"is_reserved": 0, "fusion_lon": 0.0, "fusion_lat": 0.0, "name": "23dbe0b4af8ee75dfb3b31639bcc3add", "type": "electric_scooter", "is_disabled": 0, "lat": 38.92331183333334, "rental_uris": {"android": "https://dc.lft.to/lastmile_qr_scan", "ios": "https://dc.lft.to/lastmile_qr_scan"}, "bike_id": "23dbe0b4af8ee75dfb3b31639bcc3add", "lon": -77.0195445}, {"is_reserved": 0, "fusion_lon": 0.0, "fusion_lat": 0.0, "name": "49c8cf1a00f26ccf8c03b97db1dfac2d", "type": "electric_scooter", "is_disabled": 0, "lat": 38.91184633333334, "rental_uris": {"android": "https://dc.lft.to/lastmile_qr_scan", "ios": "https://dc.lft.to/lastmile_qr_scan"}, "bike_id": "49c8cf1a00f26ccf8c03b97db1dfac2d", "lon": -77.04341216666667}, {"is_reserved": 0, "fusion_lon": 0.0, "fusion_lat": 0.0, "name": "b5f720ce95fcfbbdb5579d4d03a6a30c", "type": "electric_scooter", "is_disabled": 0, "lat": 38.90723166666667, "rental_uris": {"android": "https://dc.lft.to/lastmile_qr_scan", "ios": "https://dc.lft.to/lastmile_qr_scan"}, "bike_id": "b5f720ce95fcfbbdb5579d4d03a6a30c", "lon": -77.04080233333333}, {"is_reserved": 0, "fusion_lon": 0.0, "fusion_lat": 0.0, "name": "71b8b29f305bd762ab20ea5a8e9668c1", "type": "electric_scooter", "is_disabled": 0, "lat": 38.919701333333336, "rental_uris": {"android": "https://dc.lft.to/lastmile_qr_scan", "ios": "https://dc.lft.to/lastmile_qr_scan"}, "bike_id": "71b8b29f305bd762ab20ea5a8e9668c1", "lon": -77.033287}, {"is_reserved": 0, "fusion_lon": 0.0, "fusion_lat": 0.0, "name": "d944c29adb16987a6796534af1c08da1", "type": "electric_scooter", "is_disabled": 0, "lat": 38.865534333333336, "rental_uris": {"android": "https://dc.lft.to/lastmile_qr_scan", "ios": "https://dc.lft.to/lastmile_qr_scan"}, "bike_id": "d944c29adb16987a6796534af1c08da1", "lon": -76.98877883333333}, {"is_reserved": 0, "fusion_lon": 0.0, "fusion_lat": 0.0, "name": "87aec5d93bf694799ed950c4b52ea785", "type": "electric_scooter", "is_disabled": 0, "lat": 38.8922765, "rental_uris": {"android": "https://dc.lft.to/lastmile_qr_scan", "ios": "https://dc.lft.to/lastmile_qr_scan"}, "bike_id": "87aec5d93bf694799ed950c4b52ea785", "lon": -77.03191533333333}, {"is_reserved": 0, "fusion_lon": 0.0, "fusion_lat": 0.0, "name": "f249dfada020fafaf72c74550158ec32", "type": "electric_scooter", "is_disabled": 0, "lat": 38.90564583333333, "rental_uris": {"android": "https://dc.lft.to/lastmile_qr_scan", "ios": "https://dc.lft.to/lastmile_qr_scan"}, "bike_id": "f249dfada020fafaf72c74550158ec32", "lon": -77.0249515}, {"is_reserved": 0, "fusion_lon": 0.0, "fusion_lat": 0.0, "name": "42f10dd21db988805cfddebd359408be", "type": "electric_scooter", "is_disabled": 0, "lat": 38.88507933333333, "rental_uris": {"android": "https://dc.lft.to/lastmile_qr_scan", "ios": "https://dc.lft.to/lastmile_qr_scan"}, "bike_id": "42f10dd21db988805cfddebd359408be", "lon": -77.0202475}, {"is_reserved": 0, "fusion_lon": 0.0, "fusion_lat": 0.0, "name": "c4b4da1499c246da6be27bbb9c28e4aa", "type": "electric_scooter", "is_disabled": 0, "lat": 38.929288666666665, "rental_uris": {"android": "https://dc.lft.to/lastmile_qr_scan", "ios": "https://dc.lft.to/lastmile_qr_scan"}, "bike_id": "c4b4da1499c246da6be27bbb9c28e4aa", "lon": -77.0233595}, {"is_reserved": 0, "fusion_lon": 0.0, "fusion_lat": 0.0, "name": "5d32d353c8aaaeb1210a7a250bae2b14", "type": "electric_scooter", "is_disabled": 0, "lat": 38.942054, "rental_uris": {"android": "https://dc.lft.to/lastmile_qr_scan", "ios": "https://dc.lft.to/lastmile_qr_scan"}, "bike_id": "5d32d353c8aaaeb1210a7a250bae2b14", "lon": -77.02515016666666}, {"is_reserved": 0, "fusion_lon": 0.0, "fusion_lat": 0.0, "name": "2a3e410eeb8f718a406aa0a5ad6eaada", "type": "electric_scooter", "is_disabled": 0, "lat": 38.922264, "rental_uris": {"android": "https://dc.lft.to/lastmile_qr_scan", "ios": "https://dc.lft.to/lastmile_qr_scan"}, "bike_id": "2a3e410eeb8f718a406aa0a5ad6eaada", "lon": -77.04237966666666}, {"is_reserved": 0, "fusion_lon": 0.0, "fusion_lat": 0.0, "name": "6221c1bdfd8d389032592b3277ea85c9", "type": "electric_scooter", "is_disabled": 0, "lat": 38.930188666666666, "rental_uris": {"android": "https://dc.lft.to/lastmile_qr_scan", "ios": "https://dc.lft.to/lastmile_qr_scan"}, "bike_id": "6221c1bdfd8d389032592b3277ea85c9", "lon": -77.05523066666667}, {"is_reserved": 0, "fusion_lon": 0.0, "fusion_lat": 0.0, "name": "ddb093c30c01c5a7c899356de8832b70", "type": "electric_scooter", "is_disabled": 0, "lat": 38.8999145, "rental_uris": {"android": "https://dc.lft.to/lastmile_qr_scan", "ios": "https://dc.lft.to/lastmile_qr_scan"}, "bike_id": "ddb093c30c01c5a7c899356de8832b70", "lon": -77.031817}, {"is_reserved": 0, "fusion_lon": 0.0, "fusion_lat": 0.0, "name": "e76d4b5cfc3a25078a60b557531e5b29", "type": "electric_scooter", "is_disabled": 0, "lat": 38.866602666666665, "rental_uris": {"android": "https://dc.lft.to/lastmile_qr_scan", "ios": "https://dc.lft.to/lastmile_qr_scan"}, "bike_id": "e76d4b5cfc3a25078a60b557531e5b29", "lon": -76.98512316666667}, {"is_reserved": 0, "fusion_lon": 0.0, "fusion_lat": 0.0, "name": "6b9bdcc17529a7da1d15b835bd085d85", "type": "electric_scooter", "is_disabled": 0, "lat": 38.86660366666667, "rental_uris": {"android": "https://dc.lft.to/lastmile_qr_scan", "ios": "https://dc.lft.to/lastmile_qr_scan"}, "bike_id": "6b9bdcc17529a7da1d15b835bd085d85", "lon": -76.98880433333333}, {"is_reserved": 0, "fusion_lon": 0.0, "fusion_lat": 0.0, "name": "4d0fc746045b0c64487c7985cb252f3d", "type": "electric_bike", "is_disabled": 0, "lat": 38.84562366666667, "rental_uris": {"android": "https://dc.lft.to/lastmile_qr_scan", "ios": "https://dc.lft.to/lastmile_qr_scan"}, "bike_id": "4d0fc746045b0c64487c7985cb252f3d", "lon": -77.066933}, {"is_reserved": 0, "fusion_lon": 0.0, "fusion_lat": 0.0, "name": "8f1302572f8b5058ddf65f26254116a9", "type": "electric_bike", "is_disabled": 0, "lat": 38.993483166666664, "rental_uris": {"android": "https://dc.lft.to/lastmile_qr_scan", "ios": "https://dc.lft.to/lastmile_qr_scan"}, "bike_id": "8f1302572f8b5058ddf65f26254116a9", "lon": -77.11577233333334}, {"is_reserved": 0, "fusion_lon": 0.0, "fusion_lat": 0.0, "name": "c44d14160f758d3d8a13d6b835e72086", "type": "electric_scooter", "is_disabled": 0, "lat": 38.914257166666665, "rental_uris": {"android": "https://dc.lft.to/lastmile_qr_scan", "ios": "https://dc.lft.to/lastmile_qr_scan"}, "bike_id": "c44d14160f758d3d8a13d6b835e72086", "lon": -77.03208966666666}, {"is_reserved": 0, "fusion_lon": 0.0, "fusion_lat": 0.0, "name": "fff97e9c40411264ef08f08a0afb90a3", "type": "electric_scooter", "is_disabled": 0, "lat": 38.904091666666666, "rental_uris": {"android": "https://dc.lft.to/lastmile_qr_scan", "ios": "https://dc.lft.to/lastmile_qr_scan"}, "bike_id": "fff97e9c40411264ef08f08a0afb90a3", "lon": -77.04056783333333}, {"is_reserved": 0, "fusion_lon": 0.0, "fusion_lat": 0.0, "name": "e581aa40d5391a6c1589ffe1b1555950", "type": "electric_scooter", "is_disabled": 0, "lat": 38.906241666666666, "rental_uris": {"android": "https://dc.lft.to/lastmile_qr_scan", "ios": "https://dc.lft.to/lastmile_qr_scan"}, "bike_id": "e581aa40d5391a6c1589ffe1b1555950", "lon": -77.039649}, {"is_reserved": 0, "fusion_lon": 0.0, "fusion_lat": 0.0, "name": "186c9241a8ac199a57808c4d05a1cafd", "type": "electric_scooter", "is_disabled": 0, "lat": 38.899614, "rental_uris": {"android": "https://dc.lft.to/lastmile_qr_scan", "ios": "https://dc.lft.to/lastmile_qr_scan"}, "bike_id": "186c9241a8ac199a57808c4d05a1cafd", "lon": -77.05152883333334}, {"is_reserved": 0, "fusion_lon": 0.0, "fusion_lat": 0.0, "name": "f41889bf8a3ef769169811374c0ec8d5", "type": "electric_scooter", "is_disabled": 0, "lat": 38.909491333333335, "rental_uris": {"android": "https://dc.lft.to/lastmile_qr_scan", "ios": "https://dc.lft.to/lastmile_qr_scan"}, "bike_id": "f41889bf8a3ef769169811374c0ec8d5", "lon": -77.0425745}, {"is_reserved": 0, "fusion_lon": 0.0, "fusion_lat": 0.0, "name": "5a21a1c7fe0148b4fd5d928e733c16cd", "type": "electric_scooter", "is_disabled": 0, "lat": 38.91364866666667, "rental_uris": {"android": "https://dc.lft.to/lastmile_qr_scan", "ios": "https://dc.lft.to/lastmile_qr_scan"}, "bike_id": "5a21a1c7fe0148b4fd5d928e733c16cd", "lon": -77.01986366666667}, {"is_reserved": 0, "fusion_lon": 0.0, "fusion_lat": 0.0, "name": "dfdbb14fdff6bfbef2b703d044341951", "type": "electric_scooter", "is_disabled": 0, "lat": 38.91683483333333, "rental_uris": {"android": "https://dc.lft.to/lastmile_qr_scan", "ios": "https://dc.lft.to/lastmile_qr_scan"}, "bike_id": "dfdbb14fdff6bfbef2b703d044341951", "lon": -77.0322935}, {"is_reserved": 0, "fusion_lon": 0.0, "fusion_lat": 0.0, "name": "73b8ed89b833c0e13f00b1d09b44f157", "type": "electric_scooter", "is_disabled": 0, "lat": 38.90451483333333, "rental_uris": {"android": "https://dc.lft.to/lastmile_qr_scan", "ios": "https://dc.lft.to/lastmile_qr_scan"}, "bike_id": "73b8ed89b833c0e13f00b1d09b44f157", "lon": -77.0450185}, {"is_reserved": 0, "fusion_lon": 0.0, "fusion_lat": 0.0, "name": "26240eaf2a79a2d5b43300b205e71b0d", "type": "electric_scooter", "is_disabled": 0, "lat": 38.88605883333334, "rental_uris": {"android": "https://dc.lft.to/lastmile_qr_scan", "ios": "https://dc.lft.to/lastmile_qr_scan"}, "bike_id": "26240eaf2a79a2d5b43300b205e71b0d", "lon": -76.99097716666667}, {"is_reserved": 0, "fusion_lon": 0.0, "fusion_lat": 0.0, "name": "4efb8ae6ead8a57a05bd8ea095949f76", "type": "electric_scooter", "is_disabled": 0, "lat": 38.911446166666664, "rental_uris": {"android": "https://dc.lft.to/lastmile_qr_scan", "ios": "https://dc.lft.to/lastmile_qr_scan"}, "bike_id": "4efb8ae6ead8a57a05bd8ea095949f76", "lon": -77.00466016666667}, {"is_reserved": 0, "fusion_lon": 0.0, "fusion_lat": 0.0, "name": "70a029010d3825218f88dad5dc901db4", "type": "electric_scooter", "is_disabled": 0, "lat": 38.91553183333333, "rental_uris": {"android": "https://dc.lft.to/lastmile_qr_scan", "ios": "https://dc.lft.to/lastmile_qr_scan"}, "bike_id": "70a029010d3825218f88dad5dc901db4", "lon": -77.05314133333333}, {"is_reserved": 0, "fusion_lon": 0.0, "fusion_lat": 0.0, "name": "956d22ad1991985a3b93040b778d536d", "type": "electric_scooter", "is_disabled": 0, "lat": 38.8764305, "rental_uris": {"android": "https://dc.lft.to/lastmile_qr_scan", "ios": "https://dc.lft.to/lastmile_qr_scan"}, "bike_id": "956d22ad1991985a3b93040b778d536d", "lon": -77.005853}, {"is_reserved": 0, "fusion_lon": 0.0, "fusion_lat": 0.0, "name": "08d3725af350115e01490f4c3ab4435b", "type": "electric_bike", "is_disabled": 0, "lat": 38.973952833333335, "rental_uris": {"android": "https://dc.lft.to/lastmile_qr_scan", "ios": "https://dc.lft.to/lastmile_qr_scan"}, "bike_id": "08d3725af350115e01490f4c3ab4435b", "lon": -77.06453866666666}, {"is_reserved": 0, "fusion_lon": 0.0, "fusion_lat": 0.0, "name": "b70cd30d6cbf3215d92ac19c84816841", "type": "electric_scooter", "is_disabled": 0, "lat": 38.8923285, "rental_uris": {"android": "https://dc.lft.to/lastmile_qr_scan", "ios": "https://dc.lft.to/lastmile_qr_scan"}, "bike_id": "b70cd30d6cbf3215d92ac19c84816841", "lon": -77.02380583333333}, {"is_reserved": 0, "fusion_lon": 0.0, "fusion_lat": 0.0, "name": "2171d51d7bc12a3cd594bd951fc8ee40", "type": "electric_scooter", "is_disabled": 0, "lat": 38.907301833333335, "rental_uris": {"android": "https://dc.lft.to/lastmile_qr_scan", "ios": "https://dc.lft.to/lastmile_qr_scan"}, "bike_id": "2171d51d7bc12a3cd594bd951fc8ee40", "lon": -76.932277}, {"is_reserved": 0, "fusion_lon": 0.0, "fusion_lat": 0.0, "name": "82abb6cb328766ae407671d47feff5d0", "type": "electric_bike", "is_disabled": 0, "lat": 38.91138, "rental_uris": {"android": "https://dc.lft.to/lastmile_qr_scan", "ios": "https://dc.lft.to/lastmile_qr_scan"}, "bike_id": "82abb6cb328766ae407671d47feff5d0", "lon": -77.06577316666667}, {"is_reserved": 0, "fusion_lon": 0.0, "fusion_lat": 0.0, "name": "96e0ac88b96f4f27210ea0ad6c23fbae", "type": "electric_scooter", "is_disabled": 0, "lat": 38.914863833333335, "rental_uris": {"android": "https://dc.lft.to/lastmile_qr_scan", "ios": "https://dc.lft.to/lastmile_qr_scan"}, "bike_id": "96e0ac88b96f4f27210ea0ad6c23fbae", "lon": -77.0257955}, {"is_reserved": 0, "fusion_lon": 0.0, "fusion_lat": 0.0, "name": "f4305e79bc0b23479ab02677ad8c2666", "type": "electric_scooter", "is_disabled": 0, "lat": 38.90805816666666, "rental_uris": {"android": "https://dc.lft.to/lastmile_qr_scan", "ios": "https://dc.lft.to/lastmile_qr_scan"}, "bike_id": "f4305e79bc0b23479ab02677ad8c2666", "lon": -76.9873885}, {"is_reserved": 0, "fusion_lon": 0.0, "fusion_lat": 0.0, "name": "5bea9f582c43e753949e4b8121d179d9", "type": "electric_scooter", "is_disabled": 0, "lat": 38.92821133333333, "rental_uris": {"android": "https://dc.lft.to/lastmile_qr_scan", "ios": "https://dc.lft.to/lastmile_qr_scan"}, "bike_id": "5bea9f582c43e753949e4b8121d179d9", "lon": -77.0141335}, {"is_reserved": 0, "fusion_lon": 0.0, "fusion_lat": 0.0, "name": "845b407238c25199d443fef307393c90", "type": "electric_scooter", "is_disabled": 0, "lat": 38.892257, "rental_uris": {"android": "https://dc.lft.to/lastmile_qr_scan", "ios": "https://dc.lft.to/lastmile_qr_scan"}, "bike_id": "845b407238c25199d443fef307393c90", "lon": -77.04338033333333}, {"is_reserved": 0, "fusion_lon": 0.0, "fusion_lat": 0.0, "name": "5415c2c622cfdcb093147ae93f566d54", "type": "electric_scooter", "is_disabled": 0, "lat": 38.903350833333334, "rental_uris": {"android": "https://dc.lft.to/lastmile_qr_scan", "ios": "https://dc.lft.to/lastmile_qr_scan"}, "bike_id": "5415c2c622cfdcb093147ae93f566d54", "lon": -77.04678066666666}, {"is_reserved": 0, "fusion_lon": 0.0, "fusion_lat": 0.0, "name": "2f58af8f303334857d946736065ff9f5", "type": "electric_bike", "is_disabled": 0, "lat": 38.90803233333333, "rental_uris": {"android": "https://dc.lft.to/lastmile_qr_scan", "ios": "https://dc.lft.to/lastmile_qr_scan"}, "bike_id": "2f58af8f303334857d946736065ff9f5", "lon": -77.03205316666667}, {"is_reserved": 0, "fusion_lon": 0.0, "fusion_lat": 0.0, "name": "65397f09f1d8b8ae47e59af8248c0ada", "type": "electric_scooter", "is_disabled": 0, "lat": 38.914298333333335, "rental_uris": {"android": "https://dc.lft.to/lastmile_qr_scan", "ios": "https://dc.lft.to/lastmile_qr_scan"}, "bike_id": "65397f09f1d8b8ae47e59af8248c0ada", "lon": -77.02815883333334}, {"is_reserved": 0, "fusion_lon": 0.0, "fusion_lat": 0.0, "name": "825a7bd81ff6df4386793173fed640f3", "type": "electric_scooter", "is_disabled": 0, "lat": 38.8988815, "rental_uris": {"android": "https://dc.lft.to/lastmile_qr_scan", "ios": "https://dc.lft.to/lastmile_qr_scan"}, "bike_id": "825a7bd81ff6df4386793173fed640f3", "lon": -77.05300083333333}, {"is_reserved": 0, "fusion_lon": 0.0, "fusion_lat": 0.0, "name": "2c7ceaf3a1351d0ecc0af901302be06d", "type": "electric_bike", "is_disabled": 0, "lat": 38.955062833333336, "rental_uris": {"android": "https://dc.lft.to/lastmile_qr_scan", "ios": "https://dc.lft.to/lastmile_qr_scan"}, "bike_id": "2c7ceaf3a1351d0ecc0af901302be06d", "lon": -76.99356783333333}, {"is_reserved": 0, "fusion_lon": 0.0, "fusion_lat": 0.0, "name": "747a098f8fba2faa52cad1ce50098fda", "type": "electric_scooter", "is_disabled": 0, "lat": 38.92488183333333, "rental_uris": {"android": "https://dc.lft.to/lastmile_qr_scan", "ios": "https://dc.lft.to/lastmile_qr_scan"}, "bike_id": "747a098f8fba2faa52cad1ce50098fda", "lon": -77.02698266666667}, {"is_reserved": 0, "fusion_lon": 0.0, "fusion_lat": 0.0, "name": "2f560f942d9993450143ea77c750889a", "type": "electric_scooter", "is_disabled": 0, "lat": 38.8698105, "rental_uris": {"android": "https://dc.lft.to/lastmile_qr_scan", "ios": "https://dc.lft.to/lastmile_qr_scan"}, "bike_id": "2f560f942d9993450143ea77c750889a", "lon": -77.0123435}, {"is_reserved": 0, "fusion_lon": 0.0, "fusion_lat": 0.0, "name": "17612ab2c5e9443154ebfcf3fbf8186c", "type": "electric_scooter", "is_disabled": 0, "lat": 38.919877166666666, "rental_uris": {"android": "https://dc.lft.to/lastmile_qr_scan", "ios": "https://dc.lft.to/lastmile_qr_scan"}, "bike_id": "17612ab2c5e9443154ebfcf3fbf8186c", "lon": -77.0287795}, {"is_reserved": 0, "fusion_lon": 0.0, "fusion_lat": 0.0, "name": "31f3d5ecebffeef83e7a1dc2589f120e", "type": "electric_scooter", "is_disabled": 0, "lat": 38.9420895, "rental_uris": {"android": "https://dc.lft.to/lastmile_qr_scan", "ios": "https://dc.lft.to/lastmile_qr_scan"}, "bike_id": "31f3d5ecebffeef83e7a1dc2589f120e", "lon": -77.02513783333333}, {"is_reserved": 0, "fusion_lon": 0.0, "fusion_lat": 0.0, "name": "0f31c01f0cb5f2578c4e96485105bd18", "type": "electric_scooter", "is_disabled": 0, "lat": 38.9166835, "rental_uris": {"android": "https://dc.lft.to/lastmile_qr_scan", "ios": "https://dc.lft.to/lastmile_qr_scan"}, "bike_id": "0f31c01f0cb5f2578c4e96485105bd18", "lon": -77.04376116666667}, {"is_reserved": 0, "fusion_lon": 0.0, "fusion_lat": 0.0, "name": "91141e0b5eddeca17e7a1d57d44678ca", "type": "electric_scooter", "is_disabled": 0, "lat": 38.9583565, "rental_uris": {"android": "https://dc.lft.to/lastmile_qr_scan", "ios": "https://dc.lft.to/lastmile_qr_scan"}, "bike_id": "91141e0b5eddeca17e7a1d57d44678ca", "lon": -77.01513483333333}, {"is_reserved": 0, "fusion_lon": 0.0, "fusion_lat": 0.0, "name": "68b0e7800e4782b341ad825c04a5a8d8", "type": "electric_bike", "is_disabled": 0, "lat": 39.04237166666667, "rental_uris": {"android": "https://dc.lft.to/lastmile_qr_scan", "ios": "https://dc.lft.to/lastmile_qr_scan"}, "bike_id": "68b0e7800e4782b341ad825c04a5a8d8", "lon": -77.03079566666666}, {"is_reserved": 0, "fusion_lon": 0.0, "fusion_lat": 0.0, "name": "0f22f211322639f2c0068d0ce23ad73a", "type": "electric_scooter", "is_disabled": 0, "lat": 38.89222933333333, "rental_uris": {"android": "https://dc.lft.to/lastmile_qr_scan", "ios": "https://dc.lft.to/lastmile_qr_scan"}, "bike_id": "0f22f211322639f2c0068d0ce23ad73a", "lon": -77.04309283333333}, {"is_reserved": 0, "fusion_lon": 0.0, "fusion_lat": 0.0, "name": "287a4fee8a35f67dab75d09bb5cb48d1", "type": "electric_scooter", "is_disabled": 0, "lat": 38.925267, "rental_uris": {"android": "https://dc.lft.to/lastmile_qr_scan", "ios": "https://dc.lft.to/lastmile_qr_scan"}, "bike_id": "287a4fee8a35f67dab75d09bb5cb48d1", "lon": -77.03847433333334}, {"is_reserved": 0, "fusion_lon": 0.0, "fusion_lat": 0.0, "name": "54f97c0752b17b1197abdbfefd30df3c", "type": "electric_scooter", "is_disabled": 0, "lat": 38.9284965, "rental_uris": {"android": "https://dc.lft.to/lastmile_qr_scan", "ios": "https://dc.lft.to/lastmile_qr_scan"}, "bike_id": "54f97c0752b17b1197abdbfefd30df3c", "lon": -77.03301383333333}, {"is_reserved": 0, "fusion_lon": 0.0, "fusion_lat": 0.0, "name": "ea4d4bb923bde9eeb621fcbdee825334", "type": "electric_scooter", "is_disabled": 0, "lat": 38.876432, "rental_uris": {"android": "https://dc.lft.to/lastmile_qr_scan", "ios": "https://dc.lft.to/lastmile_qr_scan"}, "bike_id": "ea4d4bb923bde9eeb621fcbdee825334", "lon": -76.96506716666667}, {"is_reserved": 0, "fusion_lon": 0.0, "fusion_lat": 0.0, "name": "b26fbde5cebc78bcbc648d4556de6fb8", "type": "electric_scooter", "is_disabled": 0, "lat": 38.91674283333333, "rental_uris": {"android": "https://dc.lft.to/lastmile_qr_scan", "ios": "https://dc.lft.to/lastmile_qr_scan"}, "bike_id": "b26fbde5cebc78bcbc648d4556de6fb8", "lon": -77.02961033333334}, {"is_reserved": 0, "fusion_lon": 0.0, "fusion_lat": 0.0, "name": "8d9f1f24a4f0b53e38a2b49094b4d99a", "type": "electric_scooter", "is_disabled": 0, "lat": 38.909673166666664, "rental_uris": {"android": "https://dc.lft.to/lastmile_qr_scan", "ios": "https://dc.lft.to/lastmile_qr_scan"}, "bike_id": "8d9f1f24a4f0b53e38a2b49094b4d99a", "lon": -77.02082516666667}, {"is_reserved": 0, "fusion_lon": 0.0, "fusion_lat": 0.0, "name": "76fa7d089b065ee324b87cc92f1530b0", "type": "electric_scooter", "is_disabled": 0, "lat": 38.915548666666666, "rental_uris": {"android": "https://dc.lft.to/lastmile_qr_scan", "ios": "https://dc.lft.to/lastmile_qr_scan"}, "bike_id": "76fa7d089b065ee324b87cc92f1530b0", "lon": -77.04187933333333}, {"is_reserved": 0, "fusion_lon": 0.0, "fusion_lat": 0.0, "name": "e2d9b8330671c9c22c551aa6ef792b24", "type": "electric_scooter", "is_disabled": 0, "lat": 38.9144355, "rental_uris": {"android": "https://dc.lft.to/lastmile_qr_scan", "ios": "https://dc.lft.to/lastmile_qr_scan"}, "bike_id": "e2d9b8330671c9c22c551aa6ef792b24", "lon": -77.02043033333334}, {"is_reserved": 0, "fusion_lon": 0.0, "fusion_lat": 0.0, "name": "087f237647b49935019d431f7f39662e", "type": "electric_scooter", "is_disabled": 0, "lat": 38.897481166666665, "rental_uris": {"android": "https://dc.lft.to/lastmile_qr_scan", "ios": "https://dc.lft.to/lastmile_qr_scan"}, "bike_id": "087f237647b49935019d431f7f39662e", "lon": -77.01356716666666}, {"is_reserved": 0, "fusion_lon": 0.0, "fusion_lat": 0.0, "name": "8d402d6bce99f15207d361d15d0440dd", "type": "electric_scooter", "is_disabled": 0, "lat": 38.90771816666667, "rental_uris": {"android": "https://dc.lft.to/lastmile_qr_scan", "ios": "https://dc.lft.to/lastmile_qr_scan"}, "bike_id": "8d402d6bce99f15207d361d15d0440dd", "lon": -76.97826766666667}, {"is_reserved": 0, "fusion_lon": 0.0, "fusion_lat": 0.0, "name": "aabbca7da2f6542b99ec5636ca0d0ee5", "type": "electric_scooter", "is_disabled": 0, "lat": 38.9256615, "rental_uris": {"android": "https://dc.lft.to/lastmile_qr_scan", "ios": "https://dc.lft.to/lastmile_qr_scan"}, "bike_id": "aabbca7da2f6542b99ec5636ca0d0ee5", "lon": -77.03779066666667}, {"is_reserved": 0, "fusion_lon": 0.0, "fusion_lat": 0.0, "name": "c05f35d4bc7dc7b88d527a243b9aaf21", "type": "electric_scooter", "is_disabled": 0, "lat": 38.9169915, "rental_uris": {"android": "https://dc.lft.to/lastmile_qr_scan", "ios": "https://dc.lft.to/lastmile_qr_scan"}, "bike_id": "c05f35d4bc7dc7b88d527a243b9aaf21", "lon": -77.02381916666667}, {"is_reserved": 0, "fusion_lon": 0.0, "fusion_lat": 0.0, "name": "d6ce73ee4e6bfec56fddb316fa75b06c", "type": "electric_scooter", "is_disabled": 0, "lat": 38.888593, "rental_uris": {"android": "https://dc.lft.to/lastmile_qr_scan", "ios": "https://dc.lft.to/lastmile_qr_scan"}, "bike_id": "d6ce73ee4e6bfec56fddb316fa75b06c", "lon": -77.03104916666666}, {"is_reserved": 0, "fusion_lon": 0.0, "fusion_lat": 0.0, "name": "503e4d0e8cc7b5a1b12cd8c1a2c6fe68", "type": "electric_scooter", "is_disabled": 0, "lat": 38.891853833333336, "rental_uris": {"android": "https://dc.lft.to/lastmile_qr_scan", "ios": "https://dc.lft.to/lastmile_qr_scan"}, "bike_id": "503e4d0e8cc7b5a1b12cd8c1a2c6fe68", "lon": -77.0363505}, {"is_reserved": 0, "fusion_lon": 0.0, "fusion_lat": 0.0, "name": "9ceccc672e6744d8cf8e6565064affe9", "type": "electric_scooter", "is_disabled": 0, "lat": 38.89729116666667, "rental_uris": {"android": "https://dc.lft.to/lastmile_qr_scan", "ios": "https://dc.lft.to/lastmile_qr_scan"}, "bike_id": "9ceccc672e6744d8cf8e6565064affe9", "lon": -77.030636}, {"is_reserved": 0, "fusion_lon": 0.0, "fusion_lat": 0.0, "name": "27f78b272c074537e013a216db68c17d", "type": "electric_bike", "is_disabled": 0, "lat": 38.9964075, "rental_uris": {"android": "https://dc.lft.to/lastmile_qr_scan", "ios": "https://dc.lft.to/lastmile_qr_scan"}, "bike_id": "27f78b272c074537e013a216db68c17d", "lon": -77.03993416666667}, {"is_reserved": 0, "fusion_lon": 0.0, "fusion_lat": 0.0, "name": "cd7f0dfa6b8c7b8f9b732b8f8a74a8ef", "type": "electric_scooter", "is_disabled": 0, "lat": 38.90500766666667, "rental_uris": {"android": "https://dc.lft.to/lastmile_qr_scan", "ios": "https://dc.lft.to/lastmile_qr_scan"}, "bike_id": "cd7f0dfa6b8c7b8f9b732b8f8a74a8ef", "lon": -77.046541}, {"is_reserved": 0, "fusion_lon": 0.0, "fusion_lat": 0.0, "name": "b7f250926fe208ef869886650e68bd96", "type": "electric_scooter", "is_disabled": 0, "lat": 38.900839, "rental_uris": {"android": "https://dc.lft.to/lastmile_qr_scan", "ios": "https://dc.lft.to/lastmile_qr_scan"}, "bike_id": "b7f250926fe208ef869886650e68bd96", "lon": -76.93874733333334}, {"is_reserved": 0, "fusion_lon": 0.0, "fusion_lat": 0.0, "name": "76d90ec4766ff87feda9a8d04028bb16", "type": "electric_scooter", "is_disabled": 0, "lat": 38.919023, "rental_uris": {"android": "https://dc.lft.to/lastmile_qr_scan", "ios": "https://dc.lft.to/lastmile_qr_scan"}, "bike_id": "76d90ec4766ff87feda9a8d04028bb16", "lon": -76.987431}, {"is_reserved": 0, "fusion_lon": 0.0, "fusion_lat": 0.0, "name": "7df849aaddc86403a3380b006724cabe", "type": "electric_scooter", "is_disabled": 0, "lat": 38.8767625, "rental_uris": {"android": "https://dc.lft.to/lastmile_qr_scan", "ios": "https://dc.lft.to/lastmile_qr_scan"}, "bike_id": "7df849aaddc86403a3380b006724cabe", "lon": -76.99827983333333}, {"is_reserved": 0, "fusion_lon": 0.0, "fusion_lat": 0.0, "name": "e2c5be10df2e38d83b75434cee803a74", "type": "electric_scooter", "is_disabled": 0, "lat": 38.905771666666666, "rental_uris": {"android": "https://dc.lft.to/lastmile_qr_scan", "ios": "https://dc.lft.to/lastmile_qr_scan"}, "bike_id": "e2c5be10df2e38d83b75434cee803a74", "lon": -77.03979466666667}, {"is_reserved": 0, "fusion_lon": 0.0, "fusion_lat": 0.0, "name": "36393948a11fec360048b57cb381071b", "type": "electric_scooter", "is_disabled": 0, "lat": 38.90949783333333, "rental_uris": {"android": "https://dc.lft.to/lastmile_qr_scan", "ios": "https://dc.lft.to/lastmile_qr_scan"}, "bike_id": "36393948a11fec360048b57cb381071b", "lon": -77.00807133333333}, {"is_reserved": 0, "fusion_lon": 0.0, "fusion_lat": 0.0, "name": "87e6cbbde0b3af74a7d769a21d35d376", "type": "electric_bike", "is_disabled": 0, "lat": 39.042341, "rental_uris": {"android": "https://dc.lft.to/lastmile_qr_scan", "ios": "https://dc.lft.to/lastmile_qr_scan"}, "bike_id": "87e6cbbde0b3af74a7d769a21d35d376", "lon": -76.99736233333333}, {"is_reserved": 0, "fusion_lon": 0.0, "fusion_lat": 0.0, "name": "43705355e6fcc3a78a65a37ec7efcda7", "type": "electric_scooter", "is_disabled": 0, "lat": 38.89597633333333, "rental_uris": {"android": "https://dc.lft.to/lastmile_qr_scan", "ios": "https://dc.lft.to/lastmile_qr_scan"}, "bike_id": "43705355e6fcc3a78a65a37ec7efcda7", "lon": -77.0076815}, {"is_reserved": 0, "fusion_lon": 0.0, "fusion_lat": 0.0, "name": "df1800b3b636e43ce988d4863cd4a42b", "type": "electric_scooter", "is_disabled": 0, "lat": 38.90243616666667, "rental_uris": {"android": "https://dc.lft.to/lastmile_qr_scan", "ios": "https://dc.lft.to/lastmile_qr_scan"}, "bike_id": "df1800b3b636e43ce988d4863cd4a42b", "lon": -77.0019255}, {"is_reserved": 0, "fusion_lon": 0.0, "fusion_lat": 0.0, "name": "2a0c2c988e16f22c72b25e152ac2bd7b", "type": "electric_bike", "is_disabled": 0, "lat": 38.902739, "rental_uris": {"android": "https://dc.lft.to/lastmile_qr_scan", "ios": "https://dc.lft.to/lastmile_qr_scan"}, "bike_id": "2a0c2c988e16f22c72b25e152ac2bd7b", "lon": -76.929283}, {"is_reserved": 0, "fusion_lon": 0.0, "fusion_lat": 0.0, "name": "20f14e350849e8316903583715e2a844", "type": "electric_scooter", "is_disabled": 0, "lat": 38.94183, "rental_uris": {"android": "https://dc.lft.to/lastmile_qr_scan", "ios": "https://dc.lft.to/lastmile_qr_scan"}, "bike_id": "20f14e350849e8316903583715e2a844", "lon": -77.02528966666667}, {"is_reserved": 0, "fusion_lon": 0.0, "fusion_lat": 0.0, "name": "3529faa8d85dbc80ea25d672f584a7c1", "type": "electric_bike", "is_disabled": 0, "lat": 38.93858733333333, "rental_uris": {"android": "https://dc.lft.to/lastmile_qr_scan", "ios": "https://dc.lft.to/lastmile_qr_scan"}, "bike_id": "3529faa8d85dbc80ea25d672f584a7c1", "lon": -76.99313066666667}, {"is_reserved": 0, "fusion_lon": 0.0, "fusion_lat": 0.0, "name": "05d461e0448a9f4a3866e13b589cea22", "type": "electric_scooter", "is_disabled": 0, "lat": 38.892166833333334, "rental_uris": {"android": "https://dc.lft.to/lastmile_qr_scan", "ios": "https://dc.lft.to/lastmile_qr_scan"}, "bike_id": "05d461e0448a9f4a3866e13b589cea22", "lon": -77.043723}, {"is_reserved": 0, "fusion_lon": 0.0, "fusion_lat": 0.0, "name": "49b2760c3b3ddc5cdedc4e31b0e6bae1", "type": "electric_scooter", "is_disabled": 0, "lat": 38.922464, "rental_uris": {"android": "https://dc.lft.to/lastmile_qr_scan", "ios": "https://dc.lft.to/lastmile_qr_scan"}, "bike_id": "49b2760c3b3ddc5cdedc4e31b0e6bae1", "lon": -77.0308445}, {"is_reserved": 0, "fusion_lon": 0.0, "fusion_lat": 0.0, "name": "ed2386b538f498890a4bbff8b2c27e0f", "type": "electric_scooter", "is_disabled": 0, "lat": 38.892408, "rental_uris": {"android": "https://dc.lft.to/lastmile_qr_scan", "ios": "https://dc.lft.to/lastmile_qr_scan"}, "bike_id": "ed2386b538f498890a4bbff8b2c27e0f", "lon": -77.013244}, {"is_reserved": 0, "fusion_lon": 0.0, "fusion_lat": 0.0, "name": "f9b64434b3988aec8dd04f99063e7c6f", "type": "electric_scooter", "is_disabled": 0, "lat": 38.91568083333333, "rental_uris": {"android": "https://dc.lft.to/lastmile_qr_scan", "ios": "https://dc.lft.to/lastmile_qr_scan"}, "bike_id": "f9b64434b3988aec8dd04f99063e7c6f", "lon": -77.03185316666666}, {"is_reserved": 0, "fusion_lon": 0.0, "fusion_lat": 0.0, "name": "99a5bc9b66884a84e9a0dee8261a6016", "type": "electric_scooter", "is_disabled": 0, "lat": 38.924462166666665, "rental_uris": {"android": "https://dc.lft.to/lastmile_qr_scan", "ios": "https://dc.lft.to/lastmile_qr_scan"}, "bike_id": "99a5bc9b66884a84e9a0dee8261a6016", "lon": -77.03408483333334}, {"is_reserved": 0, "fusion_lon": 0.0, "fusion_lat": 0.0, "name": "40c4097ee384f3f480cc6110bda5ba2d", "type": "electric_scooter", "is_disabled": 0, "lat": 38.918256666666665, "rental_uris": {"android": "https://dc.lft.to/lastmile_qr_scan", "ios": "https://dc.lft.to/lastmile_qr_scan"}, "bike_id": "40c4097ee384f3f480cc6110bda5ba2d", "lon": -77.0345595}, {"is_reserved": 0, "fusion_lon": 0.0, "fusion_lat": 0.0, "name": "148541dcf0fb088ccd84217d3b191c35", "type": "electric_scooter", "is_disabled": 0, "lat": 38.89234066666667, "rental_uris": {"android": "https://dc.lft.to/lastmile_qr_scan", "ios": "https://dc.lft.to/lastmile_qr_scan"}, "bike_id": "148541dcf0fb088ccd84217d3b191c35", "lon": -77.023855}, {"is_reserved": 0, "fusion_lon": 0.0, "fusion_lat": 0.0, "name": "861bcc7e9425521b049fcd716625ec3c", "type": "electric_scooter", "is_disabled": 0, "lat": 38.93399983333333, "rental_uris": {"android": "https://dc.lft.to/lastmile_qr_scan", "ios": "https://dc.lft.to/lastmile_qr_scan"}, "bike_id": "861bcc7e9425521b049fcd716625ec3c", "lon": -77.07245833333333}, {"is_reserved": 0, "fusion_lon": 0.0, "fusion_lat": 0.0, "name": "20a93cc1401bc85e061736c35c3218b9", "type": "electric_scooter", "is_disabled": 0, "lat": 38.90734716666667, "rental_uris": {"android": "https://dc.lft.to/lastmile_qr_scan", "ios": "https://dc.lft.to/lastmile_qr_scan"}, "bike_id": "20a93cc1401bc85e061736c35c3218b9", "lon": -77.04548083333333}, {"is_reserved": 0, "fusion_lon": 0.0, "fusion_lat": 0.0, "name": "fd801d016d08c4c2ddf4576f7a755947", "type": "electric_scooter", "is_disabled": 0, "lat": 38.900098666666665, "rental_uris": {"android": "https://dc.lft.to/lastmile_qr_scan", "ios": "https://dc.lft.to/lastmile_qr_scan"}, "bike_id": "fd801d016d08c4c2ddf4576f7a755947", "lon": -76.93028716666667}, {"is_reserved": 0, "fusion_lon": 0.0, "fusion_lat": 0.0, "name": "7363237a1db50e2f9d740615a9fe46ee", "type": "electric_scooter", "is_disabled": 0, "lat": 38.925409333333334, "rental_uris": {"android": "https://dc.lft.to/lastmile_qr_scan", "ios": "https://dc.lft.to/lastmile_qr_scan"}, "bike_id": "7363237a1db50e2f9d740615a9fe46ee", "lon": -76.972196}, {"is_reserved": 0, "fusion_lon": 0.0, "fusion_lat": 0.0, "name": "8e5b04d69e73e49357e77db825605572", "type": "electric_scooter", "is_disabled": 0, "lat": 38.909840333333335, "rental_uris": {"android": "https://dc.lft.to/lastmile_qr_scan", "ios": "https://dc.lft.to/lastmile_qr_scan"}, "bike_id": "8e5b04d69e73e49357e77db825605572", "lon": -77.02185383333334}, {"is_reserved": 0, "fusion_lon": 0.0, "fusion_lat": 0.0, "name": "9c181e9c5d8ee7189638f6893da0aa19", "type": "electric_scooter", "is_disabled": 0, "lat": 38.9191245, "rental_uris": {"android": "https://dc.lft.to/lastmile_qr_scan", "ios": "https://dc.lft.to/lastmile_qr_scan"}, "bike_id": "9c181e9c5d8ee7189638f6893da0aa19", "lon": -77.041449}, {"is_reserved": 0, "fusion_lon": 0.0, "fusion_lat": 0.0, "name": "7ce4bb6ac003cd135cb7f71eeb76eada", "type": "electric_scooter", "is_disabled": 0, "lat": 38.8669875, "rental_uris": {"android": "https://dc.lft.to/lastmile_qr_scan", "ios": "https://dc.lft.to/lastmile_qr_scan"}, "bike_id": "7ce4bb6ac003cd135cb7f71eeb76eada", "lon": -76.98587233333333}, {"is_reserved": 0, "fusion_lon": 0.0, "fusion_lat": 0.0, "name": "576af01db4d1a9bcb074b45c0a47f6c4", "type": "electric_scooter", "is_disabled": 0, "lat": 38.91191633333333, "rental_uris": {"android": "https://dc.lft.to/lastmile_qr_scan", "ios": "https://dc.lft.to/lastmile_qr_scan"}, "bike_id": "576af01db4d1a9bcb074b45c0a47f6c4", "lon": -77.032125}, {"is_reserved": 0, "fusion_lon": 0.0, "fusion_lat": 0.0, "name": "ad67d6cde1034b17ac0fe9e5b4c3fcb9", "type": "electric_scooter", "is_disabled": 0, "lat": 38.894286666666666, "rental_uris": {"android": "https://dc.lft.to/lastmile_qr_scan", "ios": "https://dc.lft.to/lastmile_qr_scan"}, "bike_id": "ad67d6cde1034b17ac0fe9e5b4c3fcb9", "lon": -76.94880383333333}, {"is_reserved": 0, "fusion_lon": 0.0, "fusion_lat": 0.0, "name": "aca8fb6c1fef7bc0c7471843cfc6648c", "type": "electric_scooter", "is_disabled": 0, "lat": 38.91955033333333, "rental_uris": {"android": "https://dc.lft.to/lastmile_qr_scan", "ios": "https://dc.lft.to/lastmile_qr_scan"}, "bike_id": "aca8fb6c1fef7bc0c7471843cfc6648c", "lon": -77.0415625}, {"is_reserved": 0, "fusion_lon": 0.0, "fusion_lat": 0.0, "name": "cb61e6cde930b6bb2d3721ac01ce5d2d", "type": "electric_scooter", "is_disabled": 0, "lat": 38.9324235, "rental_uris": {"android": "https://dc.lft.to/lastmile_qr_scan", "ios": "https://dc.lft.to/lastmile_qr_scan"}, "bike_id": "cb61e6cde930b6bb2d3721ac01ce5d2d", "lon": -77.02856366666667}, {"is_reserved": 0, "fusion_lon": 0.0, "fusion_lat": 0.0, "name": "a77f5fbcdb092e1feb9f8f62770560d3", "type": "electric_scooter", "is_disabled": 0, "lat": 38.944378666666665, "rental_uris": {"android": "https://dc.lft.to/lastmile_qr_scan", "ios": "https://dc.lft.to/lastmile_qr_scan"}, "bike_id": "a77f5fbcdb092e1feb9f8f62770560d3", "lon": -77.06032366666666}, {"is_reserved": 0, "fusion_lon": 0.0, "fusion_lat": 0.0, "name": "229b01c9565be2f2dc51d4bf69f14025", "type": "electric_scooter", "is_disabled": 0, "lat": 38.91134916666667, "rental_uris": {"android": "https://dc.lft.to/lastmile_qr_scan", "ios": "https://dc.lft.to/lastmile_qr_scan"}, "bike_id": "229b01c9565be2f2dc51d4bf69f14025", "lon": -77.036653}, {"is_reserved": 0, "fusion_lon": 0.0, "fusion_lat": 0.0, "name": "25a24427b10d8131700844da675553f4", "type": "electric_scooter", "is_disabled": 0, "lat": 38.89365816666667, "rental_uris": {"android": "https://dc.lft.to/lastmile_qr_scan", "ios": "https://dc.lft.to/lastmile_qr_scan"}, "bike_id": "25a24427b10d8131700844da675553f4", "lon": -77.05490183333333}, {"is_reserved": 0, "fusion_lon": 0.0, "fusion_lat": 0.0, "name": "85afce08c4298aa111dc14a25613c894", "type": "electric_scooter", "is_disabled": 0, "lat": 38.8861175, "rental_uris": {"android": "https://dc.lft.to/lastmile_qr_scan", "ios": "https://dc.lft.to/lastmile_qr_scan"}, "bike_id": "85afce08c4298aa111dc14a25613c894", "lon": -76.95584183333334}, {"is_reserved": 0, "fusion_lon": 0.0, "fusion_lat": 0.0, "name": "fc2dab0dac0e504a6540de3543f24525", "type": "electric_scooter", "is_disabled": 0, "lat": 38.90724783333334, "rental_uris": {"android": "https://dc.lft.to/lastmile_qr_scan", "ios": "https://dc.lft.to/lastmile_qr_scan"}, "bike_id": "fc2dab0dac0e504a6540de3543f24525", "lon": -77.0345005}, {"is_reserved": 0, "fusion_lon": 0.0, "fusion_lat": 0.0, "name": "f9b494db384fcbc353ef79597421d0e5", "type": "electric_scooter", "is_disabled": 0, "lat": 38.92707, "rental_uris": {"android": "https://dc.lft.to/lastmile_qr_scan", "ios": "https://dc.lft.to/lastmile_qr_scan"}, "bike_id": "f9b494db384fcbc353ef79597421d0e5", "lon": -77.02393933333333}, {"is_reserved": 0, "fusion_lon": 0.0, "fusion_lat": 0.0, "name": "5e2c327213020b74c6685caa29e16a8f", "type": "electric_scooter", "is_disabled": 0, "lat": 38.901508, "rental_uris": {"android": "https://dc.lft.to/lastmile_qr_scan", "ios": "https://dc.lft.to/lastmile_qr_scan"}, "bike_id": "5e2c327213020b74c6685caa29e16a8f", "lon": -77.00248866666666}, {"is_reserved": 0, "fusion_lon": 0.0, "fusion_lat": 0.0, "name": "d85195437c32edd957c8deb408dbecba", "type": "electric_scooter", "is_disabled": 0, "lat": 38.896590833333335, "rental_uris": {"android": "https://dc.lft.to/lastmile_qr_scan", "ios": "https://dc.lft.to/lastmile_qr_scan"}, "bike_id": "d85195437c32edd957c8deb408dbecba", "lon": -77.05023866666667}, {"is_reserved": 0, "fusion_lon": 0.0, "fusion_lat": 0.0, "name": "5a0ad882bdc1bddb785ebd75d74cf53d", "type": "electric_scooter", "is_disabled": 0, "lat": 38.90319783333333, "rental_uris": {"android": "https://dc.lft.to/lastmile_qr_scan", "ios": "https://dc.lft.to/lastmile_qr_scan"}, "bike_id": "5a0ad882bdc1bddb785ebd75d74cf53d", "lon": -77.04675683333333}, {"is_reserved": 0, "fusion_lon": 0.0, "fusion_lat": 0.0, "name": "efe47e138de5f4294ce2fcc3f8ccb623", "type": "electric_scooter", "is_disabled": 0, "lat": 38.924868833333335, "rental_uris": {"android": "https://dc.lft.to/lastmile_qr_scan", "ios": "https://dc.lft.to/lastmile_qr_scan"}, "bike_id": "efe47e138de5f4294ce2fcc3f8ccb623", "lon": -77.02137183333333}, {"is_reserved": 0, "fusion_lon": 0.0, "fusion_lat": 0.0, "name": "a5a77faf8f2f16b4f86185fc0f92e05e", "type": "electric_scooter", "is_disabled": 0, "lat": 38.892938, "rental_uris": {"android": "https://dc.lft.to/lastmile_qr_scan", "ios": "https://dc.lft.to/lastmile_qr_scan"}, "bike_id": "a5a77faf8f2f16b4f86185fc0f92e05e", "lon": -76.998209}, {"is_reserved": 0, "fusion_lon": 0.0, "fusion_lat": 0.0, "name": "42b7f9b7e4b0e2d4aabd64e70726fb22", "type": "electric_scooter", "is_disabled": 0, "lat": 38.897999166666665, "rental_uris": {"android": "https://dc.lft.to/lastmile_qr_scan", "ios": "https://dc.lft.to/lastmile_qr_scan"}, "bike_id": "42b7f9b7e4b0e2d4aabd64e70726fb22", "lon": -77.02481}, {"is_reserved": 0, "fusion_lon": 0.0, "fusion_lat": 0.0, "name": "bc6c1884ccd7bbcf135166ee0cdc0c1c", "type": "electric_scooter", "is_disabled": 0, "lat": 38.900019666666665, "rental_uris": {"android": "https://dc.lft.to/lastmile_qr_scan", "ios": "https://dc.lft.to/lastmile_qr_scan"}, "bike_id": "bc6c1884ccd7bbcf135166ee0cdc0c1c", "lon": -76.99848883333334}, {"is_reserved": 0, "fusion_lon": 0.0, "fusion_lat": 0.0, "name": "26b0b0bac9c12f3f1db279211910fcad", "type": "electric_scooter", "is_disabled": 0, "lat": 38.887392166666665, "rental_uris": {"android": "https://dc.lft.to/lastmile_qr_scan", "ios": "https://dc.lft.to/lastmile_qr_scan"}, "bike_id": "26b0b0bac9c12f3f1db279211910fcad", "lon": -77.01742283333333}, {"is_reserved": 0, "fusion_lon": 0.0, "fusion_lat": 0.0, "name": "7afcc981000e9b3951b3e7cce73a1aca", "type": "electric_scooter", "is_disabled": 0, "lat": 38.90133316666667, "rental_uris": {"android": "https://dc.lft.to/lastmile_qr_scan", "ios": "https://dc.lft.to/lastmile_qr_scan"}, "bike_id": "7afcc981000e9b3951b3e7cce73a1aca", "lon": -77.023961}, {"is_reserved": 0, "fusion_lon": 0.0, "fusion_lat": 0.0, "name": "44eb5e84473cf3719c829c910269c14a", "type": "electric_scooter", "is_disabled": 0, "lat": 38.905646833333336, "rental_uris": {"android": "https://dc.lft.to/lastmile_qr_scan", "ios": "https://dc.lft.to/lastmile_qr_scan"}, "bike_id": "44eb5e84473cf3719c829c910269c14a", "lon": -77.02486716666667}, {"is_reserved": 0, "fusion_lon": 0.0, "fusion_lat": 0.0, "name": "abe6745dd8ac6704274d77c237652838", "type": "electric_scooter", "is_disabled": 0, "lat": 38.86357683333333, "rental_uris": {"android": "https://dc.lft.to/lastmile_qr_scan", "ios": "https://dc.lft.to/lastmile_qr_scan"}, "bike_id": "abe6745dd8ac6704274d77c237652838", "lon": -76.99062983333333}, {"is_reserved": 0, "fusion_lon": 0.0, "fusion_lat": 0.0, "name": "d153a3a1e35dbfc936c91753731fdb89", "type": "electric_scooter", "is_disabled": 0, "lat": 38.9087905, "rental_uris": {"android": "https://dc.lft.to/lastmile_qr_scan", "ios": "https://dc.lft.to/lastmile_qr_scan"}, "bike_id": "d153a3a1e35dbfc936c91753731fdb89", "lon": -77.00171316666666}, {"is_reserved": 0, "fusion_lon": 0.0, "fusion_lat": 0.0, "name": "d1672a302fe1b49b324e6c0b4d0460cc", "type": "electric_scooter", "is_disabled": 0, "lat": 38.909913833333334, "rental_uris": {"android": "https://dc.lft.to/lastmile_qr_scan", "ios": "https://dc.lft.to/lastmile_qr_scan"}, "bike_id": "d1672a302fe1b49b324e6c0b4d0460cc", "lon": -77.03370533333333}, {"is_reserved": 0, "fusion_lon": 0.0, "fusion_lat": 0.0, "name": "b1c711bc85f6b4c4bf807d733762c396", "type": "electric_scooter", "is_disabled": 0, "lat": 38.921195, "rental_uris": {"android": "https://dc.lft.to/lastmile_qr_scan", "ios": "https://dc.lft.to/lastmile_qr_scan"}, "bike_id": "b1c711bc85f6b4c4bf807d733762c396", "lon": -77.0317895}, {"is_reserved": 0, "fusion_lon": 0.0, "fusion_lat": 0.0, "name": "8a775ebbab317981cbf82c63c013d6db", "type": "electric_scooter", "is_disabled": 0, "lat": 38.9015295, "rental_uris": {"android": "https://dc.lft.to/lastmile_qr_scan", "ios": "https://dc.lft.to/lastmile_qr_scan"}, "bike_id": "8a775ebbab317981cbf82c63c013d6db", "lon": -77.03942016666667}, {"is_reserved": 0, "fusion_lon": 0.0, "fusion_lat": 0.0, "name": "1cd1ffa6ee51e9381666c62c3d648c4e", "type": "electric_bike", "is_disabled": 0, "lat": 38.85519216666667, "rental_uris": {"android": "https://dc.lft.to/lastmile_qr_scan", "ios": "https://dc.lft.to/lastmile_qr_scan"}, "bike_id": "1cd1ffa6ee51e9381666c62c3d648c4e", "lon": -76.98430733333333}, {"is_reserved": 0, "fusion_lon": 0.0, "fusion_lat": 0.0, "name": "8ef30e2ca9ba542c57f448991300dc41", "type": "electric_scooter", "is_disabled": 0, "lat": 38.930985166666666, "rental_uris": {"android": "https://dc.lft.to/lastmile_qr_scan", "ios": "https://dc.lft.to/lastmile_qr_scan"}, "bike_id": "8ef30e2ca9ba542c57f448991300dc41", "lon": -77.03636583333333}, {"is_reserved": 0, "fusion_lon": 0.0, "fusion_lat": 0.0, "name": "c06b27ee6d21fbdf95e3a634e89221ab", "type": "electric_scooter", "is_disabled": 0, "lat": 38.8585855, "rental_uris": {"android": "https://dc.lft.to/lastmile_qr_scan", "ios": "https://dc.lft.to/lastmile_qr_scan"}, "bike_id": "c06b27ee6d21fbdf95e3a634e89221ab", "lon": -76.98562783333334}, {"is_reserved": 0, "fusion_lon": 0.0, "fusion_lat": 0.0, "name": "b0ee4d827b26000404f938d84d71cd8d", "type": "electric_scooter", "is_disabled": 0, "lat": 38.849953166666666, "rental_uris": {"android": "https://dc.lft.to/lastmile_qr_scan", "ios": "https://dc.lft.to/lastmile_qr_scan"}, "bike_id": "b0ee4d827b26000404f938d84d71cd8d", "lon": -76.983472}, {"is_reserved": 0, "fusion_lon": 0.0, "fusion_lat": 0.0, "name": "174f2a9a43b2bcab8a4f013064e5af99", "type": "electric_scooter", "is_disabled": 0, "lat": 38.9017655, "rental_uris": {"android": "https://dc.lft.to/lastmile_qr_scan", "ios": "https://dc.lft.to/lastmile_qr_scan"}, "bike_id": "174f2a9a43b2bcab8a4f013064e5af99", "lon": -76.92867116666666}, {"is_reserved": 0, "fusion_lon": 0.0, "fusion_lat": 0.0, "name": "aa62c8ee770afb38c0ab3ac413a50a8a", "type": "electric_scooter", "is_disabled": 0, "lat": 38.940771833333336, "rental_uris": {"android": "https://dc.lft.to/lastmile_qr_scan", "ios": "https://dc.lft.to/lastmile_qr_scan"}, "bike_id": "aa62c8ee770afb38c0ab3ac413a50a8a", "lon": -77.02546566666666}, {"is_reserved": 0, "fusion_lon": 0.0, "fusion_lat": 0.0, "name": "e857ed669af8025bf533bc6b908a7154", "type": "electric_scooter", "is_disabled": 0, "lat": 38.9014625, "rental_uris": {"android": "https://dc.lft.to/lastmile_qr_scan", "ios": "https://dc.lft.to/lastmile_qr_scan"}, "bike_id": "e857ed669af8025bf533bc6b908a7154", "lon": -77.059184}, {"is_reserved": 0, "fusion_lon": 0.0, "fusion_lat": 0.0, "name": "7d9fb27a14bf533ce0fc9a64ff629c2e", "type": "electric_scooter", "is_disabled": 0, "lat": 38.911871166666664, "rental_uris": {"android": "https://dc.lft.to/lastmile_qr_scan", "ios": "https://dc.lft.to/lastmile_qr_scan"}, "bike_id": "7d9fb27a14bf533ce0fc9a64ff629c2e", "lon": -77.03527983333333}, {"is_reserved": 0, "fusion_lon": 0.0, "fusion_lat": 0.0, "name": "f79ce755f26dde1b5d40241162c3fc89", "type": "electric_scooter", "is_disabled": 0, "lat": 38.9024005, "rental_uris": {"android": "https://dc.lft.to/lastmile_qr_scan", "ios": "https://dc.lft.to/lastmile_qr_scan"}, "bike_id": "f79ce755f26dde1b5d40241162c3fc89", "lon": -77.03893266666667}, {"is_reserved": 0, "fusion_lon": 0.0, "fusion_lat": 0.0, "name": "7362bf57ddfe265eebf23fe589156c9a", "type": "electric_bike", "is_disabled": 0, "lat": 39.050491666666666, "rental_uris": {"android": "https://dc.lft.to/lastmile_qr_scan", "ios": "https://dc.lft.to/lastmile_qr_scan"}, "bike_id": "7362bf57ddfe265eebf23fe589156c9a", "lon": -77.05154583333334}, {"is_reserved": 0, "fusion_lon": 0.0, "fusion_lat": 0.0, "name": "abe3f1c9c5b0da6aa3a2ac7c245f9fa7", "type": "electric_scooter", "is_disabled": 0, "lat": 38.91760383333333, "rental_uris": {"android": "https://dc.lft.to/lastmile_qr_scan", "ios": "https://dc.lft.to/lastmile_qr_scan"}, "bike_id": "abe3f1c9c5b0da6aa3a2ac7c245f9fa7", "lon": -77.031887}, {"is_reserved": 0, "fusion_lon": 0.0, "fusion_lat": 0.0, "name": "5b6aff1727f74951bc856d7882bd1770", "type": "electric_scooter", "is_disabled": 0, "lat": 38.87692216666667, "rental_uris": {"android": "https://dc.lft.to/lastmile_qr_scan", "ios": "https://dc.lft.to/lastmile_qr_scan"}, "bike_id": "5b6aff1727f74951bc856d7882bd1770", "lon": -77.00422183333333}, {"is_reserved": 0, "fusion_lon": 0.0, "fusion_lat": 0.0, "name": "6790ed7ec5a1b86895e455b78c984988", "type": "electric_scooter", "is_disabled": 0, "lat": 38.91100633333333, "rental_uris": {"android": "https://dc.lft.to/lastmile_qr_scan", "ios": "https://dc.lft.to/lastmile_qr_scan"}, "bike_id": "6790ed7ec5a1b86895e455b78c984988", "lon": -77.0280345}, {"is_reserved": 0, "fusion_lon": 0.0, "fusion_lat": 0.0, "name": "680ce3523edf3000373a376b9e3758b5", "type": "electric_scooter", "is_disabled": 0, "lat": 38.90214, "rental_uris": {"android": "https://dc.lft.to/lastmile_qr_scan", "ios": "https://dc.lft.to/lastmile_qr_scan"}, "bike_id": "680ce3523edf3000373a376b9e3758b5", "lon": -77.04814266666666}, {"is_reserved": 0, "fusion_lon": 0.0, "fusion_lat": 0.0, "name": "72e46184a7c63b94b636ddf910b62a02", "type": "electric_scooter", "is_disabled": 0, "lat": 38.91297733333333, "rental_uris": {"android": "https://dc.lft.to/lastmile_qr_scan", "ios": "https://dc.lft.to/lastmile_qr_scan"}, "bike_id": "72e46184a7c63b94b636ddf910b62a02", "lon": -77.0454755}, {"is_reserved": 0, "fusion_lon": 0.0, "fusion_lat": 0.0, "name": "6ee7d48d20bcb465ff06be9c0ec150b7", "type": "electric_scooter", "is_disabled": 0, "lat": 38.933671833333335, "rental_uris": {"android": "https://dc.lft.to/lastmile_qr_scan", "ios": "https://dc.lft.to/lastmile_qr_scan"}, "bike_id": "6ee7d48d20bcb465ff06be9c0ec150b7", "lon": -77.05723566666667}, {"is_reserved": 0, "fusion_lon": 0.0, "fusion_lat": 0.0, "name": "fb44ea77603e4e00d1445a16efcad5b0", "type": "electric_bike", "is_disabled": 0, "lat": 38.832347166666665, "rental_uris": {"android": "https://dc.lft.to/lastmile_qr_scan", "ios": "https://dc.lft.to/lastmile_qr_scan"}, "bike_id": "fb44ea77603e4e00d1445a16efcad5b0", "lon": -76.94622033333333}, {"is_reserved": 0, "fusion_lon": 0.0, "fusion_lat": 0.0, "name": "cb12e59924c27fa59bdb00976c35e74d", "type": "electric_scooter", "is_disabled": 0, "lat": 38.901615666666665, "rental_uris": {"android": "https://dc.lft.to/lastmile_qr_scan", "ios": "https://dc.lft.to/lastmile_qr_scan"}, "bike_id": "cb12e59924c27fa59bdb00976c35e74d", "lon": -77.02278466666667}, {"is_reserved": 0, "fusion_lon": 0.0, "fusion_lat": 0.0, "name": "79d64c44171176fbbc473c925fbf3f6e", "type": "electric_scooter", "is_disabled": 0, "lat": 38.917139666666664, "rental_uris": {"android": "https://dc.lft.to/lastmile_qr_scan", "ios": "https://dc.lft.to/lastmile_qr_scan"}, "bike_id": "79d64c44171176fbbc473c925fbf3f6e", "lon": -77.0366335}, {"is_reserved": 0, "fusion_lon": 0.0, "fusion_lat": 0.0, "name": "a36b7164ce9fe7bb38ff557ba4621456", "type": "electric_scooter", "is_disabled": 0, "lat": 38.88565283333333, "rental_uris": {"android": "https://dc.lft.to/lastmile_qr_scan", "ios": "https://dc.lft.to/lastmile_qr_scan"}, "bike_id": "a36b7164ce9fe7bb38ff557ba4621456", "lon": -76.997952}, {"is_reserved": 0, "fusion_lon": 0.0, "fusion_lat": 0.0, "name": "91d337b46545943398b5656df6514558", "type": "electric_scooter", "is_disabled": 0, "lat": 38.89955916666667, "rental_uris": {"android": "https://dc.lft.to/lastmile_qr_scan", "ios": "https://dc.lft.to/lastmile_qr_scan"}, "bike_id": "91d337b46545943398b5656df6514558", "lon": -77.04576266666666}, {"is_reserved": 0, "fusion_lon": 0.0, "fusion_lat": 0.0, "name": "cd02ad7aed159301905f6ab20ebb7984", "type": "electric_scooter", "is_disabled": 0, "lat": 38.904093, "rental_uris": {"android": "https://dc.lft.to/lastmile_qr_scan", "ios": "https://dc.lft.to/lastmile_qr_scan"}, "bike_id": "cd02ad7aed159301905f6ab20ebb7984", "lon": -76.97332366666667}, {"is_reserved": 0, "fusion_lon": 0.0, "fusion_lat": 0.0, "name": "1ef50d5bd804f13b61cdf7ab28e6a735", "type": "electric_scooter", "is_disabled": 0, "lat": 38.93993833333333, "rental_uris": {"android": "https://dc.lft.to/lastmile_qr_scan", "ios": "https://dc.lft.to/lastmile_qr_scan"}, "bike_id": "1ef50d5bd804f13b61cdf7ab28e6a735", "lon": -77.03265816666666}, {"is_reserved": 0, "fusion_lon": 0.0, "fusion_lat": 0.0, "name": "9c134a5373ffe9a435f59bc053bbbf80", "type": "electric_scooter", "is_disabled": 0, "lat": 38.899693, "rental_uris": {"android": "https://dc.lft.to/lastmile_qr_scan", "ios": "https://dc.lft.to/lastmile_qr_scan"}, "bike_id": "9c134a5373ffe9a435f59bc053bbbf80", "lon": -77.05568083333333}, {"is_reserved": 0, "fusion_lon": 0.0, "fusion_lat": 0.0, "name": "a30cbb9b12b09dad5fbf9835dd84dd73", "type": "electric_scooter", "is_disabled": 0, "lat": 38.920801833333336, "rental_uris": {"android": "https://dc.lft.to/lastmile_qr_scan", "ios": "https://dc.lft.to/lastmile_qr_scan"}, "bike_id": "a30cbb9b12b09dad5fbf9835dd84dd73", "lon": -77.04689333333333}, {"is_reserved": 0, "fusion_lon": 0.0, "fusion_lat": 0.0, "name": "1c746ae753f27db0e9fa1bccda57414c", "type": "electric_scooter", "is_disabled": 0, "lat": 38.89947766666667, "rental_uris": {"android": "https://dc.lft.to/lastmile_qr_scan", "ios": "https://dc.lft.to/lastmile_qr_scan"}, "bike_id": "1c746ae753f27db0e9fa1bccda57414c", "lon": -77.01449916666667}, {"is_reserved": 0, "fusion_lon": 0.0, "fusion_lat": 0.0, "name": "af065a4337887dcc073ab62a2c6dc2f7", "type": "electric_scooter", "is_disabled": 0, "lat": 38.871864, "rental_uris": {"android": "https://dc.lft.to/lastmile_qr_scan", "ios": "https://dc.lft.to/lastmile_qr_scan"}, "bike_id": "af065a4337887dcc073ab62a2c6dc2f7", "lon": -77.00599216666667}, {"is_reserved": 0, "fusion_lon": 0.0, "fusion_lat": 0.0, "name": "1ee3f9f022eb41b31bcbc4ff60feacf2", "type": "electric_scooter", "is_disabled": 0, "lat": 38.894035333333335, "rental_uris": {"android": "https://dc.lft.to/lastmile_qr_scan", "ios": "https://dc.lft.to/lastmile_qr_scan"}, "bike_id": "1ee3f9f022eb41b31bcbc4ff60feacf2", "lon": -77.044172}, {"is_reserved": 0, "fusion_lon": 0.0, "fusion_lat": 0.0, "name": "f4dd1df771ac280c62c354e280da868b", "type": "electric_scooter", "is_disabled": 0, "lat": 38.91685733333333, "rental_uris": {"android": "https://dc.lft.to/lastmile_qr_scan", "ios": "https://dc.lft.to/lastmile_qr_scan"}, "bike_id": "f4dd1df771ac280c62c354e280da868b", "lon": -77.02710516666667}, {"is_reserved": 0, "fusion_lon": 0.0, "fusion_lat": 0.0, "name": "0b14b5be4c9a3a93929b9d21c1f3ac67", "type": "electric_scooter", "is_disabled": 0, "lat": 38.9001785, "rental_uris": {"android": "https://dc.lft.to/lastmile_qr_scan", "ios": "https://dc.lft.to/lastmile_qr_scan"}, "bike_id": "0b14b5be4c9a3a93929b9d21c1f3ac67", "lon": -77.006956}, {"is_reserved": 0, "fusion_lon": 0.0, "fusion_lat": 0.0, "name": "2eb99a16ea343c30620913e871a1f788", "type": "electric_scooter", "is_disabled": 0, "lat": 38.8927175, "rental_uris": {"android": "https://dc.lft.to/lastmile_qr_scan", "ios": "https://dc.lft.to/lastmile_qr_scan"}, "bike_id": "2eb99a16ea343c30620913e871a1f788", "lon": -77.04876416666667}, {"is_reserved": 0, "fusion_lon": 0.0, "fusion_lat": 0.0, "name": "6e38a725e1c290a149f1e9aabaf7f65a", "type": "electric_scooter", "is_disabled": 0, "lat": 38.887175666666664, "rental_uris": {"android": "https://dc.lft.to/lastmile_qr_scan", "ios": "https://dc.lft.to/lastmile_qr_scan"}, "bike_id": "6e38a725e1c290a149f1e9aabaf7f65a", "lon": -77.01775083333334}, {"is_reserved": 0, "fusion_lon": 0.0, "fusion_lat": 0.0, "name": "af3956b9683adc3d4a93e676f5e36d16", "type": "electric_scooter", "is_disabled": 0, "lat": 38.89222266666667, "rental_uris": {"android": "https://dc.lft.to/lastmile_qr_scan", "ios": "https://dc.lft.to/lastmile_qr_scan"}, "bike_id": "af3956b9683adc3d4a93e676f5e36d16", "lon": -77.0318895}, {"is_reserved": 0, "fusion_lon": 0.0, "fusion_lat": 0.0, "name": "62cdb51495cb3a46bb5f19e9d7cc68f0", "type": "electric_scooter", "is_disabled": 0, "lat": 38.902713, "rental_uris": {"android": "https://dc.lft.to/lastmile_qr_scan", "ios": "https://dc.lft.to/lastmile_qr_scan"}, "bike_id": "62cdb51495cb3a46bb5f19e9d7cc68f0", "lon": -77.02611816666666}, {"is_reserved": 0, "fusion_lon": 0.0, "fusion_lat": 0.0, "name": "fb65a75a971b077c7ad092e468337a53", "type": "electric_scooter", "is_disabled": 0, "lat": 38.9023915, "rental_uris": {"android": "https://dc.lft.to/lastmile_qr_scan", "ios": "https://dc.lft.to/lastmile_qr_scan"}, "bike_id": "fb65a75a971b077c7ad092e468337a53", "lon": -77.00194016666667}, {"is_reserved": 0, "fusion_lon": 0.0, "fusion_lat": 0.0, "name": "9fa2788eb35670943a889957d1e51d59", "type": "electric_scooter", "is_disabled": 0, "lat": 38.941236833333335, "rental_uris": {"android": "https://dc.lft.to/lastmile_qr_scan", "ios": "https://dc.lft.to/lastmile_qr_scan"}, "bike_id": "9fa2788eb35670943a889957d1e51d59", "lon": -77.01540066666666}, {"is_reserved": 0, "fusion_lon": 0.0, "fusion_lat": 0.0, "name": "7f7134373920c2fbf87050e2a910b858", "type": "electric_bike", "is_disabled": 0, "lat": 38.892926333333335, "rental_uris": {"android": "https://dc.lft.to/lastmile_qr_scan", "ios": "https://dc.lft.to/lastmile_qr_scan"}, "bike_id": "7f7134373920c2fbf87050e2a910b858", "lon": -76.9761755}, {"is_reserved": 0, "fusion_lon": 0.0, "fusion_lat": 0.0, "name": "65a8b3b83cbfca54020a04fe6fe1c42f", "type": "electric_scooter", "is_disabled": 0, "lat": 38.91112566666666, "rental_uris": {"android": "https://dc.lft.to/lastmile_qr_scan", "ios": "https://dc.lft.to/lastmile_qr_scan"}, "bike_id": "65a8b3b83cbfca54020a04fe6fe1c42f", "lon": -77.02176083333333}, {"is_reserved": 0, "fusion_lon": 0.0, "fusion_lat": 0.0, "name": "9258c5b688d3965610cd2a32a1b80339", "type": "electric_scooter", "is_disabled": 0, "lat": 38.884815833333334, "rental_uris": {"android": "https://dc.lft.to/lastmile_qr_scan", "ios": "https://dc.lft.to/lastmile_qr_scan"}, "bike_id": "9258c5b688d3965610cd2a32a1b80339", "lon": -76.926211}, {"is_reserved": 0, "fusion_lon": 0.0, "fusion_lat": 0.0, "name": "23b76ec8d04869a1766dab38f182679b", "type": "electric_scooter", "is_disabled": 0, "lat": 38.90084783333333, "rental_uris": {"android": "https://dc.lft.to/lastmile_qr_scan", "ios": "https://dc.lft.to/lastmile_qr_scan"}, "bike_id": "23b76ec8d04869a1766dab38f182679b", "lon": -76.93022783333333}, {"is_reserved": 0, "fusion_lon": 0.0, "fusion_lat": 0.0, "name": "ff636b5fa99d104634c2be667fe088bc", "type": "electric_scooter", "is_disabled": 0, "lat": 38.8554075, "rental_uris": {"android": "https://dc.lft.to/lastmile_qr_scan", "ios": "https://dc.lft.to/lastmile_qr_scan"}, "bike_id": "ff636b5fa99d104634c2be667fe088bc", "lon": -76.98418916666667}, {"is_reserved": 0, "fusion_lon": 0.0, "fusion_lat": 0.0, "name": "15ab3c1e0f52bfc0aeb2375b38cd5f46", "type": "electric_scooter", "is_disabled": 0, "lat": 38.944281, "rental_uris": {"android": "https://dc.lft.to/lastmile_qr_scan", "ios": "https://dc.lft.to/lastmile_qr_scan"}, "bike_id": "15ab3c1e0f52bfc0aeb2375b38cd5f46", "lon": -77.026004}, {"is_reserved": 0, "fusion_lon": 0.0, "fusion_lat": 0.0, "name": "13c6faf59fbeb68590279ebb0bf29f54", "type": "electric_scooter", "is_disabled": 0, "lat": 38.9506925, "rental_uris": {"android": "https://dc.lft.to/lastmile_qr_scan", "ios": "https://dc.lft.to/lastmile_qr_scan"}, "bike_id": "13c6faf59fbeb68590279ebb0bf29f54", "lon": -76.99565283333334}, {"is_reserved": 0, "fusion_lon": 0.0, "fusion_lat": 0.0, "name": "7b2d92ff6b9e1ee3bbfb5b171b4c0d17", "type": "electric_scooter", "is_disabled": 0, "lat": 38.91562416666667, "rental_uris": {"android": "https://dc.lft.to/lastmile_qr_scan", "ios": "https://dc.lft.to/lastmile_qr_scan"}, "bike_id": "7b2d92ff6b9e1ee3bbfb5b171b4c0d17", "lon": -77.03354533333334}, {"is_reserved": 0, "fusion_lon": 0.0, "fusion_lat": 0.0, "name": "649053f70f2d199fa0e1491397f4c432", "type": "electric_scooter", "is_disabled": 0, "lat": 38.91567216666667, "rental_uris": {"android": "https://dc.lft.to/lastmile_qr_scan", "ios": "https://dc.lft.to/lastmile_qr_scan"}, "bike_id": "649053f70f2d199fa0e1491397f4c432", "lon": -77.03183266666667}, {"is_reserved": 0, "fusion_lon": 0.0, "fusion_lat": 0.0, "name": "e4680c5b4e78b868ae030da5605855d3", "type": "electric_bike", "is_disabled": 0, "lat": 38.95307966666667, "rental_uris": {"android": "https://dc.lft.to/lastmile_qr_scan", "ios": "https://dc.lft.to/lastmile_qr_scan"}, "bike_id": "e4680c5b4e78b868ae030da5605855d3", "lon": -77.02373816666666}, {"is_reserved": 0, "fusion_lon": 0.0, "fusion_lat": 0.0, "name": "cd95a94b4485e36f5b376554f93a12d7", "type": "electric_scooter", "is_disabled": 0, "lat": 38.881101666666666, "rental_uris": {"android": "https://dc.lft.to/lastmile_qr_scan", "ios": "https://dc.lft.to/lastmile_qr_scan"}, "bike_id": "cd95a94b4485e36f5b376554f93a12d7", "lon": -77.01657083333333}, {"is_reserved": 0, "fusion_lon": 0.0, "fusion_lat": 0.0, "name": "5fd923a1f29a434e801202aadb73b3a1", "type": "electric_scooter", "is_disabled": 0, "lat": 38.896110166666666, "rental_uris": {"android": "https://dc.lft.to/lastmile_qr_scan", "ios": "https://dc.lft.to/lastmile_qr_scan"}, "bike_id": "5fd923a1f29a434e801202aadb73b3a1", "lon": -77.046009}, {"is_reserved": 0, "fusion_lon": 0.0, "fusion_lat": 0.0, "name": "b00a1f86dd46418d2d2d130ded3a2c03", "type": "electric_scooter", "is_disabled": 0, "lat": 38.896042333333334, "rental_uris": {"android": "https://dc.lft.to/lastmile_qr_scan", "ios": "https://dc.lft.to/lastmile_qr_scan"}, "bike_id": "b00a1f86dd46418d2d2d130ded3a2c03", "lon": -77.0498015}, {"is_reserved": 0, "fusion_lon": 0.0, "fusion_lat": 0.0, "name": "ba81ad6fdc53d735b2e869a4f61b2ba1", "type": "electric_scooter", "is_disabled": 0, "lat": 38.885349, "rental_uris": {"android": "https://dc.lft.to/lastmile_qr_scan", "ios": "https://dc.lft.to/lastmile_qr_scan"}, "bike_id": "ba81ad6fdc53d735b2e869a4f61b2ba1", "lon": -76.98057583333333}, {"is_reserved": 0, "fusion_lon": 0.0, "fusion_lat": 0.0, "name": "25444e29d5703413689b6137aef184d5", "type": "electric_scooter", "is_disabled": 0, "lat": 38.94302666666667, "rental_uris": {"android": "https://dc.lft.to/lastmile_qr_scan", "ios": "https://dc.lft.to/lastmile_qr_scan"}, "bike_id": "25444e29d5703413689b6137aef184d5", "lon": -77.0629985}, {"is_reserved": 0, "fusion_lon": 0.0, "fusion_lat": 0.0, "name": "aafbf97a5a1738e7a0924f520e450f05", "type": "electric_scooter", "is_disabled": 0, "lat": 38.91051483333333, "rental_uris": {"android": "https://dc.lft.to/lastmile_qr_scan", "ios": "https://dc.lft.to/lastmile_qr_scan"}, "bike_id": "aafbf97a5a1738e7a0924f520e450f05", "lon": -77.064854}, {"is_reserved": 0, "fusion_lon": 0.0, "fusion_lat": 0.0, "name": "40a0e6726c1d33d284255742a13f4f9e", "type": "electric_scooter", "is_disabled": 0, "lat": 38.91004516666667, "rental_uris": {"android": "https://dc.lft.to/lastmile_qr_scan", "ios": "https://dc.lft.to/lastmile_qr_scan"}, "bike_id": "40a0e6726c1d33d284255742a13f4f9e", "lon": -77.0344745}, {"is_reserved": 0, "fusion_lon": 0.0, "fusion_lat": 0.0, "name": "979db72d5532bd095f753b51c09ad7f8", "type": "electric_scooter", "is_disabled": 0, "lat": 38.90827916666667, "rental_uris": {"android": "https://dc.lft.to/lastmile_qr_scan", "ios": "https://dc.lft.to/lastmile_qr_scan"}, "bike_id": "979db72d5532bd095f753b51c09ad7f8", "lon": -77.0743435}, {"is_reserved": 0, "fusion_lon": 0.0, "fusion_lat": 0.0, "name": "505f7242a95dc25f878ef615b3cadcf3", "type": "electric_scooter", "is_disabled": 0, "lat": 38.930382, "rental_uris": {"android": "https://dc.lft.to/lastmile_qr_scan", "ios": "https://dc.lft.to/lastmile_qr_scan"}, "bike_id": "505f7242a95dc25f878ef615b3cadcf3", "lon": -77.0279415}, {"is_reserved": 0, "fusion_lon": 0.0, "fusion_lat": 0.0, "name": "af3b4e2f332f9953feb87b882af3cfa1", "type": "electric_scooter", "is_disabled": 0, "lat": 38.90015183333333, "rental_uris": {"android": "https://dc.lft.to/lastmile_qr_scan", "ios": "https://dc.lft.to/lastmile_qr_scan"}, "bike_id": "af3b4e2f332f9953feb87b882af3cfa1", "lon": -77.044044}, {"is_reserved": 0, "fusion_lon": 0.0, "fusion_lat": 0.0, "name": "8fff5682fa2d817904b1d5ac6b6d2230", "type": "electric_scooter", "is_disabled": 0, "lat": 38.917886, "rental_uris": {"android": "https://dc.lft.to/lastmile_qr_scan", "ios": "https://dc.lft.to/lastmile_qr_scan"}, "bike_id": "8fff5682fa2d817904b1d5ac6b6d2230", "lon": -77.04267766666666}, {"is_reserved": 0, "fusion_lon": 0.0, "fusion_lat": 0.0, "name": "03f7c12aedc63782d63433813fa90e5b", "type": "electric_bike", "is_disabled": 0, "lat": 38.82910316666667, "rental_uris": {"android": "https://dc.lft.to/lastmile_qr_scan", "ios": "https://dc.lft.to/lastmile_qr_scan"}, "bike_id": "03f7c12aedc63782d63433813fa90e5b", "lon": -76.997825}, {"is_reserved": 0, "fusion_lon": 0.0, "fusion_lat": 0.0, "name": "a57da2698e3c6572bf0e3cff46dfebb4", "type": "electric_scooter", "is_disabled": 0, "lat": 38.903993666666665, "rental_uris": {"android": "https://dc.lft.to/lastmile_qr_scan", "ios": "https://dc.lft.to/lastmile_qr_scan"}, "bike_id": "a57da2698e3c6572bf0e3cff46dfebb4", "lon": -77.06296433333333}, {"is_reserved": 0, "fusion_lon": 0.0, "fusion_lat": 0.0, "name": "2d07058a24770033d56f6d6e6d062104", "type": "electric_scooter", "is_disabled": 0, "lat": 38.893713, "rental_uris": {"android": "https://dc.lft.to/lastmile_qr_scan", "ios": "https://dc.lft.to/lastmile_qr_scan"}, "bike_id": "2d07058a24770033d56f6d6e6d062104", "lon": -76.949949}, {"is_reserved": 0, "fusion_lon": 0.0, "fusion_lat": 0.0, "name": "3db6daffcb8c1b8b5194aa2b6e8d66e3", "type": "electric_scooter", "is_disabled": 0, "lat": 38.89911, "rental_uris": {"android": "https://dc.lft.to/lastmile_qr_scan", "ios": "https://dc.lft.to/lastmile_qr_scan"}, "bike_id": "3db6daffcb8c1b8b5194aa2b6e8d66e3", "lon": -77.032599}, {"is_reserved": 0, "fusion_lon": 0.0, "fusion_lat": 0.0, "name": "9d8cea8399671b394a9f620e0e653bc1", "type": "electric_scooter", "is_disabled": 0, "lat": 38.89960816666667, "rental_uris": {"android": "https://dc.lft.to/lastmile_qr_scan", "ios": "https://dc.lft.to/lastmile_qr_scan"}, "bike_id": "9d8cea8399671b394a9f620e0e653bc1", "lon": -77.045053}, {"is_reserved": 0, "fusion_lon": 0.0, "fusion_lat": 0.0, "name": "b9df501db97c1d9d48bbf36b5f5ddf9a", "type": "electric_scooter", "is_disabled": 0, "lat": 38.92108016666667, "rental_uris": {"android": "https://dc.lft.to/lastmile_qr_scan", "ios": "https://dc.lft.to/lastmile_qr_scan"}, "bike_id": "b9df501db97c1d9d48bbf36b5f5ddf9a", "lon": -77.0202605}, {"is_reserved": 0, "fusion_lon": 0.0, "fusion_lat": 0.0, "name": "1ab0bd505b54752b86524c36907b826f", "type": "electric_scooter", "is_disabled": 0, "lat": 38.90314983333333, "rental_uris": {"android": "https://dc.lft.to/lastmile_qr_scan", "ios": "https://dc.lft.to/lastmile_qr_scan"}, "bike_id": "1ab0bd505b54752b86524c36907b826f", "lon": -77.031803}, {"is_reserved": 0, "fusion_lon": 0.0, "fusion_lat": 0.0, "name": "8eaace400bbe17404e309e8c9c1e31da", "type": "electric_scooter", "is_disabled": 0, "lat": 38.9385945, "rental_uris": {"android": "https://dc.lft.to/lastmile_qr_scan", "ios": "https://dc.lft.to/lastmile_qr_scan"}, "bike_id": "8eaace400bbe17404e309e8c9c1e31da", "lon": -77.02466266666667}, {"is_reserved": 0, "fusion_lon": 0.0, "fusion_lat": 0.0, "name": "95320ee552ca845e15be5fa2b36cfdbe", "type": "electric_scooter", "is_disabled": 0, "lat": 38.91112, "rental_uris": {"android": "https://dc.lft.to/lastmile_qr_scan", "ios": "https://dc.lft.to/lastmile_qr_scan"}, "bike_id": "95320ee552ca845e15be5fa2b36cfdbe", "lon": -77.02176433333334}, {"is_reserved": 0, "fusion_lon": 0.0, "fusion_lat": 0.0, "name": "05ef8ac8ab89287769e9cbbcaa4c90be", "type": "electric_scooter", "is_disabled": 0, "lat": 38.87161183333333, "rental_uris": {"android": "https://dc.lft.to/lastmile_qr_scan", "ios": "https://dc.lft.to/lastmile_qr_scan"}, "bike_id": "05ef8ac8ab89287769e9cbbcaa4c90be", "lon": -76.97737916666667}, {"is_reserved": 0, "fusion_lon": 0.0, "fusion_lat": 0.0, "name": "d4209e5a3750502976c64a2f1436d0de", "type": "electric_scooter", "is_disabled": 0, "lat": 38.89170516666667, "rental_uris": {"android": "https://dc.lft.to/lastmile_qr_scan", "ios": "https://dc.lft.to/lastmile_qr_scan"}, "bike_id": "d4209e5a3750502976c64a2f1436d0de", "lon": -76.9119225}, {"is_reserved": 0, "fusion_lon": 0.0, "fusion_lat": 0.0, "name": "5b28736ce641cd389212b8cc0c921736", "type": "electric_scooter", "is_disabled": 0, "lat": 38.90977733333333, "rental_uris": {"android": "https://dc.lft.to/lastmile_qr_scan", "ios": "https://dc.lft.to/lastmile_qr_scan"}, "bike_id": "5b28736ce641cd389212b8cc0c921736", "lon": -77.04259016666667}, {"is_reserved": 0, "fusion_lon": 0.0, "fusion_lat": 0.0, "name": "bf750a8e12767c1f0b9260d4c99066c3", "type": "electric_scooter", "is_disabled": 0, "lat": 38.93230033333333, "rental_uris": {"android": "https://dc.lft.to/lastmile_qr_scan", "ios": "https://dc.lft.to/lastmile_qr_scan"}, "bike_id": "bf750a8e12767c1f0b9260d4c99066c3", "lon": -77.03869}, {"is_reserved": 0, "fusion_lon": 0.0, "fusion_lat": 0.0, "name": "26e65e80c9cf3d8cd0a606f9fbfbde95", "type": "electric_scooter", "is_disabled": 0, "lat": 38.9218215, "rental_uris": {"android": "https://dc.lft.to/lastmile_qr_scan", "ios": "https://dc.lft.to/lastmile_qr_scan"}, "bike_id": "26e65e80c9cf3d8cd0a606f9fbfbde95", "lon": -77.021054}, {"is_reserved": 0, "fusion_lon": 0.0, "fusion_lat": 0.0, "name": "25794e2fff5f0d518fd53d7e07cb23f3", "type": "electric_scooter", "is_disabled": 0, "lat": 38.90773083333333, "rental_uris": {"android": "https://dc.lft.to/lastmile_qr_scan", "ios": "https://dc.lft.to/lastmile_qr_scan"}, "bike_id": "25794e2fff5f0d518fd53d7e07cb23f3", "lon": -77.03496566666666}, {"is_reserved": 0, "fusion_lon": 0.0, "fusion_lat": 0.0, "name": "d5ba3aeab1699787c8c1d400f5dd46e0", "type": "electric_scooter", "is_disabled": 0, "lat": 38.92140066666666, "rental_uris": {"android": "https://dc.lft.to/lastmile_qr_scan", "ios": "https://dc.lft.to/lastmile_qr_scan"}, "bike_id": "d5ba3aeab1699787c8c1d400f5dd46e0", "lon": -77.021002}, {"is_reserved": 0, "fusion_lon": 0.0, "fusion_lat": 0.0, "name": "39d99dd7ab37b938083bc5f2590b9dda", "type": "electric_scooter", "is_disabled": 0, "lat": 38.89144316666667, "rental_uris": {"android": "https://dc.lft.to/lastmile_qr_scan", "ios": "https://dc.lft.to/lastmile_qr_scan"}, "bike_id": "39d99dd7ab37b938083bc5f2590b9dda", "lon": -76.98383733333333}, {"is_reserved": 0, "fusion_lon": 0.0, "fusion_lat": 0.0, "name": "35a3395dbff7ad5de6836736dcb1dcf9", "type": "electric_scooter", "is_disabled": 0, "lat": 38.90596216666667, "rental_uris": {"android": "https://dc.lft.to/lastmile_qr_scan", "ios": "https://dc.lft.to/lastmile_qr_scan"}, "bike_id": "35a3395dbff7ad5de6836736dcb1dcf9", "lon": -77.041678}, {"is_reserved": 0, "fusion_lon": 0.0, "fusion_lat": 0.0, "name": "326d92b79b02017794b09ef2fc09e52f", "type": "electric_scooter", "is_disabled": 0, "lat": 38.91693816666667, "rental_uris": {"android": "https://dc.lft.to/lastmile_qr_scan", "ios": "https://dc.lft.to/lastmile_qr_scan"}, "bike_id": "326d92b79b02017794b09ef2fc09e52f", "lon": -77.03356133333334}, {"is_reserved": 0, "fusion_lon": 0.0, "fusion_lat": 0.0, "name": "b5b405345faf00667f441085a46fe95a", "type": "electric_scooter", "is_disabled": 0, "lat": 38.932280666666664, "rental_uris": {"android": "https://dc.lft.to/lastmile_qr_scan", "ios": "https://dc.lft.to/lastmile_qr_scan"}, "bike_id": "b5b405345faf00667f441085a46fe95a", "lon": -77.03868433333334}, {"is_reserved": 0, "fusion_lon": 0.0, "fusion_lat": 0.0, "name": "a15a009912c6424eca8696c1394fdb43", "type": "electric_scooter", "is_disabled": 0, "lat": 38.8998555, "rental_uris": {"android": "https://dc.lft.to/lastmile_qr_scan", "ios": "https://dc.lft.to/lastmile_qr_scan"}, "bike_id": "a15a009912c6424eca8696c1394fdb43", "lon": -76.9884105}, {"is_reserved": 0, "fusion_lon": 0.0, "fusion_lat": 0.0, "name": "19781a9959beb8de2f2598ac64899e1e", "type": "electric_scooter", "is_disabled": 0, "lat": 38.886123833333336, "rental_uris": {"android": "https://dc.lft.to/lastmile_qr_scan", "ios": "https://dc.lft.to/lastmile_qr_scan"}, "bike_id": "19781a9959beb8de2f2598ac64899e1e", "lon": -76.9965845}, {"is_reserved": 0, "fusion_lon": 0.0, "fusion_lat": 0.0, "name": "121e266b9c5e3b00dcd06046a6a94a4e", "type": "electric_scooter", "is_disabled": 0, "lat": 38.8974715, "rental_uris": {"android": "https://dc.lft.to/lastmile_qr_scan", "ios": "https://dc.lft.to/lastmile_qr_scan"}, "bike_id": "121e266b9c5e3b00dcd06046a6a94a4e", "lon": -77.04008983333334}, {"is_reserved": 0, "fusion_lon": 0.0, "fusion_lat": 0.0, "name": "c9313f62ab43fe3464254f240e9287a9", "type": "electric_bike", "is_disabled": 0, "lat": 38.94551766666667, "rental_uris": {"android": "https://dc.lft.to/lastmile_qr_scan", "ios": "https://dc.lft.to/lastmile_qr_scan"}, "bike_id": "c9313f62ab43fe3464254f240e9287a9", "lon": -76.89541766666666}, {"is_reserved": 0, "fusion_lon": 0.0, "fusion_lat": 0.0, "name": "fa6d476369f953c66765dd7a2ad2eb06", "type": "electric_scooter", "is_disabled": 0, "lat": 38.918180166666666, "rental_uris": {"android": "https://dc.lft.to/lastmile_qr_scan", "ios": "https://dc.lft.to/lastmile_qr_scan"}, "bike_id": "fa6d476369f953c66765dd7a2ad2eb06", "lon": -77.03552583333334}, {"is_reserved": 0, "fusion_lon": 0.0, "fusion_lat": 0.0, "name": "d32005d2ef0d56dfe5c1896fe034fe27", "type": "electric_scooter", "is_disabled": 0, "lat": 38.91555983333333, "rental_uris": {"android": "https://dc.lft.to/lastmile_qr_scan", "ios": "https://dc.lft.to/lastmile_qr_scan"}, "bike_id": "d32005d2ef0d56dfe5c1896fe034fe27", "lon": -77.031707}, {"is_reserved": 0, "fusion_lon": 0.0, "fusion_lat": 0.0, "name": "b07d2fbf7e530829e2e917ccf468b3e2", "type": "electric_scooter", "is_disabled": 0, "lat": 38.882813, "rental_uris": {"android": "https://dc.lft.to/lastmile_qr_scan", "ios": "https://dc.lft.to/lastmile_qr_scan"}, "bike_id": "b07d2fbf7e530829e2e917ccf468b3e2", "lon": -76.98779583333334}, {"is_reserved": 0, "fusion_lon": 0.0, "fusion_lat": 0.0, "name": "39d8bb787e05822c94034d9ac630fd38", "type": "electric_scooter", "is_disabled": 0, "lat": 38.921492666666666, "rental_uris": {"android": "https://dc.lft.to/lastmile_qr_scan", "ios": "https://dc.lft.to/lastmile_qr_scan"}, "bike_id": "39d8bb787e05822c94034d9ac630fd38", "lon": -77.02052066666667}, {"is_reserved": 0, "fusion_lon": 0.0, "fusion_lat": 0.0, "name": "15f2a2a1faeb8939992cca8cfbeb0f1b", "type": "electric_scooter", "is_disabled": 0, "lat": 38.9134105, "rental_uris": {"android": "https://dc.lft.to/lastmile_qr_scan", "ios": "https://dc.lft.to/lastmile_qr_scan"}, "bike_id": "15f2a2a1faeb8939992cca8cfbeb0f1b", "lon": -77.01029266666667}, {"is_reserved": 0, "fusion_lon": 0.0, "fusion_lat": 0.0, "name": "57a62e9b4c4b00dd2bec7663f921faa1", "type": "electric_scooter", "is_disabled": 0, "lat": 38.91854633333333, "rental_uris": {"android": "https://dc.lft.to/lastmile_qr_scan", "ios": "https://dc.lft.to/lastmile_qr_scan"}, "bike_id": "57a62e9b4c4b00dd2bec7663f921faa1", "lon": -77.02550933333333}, {"is_reserved": 0, "fusion_lon": 0.0, "fusion_lat": 0.0, "name": "ea77c38e13e1d30f1f027285375651fd", "type": "electric_scooter", "is_disabled": 0, "lat": 38.92157383333333, "rental_uris": {"android": "https://dc.lft.to/lastmile_qr_scan", "ios": "https://dc.lft.to/lastmile_qr_scan"}, "bike_id": "ea77c38e13e1d30f1f027285375651fd", "lon": -77.02087966666667}, {"is_reserved": 0, "fusion_lon": 0.0, "fusion_lat": 0.0, "name": "b8ffc840a655c4df672aece6029783ae", "type": "electric_scooter", "is_disabled": 0, "lat": 38.9426335, "rental_uris": {"android": "https://dc.lft.to/lastmile_qr_scan", "ios": "https://dc.lft.to/lastmile_qr_scan"}, "bike_id": "b8ffc840a655c4df672aece6029783ae", "lon": -77.028428}, {"is_reserved": 0, "fusion_lon": 0.0, "fusion_lat": 0.0, "name": "babac8e1fafdacc578e2f462fedb8f0a", "type": "electric_scooter", "is_disabled": 0, "lat": 38.90968683333333, "rental_uris": {"android": "https://dc.lft.to/lastmile_qr_scan", "ios": "https://dc.lft.to/lastmile_qr_scan"}, "bike_id": "babac8e1fafdacc578e2f462fedb8f0a", "lon": -77.03336566666667}, {"is_reserved": 0, "fusion_lon": 0.0, "fusion_lat": 0.0, "name": "49a36265c5396142b6c5de7bbb43937f", "type": "electric_scooter", "is_disabled": 0, "lat": 38.91784533333333, "rental_uris": {"android": "https://dc.lft.to/lastmile_qr_scan", "ios": "https://dc.lft.to/lastmile_qr_scan"}, "bike_id": "49a36265c5396142b6c5de7bbb43937f", "lon": -77.0402835}, {"is_reserved": 0, "fusion_lon": 0.0, "fusion_lat": 0.0, "name": "13eb264de8ecdb9dd938c5103830031c", "type": "electric_scooter", "is_disabled": 0, "lat": 38.92971, "rental_uris": {"android": "https://dc.lft.to/lastmile_qr_scan", "ios": "https://dc.lft.to/lastmile_qr_scan"}, "bike_id": "13eb264de8ecdb9dd938c5103830031c", "lon": -77.055041}, {"is_reserved": 0, "fusion_lon": 0.0, "fusion_lat": 0.0, "name": "06abb33735c658fe3b9c96ea795fd152", "type": "electric_scooter", "is_disabled": 0, "lat": 38.9002895, "rental_uris": {"android": "https://dc.lft.to/lastmile_qr_scan", "ios": "https://dc.lft.to/lastmile_qr_scan"}, "bike_id": "06abb33735c658fe3b9c96ea795fd152", "lon": -77.00690933333334}, {"is_reserved": 0, "fusion_lon": 0.0, "fusion_lat": 0.0, "name": "b1524e2a97228bf995e2fdb51d3419c4", "type": "electric_bike", "is_disabled": 0, "lat": 38.969613, "rental_uris": {"android": "https://dc.lft.to/lastmile_qr_scan", "ios": "https://dc.lft.to/lastmile_qr_scan"}, "bike_id": "b1524e2a97228bf995e2fdb51d3419c4", "lon": -76.95750066666666}, {"is_reserved": 0, "fusion_lon": 0.0, "fusion_lat": 0.0, "name": "6af61afd3ce11c0706365e302fa9a3f3", "type": "electric_scooter", "is_disabled": 0, "lat": 38.905063166666665, "rental_uris": {"android": "https://dc.lft.to/lastmile_qr_scan", "ios": "https://dc.lft.to/lastmile_qr_scan"}, "bike_id": "6af61afd3ce11c0706365e302fa9a3f3", "lon": -77.04821883333334}, {"is_reserved": 0, "fusion_lon": 0.0, "fusion_lat": 0.0, "name": "d596e765114c7b51a79e8794ae9ba87f", "type": "electric_scooter", "is_disabled": 0, "lat": 38.86010683333333, "rental_uris": {"android": "https://dc.lft.to/lastmile_qr_scan", "ios": "https://dc.lft.to/lastmile_qr_scan"}, "bike_id": "d596e765114c7b51a79e8794ae9ba87f", "lon": -76.985079}, {"is_reserved": 0, "fusion_lon": 0.0, "fusion_lat": 0.0, "name": "d991028b7d600fc3ba5b92de395ff080", "type": "electric_scooter", "is_disabled": 0, "lat": 38.902393000000004, "rental_uris": {"android": "https://dc.lft.to/lastmile_qr_scan", "ios": "https://dc.lft.to/lastmile_qr_scan"}, "bike_id": "d991028b7d600fc3ba5b92de395ff080", "lon": -77.02816416666667}, {"is_reserved": 0, "fusion_lon": 0.0, "fusion_lat": 0.0, "name": "9b87e7e82163acedaed4641902525ae1", "type": "electric_scooter", "is_disabled": 0, "lat": 38.8842515, "rental_uris": {"android": "https://dc.lft.to/lastmile_qr_scan", "ios": "https://dc.lft.to/lastmile_qr_scan"}, "bike_id": "9b87e7e82163acedaed4641902525ae1", "lon": -77.017811}, {"is_reserved": 0, "fusion_lon": 0.0, "fusion_lat": 0.0, "name": "6fdc9f0510b8a886d3d92f7c7c0fee6b", "type": "electric_scooter", "is_disabled": 0, "lat": 38.922492166666665, "rental_uris": {"android": "https://dc.lft.to/lastmile_qr_scan", "ios": "https://dc.lft.to/lastmile_qr_scan"}, "bike_id": "6fdc9f0510b8a886d3d92f7c7c0fee6b", "lon": -77.03064166666667}, {"is_reserved": 0, "fusion_lon": 0.0, "fusion_lat": 0.0, "name": "820f5120c23c7de6858ead5d2a80b00a", "type": "electric_scooter", "is_disabled": 0, "lat": 38.905078833333334, "rental_uris": {"android": "https://dc.lft.to/lastmile_qr_scan", "ios": "https://dc.lft.to/lastmile_qr_scan"}, "bike_id": "820f5120c23c7de6858ead5d2a80b00a", "lon": -77.04652166666666}, {"is_reserved": 0, "fusion_lon": 0.0, "fusion_lat": 0.0, "name": "86e29899a221b5d176d2f7cd8c7182da", "type": "electric_scooter", "is_disabled": 0, "lat": 38.9168735, "rental_uris": {"android": "https://dc.lft.to/lastmile_qr_scan", "ios": "https://dc.lft.to/lastmile_qr_scan"}, "bike_id": "86e29899a221b5d176d2f7cd8c7182da", "lon": -77.025976}, {"is_reserved": 0, "fusion_lon": 0.0, "fusion_lat": 0.0, "name": "4e682f6343e0b5deab1ed4d62a78f729", "type": "electric_scooter", "is_disabled": 0, "lat": 38.92755966666667, "rental_uris": {"android": "https://dc.lft.to/lastmile_qr_scan", "ios": "https://dc.lft.to/lastmile_qr_scan"}, "bike_id": "4e682f6343e0b5deab1ed4d62a78f729", "lon": -77.03277666666666}, {"is_reserved": 0, "fusion_lon": 0.0, "fusion_lat": 0.0, "name": "c21d1550d5da78e02f30b600135296cf", "type": "electric_scooter", "is_disabled": 0, "lat": 38.922560833333335, "rental_uris": {"android": "https://dc.lft.to/lastmile_qr_scan", "ios": "https://dc.lft.to/lastmile_qr_scan"}, "bike_id": "c21d1550d5da78e02f30b600135296cf", "lon": -77.0351845}, {"is_reserved": 0, "fusion_lon": 0.0, "fusion_lat": 0.0, "name": "364e5353319bff45c18f053437d31b57", "type": "electric_bike", "is_disabled": 0, "lat": 38.938104833333334, "rental_uris": {"android": "https://dc.lft.to/lastmile_qr_scan", "ios": "https://dc.lft.to/lastmile_qr_scan"}, "bike_id": "364e5353319bff45c18f053437d31b57", "lon": -77.068606}, {"is_reserved": 0, "fusion_lon": 0.0, "fusion_lat": 0.0, "name": "28e75c4cd59c8debaeeba7667de38218", "type": "electric_scooter", "is_disabled": 0, "lat": 38.916275666666664, "rental_uris": {"android": "https://dc.lft.to/lastmile_qr_scan", "ios": "https://dc.lft.to/lastmile_qr_scan"}, "bike_id": "28e75c4cd59c8debaeeba7667de38218", "lon": -77.04817866666667}, {"is_reserved": 0, "fusion_lon": 0.0, "fusion_lat": 0.0, "name": "5979109c782aabe5dd1a0c2fb5361853", "type": "electric_scooter", "is_disabled": 0, "lat": 38.89223833333333, "rental_uris": {"android": "https://dc.lft.to/lastmile_qr_scan", "ios": "https://dc.lft.to/lastmile_qr_scan"}, "bike_id": "5979109c782aabe5dd1a0c2fb5361853", "lon": -77.04372633333334}, {"is_reserved": 0, "fusion_lon": 0.0, "fusion_lat": 0.0, "name": "38e8eac49ad876cea87166cb9463a07f", "type": "electric_scooter", "is_disabled": 0, "lat": 38.909991166666664, "rental_uris": {"android": "https://dc.lft.to/lastmile_qr_scan", "ios": "https://dc.lft.to/lastmile_qr_scan"}, "bike_id": "38e8eac49ad876cea87166cb9463a07f", "lon": -77.0385215}, {"is_reserved": 0, "fusion_lon": 0.0, "fusion_lat": 0.0, "name": "cd3f4a5b2366311ffe05aadd9040e264", "type": "electric_scooter", "is_disabled": 0, "lat": 38.893502, "rental_uris": {"android": "https://dc.lft.to/lastmile_qr_scan", "ios": "https://dc.lft.to/lastmile_qr_scan"}, "bike_id": "cd3f4a5b2366311ffe05aadd9040e264", "lon": -77.041893}, {"is_reserved": 0, "fusion_lon": 0.0, "fusion_lat": 0.0, "name": "26f3a6bec2d3067ba046b16282716d07", "type": "electric_scooter", "is_disabled": 0, "lat": 38.880075, "rental_uris": {"android": "https://dc.lft.to/lastmile_qr_scan", "ios": "https://dc.lft.to/lastmile_qr_scan"}, "bike_id": "26f3a6bec2d3067ba046b16282716d07", "lon": -77.02188433333333}, {"is_reserved": 0, "fusion_lon": 0.0, "fusion_lat": 0.0, "name": "d86279e94c605190b1931d61feaae31a", "type": "electric_scooter", "is_disabled": 0, "lat": 38.90739033333333, "rental_uris": {"android": "https://dc.lft.to/lastmile_qr_scan", "ios": "https://dc.lft.to/lastmile_qr_scan"}, "bike_id": "d86279e94c605190b1931d61feaae31a", "lon": -76.98689}, {"is_reserved": 0, "fusion_lon": 0.0, "fusion_lat": 0.0, "name": "96ef1d22f9a120f26b0149c545317488", "type": "electric_scooter", "is_disabled": 0, "lat": 38.86899483333333, "rental_uris": {"android": "https://dc.lft.to/lastmile_qr_scan", "ios": "https://dc.lft.to/lastmile_qr_scan"}, "bike_id": "96ef1d22f9a120f26b0149c545317488", "lon": -76.9823125}, {"is_reserved": 0, "fusion_lon": 0.0, "fusion_lat": 0.0, "name": "f158769e23afb4dc9db5f5e08ab65e84", "type": "electric_scooter", "is_disabled": 0, "lat": 38.918811, "rental_uris": {"android": "https://dc.lft.to/lastmile_qr_scan", "ios": "https://dc.lft.to/lastmile_qr_scan"}, "bike_id": "f158769e23afb4dc9db5f5e08ab65e84", "lon": -77.04183366666666}, {"is_reserved": 0, "fusion_lon": 0.0, "fusion_lat": 0.0, "name": "03700d48957bd2c6d30ab5f75e9d259c", "type": "electric_scooter", "is_disabled": 0, "lat": 38.879017833333336, "rental_uris": {"android": "https://dc.lft.to/lastmile_qr_scan", "ios": "https://dc.lft.to/lastmile_qr_scan"}, "bike_id": "03700d48957bd2c6d30ab5f75e9d259c", "lon": -77.0137735}, {"is_reserved": 0, "fusion_lon": 0.0, "fusion_lat": 0.0, "name": "b37b76d5810a5816de9ec67d6db66a02", "type": "electric_scooter", "is_disabled": 0, "lat": 38.89959066666667, "rental_uris": {"android": "https://dc.lft.to/lastmile_qr_scan", "ios": "https://dc.lft.to/lastmile_qr_scan"}, "bike_id": "b37b76d5810a5816de9ec67d6db66a02", "lon": -77.042171}, {"is_reserved": 0, "fusion_lon": 0.0, "fusion_lat": 0.0, "name": "f6d199b2e25f10502d646aeb225b4064", "type": "electric_scooter", "is_disabled": 0, "lat": 38.900732833333336, "rental_uris": {"android": "https://dc.lft.to/lastmile_qr_scan", "ios": "https://dc.lft.to/lastmile_qr_scan"}, "bike_id": "f6d199b2e25f10502d646aeb225b4064", "lon": -77.03956516666666}, {"is_reserved": 0, "fusion_lon": 0.0, "fusion_lat": 0.0, "name": "91b602cee2dcae76da085577a1916541", "type": "electric_scooter", "is_disabled": 0, "lat": 38.866993666666666, "rental_uris": {"android": "https://dc.lft.to/lastmile_qr_scan", "ios": "https://dc.lft.to/lastmile_qr_scan"}, "bike_id": "91b602cee2dcae76da085577a1916541", "lon": -76.98711733333333}, {"is_reserved": 0, "fusion_lon": 0.0, "fusion_lat": 0.0, "name": "75f7165b25713eff22fa7ac52f7d3c63", "type": "electric_scooter", "is_disabled": 0, "lat": 38.91193766666667, "rental_uris": {"android": "https://dc.lft.to/lastmile_qr_scan", "ios": "https://dc.lft.to/lastmile_qr_scan"}, "bike_id": "75f7165b25713eff22fa7ac52f7d3c63", "lon": -77.0302225}, {"is_reserved": 0, "fusion_lon": 0.0, "fusion_lat": 0.0, "name": "5e9d5fd0caf607f4bcbe651944dfad7f", "type": "electric_bike", "is_disabled": 0, "lat": 38.95930633333333, "rental_uris": {"android": "https://dc.lft.to/lastmile_qr_scan", "ios": "https://dc.lft.to/lastmile_qr_scan"}, "bike_id": "5e9d5fd0caf607f4bcbe651944dfad7f", "lon": -76.925337}, {"is_reserved": 0, "fusion_lon": 0.0, "fusion_lat": 0.0, "name": "461ce4bf878922180bb73faf4c884594", "type": "electric_scooter", "is_disabled": 0, "lat": 38.91689616666667, "rental_uris": {"android": "https://dc.lft.to/lastmile_qr_scan", "ios": "https://dc.lft.to/lastmile_qr_scan"}, "bike_id": "461ce4bf878922180bb73faf4c884594", "lon": -77.02684883333333}, {"is_reserved": 0, "fusion_lon": 0.0, "fusion_lat": 0.0, "name": "893e21529968e9de1b6a0056ecf2d4f1", "type": "electric_scooter", "is_disabled": 0, "lat": 38.892275, "rental_uris": {"android": "https://dc.lft.to/lastmile_qr_scan", "ios": "https://dc.lft.to/lastmile_qr_scan"}, "bike_id": "893e21529968e9de1b6a0056ecf2d4f1", "lon": -77.04378033333333}, {"is_reserved": 0, "fusion_lon": 0.0, "fusion_lat": 0.0, "name": "2858a8221e4cf94f72357432555cea16", "type": "electric_scooter", "is_disabled": 0, "lat": 38.927904833333336, "rental_uris": {"android": "https://dc.lft.to/lastmile_qr_scan", "ios": "https://dc.lft.to/lastmile_qr_scan"}, "bike_id": "2858a8221e4cf94f72357432555cea16", "lon": -77.01413283333333}, {"is_reserved": 0, "fusion_lon": 0.0, "fusion_lat": 0.0, "name": "3d90ba81425d5d1d11ca87c968ab108c", "type": "electric_scooter", "is_disabled": 0, "lat": 38.930825, "rental_uris": {"android": "https://dc.lft.to/lastmile_qr_scan", "ios": "https://dc.lft.to/lastmile_qr_scan"}, "bike_id": "3d90ba81425d5d1d11ca87c968ab108c", "lon": -77.004122}, {"is_reserved": 0, "fusion_lon": 0.0, "fusion_lat": 0.0, "name": "4a5163859d87996256340f233016ce58", "type": "electric_scooter", "is_disabled": 0, "lat": 38.91817366666667, "rental_uris": {"android": "https://dc.lft.to/lastmile_qr_scan", "ios": "https://dc.lft.to/lastmile_qr_scan"}, "bike_id": "4a5163859d87996256340f233016ce58", "lon": -77.089492}, {"is_reserved": 0, "fusion_lon": 0.0, "fusion_lat": 0.0, "name": "7939002725ab255c8ed40013c42d09fd", "type": "electric_bike", "is_disabled": 0, "lat": 38.9632165, "rental_uris": {"android": "https://dc.lft.to/lastmile_qr_scan", "ios": "https://dc.lft.to/lastmile_qr_scan"}, "bike_id": "7939002725ab255c8ed40013c42d09fd", "lon": -76.97357616666666}, {"is_reserved": 0, "fusion_lon": 0.0, "fusion_lat": 0.0, "name": "63c9f9a1d4ba86a432f353c544e3d8dc", "type": "electric_scooter", "is_disabled": 0, "lat": 38.88752, "rental_uris": {"android": "https://dc.lft.to/lastmile_qr_scan", "ios": "https://dc.lft.to/lastmile_qr_scan"}, "bike_id": "63c9f9a1d4ba86a432f353c544e3d8dc", "lon": -77.02216983333334}, {"is_reserved": 0, "fusion_lon": 0.0, "fusion_lat": 0.0, "name": "4ddb4ebd39a014c29ec0271384c57bc8", "type": "electric_scooter", "is_disabled": 0, "lat": 38.912888833333334, "rental_uris": {"android": "https://dc.lft.to/lastmile_qr_scan", "ios": "https://dc.lft.to/lastmile_qr_scan"}, "bike_id": "4ddb4ebd39a014c29ec0271384c57bc8", "lon": -77.02386566666667}, {"is_reserved": 0, "fusion_lon": 0.0, "fusion_lat": 0.0, "name": "2442798d1a427972074f3286958d2691", "type": "electric_scooter", "is_disabled": 0, "lat": 38.916269666666665, "rental_uris": {"android": "https://dc.lft.to/lastmile_qr_scan", "ios": "https://dc.lft.to/lastmile_qr_scan"}, "bike_id": "2442798d1a427972074f3286958d2691", "lon": -77.03153933333333}, {"is_reserved": 0, "fusion_lon": 0.0, "fusion_lat": 0.0, "name": "90decf308eff796bf48f351f75882a76", "type": "electric_bike", "is_disabled": 0, "lat": 38.862649, "rental_uris": {"android": "https://dc.lft.to/lastmile_qr_scan", "ios": "https://dc.lft.to/lastmile_qr_scan"}, "bike_id": "90decf308eff796bf48f351f75882a76", "lon": -76.98345666666667}, {"is_reserved": 0, "fusion_lon": 0.0, "fusion_lat": 0.0, "name": "12b9396901816b6e03661aa00c998ddb", "type": "electric_scooter", "is_disabled": 0, "lat": 38.92429816666667, "rental_uris": {"android": "https://dc.lft.to/lastmile_qr_scan", "ios": "https://dc.lft.to/lastmile_qr_scan"}, "bike_id": "12b9396901816b6e03661aa00c998ddb", "lon": -77.05175533333333}, {"is_reserved": 0, "fusion_lon": 0.0, "fusion_lat": 0.0, "name": "3bf8f5f21983dcb7d64fc782b0356584", "type": "electric_scooter", "is_disabled": 0, "lat": 38.9249135, "rental_uris": {"android": "https://dc.lft.to/lastmile_qr_scan", "ios": "https://dc.lft.to/lastmile_qr_scan"}, "bike_id": "3bf8f5f21983dcb7d64fc782b0356584", "lon": -77.02695733333333}, {"is_reserved": 0, "fusion_lon": 0.0, "fusion_lat": 0.0, "name": "c1d8fe48361318e2578d1d0ad8be01ae", "type": "electric_bike", "is_disabled": 0, "lat": 38.9690275, "rental_uris": {"android": "https://dc.lft.to/lastmile_qr_scan", "ios": "https://dc.lft.to/lastmile_qr_scan"}, "bike_id": "c1d8fe48361318e2578d1d0ad8be01ae", "lon": -76.99495816666666}, {"is_reserved": 0, "fusion_lon": 0.0, "fusion_lat": 0.0, "name": "65394d8e75950bfb28c455061db054d8", "type": "electric_scooter", "is_disabled": 0, "lat": 38.930464666666666, "rental_uris": {"android": "https://dc.lft.to/lastmile_qr_scan", "ios": "https://dc.lft.to/lastmile_qr_scan"}, "bike_id": "65394d8e75950bfb28c455061db054d8", "lon": -77.01227416666667}, {"is_reserved": 0, "fusion_lon": 0.0, "fusion_lat": 0.0, "name": "5710d2ba118f853bf82b250c5ce1674c", "type": "electric_scooter", "is_disabled": 0, "lat": 38.936046166666664, "rental_uris": {"android": "https://dc.lft.to/lastmile_qr_scan", "ios": "https://dc.lft.to/lastmile_qr_scan"}, "bike_id": "5710d2ba118f853bf82b250c5ce1674c", "lon": -77.03782733333334}, {"is_reserved": 0, "fusion_lon": 0.0, "fusion_lat": 0.0, "name": "7218b000862768291576ac34a4877986", "type": "electric_scooter", "is_disabled": 0, "lat": 38.918312, "rental_uris": {"android": "https://dc.lft.to/lastmile_qr_scan", "ios": "https://dc.lft.to/lastmile_qr_scan"}, "bike_id": "7218b000862768291576ac34a4877986", "lon": -77.02415716666667},