{"data": {"bikes": [{"fusion_lon": 0.0, "bike_id": "7309188b17dd3221f6ca0cdeb7cba713", "name": "7309188b17dd3221f6ca0cdeb7cba713", "type": "electric_scooter", "lon": -77.04677433333333, "rental_uris": {"android": "https://dc.lft.to/lastmile_qr_scan", "ios": "https://dc.lft.to/lastmile_qr_scan"}, "lat": 38.89501, "is_reserved": 0, "is_disabled": 0, "fusion_lat": 0.0}, {"fusion_lon": 0.0, "bike_id": "d41810e47708562568392041af5c7642", "name": "d41810e47708562568392041af5c7642", "type": "electric_scooter", "lon": -77.0034135, "rental_uris": {"android": "https://dc.lft.to/lastmile_qr_scan", "ios": "https://dc.lft.to/lastmile_qr_scan"}, "lat": 38.89504683333333, "is_reserved": 0, "is_disabled": 0, "fusion_lat": 0.0}, {"fusion_lon": 0.0, "bike_id": "32650f969b01293cf67f7acb1505a50f", "name": "32650f969b01293cf67f7acb1505a50f", "type": "electric_scooter", "lon": -77.01086266666667, "rental_uris": {"android": "https://dc.lft.to/lastmile_qr_scan", "ios": "https://dc.lft.to/lastmile_qr_scan"}, "lat": 38.895031, "is_reserved": 0, "is_disabled": 0, "fusion_lat": 0.0}, {"fusion_lon": 0.0, "bike_id": "d826fa002eacb8efb99a8dfb27bbb85b", "name": "d826fa002eacb8efb99a8dfb27bbb85b", "type": "electric_scooter", "lon": -77.03053883333334, "rental_uris": {"android": "https://dc.lft.to/lastmile_qr_scan", "ios": "https://dc.lft.to/lastmile_qr_scan"}, "lat": 38.884083333333336, "is_reserved": 0, "is_disabled": 0, "fusion_lat": 0.0}, {"fusion_lon": 0.0, "bike_id": "9871147611fdf650b8ead9f067a008e4", "name": "9871147611fdf650b8ead9f067a008e4", "type": "electric_scooter", "lon": -77.02027166666667, "rental_uris": {"android": "https://dc.lft.to/lastmile_qr_scan", "ios": "https://dc.lft.to/lastmile_qr_scan"}, "lat": 38.924411166666665, "is_reserved": 0, "is_disabled": 0, "fusion_lat": 0.0}, {"fusion_lon": 0.0, "bike_id": "8f6b535c5f39ffa894db73ce698de594", "name": "8f6b535c5f39ffa894db73ce698de594", "type": "electric_scooter", "lon": -77.04511266666667, "rental_uris": {"android": "https://dc.lft.to/lastmile_qr_scan", "ios": "https://dc.lft.to/lastmile_qr_scan"}, "lat": 38.90911166666667, "is_reserved": 0, "is_disabled": 0, "fusion_lat": 0.0}, {"fusion_lon": 0.0, "bike_id": "0300746b2ce09c46bc58118abb400c56", "name": "0300746b2ce09c46bc58118abb400c56", "type": "electric_scooter", "lon": -77.0608915, "rental_uris": {"android": "https://dc.lft.to/lastmile_qr_scan", "ios": "https://dc.lft.to/lastmile_qr_scan"}, "lat": 38.943754166666665, "is_reserved": 0, "is_disabled": 0, "fusion_lat": 0.0}, {"fusion_lon": 0.0, "bike_id": "3611cd28cdc212e781535f8cbdc1ecaf", "name": "3611cd28cdc212e781535f8cbdc1ecaf", "type": "electric_scooter", "lon": -77.04026883333333, "rental_uris": {"android": "https://dc.lft.to/lastmile_qr_scan", "ios": "https://dc.lft.to/lastmile_qr_scan"}, "lat": 38.899965, "is_reserved": 0, "is_disabled": 0, "fusion_lat": 0.0}, {"fusion_lon": 0.0, "bike_id": "8e82dcfa02be19242047a387d93c8c1c", "name": "8e82dcfa02be19242047a387d93c8c1c", "type": "electric_scooter", "lon": -77.03183933333334, "rental_uris": {"android": "https://dc.lft.to/lastmile_qr_scan", "ios": "https://dc.lft.to/lastmile_qr_scan"}, "lat": 38.91173466666667, "is_reserved": 0, "is_disabled": 0, "fusion_lat": 0.0}, {"fusion_lon": 0.0, "bike_id": "b522bb372a9b6f854019ed1b9156b83f", "name": "b522bb372a9b6f854019ed1b9156b83f", "type": "electric_scooter", "lon": -77.00813866666667, "rental_uris": {"android": "https://dc.lft.to/lastmile_qr_scan", "ios": "https://dc.lft.to/lastmile_qr_scan"}, "lat": 38.91558466666667, "is_reserved": 0, "is_disabled": 0, "fusion_lat": 0.0}, {"fusion_lon": 0.0, "bike_id": "8a3c400fe10c8c729d3bbcc6508213f1", "name": "8a3c400fe10c8c729d3bbcc6508213f1", "type": "electric_scooter", "lon": -77.002456, "rental_uris": {"android": "https://dc.lft.to/lastmile_qr_scan", "ios": "https://dc.lft.to/lastmile_qr_scan"}, "lat": 38.880159666666664, "is_reserved": 0, "is_disabled": 0, "fusion_lat": 0.0}, {"fusion_lon": 0.0, "bike_id": "07fceb15b296e266e985f575f32270b8", "name": "07fceb15b296e266e985f575f32270b8", "type": "electric_scooter", "lon": -77.041683, "rental_uris": {"android": "https://dc.lft.to/lastmile_qr_scan", "ios": "https://dc.lft.to/lastmile_qr_scan"}, "lat": 38.913554500000004, "is_reserved": 0, "is_disabled": 0, "fusion_lat": 0.0}, {"fusion_lon": 0.0, "bike_id": "7aba1fd1e1758ca3be750fd1f45f4cdf", "name": "7aba1fd1e1758ca3be750fd1f45f4cdf", "type": "electric_scooter", "lon": -76.99847, "rental_uris": {"android": "https://dc.lft.to/lastmile_qr_scan", "ios": "https://dc.lft.to/lastmile_qr_scan"}, "lat": 38.90026183333333, "is_reserved": 0, "is_disabled": 0, "fusion_lat": 0.0}, {"fusion_lon": 0.0, "bike_id": "41b4c75c138c0991c11cc741de182dd8", "name": "41b4c75c138c0991c11cc741de182dd8", "type": "electric_scooter", "lon": -77.03263933333334, "rental_uris": {"android": "https://dc.lft.to/lastmile_qr_scan", "ios": "https://dc.lft.to/lastmile_qr_scan"}, "lat": 38.92985266666667, "is_reserved": 0, "is_disabled": 0, "fusion_lat": 0.0}, {"fusion_lon": 0.0, "bike_id": "de052710ad868b32babc1b76ea7880cf", "name": "de052710ad868b32babc1b76ea7880cf", "type": "electric_scooter", "lon": -77.04703483333333, "rental_uris": {"android": "https://dc.lft.to/lastmile_qr_scan", "ios": "https://dc.lft.to/lastmile_qr_scan"}, "lat": 38.9166605, "is_reserved": 0, "is_disabled": 0, "fusion_lat": 0.0}, {"fusion_lon": 0.0, "bike_id": "b60072ae03b37f5e615a601c28505bc8", "name": "b60072ae03b37f5e615a601c28505bc8", "type": "electric_scooter", "lon": -77.03862066666667, "rental_uris": {"android": "https://dc.lft.to/lastmile_qr_scan", "ios": "https://dc.lft.to/lastmile_qr_scan"}, "lat": 38.90814983333333, "is_reserved": 0, "is_disabled": 0, "fusion_lat": 0.0}, {"fusion_lon": 0.0, "bike_id": "ab750453a0b66a3b07c39569e6c24859", "name": "ab750453a0b66a3b07c39569e6c24859", "type": "electric_scooter", "lon": -77.062539, "rental_uris": {"android": "https://dc.lft.to/lastmile_qr_scan", "ios": "https://dc.lft.to/lastmile_qr_scan"}, "lat": 38.9053105, "is_reserved": 0, "is_disabled": 0, "fusion_lat": 0.0}, {"fusion_lon": 0.0, "bike_id": "e000efa969b0986d50cdc302085b648e", "name": "e000efa969b0986d50cdc302085b648e", "type": "electric_scooter", "lon": -77.0321275, "rental_uris": {"android": "https://dc.lft.to/lastmile_qr_scan", "ios": "https://dc.lft.to/lastmile_qr_scan"}, "lat": 38.938643666666664, "is_reserved": 0, "is_disabled": 0, "fusion_lat": 0.0}, {"fusion_lon": 0.0, "bike_id": "764104fbfc99ac73038eb9cd6f27a138", "name": "764104fbfc99ac73038eb9cd6f27a138", "type": "electric_bike", "lon": -77.0211215, "rental_uris": {"android": "https://dc.lft.to/lastmile_qr_scan", "ios": "https://dc.lft.to/lastmile_qr_scan"}, "lat": 39.02295733333333, "is_reserved": 0, "is_disabled": 0, "fusion_lat": 0.0}, {"fusion_lon": 0.0, "bike_id": "01f31d637bc2c222eeb9a65db18d5752", "name": "01f31d637bc2c222eeb9a65db18d5752", "type": "electric_scooter", "lon": -76.99390633333333, "rental_uris": {"android": "https://dc.lft.to/lastmile_qr_scan", "ios": "https://dc.lft.to/lastmile_qr_scan"}, "lat": 38.884464666666666, "is_reserved": 0, "is_disabled": 0, "fusion_lat": 0.0}, {"fusion_lon": 0.0, "bike_id": "729ba5a64bbe8efcaa3155c5c8c51b81", "name": "729ba5a64bbe8efcaa3155c5c8c51b81", "type": "electric_scooter", "lon": -77.04236066666667, "rental_uris": {"android": "https://dc.lft.to/lastmile_qr_scan", "ios": "https://dc.lft.to/lastmile_qr_scan"}, "lat": 38.90968733333333, "is_reserved": 0, "is_disabled": 0, "fusion_lat": 0.0}, {"fusion_lon": 0.0, "bike_id": "04b435850bfb0f173cf6a940d7419bbc", "name": "04b435850bfb0f173cf6a940d7419bbc", "type": "electric_scooter", "lon": -77.00916916666667, "rental_uris": {"android": "https://dc.lft.to/lastmile_qr_scan", "ios": "https://dc.lft.to/lastmile_qr_scan"}, "lat": 38.95948466666667, "is_reserved": 0, "is_disabled": 0, "fusion_lat": 0.0}, {"fusion_lon": 0.0, "bike_id": "472f93b7fa2ca3fdc7474dec815a8e33", "name": "472f93b7fa2ca3fdc7474dec815a8e33", "type": "electric_scooter", "lon": -77.07443933333333, "rental_uris": {"android": "https://dc.lft.to/lastmile_qr_scan", "ios": "https://dc.lft.to/lastmile_qr_scan"}, "lat": 38.911011333333335, "is_reserved": 0, "is_disabled": 0, "fusion_lat": 0.0}, {"fusion_lon": 0.0, "bike_id": "c0da37641598f4f14d075971bfb5dfc9", "name": "c0da37641598f4f14d075971bfb5dfc9", "type": "electric_scooter", "lon": -77.03828866666667, "rental_uris": {"android": "https://dc.lft.to/lastmile_qr_scan", "ios": "https://dc.lft.to/lastmile_qr_scan"}, "lat": 38.906725, "is_reserved": 0, "is_disabled": 0, "fusion_lat": 0.0}, {"fusion_lon": 0.0, "bike_id": "f0da52d84c381103f75ef998321482b4", "name": "f0da52d84c381103f75ef998321482b4", "type": "electric_scooter", "lon": -77.02228816666667, "rental_uris": {"android": "https://dc.lft.to/lastmile_qr_scan", "ios": "https://dc.lft.to/lastmile_qr_scan"}, "lat": 38.88767933333333, "is_reserved": 0, "is_disabled": 0, "fusion_lat": 0.0}, {"fusion_lon": 0.0, "bike_id": "c2ee04a8bca36642582d80a17c8dbe4b", "name": "c2ee04a8bca36642582d80a17c8dbe4b", "type": "electric_bike", "lon": -77.12902616666666, "rental_uris": {"android": "https://dc.lft.to/lastmile_qr_scan", "ios": "https://dc.lft.to/lastmile_qr_scan"}, "lat": 38.8637435, "is_reserved": 0, "is_disabled": 0, "fusion_lat": 0.0}, {"fusion_lon": 0.0, "bike_id": "2f47eec0293e50e823267aeb99f7ae32", "name": "2f47eec0293e50e823267aeb99f7ae32", "type": "electric_scooter", "lon": -77.046754, "rental_uris": {"android": "https://dc.lft.to/lastmile_qr_scan", "ios": "https://dc.lft.to/lastmile_qr_scan"}, "lat": 38.895543333333336, "is_reserved": 0, "is_disabled": 0, "fusion_lat": 0.0}, {"fusion_lon": 0.0, "bike_id": "9c6c230c2411983229870d9036ba730d", "name": "9c6c230c2411983229870d9036ba730d", "type": "electric_scooter", "lon": -77.06034733333334, "rental_uris": {"android": "https://dc.lft.to/lastmile_qr_scan", "ios": "https://dc.lft.to/lastmile_qr_scan"}, "lat": 38.939413, "is_reserved": 0, "is_disabled": 0, "fusion_lat": 0.0}, {"fusion_lon": 0.0, "bike_id": "e757069fa41d913c50969cc093ced5d1", "name": "e757069fa41d913c50969cc093ced5d1", "type": "electric_scooter", "lon": -77.0389755, "rental_uris": {"android": "https://dc.lft.to/lastmile_qr_scan", "ios": "https://dc.lft.to/lastmile_qr_scan"}, "lat": 38.9064505, "is_reserved": 0, "is_disabled": 0, "fusion_lat": 0.0}, {"fusion_lon": 0.0, "bike_id": "78e55d524ceb26344566b276c62d6de4", "name": "78e55d524ceb26344566b276c62d6de4", "type": "electric_scooter", "lon": -77.0058195, "rental_uris": {"android": "https://dc.lft.to/lastmile_qr_scan", "ios": "https://dc.lft.to/lastmile_qr_scan"}, "lat": 38.8853225, "is_reserved": 0, "is_disabled": 0, "fusion_lat": 0.0}, {"fusion_lon": 0.0, "bike_id": "e6b0971960aeceb2791b080abfb54c58", "name": "e6b0971960aeceb2791b080abfb54c58", "type": "electric_scooter", "lon": -76.996093, "rental_uris": {"android": "https://dc.lft.to/lastmile_qr_scan", "ios": "https://dc.lft.to/lastmile_qr_scan"}, "lat": 38.88488533333334, "is_reserved": 0, "is_disabled": 0, "fusion_lat": 0.0}, {"fusion_lon": 0.0, "bike_id": "3fde98041b60c0dc382aaa6bcc196de1", "name": "3fde98041b60c0dc382aaa6bcc196de1", "type": "electric_scooter", "lon": -77.03439216666666, "rental_uris": {"android": "https://dc.lft.to/lastmile_qr_scan", "ios": "https://dc.lft.to/lastmile_qr_scan"}, "lat": 38.904323, "is_reserved": 0, "is_disabled": 0, "fusion_lat": 0.0}, {"fusion_lon": 0.0, "bike_id": "ee09c52ac06332838d1768af41ac143a", "name": "ee09c52ac06332838d1768af41ac143a", "type": "electric_bike", "lon": -77.017974, "rental_uris": {"android": "https://dc.lft.to/lastmile_qr_scan", "ios": "https://dc.lft.to/lastmile_qr_scan"}, "lat": 38.989832, "is_reserved": 0, "is_disabled": 0, "fusion_lat": 0.0}, {"fusion_lon": 0.0, "bike_id": "5d7b6b844a00c2b19310ad5719113d78", "name": "5d7b6b844a00c2b19310ad5719113d78", "type": "electric_scooter", "lon": -77.0723465, "rental_uris": {"android": "https://dc.lft.to/lastmile_qr_scan", "ios": "https://dc.lft.to/lastmile_qr_scan"}, "lat": 38.934546166666664, "is_reserved": 0, "is_disabled": 0, "fusion_lat": 0.0}, {"fusion_lon": 0.0, "bike_id": "557e025950cc5cc2333a15c6de35af53", "name": "557e025950cc5cc2333a15c6de35af53", "type": "electric_scooter", "lon": -77.009016, "rental_uris": {"android": "https://dc.lft.to/lastmile_qr_scan", "ios": "https://dc.lft.to/lastmile_qr_scan"}, "lat": 38.87329916666667, "is_reserved": 0, "is_disabled": 0, "fusion_lat": 0.0}, {"fusion_lon": 0.0, "bike_id": "75e7cdf8c0bb5f86271279a2eef3eacf", "name": "75e7cdf8c0bb5f86271279a2eef3eacf", "type": "electric_scooter", "lon": -76.99737066666667, "rental_uris": {"android": "https://dc.lft.to/lastmile_qr_scan", "ios": "https://dc.lft.to/lastmile_qr_scan"}, "lat": 38.92031766666667, "is_reserved": 0, "is_disabled": 0, "fusion_lat": 0.0}, {"fusion_lon": 0.0, "bike_id": "8c814136ca1fa49d9d8f64c1bd42516f", "name": "8c814136ca1fa49d9d8f64c1bd42516f", "type": "electric_scooter", "lon": -77.05982516666667, "rental_uris": {"android": "https://dc.lft.to/lastmile_qr_scan", "ios": "https://dc.lft.to/lastmile_qr_scan"}, "lat": 38.91179283333334, "is_reserved": 0, "is_disabled": 0, "fusion_lat": 0.0}, {"fusion_lon": 0.0, "bike_id": "72c89a6143f75cb47d87dce452b1dc95", "name": "72c89a6143f75cb47d87dce452b1dc95", "type": "electric_scooter", "lon": -77.01223416666667, "rental_uris": {"android": "https://dc.lft.to/lastmile_qr_scan", "ios": "https://dc.lft.to/lastmile_qr_scan"}, "lat": 38.90015183333333, "is_reserved": 0, "is_disabled": 0, "fusion_lat": 0.0}, {"fusion_lon": 0.0, "bike_id": "4ead0c96ac1be0ed67d6fe21ad293d92", "name": "4ead0c96ac1be0ed67d6fe21ad293d92", "type": "electric_scooter", "lon": -77.0406075, "rental_uris": {"android": "https://dc.lft.to/lastmile_qr_scan", "ios": "https://dc.lft.to/lastmile_qr_scan"}, "lat": 38.90143783333333, "is_reserved": 0, "is_disabled": 0, "fusion_lat": 0.0}, {"fusion_lon": 0.0, "bike_id": "10c1da63a97704ca999804794a6bed08", "name": "10c1da63a97704ca999804794a6bed08", "type": "electric_scooter", "lon": -77.03820116666667, "rental_uris": {"android": "https://dc.lft.to/lastmile_qr_scan", "ios": "https://dc.lft.to/lastmile_qr_scan"}, "lat": 38.920591333333334, "is_reserved": 0, "is_disabled": 0, "fusion_lat": 0.0}, {"fusion_lon": 0.0, "bike_id": "93bf66e59efbc55c9dc1bd88ef48ac46", "name": "93bf66e59efbc55c9dc1bd88ef48ac46", "type": "electric_scooter", "lon": -77.03404916666666, "rental_uris": {"android": "https://dc.lft.to/lastmile_qr_scan", "ios": "https://dc.lft.to/lastmile_qr_scan"}, "lat": 38.92159233333334, "is_reserved": 0, "is_disabled": 0, "fusion_lat": 0.0}, {"fusion_lon": 0.0, "bike_id": "1786ccad6d4bf554b39824250b6c6929", "name": "1786ccad6d4bf554b39824250b6c6929", "type": "electric_scooter", "lon": -76.947784, "rental_uris": {"android": "https://dc.lft.to/lastmile_qr_scan", "ios": "https://dc.lft.to/lastmile_qr_scan"}, "lat": 38.8967095, "is_reserved": 0, "is_disabled": 0, "fusion_lat": 0.0}, {"fusion_lon": 0.0, "bike_id": "80178128c1eb1b6da87ae5cf0a60bd47", "name": "80178128c1eb1b6da87ae5cf0a60bd47", "type": "electric_scooter", "lon": -77.03641066666667, "rental_uris": {"android": "https://dc.lft.to/lastmile_qr_scan", "ios": "https://dc.lft.to/lastmile_qr_scan"}, "lat": 38.916167, "is_reserved": 0, "is_disabled": 0, "fusion_lat": 0.0}, {"fusion_lon": 0.0, "bike_id": "723a9c17631fadd96c63482e6e8c0d30", "name": "723a9c17631fadd96c63482e6e8c0d30", "type": "electric_scooter", "lon": -77.03639266666667, "rental_uris": {"android": "https://dc.lft.to/lastmile_qr_scan", "ios": "https://dc.lft.to/lastmile_qr_scan"}, "lat": 38.916917166666664, "is_reserved": 0, "is_disabled": 0, "fusion_lat": 0.0}, {"fusion_lon": 0.0, "bike_id": "02ef75e49cad90cec57fec6555c1a952", "name": "02ef75e49cad90cec57fec6555c1a952", "type": "electric_scooter", "lon": -77.03827916666667, "rental_uris": {"android": "https://dc.lft.to/lastmile_qr_scan", "ios": "https://dc.lft.to/lastmile_qr_scan"}, "lat": 38.9046285, "is_reserved": 0, "is_disabled": 0, "fusion_lat": 0.0}, {"fusion_lon": 0.0, "bike_id": "ad7fb147e959b51b58e36d4e3aef0d67", "name": "ad7fb147e959b51b58e36d4e3aef0d67", "type": "electric_scooter", "lon": -77.00297616666667, "rental_uris": {"android": "https://dc.lft.to/lastmile_qr_scan", "ios": "https://dc.lft.to/lastmile_qr_scan"}, "lat": 38.892196, "is_reserved": 0, "is_disabled": 0, "fusion_lat": 0.0}, {"fusion_lon": 0.0, "bike_id": "d6dd69c6f287b6cb346097fe43fcae51", "name": "d6dd69c6f287b6cb346097fe43fcae51", "type": "electric_scooter", "lon": -77.0021805, "rental_uris": {"android": "https://dc.lft.to/lastmile_qr_scan", "ios": "https://dc.lft.to/lastmile_qr_scan"}, "lat": 38.89494833333333, "is_reserved": 0, "is_disabled": 0, "fusion_lat": 0.0}, {"fusion_lon": 0.0, "bike_id": "5a8bcde867a7a714f1ad4a4938004679", "name": "5a8bcde867a7a714f1ad4a4938004679", "type": "electric_bike", "lon": -77.0028445, "rental_uris": {"android": "https://dc.lft.to/lastmile_qr_scan", "ios": "https://dc.lft.to/lastmile_qr_scan"}, "lat": 38.9117645, "is_reserved": 0, "is_disabled": 0, "fusion_lat": 0.0}, {"fusion_lon": 0.0, "bike_id": "e8ea0d656b7ecad396784299871d2e02", "name": "e8ea0d656b7ecad396784299871d2e02", "type": "electric_bike", "lon": -77.0250815, "rental_uris": {"android": "https://dc.lft.to/lastmile_qr_scan", "ios": "https://dc.lft.to/lastmile_qr_scan"}, "lat": 38.9341305, "is_reserved": 0, "is_disabled": 0, "fusion_lat": 0.0}, {"fusion_lon": 0.0, "bike_id": "3badac4ee9f7c9d54e2305ff9e840c4f", "name": "3badac4ee9f7c9d54e2305ff9e840c4f", "type": "electric_scooter", "lon": -77.00748916666667, "rental_uris": {"android": "https://dc.lft.to/lastmile_qr_scan", "ios": "https://dc.lft.to/lastmile_qr_scan"}, "lat": 38.900653166666665, "is_reserved": 0, "is_disabled": 0, "fusion_lat": 0.0}, {"fusion_lon": 0.0, "bike_id": "006a7b3cb64496d7df41e504c96bedf4", "name": "006a7b3cb64496d7df41e504c96bedf4", "type": "electric_scooter", "lon": -76.99645466666666, "rental_uris": {"android": "https://dc.lft.to/lastmile_qr_scan", "ios": "https://dc.lft.to/lastmile_qr_scan"}, "lat": 38.887207, "is_reserved": 0, "is_disabled": 0, "fusion_lat": 0.0}, {"fusion_lon": 0.0, "bike_id": "37ffae1fc74da0be2d1157f27e4c66af", "name": "37ffae1fc74da0be2d1157f27e4c66af", "type": "electric_scooter", "lon": -77.00339283333334, "rental_uris": {"android": "https://dc.lft.to/lastmile_qr_scan", "ios": "https://dc.lft.to/lastmile_qr_scan"}, "lat": 38.895031833333334, "is_reserved": 0, "is_disabled": 0, "fusion_lat": 0.0}, {"fusion_lon": 0.0, "bike_id": "0a23c7dd82bf55ead1b2694c0d0b6e3c", "name": "0a23c7dd82bf55ead1b2694c0d0b6e3c", "type": "electric_scooter", "lon": -77.023994, "rental_uris": {"android": "https://dc.lft.to/lastmile_qr_scan", "ios": "https://dc.lft.to/lastmile_qr_scan"}, "lat": 38.916700666666664, "is_reserved": 0, "is_disabled": 0, "fusion_lat": 0.0}, {"fusion_lon": 0.0, "bike_id": "ff864043aa369c783d311a17ebae5f04", "name": "ff864043aa369c783d311a17ebae5f04", "type": "electric_scooter", "lon": -77.04045916666666, "rental_uris": {"android": "https://dc.lft.to/lastmile_qr_scan", "ios": "https://dc.lft.to/lastmile_qr_scan"}, "lat": 38.905708, "is_reserved": 0, "is_disabled": 0, "fusion_lat": 0.0}, {"fusion_lon": 0.0, "bike_id": "0626813395f07bd578a195ec1494dc3b", "name": "0626813395f07bd578a195ec1494dc3b", "type": "electric_scooter", "lon": -77.03540783333334, "rental_uris": {"android": "https://dc.lft.to/lastmile_qr_scan", "ios": "https://dc.lft.to/lastmile_qr_scan"}, "lat": 38.92280016666667, "is_reserved": 0, "is_disabled": 0, "fusion_lat": 0.0}, {"fusion_lon": 0.0, "bike_id": "4e63e4c36b5af51ed45591d1edc74af0", "name": "4e63e4c36b5af51ed45591d1edc74af0", "type": "electric_scooter", "lon": -77.01083416666667, "rental_uris": {"android": "https://dc.lft.to/lastmile_qr_scan", "ios": "https://dc.lft.to/lastmile_qr_scan"}, "lat": 38.89604683333334, "is_reserved": 0, "is_disabled": 0, "fusion_lat": 0.0}, {"fusion_lon": 0.0, "bike_id": "335555105803449f9f3b3670c28f75bb", "name": "335555105803449f9f3b3670c28f75bb", "type": "electric_scooter", "lon": -77.04174416666666, "rental_uris": {"android": "https://dc.lft.to/lastmile_qr_scan", "ios": "https://dc.lft.to/lastmile_qr_scan"}, "lat": 38.9053375, "is_reserved": 0, "is_disabled": 0, "fusion_lat": 0.0}, {"fusion_lon": 0.0, "bike_id": "0d905559b139ed73ec1f1f94385c68a0", "name": "0d905559b139ed73ec1f1f94385c68a0", "type": "electric_scooter", "lon": -77.009379, "rental_uris": {"android": "https://dc.lft.to/lastmile_qr_scan", "ios": "https://dc.lft.to/lastmile_qr_scan"}, "lat": 38.87661416666667, "is_reserved": 0, "is_disabled": 0, "fusion_lat": 0.0}, {"fusion_lon": 0.0, "bike_id": "727946a40d54a51ebca4c47cc39783bf", "name": "727946a40d54a51ebca4c47cc39783bf", "type": "electric_scooter", "lon": -77.0770025, "rental_uris": {"android": "https://dc.lft.to/lastmile_qr_scan", "ios": "https://dc.lft.to/lastmile_qr_scan"}, "lat": 38.9428625, "is_reserved": 0, "is_disabled": 0, "fusion_lat": 0.0}, {"fusion_lon": 0.0, "bike_id": "363c7899ac3e215645fc54e925f75818", "name": "363c7899ac3e215645fc54e925f75818", "type": "electric_scooter", "lon": -76.99497116666667, "rental_uris": {"android": "https://dc.lft.to/lastmile_qr_scan", "ios": "https://dc.lft.to/lastmile_qr_scan"}, "lat": 38.879471833333334, "is_reserved": 0, "is_disabled": 0, "fusion_lat": 0.0}, {"fusion_lon": 0.0, "bike_id": "85fddd948a5a731bae6907dbe464ee2d", "name": "85fddd948a5a731bae6907dbe464ee2d", "type": "electric_scooter", "lon": -77.00809866666667, "rental_uris": {"android": "https://dc.lft.to/lastmile_qr_scan", "ios": "https://dc.lft.to/lastmile_qr_scan"}, "lat": 38.876577, "is_reserved": 0, "is_disabled": 0, "fusion_lat": 0.0}, {"fusion_lon": 0.0, "bike_id": "7afea6d0a1736e984f99335725b82d4e", "name": "7afea6d0a1736e984f99335725b82d4e", "type": "electric_scooter", "lon": -77.032223, "rental_uris": {"android": "https://dc.lft.to/lastmile_qr_scan", "ios": "https://dc.lft.to/lastmile_qr_scan"}, "lat": 38.89222433333333, "is_reserved": 0, "is_disabled": 0, "fusion_lat": 0.0}, {"fusion_lon": 0.0, "bike_id": "126e9c2076ef4a5c3b40bc8e74c84f80", "name": "126e9c2076ef4a5c3b40bc8e74c84f80", "type": "electric_bike", "lon": -77.01456433333334, "rental_uris": {"android": "https://dc.lft.to/lastmile_qr_scan", "ios": "https://dc.lft.to/lastmile_qr_scan"}, "lat": 38.8678705, "is_reserved": 0, "is_disabled": 0, "fusion_lat": 0.0}, {"fusion_lon": 0.0, "bike_id": "f10663f173f8004e0e533da62e3722a6", "name": "f10663f173f8004e0e533da62e3722a6", "type": "electric_scooter", "lon": -77.01756533333334, "rental_uris": {"android": "https://dc.lft.to/lastmile_qr_scan", "ios": "https://dc.lft.to/lastmile_qr_scan"}, "lat": 38.8779315, "is_reserved": 0, "is_disabled": 0, "fusion_lat": 0.0}, {"fusion_lon": 0.0, "bike_id": "2060444344d210540f42824141766025", "name": "2060444344d210540f42824141766025", "type": "electric_scooter", "lon": -76.98909066666667, "rental_uris": {"android": "https://dc.lft.to/lastmile_qr_scan", "ios": "https://dc.lft.to/lastmile_qr_scan"}, "lat": 38.86624233333333, "is_reserved": 0, "is_disabled": 0, "fusion_lat": 0.0}, {"fusion_lon": 0.0, "bike_id": "fd369d849eb72feed8dda170b6bbc39b", "name": "fd369d849eb72feed8dda170b6bbc39b", "type": "electric_scooter", "lon": -76.973036, "rental_uris": {"android": "https://dc.lft.to/lastmile_qr_scan", "ios": "https://dc.lft.to/lastmile_qr_scan"}, "lat": 38.919828833333334, "is_reserved": 0, "is_disabled": 0, "fusion_lat": 0.0}, {"fusion_lon": 0.0, "bike_id": "f469de913962e204d6581c708a41433b", "name": "f469de913962e204d6581c708a41433b", "type": "electric_scooter", "lon": -77.04328333333333, "rental_uris": {"android": "https://dc.lft.to/lastmile_qr_scan", "ios": "https://dc.lft.to/lastmile_qr_scan"}, "lat": 38.90404, "is_reserved": 0, "is_disabled": 0, "fusion_lat": 0.0}, {"fusion_lon": 0.0, "bike_id": "0abacd03932490626f9742ea859f6373", "name": "0abacd03932490626f9742ea859f6373", "type": "electric_scooter", "lon": -77.01749383333333, "rental_uris": {"android": "https://dc.lft.to/lastmile_qr_scan", "ios": "https://dc.lft.to/lastmile_qr_scan"}, "lat": 38.908674166666664, "is_reserved": 0, "is_disabled": 0, "fusion_lat": 0.0}, {"fusion_lon": 0.0, "bike_id": "8f4cc4dc96c4ad3e703805c5bd98adf4", "name": "8f4cc4dc96c4ad3e703805c5bd98adf4", "type": "electric_scooter", "lon": -76.96507716666666, "rental_uris": {"android": "https://dc.lft.to/lastmile_qr_scan", "ios": "https://dc.lft.to/lastmile_qr_scan"}, "lat": 38.87646516666667, "is_reserved": 0, "is_disabled": 0, "fusion_lat": 0.0}, {"fusion_lon": 0.0, "bike_id": "b81c52b38e3697c6e28bbb22026f434b", "name": "b81c52b38e3697c6e28bbb22026f434b", "type": "electric_scooter", "lon": -77.04649433333333, "rental_uris": {"android": "https://dc.lft.to/lastmile_qr_scan", "ios": "https://dc.lft.to/lastmile_qr_scan"}, "lat": 38.904222, "is_reserved": 0, "is_disabled": 0, "fusion_lat": 0.0}, {"fusion_lon": 0.0, "bike_id": "31cd6ccf168f689460cadd62de9ce43e", "name": "31cd6ccf168f689460cadd62de9ce43e", "type": "electric_scooter", "lon": -77.03214066666666, "rental_uris": {"android": "https://dc.lft.to/lastmile_qr_scan", "ios": "https://dc.lft.to/lastmile_qr_scan"}, "lat": 38.89216966666667, "is_reserved": 0, "is_disabled": 0, "fusion_lat": 0.0}, {"fusion_lon": 0.0, "bike_id": "7918c67ab5a960f3d60f91f553b7f98c", "name": "7918c67ab5a960f3d60f91f553b7f98c", "type": "electric_scooter", "lon": -76.99490366666667, "rental_uris": {"android": "https://dc.lft.to/lastmile_qr_scan", "ios": "https://dc.lft.to/lastmile_qr_scan"}, "lat": 38.8624225, "is_reserved": 0, "is_disabled": 0, "fusion_lat": 0.0}, {"fusion_lon": 0.0, "bike_id": "d6f60045b7bbd16b3a29f1d4be5a2439", "name": "d6f60045b7bbd16b3a29f1d4be5a2439", "type": "electric_scooter", "lon": -77.04387633333333, "rental_uris": {"android": "https://dc.lft.to/lastmile_qr_scan", "ios": "https://dc.lft.to/lastmile_qr_scan"}, "lat": 38.9226605, "is_reserved": 0, "is_disabled": 0, "fusion_lat": 0.0}, {"fusion_lon": 0.0, "bike_id": "c798b0d284f97009c66e7612fc01e837", "name": "c798b0d284f97009c66e7612fc01e837", "type": "electric_scooter", "lon": -77.0489845, "rental_uris": {"android": "https://dc.lft.to/lastmile_qr_scan", "ios": "https://dc.lft.to/lastmile_qr_scan"}, "lat": 38.89248216666667, "is_reserved": 0, "is_disabled": 0, "fusion_lat": 0.0}, {"fusion_lon": 0.0, "bike_id": "9be604833fe2f5273a784f97a7db86e2", "name": "9be604833fe2f5273a784f97a7db86e2", "type": "electric_scooter", "lon": -77.03273733333333, "rental_uris": {"android": "https://dc.lft.to/lastmile_qr_scan", "ios": "https://dc.lft.to/lastmile_qr_scan"}, "lat": 38.91563433333334, "is_reserved": 0, "is_disabled": 0, "fusion_lat": 0.0}, {"fusion_lon": 0.0, "bike_id": "940dee939f6696b8bf9cc67eb11820e0", "name": "940dee939f6696b8bf9cc67eb11820e0", "type": "electric_bike", "lon": -76.9756645, "rental_uris": {"android": "https://dc.lft.to/lastmile_qr_scan", "ios": "https://dc.lft.to/lastmile_qr_scan"}, "lat": 38.924563166666665, "is_reserved": 0, "is_disabled": 0, "fusion_lat": 0.0}, {"fusion_lon": 0.0, "bike_id": "d3b6f2ee029e8b8ce2ba8384d66673c7", "name": "d3b6f2ee029e8b8ce2ba8384d66673c7", "type": "electric_scooter", "lon": -77.00806916666667, "rental_uris": {"android": "https://dc.lft.to/lastmile_qr_scan", "ios": "https://dc.lft.to/lastmile_qr_scan"}, "lat": 38.8767095, "is_reserved": 0, "is_disabled": 0, "fusion_lat": 0.0}, {"fusion_lon": 0.0, "bike_id": "ba5c2f3916abce70fed652273b8819ee", "name": "ba5c2f3916abce70fed652273b8819ee", "type": "electric_scooter", "lon": -77.01020983333333, "rental_uris": {"android": "https://dc.lft.to/lastmile_qr_scan", "ios": "https://dc.lft.to/lastmile_qr_scan"}, "lat": 38.900098666666665, "is_reserved": 0, "is_disabled": 0, "fusion_lat": 0.0}, {"fusion_lon": 0.0, "bike_id": "a3126147dc326a2379e2a627d7b2cb9e", "name": "a3126147dc326a2379e2a627d7b2cb9e", "type": "electric_scooter", "lon": -77.02523283333333, "rental_uris": {"android": "https://dc.lft.to/lastmile_qr_scan", "ios": "https://dc.lft.to/lastmile_qr_scan"}, "lat": 38.9007585, "is_reserved": 0, "is_disabled": 0, "fusion_lat": 0.0}, {"fusion_lon": 0.0, "bike_id": "60c2431cc651436744c9fc17d8cb5a2c", "name": "60c2431cc651436744c9fc17d8cb5a2c", "type": "electric_scooter", "lon": -77.02170583333333, "rental_uris": {"android": "https://dc.lft.to/lastmile_qr_scan", "ios": "https://dc.lft.to/lastmile_qr_scan"}, "lat": 38.942887, "is_reserved": 0, "is_disabled": 0, "fusion_lat": 0.0}, {"fusion_lon": 0.0, "bike_id": "77dc41ce6bfa7eb16fb2b9d828f1bcb5", "name": "77dc41ce6bfa7eb16fb2b9d828f1bcb5", "type": "electric_scooter", "lon": -77.034881, "rental_uris": {"android": "https://dc.lft.to/lastmile_qr_scan", "ios": "https://dc.lft.to/lastmile_qr_scan"}, "lat": 38.91878066666666, "is_reserved": 0, "is_disabled": 0, "fusion_lat": 0.0}, {"fusion_lon": 0.0, "bike_id": "d5ab3b5ae95b516294f15907fb84f119", "name": "d5ab3b5ae95b516294f15907fb84f119", "type": "electric_scooter", "lon": -77.03343766666667, "rental_uris": {"android": "https://dc.lft.to/lastmile_qr_scan", "ios": "https://dc.lft.to/lastmile_qr_scan"}, "lat": 38.89840983333333, "is_reserved": 0, "is_disabled": 0, "fusion_lat": 0.0}, {"fusion_lon": 0.0, "bike_id": "6cb9e5d1313066a504fecf38182ca3dc", "name": "6cb9e5d1313066a504fecf38182ca3dc", "type": "electric_scooter", "lon": -77.07170866666667, "rental_uris": {"android": "https://dc.lft.to/lastmile_qr_scan", "ios": "https://dc.lft.to/lastmile_qr_scan"}, "lat": 38.90776966666667, "is_reserved": 0, "is_disabled": 0, "fusion_lat": 0.0}, {"fusion_lon": 0.0, "bike_id": "2c5fbbd9dd295e7d2fad1c7848298034", "name": "2c5fbbd9dd295e7d2fad1c7848298034", "type": "electric_scooter", "lon": -77.044995, "rental_uris": {"android": "https://dc.lft.to/lastmile_qr_scan", "ios": "https://dc.lft.to/lastmile_qr_scan"}, "lat": 38.914108166666665, "is_reserved": 0, "is_disabled": 0, "fusion_lat": 0.0}, {"fusion_lon": 0.0, "bike_id": "cc4958cd9978a3925f506c7cfcd6267f", "name": "cc4958cd9978a3925f506c7cfcd6267f", "type": "electric_scooter", "lon": -77.03352816666667, "rental_uris": {"android": "https://dc.lft.to/lastmile_qr_scan", "ios": "https://dc.lft.to/lastmile_qr_scan"}, "lat": 38.895334166666665, "is_reserved": 0, "is_disabled": 0, "fusion_lat": 0.0}, {"fusion_lon": 0.0, "bike_id": "0f33cff02894f547e0cdf3f1a7a646ce", "name": "0f33cff02894f547e0cdf3f1a7a646ce", "type": "electric_bike", "lon": -77.13231683333333, "rental_uris": {"android": "https://dc.lft.to/lastmile_qr_scan", "ios": "https://dc.lft.to/lastmile_qr_scan"}, "lat": 38.86976466666667, "is_reserved": 0, "is_disabled": 0, "fusion_lat": 0.0}, {"fusion_lon": 0.0, "bike_id": "e71e37092de781805fdbaf64795833bb", "name": "e71e37092de781805fdbaf64795833bb", "type": "electric_scooter", "lon": -77.00362583333333, "rental_uris": {"android": "https://dc.lft.to/lastmile_qr_scan", "ios": "https://dc.lft.to/lastmile_qr_scan"}, "lat": 38.8775215, "is_reserved": 0, "is_disabled": 0, "fusion_lat": 0.0}, {"fusion_lon": 0.0, "bike_id": "68bd9fd9a4ba183fdde91c2ee26d1564", "name": "68bd9fd9a4ba183fdde91c2ee26d1564", "type": "electric_scooter", "lon": -77.0230875, "rental_uris": {"android": "https://dc.lft.to/lastmile_qr_scan", "ios": "https://dc.lft.to/lastmile_qr_scan"}, "lat": 38.91776316666667, "is_reserved": 0, "is_disabled": 0, "fusion_lat": 0.0}, {"fusion_lon": 0.0, "bike_id": "422b2d12fb35ec8a7060339083f39768", "name": "422b2d12fb35ec8a7060339083f39768", "type": "electric_scooter", "lon": -77.00748983333334, "rental_uris": {"android": "https://dc.lft.to/lastmile_qr_scan", "ios": "https://dc.lft.to/lastmile_qr_scan"}, "lat": 38.876471333333335, "is_reserved": 0, "is_disabled": 0, "fusion_lat": 0.0}, {"fusion_lon": 0.0, "bike_id": "178c9d47ee52eba914bd488edcbde543", "name": "178c9d47ee52eba914bd488edcbde543", "type": "electric_scooter", "lon": -77.0057345, "rental_uris": {"android": "https://dc.lft.to/lastmile_qr_scan", "ios": "https://dc.lft.to/lastmile_qr_scan"}, "lat": 38.885065, "is_reserved": 0, "is_disabled": 0, "fusion_lat": 0.0}, {"fusion_lon": 0.0, "bike_id": "8eab1995028a0580b303d432d324ec48", "name": "8eab1995028a0580b303d432d324ec48", "type": "electric_scooter", "lon": -77.04651916666667, "rental_uris": {"android": "https://dc.lft.to/lastmile_qr_scan", "ios": "https://dc.lft.to/lastmile_qr_scan"}, "lat": 38.90420816666666, "is_reserved": 0, "is_disabled": 0, "fusion_lat": 0.0}, {"fusion_lon": 0.0, "bike_id": "da440d73b00eb27fb45a45da387ed42a", "name": "da440d73b00eb27fb45a45da387ed42a", "type": "electric_scooter", "lon": -76.948675, "rental_uris": {"android": "https://dc.lft.to/lastmile_qr_scan", "ios": "https://dc.lft.to/lastmile_qr_scan"}, "lat": 38.89576316666667, "is_reserved": 0, "is_disabled": 0, "fusion_lat": 0.0}, {"fusion_lon": 0.0, "bike_id": "1e77e6c93df55a99af3bc88b37b6e159", "name": "1e77e6c93df55a99af3bc88b37b6e159", "type": "electric_scooter", "lon": -77.0228545, "rental_uris": {"android": "https://dc.lft.to/lastmile_qr_scan", "ios": "https://dc.lft.to/lastmile_qr_scan"}, "lat": 38.91684, "is_reserved": 0, "is_disabled": 0, "fusion_lat": 0.0}, {"fusion_lon": 0.0, "bike_id": "0d5af97f4776ac115069afa600664df3", "name": "0d5af97f4776ac115069afa600664df3", "type": "electric_scooter", "lon": -77.05297433333334, "rental_uris": {"android": "https://dc.lft.to/lastmile_qr_scan", "ios": "https://dc.lft.to/lastmile_qr_scan"}, "lat": 38.927868833333335, "is_reserved": 0, "is_disabled": 0, "fusion_lat": 0.0}, {"fusion_lon": 0.0, "bike_id": "dee72a625772b6a78f3bfc86f5bb22ec", "name": "dee72a625772b6a78f3bfc86f5bb22ec", "type": "electric_scooter", "lon": -77.031925, "rental_uris": {"android": "https://dc.lft.to/lastmile_qr_scan", "ios": "https://dc.lft.to/lastmile_qr_scan"}, "lat": 38.90767533333333, "is_reserved": 0, "is_disabled": 0, "fusion_lat": 0.0}, {"fusion_lon": 0.0, "bike_id": "0965e438d8433cb434c39bbb4fb09f9c", "name": "0965e438d8433cb434c39bbb4fb09f9c", "type": "electric_scooter", "lon": -77.028617, "rental_uris": {"android": "https://dc.lft.to/lastmile_qr_scan", "ios": "https://dc.lft.to/lastmile_qr_scan"}, "lat": 38.92221583333333, "is_reserved": 0, "is_disabled": 0, "fusion_lat": 0.0}, {"fusion_lon": 0.0, "bike_id": "7834bd4913c1cb5c3a2042d1cd349453", "name": "7834bd4913c1cb5c3a2042d1cd349453", "type": "electric_scooter", "lon": -76.99003283333333, "rental_uris": {"android": "https://dc.lft.to/lastmile_qr_scan", "ios": "https://dc.lft.to/lastmile_qr_scan"}, "lat": 38.86505483333333, "is_reserved": 0, "is_disabled": 0, "fusion_lat": 0.0}, {"fusion_lon": 0.0, "bike_id": "7df290b6b60001b137ec80225ed9743c", "name": "7df290b6b60001b137ec80225ed9743c", "type": "electric_scooter", "lon": -76.93433883333333, "rental_uris": {"android": "https://dc.lft.to/lastmile_qr_scan", "ios": "https://dc.lft.to/lastmile_qr_scan"}, "lat": 38.899656, "is_reserved": 0, "is_disabled": 0, "fusion_lat": 0.0}, {"fusion_lon": 0.0, "bike_id": "ea07baf976e2737c70bc5a97b9139192", "name": "ea07baf976e2737c70bc5a97b9139192", "type": "electric_scooter", "lon": -77.037047, "rental_uris": {"android": "https://dc.lft.to/lastmile_qr_scan", "ios": "https://dc.lft.to/lastmile_qr_scan"}, "lat": 38.926454666666665, "is_reserved": 0, "is_disabled": 0, "fusion_lat": 0.0}, {"fusion_lon": 0.0, "bike_id": "de1b7a62668e29f2601a5f6e76ef92f4", "name": "de1b7a62668e29f2601a5f6e76ef92f4", "type": "electric_scooter", "lon": -77.0222945, "rental_uris": {"android": "https://dc.lft.to/lastmile_qr_scan", "ios": "https://dc.lft.to/lastmile_qr_scan"}, "lat": 38.88765683333333, "is_reserved": 0, "is_disabled": 0, "fusion_lat": 0.0}, {"fusion_lon": 0.0, "bike_id": "2db8e8b43ad11b3a3b164446ce996070", "name": "2db8e8b43ad11b3a3b164446ce996070", "type": "electric_scooter", "lon": -77.04332283333333, "rental_uris": {"android": "https://dc.lft.to/lastmile_qr_scan", "ios": "https://dc.lft.to/lastmile_qr_scan"}, "lat": 38.9067175, "is_reserved": 0, "is_disabled": 0, "fusion_lat": 0.0}, {"fusion_lon": 0.0, "bike_id": "774c05dfb06484aa3cd5f2fa2cfacb45", "name": "774c05dfb06484aa3cd5f2fa2cfacb45", "type": "electric_scooter", "lon": -77.0318075, "rental_uris": {"android": "https://dc.lft.to/lastmile_qr_scan", "ios": "https://dc.lft.to/lastmile_qr_scan"}, "lat": 38.89979566666667, "is_reserved": 0, "is_disabled": 0, "fusion_lat": 0.0}, {"fusion_lon": 0.0, "bike_id": "f9a35e955402b4d82a5a0803cf2ed9b7", "name": "f9a35e955402b4d82a5a0803cf2ed9b7", "type": "electric_scooter", "lon": -77.03051633333334, "rental_uris": {"android": "https://dc.lft.to/lastmile_qr_scan", "ios": "https://dc.lft.to/lastmile_qr_scan"}, "lat": 38.939749666666664, "is_reserved": 0, "is_disabled": 0, "fusion_lat": 0.0}, {"fusion_lon": 0.0, "bike_id": "87742804b67c276611acd923c6d2d4dc", "name": "87742804b67c276611acd923c6d2d4dc", "type": "electric_scooter", "lon": -77.026435, "rental_uris": {"android": "https://dc.lft.to/lastmile_qr_scan", "ios": "https://dc.lft.to/lastmile_qr_scan"}, "lat": 38.8835155, "is_reserved": 0, "is_disabled": 0, "fusion_lat": 0.0}, {"fusion_lon": 0.0, "bike_id": "c96f10bcbd9ee23d9f9af895fe4ab849", "name": "c96f10bcbd9ee23d9f9af895fe4ab849", "type": "electric_scooter", "lon": -77.021661, "rental_uris": {"android": "https://dc.lft.to/lastmile_qr_scan", "ios": "https://dc.lft.to/lastmile_qr_scan"}, "lat": 38.94292683333333, "is_reserved": 0, "is_disabled": 0, "fusion_lat": 0.0}, {"fusion_lon": 0.0, "bike_id": "49db53b9d5a712934ccd2e68303491c3", "name": "49db53b9d5a712934ccd2e68303491c3", "type": "electric_scooter", "lon": -77.0475975, "rental_uris": {"android": "https://dc.lft.to/lastmile_qr_scan", "ios": "https://dc.lft.to/lastmile_qr_scan"}, "lat": 38.90971416666667, "is_reserved": 0, "is_disabled": 0, "fusion_lat": 0.0}, {"fusion_lon": 0.0, "bike_id": "987cd247f232145d6e3ffad0df5b182f", "name": "987cd247f232145d6e3ffad0df5b182f", "type": "electric_scooter", "lon": -77.01406533333333, "rental_uris": {"android": "https://dc.lft.to/lastmile_qr_scan", "ios": "https://dc.lft.to/lastmile_qr_scan"}, "lat": 38.879069, "is_reserved": 0, "is_disabled": 0, "fusion_lat": 0.0}, {"fusion_lon": 0.0, "bike_id": "0c718ce923db952b63388d6a87200e80", "name": "0c718ce923db952b63388d6a87200e80", "type": "electric_scooter", "lon": -77.02117683333333, "rental_uris": {"android": "https://dc.lft.to/lastmile_qr_scan", "ios": "https://dc.lft.to/lastmile_qr_scan"}, "lat": 38.917354333333336, "is_reserved": 0, "is_disabled": 0, "fusion_lat": 0.0}, {"fusion_lon": 0.0, "bike_id": "89dab3fae7896fe5220c1d8779f0f861", "name": "89dab3fae7896fe5220c1d8779f0f861", "type": "electric_bike", "lon": -77.0015835, "rental_uris": {"android": "https://dc.lft.to/lastmile_qr_scan", "ios": "https://dc.lft.to/lastmile_qr_scan"}, "lat": 38.94100066666667, "is_reserved": 0, "is_disabled": 0, "fusion_lat": 0.0}, {"fusion_lon": 0.0, "bike_id": "18b00a694b172458185467caf503c22e", "name": "18b00a694b172458185467caf503c22e", "type": "electric_scooter", "lon": -77.04341833333334, "rental_uris": {"android": "https://dc.lft.to/lastmile_qr_scan", "ios": "https://dc.lft.to/lastmile_qr_scan"}, "lat": 38.91050633333333, "is_reserved": 0, "is_disabled": 0, "fusion_lat": 0.0}, {"fusion_lon": 0.0, "bike_id": "0f4901d49cf83f15bdf4581878d1bc7c", "name": "0f4901d49cf83f15bdf4581878d1bc7c", "type": "electric_scooter", "lon": -77.0378825, "rental_uris": {"android": "https://dc.lft.to/lastmile_qr_scan", "ios": "https://dc.lft.to/lastmile_qr_scan"}, "lat": 38.926296666666666, "is_reserved": 0, "is_disabled": 0, "fusion_lat": 0.0}, {"fusion_lon": 0.0, "bike_id": "6e8072de093de6ae2cb9a2983f40368f", "name": "6e8072de093de6ae2cb9a2983f40368f", "type": "electric_scooter", "lon": -76.99964066666666, "rental_uris": {"android": "https://dc.lft.to/lastmile_qr_scan", "ios": "https://dc.lft.to/lastmile_qr_scan"}, "lat": 38.8931145, "is_reserved": 0, "is_disabled": 0, "fusion_lat": 0.0}, {"fusion_lon": 0.0, "bike_id": "7a0da4353bc76c8f68e4d588f3d3e12b", "name": "7a0da4353bc76c8f68e4d588f3d3e12b", "type": "electric_scooter", "lon": -77.03311333333333, "rental_uris": {"android": "https://dc.lft.to/lastmile_qr_scan", "ios": "https://dc.lft.to/lastmile_qr_scan"}, "lat": 38.9000005, "is_reserved": 0, "is_disabled": 0, "fusion_lat": 0.0}, {"fusion_lon": 0.0, "bike_id": "f904edb0088a89b56758fd74dee1358f", "name": "f904edb0088a89b56758fd74dee1358f", "type": "electric_scooter", "lon": -77.01108983333333, "rental_uris": {"android": "https://dc.lft.to/lastmile_qr_scan", "ios": "https://dc.lft.to/lastmile_qr_scan"}, "lat": 38.90785016666667, "is_reserved": 0, "is_disabled": 0, "fusion_lat": 0.0}, {"fusion_lon": 0.0, "bike_id": "7390fc47e4ed372bbe3ef74788559882", "name": "7390fc47e4ed372bbe3ef74788559882", "type": "electric_scooter", "lon": -77.03856166666667, "rental_uris": {"android": "https://dc.lft.to/lastmile_qr_scan", "ios": "https://dc.lft.to/lastmile_qr_scan"}, "lat": 38.91534716666666, "is_reserved": 0, "is_disabled": 0, "fusion_lat": 0.0}, {"fusion_lon": 0.0, "bike_id": "0c362d81e8f513fc6df2cfac36f10897", "name": "0c362d81e8f513fc6df2cfac36f10897", "type": "electric_bike", "lon": -77.360937, "rental_uris": {"android": "https://dc.lft.to/lastmile_qr_scan", "ios": "https://dc.lft.to/lastmile_qr_scan"}, "lat": 38.939613666666666, "is_reserved": 0, "is_disabled": 0, "fusion_lat": 0.0}, {"fusion_lon": 0.0, "bike_id": "90c27aec6248e9227a14a783bcf34284", "name": "90c27aec6248e9227a14a783bcf34284", "type": "electric_scooter", "lon": -76.9858825, "rental_uris": {"android": "https://dc.lft.to/lastmile_qr_scan", "ios": "https://dc.lft.to/lastmile_qr_scan"}, "lat": 38.88392666666667, "is_reserved": 0, "is_disabled": 0, "fusion_lat": 0.0}, {"fusion_lon": 0.0, "bike_id": "d16998fec315a026270d79a389e8b7b3", "name": "d16998fec315a026270d79a389e8b7b3", "type": "electric_scooter", "lon": -77.01115016666667, "rental_uris": {"android": "https://dc.lft.to/lastmile_qr_scan", "ios": "https://dc.lft.to/lastmile_qr_scan"}, "lat": 38.89612016666667, "is_reserved": 0, "is_disabled": 0, "fusion_lat": 0.0}, {"fusion_lon": 0.0, "bike_id": "9a337653e6b139d8fc97907bde3954de", "name": "9a337653e6b139d8fc97907bde3954de", "type": "electric_scooter", "lon": -77.02689016666666, "rental_uris": {"android": "https://dc.lft.to/lastmile_qr_scan", "ios": "https://dc.lft.to/lastmile_qr_scan"}, "lat": 38.91257983333333, "is_reserved": 0, "is_disabled": 0, "fusion_lat": 0.0}, {"fusion_lon": 0.0, "bike_id": "33a1afe97d61a33d4977b10a79c22158", "name": "33a1afe97d61a33d4977b10a79c22158", "type": "electric_scooter", "lon": -77.00935016666666, "rental_uris": {"android": "https://dc.lft.to/lastmile_qr_scan", "ios": "https://dc.lft.to/lastmile_qr_scan"}, "lat": 38.87679966666666, "is_reserved": 0, "is_disabled": 0, "fusion_lat": 0.0}, {"fusion_lon": 0.0, "bike_id": "a10dc3e9fc7c8ba727144654124021c8", "name": "a10dc3e9fc7c8ba727144654124021c8", "type": "electric_scooter", "lon": -77.032631, "rental_uris": {"android": "https://dc.lft.to/lastmile_qr_scan", "ios": "https://dc.lft.to/lastmile_qr_scan"}, "lat": 38.9352, "is_reserved": 0, "is_disabled": 0, "fusion_lat": 0.0}, {"fusion_lon": 0.0, "bike_id": "53725a77513e0fd49b0818bfd633e7d2", "name": "53725a77513e0fd49b0818bfd633e7d2", "type": "electric_scooter", "lon": -77.03089866666667, "rental_uris": {"android": "https://dc.lft.to/lastmile_qr_scan", "ios": "https://dc.lft.to/lastmile_qr_scan"}, "lat": 38.923806166666665, "is_reserved": 0, "is_disabled": 0, "fusion_lat": 0.0}, {"fusion_lon": 0.0, "bike_id": "b7bf7ed7fc9be4fcf848c7ab2054c6a7", "name": "b7bf7ed7fc9be4fcf848c7ab2054c6a7", "type": "electric_scooter", "lon": -76.98549333333334, "rental_uris": {"android": "https://dc.lft.to/lastmile_qr_scan", "ios": "https://dc.lft.to/lastmile_qr_scan"}, "lat": 38.8799335, "is_reserved": 0, "is_disabled": 0, "fusion_lat": 0.0}, {"fusion_lon": 0.0, "bike_id": "519b8809cd4687fb85733896fae8f736", "name": "519b8809cd4687fb85733896fae8f736", "type": "electric_bike", "lon": -76.923406, "rental_uris": {"android": "https://dc.lft.to/lastmile_qr_scan", "ios": "https://dc.lft.to/lastmile_qr_scan"}, "lat": 38.887850666666665, "is_reserved": 0, "is_disabled": 0, "fusion_lat": 0.0}, {"fusion_lon": 0.0, "bike_id": "de46bc7293e1e34016a868df935513b0", "name": "de46bc7293e1e34016a868df935513b0", "type": "electric_scooter", "lon": -77.03435383333333, "rental_uris": {"android": "https://dc.lft.to/lastmile_qr_scan", "ios": "https://dc.lft.to/lastmile_qr_scan"}, "lat": 38.90481, "is_reserved": 0, "is_disabled": 0, "fusion_lat": 0.0}, {"fusion_lon": 0.0, "bike_id": "97f941f9341a6abbb339f4894ce889ff", "name": "97f941f9341a6abbb339f4894ce889ff", "type": "electric_scooter", "lon": -77.00329483333333, "rental_uris": {"android": "https://dc.lft.to/lastmile_qr_scan", "ios": "https://dc.lft.to/lastmile_qr_scan"}, "lat": 38.9058615, "is_reserved": 0, "is_disabled": 0, "fusion_lat": 0.0}, {"fusion_lon": 0.0, "bike_id": "b20183da25fbce3902057d023fea8130", "name": "b20183da25fbce3902057d023fea8130", "type": "electric_scooter", "lon": -77.02513366666666, "rental_uris": {"android": "https://dc.lft.to/lastmile_qr_scan", "ios": "https://dc.lft.to/lastmile_qr_scan"}, "lat": 38.900887833333336, "is_reserved": 0, "is_disabled": 0, "fusion_lat": 0.0}, {"fusion_lon": 0.0, "bike_id": "56492194233a54e6541df7e5cbde1020", "name": "56492194233a54e6541df7e5cbde1020", "type": "electric_bike", "lon": -77.00869183333333, "rental_uris": {"android": "https://dc.lft.to/lastmile_qr_scan", "ios": "https://dc.lft.to/lastmile_qr_scan"}, "lat": 38.82724283333334, "is_reserved": 0, "is_disabled": 0, "fusion_lat": 0.0}, {"fusion_lon": 0.0, "bike_id": "7ea113d39bae162d1efc2014313bcd2e", "name": "7ea113d39bae162d1efc2014313bcd2e", "type": "electric_scooter", "lon": -77.0347805, "rental_uris": {"android": "https://dc.lft.to/lastmile_qr_scan", "ios": "https://dc.lft.to/lastmile_qr_scan"}, "lat": 38.90790666666667, "is_reserved": 0, "is_disabled": 0, "fusion_lat": 0.0}, {"fusion_lon": 0.0, "bike_id": "3b7d5371d598a438a16bd6899cd9592d", "name": "3b7d5371d598a438a16bd6899cd9592d", "type": "electric_scooter", "lon": -77.03178983333333, "rental_uris": {"android": "https://dc.lft.to/lastmile_qr_scan", "ios": "https://dc.lft.to/lastmile_qr_scan"}, "lat": 38.9192465, "is_reserved": 0, "is_disabled": 0, "fusion_lat": 0.0}, {"fusion_lon": 0.0, "bike_id": "df501e2f6f8e19dcefb592b06b3869d0", "name": "df501e2f6f8e19dcefb592b06b3869d0", "type": "electric_scooter", "lon": -77.017633, "rental_uris": {"android": "https://dc.lft.to/lastmile_qr_scan", "ios": "https://dc.lft.to/lastmile_qr_scan"}, "lat": 38.87851916666666, "is_reserved": 0, "is_disabled": 0, "fusion_lat": 0.0}, {"fusion_lon": 0.0, "bike_id": "3f39ea2939063441d6a32bf7e14abae8", "name": "3f39ea2939063441d6a32bf7e14abae8", "type": "electric_scooter", "lon": -77.05402383333333, "rental_uris": {"android": "https://dc.lft.to/lastmile_qr_scan", "ios": "https://dc.lft.to/lastmile_qr_scan"}, "lat": 38.86895066666666, "is_reserved": 0, "is_disabled": 0, "fusion_lat": 0.0}, {"fusion_lon": 0.0, "bike_id": "f4a783f6c2802f7849dd2b3bb7f6a40f", "name": "f4a783f6c2802f7849dd2b3bb7f6a40f", "type": "electric_scooter", "lon": -77.0385805, "rental_uris": {"android": "https://dc.lft.to/lastmile_qr_scan", "ios": "https://dc.lft.to/lastmile_qr_scan"}, "lat": 38.911653333333334, "is_reserved": 0, "is_disabled": 0, "fusion_lat": 0.0}, {"fusion_lon": 0.0, "bike_id": "9d8599e67202656c71114cd285908f7e", "name": "9d8599e67202656c71114cd285908f7e", "type": "electric_scooter", "lon": -76.986229, "rental_uris": {"android": "https://dc.lft.to/lastmile_qr_scan", "ios": "https://dc.lft.to/lastmile_qr_scan"}, "lat": 38.90579816666666, "is_reserved": 0, "is_disabled": 0, "fusion_lat": 0.0}, {"fusion_lon": 0.0, "bike_id": "214c4d20d15bba0e9a7e770b73585026", "name": "214c4d20d15bba0e9a7e770b73585026", "type": "electric_scooter", "lon": -76.98561683333334, "rental_uris": {"android": "https://dc.lft.to/lastmile_qr_scan", "ios": "https://dc.lft.to/lastmile_qr_scan"}, "lat": 38.8558255, "is_reserved": 0, "is_disabled": 0, "fusion_lat": 0.0}, {"fusion_lon": 0.0, "bike_id": "e352f398af2df894c6a1e9df1061fb82", "name": "e352f398af2df894c6a1e9df1061fb82", "type": "electric_scooter", "lon": -77.05040833333334, "rental_uris": {"android": "https://dc.lft.to/lastmile_qr_scan", "ios": "https://dc.lft.to/lastmile_qr_scan"}, "lat": 38.92357283333333, "is_reserved": 0, "is_disabled": 0, "fusion_lat": 0.0}, {"fusion_lon": 0.0, "bike_id": "8892cbfde77cf56c91bd724f303ac47e", "name": "8892cbfde77cf56c91bd724f303ac47e", "type": "electric_scooter", "lon": -76.9845805, "rental_uris": {"android": "https://dc.lft.to/lastmile_qr_scan", "ios": "https://dc.lft.to/lastmile_qr_scan"}, "lat": 38.88011316666667, "is_reserved": 0, "is_disabled": 0, "fusion_lat": 0.0}, {"fusion_lon": 0.0, "bike_id": "2617dfe887ca6c81a453dcf584950efd", "name": "2617dfe887ca6c81a453dcf584950efd", "type": "electric_scooter", "lon": -77.0073895, "rental_uris": {"android": "https://dc.lft.to/lastmile_qr_scan", "ios": "https://dc.lft.to/lastmile_qr_scan"}, "lat": 38.91184966666667, "is_reserved": 0, "is_disabled": 0, "fusion_lat": 0.0}, {"fusion_lon": 0.0, "bike_id": "69576ca0d754ef25f9eaf3087ec54e40", "name": "69576ca0d754ef25f9eaf3087ec54e40", "type": "electric_scooter", "lon": -77.02497733333334, "rental_uris": {"android": "https://dc.lft.to/lastmile_qr_scan", "ios": "https://dc.lft.to/lastmile_qr_scan"}, "lat": 38.91748416666667, "is_reserved": 0, "is_disabled": 0, "fusion_lat": 0.0}, {"fusion_lon": 0.0, "bike_id": "8a2786603f3da4952b83d2213942f446", "name": "8a2786603f3da4952b83d2213942f446", "type": "electric_scooter", "lon": -76.99369916666667, "rental_uris": {"android": "https://dc.lft.to/lastmile_qr_scan", "ios": "https://dc.lft.to/lastmile_qr_scan"}, "lat": 38.92399183333333, "is_reserved": 0, "is_disabled": 0, "fusion_lat": 0.0}, {"fusion_lon": 0.0, "bike_id": "65984a4921904cb6c020ae21356aa5d8", "name": "65984a4921904cb6c020ae21356aa5d8", "type": "electric_scooter", "lon": -77.03177516666666, "rental_uris": {"android": "https://dc.lft.to/lastmile_qr_scan", "ios": "https://dc.lft.to/lastmile_qr_scan"}, "lat": 38.892009, "is_reserved": 0, "is_disabled": 0, "fusion_lat": 0.0}, {"fusion_lon": 0.0, "bike_id": "e3669c400946a9302d39c5e8c84000a8", "name": "e3669c400946a9302d39c5e8c84000a8", "type": "electric_scooter", "lon": -77.04180333333333, "rental_uris": {"android": "https://dc.lft.to/lastmile_qr_scan", "ios": "https://dc.lft.to/lastmile_qr_scan"}, "lat": 38.912598833333334, "is_reserved": 0, "is_disabled": 0, "fusion_lat": 0.0}, {"fusion_lon": 0.0, "bike_id": "68bdeac0685f1c5c7412c5d691dcce73", "name": "68bdeac0685f1c5c7412c5d691dcce73", "type": "electric_scooter", "lon": -77.029454, "rental_uris": {"android": "https://dc.lft.to/lastmile_qr_scan", "ios": "https://dc.lft.to/lastmile_qr_scan"}, "lat": 38.8954295, "is_reserved": 0, "is_disabled": 0, "fusion_lat": 0.0}, {"fusion_lon": 0.0, "bike_id": "8e56d05a94d1329afd38e0a1428f11fd", "name": "8e56d05a94d1329afd38e0a1428f11fd", "type": "electric_scooter", "lon": -77.02494516666667, "rental_uris": {"android": "https://dc.lft.to/lastmile_qr_scan", "ios": "https://dc.lft.to/lastmile_qr_scan"}, "lat": 38.92069883333333, "is_reserved": 0, "is_disabled": 0, "fusion_lat": 0.0}, {"fusion_lon": 0.0, "bike_id": "9c770000faef171d66eb6646b62e4f37", "name": "9c770000faef171d66eb6646b62e4f37", "type": "electric_scooter", "lon": -77.02381283333334, "rental_uris": {"android": "https://dc.lft.to/lastmile_qr_scan", "ios": "https://dc.lft.to/lastmile_qr_scan"}, "lat": 38.892259833333334, "is_reserved": 0, "is_disabled": 0, "fusion_lat": 0.0}, {"fusion_lon": 0.0, "bike_id": "bff2b787bf758901a4514b26e58bef51", "name": "bff2b787bf758901a4514b26e58bef51", "type": "electric_scooter", "lon": -77.02786966666666, "rental_uris": {"android": "https://dc.lft.to/lastmile_qr_scan", "ios": "https://dc.lft.to/lastmile_qr_scan"}, "lat": 38.9268075, "is_reserved": 0, "is_disabled": 0, "fusion_lat": 0.0}, {"fusion_lon": 0.0, "bike_id": "aa991aed46f539db165e2414be3fd842", "name": "aa991aed46f539db165e2414be3fd842", "type": "electric_scooter", "lon": -77.04193583333333, "rental_uris": {"android": "https://dc.lft.to/lastmile_qr_scan", "ios": "https://dc.lft.to/lastmile_qr_scan"}, "lat": 38.923012166666666, "is_reserved": 0, "is_disabled": 0, "fusion_lat": 0.0}, {"fusion_lon": 0.0, "bike_id": "01f1b4969d9bbc5b2c6d2dc95ed221ac", "name": "01f1b4969d9bbc5b2c6d2dc95ed221ac", "type": "electric_bike", "lon": -77.12739566666667, "rental_uris": {"android": "https://dc.lft.to/lastmile_qr_scan", "ios": "https://dc.lft.to/lastmile_qr_scan"}, "lat": 38.89562816666667, "is_reserved": 0, "is_disabled": 0, "fusion_lat": 0.0}, {"fusion_lon": 0.0, "bike_id": "ad501a8daf7cf54f549aafbc14706aa7", "name": "ad501a8daf7cf54f549aafbc14706aa7", "type": "electric_scooter", "lon": -77.04997483333334, "rental_uris": {"android": "https://dc.lft.to/lastmile_qr_scan", "ios": "https://dc.lft.to/lastmile_qr_scan"}, "lat": 38.9015415, "is_reserved": 0, "is_disabled": 0, "fusion_lat": 0.0}, {"fusion_lon": 0.0, "bike_id": "4776a91aca5717bd269d0299cf3a7f75", "name": "4776a91aca5717bd269d0299cf3a7f75", "type": "electric_scooter", "lon": -77.02028833333334, "rental_uris": {"android": "https://dc.lft.to/lastmile_qr_scan", "ios": "https://dc.lft.to/lastmile_qr_scan"}, "lat": 38.91307966666667, "is_reserved": 0, "is_disabled": 0, "fusion_lat": 0.0}, {"fusion_lon": 0.0, "bike_id": "fe020e01a553d4e07e6b1c7ee58c03f2", "name": "fe020e01a553d4e07e6b1c7ee58c03f2", "type": "electric_scooter", "lon": -77.03076216666666, "rental_uris": {"android": "https://dc.lft.to/lastmile_qr_scan", "ios": "https://dc.lft.to/lastmile_qr_scan"}, "lat": 38.90259266666666, "is_reserved": 0, "is_disabled": 0, "fusion_lat": 0.0}, {"fusion_lon": 0.0, "bike_id": "ab493645352bf3517f1a8af0420d9eb8", "name": "ab493645352bf3517f1a8af0420d9eb8", "type": "electric_scooter", "lon": -77.01598816666667, "rental_uris": {"android": "https://dc.lft.to/lastmile_qr_scan", "ios": "https://dc.lft.to/lastmile_qr_scan"}, "lat": 38.928397333333336, "is_reserved": 0, "is_disabled": 0, "fusion_lat": 0.0}, {"fusion_lon": 0.0, "bike_id": "98d67993afb17d322aa343e12459ae04", "name": "98d67993afb17d322aa343e12459ae04", "type": "electric_scooter", "lon": -77.017732, "rental_uris": {"android": "https://dc.lft.to/lastmile_qr_scan", "ios": "https://dc.lft.to/lastmile_qr_scan"}, "lat": 38.92097366666667, "is_reserved": 0, "is_disabled": 0, "fusion_lat": 0.0}, {"fusion_lon": 0.0, "bike_id": "5e2fc021f811ea71582e2803ddc6db3b", "name": "5e2fc021f811ea71582e2803ddc6db3b", "type": "electric_scooter", "lon": -77.02717666666666, "rental_uris": {"android": "https://dc.lft.to/lastmile_qr_scan", "ios": "https://dc.lft.to/lastmile_qr_scan"}, "lat": 38.91956916666667, "is_reserved": 0, "is_disabled": 0, "fusion_lat": 0.0}, {"fusion_lon": 0.0, "bike_id": "abaca2f3bd18cd8055e2da652cdbd93c", "name": "abaca2f3bd18cd8055e2da652cdbd93c", "type": "electric_scooter", "lon": -76.98924216666667, "rental_uris": {"android": "https://dc.lft.to/lastmile_qr_scan", "ios": "https://dc.lft.to/lastmile_qr_scan"}, "lat": 38.88201316666667, "is_reserved": 0, "is_disabled": 0, "fusion_lat": 0.0}, {"fusion_lon": 0.0, "bike_id": "95e8a5cb7c289fb4c1a4bbd2c8703e90", "name": "95e8a5cb7c289fb4c1a4bbd2c8703e90", "type": "electric_scooter", "lon": -77.02481783333333, "rental_uris": {"android": "https://dc.lft.to/lastmile_qr_scan", "ios": "https://dc.lft.to/lastmile_qr_scan"}, "lat": 38.93877716666667, "is_reserved": 0, "is_disabled": 0, "fusion_lat": 0.0}, {"fusion_lon": 0.0, "bike_id": "009b512f662b0b459e92826ecbfe5b7b", "name": "009b512f662b0b459e92826ecbfe5b7b", "type": "electric_scooter", "lon": -77.01060033333333, "rental_uris": {"android": "https://dc.lft.to/lastmile_qr_scan", "ios": "https://dc.lft.to/lastmile_qr_scan"}, "lat": 38.872464666666666, "is_reserved": 0, "is_disabled": 0, "fusion_lat": 0.0}, {"fusion_lon": 0.0, "bike_id": "652197187fa88dd82857a2aa81ddd9e7", "name": "652197187fa88dd82857a2aa81ddd9e7", "type": "electric_scooter", "lon": -77.04981033333334, "rental_uris": {"android": "https://dc.lft.to/lastmile_qr_scan", "ios": "https://dc.lft.to/lastmile_qr_scan"}, "lat": 38.89607783333334, "is_reserved": 0, "is_disabled": 0, "fusion_lat": 0.0}, {"fusion_lon": 0.0, "bike_id": "9c2ef07165ec1b041cce6adeb562c307", "name": "9c2ef07165ec1b041cce6adeb562c307", "type": "electric_scooter", "lon": -77.0447385, "rental_uris": {"android": "https://dc.lft.to/lastmile_qr_scan", "ios": "https://dc.lft.to/lastmile_qr_scan"}, "lat": 38.90533766666667, "is_reserved": 0, "is_disabled": 0, "fusion_lat": 0.0}, {"fusion_lon": 0.0, "bike_id": "bb8e28df5f63727fa97cb6ae3b20dea0", "name": "bb8e28df5f63727fa97cb6ae3b20dea0", "type": "electric_scooter", "lon": -77.03109566666667, "rental_uris": {"android": "https://dc.lft.to/lastmile_qr_scan", "ios": "https://dc.lft.to/lastmile_qr_scan"}, "lat": 38.929651166666666, "is_reserved": 0, "is_disabled": 0, "fusion_lat": 0.0}, {"fusion_lon": 0.0, "bike_id": "ce52dbc22e9cdc957fcf84d66df79ecd", "name": "ce52dbc22e9cdc957fcf84d66df79ecd", "type": "electric_scooter", "lon": -77.06217216666667, "rental_uris": {"android": "https://dc.lft.to/lastmile_qr_scan", "ios": "https://dc.lft.to/lastmile_qr_scan"}, "lat": 38.9051945, "is_reserved": 0, "is_disabled": 0, "fusion_lat": 0.0}, {"fusion_lon": 0.0, "bike_id": "66106fe75d23bbe5602329b8bc6603ff", "name": "66106fe75d23bbe5602329b8bc6603ff", "type": "electric_scooter", "lon": -76.99677483333333, "rental_uris": {"android": "https://dc.lft.to/lastmile_qr_scan", "ios": "https://dc.lft.to/lastmile_qr_scan"}, "lat": 38.886987, "is_reserved": 0, "is_disabled": 0, "fusion_lat": 0.0}, {"fusion_lon": 0.0, "bike_id": "6689a94e6e28b8f1f7fa793fc97f0fc2", "name": "6689a94e6e28b8f1f7fa793fc97f0fc2", "type": "electric_scooter", "lon": -77.03205916666667, "rental_uris": {"android": "https://dc.lft.to/lastmile_qr_scan", "ios": "https://dc.lft.to/lastmile_qr_scan"}, "lat": 38.91854216666667, "is_reserved": 0, "is_disabled": 0, "fusion_lat": 0.0}, {"fusion_lon": 0.0, "bike_id": "aa85a1b043de4559478c0b8fcac431c1", "name": "aa85a1b043de4559478c0b8fcac431c1", "type": "electric_scooter", "lon": -77.015637, "rental_uris": {"android": "https://dc.lft.to/lastmile_qr_scan", "ios": "https://dc.lft.to/lastmile_qr_scan"}, "lat": 38.891744, "is_reserved": 0, "is_disabled": 0, "fusion_lat": 0.0}, {"fusion_lon": 0.0, "bike_id": "c597a6f2524a6b4bd425bd8b59204c16", "name": "c597a6f2524a6b4bd425bd8b59204c16", "type": "electric_scooter", "lon": -77.02822266666666, "rental_uris": {"android": "https://dc.lft.to/lastmile_qr_scan", "ios": "https://dc.lft.to/lastmile_qr_scan"}, "lat": 38.8924165, "is_reserved": 0, "is_disabled": 0, "fusion_lat": 0.0}, {"fusion_lon": 0.0, "bike_id": "3cd3de7466705304630fd2a9544fcf40", "name": "3cd3de7466705304630fd2a9544fcf40", "type": "electric_scooter", "lon": -77.0231475, "rental_uris": {"android": "https://dc.lft.to/lastmile_qr_scan", "ios": "https://dc.lft.to/lastmile_qr_scan"}, "lat": 38.92783883333333, "is_reserved": 0, "is_disabled": 0, "fusion_lat": 0.0}, {"fusion_lon": 0.0, "bike_id": "80dcb4b7e129f2a8b2bf4dfd24eff4f7", "name": "80dcb4b7e129f2a8b2bf4dfd24eff4f7", "type": "electric_scooter", "lon": -77.02638483333334, "rental_uris": {"android": "https://dc.lft.to/lastmile_qr_scan", "ios": "https://dc.lft.to/lastmile_qr_scan"}, "lat": 38.9805385, "is_reserved": 0, "is_disabled": 0, "fusion_lat": 0.0}, {"fusion_lon": 0.0, "bike_id": "55a41b415c9c81db81b8f83ea0225c48", "name": "55a41b415c9c81db81b8f83ea0225c48", "type": "electric_scooter", "lon": -77.06886533333333, "rental_uris": {"android": "https://dc.lft.to/lastmile_qr_scan", "ios": "https://dc.lft.to/lastmile_qr_scan"}, "lat": 38.905166333333334, "is_reserved": 0, "is_disabled": 0, "fusion_lat": 0.0}, {"fusion_lon": 0.0, "bike_id": "3d1e25e9a116728d3c11310c7d85c180", "name": "3d1e25e9a116728d3c11310c7d85c180", "type": "electric_scooter", "lon": -76.96525933333334, "rental_uris": {"android": "https://dc.lft.to/lastmile_qr_scan", "ios": "https://dc.lft.to/lastmile_qr_scan"}, "lat": 38.876245, "is_reserved": 0, "is_disabled": 0, "fusion_lat": 0.0}, {"fusion_lon": 0.0, "bike_id": "9b4a59746cb68a66b9db7cc3d8a43e16", "name": "9b4a59746cb68a66b9db7cc3d8a43e16", "type": "electric_bike", "lon": -76.94571633333334, "rental_uris": {"android": "https://dc.lft.to/lastmile_qr_scan", "ios": "https://dc.lft.to/lastmile_qr_scan"}, "lat": 38.866226, "is_reserved": 0, "is_disabled": 0, "fusion_lat": 0.0}, {"fusion_lon": 0.0, "bike_id": "85d027dec00af4b25a7bfe9d8304b42a", "name": "85d027dec00af4b25a7bfe9d8304b42a", "type": "electric_scooter", "lon": -77.00053766666667, "rental_uris": {"android": "https://dc.lft.to/lastmile_qr_scan", "ios": "https://dc.lft.to/lastmile_qr_scan"}, "lat": 38.8889955, "is_reserved": 0, "is_disabled": 0, "fusion_lat": 0.0}, {"fusion_lon": 0.0, "bike_id": "89bf3803847d870fc985f41ef794ab37", "name": "89bf3803847d870fc985f41ef794ab37", "type": "electric_scooter", "lon": -77.02612433333333, "rental_uris": {"android": "https://dc.lft.to/lastmile_qr_scan", "ios": "https://dc.lft.to/lastmile_qr_scan"}, "lat": 38.92439133333333, "is_reserved": 0, "is_disabled": 0, "fusion_lat": 0.0}, {"fusion_lon": 0.0, "bike_id": "57022943b25628173c3e6e276b7073a2", "name": "57022943b25628173c3e6e276b7073a2", "type": "electric_scooter", "lon": -77.0020395, "rental_uris": {"android": "https://dc.lft.to/lastmile_qr_scan", "ios": "https://dc.lft.to/lastmile_qr_scan"}, "lat": 38.89348016666667, "is_reserved": 0, "is_disabled": 0, "fusion_lat": 0.0}, {"fusion_lon": 0.0, "bike_id": "6c925012bc79b1ae662408d90e8a8623", "name": "6c925012bc79b1ae662408d90e8a8623", "type": "electric_scooter", "lon": -77.01372716666667, "rental_uris": {"android": "https://dc.lft.to/lastmile_qr_scan", "ios": "https://dc.lft.to/lastmile_qr_scan"}, "lat": 38.887027833333335, "is_reserved": 0, "is_disabled": 0, "fusion_lat": 0.0}, {"fusion_lon": 0.0, "bike_id": "c437a29c1ca1408678f3ba676382888c", "name": "c437a29c1ca1408678f3ba676382888c", "type": "electric_scooter", "lon": -77.0512225, "rental_uris": {"android": "https://dc.lft.to/lastmile_qr_scan", "ios": "https://dc.lft.to/lastmile_qr_scan"}, "lat": 38.912187333333335, "is_reserved": 0, "is_disabled": 0, "fusion_lat": 0.0}, {"fusion_lon": 0.0, "bike_id": "e3eba6291a56dbf21d5204282c241269", "name": "e3eba6291a56dbf21d5204282c241269", "type": "electric_bike", "lon": -76.94962166666667, "rental_uris": {"android": "https://dc.lft.to/lastmile_qr_scan", "ios": "https://dc.lft.to/lastmile_qr_scan"}, "lat": 38.93497166666667, "is_reserved": 0, "is_disabled": 0, "fusion_lat": 0.0}, {"fusion_lon": 0.0, "bike_id": "904de46050c5a3d6bb88180fad6fb692", "name": "904de46050c5a3d6bb88180fad6fb692", "type": "electric_scooter", "lon": -77.00759633333334, "rental_uris": {"android": "https://dc.lft.to/lastmile_qr_scan", "ios": "https://dc.lft.to/lastmile_qr_scan"}, "lat": 38.876498833333336, "is_reserved": 0, "is_disabled": 0, "fusion_lat": 0.0}, {"fusion_lon": 0.0, "bike_id": "7938e934c0c07efc6ae19f32a39a209e", "name": "7938e934c0c07efc6ae19f32a39a209e", "type": "electric_scooter", "lon": -77.01117533333333, "rental_uris": {"android": "https://dc.lft.to/lastmile_qr_scan", "ios": "https://dc.lft.to/lastmile_qr_scan"}, "lat": 38.903550833333334, "is_reserved": 0, "is_disabled": 0, "fusion_lat": 0.0}, {"fusion_lon": 0.0, "bike_id": "c3b805fb9eb187f2beab86c5685ab59d", "name": "c3b805fb9eb187f2beab86c5685ab59d", "type": "electric_scooter", "lon": -77.06918416666667, "rental_uris": {"android": "https://dc.lft.to/lastmile_qr_scan", "ios": "https://dc.lft.to/lastmile_qr_scan"}, "lat": 38.91334666666667, "is_reserved": 0, "is_disabled": 0, "fusion_lat": 0.0}, {"fusion_lon": 0.0, "bike_id": "a3a0de0a9343960780d38948f83189c8", "name": "a3a0de0a9343960780d38948f83189c8", "type": "electric_scooter", "lon": -77.04292483333333, "rental_uris": {"android": "https://dc.lft.to/lastmile_qr_scan", "ios": "https://dc.lft.to/lastmile_qr_scan"}, "lat": 38.90890316666667, "is_reserved": 0, "is_disabled": 0, "fusion_lat": 0.0}, {"fusion_lon": 0.0, "bike_id": "f6be3a55c0114a1a98dfa518c11ec6fc", "name": "f6be3a55c0114a1a98dfa518c11ec6fc", "type": "electric_scooter", "lon": -77.0199655, "rental_uris": {"android": "https://dc.lft.to/lastmile_qr_scan", "ios": "https://dc.lft.to/lastmile_qr_scan"}, "lat": 38.93045, "is_reserved": 0, "is_disabled": 0, "fusion_lat": 0.0}, {"fusion_lon": 0.0, "bike_id": "089feb58bd91c84e110f7f3a2c8d17d6", "name": "089feb58bd91c84e110f7f3a2c8d17d6", "type": "electric_scooter", "lon": -77.02854383333333, "rental_uris": {"android": "https://dc.lft.to/lastmile_qr_scan", "ios": "https://dc.lft.to/lastmile_qr_scan"}, "lat": 38.932654, "is_reserved": 0, "is_disabled": 0, "fusion_lat": 0.0}, {"fusion_lon": 0.0, "bike_id": "c4f263d941e21482200a4d15effaa890", "name": "c4f263d941e21482200a4d15effaa890", "type": "electric_scooter", "lon": -76.99160683333334, "rental_uris": {"android": "https://dc.lft.to/lastmile_qr_scan", "ios": "https://dc.lft.to/lastmile_qr_scan"}, "lat": 38.882095166666666, "is_reserved": 0, "is_disabled": 0, "fusion_lat": 0.0}, {"fusion_lon": 0.0, "bike_id": "928e5b6ebf7ce988b3c483e587884ebb", "name": "928e5b6ebf7ce988b3c483e587884ebb", "type": "electric_scooter", "lon": -77.03132883333333, "rental_uris": {"android": "https://dc.lft.to/lastmile_qr_scan", "ios": "https://dc.lft.to/lastmile_qr_scan"}, "lat": 38.92022566666667, "is_reserved": 0, "is_disabled": 0, "fusion_lat": 0.0}, {"fusion_lon": 0.0, "bike_id": "08ad6b83fefe9836e19bc571c367962e", "name": "08ad6b83fefe9836e19bc571c367962e", "type": "electric_scooter", "lon": -77.0137295, "rental_uris": {"android": "https://dc.lft.to/lastmile_qr_scan", "ios": "https://dc.lft.to/lastmile_qr_scan"}, "lat": 38.8922015, "is_reserved": 0, "is_disabled": 0, "fusion_lat": 0.0}, {"fusion_lon": 0.0, "bike_id": "5be04414dd37edc5f1065f694e3a546d", "name": "5be04414dd37edc5f1065f694e3a546d", "type": "electric_bike", "lon": -76.90536366666667, "rental_uris": {"android": "https://dc.lft.to/lastmile_qr_scan", "ios": "https://dc.lft.to/lastmile_qr_scan"}, "lat": 38.8973345, "is_reserved": 0, "is_disabled": 0, "fusion_lat": 0.0}, {"fusion_lon": 0.0, "bike_id": "97f9b323a5b925407622a6f68b70c257", "name": "97f9b323a5b925407622a6f68b70c257", "type": "electric_scooter", "lon": -77.04356616666666, "rental_uris": {"android": "https://dc.lft.to/lastmile_qr_scan", "ios": "https://dc.lft.to/lastmile_qr_scan"}, "lat": 38.904268333333334, "is_reserved": 0, "is_disabled": 0, "fusion_lat": 0.0}, {"fusion_lon": 0.0, "bike_id": "b7fb746409e52c02f079c434c5df9b64", "name": "b7fb746409e52c02f079c434c5df9b64", "type": "electric_scooter", "lon": -77.0218895, "rental_uris": {"android": "https://dc.lft.to/lastmile_qr_scan", "ios": "https://dc.lft.to/lastmile_qr_scan"}, "lat": 38.91880183333333, "is_reserved": 0, "is_disabled": 0, "fusion_lat": 0.0}, {"fusion_lon": 0.0, "bike_id": "dc30fdeadcf3338965fb36c8304699a9", "name": "dc30fdeadcf3338965fb36c8304699a9", "type": "electric_scooter", "lon": -77.01241916666666, "rental_uris": {"android": "https://dc.lft.to/lastmile_qr_scan", "ios": "https://dc.lft.to/lastmile_qr_scan"}, "lat": 38.9071695, "is_reserved": 0, "is_disabled": 0, "fusion_lat": 0.0}, {"fusion_lon": 0.0, "bike_id": "8192447339eeb1287db218e681b15d2b", "name": "8192447339eeb1287db218e681b15d2b", "type": "electric_scooter", "lon": -77.01377383333333, "rental_uris": {"android": "https://dc.lft.to/lastmile_qr_scan", "ios": "https://dc.lft.to/lastmile_qr_scan"}, "lat": 38.88635933333333, "is_reserved": 0, "is_disabled": 0, "fusion_lat": 0.0}, {"fusion_lon": 0.0, "bike_id": "0912ec96d7c28d70775d6f6258de6884", "name": "0912ec96d7c28d70775d6f6258de6884", "type": "electric_scooter", "lon": -77.04268316666666, "rental_uris": {"android": "https://dc.lft.to/lastmile_qr_scan", "ios": "https://dc.lft.to/lastmile_qr_scan"}, "lat": 38.89724783333333, "is_reserved": 0, "is_disabled": 0, "fusion_lat": 0.0}, {"fusion_lon": 0.0, "bike_id": "e6174feb5d190145480857d3438c8a39", "name": "e6174feb5d190145480857d3438c8a39", "type": "electric_bike", "lon": -76.90818166666666, "rental_uris": {"android": "https://dc.lft.to/lastmile_qr_scan", "ios": "https://dc.lft.to/lastmile_qr_scan"}, "lat": 38.9945345, "is_reserved": 0, "is_disabled": 0, "fusion_lat": 0.0}, {"fusion_lon": 0.0, "bike_id": "f6ac0e3c4345b57e876daa5a437ada51", "name": "f6ac0e3c4345b57e876daa5a437ada51", "type": "electric_scooter", "lon": -77.02481883333333, "rental_uris": {"android": "https://dc.lft.to/lastmile_qr_scan", "ios": "https://dc.lft.to/lastmile_qr_scan"}, "lat": 38.938803, "is_reserved": 0, "is_disabled": 0, "fusion_lat": 0.0}, {"fusion_lon": 0.0, "bike_id": "9c469915ca86c0988eabda23f71d2876", "name": "9c469915ca86c0988eabda23f71d2876", "type": "electric_scooter", "lon": -76.95531566666666, "rental_uris": {"android": "https://dc.lft.to/lastmile_qr_scan", "ios": "https://dc.lft.to/lastmile_qr_scan"}, "lat": 38.8876065, "is_reserved": 0, "is_disabled": 0, "fusion_lat": 0.0}, {"fusion_lon": 0.0, "bike_id": "9a339008fb963f2ec0e10204d2f7bb4c", "name": "9a339008fb963f2ec0e10204d2f7bb4c", "type": "electric_scooter", "lon": -77.033277, "rental_uris": {"android": "https://dc.lft.to/lastmile_qr_scan", "ios": "https://dc.lft.to/lastmile_qr_scan"}, "lat": 38.960179833333335, "is_reserved": 0, "is_disabled": 0, "fusion_lat": 0.0}, {"fusion_lon": 0.0, "bike_id": "71f4c25f019b3d7c47893c847148cb84", "name": "71f4c25f019b3d7c47893c847148cb84", "type": "electric_scooter", "lon": -77.03028716666667, "rental_uris": {"android": "https://dc.lft.to/lastmile_qr_scan", "ios": "https://dc.lft.to/lastmile_qr_scan"}, "lat": 38.92242066666667, "is_reserved": 0, "is_disabled": 0, "fusion_lat": 0.0}, {"fusion_lon": 0.0, "bike_id": "3f9c70c65b5d44045df5d0c483008f44", "name": "3f9c70c65b5d44045df5d0c483008f44", "type": "electric_scooter", "lon": -77.05091566666667, "rental_uris": {"android": "https://dc.lft.to/lastmile_qr_scan", "ios": "https://dc.lft.to/lastmile_qr_scan"}, "lat": 38.92340466666667, "is_reserved": 0, "is_disabled": 0, "fusion_lat": 0.0}, {"fusion_lon": 0.0, "bike_id": "d46107afcb81ee519e8d55bd915b7e90", "name": "d46107afcb81ee519e8d55bd915b7e90", "type": "electric_scooter", "lon": -77.02718483333334, "rental_uris": {"android": "https://dc.lft.to/lastmile_qr_scan", "ios": "https://dc.lft.to/lastmile_qr_scan"}, "lat": 38.907444166666664, "is_reserved": 0, "is_disabled": 0, "fusion_lat": 0.0}, {"fusion_lon": 0.0, "bike_id": "4676bd0e7c2c83e8bcfda29591d458f9", "name": "4676bd0e7c2c83e8bcfda29591d458f9", "type": "electric_scooter", "lon": -77.06241233333333, "rental_uris": {"android": "https://dc.lft.to/lastmile_qr_scan", "ios": "https://dc.lft.to/lastmile_qr_scan"}, "lat": 38.90527083333333, "is_reserved": 0, "is_disabled": 0, "fusion_lat": 0.0}, {"fusion_lon": 0.0, "bike_id": "43134cb076d9ae77514b7a73ed167665", "name": "43134cb076d9ae77514b7a73ed167665", "type": "electric_bike", "lon": -76.9789335, "rental_uris": {"android": "https://dc.lft.to/lastmile_qr_scan", "ios": "https://dc.lft.to/lastmile_qr_scan"}, "lat": 38.85490266666667, "is_reserved": 0, "is_disabled": 0, "fusion_lat": 0.0}, {"fusion_lon": 0.0, "bike_id": "533f78016f2a4a71cefaaf1f67a30c67", "name": "533f78016f2a4a71cefaaf1f67a30c67", "type": "electric_bike", "lon": -76.91596816666667, "rental_uris": {"android": "https://dc.lft.to/lastmile_qr_scan", "ios": "https://dc.lft.to/lastmile_qr_scan"}, "lat": 38.8800915, "is_reserved": 0, "is_disabled": 0, "fusion_lat": 0.0}, {"fusion_lon": 0.0, "bike_id": "6077d81f2ae8217f13095ab2b121d054", "name": "6077d81f2ae8217f13095ab2b121d054", "type": "electric_scooter", "lon": -77.00544266666667, "rental_uris": {"android": "https://dc.lft.to/lastmile_qr_scan", "ios": "https://dc.lft.to/lastmile_qr_scan"}, "lat": 38.896143, "is_reserved": 0, "is_disabled": 0, "fusion_lat": 0.0}, {"fusion_lon": 0.0, "bike_id": "ddb88dce2c2366cd8f7eb1fefa2badcd", "name": "ddb88dce2c2366cd8f7eb1fefa2badcd", "type": "electric_scooter", "lon": -77.10318416666667, "rental_uris": {"android": "https://dc.lft.to/lastmile_qr_scan", "ios": "https://dc.lft.to/lastmile_qr_scan"}, "lat": 38.92669383333333, "is_reserved": 0, "is_disabled": 0, "fusion_lat": 0.0}, {"fusion_lon": 0.0, "bike_id": "92f59c4a88dbc2712589672e160286d5", "name": "92f59c4a88dbc2712589672e160286d5", "type": "electric_scooter", "lon": -76.99464383333333, "rental_uris": {"android": "https://dc.lft.to/lastmile_qr_scan", "ios": "https://dc.lft.to/lastmile_qr_scan"}, "lat": 38.86220816666667, "is_reserved": 0, "is_disabled": 0, "fusion_lat": 0.0}, {"fusion_lon": 0.0, "bike_id": "23526c1f0ea69ba811ff2b547f622ccc", "name": "23526c1f0ea69ba811ff2b547f622ccc", "type": "electric_scooter", "lon": -77.0161295, "rental_uris": {"android": "https://dc.lft.to/lastmile_qr_scan", "ios": "https://dc.lft.to/lastmile_qr_scan"}, "lat": 38.89958933333333, "is_reserved": 0, "is_disabled": 0, "fusion_lat": 0.0}, {"fusion_lon": 0.0, "bike_id": "b923ee174bddc4b5cd9780df885d4d2d", "name": "b923ee174bddc4b5cd9780df885d4d2d", "type": "electric_scooter", "lon": -76.97185366666666, "rental_uris": {"android": "https://dc.lft.to/lastmile_qr_scan", "ios": "https://dc.lft.to/lastmile_qr_scan"}, "lat": 38.912607666666666, "is_reserved": 0, "is_disabled": 0, "fusion_lat": 0.0}, {"fusion_lon": 0.0, "bike_id": "ab7a118a9feeb3c4c6995df401b348b3", "name": "ab7a118a9feeb3c4c6995df401b348b3", "type": "electric_scooter", "lon": -77.03392983333333, "rental_uris": {"android": "https://dc.lft.to/lastmile_qr_scan", "ios": "https://dc.lft.to/lastmile_qr_scan"}, "lat": 38.901099333333335, "is_reserved": 0, "is_disabled": 0, "fusion_lat": 0.0}, {"fusion_lon": 0.0, "bike_id": "567688d1dae18830ed75eae04b40749a", "name": "567688d1dae18830ed75eae04b40749a", "type": "electric_scooter", "lon": -77.04090383333333, "rental_uris": {"android": "https://dc.lft.to/lastmile_qr_scan", "ios": "https://dc.lft.to/lastmile_qr_scan"}, "lat": 38.91689016666667, "is_reserved": 0, "is_disabled": 0, "fusion_lat": 0.0}, {"fusion_lon": 0.0, "bike_id": "e3d3865dc9508525c96aa5d2cb3e9a3e", "name": "e3d3865dc9508525c96aa5d2cb3e9a3e", "type": "electric_scooter", "lon": -77.03657833333334, "rental_uris": {"android": "https://dc.lft.to/lastmile_qr_scan", "ios": "https://dc.lft.to/lastmile_qr_scan"}, "lat": 38.917217666666666, "is_reserved": 0, "is_disabled": 0, "fusion_lat": 0.0}, {"fusion_lon": 0.0, "bike_id": "610f013da8c0cc2128c4b633f0d6c991", "name": "610f013da8c0cc2128c4b633f0d6c991", "type": "electric_scooter", "lon": -77.03779383333334, "rental_uris": {"android": "https://dc.lft.to/lastmile_qr_scan", "ios": "https://dc.lft.to/lastmile_qr_scan"}, "lat": 38.93610533333333, "is_reserved": 0, "is_disabled": 0, "fusion_lat": 0.0}, {"fusion_lon": 0.0, "bike_id": "655903aea44e49b292394b8a4c6fe522", "name": "655903aea44e49b292394b8a4c6fe522", "type": "electric_scooter", "lon": -77.02802116666666, "rental_uris": {"android": "https://dc.lft.to/lastmile_qr_scan", "ios": "https://dc.lft.to/lastmile_qr_scan"}, "lat": 38.91735216666667, "is_reserved": 0, "is_disabled": 0, "fusion_lat": 0.0}, {"fusion_lon": 0.0, "bike_id": "b213a67a64f972c6a559d5f7aabef4bb", "name": "b213a67a64f972c6a559d5f7aabef4bb", "type": "electric_scooter", "lon": -77.0076305, "rental_uris": {"android": "https://dc.lft.to/lastmile_qr_scan", "ios": "https://dc.lft.to/lastmile_qr_scan"}, "lat": 38.90058533333333, "is_reserved": 0, "is_disabled": 0, "fusion_lat": 0.0}, {"fusion_lon": 0.0, "bike_id": "c2ae5488421e99784df74def30085482", "name": "c2ae5488421e99784df74def30085482", "type": "electric_scooter", "lon": -77.01589683333333, "rental_uris": {"android": "https://dc.lft.to/lastmile_qr_scan", "ios": "https://dc.lft.to/lastmile_qr_scan"}, "lat": 38.897276166666664, "is_reserved": 0, "is_disabled": 0, "fusion_lat": 0.0}, {"fusion_lon": 0.0, "bike_id": "995da95a5c8e7047cbbbeb67590715ae", "name": "995da95a5c8e7047cbbbeb67590715ae", "type": "electric_scooter", "lon": -77.06154783333334, "rental_uris": {"android": "https://dc.lft.to/lastmile_qr_scan", "ios": "https://dc.lft.to/lastmile_qr_scan"}, "lat": 38.9421445, "is_reserved": 0, "is_disabled": 0, "fusion_lat": 0.0}, {"fusion_lon": 0.0, "bike_id": "21c7a8bf88f596495d354eded6fa1ba8", "name": "21c7a8bf88f596495d354eded6fa1ba8", "type": "electric_scooter", "lon": -77.00488133333333, "rental_uris": {"android": "https://dc.lft.to/lastmile_qr_scan", "ios": "https://dc.lft.to/lastmile_qr_scan"}, "lat": 38.9258835, "is_reserved": 0, "is_disabled": 0, "fusion_lat": 0.0}, {"fusion_lon": 0.0, "bike_id": "b9cf6140f545028667dd04f3f83f3717", "name": "b9cf6140f545028667dd04f3f83f3717", "type": "electric_scooter", "lon": -76.93162733333334, "rental_uris": {"android": "https://dc.lft.to/lastmile_qr_scan", "ios": "https://dc.lft.to/lastmile_qr_scan"}, "lat": 38.89873466666667, "is_reserved": 0, "is_disabled": 0, "fusion_lat": 0.0}, {"fusion_lon": 0.0, "bike_id": "c05f53e8f49d5eb0bb4614da1949fb19", "name": "c05f53e8f49d5eb0bb4614da1949fb19", "type": "electric_scooter", "lon": -76.94119066666667, "rental_uris": {"android": "https://dc.lft.to/lastmile_qr_scan", "ios": "https://dc.lft.to/lastmile_qr_scan"}, "lat": 38.907909, "is_reserved": 0, "is_disabled": 0, "fusion_lat": 0.0}, {"fusion_lon": 0.0, "bike_id": "cfb23612116946cba5af42d677b5c393", "name": "cfb23612116946cba5af42d677b5c393", "type": "electric_scooter", "lon": -77.0269515, "rental_uris": {"android": "https://dc.lft.to/lastmile_qr_scan", "ios": "https://dc.lft.to/lastmile_qr_scan"}, "lat": 38.906597166666664, "is_reserved": 0, "is_disabled": 0, "fusion_lat": 0.0}, {"fusion_lon": 0.0, "bike_id": "27755660d0fb8eea030cb67417eb66e2", "name": "27755660d0fb8eea030cb67417eb66e2", "type": "electric_scooter", "lon": -77.03828716666666, "rental_uris": {"android": "https://dc.lft.to/lastmile_qr_scan", "ios": "https://dc.lft.to/lastmile_qr_scan"}, "lat": 38.90775816666667, "is_reserved": 0, "is_disabled": 0, "fusion_lat": 0.0}, {"fusion_lon": 0.0, "bike_id": "433704332da3c1fabe767bca5ca7897c", "name": "433704332da3c1fabe767bca5ca7897c", "type": "electric_scooter", "lon": -76.98678016666666, "rental_uris": {"android": "https://dc.lft.to/lastmile_qr_scan", "ios": "https://dc.lft.to/lastmile_qr_scan"}, "lat": 38.855595, "is_reserved": 0, "is_disabled": 0, "fusion_lat": 0.0}, {"fusion_lon": 0.0, "bike_id": "81989250f92773eaba2e384d7eb7a7bc", "name": "81989250f92773eaba2e384d7eb7a7bc", "type": "electric_scooter", "lon": -77.02767, "rental_uris": {"android": "https://dc.lft.to/lastmile_qr_scan", "ios": "https://dc.lft.to/lastmile_qr_scan"}, "lat": 38.92978816666667, "is_reserved": 0, "is_disabled": 0, "fusion_lat": 0.0}, {"fusion_lon": 0.0, "bike_id": "54b53b5a7e06079669f392d736e8981f", "name": "54b53b5a7e06079669f392d736e8981f", "type": "electric_scooter", "lon": -77.02105866666666, "rental_uris": {"android": "https://dc.lft.to/lastmile_qr_scan", "ios": "https://dc.lft.to/lastmile_qr_scan"}, "lat": 38.897493833333336, "is_reserved": 0, "is_disabled": 0, "fusion_lat": 0.0}, {"fusion_lon": 0.0, "bike_id": "359a54286ed8efe7bc4c7cd06442545d", "name": "359a54286ed8efe7bc4c7cd06442545d", "type": "electric_scooter", "lon": -77.01533483333333, "rental_uris": {"android": "https://dc.lft.to/lastmile_qr_scan", "ios": "https://dc.lft.to/lastmile_qr_scan"}, "lat": 38.88483633333333, "is_reserved": 0, "is_disabled": 0, "fusion_lat": 0.0}, {"fusion_lon": 0.0, "bike_id": "584e2ccf4c3d949b3acf1b3e87d74b1c", "name": "584e2ccf4c3d949b3acf1b3e87d74b1c", "type": "electric_scooter", "lon": -76.98782266666667, "rental_uris": {"android": "https://dc.lft.to/lastmile_qr_scan", "ios": "https://dc.lft.to/lastmile_qr_scan"}, "lat": 38.91197833333333, "is_reserved": 0, "is_disabled": 0, "fusion_lat": 0.0}, {"fusion_lon": 0.0, "bike_id": "649c4a9354bfdd860c3c1863633a2282", "name": "649c4a9354bfdd860c3c1863633a2282", "type": "electric_scooter", "lon": -77.02634316666666, "rental_uris": {"android": "https://dc.lft.to/lastmile_qr_scan", "ios": "https://dc.lft.to/lastmile_qr_scan"}, "lat": 38.902474, "is_reserved": 0, "is_disabled": 0, "fusion_lat": 0.0}, {"fusion_lon": 0.0, "bike_id": "5eb8f94c488d39284a2410728e7afcf3", "name": "5eb8f94c488d39284a2410728e7afcf3", "type": "electric_bike", "lon": -77.1274415, "rental_uris": {"android": "https://dc.lft.to/lastmile_qr_scan", "ios": "https://dc.lft.to/lastmile_qr_scan"}, "lat": 38.888174, "is_reserved": 0, "is_disabled": 0, "fusion_lat": 0.0}, {"fusion_lon": 0.0, "bike_id": "b7349d4e0b21146a3988ab8397851bdf", "name": "b7349d4e0b21146a3988ab8397851bdf", "type": "electric_bike", "lon": -76.99770083333334, "rental_uris": {"android": "https://dc.lft.to/lastmile_qr_scan", "ios": "https://dc.lft.to/lastmile_qr_scan"}, "lat": 39.00588616666667, "is_reserved": 0, "is_disabled": 0, "fusion_lat": 0.0}, {"fusion_lon": 0.0, "bike_id": "de1634a158f4529b7b1b19913ba91ff0", "name": "de1634a158f4529b7b1b19913ba91ff0", "type": "electric_scooter", "lon": -76.994973, "rental_uris": {"android": "https://dc.lft.to/lastmile_qr_scan", "ios": "https://dc.lft.to/lastmile_qr_scan"}, "lat": 38.89482666666667, "is_reserved": 0, "is_disabled": 0, "fusion_lat": 0.0}, {"fusion_lon": 0.0, "bike_id": "f2a0457aa7bd284bf96be564eb365bc9", "name": "f2a0457aa7bd284bf96be564eb365bc9", "type": "electric_scooter", "lon": -76.997792, "rental_uris": {"android": "https://dc.lft.to/lastmile_qr_scan", "ios": "https://dc.lft.to/lastmile_qr_scan"}, "lat": 38.922883166666665, "is_reserved": 0, "is_disabled": 0, "fusion_lat": 0.0}, {"fusion_lon": 0.0, "bike_id": "8996357997aeca5f160d339b5f7237c6", "name": "8996357997aeca5f160d339b5f7237c6", "type": "electric_scooter", "lon": -76.98272983333334, "rental_uris": {"android": "https://dc.lft.to/lastmile_qr_scan", "ios": "https://dc.lft.to/lastmile_qr_scan"}, "lat": 38.88530766666667, "is_reserved": 0, "is_disabled": 0, "fusion_lat": 0.0}, {"fusion_lon": 0.0, "bike_id": "c0ca255e4998ad8ba287634f34624a2e", "name": "c0ca255e4998ad8ba287634f34624a2e", "type": "electric_scooter", "lon": -77.0020055, "rental_uris": {"android": "https://dc.lft.to/lastmile_qr_scan", "ios": "https://dc.lft.to/lastmile_qr_scan"}, "lat": 38.902371, "is_reserved": 0, "is_disabled": 0, "fusion_lat": 0.0}, {"fusion_lon": 0.0, "bike_id": "6194280d7ad2192be5f1c64e5d322bde", "name": "6194280d7ad2192be5f1c64e5d322bde", "type": "electric_scooter", "lon": -77.04764383333334, "rental_uris": {"android": "https://dc.lft.to/lastmile_qr_scan", "ios": "https://dc.lft.to/lastmile_qr_scan"}, "lat": 38.90210033333334, "is_reserved": 0, "is_disabled": 0, "fusion_lat": 0.0}, {"fusion_lon": 0.0, "bike_id": "b708f78a01fb158447c7e5c4c22446cc", "name": "b708f78a01fb158447c7e5c4c22446cc", "type": "electric_scooter", "lon": -77.0188705, "rental_uris": {"android": "https://dc.lft.to/lastmile_qr_scan", "ios": "https://dc.lft.to/lastmile_qr_scan"}, "lat": 38.946383833333336, "is_reserved": 0, "is_disabled": 0, "fusion_lat": 0.0}, {"fusion_lon": 0.0, "bike_id": "e28944feaaabd7d46dee4fc1ac7bbf2f", "name": "e28944feaaabd7d46dee4fc1ac7bbf2f", "type": "electric_bike", "lon": -77.11425133333333, "rental_uris": {"android": "https://dc.lft.to/lastmile_qr_scan", "ios": "https://dc.lft.to/lastmile_qr_scan"}, "lat": 38.85246516666667, "is_reserved": 0, "is_disabled": 0, "fusion_lat": 0.0}, {"fusion_lon": 0.0, "bike_id": "1611a6ae062895112f54eaee7578e175", "name": "1611a6ae062895112f54eaee7578e175", "type": "electric_scooter", "lon": -77.031968, "rental_uris": {"android": "https://dc.lft.to/lastmile_qr_scan", "ios": "https://dc.lft.to/lastmile_qr_scan"}, "lat": 38.91517433333333, "is_reserved": 0, "is_disabled": 0, "fusion_lat": 0.0}, {"fusion_lon": 0.0, "bike_id": "429c5e0ddb692194c7e973d823117153", "name": "429c5e0ddb692194c7e973d823117153", "type": "electric_scooter", "lon": -77.04548133333333, "rental_uris": {"android": "https://dc.lft.to/lastmile_qr_scan", "ios": "https://dc.lft.to/lastmile_qr_scan"}, "lat": 38.912609, "is_reserved": 0, "is_disabled": 0, "fusion_lat": 0.0}, {"fusion_lon": 0.0, "bike_id": "1b7ef5c88a650967f90a7b97cbcb4280", "name": "1b7ef5c88a650967f90a7b97cbcb4280", "type": "electric_scooter", "lon": -77.05519733333334, "rental_uris": {"android": "https://dc.lft.to/lastmile_qr_scan", "ios": "https://dc.lft.to/lastmile_qr_scan"}, "lat": 38.910583, "is_reserved": 0, "is_disabled": 0, "fusion_lat": 0.0}, {"fusion_lon": 0.0, "bike_id": "67e2b7214afe066a5ebe6ba6a1bc5fa8", "name": "67e2b7214afe066a5ebe6ba6a1bc5fa8", "type": "electric_scooter", "lon": -76.99729466666666, "rental_uris": {"android": "https://dc.lft.to/lastmile_qr_scan", "ios": "https://dc.lft.to/lastmile_qr_scan"}, "lat": 38.907897166666665, "is_reserved": 0, "is_disabled": 0, "fusion_lat": 0.0}, {"fusion_lon": 0.0, "bike_id": "e654d4e364721605dedcc4e084215902", "name": "e654d4e364721605dedcc4e084215902", "type": "electric_scooter", "lon": -76.98253216666667, "rental_uris": {"android": "https://dc.lft.to/lastmile_qr_scan", "ios": "https://dc.lft.to/lastmile_qr_scan"}, "lat": 38.863555833333336, "is_reserved": 0, "is_disabled": 0, "fusion_lat": 0.0}, {"fusion_lon": 0.0, "bike_id": "0d96d903cc49d85758a37ac6fe126ce5", "name": "0d96d903cc49d85758a37ac6fe126ce5", "type": "electric_scooter", "lon": -77.02168833333333, "rental_uris": {"android": "https://dc.lft.to/lastmile_qr_scan", "ios": "https://dc.lft.to/lastmile_qr_scan"}, "lat": 38.9198115, "is_reserved": 0, "is_disabled": 0, "fusion_lat": 0.0}, {"fusion_lon": 0.0, "bike_id": "5e3f191e4e632cc8f0f220f11f02f81f", "name": "5e3f191e4e632cc8f0f220f11f02f81f", "type": "electric_scooter", "lon": -77.02995566666667, "rental_uris": {"android": "https://dc.lft.to/lastmile_qr_scan", "ios": "https://dc.lft.to/lastmile_qr_scan"}, "lat": 38.902618833333335, "is_reserved": 0, "is_disabled": 0, "fusion_lat": 0.0}, {"fusion_lon": 0.0, "bike_id": "4b851cf7533863afe4f7628ce5299cc0", "name": "4b851cf7533863afe4f7628ce5299cc0", "type": "electric_scooter", "lon": -76.9833195, "rental_uris": {"android": "https://dc.lft.to/lastmile_qr_scan", "ios": "https://dc.lft.to/lastmile_qr_scan"}, "lat": 38.86246716666667, "is_reserved": 0, "is_disabled": 0, "fusion_lat": 0.0}, {"fusion_lon": 0.0, "bike_id": "ab051dceaefedd4d9c89fd4a0d13c3e4", "name": "ab051dceaefedd4d9c89fd4a0d13c3e4", "type": "electric_scooter", "lon": -77.02638866666666, "rental_uris": {"android": "https://dc.lft.to/lastmile_qr_scan", "ios": "https://dc.lft.to/lastmile_qr_scan"}, "lat": 38.930796666666666, "is_reserved": 0, "is_disabled": 0, "fusion_lat": 0.0}, {"fusion_lon": 0.0, "bike_id": "573950ce4117fe9f0eb8379651c83edb", "name": "573950ce4117fe9f0eb8379651c83edb", "type": "electric_scooter", "lon": -77.002931, "rental_uris": {"android": "https://dc.lft.to/lastmile_qr_scan", "ios": "https://dc.lft.to/lastmile_qr_scan"}, "lat": 38.905809166666664, "is_reserved": 0, "is_disabled": 0, "fusion_lat": 0.0}, {"fusion_lon": 0.0, "bike_id": "53cee76113c6e9eabe8c902472a16d1d", "name": "53cee76113c6e9eabe8c902472a16d1d", "type": "electric_bike", "lon": -77.0894015, "rental_uris": {"android": "https://dc.lft.to/lastmile_qr_scan", "ios": "https://dc.lft.to/lastmile_qr_scan"}, "lat": 38.841031666666666, "is_reserved": 0, "is_disabled": 0, "fusion_lat": 0.0}, {"fusion_lon": 0.0, "bike_id": "5eb4d60ffd8d526b3051665a706cae64", "name": "5eb4d60ffd8d526b3051665a706cae64", "type": "electric_scooter", "lon": -77.01990266666667, "rental_uris": {"android": "https://dc.lft.to/lastmile_qr_scan", "ios": "https://dc.lft.to/lastmile_qr_scan"}, "lat": 38.900424666666666, "is_reserved": 0, "is_disabled": 0, "fusion_lat": 0.0}, {"fusion_lon": 0.0, "bike_id": "9cfd88175e34d902a86e0b00c37c323b", "name": "9cfd88175e34d902a86e0b00c37c323b", "type": "electric_scooter", "lon": -77.03457816666666, "rental_uris": {"android": "https://dc.lft.to/lastmile_qr_scan", "ios": "https://dc.lft.to/lastmile_qr_scan"}, "lat": 38.917148166666664, "is_reserved": 0, "is_disabled": 0, "fusion_lat": 0.0}, {"fusion_lon": 0.0, "bike_id": "e73f803c59df395dc2c7cf10756ecf81", "name": "e73f803c59df395dc2c7cf10756ecf81", "type": "electric_scooter", "lon": -76.94287566666667, "rental_uris": {"android": "https://dc.lft.to/lastmile_qr_scan", "ios": "https://dc.lft.to/lastmile_qr_scan"}, "lat": 38.88298983333333, "is_reserved": 0, "is_disabled": 0, "fusion_lat": 0.0}, {"fusion_lon": 0.0, "bike_id": "6e7302204172f9ef8be02941c6e2a606", "name": "6e7302204172f9ef8be02941c6e2a606", "type": "electric_scooter", "lon": -77.02007783333333, "rental_uris": {"android": "https://dc.lft.to/lastmile_qr_scan", "ios": "https://dc.lft.to/lastmile_qr_scan"}, "lat": 38.9242165, "is_reserved": 0, "is_disabled": 0, "fusion_lat": 0.0}, {"fusion_lon": 0.0, "bike_id": "8ac5fcd9611c514ecfcfc5eb6383f462", "name": "8ac5fcd9611c514ecfcfc5eb6383f462", "type": "electric_scooter", "lon": -77.00967066666666, "rental_uris": {"android": "https://dc.lft.to/lastmile_qr_scan", "ios": "https://dc.lft.to/lastmile_qr_scan"}, "lat": 38.88123366666667, "is_reserved": 0, "is_disabled": 0, "fusion_lat": 0.0}, {"fusion_lon": 0.0, "bike_id": "b05ae5a4190a82e306d694f18ce57969", "name": "b05ae5a4190a82e306d694f18ce57969", "type": "electric_scooter", "lon": -77.04400266666667, "rental_uris": {"android": "https://dc.lft.to/lastmile_qr_scan", "ios": "https://dc.lft.to/lastmile_qr_scan"}, "lat": 38.91110783333333, "is_reserved": 0, "is_disabled": 0, "fusion_lat": 0.0}, {"fusion_lon": 0.0, "bike_id": "0a82c9eafddfcb05474c098f5d70d576", "name": "0a82c9eafddfcb05474c098f5d70d576", "type": "electric_scooter", "lon": -77.02782966666666, "rental_uris": {"android": "https://dc.lft.to/lastmile_qr_scan", "ios": "https://dc.lft.to/lastmile_qr_scan"}, "lat": 38.89218416666667, "is_reserved": 0, "is_disabled": 0, "fusion_lat": 0.0}, {"fusion_lon": 0.0, "bike_id": "f7a76269c536a422259392bf6bf9da16", "name": "f7a76269c536a422259392bf6bf9da16", "type": "electric_scooter", "lon": -77.04113233333334, "rental_uris": {"android": "https://dc.lft.to/lastmile_qr_scan", "ios": "https://dc.lft.to/lastmile_qr_scan"}, "lat": 38.90627816666667, "is_reserved": 0, "is_disabled": 0, "fusion_lat": 0.0}, {"fusion_lon": 0.0, "bike_id": "5808c9f3483e292cab507cb211fb96c3", "name": "5808c9f3483e292cab507cb211fb96c3", "type": "electric_scooter", "lon": -77.00348216666667, "rental_uris": {"android": "https://dc.lft.to/lastmile_qr_scan", "ios": "https://dc.lft.to/lastmile_qr_scan"}, "lat": 38.91346816666667, "is_reserved": 0, "is_disabled": 0, "fusion_lat": 0.0}, {"fusion_lon": 0.0, "bike_id": "87db32adf8589e1d52156fb83d59586d", "name": "87db32adf8589e1d52156fb83d59586d", "type": "electric_scooter", "lon": -77.06350266666666, "rental_uris": {"android": "https://dc.lft.to/lastmile_qr_scan", "ios": "https://dc.lft.to/lastmile_qr_scan"}, "lat": 38.944516166666666, "is_reserved": 0, "is_disabled": 0, "fusion_lat": 0.0}, {"fusion_lon": 0.0, "bike_id": "ab524951e524b19abfc73831f6ee7f30", "name": "ab524951e524b19abfc73831f6ee7f30", "type": "electric_scooter", "lon": -77.0326485, "rental_uris": {"android": "https://dc.lft.to/lastmile_qr_scan", "ios": "https://dc.lft.to/lastmile_qr_scan"}, "lat": 38.904117, "is_reserved": 0, "is_disabled": 0, "fusion_lat": 0.0}, {"fusion_lon": 0.0, "bike_id": "855f46c91b3a7608a025078786cac95b", "name": "855f46c91b3a7608a025078786cac95b", "type": "electric_scooter", "lon": -77.02546466666666, "rental_uris": {"android": "https://dc.lft.to/lastmile_qr_scan", "ios": "https://dc.lft.to/lastmile_qr_scan"}, "lat": 38.897360666666664, "is_reserved": 0, "is_disabled": 0, "fusion_lat": 0.0}, {"fusion_lon": 0.0, "bike_id": "dcdc7e5d832e58700674a8ecd57d27ed", "name": "dcdc7e5d832e58700674a8ecd57d27ed", "type": "electric_scooter", "lon": -77.06592633333334, "rental_uris": {"android": "https://dc.lft.to/lastmile_qr_scan", "ios": "https://dc.lft.to/lastmile_qr_scan"}, "lat": 38.903549, "is_reserved": 0, "is_disabled": 0, "fusion_lat": 0.0}, {"fusion_lon": 0.0, "bike_id": "c464f98d14cbaf4e17f56fdff068fc41", "name": "c464f98d14cbaf4e17f56fdff068fc41", "type": "electric_scooter", "lon": -77.04336916666666, "rental_uris": {"android": "https://dc.lft.to/lastmile_qr_scan", "ios": "https://dc.lft.to/lastmile_qr_scan"}, "lat": 38.910471333333334, "is_reserved": 0, "is_disabled": 0, "fusion_lat": 0.0}, {"fusion_lon": 0.0, "bike_id": "9025ab637a1490e23c6d831dbb6c7838", "name": "9025ab637a1490e23c6d831dbb6c7838", "type": "electric_scooter", "lon": -77.0396, "rental_uris": {"android": "https://dc.lft.to/lastmile_qr_scan", "ios": "https://dc.lft.to/lastmile_qr_scan"}, "lat": 38.90143316666666, "is_reserved": 0, "is_disabled": 0, "fusion_lat": 0.0}, {"fusion_lon": 0.0, "bike_id": "5529b2cb29899e3c3bfcdb9b61be9c16", "name": "5529b2cb29899e3c3bfcdb9b61be9c16", "type": "electric_bike", "lon": -77.09579316666667, "rental_uris": {"android": "https://dc.lft.to/lastmile_qr_scan", "ios": "https://dc.lft.to/lastmile_qr_scan"}, "lat": 38.837836, "is_reserved": 0, "is_disabled": 0, "fusion_lat": 0.0}, {"fusion_lon": 0.0, "bike_id": "3dabd4a3ef4b5652c5a98e85fa573bd8", "name": "3dabd4a3ef4b5652c5a98e85fa573bd8", "type": "electric_scooter", "lon": -77.02884, "rental_uris": {"android": "https://dc.lft.to/lastmile_qr_scan", "ios": "https://dc.lft.to/lastmile_qr_scan"}, "lat": 38.901173666666665, "is_reserved": 0, "is_disabled": 0, "fusion_lat": 0.0}, {"fusion_lon": 0.0, "bike_id": "6ed8a34c27959438ebb184626be01a59", "name": "6ed8a34c27959438ebb184626be01a59", "type": "electric_scooter", "lon": -76.95211966666666, "rental_uris": {"android": "https://dc.lft.to/lastmile_qr_scan", "ios": "https://dc.lft.to/lastmile_qr_scan"}, "lat": 38.89248416666667, "is_reserved": 0, "is_disabled": 0, "fusion_lat": 0.0}, {"fusion_lon": 0.0, "bike_id": "acc2f5508ca3196055b92fe949f4ee51", "name": "acc2f5508ca3196055b92fe949f4ee51", "type": "electric_bike", "lon": -77.10508283333333, "rental_uris": {"android": "https://dc.lft.to/lastmile_qr_scan", "ios": "https://dc.lft.to/lastmile_qr_scan"}, "lat": 38.92844066666667, "is_reserved": 0, "is_disabled": 0, "fusion_lat": 0.0}, {"fusion_lon": 0.0, "bike_id": "028a2ab5b36f8013aa4afb276979179c", "name": "028a2ab5b36f8013aa4afb276979179c", "type": "electric_scooter", "lon": -77.03326433333334, "rental_uris": {"android": "https://dc.lft.to/lastmile_qr_scan", "ios": "https://dc.lft.to/lastmile_qr_scan"}, "lat": 38.900215333333335, "is_reserved": 0, "is_disabled": 0, "fusion_lat": 0.0}, {"fusion_lon": 0.0, "bike_id": "51e63a6d308bf815771bf3c0d7d0b758", "name": "51e63a6d308bf815771bf3c0d7d0b758", "type": "electric_scooter", "lon": -77.01597416666667, "rental_uris": {"android": "https://dc.lft.to/lastmile_qr_scan", "ios": "https://dc.lft.to/lastmile_qr_scan"}, "lat": 38.87698566666667, "is_reserved": 0, "is_disabled": 0, "fusion_lat": 0.0}, {"fusion_lon": 0.0, "bike_id": "6d6e562a88f18108300afe15e8b33703", "name": "6d6e562a88f18108300afe15e8b33703", "type": "electric_scooter", "lon": -77.0075555, "rental_uris": {"android": "https://dc.lft.to/lastmile_qr_scan", "ios": "https://dc.lft.to/lastmile_qr_scan"}, "lat": 38.876968166666664, "is_reserved": 0, "is_disabled": 0, "fusion_lat": 0.0}, {"fusion_lon": 0.0, "bike_id": "059b75aa19f7a4c44e46e0645f828149", "name": "059b75aa19f7a4c44e46e0645f828149", "type": "electric_scooter", "lon": -77.042429, "rental_uris": {"android": "https://dc.lft.to/lastmile_qr_scan", "ios": "https://dc.lft.to/lastmile_qr_scan"}, "lat": 38.91774233333334, "is_reserved": 0, "is_disabled": 0, "fusion_lat": 0.0}, {"fusion_lon": 0.0, "bike_id": "1aa179cce486f185769fad56054a483e", "name": "1aa179cce486f185769fad56054a483e", "type": "electric_scooter", "lon": -77.02855633333333, "rental_uris": {"android": "https://dc.lft.to/lastmile_qr_scan", "ios": "https://dc.lft.to/lastmile_qr_scan"}, "lat": 38.932696666666665, "is_reserved": 0, "is_disabled": 0, "fusion_lat": 0.0}, {"fusion_lon": 0.0, "bike_id": "51281feecb583c5034eda5ad9446af85", "name": "51281feecb583c5034eda5ad9446af85", "type": "electric_scooter", "lon": -77.0324335, "rental_uris": {"android": "https://dc.lft.to/lastmile_qr_scan", "ios": "https://dc.lft.to/lastmile_qr_scan"}, "lat": 38.928835666666664, "is_reserved": 0, "is_disabled": 0, "fusion_lat": 0.0}, {"fusion_lon": 0.0, "bike_id": "a55e6a0daf577ab2baeeb90708e0c858", "name": "a55e6a0daf577ab2baeeb90708e0c858", "type": "electric_scooter", "lon": -77.0435265, "rental_uris": {"android": "https://dc.lft.to/lastmile_qr_scan", "ios": "https://dc.lft.to/lastmile_qr_scan"}, "lat": 38.8983615, "is_reserved": 0, "is_disabled": 0, "fusion_lat": 0.0}, {"fusion_lon": 0.0, "bike_id": "bc76c6d7d33e623ee3d34bb3f3cdaf99", "name": "bc76c6d7d33e623ee3d34bb3f3cdaf99", "type": "electric_scooter", "lon": -77.0408745, "rental_uris": {"android": "https://dc.lft.to/lastmile_qr_scan", "ios": "https://dc.lft.to/lastmile_qr_scan"}, "lat": 38.92399116666667, "is_reserved": 0, "is_disabled": 0, "fusion_lat": 0.0}, {"fusion_lon": 0.0, "bike_id": "a4c336dc1a079df2eaf476b09fff136a", "name": "a4c336dc1a079df2eaf476b09fff136a", "type": "electric_scooter", "lon": -76.948893, "rental_uris": {"android": "https://dc.lft.to/lastmile_qr_scan", "ios": "https://dc.lft.to/lastmile_qr_scan"}, "lat": 38.8950865, "is_reserved": 0, "is_disabled": 0, "fusion_lat": 0.0}, {"fusion_lon": 0.0, "bike_id": "6afb35b613ca10fceda404d61480cf11", "name": "6afb35b613ca10fceda404d61480cf11", "type": "electric_scooter", "lon": -77.03830633333334, "rental_uris": {"android": "https://dc.lft.to/lastmile_qr_scan", "ios": "https://dc.lft.to/lastmile_qr_scan"}, "lat": 38.90383883333333, "is_reserved": 0, "is_disabled": 0, "fusion_lat": 0.0}, {"fusion_lon": 0.0, "bike_id": "b101c1a539f9b7eaaeccfa1e8ae6ef65", "name": "b101c1a539f9b7eaaeccfa1e8ae6ef65", "type": "electric_scooter", "lon": -76.99230183333333, "rental_uris": {"android": "https://dc.lft.to/lastmile_qr_scan", "ios": "https://dc.lft.to/lastmile_qr_scan"}, "lat": 38.89880133333333, "is_reserved": 0, "is_disabled": 0, "fusion_lat": 0.0}, {"fusion_lon": 0.0, "bike_id": "bed22b19a7448bad717c2c8224d12be8", "name": "bed22b19a7448bad717c2c8224d12be8", "type": "electric_bike", "lon": -77.0958175, "rental_uris": {"android": "https://dc.lft.to/lastmile_qr_scan", "ios": "https://dc.lft.to/lastmile_qr_scan"}, "lat": 38.83781716666667, "is_reserved": 0, "is_disabled": 0, "fusion_lat": 0.0}, {"fusion_lon": 0.0, "bike_id": "fb10d46600343ac4a153b5d535e7b0cd", "name": "fb10d46600343ac4a153b5d535e7b0cd", "type": "electric_scooter", "lon": -77.07318416666666, "rental_uris": {"android": "https://dc.lft.to/lastmile_qr_scan", "ios": "https://dc.lft.to/lastmile_qr_scan"}, "lat": 38.91198883333333, "is_reserved": 0, "is_disabled": 0, "fusion_lat": 0.0}, {"fusion_lon": 0.0, "bike_id": "73fbbe8cda7d570bed4b4c6f409b6b0d", "name": "73fbbe8cda7d570bed4b4c6f409b6b0d", "type": "electric_scooter", "lon": -77.02592916666667, "rental_uris": {"android": "https://dc.lft.to/lastmile_qr_scan", "ios": "https://dc.lft.to/lastmile_qr_scan"}, "lat": 38.8950175, "is_reserved": 0, "is_disabled": 0, "fusion_lat": 0.0}, {"fusion_lon": 0.0, "bike_id": "1b07e709bcf7cf62ee015dfa57b85ab5", "name": "1b07e709bcf7cf62ee015dfa57b85ab5", "type": "electric_scooter", "lon": -77.04497116666667, "rental_uris": {"android": "https://dc.lft.to/lastmile_qr_scan", "ios": "https://dc.lft.to/lastmile_qr_scan"}, "lat": 38.91423566666667, "is_reserved": 0, "is_disabled": 0, "fusion_lat": 0.0}, {"fusion_lon": 0.0, "bike_id": "03fc67bc7244c5a83f2d459b03283d05", "name": "03fc67bc7244c5a83f2d459b03283d05", "type": "electric_scooter", "lon": -77.04652683333333, "rental_uris": {"android": "https://dc.lft.to/lastmile_qr_scan", "ios": "https://dc.lft.to/lastmile_qr_scan"}, "lat": 38.90419516666667, "is_reserved": 0, "is_disabled": 0, "fusion_lat": 0.0}, {"fusion_lon": 0.0, "bike_id": "3f215cd6e0b27a45d01cd0ad65a71827", "name": "3f215cd6e0b27a45d01cd0ad65a71827", "type": "electric_scooter", "lon": -77.0260025, "rental_uris": {"android": "https://dc.lft.to/lastmile_qr_scan", "ios": "https://dc.lft.to/lastmile_qr_scan"}, "lat": 38.89955666666667, "is_reserved": 0, "is_disabled": 0, "fusion_lat": 0.0}, {"fusion_lon": 0.0, "bike_id": "b44a55b3131951e756887646110325e3", "name": "b44a55b3131951e756887646110325e3", "type": "electric_scooter", "lon": -77.03843833333333, "rental_uris": {"android": "https://dc.lft.to/lastmile_qr_scan", "ios": "https://dc.lft.to/lastmile_qr_scan"}, "lat": 38.903342, "is_reserved": 0, "is_disabled": 0, "fusion_lat": 0.0},