{"data": {"bikes": [{"name": "fb753e33960119129ba92e68462d8d9c", "fusion_lat": 0.0, "type": "electric_scooter", "lat": 38.90152783333333, "is_reserved": 0, "is_disabled": 0, "fusion_lon": 0.0, "bike_id": "fb753e33960119129ba92e68462d8d9c", "lon": -77.01870583333333, "rental_uris": {"ios": "https://dc.lft.to/lastmile_qr_scan", "android": "https://dc.lft.to/lastmile_qr_scan"}}, {"name": "1544f71fe7ef3bf5bb58a81a75273b40", "fusion_lat": 0.0, "type": "electric_bike", "lat": 38.94625533333333, "is_reserved": 0, "is_disabled": 0, "fusion_lon": 0.0, "bike_id": "1544f71fe7ef3bf5bb58a81a75273b40", "lon": -77.08049416666667, "rental_uris": {"ios": "https://dc.lft.to/lastmile_qr_scan", "android": "https://dc.lft.to/lastmile_qr_scan"}}, {"name": "ee7af95ef2062c252b1d57a45e4046ec", "fusion_lat": 0.0, "type": "electric_bike", "lat": 38.9233035, "is_reserved": 0, "is_disabled": 0, "fusion_lon": 0.0, "bike_id": "ee7af95ef2062c252b1d57a45e4046ec", "lon": -77.02291, "rental_uris": {"ios": "https://dc.lft.to/lastmile_qr_scan", "android": "https://dc.lft.to/lastmile_qr_scan"}}, {"name": "5e42bbb7d592bb5650d1d3bf9927e8ed", "fusion_lat": 0.0, "type": "electric_scooter", "lat": 38.9037195, "is_reserved": 0, "is_disabled": 0, "fusion_lon": 0.0, "bike_id": "5e42bbb7d592bb5650d1d3bf9927e8ed", "lon": -77.048358, "rental_uris": {"ios": "https://dc.lft.to/lastmile_qr_scan", "android": "https://dc.lft.to/lastmile_qr_scan"}}, {"name": "aab580f8a0086f9dee2708e0632b3b63", "fusion_lat": 0.0, "type": "electric_scooter", "lat": 38.9176225, "is_reserved": 0, "is_disabled": 0, "fusion_lon": 0.0, "bike_id": "aab580f8a0086f9dee2708e0632b3b63", "lon": -77.0251245, "rental_uris": {"ios": "https://dc.lft.to/lastmile_qr_scan", "android": "https://dc.lft.to/lastmile_qr_scan"}}, {"name": "7f30772d2d906ea0f8018f92832493ba", "fusion_lat": 0.0, "type": "electric_scooter", "lat": 38.905539166666664, "is_reserved": 0, "is_disabled": 0, "fusion_lon": 0.0, "bike_id": "7f30772d2d906ea0f8018f92832493ba", "lon": -77.044764, "rental_uris": {"ios": "https://dc.lft.to/lastmile_qr_scan", "android": "https://dc.lft.to/lastmile_qr_scan"}}, {"name": "8de8c320d5e8bb6871a84929fa46e615", "fusion_lat": 0.0, "type": "electric_bike", "lat": 38.84484633333334, "is_reserved": 0, "is_disabled": 0, "fusion_lon": 0.0, "bike_id": "8de8c320d5e8bb6871a84929fa46e615", "lon": -76.97225033333333, "rental_uris": {"ios": "https://dc.lft.to/lastmile_qr_scan", "android": "https://dc.lft.to/lastmile_qr_scan"}}, {"name": "01727d9bcc85faea928cd0cc83a7e5cd", "fusion_lat": 0.0, "type": "electric_scooter", "lat": 38.93723166666667, "is_reserved": 0, "is_disabled": 0, "fusion_lon": 0.0, "bike_id": "01727d9bcc85faea928cd0cc83a7e5cd", "lon": -77.03639066666666, "rental_uris": {"ios": "https://dc.lft.to/lastmile_qr_scan", "android": "https://dc.lft.to/lastmile_qr_scan"}}, {"name": "c02d4660d4da142c9d8ff2ab00fb07c7", "fusion_lat": 0.0, "type": "electric_scooter", "lat": 38.917161166666666, "is_reserved": 0, "is_disabled": 0, "fusion_lon": 0.0, "bike_id": "c02d4660d4da142c9d8ff2ab00fb07c7", "lon": -77.018657, "rental_uris": {"ios": "https://dc.lft.to/lastmile_qr_scan", "android": "https://dc.lft.to/lastmile_qr_scan"}}, {"name": "b6af55a2e45cffa56845795e8ff46135", "fusion_lat": 0.0, "type": "electric_scooter", "lat": 38.91251833333333, "is_reserved": 0, "is_disabled": 0, "fusion_lon": 0.0, "bike_id": "b6af55a2e45cffa56845795e8ff46135", "lon": -77.03840666666666, "rental_uris": {"ios": "https://dc.lft.to/lastmile_qr_scan", "android": "https://dc.lft.to/lastmile_qr_scan"}}, {"name": "341e26d2c0f34e91222eb3662e0d7ae0", "fusion_lat": 0.0, "type": "electric_scooter", "lat": 38.9565025, "is_reserved": 0, "is_disabled": 0, "fusion_lon": 0.0, "bike_id": "341e26d2c0f34e91222eb3662e0d7ae0", "lon": -77.02271966666666, "rental_uris": {"ios": "https://dc.lft.to/lastmile_qr_scan", "android": "https://dc.lft.to/lastmile_qr_scan"}}, {"name": "461934de96b6b3c392979223d519b353", "fusion_lat": 0.0, "type": "electric_scooter", "lat": 38.901981, "is_reserved": 0, "is_disabled": 0, "fusion_lon": 0.0, "bike_id": "461934de96b6b3c392979223d519b353", "lon": -77.05047483333334, "rental_uris": {"ios": "https://dc.lft.to/lastmile_qr_scan", "android": "https://dc.lft.to/lastmile_qr_scan"}}, {"name": "45d815a07a687321dec6b5f60ce632d2", "fusion_lat": 0.0, "type": "electric_scooter", "lat": 38.918298666666665, "is_reserved": 0, "is_disabled": 0, "fusion_lon": 0.0, "bike_id": "45d815a07a687321dec6b5f60ce632d2", "lon": -77.04567733333333, "rental_uris": {"ios": "https://dc.lft.to/lastmile_qr_scan", "android": "https://dc.lft.to/lastmile_qr_scan"}}, {"name": "fe1d14126801ba4548b2206dcdb121c9", "fusion_lat": 0.0, "type": "electric_scooter", "lat": 38.96132716666666, "is_reserved": 0, "is_disabled": 0, "fusion_lon": 0.0, "bike_id": "fe1d14126801ba4548b2206dcdb121c9", "lon": -77.02816, "rental_uris": {"ios": "https://dc.lft.to/lastmile_qr_scan", "android": "https://dc.lft.to/lastmile_qr_scan"}}, {"name": "34bce68c868aa626abee2cd738960acd", "fusion_lat": 0.0, "type": "electric_scooter", "lat": 38.941234333333334, "is_reserved": 0, "is_disabled": 0, "fusion_lon": 0.0, "bike_id": "34bce68c868aa626abee2cd738960acd", "lon": -77.02054383333333, "rental_uris": {"ios": "https://dc.lft.to/lastmile_qr_scan", "android": "https://dc.lft.to/lastmile_qr_scan"}}, {"name": "db6d4fbfe0d5cb95d7b03f09ea6e7bea", "fusion_lat": 0.0, "type": "electric_scooter", "lat": 38.91037083333333, "is_reserved": 0, "is_disabled": 0, "fusion_lon": 0.0, "bike_id": "db6d4fbfe0d5cb95d7b03f09ea6e7bea", "lon": -77.04835033333333, "rental_uris": {"ios": "https://dc.lft.to/lastmile_qr_scan", "android": "https://dc.lft.to/lastmile_qr_scan"}}, {"name": "5422ea211dd9c336b5e1671e4a092044", "fusion_lat": 0.0, "type": "electric_scooter", "lat": 38.90262383333334, "is_reserved": 0, "is_disabled": 0, "fusion_lon": 0.0, "bike_id": "5422ea211dd9c336b5e1671e4a092044", "lon": -77.0461165, "rental_uris": {"ios": "https://dc.lft.to/lastmile_qr_scan", "android": "https://dc.lft.to/lastmile_qr_scan"}}, {"name": "463748d4d2963f9bdb28bc3d65415aa6", "fusion_lat": 0.0, "type": "electric_scooter", "lat": 38.8636145, "is_reserved": 0, "is_disabled": 0, "fusion_lon": 0.0, "bike_id": "463748d4d2963f9bdb28bc3d65415aa6", "lon": -76.99061216666666, "rental_uris": {"ios": "https://dc.lft.to/lastmile_qr_scan", "android": "https://dc.lft.to/lastmile_qr_scan"}}, {"name": "71ab66c8cb21a4b3ddc7e586ae02c98b", "fusion_lat": 0.0, "type": "electric_bike", "lat": 38.939726, "is_reserved": 0, "is_disabled": 0, "fusion_lon": 0.0, "bike_id": "71ab66c8cb21a4b3ddc7e586ae02c98b", "lon": -76.954897, "rental_uris": {"ios": "https://dc.lft.to/lastmile_qr_scan", "android": "https://dc.lft.to/lastmile_qr_scan"}}, {"name": "689d107f2ccfd9a7552ac91fede40d64", "fusion_lat": 0.0, "type": "electric_scooter", "lat": 38.92150683333333, "is_reserved": 0, "is_disabled": 0, "fusion_lon": 0.0, "bike_id": "689d107f2ccfd9a7552ac91fede40d64", "lon": -77.03508783333334, "rental_uris": {"ios": "https://dc.lft.to/lastmile_qr_scan", "android": "https://dc.lft.to/lastmile_qr_scan"}}, {"name": "d45ddbbdfedd352cd9dd0eae96c57a4f", "fusion_lat": 0.0, "type": "electric_bike", "lat": 39.000156833333335, "is_reserved": 0, "is_disabled": 0, "fusion_lon": 0.0, "bike_id": "d45ddbbdfedd352cd9dd0eae96c57a4f", "lon": -77.01745666666666, "rental_uris": {"ios": "https://dc.lft.to/lastmile_qr_scan", "android": "https://dc.lft.to/lastmile_qr_scan"}}, {"name": "49b63c020649855a8e6bba55b0b21aa2", "fusion_lat": 0.0, "type": "electric_scooter", "lat": 38.892339, "is_reserved": 0, "is_disabled": 0, "fusion_lon": 0.0, "bike_id": "49b63c020649855a8e6bba55b0b21aa2", "lon": -77.0150695, "rental_uris": {"ios": "https://dc.lft.to/lastmile_qr_scan", "android": "https://dc.lft.to/lastmile_qr_scan"}}, {"name": "9ef0c1ec212b0ca9899101cc1dc17699", "fusion_lat": 0.0, "type": "electric_scooter", "lat": 38.9176455, "is_reserved": 0, "is_disabled": 0, "fusion_lon": 0.0, "bike_id": "9ef0c1ec212b0ca9899101cc1dc17699", "lon": -77.02333866666666, "rental_uris": {"ios": "https://dc.lft.to/lastmile_qr_scan", "android": "https://dc.lft.to/lastmile_qr_scan"}}, {"name": "48016f6aacdefcb5c59100d526e89189", "fusion_lat": 0.0, "type": "electric_bike", "lat": 38.94917566666667, "is_reserved": 0, "is_disabled": 0, "fusion_lon": 0.0, "bike_id": "48016f6aacdefcb5c59100d526e89189", "lon": -77.00794533333334, "rental_uris": {"ios": "https://dc.lft.to/lastmile_qr_scan", "android": "https://dc.lft.to/lastmile_qr_scan"}}, {"name": "a6fb11f61bd3c8bfb32c16ab9187bd6a", "fusion_lat": 0.0, "type": "electric_scooter", "lat": 38.930655333333334, "is_reserved": 0, "is_disabled": 0, "fusion_lon": 0.0, "bike_id": "a6fb11f61bd3c8bfb32c16ab9187bd6a", "lon": -77.02980133333334, "rental_uris": {"ios": "https://dc.lft.to/lastmile_qr_scan", "android": "https://dc.lft.to/lastmile_qr_scan"}}, {"name": "5ca706f8b639313bbed55c0f9835c941", "fusion_lat": 0.0, "type": "electric_scooter", "lat": 38.93959433333333, "is_reserved": 0, "is_disabled": 0, "fusion_lon": 0.0, "bike_id": "5ca706f8b639313bbed55c0f9835c941", "lon": -77.02751466666666, "rental_uris": {"ios": "https://dc.lft.to/lastmile_qr_scan", "android": "https://dc.lft.to/lastmile_qr_scan"}}, {"name": "09162c845e78bbd8e137eb8813370317", "fusion_lat": 0.0, "type": "electric_scooter", "lat": 38.92752383333333, "is_reserved": 0, "is_disabled": 0, "fusion_lon": 0.0, "bike_id": "09162c845e78bbd8e137eb8813370317", "lon": -77.02304016666666, "rental_uris": {"ios": "https://dc.lft.to/lastmile_qr_scan", "android": "https://dc.lft.to/lastmile_qr_scan"}}, {"name": "310731d00197540788a90eaa84cb459c", "fusion_lat": 0.0, "type": "electric_scooter", "lat": 38.88503133333333, "is_reserved": 0, "is_disabled": 0, "fusion_lon": 0.0, "bike_id": "310731d00197540788a90eaa84cb459c", "lon": -77.02219833333334, "rental_uris": {"ios": "https://dc.lft.to/lastmile_qr_scan", "android": "https://dc.lft.to/lastmile_qr_scan"}}, {"name": "cf17a36f1f7460655c46e1ec3260580d", "fusion_lat": 0.0, "type": "electric_scooter", "lat": 38.924275333333334, "is_reserved": 0, "is_disabled": 0, "fusion_lon": 0.0, "bike_id": "cf17a36f1f7460655c46e1ec3260580d", "lon": -77.044826, "rental_uris": {"ios": "https://dc.lft.to/lastmile_qr_scan", "android": "https://dc.lft.to/lastmile_qr_scan"}}, {"name": "b102639b1c03ca80d31d0e847713706c", "fusion_lat": 0.0, "type": "electric_scooter", "lat": 38.91630716666667, "is_reserved": 0, "is_disabled": 0, "fusion_lon": 0.0, "bike_id": "b102639b1c03ca80d31d0e847713706c", "lon": -77.0010085, "rental_uris": {"ios": "https://dc.lft.to/lastmile_qr_scan", "android": "https://dc.lft.to/lastmile_qr_scan"}}, {"name": "8742bd5a044a3f74cd30d9b484f02e58", "fusion_lat": 0.0, "type": "electric_bike", "lat": 38.856867333333334, "is_reserved": 0, "is_disabled": 0, "fusion_lon": 0.0, "bike_id": "8742bd5a044a3f74cd30d9b484f02e58", "lon": -77.08541316666667, "rental_uris": {"ios": "https://dc.lft.to/lastmile_qr_scan", "android": "https://dc.lft.to/lastmile_qr_scan"}}, {"name": "aaca798c981407da2c7970e7015b48cb", "fusion_lat": 0.0, "type": "electric_scooter", "lat": 38.926805333333334, "is_reserved": 0, "is_disabled": 0, "fusion_lon": 0.0, "bike_id": "aaca798c981407da2c7970e7015b48cb", "lon": -77.0146225, "rental_uris": {"ios": "https://dc.lft.to/lastmile_qr_scan", "android": "https://dc.lft.to/lastmile_qr_scan"}}, {"name": "27a64c0d442f1262e1274801ea1fdf7f", "fusion_lat": 0.0, "type": "electric_bike", "lat": 38.96537266666667, "is_reserved": 0, "is_disabled": 0, "fusion_lon": 0.0, "bike_id": "27a64c0d442f1262e1274801ea1fdf7f", "lon": -77.035234, "rental_uris": {"ios": "https://dc.lft.to/lastmile_qr_scan", "android": "https://dc.lft.to/lastmile_qr_scan"}}, {"name": "4e32d77ad46e2e27514b3cc902ab92d0", "fusion_lat": 0.0, "type": "electric_scooter", "lat": 38.9103925, "is_reserved": 0, "is_disabled": 0, "fusion_lon": 0.0, "bike_id": "4e32d77ad46e2e27514b3cc902ab92d0", "lon": -77.028108, "rental_uris": {"ios": "https://dc.lft.to/lastmile_qr_scan", "android": "https://dc.lft.to/lastmile_qr_scan"}}, {"name": "5645291a47e988894c4ca7a8bd35ffcb", "fusion_lat": 0.0, "type": "electric_scooter", "lat": 38.9070475, "is_reserved": 0, "is_disabled": 0, "fusion_lon": 0.0, "bike_id": "5645291a47e988894c4ca7a8bd35ffcb", "lon": -76.9870225, "rental_uris": {"ios": "https://dc.lft.to/lastmile_qr_scan", "android": "https://dc.lft.to/lastmile_qr_scan"}}, {"name": "f5e839d106eba769471cef2f46356bc0", "fusion_lat": 0.0, "type": "electric_scooter", "lat": 38.91564, "is_reserved": 0, "is_disabled": 0, "fusion_lon": 0.0, "bike_id": "f5e839d106eba769471cef2f46356bc0", "lon": -77.04284516666667, "rental_uris": {"ios": "https://dc.lft.to/lastmile_qr_scan", "android": "https://dc.lft.to/lastmile_qr_scan"}}, {"name": "85bb36bd4e291b0154b3fde240e38c9f", "fusion_lat": 0.0, "type": "electric_scooter", "lat": 38.88505283333333, "is_reserved": 0, "is_disabled": 0, "fusion_lon": 0.0, "bike_id": "85bb36bd4e291b0154b3fde240e38c9f", "lon": -77.00568666666666, "rental_uris": {"ios": "https://dc.lft.to/lastmile_qr_scan", "android": "https://dc.lft.to/lastmile_qr_scan"}}, {"name": "aa272bd159281428944fb23046d3e5bf", "fusion_lat": 0.0, "type": "electric_scooter", "lat": 38.894523666666664, "is_reserved": 0, "is_disabled": 0, "fusion_lon": 0.0, "bike_id": "aa272bd159281428944fb23046d3e5bf", "lon": -77.01109816666667, "rental_uris": {"ios": "https://dc.lft.to/lastmile_qr_scan", "android": "https://dc.lft.to/lastmile_qr_scan"}}, {"name": "4da376d24da2fb2a3b865b1efe42d2fa", "fusion_lat": 0.0, "type": "electric_scooter", "lat": 38.903209833333335, "is_reserved": 0, "is_disabled": 0, "fusion_lon": 0.0, "bike_id": "4da376d24da2fb2a3b865b1efe42d2fa", "lon": -77.0534555, "rental_uris": {"ios": "https://dc.lft.to/lastmile_qr_scan", "android": "https://dc.lft.to/lastmile_qr_scan"}}, {"name": "3253b7d21d3d2992937d8eb9c10c1ce1", "fusion_lat": 0.0, "type": "electric_scooter", "lat": 38.894874, "is_reserved": 0, "is_disabled": 0, "fusion_lon": 0.0, "bike_id": "3253b7d21d3d2992937d8eb9c10c1ce1", "lon": -77.01014283333333, "rental_uris": {"ios": "https://dc.lft.to/lastmile_qr_scan", "android": "https://dc.lft.to/lastmile_qr_scan"}}, {"name": "bb633be3fd83a7f7dc56ad601cd31a5d", "fusion_lat": 0.0, "type": "electric_scooter", "lat": 38.90269283333333, "is_reserved": 0, "is_disabled": 0, "fusion_lon": 0.0, "bike_id": "bb633be3fd83a7f7dc56ad601cd31a5d", "lon": -77.04076283333333, "rental_uris": {"ios": "https://dc.lft.to/lastmile_qr_scan", "android": "https://dc.lft.to/lastmile_qr_scan"}}, {"name": "82e122f816163182bec9c80deed44731", "fusion_lat": 0.0, "type": "electric_bike", "lat": 38.8193615, "is_reserved": 0, "is_disabled": 0, "fusion_lon": 0.0, "bike_id": "82e122f816163182bec9c80deed44731", "lon": -77.00208216666667, "rental_uris": {"ios": "https://dc.lft.to/lastmile_qr_scan", "android": "https://dc.lft.to/lastmile_qr_scan"}}, {"name": "220afd2411c25f048d3783f250f0580c", "fusion_lat": 0.0, "type": "electric_scooter", "lat": 38.902664, "is_reserved": 0, "is_disabled": 0, "fusion_lon": 0.0, "bike_id": "220afd2411c25f048d3783f250f0580c", "lon": -77.04625583333333, "rental_uris": {"ios": "https://dc.lft.to/lastmile_qr_scan", "android": "https://dc.lft.to/lastmile_qr_scan"}}, {"name": "a51e781db512b44a345a7b2e3ca3107e", "fusion_lat": 0.0, "type": "electric_bike", "lat": 38.852283166666666, "is_reserved": 0, "is_disabled": 0, "fusion_lon": 0.0, "bike_id": "a51e781db512b44a345a7b2e3ca3107e", "lon": -77.10338016666667, "rental_uris": {"ios": "https://dc.lft.to/lastmile_qr_scan", "android": "https://dc.lft.to/lastmile_qr_scan"}}, {"name": "5235330b5bcd75518d8bb1cdcfe1ec9a", "fusion_lat": 0.0, "type": "electric_scooter", "lat": 38.907128166666666, "is_reserved": 0, "is_disabled": 0, "fusion_lon": 0.0, "bike_id": "5235330b5bcd75518d8bb1cdcfe1ec9a", "lon": -77.03443883333334, "rental_uris": {"ios": "https://dc.lft.to/lastmile_qr_scan", "android": "https://dc.lft.to/lastmile_qr_scan"}}, {"name": "22b8eb513601d68afae80df3614cb7ef", "fusion_lat": 0.0, "type": "electric_scooter", "lat": 38.906226333333336, "is_reserved": 0, "is_disabled": 0, "fusion_lon": 0.0, "bike_id": "22b8eb513601d68afae80df3614cb7ef", "lon": -77.03642766666667, "rental_uris": {"ios": "https://dc.lft.to/lastmile_qr_scan", "android": "https://dc.lft.to/lastmile_qr_scan"}}, {"name": "6d16dd4df9426f3492944c75c89f2e1e", "fusion_lat": 0.0, "type": "electric_bike", "lat": 38.8804755, "is_reserved": 0, "is_disabled": 0, "fusion_lon": 0.0, "bike_id": "6d16dd4df9426f3492944c75c89f2e1e", "lon": -77.0132625, "rental_uris": {"ios": "https://dc.lft.to/lastmile_qr_scan", "android": "https://dc.lft.to/lastmile_qr_scan"}}, {"name": "d03bfaf0480e646e229f63f02bb94e3e", "fusion_lat": 0.0, "type": "electric_scooter", "lat": 38.88039533333333, "is_reserved": 0, "is_disabled": 0, "fusion_lon": 0.0, "bike_id": "d03bfaf0480e646e229f63f02bb94e3e", "lon": -76.92727483333333, "rental_uris": {"ios": "https://dc.lft.to/lastmile_qr_scan", "android": "https://dc.lft.to/lastmile_qr_scan"}}, {"name": "d3d7d042dcf742c517570d3ae7de7fa2", "fusion_lat": 0.0, "type": "electric_bike", "lat": 38.988185333333334, "is_reserved": 0, "is_disabled": 0, "fusion_lon": 0.0, "bike_id": "d3d7d042dcf742c517570d3ae7de7fa2", "lon": -77.026617, "rental_uris": {"ios": "https://dc.lft.to/lastmile_qr_scan", "android": "https://dc.lft.to/lastmile_qr_scan"}}, {"name": "5405898a339634b2154729646e63b9a2", "fusion_lat": 0.0, "type": "electric_scooter", "lat": 38.90408866666667, "is_reserved": 0, "is_disabled": 0, "fusion_lon": 0.0, "bike_id": "5405898a339634b2154729646e63b9a2", "lon": -77.00136133333334, "rental_uris": {"ios": "https://dc.lft.to/lastmile_qr_scan", "android": "https://dc.lft.to/lastmile_qr_scan"}}, {"name": "2c1435352cc7255430dddece240f3b1c", "fusion_lat": 0.0, "type": "electric_scooter", "lat": 38.933989333333336, "is_reserved": 0, "is_disabled": 0, "fusion_lon": 0.0, "bike_id": "2c1435352cc7255430dddece240f3b1c", "lon": -77.0273375, "rental_uris": {"ios": "https://dc.lft.to/lastmile_qr_scan", "android": "https://dc.lft.to/lastmile_qr_scan"}}, {"name": "e93cda24e74077c2e5a1eca7bc384ac9", "fusion_lat": 0.0, "type": "electric_scooter", "lat": 38.9113305, "is_reserved": 0, "is_disabled": 0, "fusion_lon": 0.0, "bike_id": "e93cda24e74077c2e5a1eca7bc384ac9", "lon": -77.04191333333333, "rental_uris": {"ios": "https://dc.lft.to/lastmile_qr_scan", "android": "https://dc.lft.to/lastmile_qr_scan"}}, {"name": "71de428aa0f6b240bd9debd969c1de42", "fusion_lat": 0.0, "type": "electric_bike", "lat": 38.8838985, "is_reserved": 0, "is_disabled": 0, "fusion_lon": 0.0, "bike_id": "71de428aa0f6b240bd9debd969c1de42", "lon": -76.98571316666667, "rental_uris": {"ios": "https://dc.lft.to/lastmile_qr_scan", "android": "https://dc.lft.to/lastmile_qr_scan"}}, {"name": "e65d5d61e55e03dd001bf0326981a359", "fusion_lat": 0.0, "type": "electric_bike", "lat": 38.839792, "is_reserved": 0, "is_disabled": 0, "fusion_lon": 0.0, "bike_id": "e65d5d61e55e03dd001bf0326981a359", "lon": -77.00569216666666, "rental_uris": {"ios": "https://dc.lft.to/lastmile_qr_scan", "android": "https://dc.lft.to/lastmile_qr_scan"}}, {"name": "db670bbd31d5d611efb42c9b0df6be05", "fusion_lat": 0.0, "type": "electric_scooter", "lat": 38.929819333333334, "is_reserved": 0, "is_disabled": 0, "fusion_lon": 0.0, "bike_id": "db670bbd31d5d611efb42c9b0df6be05", "lon": -77.0145215, "rental_uris": {"ios": "https://dc.lft.to/lastmile_qr_scan", "android": "https://dc.lft.to/lastmile_qr_scan"}}, {"name": "871ae8478daa252cc4630c5b0b110dc7", "fusion_lat": 0.0, "type": "electric_scooter", "lat": 38.912509166666666, "is_reserved": 0, "is_disabled": 0, "fusion_lon": 0.0, "bike_id": "871ae8478daa252cc4630c5b0b110dc7", "lon": -77.03871166666667, "rental_uris": {"ios": "https://dc.lft.to/lastmile_qr_scan", "android": "https://dc.lft.to/lastmile_qr_scan"}}, {"name": "df83b783f3d8f9189ae9e82d1b495287", "fusion_lat": 0.0, "type": "electric_scooter", "lat": 38.86249216666667, "is_reserved": 0, "is_disabled": 0, "fusion_lon": 0.0, "bike_id": "df83b783f3d8f9189ae9e82d1b495287", "lon": -76.9953475, "rental_uris": {"ios": "https://dc.lft.to/lastmile_qr_scan", "android": "https://dc.lft.to/lastmile_qr_scan"}}, {"name": "5c7460e350f8b46ce84f94bcc0b6dcc5", "fusion_lat": 0.0, "type": "electric_scooter", "lat": 38.899235833333336, "is_reserved": 0, "is_disabled": 0, "fusion_lon": 0.0, "bike_id": "5c7460e350f8b46ce84f94bcc0b6dcc5", "lon": -77.05307066666667, "rental_uris": {"ios": "https://dc.lft.to/lastmile_qr_scan", "android": "https://dc.lft.to/lastmile_qr_scan"}}, {"name": "c1bb6c25bf48e4092d71f303d64aebd9", "fusion_lat": 0.0, "type": "electric_scooter", "lat": 38.8850635, "is_reserved": 0, "is_disabled": 0, "fusion_lon": 0.0, "bike_id": "c1bb6c25bf48e4092d71f303d64aebd9", "lon": -77.00569416666667, "rental_uris": {"ios": "https://dc.lft.to/lastmile_qr_scan", "android": "https://dc.lft.to/lastmile_qr_scan"}}, {"name": "c4befcf3b891b333f3670c358a9aa50d", "fusion_lat": 0.0, "type": "electric_scooter", "lat": 38.88973383333333, "is_reserved": 0, "is_disabled": 0, "fusion_lon": 0.0, "bike_id": "c4befcf3b891b333f3670c358a9aa50d", "lon": -76.99192366666666, "rental_uris": {"ios": "https://dc.lft.to/lastmile_qr_scan", "android": "https://dc.lft.to/lastmile_qr_scan"}}, {"name": "04d3b107e38d15454147d66dab7f845f", "fusion_lat": 0.0, "type": "electric_scooter", "lat": 38.912513833333335, "is_reserved": 0, "is_disabled": 0, "fusion_lon": 0.0, "bike_id": "04d3b107e38d15454147d66dab7f845f", "lon": -77.038447, "rental_uris": {"ios": "https://dc.lft.to/lastmile_qr_scan", "android": "https://dc.lft.to/lastmile_qr_scan"}}, {"name": "0232dce1ca2b87faf10c6646355db844", "fusion_lat": 0.0, "type": "electric_scooter", "lat": 38.862445666666666, "is_reserved": 0, "is_disabled": 0, "fusion_lon": 0.0, "bike_id": "0232dce1ca2b87faf10c6646355db844", "lon": -76.994992, "rental_uris": {"ios": "https://dc.lft.to/lastmile_qr_scan", "android": "https://dc.lft.to/lastmile_qr_scan"}}, {"name": "75b05f4ee9b5b48b7bdc500132ff55f7", "fusion_lat": 0.0, "type": "electric_bike", "lat": 38.8875455, "is_reserved": 0, "is_disabled": 0, "fusion_lon": 0.0, "bike_id": "75b05f4ee9b5b48b7bdc500132ff55f7", "lon": -76.900827, "rental_uris": {"ios": "https://dc.lft.to/lastmile_qr_scan", "android": "https://dc.lft.to/lastmile_qr_scan"}}, {"name": "88d8ab3a454a104efe26ac43f12af258", "fusion_lat": 0.0, "type": "electric_scooter", "lat": 38.9058885, "is_reserved": 0, "is_disabled": 0, "fusion_lon": 0.0, "bike_id": "88d8ab3a454a104efe26ac43f12af258", "lon": -77.04677633333333, "rental_uris": {"ios": "https://dc.lft.to/lastmile_qr_scan", "android": "https://dc.lft.to/lastmile_qr_scan"}}, {"name": "2658f3030347cf46a57ba6b10f2ce4a6", "fusion_lat": 0.0, "type": "electric_scooter", "lat": 38.90374116666667, "is_reserved": 0, "is_disabled": 0, "fusion_lon": 0.0, "bike_id": "2658f3030347cf46a57ba6b10f2ce4a6", "lon": -77.04123966666667, "rental_uris": {"ios": "https://dc.lft.to/lastmile_qr_scan", "android": "https://dc.lft.to/lastmile_qr_scan"}}, {"name": "148f9f401068c66fd0a8f642828b3a7f", "fusion_lat": 0.0, "type": "electric_scooter", "lat": 38.943149166666664, "is_reserved": 0, "is_disabled": 0, "fusion_lon": 0.0, "bike_id": "148f9f401068c66fd0a8f642828b3a7f", "lon": -77.02480916666667, "rental_uris": {"ios": "https://dc.lft.to/lastmile_qr_scan", "android": "https://dc.lft.to/lastmile_qr_scan"}}, {"name": "8265f10011a3ef2661ea5674669fed31", "fusion_lat": 0.0, "type": "electric_scooter", "lat": 38.92456883333333, "is_reserved": 0, "is_disabled": 0, "fusion_lon": 0.0, "bike_id": "8265f10011a3ef2661ea5674669fed31", "lon": -77.03968983333333, "rental_uris": {"ios": "https://dc.lft.to/lastmile_qr_scan", "android": "https://dc.lft.to/lastmile_qr_scan"}}, {"name": "22cf6de200ddf603f8670526b11e62e5", "fusion_lat": 0.0, "type": "electric_bike", "lat": 38.999906833333334, "is_reserved": 0, "is_disabled": 0, "fusion_lon": 0.0, "bike_id": "22cf6de200ddf603f8670526b11e62e5", "lon": -77.08008483333333, "rental_uris": {"ios": "https://dc.lft.to/lastmile_qr_scan", "android": "https://dc.lft.to/lastmile_qr_scan"}}, {"name": "d1d023e3038eda0dda7f087c2c8a2ebb", "fusion_lat": 0.0, "type": "electric_scooter", "lat": 38.886033833333336, "is_reserved": 0, "is_disabled": 0, "fusion_lon": 0.0, "bike_id": "d1d023e3038eda0dda7f087c2c8a2ebb", "lon": -77.02205783333333, "rental_uris": {"ios": "https://dc.lft.to/lastmile_qr_scan", "android": "https://dc.lft.to/lastmile_qr_scan"}}, {"name": "78f159c43a1ba42ed88f6be03863da22", "fusion_lat": 0.0, "type": "electric_scooter", "lat": 38.917136, "is_reserved": 0, "is_disabled": 0, "fusion_lon": 0.0, "bike_id": "78f159c43a1ba42ed88f6be03863da22", "lon": -77.03080566666667, "rental_uris": {"ios": "https://dc.lft.to/lastmile_qr_scan", "android": "https://dc.lft.to/lastmile_qr_scan"}}, {"name": "2d7e33672feee4e2d9647dfe5450e315", "fusion_lat": 0.0, "type": "electric_scooter", "lat": 38.8665735, "is_reserved": 0, "is_disabled": 0, "fusion_lon": 0.0, "bike_id": "2d7e33672feee4e2d9647dfe5450e315", "lon": -76.98887733333333, "rental_uris": {"ios": "https://dc.lft.to/lastmile_qr_scan", "android": "https://dc.lft.to/lastmile_qr_scan"}}, {"name": "c936dc164b7dbf9cae1384974d4247b4", "fusion_lat": 0.0, "type": "electric_scooter", "lat": 38.90038783333333, "is_reserved": 0, "is_disabled": 0, "fusion_lon": 0.0, "bike_id": "c936dc164b7dbf9cae1384974d4247b4", "lon": -77.005409, "rental_uris": {"ios": "https://dc.lft.to/lastmile_qr_scan", "android": "https://dc.lft.to/lastmile_qr_scan"}}, {"name": "ded6b954c62b390938962c7e44a84b28", "fusion_lat": 0.0, "type": "electric_scooter", "lat": 38.884909666666665, "is_reserved": 0, "is_disabled": 0, "fusion_lon": 0.0, "bike_id": "ded6b954c62b390938962c7e44a84b28", "lon": -77.00709316666666, "rental_uris": {"ios": "https://dc.lft.to/lastmile_qr_scan", "android": "https://dc.lft.to/lastmile_qr_scan"}}, {"name": "e8fe6fb3e0fe81d0dfdee3eef7381e5a", "fusion_lat": 0.0, "type": "electric_scooter", "lat": 38.899514333333336, "is_reserved": 0, "is_disabled": 0, "fusion_lon": 0.0, "bike_id": "e8fe6fb3e0fe81d0dfdee3eef7381e5a", "lon": -77.0092185, "rental_uris": {"ios": "https://dc.lft.to/lastmile_qr_scan", "android": "https://dc.lft.to/lastmile_qr_scan"}}, {"name": "610e2d5860303f2b4a0be7e452fb2b96", "fusion_lat": 0.0, "type": "electric_scooter", "lat": 38.887464333333334, "is_reserved": 0, "is_disabled": 0, "fusion_lon": 0.0, "bike_id": "610e2d5860303f2b4a0be7e452fb2b96", "lon": -77.02572716666667, "rental_uris": {"ios": "https://dc.lft.to/lastmile_qr_scan", "android": "https://dc.lft.to/lastmile_qr_scan"}}, {"name": "68ee4ac3e2ffabeed9164d5bb56cefcf", "fusion_lat": 0.0, "type": "electric_scooter", "lat": 38.92433966666667, "is_reserved": 0, "is_disabled": 0, "fusion_lon": 0.0, "bike_id": "68ee4ac3e2ffabeed9164d5bb56cefcf", "lon": -77.04254633333333, "rental_uris": {"ios": "https://dc.lft.to/lastmile_qr_scan", "android": "https://dc.lft.to/lastmile_qr_scan"}}, {"name": "fb07026f1cfe78cded4511c3e35de8a9", "fusion_lat": 0.0, "type": "electric_scooter", "lat": 38.9243725, "is_reserved": 0, "is_disabled": 0, "fusion_lon": 0.0, "bike_id": "fb07026f1cfe78cded4511c3e35de8a9", "lon": -77.04219583333334, "rental_uris": {"ios": "https://dc.lft.to/lastmile_qr_scan", "android": "https://dc.lft.to/lastmile_qr_scan"}}, {"name": "31263c59d8364c6fbaccde9ebea4d6a3", "fusion_lat": 0.0, "type": "electric_scooter", "lat": 38.881328, "is_reserved": 0, "is_disabled": 0, "fusion_lon": 0.0, "bike_id": "31263c59d8364c6fbaccde9ebea4d6a3", "lon": -77.01672933333333, "rental_uris": {"ios": "https://dc.lft.to/lastmile_qr_scan", "android": "https://dc.lft.to/lastmile_qr_scan"}}, {"name": "0ca5db6a3943f9f503ec5d11f431b7ef", "fusion_lat": 0.0, "type": "electric_bike", "lat": 39.02418333333333, "is_reserved": 0, "is_disabled": 0, "fusion_lon": 0.0, "bike_id": "0ca5db6a3943f9f503ec5d11f431b7ef", "lon": -77.12506, "rental_uris": {"ios": "https://dc.lft.to/lastmile_qr_scan", "android": "https://dc.lft.to/lastmile_qr_scan"}}, {"name": "b4dc76ca90ef25759207067c83485550", "fusion_lat": 0.0, "type": "electric_scooter", "lat": 38.892263, "is_reserved": 0, "is_disabled": 0, "fusion_lon": 0.0, "bike_id": "b4dc76ca90ef25759207067c83485550", "lon": -77.0398245, "rental_uris": {"ios": "https://dc.lft.to/lastmile_qr_scan", "android": "https://dc.lft.to/lastmile_qr_scan"}}, {"name": "3251de5a467623bab1f4858c4790e0d4", "fusion_lat": 0.0, "type": "electric_scooter", "lat": 38.89596616666667, "is_reserved": 0, "is_disabled": 0, "fusion_lon": 0.0, "bike_id": "3251de5a467623bab1f4858c4790e0d4", "lon": -77.04129466666667, "rental_uris": {"ios": "https://dc.lft.to/lastmile_qr_scan", "android": "https://dc.lft.to/lastmile_qr_scan"}}, {"name": "dcc404f7062b5f539588a6f96bb93c85", "fusion_lat": 0.0, "type": "electric_bike", "lat": 38.881041, "is_reserved": 0, "is_disabled": 0, "fusion_lon": 0.0, "bike_id": "dcc404f7062b5f539588a6f96bb93c85", "lon": -77.111884, "rental_uris": {"ios": "https://dc.lft.to/lastmile_qr_scan", "android": "https://dc.lft.to/lastmile_qr_scan"}}, {"name": "ab178769250e237138cb4c7610fd1f20", "fusion_lat": 0.0, "type": "electric_scooter", "lat": 38.896139, "is_reserved": 0, "is_disabled": 0, "fusion_lon": 0.0, "bike_id": "ab178769250e237138cb4c7610fd1f20", "lon": -77.0476675, "rental_uris": {"ios": "https://dc.lft.to/lastmile_qr_scan", "android": "https://dc.lft.to/lastmile_qr_scan"}}, {"name": "70abdddaf67a87cd6df096be7cc9bbe3", "fusion_lat": 0.0, "type": "electric_scooter", "lat": 38.90280116666667, "is_reserved": 0, "is_disabled": 0, "fusion_lon": 0.0, "bike_id": "70abdddaf67a87cd6df096be7cc9bbe3", "lon": -77.01762433333333, "rental_uris": {"ios": "https://dc.lft.to/lastmile_qr_scan", "android": "https://dc.lft.to/lastmile_qr_scan"}}, {"name": "d2072d7cd558ec08b5ba53236896619b", "fusion_lat": 0.0, "type": "electric_scooter", "lat": 38.89565833333333, "is_reserved": 0, "is_disabled": 0, "fusion_lon": 0.0, "bike_id": "d2072d7cd558ec08b5ba53236896619b", "lon": -77.01360316666667, "rental_uris": {"ios": "https://dc.lft.to/lastmile_qr_scan", "android": "https://dc.lft.to/lastmile_qr_scan"}}, {"name": "50fbe2755bdba393f8c5b3d4bb9c6311", "fusion_lat": 0.0, "type": "electric_scooter", "lat": 38.91807433333334, "is_reserved": 0, "is_disabled": 0, "fusion_lon": 0.0, "bike_id": "50fbe2755bdba393f8c5b3d4bb9c6311", "lon": -77.02499316666666, "rental_uris": {"ios": "https://dc.lft.to/lastmile_qr_scan", "android": "https://dc.lft.to/lastmile_qr_scan"}}, {"name": "0507462135526494631394c8d39a3803", "fusion_lat": 0.0, "type": "electric_scooter", "lat": 38.896208666666666, "is_reserved": 0, "is_disabled": 0, "fusion_lon": 0.0, "bike_id": "0507462135526494631394c8d39a3803", "lon": -77.02176683333333, "rental_uris": {"ios": "https://dc.lft.to/lastmile_qr_scan", "android": "https://dc.lft.to/lastmile_qr_scan"}}, {"name": "3d0f2c7d939e2839bb63a64659e16af7", "fusion_lat": 0.0, "type": "electric_scooter", "lat": 38.915586833333336, "is_reserved": 0, "is_disabled": 0, "fusion_lon": 0.0, "bike_id": "3d0f2c7d939e2839bb63a64659e16af7", "lon": -77.0389645, "rental_uris": {"ios": "https://dc.lft.to/lastmile_qr_scan", "android": "https://dc.lft.to/lastmile_qr_scan"}}, {"name": "534325394f81bdafa5a7e8798c3a7ec1", "fusion_lat": 0.0, "type": "electric_scooter", "lat": 38.90357383333333, "is_reserved": 0, "is_disabled": 0, "fusion_lon": 0.0, "bike_id": "534325394f81bdafa5a7e8798c3a7ec1", "lon": -77.05343116666667, "rental_uris": {"ios": "https://dc.lft.to/lastmile_qr_scan", "android": "https://dc.lft.to/lastmile_qr_scan"}}, {"name": "9e0b958317b7150e7f46bbbef4f40fd4", "fusion_lat": 0.0, "type": "electric_scooter", "lat": 38.9160505, "is_reserved": 0, "is_disabled": 0, "fusion_lon": 0.0, "bike_id": "9e0b958317b7150e7f46bbbef4f40fd4", "lon": -77.0320315, "rental_uris": {"ios": "https://dc.lft.to/lastmile_qr_scan", "android": "https://dc.lft.to/lastmile_qr_scan"}}, {"name": "9ab7e5d07df445cec0679701809b70d5", "fusion_lat": 0.0, "type": "electric_scooter", "lat": 38.90448083333333, "is_reserved": 0, "is_disabled": 0, "fusion_lon": 0.0, "bike_id": "9ab7e5d07df445cec0679701809b70d5", "lon": -77.0344255, "rental_uris": {"ios": "https://dc.lft.to/lastmile_qr_scan", "android": "https://dc.lft.to/lastmile_qr_scan"}}, {"name": "a4f013f2e2bb3c99d657ec16d1b4fed6", "fusion_lat": 0.0, "type": "electric_scooter", "lat": 38.90961466666667, "is_reserved": 0, "is_disabled": 0, "fusion_lon": 0.0, "bike_id": "a4f013f2e2bb3c99d657ec16d1b4fed6", "lon": -77.02714933333333, "rental_uris": {"ios": "https://dc.lft.to/lastmile_qr_scan", "android": "https://dc.lft.to/lastmile_qr_scan"}}, {"name": "3349c649b4e124847c34f2fd377d790b", "fusion_lat": 0.0, "type": "electric_bike", "lat": 39.0386, "is_reserved": 0, "is_disabled": 0, "fusion_lon": 0.0, "bike_id": "3349c649b4e124847c34f2fd377d790b", "lon": -76.99033616666667, "rental_uris": {"ios": "https://dc.lft.to/lastmile_qr_scan", "android": "https://dc.lft.to/lastmile_qr_scan"}}, {"name": "f3792fef4e95f6026de75abfc279787d", "fusion_lat": 0.0, "type": "electric_scooter", "lat": 38.9096385, "is_reserved": 0, "is_disabled": 0, "fusion_lon": 0.0, "bike_id": "f3792fef4e95f6026de75abfc279787d", "lon": -77.02412633333333, "rental_uris": {"ios": "https://dc.lft.to/lastmile_qr_scan", "android": "https://dc.lft.to/lastmile_qr_scan"}}, {"name": "93045fdeca6283b8f13393ae29becf0a", "fusion_lat": 0.0, "type": "electric_scooter", "lat": 38.91691516666667, "is_reserved": 0, "is_disabled": 0, "fusion_lon": 0.0, "bike_id": "93045fdeca6283b8f13393ae29becf0a", "lon": -77.03763766666667, "rental_uris": {"ios": "https://dc.lft.to/lastmile_qr_scan", "android": "https://dc.lft.to/lastmile_qr_scan"}}, {"name": "bd8f2216ecb5cf873a362356a6c218da", "fusion_lat": 0.0, "type": "electric_scooter", "lat": 38.87649833333333, "is_reserved": 0, "is_disabled": 0, "fusion_lon": 0.0, "bike_id": "bd8f2216ecb5cf873a362356a6c218da", "lon": -77.00420083333333, "rental_uris": {"ios": "https://dc.lft.to/lastmile_qr_scan", "android": "https://dc.lft.to/lastmile_qr_scan"}}, {"name": "cda8c42531ea5e7ddc35485246629bcc", "fusion_lat": 0.0, "type": "electric_bike", "lat": 38.86378033333333, "is_reserved": 0, "is_disabled": 0, "fusion_lon": 0.0, "bike_id": "cda8c42531ea5e7ddc35485246629bcc", "lon": -77.1290295, "rental_uris": {"ios": "https://dc.lft.to/lastmile_qr_scan", "android": "https://dc.lft.to/lastmile_qr_scan"}}, {"name": "4ba5ed6da18ef273ebb89ff5910d60f7", "fusion_lat": 0.0, "type": "electric_scooter", "lat": 38.926272833333336, "is_reserved": 0, "is_disabled": 0, "fusion_lon": 0.0, "bike_id": "4ba5ed6da18ef273ebb89ff5910d60f7", "lon": -77.03778733333333, "rental_uris": {"ios": "https://dc.lft.to/lastmile_qr_scan", "android": "https://dc.lft.to/lastmile_qr_scan"}}, {"name": "5a8936318e087ffe8966a603bf973c2f", "fusion_lat": 0.0, "type": "electric_scooter", "lat": 38.913282833333334, "is_reserved": 0, "is_disabled": 0, "fusion_lon": 0.0, "bike_id": "5a8936318e087ffe8966a603bf973c2f", "lon": -77.04869783333334, "rental_uris": {"ios": "https://dc.lft.to/lastmile_qr_scan", "android": "https://dc.lft.to/lastmile_qr_scan"}}, {"name": "3d236fe7b072342d3208a339f5f09cd5", "fusion_lat": 0.0, "type": "electric_scooter", "lat": 38.92024933333333, "is_reserved": 0, "is_disabled": 0, "fusion_lon": 0.0, "bike_id": "3d236fe7b072342d3208a339f5f09cd5", "lon": -77.03116016666667, "rental_uris": {"ios": "https://dc.lft.to/lastmile_qr_scan", "android": "https://dc.lft.to/lastmile_qr_scan"}}, {"name": "b571d7beaceab31004ce44920bbbd71c", "fusion_lat": 0.0, "type": "electric_scooter", "lat": 38.9106455, "is_reserved": 0, "is_disabled": 0, "fusion_lon": 0.0, "bike_id": "b571d7beaceab31004ce44920bbbd71c", "lon": -77.00862166666667, "rental_uris": {"ios": "https://dc.lft.to/lastmile_qr_scan", "android": "https://dc.lft.to/lastmile_qr_scan"}}, {"name": "2b35f2cc898a5097aaefbc6d27d7ddac", "fusion_lat": 0.0, "type": "electric_scooter", "lat": 38.90560283333333, "is_reserved": 0, "is_disabled": 0, "fusion_lon": 0.0, "bike_id": "2b35f2cc898a5097aaefbc6d27d7ddac", "lon": -77.00550933333334, "rental_uris": {"ios": "https://dc.lft.to/lastmile_qr_scan", "android": "https://dc.lft.to/lastmile_qr_scan"}}, {"name": "1ff9d4745d337a837fb0d3b775f03254", "fusion_lat": 0.0, "type": "electric_scooter", "lat": 38.8882445, "is_reserved": 0, "is_disabled": 0, "fusion_lon": 0.0, "bike_id": "1ff9d4745d337a837fb0d3b775f03254", "lon": -77.04942533333333, "rental_uris": {"ios": "https://dc.lft.to/lastmile_qr_scan", "android": "https://dc.lft.to/lastmile_qr_scan"}}, {"name": "8bd88a91afeb9cef2e5354e8e2da53d8", "fusion_lat": 0.0, "type": "electric_bike", "lat": 38.970900666666665, "is_reserved": 0, "is_disabled": 0, "fusion_lon": 0.0, "bike_id": "8bd88a91afeb9cef2e5354e8e2da53d8", "lon": -77.06965266666667, "rental_uris": {"ios": "https://dc.lft.to/lastmile_qr_scan", "android": "https://dc.lft.to/lastmile_qr_scan"}}, {"name": "f9da4010f79edcac2056946c97ab29af", "fusion_lat": 0.0, "type": "electric_scooter", "lat": 38.89237266666667, "is_reserved": 0, "is_disabled": 0, "fusion_lon": 0.0, "bike_id": "f9da4010f79edcac2056946c97ab29af", "lon": -77.01530583333333, "rental_uris": {"ios": "https://dc.lft.to/lastmile_qr_scan", "android": "https://dc.lft.to/lastmile_qr_scan"}}, {"name": "c847cc84eb67ad46efa779e3fcff1fc7", "fusion_lat": 0.0, "type": "electric_scooter", "lat": 38.919230666666664, "is_reserved": 0, "is_disabled": 0, "fusion_lon": 0.0, "bike_id": "c847cc84eb67ad46efa779e3fcff1fc7", "lon": -77.03426566666667, "rental_uris": {"ios": "https://dc.lft.to/lastmile_qr_scan", "android": "https://dc.lft.to/lastmile_qr_scan"}}, {"name": "dd10d218528c79390344da277008c58d", "fusion_lat": 0.0, "type": "electric_scooter", "lat": 38.91866433333333, "is_reserved": 0, "is_disabled": 0, "fusion_lon": 0.0, "bike_id": "dd10d218528c79390344da277008c58d", "lon": -77.0448625, "rental_uris": {"ios": "https://dc.lft.to/lastmile_qr_scan", "android": "https://dc.lft.to/lastmile_qr_scan"}}, {"name": "9ea35840f0d181edf6c2bbc3f5a2bf27", "fusion_lat": 0.0, "type": "electric_scooter", "lat": 38.9156425, "is_reserved": 0, "is_disabled": 0, "fusion_lon": 0.0, "bike_id": "9ea35840f0d181edf6c2bbc3f5a2bf27", "lon": -77.01201566666667, "rental_uris": {"ios": "https://dc.lft.to/lastmile_qr_scan", "android": "https://dc.lft.to/lastmile_qr_scan"}}, {"name": "1c94b853073e1918cf8e4acaae65a2cb", "fusion_lat": 0.0, "type": "electric_scooter", "lat": 38.87630433333333, "is_reserved": 0, "is_disabled": 0, "fusion_lon": 0.0, "bike_id": "1c94b853073e1918cf8e4acaae65a2cb", "lon": -76.96530566666667, "rental_uris": {"ios": "https://dc.lft.to/lastmile_qr_scan", "android": "https://dc.lft.to/lastmile_qr_scan"}}, {"name": "be1a6d22b4a6e9703d5044960cdd76b1", "fusion_lat": 0.0, "type": "electric_bike", "lat": 38.909688833333334, "is_reserved": 0, "is_disabled": 0, "fusion_lon": 0.0, "bike_id": "be1a6d22b4a6e9703d5044960cdd76b1", "lon": -77.0882135, "rental_uris": {"ios": "https://dc.lft.to/lastmile_qr_scan", "android": "https://dc.lft.to/lastmile_qr_scan"}}, {"name": "0d943f8d174f1a1587ae80d0c3631508", "fusion_lat": 0.0, "type": "electric_scooter", "lat": 38.911940666666666, "is_reserved": 0, "is_disabled": 0, "fusion_lon": 0.0, "bike_id": "0d943f8d174f1a1587ae80d0c3631508", "lon": -77.059665, "rental_uris": {"ios": "https://dc.lft.to/lastmile_qr_scan", "android": "https://dc.lft.to/lastmile_qr_scan"}}, {"name": "ca690920616e33e1afa7c12fd49e03e2", "fusion_lat": 0.0, "type": "electric_scooter", "lat": 38.9169015, "is_reserved": 0, "is_disabled": 0, "fusion_lon": 0.0, "bike_id": "ca690920616e33e1afa7c12fd49e03e2", "lon": -77.02598533333334, "rental_uris": {"ios": "https://dc.lft.to/lastmile_qr_scan", "android": "https://dc.lft.to/lastmile_qr_scan"}}, {"name": "272be8316365fbcfedccc432b909b598", "fusion_lat": 0.0, "type": "electric_scooter", "lat": 38.87657383333333, "is_reserved": 0, "is_disabled": 0, "fusion_lon": 0.0, "bike_id": "272be8316365fbcfedccc432b909b598", "lon": -77.00419583333333, "rental_uris": {"ios": "https://dc.lft.to/lastmile_qr_scan", "android": "https://dc.lft.to/lastmile_qr_scan"}}, {"name": "05f81884fec803dc1964d73d681e4722", "fusion_lat": 0.0, "type": "electric_scooter", "lat": 38.896199333333335, "is_reserved": 0, "is_disabled": 0, "fusion_lon": 0.0, "bike_id": "05f81884fec803dc1964d73d681e4722", "lon": -77.02177983333333, "rental_uris": {"ios": "https://dc.lft.to/lastmile_qr_scan", "android": "https://dc.lft.to/lastmile_qr_scan"}}, {"name": "f01128430a601a97c837412cdd134604", "fusion_lat": 0.0, "type": "electric_scooter", "lat": 38.904747666666665, "is_reserved": 0, "is_disabled": 0, "fusion_lon": 0.0, "bike_id": "f01128430a601a97c837412cdd134604", "lon": -77.0485925, "rental_uris": {"ios": "https://dc.lft.to/lastmile_qr_scan", "android": "https://dc.lft.to/lastmile_qr_scan"}}, {"name": "4d65cc80c0ca3a3e2166f3f33e1eb7b4", "fusion_lat": 0.0, "type": "electric_scooter", "lat": 38.90005583333333, "is_reserved": 0, "is_disabled": 0, "fusion_lon": 0.0, "bike_id": "4d65cc80c0ca3a3e2166f3f33e1eb7b4", "lon": -77.01148316666666, "rental_uris": {"ios": "https://dc.lft.to/lastmile_qr_scan", "android": "https://dc.lft.to/lastmile_qr_scan"}}, {"name": "661aaa4bef5aa01c764fd1ab1dd35c73", "fusion_lat": 0.0, "type": "electric_scooter", "lat": 38.91865266666667, "is_reserved": 0, "is_disabled": 0, "fusion_lon": 0.0, "bike_id": "661aaa4bef5aa01c764fd1ab1dd35c73", "lon": -77.04487116666667, "rental_uris": {"ios": "https://dc.lft.to/lastmile_qr_scan", "android": "https://dc.lft.to/lastmile_qr_scan"}}, {"name": "031338e44ed44c3b936524e6571a2934", "fusion_lat": 0.0, "type": "electric_scooter", "lat": 38.921525333333335, "is_reserved": 0, "is_disabled": 0, "fusion_lon": 0.0, "bike_id": "031338e44ed44c3b936524e6571a2934", "lon": -77.03438433333334, "rental_uris": {"ios": "https://dc.lft.to/lastmile_qr_scan", "android": "https://dc.lft.to/lastmile_qr_scan"}}, {"name": "3f4c55ce7af58b4964e40d7212f251b5", "fusion_lat": 0.0, "type": "electric_scooter", "lat": 38.923665, "is_reserved": 0, "is_disabled": 0, "fusion_lon": 0.0, "bike_id": "3f4c55ce7af58b4964e40d7212f251b5", "lon": -77.01967483333334, "rental_uris": {"ios": "https://dc.lft.to/lastmile_qr_scan", "android": "https://dc.lft.to/lastmile_qr_scan"}}, {"name": "32fa14ffd9ecea4802820c7b656ddb98", "fusion_lat": 0.0, "type": "electric_bike", "lat": 38.8731085, "is_reserved": 0, "is_disabled": 0, "fusion_lon": 0.0, "bike_id": "32fa14ffd9ecea4802820c7b656ddb98", "lon": -77.01097716666666, "rental_uris": {"ios": "https://dc.lft.to/lastmile_qr_scan", "android": "https://dc.lft.to/lastmile_qr_scan"}}, {"name": "afe49fe8570d95777fdfab134b550438", "fusion_lat": 0.0, "type": "electric_scooter", "lat": 38.88053816666667, "is_reserved": 0, "is_disabled": 0, "fusion_lon": 0.0, "bike_id": "afe49fe8570d95777fdfab134b550438", "lon": -77.01330283333333, "rental_uris": {"ios": "https://dc.lft.to/lastmile_qr_scan", "android": "https://dc.lft.to/lastmile_qr_scan"}}, {"name": "a780ab0ee44a30ef2bf0836fa66ce1e2", "fusion_lat": 0.0, "type": "electric_scooter", "lat": 38.902038833333336, "is_reserved": 0, "is_disabled": 0, "fusion_lon": 0.0, "bike_id": "a780ab0ee44a30ef2bf0836fa66ce1e2", "lon": -77.02178216666667, "rental_uris": {"ios": "https://dc.lft.to/lastmile_qr_scan", "android": "https://dc.lft.to/lastmile_qr_scan"}}, {"name": "344f8f8f188f4d0ebc25d687ef2141cb", "fusion_lat": 0.0, "type": "electric_bike", "lat": 38.946241, "is_reserved": 0, "is_disabled": 0, "fusion_lon": 0.0, "bike_id": "344f8f8f188f4d0ebc25d687ef2141cb", "lon": -76.94628116666667, "rental_uris": {"ios": "https://dc.lft.to/lastmile_qr_scan", "android": "https://dc.lft.to/lastmile_qr_scan"}}, {"name": "da767065fbef7ffe9433a52983716756", "fusion_lat": 0.0, "type": "electric_scooter", "lat": 38.914217666666666, "is_reserved": 0, "is_disabled": 0, "fusion_lon": 0.0, "bike_id": "da767065fbef7ffe9433a52983716756", "lon": -77.0220915, "rental_uris": {"ios": "https://dc.lft.to/lastmile_qr_scan", "android": "https://dc.lft.to/lastmile_qr_scan"}}, {"name": "20ddc1c9cb37efe5cde4c767da8713b7", "fusion_lat": 0.0, "type": "electric_scooter", "lat": 38.911764166666664, "is_reserved": 0, "is_disabled": 0, "fusion_lon": 0.0, "bike_id": "20ddc1c9cb37efe5cde4c767da8713b7", "lon": -77.04505116666667, "rental_uris": {"ios": "https://dc.lft.to/lastmile_qr_scan", "android": "https://dc.lft.to/lastmile_qr_scan"}}, {"name": "5fe854398d21354fafe8f60ec354c145", "fusion_lat": 0.0, "type": "electric_scooter", "lat": 38.898902, "is_reserved": 0, "is_disabled": 0, "fusion_lon": 0.0, "bike_id": "5fe854398d21354fafe8f60ec354c145", "lon": -77.03938516666666, "rental_uris": {"ios": "https://dc.lft.to/lastmile_qr_scan", "android": "https://dc.lft.to/lastmile_qr_scan"}}, {"name": "88a7c0b057602f0b6fa865ac6c438e6d", "fusion_lat": 0.0, "type": "electric_scooter", "lat": 38.932519166666665, "is_reserved": 0, "is_disabled": 0, "fusion_lon": 0.0, "bike_id": "88a7c0b057602f0b6fa865ac6c438e6d", "lon": -77.0328345, "rental_uris": {"ios": "https://dc.lft.to/lastmile_qr_scan", "android": "https://dc.lft.to/lastmile_qr_scan"}}, {"name": "3530ab5d59f9917e14487246442104c2", "fusion_lat": 0.0, "type": "electric_scooter", "lat": 38.90653416666667, "is_reserved": 0, "is_disabled": 0, "fusion_lon": 0.0, "bike_id": "3530ab5d59f9917e14487246442104c2", "lon": -77.05323416666667, "rental_uris": {"ios": "https://dc.lft.to/lastmile_qr_scan", "android": "https://dc.lft.to/lastmile_qr_scan"}}, {"name": "10129c1404f6462535a3364b822535c2", "fusion_lat": 0.0, "type": "electric_scooter", "lat": 38.887368, "is_reserved": 0, "is_disabled": 0, "fusion_lon": 0.0, "bike_id": "10129c1404f6462535a3364b822535c2", "lon": -76.99645983333333, "rental_uris": {"ios": "https://dc.lft.to/lastmile_qr_scan", "android": "https://dc.lft.to/lastmile_qr_scan"}}, {"name": "1dfcd3fb9bdaf0ae49c9bc5c4c800201", "fusion_lat": 0.0, "type": "electric_scooter", "lat": 38.91549716666667, "is_reserved": 0, "is_disabled": 0, "fusion_lon": 0.0, "bike_id": "1dfcd3fb9bdaf0ae49c9bc5c4c800201", "lon": -77.03516533333334, "rental_uris": {"ios": "https://dc.lft.to/lastmile_qr_scan", "android": "https://dc.lft.to/lastmile_qr_scan"}}, {"name": "2d8832721f0038d018203f45c814897c", "fusion_lat": 0.0, "type": "electric_scooter", "lat": 38.895482, "is_reserved": 0, "is_disabled": 0, "fusion_lon": 0.0, "bike_id": "2d8832721f0038d018203f45c814897c", "lon": -77.02927716666666, "rental_uris": {"ios": "https://dc.lft.to/lastmile_qr_scan", "android": "https://dc.lft.to/lastmile_qr_scan"}}, {"name": "f11d6b89936b311509042f56f4f50914", "fusion_lat": 0.0, "type": "electric_scooter", "lat": 38.916925166666665, "is_reserved": 0, "is_disabled": 0, "fusion_lon": 0.0, "bike_id": "f11d6b89936b311509042f56f4f50914", "lon": -77.0291705, "rental_uris": {"ios": "https://dc.lft.to/lastmile_qr_scan", "android": "https://dc.lft.to/lastmile_qr_scan"}}, {"name": "f4b1f261db05153c2d2f78887f203ced", "fusion_lat": 0.0, "type": "electric_scooter", "lat": 38.8873475, "is_reserved": 0, "is_disabled": 0, "fusion_lon": 0.0, "bike_id": "f4b1f261db05153c2d2f78887f203ced", "lon": -77.01766633333334, "rental_uris": {"ios": "https://dc.lft.to/lastmile_qr_scan", "android": "https://dc.lft.to/lastmile_qr_scan"}}, {"name": "31b68f021e85c2c89d71ccf1844f6690", "fusion_lat": 0.0, "type": "electric_scooter", "lat": 38.90022233333333, "is_reserved": 0, "is_disabled": 0, "fusion_lon": 0.0, "bike_id": "31b68f021e85c2c89d71ccf1844f6690", "lon": -77.03975583333333, "rental_uris": {"ios": "https://dc.lft.to/lastmile_qr_scan", "android": "https://dc.lft.to/lastmile_qr_scan"}}, {"name": "cb65b769a99b8784c1e5a797b5d016a1", "fusion_lat": 0.0, "type": "electric_scooter", "lat": 38.92066166666667, "is_reserved": 0, "is_disabled": 0, "fusion_lon": 0.0, "bike_id": "cb65b769a99b8784c1e5a797b5d016a1", "lon": -76.99853, "rental_uris": {"ios": "https://dc.lft.to/lastmile_qr_scan", "android": "https://dc.lft.to/lastmile_qr_scan"}}, {"name": "fc9eb6bc5b8975ca4218353cc87d34b9", "fusion_lat": 0.0, "type": "electric_scooter", "lat": 38.917497833333336, "is_reserved": 0, "is_disabled": 0, "fusion_lon": 0.0, "bike_id": "fc9eb6bc5b8975ca4218353cc87d34b9", "lon": -77.036672, "rental_uris": {"ios": "https://dc.lft.to/lastmile_qr_scan", "android": "https://dc.lft.to/lastmile_qr_scan"}}, {"name": "afe1e722603f34440d453454ae04537b", "fusion_lat": 0.0, "type": "electric_scooter", "lat": 38.91805566666667, "is_reserved": 0, "is_disabled": 0, "fusion_lon": 0.0, "bike_id": "afe1e722603f34440d453454ae04537b", "lon": -77.0281945, "rental_uris": {"ios": "https://dc.lft.to/lastmile_qr_scan", "android": "https://dc.lft.to/lastmile_qr_scan"}}, {"name": "10833452f4826d5f0fc4bd79438a9896", "fusion_lat": 0.0, "type": "electric_scooter", "lat": 38.903599, "is_reserved": 0, "is_disabled": 0, "fusion_lon": 0.0, "bike_id": "10833452f4826d5f0fc4bd79438a9896", "lon": -77.03841866666667, "rental_uris": {"ios": "https://dc.lft.to/lastmile_qr_scan", "android": "https://dc.lft.to/lastmile_qr_scan"}}, {"name": "609020958cbcd118b60fb981621c80d9", "fusion_lat": 0.0, "type": "electric_scooter", "lat": 38.93399383333333, "is_reserved": 0, "is_disabled": 0, "fusion_lon": 0.0, "bike_id": "609020958cbcd118b60fb981621c80d9", "lon": -77.03154883333333, "rental_uris": {"ios": "https://dc.lft.to/lastmile_qr_scan", "android": "https://dc.lft.to/lastmile_qr_scan"}}, {"name": "d364ce5b98abc341096f528fec04cc01", "fusion_lat": 0.0, "type": "electric_scooter", "lat": 38.87647316666666, "is_reserved": 0, "is_disabled": 0, "fusion_lon": 0.0, "bike_id": "d364ce5b98abc341096f528fec04cc01", "lon": -76.965085, "rental_uris": {"ios": "https://dc.lft.to/lastmile_qr_scan", "android": "https://dc.lft.to/lastmile_qr_scan"}}, {"name": "46f045083836a4b24a49a17a50a3deac", "fusion_lat": 0.0, "type": "electric_scooter", "lat": 38.90125583333333, "is_reserved": 0, "is_disabled": 0, "fusion_lon": 0.0, "bike_id": "46f045083836a4b24a49a17a50a3deac", "lon": -77.04993933333333, "rental_uris": {"ios": "https://dc.lft.to/lastmile_qr_scan", "android": "https://dc.lft.to/lastmile_qr_scan"}}, {"name": "1a375dd5f105a67ebb21e69ccb13c14a", "fusion_lat": 0.0, "type": "electric_scooter", "lat": 38.900231833333336, "is_reserved": 0, "is_disabled": 0, "fusion_lon": 0.0, "bike_id": "1a375dd5f105a67ebb21e69ccb13c14a", "lon": -77.0118385, "rental_uris": {"ios": "https://dc.lft.to/lastmile_qr_scan", "android": "https://dc.lft.to/lastmile_qr_scan"}}, {"name": "6028e774f57e1200fdedc168035fe2ba", "fusion_lat": 0.0, "type": "electric_scooter", "lat": 38.8902675, "is_reserved": 0, "is_disabled": 0, "fusion_lon": 0.0, "bike_id": "6028e774f57e1200fdedc168035fe2ba", "lon": -76.93500116666667, "rental_uris": {"ios": "https://dc.lft.to/lastmile_qr_scan", "android": "https://dc.lft.to/lastmile_qr_scan"}}, {"name": "2950dccdaaab3b97b73729a3a139190d", "fusion_lat": 0.0, "type": "electric_scooter", "lat": 38.905589, "is_reserved": 0, "is_disabled": 0, "fusion_lon": 0.0, "bike_id": "2950dccdaaab3b97b73729a3a139190d", "lon": -77.0055265, "rental_uris": {"ios": "https://dc.lft.to/lastmile_qr_scan", "android": "https://dc.lft.to/lastmile_qr_scan"}}, {"name": "48a3e8d06331e175cb97055d60e1cc34", "fusion_lat": 0.0, "type": "electric_scooter", "lat": 38.9140735, "is_reserved": 0, "is_disabled": 0, "fusion_lon": 0.0, "bike_id": "48a3e8d06331e175cb97055d60e1cc34", "lon": -77.03955183333333, "rental_uris": {"ios": "https://dc.lft.to/lastmile_qr_scan", "android": "https://dc.lft.to/lastmile_qr_scan"}}, {"name": "13600c0c1f0dd3bbf71e693a91e2ddc6", "fusion_lat": 0.0, "type": "electric_scooter", "lat": 38.938701333333334, "is_reserved": 0, "is_disabled": 0, "fusion_lon": 0.0, "bike_id": "13600c0c1f0dd3bbf71e693a91e2ddc6", "lon": -77.02224016666666, "rental_uris": {"ios": "https://dc.lft.to/lastmile_qr_scan", "android": "https://dc.lft.to/lastmile_qr_scan"}}, {"name": "0f0e215bc3bd7ecce9d38063f4cee390", "fusion_lat": 0.0, "type": "electric_scooter", "lat": 38.936338166666665, "is_reserved": 0, "is_disabled": 0, "fusion_lon": 0.0, "bike_id": "0f0e215bc3bd7ecce9d38063f4cee390", "lon": -77.03666666666666, "rental_uris": {"ios": "https://dc.lft.to/lastmile_qr_scan", "android": "https://dc.lft.to/lastmile_qr_scan"}}, {"name": "7d947ef9f64bcdad169675462f7e9943", "fusion_lat": 0.0, "type": "electric_scooter", "lat": 38.9002975, "is_reserved": 0, "is_disabled": 0, "fusion_lon": 0.0, "bike_id": "7d947ef9f64bcdad169675462f7e9943", "lon": -76.99866716666666, "rental_uris": {"ios": "https://dc.lft.to/lastmile_qr_scan", "android": "https://dc.lft.to/lastmile_qr_scan"}}, {"name": "4247fe82909e1a525eb40bea09357bc4", "fusion_lat": 0.0, "type": "electric_scooter", "lat": 38.90575333333334, "is_reserved": 0, "is_disabled": 0, "fusion_lon": 0.0, "bike_id": "4247fe82909e1a525eb40bea09357bc4", "lon": -77.0371355, "rental_uris": {"ios": "https://dc.lft.to/lastmile_qr_scan", "android": "https://dc.lft.to/lastmile_qr_scan"}}, {"name": "37156f9a8a6032ff3b3cc0c85762ae82", "fusion_lat": 0.0, "type": "electric_scooter", "lat": 38.868295, "is_reserved": 0, "is_disabled": 0, "fusion_lon": 0.0, "bike_id": "37156f9a8a6032ff3b3cc0c85762ae82", "lon": -76.98615583333333, "rental_uris": {"ios": "https://dc.lft.to/lastmile_qr_scan", "android": "https://dc.lft.to/lastmile_qr_scan"}}, {"name": "a45bd2008bfe75a8c74ba1ab6d5531be", "fusion_lat": 0.0, "type": "electric_scooter", "lat": 38.928223, "is_reserved": 0, "is_disabled": 0, "fusion_lon": 0.0, "bike_id": "a45bd2008bfe75a8c74ba1ab6d5531be", "lon": -77.014152, "rental_uris": {"ios": "https://dc.lft.to/lastmile_qr_scan", "android": "https://dc.lft.to/lastmile_qr_scan"}}, {"name": "4af937e061bf0058267dddef78acf16b", "fusion_lat": 0.0, "type": "electric_scooter", "lat": 38.91607883333333, "is_reserved": 0, "is_disabled": 0, "fusion_lon": 0.0, "bike_id": "4af937e061bf0058267dddef78acf16b", "lon": -77.04253466666667, "rental_uris": {"ios": "https://dc.lft.to/lastmile_qr_scan", "android": "https://dc.lft.to/lastmile_qr_scan"}}, {"name": "5c0338c51af679f0541c4fc6e0a80cb2", "fusion_lat": 0.0, "type": "electric_scooter", "lat": 38.92761433333333, "is_reserved": 0, "is_disabled": 0, "fusion_lon": 0.0, "bike_id": "5c0338c51af679f0541c4fc6e0a80cb2", "lon": -77.03273616666667, "rental_uris": {"ios": "https://dc.lft.to/lastmile_qr_scan", "android": "https://dc.lft.to/lastmile_qr_scan"}}, {"name": "d82b603d7c2e8d4accedd971548a7d3d", "fusion_lat": 0.0, "type": "electric_scooter", "lat": 38.91516566666667, "is_reserved": 0, "is_disabled": 0, "fusion_lon": 0.0, "bike_id": "d82b603d7c2e8d4accedd971548a7d3d", "lon": -77.04606716666666, "rental_uris": {"ios": "https://dc.lft.to/lastmile_qr_scan", "android": "https://dc.lft.to/lastmile_qr_scan"}}, {"name": "f95815d7d7e0249f9835152b49a6cfee", "fusion_lat": 0.0, "type": "electric_scooter", "lat": 38.876362, "is_reserved": 0, "is_disabled": 0, "fusion_lon": 0.0, "bike_id": "f95815d7d7e0249f9835152b49a6cfee", "lon": -77.0147635, "rental_uris": {"ios": "https://dc.lft.to/lastmile_qr_scan", "android": "https://dc.lft.to/lastmile_qr_scan"}}, {"name": "91f79bf9bd421a3f3109e887e064b1b0", "fusion_lat": 0.0, "type": "electric_bike", "lat": 38.80791883333333, "is_reserved": 0, "is_disabled": 0, "fusion_lon": 0.0, "bike_id": "91f79bf9bd421a3f3109e887e064b1b0", "lon": -77.12969166666667, "rental_uris": {"ios": "https://dc.lft.to/lastmile_qr_scan", "android": "https://dc.lft.to/lastmile_qr_scan"}}, {"name": "f5c09711549888953b4a786aa0779778", "fusion_lat": 0.0, "type": "electric_scooter", "lat": 38.903246, "is_reserved": 0, "is_disabled": 0, "fusion_lon": 0.0, "bike_id": "f5c09711549888953b4a786aa0779778", "lon": -77.04486883333334, "rental_uris": {"ios": "https://dc.lft.to/lastmile_qr_scan", "android": "https://dc.lft.to/lastmile_qr_scan"}}, {"name": "c1628f1f715339208c2e156c527dbe61", "fusion_lat": 0.0, "type": "electric_scooter", "lat": 38.932059, "is_reserved": 0, "is_disabled": 0, "fusion_lon": 0.0, "bike_id": "c1628f1f715339208c2e156c527dbe61", "lon": -77.03665833333334, "rental_uris": {"ios": "https://dc.lft.to/lastmile_qr_scan", "android": "https://dc.lft.to/lastmile_qr_scan"}}, {"name": "5a296a62e0a0a4813f2f7290466995c6", "fusion_lat": 0.0, "type": "electric_scooter", "lat": 38.930618, "is_reserved": 0, "is_disabled": 0, "fusion_lon": 0.0, "bike_id": "5a296a62e0a0a4813f2f7290466995c6", "lon": -77.03193266666666, "rental_uris": {"ios": "https://dc.lft.to/lastmile_qr_scan", "android": "https://dc.lft.to/lastmile_qr_scan"}}, {"name": "cb00fedd469b3586e9517b52d8686570", "fusion_lat": 0.0, "type": "electric_scooter", "lat": 38.9061945, "is_reserved": 0, "is_disabled": 0, "fusion_lon": 0.0, "bike_id": "cb00fedd469b3586e9517b52d8686570", "lon": -77.00615433333333, "rental_uris": {"ios": "https://dc.lft.to/lastmile_qr_scan", "android": "https://dc.lft.to/lastmile_qr_scan"}}, {"name": "7845f1ec5346d2bf1a6a5035bc56c2b9", "fusion_lat": 0.0, "type": "electric_scooter", "lat": 38.904164, "is_reserved": 0, "is_disabled": 0, "fusion_lon": 0.0, "bike_id": "7845f1ec5346d2bf1a6a5035bc56c2b9", "lon": -76.990743, "rental_uris": {"ios": "https://dc.lft.to/lastmile_qr_scan", "android": "https://dc.lft.to/lastmile_qr_scan"}}, {"name": "5c598d2b8d83e99fe718944516d0a8a0", "fusion_lat": 0.0, "type": "electric_scooter", "lat": 38.85654666666667, "is_reserved": 0, "is_disabled": 0, "fusion_lon": 0.0, "bike_id": "5c598d2b8d83e99fe718944516d0a8a0", "lon": -76.99088516666667, "rental_uris": {"ios": "https://dc.lft.to/lastmile_qr_scan", "android": "https://dc.lft.to/lastmile_qr_scan"}}, {"name": "6c930a288eede47aaa64b48f0af34c03", "fusion_lat": 0.0, "type": "electric_scooter", "lat": 38.927800833333336, "is_reserved": 0, "is_disabled": 0, "fusion_lon": 0.0, "bike_id": "6c930a288eede47aaa64b48f0af34c03", "lon": -77.02787183333334, "rental_uris": {"ios": "https://dc.lft.to/lastmile_qr_scan", "android": "https://dc.lft.to/lastmile_qr_scan"}}, {"name": "52b05bc69f72ce3cd41f7bd7d0d94f54", "fusion_lat": 0.0, "type": "electric_scooter", "lat": 38.9470095, "is_reserved": 0, "is_disabled": 0, "fusion_lon": 0.0, "bike_id": "52b05bc69f72ce3cd41f7bd7d0d94f54", "lon": -77.01939366666667, "rental_uris": {"ios": "https://dc.lft.to/lastmile_qr_scan", "android": "https://dc.lft.to/lastmile_qr_scan"}}, {"name": "988be072d742714e3aa4f38a4f8e388d", "fusion_lat": 0.0, "type": "electric_bike", "lat": 38.957130166666666, "is_reserved": 0, "is_disabled": 0, "fusion_lon": 0.0, "bike_id": "988be072d742714e3aa4f38a4f8e388d", "lon": -77.01479366666666, "rental_uris": {"ios": "https://dc.lft.to/lastmile_qr_scan", "android": "https://dc.lft.to/lastmile_qr_scan"}}, {"name": "776352e8be73ab25361853e6b726adb0", "fusion_lat": 0.0, "type": "electric_scooter", "lat": 38.9234815, "is_reserved": 0, "is_disabled": 0, "fusion_lon": 0.0, "bike_id": "776352e8be73ab25361853e6b726adb0", "lon": -77.0543785, "rental_uris": {"ios": "https://dc.lft.to/lastmile_qr_scan", "android": "https://dc.lft.to/lastmile_qr_scan"}}, {"name": "3708bc9fbbd62d9857e4da4ddbeeeda4", "fusion_lat": 0.0, "type": "electric_bike", "lat": 39.00379616666667, "is_reserved": 0, "is_disabled": 0, "fusion_lon": 0.0, "bike_id": "3708bc9fbbd62d9857e4da4ddbeeeda4", "lon": -77.01294483333334, "rental_uris": {"ios": "https://dc.lft.to/lastmile_qr_scan", "android": "https://dc.lft.to/lastmile_qr_scan"}}, {"name": "34919e50f7cc58a869b48afac92f0588", "fusion_lat": 0.0, "type": "electric_scooter", "lat": 38.89407716666667, "is_reserved": 0, "is_disabled": 0, "fusion_lon": 0.0, "bike_id": "34919e50f7cc58a869b48afac92f0588", "lon": -76.932402, "rental_uris": {"ios": "https://dc.lft.to/lastmile_qr_scan", "android": "https://dc.lft.to/lastmile_qr_scan"}}, {"name": "bd63794ea39ae4af8a876afd8b04b72f", "fusion_lat": 0.0, "type": "electric_scooter", "lat": 38.930589166666664, "is_reserved": 0, "is_disabled": 0, "fusion_lon": 0.0, "bike_id": "bd63794ea39ae4af8a876afd8b04b72f", "lon": -77.023216, "rental_uris": {"ios": "https://dc.lft.to/lastmile_qr_scan", "android": "https://dc.lft.to/lastmile_qr_scan"}}, {"name": "455e684a897cf8ca598bb680ec25cd19", "fusion_lat": 0.0, "type": "electric_bike", "lat": 38.852122666666666, "is_reserved": 0, "is_disabled": 0, "fusion_lon": 0.0, "bike_id": "455e684a897cf8ca598bb680ec25cd19", "lon": -77.04648366666666, "rental_uris": {"ios": "https://dc.lft.to/lastmile_qr_scan", "android": "https://dc.lft.to/lastmile_qr_scan"}}, {"name": "7725de5779d468e88fadbe410f308fd4", "fusion_lat": 0.0, "type": "electric_scooter", "lat": 38.959078166666664, "is_reserved": 0, "is_disabled": 0, "fusion_lon": 0.0, "bike_id": "7725de5779d468e88fadbe410f308fd4", "lon": -77.08081066666666, "rental_uris": {"ios": "https://dc.lft.to/lastmile_qr_scan", "android": "https://dc.lft.to/lastmile_qr_scan"}}, {"name": "09e0c62de29603cba415ec6ad3febc83", "fusion_lat": 0.0, "type": "electric_scooter", "lat": 38.909766833333336, "is_reserved": 0, "is_disabled": 0, "fusion_lon": 0.0, "bike_id": "09e0c62de29603cba415ec6ad3febc83", "lon": -77.0467435, "rental_uris": {"ios": "https://dc.lft.to/lastmile_qr_scan", "android": "https://dc.lft.to/lastmile_qr_scan"}}, {"name": "4ae28457b504218691b6ef29dabc9d73", "fusion_lat": 0.0, "type": "electric_scooter", "lat": 38.921342833333334, "is_reserved": 0, "is_disabled": 0, "fusion_lon": 0.0, "bike_id": "4ae28457b504218691b6ef29dabc9d73", "lon": -77.04563366666666, "rental_uris": {"ios": "https://dc.lft.to/lastmile_qr_scan", "android": "https://dc.lft.to/lastmile_qr_scan"}}, {"name": "5b8d9ad718e15129c5ed56055569a025", "fusion_lat": 0.0, "type": "electric_scooter", "lat": 38.921001333333336, "is_reserved": 0, "is_disabled": 0, "fusion_lon": 0.0, "bike_id": "5b8d9ad718e15129c5ed56055569a025", "lon": -77.0547785, "rental_uris": {"ios": "https://dc.lft.to/lastmile_qr_scan", "android": "https://dc.lft.to/lastmile_qr_scan"}}, {"name": "f1bd171d6b78bb46c33f8f41ba94e783", "fusion_lat": 0.0, "type": "electric_scooter", "lat": 38.862592666666664, "is_reserved": 0, "is_disabled": 0, "fusion_lon": 0.0, "bike_id": "f1bd171d6b78bb46c33f8f41ba94e783", "lon": -76.987157, "rental_uris": {"ios": "https://dc.lft.to/lastmile_qr_scan", "android": "https://dc.lft.to/lastmile_qr_scan"}}, {"name": "02fba5f7c131cf9e06593988d80f27a9", "fusion_lat": 0.0, "type": "electric_scooter", "lat": 38.882171666666665, "is_reserved": 0, "is_disabled": 0, "fusion_lon": 0.0, "bike_id": "02fba5f7c131cf9e06593988d80f27a9", "lon": -76.94176566666667, "rental_uris": {"ios": "https://dc.lft.to/lastmile_qr_scan", "android": "https://dc.lft.to/lastmile_qr_scan"}}, {"name": "f250a8d4649b10c9ac6736e2085ff6eb", "fusion_lat": 0.0, "type": "electric_scooter", "lat": 38.920672333333336, "is_reserved": 0, "is_disabled": 0, "fusion_lon": 0.0, "bike_id": "f250a8d4649b10c9ac6736e2085ff6eb", "lon": -77.03807383333333, "rental_uris": {"ios": "https://dc.lft.to/lastmile_qr_scan", "android": "https://dc.lft.to/lastmile_qr_scan"}}, {"name": "1d39d7c0da892f9b5b3da5fb49b0b66f", "fusion_lat": 0.0, "type": "electric_scooter", "lat": 38.92017583333333, "is_reserved": 0, "is_disabled": 0, "fusion_lon": 0.0, "bike_id": "1d39d7c0da892f9b5b3da5fb49b0b66f", "lon": -77.03183066666666, "rental_uris": {"ios": "https://dc.lft.to/lastmile_qr_scan", "android": "https://dc.lft.to/lastmile_qr_scan"}}, {"name": "7077dc0cbb3ecd958a7b1c601bffcf0c", "fusion_lat": 0.0, "type": "electric_scooter", "lat": 38.9086975, "is_reserved": 0, "is_disabled": 0, "fusion_lon": 0.0, "bike_id": "7077dc0cbb3ecd958a7b1c601bffcf0c", "lon": -77.01294533333333, "rental_uris": {"ios": "https://dc.lft.to/lastmile_qr_scan", "android": "https://dc.lft.to/lastmile_qr_scan"}}, {"name": "ec7b99e7d5ad639e6be566837be15328", "fusion_lat": 0.0, "type": "electric_scooter", "lat": 38.902655, "is_reserved": 0, "is_disabled": 0, "fusion_lon": 0.0, "bike_id": "ec7b99e7d5ad639e6be566837be15328", "lon": -77.03169766666667, "rental_uris": {"ios": "https://dc.lft.to/lastmile_qr_scan", "android": "https://dc.lft.to/lastmile_qr_scan"}}, {"name": "8e4b4a438572b969a7d5e847e4ad05e2", "fusion_lat": 0.0, "type": "electric_scooter", "lat": 38.874326333333336, "is_reserved": 0, "is_disabled": 0, "fusion_lon": 0.0, "bike_id": "8e4b4a438572b969a7d5e847e4ad05e2", "lon": -77.0007175, "rental_uris": {"ios": "https://dc.lft.to/lastmile_qr_scan", "android": "https://dc.lft.to/lastmile_qr_scan"}}, {"name": "3723ef2e0f5a5a44b67eeceffd38f901", "fusion_lat": 0.0, "type": "electric_scooter", "lat": 38.90037233333334, "is_reserved": 0, "is_disabled": 0, "fusion_lon": 0.0, "bike_id": "3723ef2e0f5a5a44b67eeceffd38f901", "lon": -76.9914625, "rental_uris": {"ios": "https://dc.lft.to/lastmile_qr_scan", "android": "https://dc.lft.to/lastmile_qr_scan"}}, {"name": "5ddd1c9f8ef9ddc065c283b655432e52", "fusion_lat": 0.0, "type": "electric_scooter", "lat": 38.92373083333333, "is_reserved": 0, "is_disabled": 0, "fusion_lon": 0.0, "bike_id": "5ddd1c9f8ef9ddc065c283b655432e52", "lon": -77.0409805, "rental_uris": {"ios": "https://dc.lft.to/lastmile_qr_scan", "android": "https://dc.lft.to/lastmile_qr_scan"}}, {"name": "7f57db549173fb43ba739bf4706c410a", "fusion_lat": 0.0, "type": "electric_scooter", "lat": 38.924704, "is_reserved": 0, "is_disabled": 0, "fusion_lon": 0.0, "bike_id": "7f57db549173fb43ba739bf4706c410a", "lon": -77.0305355, "rental_uris": {"ios": "https://dc.lft.to/lastmile_qr_scan", "android": "https://dc.lft.to/lastmile_qr_scan"}}, {"name": "69f3240a129bae15284a32f403e36f3a", "fusion_lat": 0.0, "type": "electric_scooter", "lat": 38.918424333333334, "is_reserved": 0, "is_disabled": 0, "fusion_lon": 0.0, "bike_id": "69f3240a129bae15284a32f403e36f3a", "lon": -77.0230495, "rental_uris": {"ios": "https://dc.lft.to/lastmile_qr_scan", "android": "https://dc.lft.to/lastmile_qr_scan"}}, {"name": "625ac38047eb25d236f9afe67cf5eb7b", "fusion_lat": 0.0, "type": "electric_scooter", "lat": 38.9224455, "is_reserved": 0, "is_disabled": 0, "fusion_lon": 0.0, "bike_id": "625ac38047eb25d236f9afe67cf5eb7b", "lon": -77.02992216666667, "rental_uris": {"ios": "https://dc.lft.to/lastmile_qr_scan", "android": "https://dc.lft.to/lastmile_qr_scan"}}, {"name": "5d13bd4aa9020cd5c42dca659c21a54c", "fusion_lat": 0.0, "type": "electric_scooter", "lat": 38.898327333333334, "is_reserved": 0, "is_disabled": 0, "fusion_lon": 0.0, "bike_id": "5d13bd4aa9020cd5c42dca659c21a54c", "lon": -76.94646933333334, "rental_uris": {"ios": "https://dc.lft.to/lastmile_qr_scan", "android": "https://dc.lft.to/lastmile_qr_scan"}}, {"name": "58bcb57bd7ecad49870d1e0112f1e198", "fusion_lat": 0.0, "type": "electric_scooter", "lat": 38.92179866666667, "is_reserved": 0, "is_disabled": 0, "fusion_lon": 0.0, "bike_id": "58bcb57bd7ecad49870d1e0112f1e198", "lon": -77.02415883333333, "rental_uris": {"ios": "https://dc.lft.to/lastmile_qr_scan", "android": "https://dc.lft.to/lastmile_qr_scan"}}, {"name": "0c3e85a462effafb7bb5eea3cc5e7dae", "fusion_lat": 0.0, "type": "electric_scooter", "lat": 38.941759166666664, "is_reserved": 0, "is_disabled": 0, "fusion_lon": 0.0, "bike_id": "0c3e85a462effafb7bb5eea3cc5e7dae", "lon": -77.0251155, "rental_uris": {"ios": "https://dc.lft.to/lastmile_qr_scan", "android": "https://dc.lft.to/lastmile_qr_scan"}}, {"name": "a35ae1bfed2d6db8f6325eb1eca2b025", "fusion_lat": 0.0, "type": "electric_scooter", "lat": 38.90839916666667, "is_reserved": 0, "is_disabled": 0, "fusion_lon": 0.0, "bike_id": "a35ae1bfed2d6db8f6325eb1eca2b025", "lon": -77.04339283333333, "rental_uris": {"ios": "https://dc.lft.to/lastmile_qr_scan", "android": "https://dc.lft.to/lastmile_qr_scan"}}, {"name": "a05a9fe0f237cee553536cbbc87bff56", "fusion_lat": 0.0, "type": "electric_scooter", "lat": 38.90967583333333, "is_reserved": 0, "is_disabled": 0, "fusion_lon": 0.0, "bike_id": "a05a9fe0f237cee553536cbbc87bff56", "lon": -77.03890566666666, "rental_uris": {"ios": "https://dc.lft.to/lastmile_qr_scan", "android": "https://dc.lft.to/lastmile_qr_scan"}}, {"name": "0bc37499c36a9f1f6a784b0d99f7c3e2", "fusion_lat": 0.0, "type": "electric_scooter", "lat": 38.87669233333333, "is_reserved": 0, "is_disabled": 0, "fusion_lon": 0.0, "bike_id": "0bc37499c36a9f1f6a784b0d99f7c3e2", "lon": -77.00758833333333, "rental_uris": {"ios": "https://dc.lft.to/lastmile_qr_scan", "android": "https://dc.lft.to/lastmile_qr_scan"}}, {"name": "35155997a24a1a7fa1030b424cab858a", "fusion_lat": 0.0, "type": "electric_scooter", "lat": 38.908530666666664, "is_reserved": 0, "is_disabled": 0, "fusion_lon": 0.0, "bike_id": "35155997a24a1a7fa1030b424cab858a", "lon": -77.0209555, "rental_uris": {"ios": "https://dc.lft.to/lastmile_qr_scan", "android": "https://dc.lft.to/lastmile_qr_scan"}}, {"name": "2fe71a09f024d02197dbedc1436812c2", "fusion_lat": 0.0, "type": "electric_bike", "lat": 38.8549055, "is_reserved": 0, "is_disabled": 0, "fusion_lon": 0.0, "bike_id": "2fe71a09f024d02197dbedc1436812c2", "lon": -77.11524566666667, "rental_uris": {"ios": "https://dc.lft.to/lastmile_qr_scan", "android": "https://dc.lft.to/lastmile_qr_scan"}}, {"name": "d7a24f0e3cbb1bddd4453e8e35870cfa", "fusion_lat": 0.0, "type": "electric_scooter", "lat": 38.90006, "is_reserved": 0, "is_disabled": 0, "fusion_lon": 0.0, "bike_id": "d7a24f0e3cbb1bddd4453e8e35870cfa", "lon": -77.03194, "rental_uris": {"ios": "https://dc.lft.to/lastmile_qr_scan", "android": "https://dc.lft.to/lastmile_qr_scan"}}, {"name": "85725e428a8383961790a8e527dc98c9", "fusion_lat": 0.0, "type": "electric_scooter", "lat": 38.90615433333333, "is_reserved": 0, "is_disabled": 0, "fusion_lon": 0.0, "bike_id": "85725e428a8383961790a8e527dc98c9", "lon": -77.05138883333333, "rental_uris": {"ios": "https://dc.lft.to/lastmile_qr_scan", "android": "https://dc.lft.to/lastmile_qr_scan"}}, {"name": "aa186d283a4fa980e58472b4a353d398", "fusion_lat": 0.0, "type": "electric_scooter", "lat": 38.919768166666664, "is_reserved": 0, "is_disabled": 0, "fusion_lon": 0.0, "bike_id": "aa186d283a4fa980e58472b4a353d398", "lon": -77.03805183333333, "rental_uris": {"ios": "https://dc.lft.to/lastmile_qr_scan", "android": "https://dc.lft.to/lastmile_qr_scan"}}, {"name": "c79b3fd95b9913f651fb0c44b2819d33", "fusion_lat": 0.0, "type": "electric_scooter", "lat": 38.90575666666667, "is_reserved": 0, "is_disabled": 0, "fusion_lon": 0.0, "bike_id": "c79b3fd95b9913f651fb0c44b2819d33", "lon": -77.0142525, "rental_uris": {"ios": "https://dc.lft.to/lastmile_qr_scan", "android": "https://dc.lft.to/lastmile_qr_scan"}}, {"name": "cd757236b52eb8f9079241ca68c7ac3f", "fusion_lat": 0.0, "type": "electric_scooter", "lat": 38.896047333333335, "is_reserved": 0, "is_disabled": 0, "fusion_lon": 0.0, "bike_id": "cd757236b52eb8f9079241ca68c7ac3f", "lon": -77.0238655, "rental_uris": {"ios": "https://dc.lft.to/lastmile_qr_scan", "android": "https://dc.lft.to/lastmile_qr_scan"}}, {"name": "fba4a9dc319d9cc9a2a3aa9a1af5c605", "fusion_lat": 0.0, "type": "electric_scooter", "lat": 38.89522233333334, "is_reserved": 0, "is_disabled": 0, "fusion_lon": 0.0, "bike_id": "fba4a9dc319d9cc9a2a3aa9a1af5c605", "lon": -76.94927066666666, "rental_uris": {"ios": "https://dc.lft.to/lastmile_qr_scan", "android": "https://dc.lft.to/lastmile_qr_scan"}}, {"name": "bb0bda0a943273faee4fa21561e4434e", "fusion_lat": 0.0, "type": "electric_scooter", "lat": 38.876439166666664, "is_reserved": 0, "is_disabled": 0, "fusion_lon": 0.0, "bike_id": "bb0bda0a943273faee4fa21561e4434e", "lon": -76.96506283333333, "rental_uris": {"ios": "https://dc.lft.to/lastmile_qr_scan", "android": "https://dc.lft.to/lastmile_qr_scan"}}, {"name": "77b23f499d61285815a68359c7ae68a5", "fusion_lat": 0.0, "type": "electric_scooter", "lat": 38.906756, "is_reserved": 0, "is_disabled": 0, "fusion_lon": 0.0, "bike_id": "77b23f499d61285815a68359c7ae68a5", "lon": -77.02721, "rental_uris": {"ios": "https://dc.lft.to/lastmile_qr_scan", "android": "https://dc.lft.to/lastmile_qr_scan"}}, {"name": "b0715d5f9efc668b518f06b9531b2d39", "fusion_lat": 0.0, "type": "electric_scooter", "lat": 38.896058, "is_reserved": 0, "is_disabled": 0, "fusion_lon": 0.0, "bike_id": "b0715d5f9efc668b518f06b9531b2d39", "lon": -77.04118483333333, "rental_uris": {"ios": "https://dc.lft.to/lastmile_qr_scan", "android": "https://dc.lft.to/lastmile_qr_scan"}}, {"name": "ab3ddade4a0d11a3c66a16363077b20b", "fusion_lat": 0.0, "type": "electric_scooter", "lat": 38.917141, "is_reserved": 0, "is_disabled": 0, "fusion_lon": 0.0, "bike_id": "ab3ddade4a0d11a3c66a16363077b20b", "lon": -77.03869, "rental_uris": {"ios": "https://dc.lft.to/lastmile_qr_scan", "android": "https://dc.lft.to/lastmile_qr_scan"}}, {"name": "d0ab0e7d7a20ace64f8a212c37a3bea6", "fusion_lat": 0.0, "type": "electric_bike", "lat": 39.1056695, "is_reserved": 0, "is_disabled": 0, "fusion_lon": 0.0, "bike_id": "d0ab0e7d7a20ace64f8a212c37a3bea6", "lon": -77.15269933333333, "rental_uris": {"ios": "https://dc.lft.to/lastmile_qr_scan", "android": "https://dc.lft.to/lastmile_qr_scan"}}, {"name": "055532a7ab679069bb3f0b7d6bf820c4", "fusion_lat": 0.0, "type": "electric_scooter", "lat": 38.936425666666665, "is_reserved": 0, "is_disabled": 0, "fusion_lon": 0.0, "bike_id": "055532a7ab679069bb3f0b7d6bf820c4", "lon": -77.0345825, "rental_uris": {"ios": "https://dc.lft.to/lastmile_qr_scan", "android": "https://dc.lft.to/lastmile_qr_scan"}}, {"name": "1169ff53f3766e3313a1f20d6fed38aa", "fusion_lat": 0.0, "type": "electric_scooter", "lat": 38.902021500000004, "is_reserved": 0, "is_disabled": 0, "fusion_lon": 0.0, "bike_id": "1169ff53f3766e3313a1f20d6fed38aa", "lon": -77.02175333333334, "rental_uris": {"ios": "https://dc.lft.to/lastmile_qr_scan", "android": "https://dc.lft.to/lastmile_qr_scan"}}, {"name": "17905dd4060efa5deca4dbd942bbf2b9", "fusion_lat": 0.0, "type": "electric_scooter", "lat": 38.92483083333333, "is_reserved": 0, "is_disabled": 0, "fusion_lon": 0.0, "bike_id": "17905dd4060efa5deca4dbd942bbf2b9", "lon": -77.02754083333333, "rental_uris": {"ios": "https://dc.lft.to/lastmile_qr_scan", "android": "https://dc.lft.to/lastmile_qr_scan"}}, {"name": "62ee35f06ef26336a3a0dc3e00c53309", "fusion_lat": 0.0, "type": "electric_bike", "lat": 38.904172, "is_reserved": 0, "is_disabled": 0, "fusion_lon": 0.0, "bike_id": "62ee35f06ef26336a3a0dc3e00c53309", "lon": -76.987966, "rental_uris": {"ios": "https://dc.lft.to/lastmile_qr_scan", "android": "https://dc.lft.to/lastmile_qr_scan"}}, {"name": "d48a9b89df6e64b24b48bbb326e3f5bf", "fusion_lat": 0.0, "type": "electric_bike", "lat": 38.89836, "is_reserved": 0, "is_disabled": 0, "fusion_lon": 0.0, "bike_id": "d48a9b89df6e64b24b48bbb326e3f5bf", "lon": -77.11802216666666, "rental_uris": {"ios": "https://dc.lft.to/lastmile_qr_scan", "android": "https://dc.lft.to/lastmile_qr_scan"}}, {"name": "66a7abf651271e8c503fb6fa15879cdd", "fusion_lat": 0.0, "type": "electric_scooter", "lat": 38.9320125, "is_reserved": 0, "is_disabled": 0, "fusion_lon": 0.0, "bike_id": "66a7abf651271e8c503fb6fa15879cdd", "lon": -77.02772516666667, "rental_uris": {"ios": "https://dc.lft.to/lastmile_qr_scan", "android": "https://dc.lft.to/lastmile_qr_scan"}}, {"name": "b216347aad1b15106b5436020886485f", "fusion_lat": 0.0, "type": "electric_scooter", "lat": 38.90011616666666, "is_reserved": 0, "is_disabled": 0, "fusion_lon": 0.0, "bike_id": "b216347aad1b15106b5436020886485f", "lon": -76.9852095, "rental_uris": {"ios": "https://dc.lft.to/lastmile_qr_scan", "android": "https://dc.lft.to/lastmile_qr_scan"}}, {"name": "358c04845441871edd2425855196b538", "fusion_lat": 0.0, "type": "electric_scooter", "lat": 38.907958, "is_reserved": 0, "is_disabled": 0, "fusion_lon": 0.0, "bike_id": "358c04845441871edd2425855196b538", "lon": -77.0383115, "rental_uris": {"ios": "https://dc.lft.to/lastmile_qr_scan", "android": "https://dc.lft.to/lastmile_qr_scan"}}, {"name": "7cf53cda05c3c3e4f61c6487b6658a64", "fusion_lat": 0.0, "type": "electric_scooter", "lat": 38.886128666666664, "is_reserved": 0, "is_disabled": 0, "fusion_lon": 0.0, "bike_id": "7cf53cda05c3c3e4f61c6487b6658a64", "lon": -76.97818666666667, "rental_uris": {"ios": "https://dc.lft.to/lastmile_qr_scan", "android": "https://dc.lft.to/lastmile_qr_scan"}}, {"name": "8ec59c9ca616fcd01b21f8966f6ff3c9", "fusion_lat": 0.0, "type": "electric_scooter", "lat": 38.910737833333336, "is_reserved": 0, "is_disabled": 0, "fusion_lon": 0.0, "bike_id": "8ec59c9ca616fcd01b21f8966f6ff3c9", "lon": -77.0272555, "rental_uris": {"ios": "https://dc.lft.to/lastmile_qr_scan", "android": "https://dc.lft.to/lastmile_qr_scan"}}, {"name": "7fcb0a4123bd23a9c1f5e6bfec31faf4", "fusion_lat": 0.0, "type": "electric_scooter", "lat": 38.9028305, "is_reserved": 0, "is_disabled": 0, "fusion_lon": 0.0, "bike_id": "7fcb0a4123bd23a9c1f5e6bfec31faf4", "lon": -77.03845733333333, "rental_uris": {"ios": "https://dc.lft.to/lastmile_qr_scan", "android": "https://dc.lft.to/lastmile_qr_scan"}}, {"name": "4f16ed41e7bca14cb4ebbee9955b5290", "fusion_lat": 0.0, "type": "electric_scooter", "lat": 38.887468, "is_reserved": 0, "is_disabled": 0, "fusion_lon": 0.0, "bike_id": "4f16ed41e7bca14cb4ebbee9955b5290", "lon": -77.01528933333333, "rental_uris": {"ios": "https://dc.lft.to/lastmile_qr_scan", "android": "https://dc.lft.to/lastmile_qr_scan"}}, {"name": "b9b84f0e232cfb5cce47dd5ca5b78995", "fusion_lat": 0.0, "type": "electric_scooter", "lat": 38.91710883333333, "is_reserved": 0, "is_disabled": 0, "fusion_lon": 0.0, "bike_id": "b9b84f0e232cfb5cce47dd5ca5b78995", "lon": -77.01246183333333, "rental_uris": {"ios": "https://dc.lft.to/lastmile_qr_scan", "android": "https://dc.lft.to/lastmile_qr_scan"}}, {"name": "34016d9ac27d0d3750bd75d4a385bb85", "fusion_lat": 0.0, "type": "electric_scooter", "lat": 38.918448166666664, "is_reserved": 0, "is_disabled": 0, "fusion_lon": 0.0, "bike_id": "34016d9ac27d0d3750bd75d4a385bb85", "lon": -77.00174416666667, "rental_uris": {"ios": "https://dc.lft.to/lastmile_qr_scan", "android": "https://dc.lft.to/lastmile_qr_scan"}}, {"name": "09245cd16bb331870d1046a06f58b083", "fusion_lat": 0.0, "type": "electric_scooter", "lat": 38.9054055, "is_reserved": 0, "is_disabled": 0, "fusion_lon": 0.0, "bike_id": "09245cd16bb331870d1046a06f58b083", "lon": -77.06269833333333, "rental_uris": {"ios": "https://dc.lft.to/lastmile_qr_scan", "android": "https://dc.lft.to/lastmile_qr_scan"}}, {"name": "d811984c5594535139751594df29852e", "fusion_lat": 0.0, "type": "electric_bike", "lat": 38.886360833333335, "is_reserved": 0, "is_disabled": 0, "fusion_lon": 0.0, "bike_id": "d811984c5594535139751594df29852e", "lon": -76.95477083333333, "rental_uris": {"ios": "https://dc.lft.to/lastmile_qr_scan", "android": "https://dc.lft.to/lastmile_qr_scan"}}, {"name": "f2df8521683bd2fecdb120ccf4c486d3", "fusion_lat": 0.0, "type": "electric_scooter", "lat": 38.935506, "is_reserved": 0, "is_disabled": 0, "fusion_lon": 0.0, "bike_id": "f2df8521683bd2fecdb120ccf4c486d3", "lon": -77.05984783333334, "rental_uris": {"ios": "https://dc.lft.to/lastmile_qr_scan", "android": "https://dc.lft.to/lastmile_qr_scan"}}, {"name": "4c630196c9b199d44a2c2cebafd0ef70", "fusion_lat": 0.0, "type": "electric_scooter", "lat": 38.925693833333334, "is_reserved": 0, "is_disabled": 0, "fusion_lon": 0.0, "bike_id": "4c630196c9b199d44a2c2cebafd0ef70", "lon": -77.02963883333334, "rental_uris": {"ios": "https://dc.lft.to/lastmile_qr_scan", "android": "https://dc.lft.to/lastmile_qr_scan"}}, {"name": "bace4e434957422fc59824634049d6e8", "fusion_lat": 0.0, "type": "electric_scooter", "lat": 38.933422166666666, "is_reserved": 0, "is_disabled": 0, "fusion_lon": 0.0, "bike_id": "bace4e434957422fc59824634049d6e8", "lon": -77.04370383333334, "rental_uris": {"ios": "https://dc.lft.to/lastmile_qr_scan", "android": "https://dc.lft.to/lastmile_qr_scan"}}, {"name": "d8ce86a2a2626c990a2f2d5713bf8679", "fusion_lat": 0.0, "type": "electric_scooter", "lat": 38.939626, "is_reserved": 0, "is_disabled": 0, "fusion_lon": 0.0, "bike_id": "d8ce86a2a2626c990a2f2d5713bf8679", "lon": -77.02752866666667, "rental_uris": {"ios": "https://dc.lft.to/lastmile_qr_scan", "android": "https://dc.lft.to/lastmile_qr_scan"}}, {"name": "0a20a731dab212b2f8852a6b381fe1da", "fusion_lat": 0.0, "type": "electric_scooter", "lat": 38.88386966666667, "is_reserved": 0, "is_disabled": 0, "fusion_lon": 0.0, "bike_id": "0a20a731dab212b2f8852a6b381fe1da", "lon": -76.98563533333333, "rental_uris": {"ios": "https://dc.lft.to/lastmile_qr_scan", "android": "https://dc.lft.to/lastmile_qr_scan"}}, {"name": "0282bc4ed2a99a460892e75fc69258a1", "fusion_lat": 0.0, "type": "electric_scooter", "lat": 38.914094166666665, "is_reserved": 0, "is_disabled": 0, "fusion_lon": 0.0, "bike_id": "0282bc4ed2a99a460892e75fc69258a1", "lon": -77.03229066666667, "rental_uris": {"ios": "https://dc.lft.to/lastmile_qr_scan", "android": "https://dc.lft.to/lastmile_qr_scan"}}, {"name": "36ed700da34ad70d7f99b6b7e243ca71", "fusion_lat": 0.0, "type": "electric_scooter", "lat": 38.8929795, "is_reserved": 0, "is_disabled": 0, "fusion_lon": 0.0, "bike_id": "36ed700da34ad70d7f99b6b7e243ca71", "lon": -76.93930033333334, "rental_uris": {"ios": "https://dc.lft.to/lastmile_qr_scan", "android": "https://dc.lft.to/lastmile_qr_scan"}}, {"name": "3fd5396904a426ce2c0634627af4f688", "fusion_lat": 0.0, "type": "electric_scooter", "lat": 38.9056095, "is_reserved": 0, "is_disabled": 0, "fusion_lon": 0.0, "bike_id": "3fd5396904a426ce2c0634627af4f688", "lon": -77.03421966666667, "rental_uris": {"ios": "https://dc.lft.to/lastmile_qr_scan", "android": "https://dc.lft.to/lastmile_qr_scan"}}, {"name": "f60b149499b822b566302b2553d29c96", "fusion_lat": 0.0, "type": "electric_scooter", "lat": 38.90220766666667, "is_reserved": 0, "is_disabled": 0, "fusion_lon": 0.0, "bike_id": "f60b149499b822b566302b2553d29c96", "lon": -77.050186, "rental_uris": {"ios": "https://dc.lft.to/lastmile_qr_scan", "android": "https://dc.lft.to/lastmile_qr_scan"}}, {"name": "d4e0d123725619e75e2d752a502a3188", "fusion_lat": 0.0, "type": "electric_scooter", "lat": 38.88625533333333, "is_reserved": 0, "is_disabled": 0, "fusion_lon": 0.0, "bike_id": "d4e0d123725619e75e2d752a502a3188", "lon": -77.01530083333333, "rental_uris": {"ios": "https://dc.lft.to/lastmile_qr_scan", "android": "https://dc.lft.to/lastmile_qr_scan"}}, {"name": "c00667acd22715d98ec044a9f431371c", "fusion_lat": 0.0, "type": "electric_scooter", "lat": 38.906845, "is_reserved": 0, "is_disabled": 0, "fusion_lon": 0.0, "bike_id": "c00667acd22715d98ec044a9f431371c", "lon": -77.03836783333334, "rental_uris": {"ios": "https://dc.lft.to/lastmile_qr_scan", "android": "https://dc.lft.to/lastmile_qr_scan"}}, {"name": "78467d748cb10123d6980f2634da079d", "fusion_lat": 0.0, "type": "electric_bike", "lat": 38.928784666666665, "is_reserved": 0, "is_disabled": 0, "fusion_lon": 0.0, "bike_id": "78467d748cb10123d6980f2634da079d", "lon": -77.04266133333333, "rental_uris": {"ios": "https://dc.lft.to/lastmile_qr_scan", "android": "https://dc.lft.to/lastmile_qr_scan"}}, {"name": "b1e33ac8c90fb9ddbdba5183ddedb68d", "fusion_lat": 0.0, "type": "electric_bike", "lat": 38.832355, "is_reserved": 0, "is_disabled": 0, "fusion_lon": 0.0, "bike_id": "b1e33ac8c90fb9ddbdba5183ddedb68d", "lon": -76.94626, "rental_uris": {"ios": "https://dc.lft.to/lastmile_qr_scan", "android": "https://dc.lft.to/lastmile_qr_scan"}}, {"name": "83e86a4dfe659562ec987c6e993e6be3", "fusion_lat": 0.0, "type": "electric_scooter", "lat": 38.899125166666664, "is_reserved": 0, "is_disabled": 0, "fusion_lon": 0.0, "bike_id": "83e86a4dfe659562ec987c6e993e6be3", "lon": -77.03924433333333, "rental_uris": {"ios": "https://dc.lft.to/lastmile_qr_scan", "android": "https://dc.lft.to/lastmile_qr_scan"}}, {"name": "3b66e1da3c9ad2cf8e7fb7de224dadaa", "fusion_lat": 0.0, "type": "electric_scooter", "lat": 38.905590833333335, "is_reserved": 0, "is_disabled": 0, "fusion_lon": 0.0, "bike_id": "3b66e1da3c9ad2cf8e7fb7de224dadaa", "lon": -77.00511333333333, "rental_uris": {"ios": "https://dc.lft.to/lastmile_qr_scan", "android": "https://dc.lft.to/lastmile_qr_scan"}}, {"name": "19143680efe1fedac1952dd9d1de2267", "fusion_lat": 0.0, "type": "electric_scooter", "lat": 38.8873515, "is_reserved": 0, "is_disabled": 0, "fusion_lon": 0.0, "bike_id": "19143680efe1fedac1952dd9d1de2267", "lon": -77.01768216666666, "rental_uris": {"ios": "https://dc.lft.to/lastmile_qr_scan", "android": "https://dc.lft.to/lastmile_qr_scan"}}, {"name": "9e2442250b5c33ae720a2195ad5094b8", "fusion_lat": 0.0, "type": "electric_bike", "lat": 39.0890065, "is_reserved": 0, "is_disabled": 0, "fusion_lon": 0.0, "bike_id": "9e2442250b5c33ae720a2195ad5094b8", "lon": -77.178515, "rental_uris": {"ios": "https://dc.lft.to/lastmile_qr_scan", "android": "https://dc.lft.to/lastmile_qr_scan"}}, {"name": "63079be6c9525e69d364f05dee95256f", "fusion_lat": 0.0, "type": "electric_scooter", "lat": 38.919923833333335, "is_reserved": 0, "is_disabled": 0, "fusion_lon": 0.0, "bike_id": "63079be6c9525e69d364f05dee95256f", "lon": -77.0240345, "rental_uris": {"ios": "https://dc.lft.to/lastmile_qr_scan", "android": "https://dc.lft.to/lastmile_qr_scan"}}, {"name": "227122927b5ef53c31c2b58423aa9835", "fusion_lat": 0.0, "type": "electric_bike", "lat": 38.846112166666664, "is_reserved": 0, "is_disabled": 0, "fusion_lon": 0.0, "bike_id": "227122927b5ef53c31c2b58423aa9835", "lon": -76.9782955, "rental_uris": {"ios": "https://dc.lft.to/lastmile_qr_scan", "android": "https://dc.lft.to/lastmile_qr_scan"}}, {"name": "117fc7e96f1c712bbad6f701d4d97f3c", "fusion_lat": 0.0, "type": "electric_scooter", "lat": 38.92852533333333, "is_reserved": 0, "is_disabled": 0, "fusion_lon": 0.0, "bike_id": "117fc7e96f1c712bbad6f701d4d97f3c", "lon": -77.0141435, "rental_uris": {"ios": "https://dc.lft.to/lastmile_qr_scan", "android": "https://dc.lft.to/lastmile_qr_scan"}}, {"name": "cbc9a081ceb06e87856f57b45baa4bd9", "fusion_lat": 0.0, "type": "electric_scooter", "lat": 38.901216166666664, "is_reserved": 0, "is_disabled": 0, "fusion_lon": 0.0, "bike_id": "cbc9a081ceb06e87856f57b45baa4bd9", "lon": -77.01789183333334, "rental_uris": {"ios": "https://dc.lft.to/lastmile_qr_scan", "android": "https://dc.lft.to/lastmile_qr_scan"}}, {"name": "56c57233335868277cf1fb621a4f4c6c", "fusion_lat": 0.0, "type": "electric_scooter", "lat": 38.88491283333333, "is_reserved": 0, "is_disabled": 0, "fusion_lon": 0.0, "bike_id": "56c57233335868277cf1fb621a4f4c6c", "lon": -77.0071315, "rental_uris": {"ios": "https://dc.lft.to/lastmile_qr_scan", "android": "https://dc.lft.to/lastmile_qr_scan"}}, {"name": "b516e8137a82af708d03d1487eb91563", "fusion_lat": 0.0, "type": "electric_scooter", "lat": 38.901515, "is_reserved": 0, "is_disabled": 0, "fusion_lon": 0.0, "bike_id": "b516e8137a82af708d03d1487eb91563", "lon": -77.04387016666666, "rental_uris": {"ios": "https://dc.lft.to/lastmile_qr_scan", "android": "https://dc.lft.to/lastmile_qr_scan"}}, {"name": "64c4f5a86335780b32f9d2f2a1c942d6", "fusion_lat": 0.0, "type": "electric_scooter", "lat": 38.91927883333334, "is_reserved": 0, "is_disabled": 0, "fusion_lon": 0.0, "bike_id": "64c4f5a86335780b32f9d2f2a1c942d6", "lon": -77.0318525, "rental_uris": {"ios": "https://dc.lft.to/lastmile_qr_scan", "android": "https://dc.lft.to/lastmile_qr_scan"}}, {"name": "f618c5c04eea4ac77e759eee884cb64c", "fusion_lat": 0.0, "type": "electric_bike", "lat": 38.953581666666665, "is_reserved": 0, "is_disabled": 0, "fusion_lon": 0.0, "bike_id": "f618c5c04eea4ac77e759eee884cb64c", "lon": -76.980971, "rental_uris": {"ios": "https://dc.lft.to/lastmile_qr_scan", "android": "https://dc.lft.to/lastmile_qr_scan"}}, {"name": "b4b67009dd6c2933fd3051ed3aea4dbf", "fusion_lat": 0.0, "type": "electric_scooter", "lat": 38.914254666666665, "is_reserved": 0, "is_disabled": 0, "fusion_lon": 0.0, "bike_id": "b4b67009dd6c2933fd3051ed3aea4dbf", "lon": -77.031835, "rental_uris": {"ios": "https://dc.lft.to/lastmile_qr_scan", "android": "https://dc.lft.to/lastmile_qr_scan"}}, {"name": "60e0d24972ab5a29f2b41c532c7264a4", "fusion_lat": 0.0, "type": "electric_scooter", "lat": 38.91106583333333, "is_reserved": 0, "is_disabled": 0, "fusion_lon": 0.0, "bike_id": "60e0d24972ab5a29f2b41c532c7264a4", "lon": -77.04288383333333, "rental_uris": {"ios": "https://dc.lft.to/lastmile_qr_scan", "android": "https://dc.lft.to/lastmile_qr_scan"}}, {"name": "acbcb5ddca9b053fb5a4c95c43be2a66", "fusion_lat": 0.0, "type": "electric_scooter", "lat": 38.865370666666664, "is_reserved": 0, "is_disabled": 0, "fusion_lon": 0.0, "bike_id": "acbcb5ddca9b053fb5a4c95c43be2a66", "lon": -76.98710666666666, "rental_uris": {"ios": "https://dc.lft.to/lastmile_qr_scan", "android": "https://dc.lft.to/lastmile_qr_scan"}}, {"name": "26920faf6033596a6a8f893f7906af6e", "fusion_lat": 0.0, "type": "electric_scooter", "lat": 38.91907416666667, "is_reserved": 0, "is_disabled": 0, "fusion_lon": 0.0, "bike_id": "26920faf6033596a6a8f893f7906af6e", "lon": -77.024049, "rental_uris": {"ios": "https://dc.lft.to/lastmile_qr_scan", "android": "https://dc.lft.to/lastmile_qr_scan"}}, {"name": "738bcdbf7524332ea7afc55c336773b4", "fusion_lat": 0.0, "type": "electric_scooter", "lat": 38.910205500000004, "is_reserved": 0, "is_disabled": 0, "fusion_lon": 0.0, "bike_id": "738bcdbf7524332ea7afc55c336773b4", "lon": -76.987516, "rental_uris": {"ios": "https://dc.lft.to/lastmile_qr_scan", "android": "https://dc.lft.to/lastmile_qr_scan"}}, {"name": "e036341c71f1686e7d745b4795f140e4", "fusion_lat": 0.0, "type": "electric_scooter", "lat": 38.9111585, "is_reserved": 0, "is_disabled": 0, "fusion_lon": 0.0, "bike_id": "e036341c71f1686e7d745b4795f140e4", "lon": -77.00607683333334, "rental_uris": {"ios": "https://dc.lft.to/lastmile_qr_scan", "android": "https://dc.lft.to/lastmile_qr_scan"}}, {"name": "06c339b040d5ee759ef3f2364a8b3b9d", "fusion_lat": 0.0, "type": "electric_scooter", "lat": 38.911984833333335, "is_reserved": 0, "is_disabled": 0, "fusion_lon": 0.0, "bike_id": "06c339b040d5ee759ef3f2364a8b3b9d", "lon": -77.03449633333334, "rental_uris": {"ios": "https://dc.lft.to/lastmile_qr_scan", "android": "https://dc.lft.to/lastmile_qr_scan"}}, {"name": "374be6f6cdf1feed01e03cf0c4c19bc3", "fusion_lat": 0.0, "type": "electric_scooter", "lat": 38.914245666666666, "is_reserved": 0, "is_disabled": 0, "fusion_lon": 0.0, "bike_id": "374be6f6cdf1feed01e03cf0c4c19bc3", "lon": -77.02121166666667, "rental_uris": {"ios": "https://dc.lft.to/lastmile_qr_scan", "android": "https://dc.lft.to/lastmile_qr_scan"}}, {"name": "9cc272627b8bccb0844896036932f0d6", "fusion_lat": 0.0, "type": "electric_scooter", "lat": 38.900253666666664, "is_reserved": 0, "is_disabled": 0, "fusion_lon": 0.0, "bike_id": "9cc272627b8bccb0844896036932f0d6", "lon": -77.01186116666666, "rental_uris": {"ios": "https://dc.lft.to/lastmile_qr_scan", "android": "https://dc.lft.to/lastmile_qr_scan"}}, {"name": "22ea671b7807bc5815dc971b54e0adf3", "fusion_lat": 0.0, "type": "electric_scooter", "lat": 38.9026935, "is_reserved": 0, "is_disabled": 0, "fusion_lon": 0.0, "bike_id": "22ea671b7807bc5815dc971b54e0adf3", "lon": -77.03003883333334, "rental_uris": {"ios": "https://dc.lft.to/lastmile_qr_scan", "android": "https://dc.lft.to/lastmile_qr_scan"}}, {"name": "5f68c792693ea8d758647cc765eb20e6", "fusion_lat": 0.0, "type": "electric_scooter", "lat": 38.902648, "is_reserved": 0, "is_disabled": 0, "fusion_lon": 0.0, "bike_id": "5f68c792693ea8d758647cc765eb20e6", "lon": -77.04623766666667, "rental_uris": {"ios": "https://dc.lft.to/lastmile_qr_scan", "android": "https://dc.lft.to/lastmile_qr_scan"}}, {"name": "ce5e8fef391dc6c76f6b25d9f42fcd3e", "fusion_lat": 0.0, "type": "electric_scooter", "lat": 38.91542283333333, "is_reserved": 0, "is_disabled": 0, "fusion_lon": 0.0, "bike_id": "ce5e8fef391dc6c76f6b25d9f42fcd3e", "lon": -77.0385985, "rental_uris": {"ios": "https://dc.lft.to/lastmile_qr_scan", "android": "https://dc.lft.to/lastmile_qr_scan"}}, {"name": "f6ff0d44d36a5c2503e28fa1ed75c9fb", "fusion_lat": 0.0, "type": "electric_scooter", "lat": 38.92618216666666, "is_reserved": 0, "is_disabled": 0, "fusion_lon": 0.0, "bike_id": "f6ff0d44d36a5c2503e28fa1ed75c9fb", "lon": -77.03675416666667, "rental_uris": {"ios": "https://dc.lft.to/lastmile_qr_scan", "android": "https://dc.lft.to/lastmile_qr_scan"}}, {"name": "2a5bef4298acf4b5813bde1406bf1cd7", "fusion_lat": 0.0, "type": "electric_scooter", "lat": 38.903877, "is_reserved": 0, "is_disabled": 0, "fusion_lon": 0.0, "bike_id": "2a5bef4298acf4b5813bde1406bf1cd7", "lon": -77.04039983333334, "rental_uris": {"ios": "https://dc.lft.to/lastmile_qr_scan", "android": "https://dc.lft.to/lastmile_qr_scan"}}, {"name": "b0e93a9488511286c00f64f2d0c24056", "fusion_lat": 0.0, "type": "electric_scooter", "lat": 38.903404333333334, "is_reserved": 0, "is_disabled": 0, "fusion_lon": 0.0, "bike_id": "b0e93a9488511286c00f64f2d0c24056", "lon": -77.04178516666667, "rental_uris": {"ios": "https://dc.lft.to/lastmile_qr_scan", "android": "https://dc.lft.to/lastmile_qr_scan"}}, {"name": "17c50b0455f43cbafdf9fceac4acfe07", "fusion_lat": 0.0, "type": "electric_scooter", "lat": 38.895417, "is_reserved": 0, "is_disabled": 0, "fusion_lon": 0.0, "bike_id": "17c50b0455f43cbafdf9fceac4acfe07", "lon": -77.010932, "rental_uris": {"ios": "https://dc.lft.to/lastmile_qr_scan", "android": "https://dc.lft.to/lastmile_qr_scan"}}, {"name": "6a9761274b4ad6fd03fb705d40ba10c0", "fusion_lat": 0.0, "type": "electric_scooter", "lat": 38.91770666666667, "is_reserved": 0, "is_disabled": 0, "fusion_lon": 0.0, "bike_id": "6a9761274b4ad6fd03fb705d40ba10c0", "lon": -77.02952966666666, "rental_uris": {"ios": "https://dc.lft.to/lastmile_qr_scan", "android": "https://dc.lft.to/lastmile_qr_scan"}}, {"name": "4e18e89205c21114c2bd037401d578f4", "fusion_lat": 0.0, "type": "electric_scooter", "lat": 38.928456, "is_reserved": 0, "is_disabled": 0, "fusion_lon": 0.0, "bike_id": "4e18e89205c21114c2bd037401d578f4", "lon": -77.032673, "rental_uris": {"ios": "https://dc.lft.to/lastmile_qr_scan", "android": "https://dc.lft.to/lastmile_qr_scan"}}, {"name": "65837bfb4ef2c7cc3232aa73abc60563", "fusion_lat": 0.0, "type": "electric_scooter", "lat": 38.899138, "is_reserved": 0, "is_disabled": 0, "fusion_lon": 0.0, "bike_id": "65837bfb4ef2c7cc3232aa73abc60563", "lon": -77.03924116666667, "rental_uris": {"ios": "https://dc.lft.to/lastmile_qr_scan", "android": "https://dc.lft.to/lastmile_qr_scan"}}, {"name": "2a08b6bd2c102296bb1996bd4f4eff34", "fusion_lat": 0.0, "type": "electric_scooter", "lat": 38.93207566666667, "is_reserved": 0, "is_disabled": 0, "fusion_lon": 0.0, "bike_id": "2a08b6bd2c102296bb1996bd4f4eff34", "lon": -77.027335, "rental_uris": {"ios": "https://dc.lft.to/lastmile_qr_scan", "android": "https://dc.lft.to/lastmile_qr_scan"}}, {"name": "f445d7db3920625ed57c7d66721d3f6c", "fusion_lat": 0.0, "type": "electric_scooter", "lat": 38.899413833333334, "is_reserved": 0, "is_disabled": 0, "fusion_lon": 0.0, "bike_id": "f445d7db3920625ed57c7d66721d3f6c", "lon": -77.03120083333333, "rental_uris": {"ios": "https://dc.lft.to/lastmile_qr_scan", "android": "https://dc.lft.to/lastmile_qr_scan"}}, {"name": "2b659c9a343c4e7003e841ac16b2ef73", "fusion_lat": 0.0, "type": "electric_scooter", "lat": 38.874977333333334, "is_reserved": 0, "is_disabled": 0, "fusion_lon": 0.0, "bike_id": "2b659c9a343c4e7003e841ac16b2ef73", "lon": -77.0017465, "rental_uris": {"ios": "https://dc.lft.to/lastmile_qr_scan", "android": "https://dc.lft.to/lastmile_qr_scan"}}, {"name": "ff4c7bb53e020ea31bb022a0fc4af4ac", "fusion_lat": 0.0, "type": "electric_scooter", "lat": 38.89609216666667, "is_reserved": 0, "is_disabled": 0, "fusion_lon": 0.0, "bike_id": "ff4c7bb53e020ea31bb022a0fc4af4ac", "lon": -77.04684216666666, "rental_uris": {"ios": "https://dc.lft.to/lastmile_qr_scan", "android": "https://dc.lft.to/lastmile_qr_scan"}}, {"name": "46ae5e7905e7666e5950d653a53fe2ae", "fusion_lat": 0.0, "type": "electric_bike", "lat": 38.96833683333333, "is_reserved": 0, "is_disabled": 0, "fusion_lon": 0.0, "bike_id": "46ae5e7905e7666e5950d653a53fe2ae", "lon": -77.0333675, "rental_uris": {"ios": "https://dc.lft.to/lastmile_qr_scan", "android": "https://dc.lft.to/lastmile_qr_scan"}}, {"name": "932fe9db5763788ae81f6b7709a22340", "fusion_lat": 0.0, "type": "electric_scooter", "lat": 38.91240883333333, "is_reserved": 0, "is_disabled": 0, "fusion_lon": 0.0, "bike_id": "932fe9db5763788ae81f6b7709a22340", "lon": -77.04872183333333, "rental_uris": {"ios": "https://dc.lft.to/lastmile_qr_scan", "android": "https://dc.lft.to/lastmile_qr_scan"}}, {"name": "430e192447ac9ccca833cb3f3012fe2b", "fusion_lat": 0.0, "type": "electric_scooter", "lat": 38.91497316666667, "is_reserved": 0, "is_disabled": 0, "fusion_lon": 0.0, "bike_id": "430e192447ac9ccca833cb3f3012fe2b", "lon": -77.03248233333333, "rental_uris": {"ios": "https://dc.lft.to/lastmile_qr_scan", "android": "https://dc.lft.to/lastmile_qr_scan"}}, {"name": "cffd7ed386a003743de872b0829bec44", "fusion_lat": 0.0, "type": "electric_scooter", "lat": 38.913233, "is_reserved": 0, "is_disabled": 0, "fusion_lon": 0.0, "bike_id": "cffd7ed386a003743de872b0829bec44", "lon": -77.0312785, "rental_uris": {"ios": "https://dc.lft.to/lastmile_qr_scan", "android": "https://dc.lft.to/lastmile_qr_scan"}}, {"name": "87a755251813cc0840152680c3514a8d", "fusion_lat": 0.0, "type": "electric_scooter", "lat": 38.93064783333333, "is_reserved": 0, "is_disabled": 0, "fusion_lon": 0.0, "bike_id": "87a755251813cc0840152680c3514a8d", "lon": -77.03956633333334, "rental_uris": {"ios": "https://dc.lft.to/lastmile_qr_scan", "android": "https://dc.lft.to/lastmile_qr_scan"}}, {"name": "e6d4138f4b27d355558494087b167e2c", "fusion_lat": 0.0, "type": "electric_scooter", "lat": 38.93872616666667, "is_reserved": 0, "is_disabled": 0, "fusion_lon": 0.0, "bike_id": "e6d4138f4b27d355558494087b167e2c", "lon": -77.03259366666667, "rental_uris": {"ios": "https://dc.lft.to/lastmile_qr_scan", "android": "https://dc.lft.to/lastmile_qr_scan"}}, {"name": "0315da54afd5cdb57a302ba7f915dca3", "fusion_lat": 0.0, "type": "electric_scooter", "lat": 38.91908933333333, "is_reserved": 0, "is_disabled": 0, "fusion_lon": 0.0, "bike_id": "0315da54afd5cdb57a302ba7f915dca3", "lon": -77.036242, "rental_uris": {"ios": "https://dc.lft.to/lastmile_qr_scan", "android": "https://dc.lft.to/lastmile_qr_scan"}}, {"name": "8afa99132bebc8cb523879cecf314d4f", "fusion_lat": 0.0, "type": "electric_scooter", "lat": 38.880365, "is_reserved": 0, "is_disabled": 0, "fusion_lon": 0.0, "bike_id": "8afa99132bebc8cb523879cecf314d4f", "lon": -77.024981, "rental_uris": {"ios": "https://dc.lft.to/lastmile_qr_scan", "android": "https://dc.lft.to/lastmile_qr_scan"}}, {"name": "568522850c3c8574ddc83ee2a5128585", "fusion_lat": 0.0, "type": "electric_scooter", "lat": 38.89730083333333, "is_reserved": 0, "is_disabled": 0, "fusion_lon": 0.0, "bike_id": "568522850c3c8574ddc83ee2a5128585", "lon": -77.02165483333333, "rental_uris": {"ios": "https://dc.lft.to/lastmile_qr_scan", "android": "https://dc.lft.to/lastmile_qr_scan"}}, {"name": "4a9f19f16b7cfbf7c9fe039b08ef4256", "fusion_lat": 0.0, "type": "electric_scooter", "lat": 38.9346635, "is_reserved": 0, "is_disabled": 0, "fusion_lon": 0.0, "bike_id": "4a9f19f16b7cfbf7c9fe039b08ef4256", "lon": -77.03529416666667, "rental_uris": {"ios": "https://dc.lft.to/lastmile_qr_scan", "android": "https://dc.lft.to/lastmile_qr_scan"}}, {"name": "19345b9452dcf83af7ae5b1d72f2b557", "fusion_lat": 0.0, "type": "electric_scooter", "lat": 38.92823516666667, "is_reserved": 0, "is_disabled": 0, "fusion_lon": 0.0, "bike_id": "19345b9452dcf83af7ae5b1d72f2b557", "lon": -77.02259866666667, "rental_uris": {"ios": "https://dc.lft.to/lastmile_qr_scan", "android": "https://dc.lft.to/lastmile_qr_scan"}}, {"name": "ad6a8af0c66eeffa10ce2b8d6a620aba", "fusion_lat": 0.0, "type": "electric_scooter", "lat": 38.9622565, "is_reserved": 0, "is_disabled": 0, "fusion_lon": 0.0, "bike_id": "ad6a8af0c66eeffa10ce2b8d6a620aba", "lon": -77.029796, "rental_uris": {"ios": "https://dc.lft.to/lastmile_qr_scan", "android": "https://dc.lft.to/lastmile_qr_scan"}}, {"name": "aeafd655d2703224c864d3fbb4d943ff", "fusion_lat": 0.0, "type": "electric_scooter", "lat": 38.905912666666666, "is_reserved": 0, "is_disabled": 0, "fusion_lon": 0.0, "bike_id": "aeafd655d2703224c864d3fbb4d943ff", "lon": -77.04880766666666, "rental_uris": {"ios": "https://dc.lft.to/lastmile_qr_scan", "android": "https://dc.lft.to/lastmile_qr_scan"}},