{"data": {"bikes": [{"is_disabled": 0, "fusion_lon": 0.0, "fusion_lat": 0.0, "lat": 38.931814833333334, "type": "electric_scooter", "lon": -77.07254166666667, "bike_id": "8f8730b8b487baa2b5e7a8a8a16b1b2b", "rental_uris": {"android": "https://dc.lft.to/lastmile_qr_scan", "ios": "https://dc.lft.to/lastmile_qr_scan"}, "name": "8f8730b8b487baa2b5e7a8a8a16b1b2b", "is_reserved": 0}, {"is_disabled": 0, "fusion_lon": 0.0, "fusion_lat": 0.0, "lat": 38.903107, "type": "electric_scooter", "lon": -76.98243966666666, "bike_id": "60aecfbd1a3beff619a222657a387e11", "rental_uris": {"android": "https://dc.lft.to/lastmile_qr_scan", "ios": "https://dc.lft.to/lastmile_qr_scan"}, "name": "60aecfbd1a3beff619a222657a387e11", "is_reserved": 0}, {"is_disabled": 0, "fusion_lon": 0.0, "fusion_lat": 0.0, "lat": 38.898436333333336, "type": "electric_scooter", "lon": -76.9463415, "bike_id": "e287e025f2d56ea4dfaef1a663eb8160", "rental_uris": {"android": "https://dc.lft.to/lastmile_qr_scan", "ios": "https://dc.lft.to/lastmile_qr_scan"}, "name": "e287e025f2d56ea4dfaef1a663eb8160", "is_reserved": 0}, {"is_disabled": 0, "fusion_lon": 0.0, "fusion_lat": 0.0, "lat": 38.8989555, "type": "electric_scooter", "lon": -77.052934, "bike_id": "845568e3223dd04ed51f429e2dd79abd", "rental_uris": {"android": "https://dc.lft.to/lastmile_qr_scan", "ios": "https://dc.lft.to/lastmile_qr_scan"}, "name": "845568e3223dd04ed51f429e2dd79abd", "is_reserved": 0}, {"is_disabled": 0, "fusion_lon": 0.0, "fusion_lat": 0.0, "lat": 38.950913666666665, "type": "electric_bike", "lon": -76.965617, "bike_id": "2da0d1583a69071ff340c56b1dcc9617", "rental_uris": {"android": "https://dc.lft.to/lastmile_qr_scan", "ios": "https://dc.lft.to/lastmile_qr_scan"}, "name": "2da0d1583a69071ff340c56b1dcc9617", "is_reserved": 0}, {"is_disabled": 0, "fusion_lon": 0.0, "fusion_lat": 0.0, "lat": 38.9278455, "type": "electric_scooter", "lon": -77.0314865, "bike_id": "3ecc297b30483802c9ebee7024060975", "rental_uris": {"android": "https://dc.lft.to/lastmile_qr_scan", "ios": "https://dc.lft.to/lastmile_qr_scan"}, "name": "3ecc297b30483802c9ebee7024060975", "is_reserved": 0}, {"is_disabled": 0, "fusion_lon": 0.0, "fusion_lat": 0.0, "lat": 38.907857166666666, "type": "electric_scooter", "lon": -77.04099383333333, "bike_id": "dc295c9468db5afb05c8d57d2c59d891", "rental_uris": {"android": "https://dc.lft.to/lastmile_qr_scan", "ios": "https://dc.lft.to/lastmile_qr_scan"}, "name": "dc295c9468db5afb05c8d57d2c59d891", "is_reserved": 0}, {"is_disabled": 0, "fusion_lon": 0.0, "fusion_lat": 0.0, "lat": 38.89584416666667, "type": "electric_scooter", "lon": -77.02716916666667, "bike_id": "7a97efaea9d70f61737dce1b02f967af", "rental_uris": {"android": "https://dc.lft.to/lastmile_qr_scan", "ios": "https://dc.lft.to/lastmile_qr_scan"}, "name": "7a97efaea9d70f61737dce1b02f967af", "is_reserved": 0}, {"is_disabled": 0, "fusion_lon": 0.0, "fusion_lat": 0.0, "lat": 38.912551, "type": "electric_scooter", "lon": -77.009283, "bike_id": "3efbafda64c5079e9a7f29f2d26006af", "rental_uris": {"android": "https://dc.lft.to/lastmile_qr_scan", "ios": "https://dc.lft.to/lastmile_qr_scan"}, "name": "3efbafda64c5079e9a7f29f2d26006af", "is_reserved": 0}, {"is_disabled": 0, "fusion_lon": 0.0, "fusion_lat": 0.0, "lat": 38.873416666666664, "type": "electric_bike", "lon": -77.01856616666667, "bike_id": "c09b996617d378136e99010ba59f754c", "rental_uris": {"android": "https://dc.lft.to/lastmile_qr_scan", "ios": "https://dc.lft.to/lastmile_qr_scan"}, "name": "c09b996617d378136e99010ba59f754c", "is_reserved": 0}, {"is_disabled": 0, "fusion_lon": 0.0, "fusion_lat": 0.0, "lat": 38.964501, "type": "electric_bike", "lon": -76.97721916666667, "bike_id": "a84533c8bc2b0057f47e933f1c57671c", "rental_uris": {"android": "https://dc.lft.to/lastmile_qr_scan", "ios": "https://dc.lft.to/lastmile_qr_scan"}, "name": "a84533c8bc2b0057f47e933f1c57671c", "is_reserved": 0}, {"is_disabled": 0, "fusion_lon": 0.0, "fusion_lat": 0.0, "lat": 38.899091166666665, "type": "electric_scooter", "lon": -76.93388566666667, "bike_id": "660a99e988bf1a6e0faaee995033bcc9", "rental_uris": {"android": "https://dc.lft.to/lastmile_qr_scan", "ios": "https://dc.lft.to/lastmile_qr_scan"}, "name": "660a99e988bf1a6e0faaee995033bcc9", "is_reserved": 0}, {"is_disabled": 0, "fusion_lon": 0.0, "fusion_lat": 0.0, "lat": 39.030044333333336, "type": "electric_bike", "lon": -77.1065625, "bike_id": "9cc8bd4a605912f8bc079edf90edf024", "rental_uris": {"android": "https://dc.lft.to/lastmile_qr_scan", "ios": "https://dc.lft.to/lastmile_qr_scan"}, "name": "9cc8bd4a605912f8bc079edf90edf024", "is_reserved": 0}, {"is_disabled": 0, "fusion_lon": 0.0, "fusion_lat": 0.0, "lat": 38.8585215, "type": "electric_bike", "lon": -77.09748966666666, "bike_id": "c78ec17d2a9049d915d63c5925254b81", "rental_uris": {"android": "https://dc.lft.to/lastmile_qr_scan", "ios": "https://dc.lft.to/lastmile_qr_scan"}, "name": "c78ec17d2a9049d915d63c5925254b81", "is_reserved": 0}, {"is_disabled": 0, "fusion_lon": 0.0, "fusion_lat": 0.0, "lat": 38.911880333333336, "type": "electric_scooter", "lon": -77.01097316666667, "bike_id": "a269d83bc73f8c44116c7abe45632327", "rental_uris": {"android": "https://dc.lft.to/lastmile_qr_scan", "ios": "https://dc.lft.to/lastmile_qr_scan"}, "name": "a269d83bc73f8c44116c7abe45632327", "is_reserved": 0}, {"is_disabled": 0, "fusion_lon": 0.0, "fusion_lat": 0.0, "lat": 38.94274733333334, "type": "electric_scooter", "lon": -77.03258866666667, "bike_id": "2dce54161f92057f46a348d8ce439015", "rental_uris": {"android": "https://dc.lft.to/lastmile_qr_scan", "ios": "https://dc.lft.to/lastmile_qr_scan"}, "name": "2dce54161f92057f46a348d8ce439015", "is_reserved": 0}, {"is_disabled": 0, "fusion_lon": 0.0, "fusion_lat": 0.0, "lat": 38.91703966666667, "type": "electric_scooter", "lon": -77.02744816666667, "bike_id": "013719e4136d28d95f42cd8ae40a5924", "rental_uris": {"android": "https://dc.lft.to/lastmile_qr_scan", "ios": "https://dc.lft.to/lastmile_qr_scan"}, "name": "013719e4136d28d95f42cd8ae40a5924", "is_reserved": 0}, {"is_disabled": 0, "fusion_lon": 0.0, "fusion_lat": 0.0, "lat": 38.8429465, "type": "electric_scooter", "lon": -76.99948816666667, "bike_id": "358a2ee0ab3f2ff9754e563d5faf1fb3", "rental_uris": {"android": "https://dc.lft.to/lastmile_qr_scan", "ios": "https://dc.lft.to/lastmile_qr_scan"}, "name": "358a2ee0ab3f2ff9754e563d5faf1fb3", "is_reserved": 0}, {"is_disabled": 0, "fusion_lon": 0.0, "fusion_lat": 0.0, "lat": 38.9134515, "type": "electric_scooter", "lon": -77.03171183333333, "bike_id": "d818a7f07a459d133df5cc7a7eea0aa0", "rental_uris": {"android": "https://dc.lft.to/lastmile_qr_scan", "ios": "https://dc.lft.to/lastmile_qr_scan"}, "name": "d818a7f07a459d133df5cc7a7eea0aa0", "is_reserved": 0}, {"is_disabled": 0, "fusion_lon": 0.0, "fusion_lat": 0.0, "lat": 38.866258333333334, "type": "electric_bike", "lon": -76.94568516666666, "bike_id": "7fde00b61c654588971b4e8037e0892e", "rental_uris": {"android": "https://dc.lft.to/lastmile_qr_scan", "ios": "https://dc.lft.to/lastmile_qr_scan"}, "name": "7fde00b61c654588971b4e8037e0892e", "is_reserved": 0}, {"is_disabled": 0, "fusion_lon": 0.0, "fusion_lat": 0.0, "lat": 38.920232166666665, "type": "electric_scooter", "lon": -77.03125983333334, "bike_id": "def0bb468a83db1540ca57b2c23ff0ad", "rental_uris": {"android": "https://dc.lft.to/lastmile_qr_scan", "ios": "https://dc.lft.to/lastmile_qr_scan"}, "name": "def0bb468a83db1540ca57b2c23ff0ad", "is_reserved": 0}, {"is_disabled": 0, "fusion_lon": 0.0, "fusion_lat": 0.0, "lat": 38.8874455, "type": "electric_scooter", "lon": -77.016052, "bike_id": "4e0080cf3a6385bbd38d6d90e91b55a7", "rental_uris": {"android": "https://dc.lft.to/lastmile_qr_scan", "ios": "https://dc.lft.to/lastmile_qr_scan"}, "name": "4e0080cf3a6385bbd38d6d90e91b55a7", "is_reserved": 0}, {"is_disabled": 0, "fusion_lon": 0.0, "fusion_lat": 0.0, "lat": 38.9404045, "type": "electric_scooter", "lon": -77.0250365, "bike_id": "e60c83e6fe78e0ff528e86c59a29e226", "rental_uris": {"android": "https://dc.lft.to/lastmile_qr_scan", "ios": "https://dc.lft.to/lastmile_qr_scan"}, "name": "e60c83e6fe78e0ff528e86c59a29e226", "is_reserved": 0}, {"is_disabled": 0, "fusion_lon": 0.0, "fusion_lat": 0.0, "lat": 38.912888333333335, "type": "electric_scooter", "lon": -76.986972, "bike_id": "26dc01b8554935fc3151a22a2e83daee", "rental_uris": {"android": "https://dc.lft.to/lastmile_qr_scan", "ios": "https://dc.lft.to/lastmile_qr_scan"}, "name": "26dc01b8554935fc3151a22a2e83daee", "is_reserved": 0}, {"is_disabled": 0, "fusion_lon": 0.0, "fusion_lat": 0.0, "lat": 38.897257, "type": "electric_scooter", "lon": -77.03073416666666, "bike_id": "cf964a9555e32bd62d4b3003e8f6513c", "rental_uris": {"android": "https://dc.lft.to/lastmile_qr_scan", "ios": "https://dc.lft.to/lastmile_qr_scan"}, "name": "cf964a9555e32bd62d4b3003e8f6513c", "is_reserved": 0}, {"is_disabled": 0, "fusion_lon": 0.0, "fusion_lat": 0.0, "lat": 38.83611233333333, "type": "electric_bike", "lon": -77.0038355, "bike_id": "9348491bceefc025c5461972263c677a", "rental_uris": {"android": "https://dc.lft.to/lastmile_qr_scan", "ios": "https://dc.lft.to/lastmile_qr_scan"}, "name": "9348491bceefc025c5461972263c677a", "is_reserved": 0}, {"is_disabled": 0, "fusion_lon": 0.0, "fusion_lat": 0.0, "lat": 38.89975783333333, "type": "electric_scooter", "lon": -77.02000916666667, "bike_id": "c8f9075d24f081476a48a9e6fc998287", "rental_uris": {"android": "https://dc.lft.to/lastmile_qr_scan", "ios": "https://dc.lft.to/lastmile_qr_scan"}, "name": "c8f9075d24f081476a48a9e6fc998287", "is_reserved": 0}, {"is_disabled": 0, "fusion_lon": 0.0, "fusion_lat": 0.0, "lat": 38.89210283333333, "type": "electric_scooter", "lon": -76.98797883333333, "bike_id": "9a7a79b022f508b9fb1e3a15eb21efa1", "rental_uris": {"android": "https://dc.lft.to/lastmile_qr_scan", "ios": "https://dc.lft.to/lastmile_qr_scan"}, "name": "9a7a79b022f508b9fb1e3a15eb21efa1", "is_reserved": 0}, {"is_disabled": 0, "fusion_lon": 0.0, "fusion_lat": 0.0, "lat": 38.8990845, "type": "electric_scooter", "lon": -76.93387483333333, "bike_id": "a84053a91bd0984543e6124495fecd5c", "rental_uris": {"android": "https://dc.lft.to/lastmile_qr_scan", "ios": "https://dc.lft.to/lastmile_qr_scan"}, "name": "a84053a91bd0984543e6124495fecd5c", "is_reserved": 0}, {"is_disabled": 0, "fusion_lon": 0.0, "fusion_lat": 0.0, "lat": 38.924190833333334, "type": "electric_scooter", "lon": -77.05615916666666, "bike_id": "e1c3ca5fdb1e959b962886e2362dd625", "rental_uris": {"android": "https://dc.lft.to/lastmile_qr_scan", "ios": "https://dc.lft.to/lastmile_qr_scan"}, "name": "e1c3ca5fdb1e959b962886e2362dd625", "is_reserved": 0}, {"is_disabled": 0, "fusion_lon": 0.0, "fusion_lat": 0.0, "lat": 38.897311333333334, "type": "electric_scooter", "lon": -77.0246325, "bike_id": "16e8a5feb7207c52a4714bd5d73b7178", "rental_uris": {"android": "https://dc.lft.to/lastmile_qr_scan", "ios": "https://dc.lft.to/lastmile_qr_scan"}, "name": "16e8a5feb7207c52a4714bd5d73b7178", "is_reserved": 0}, {"is_disabled": 0, "fusion_lon": 0.0, "fusion_lat": 0.0, "lat": 38.918524166666664, "type": "electric_scooter", "lon": -77.02973683333333, "bike_id": "b409273b7327805cf1cffcf726ba8110", "rental_uris": {"android": "https://dc.lft.to/lastmile_qr_scan", "ios": "https://dc.lft.to/lastmile_qr_scan"}, "name": "b409273b7327805cf1cffcf726ba8110", "is_reserved": 0}, {"is_disabled": 0, "fusion_lon": 0.0, "fusion_lat": 0.0, "lat": 38.91693316666667, "type": "electric_scooter", "lon": -77.02190566666667, "bike_id": "735768ddd9825f1f3b4121f8025f51fd", "rental_uris": {"android": "https://dc.lft.to/lastmile_qr_scan", "ios": "https://dc.lft.to/lastmile_qr_scan"}, "name": "735768ddd9825f1f3b4121f8025f51fd", "is_reserved": 0}, {"is_disabled": 0, "fusion_lon": 0.0, "fusion_lat": 0.0, "lat": 38.914736, "type": "electric_scooter", "lon": -77.04401283333333, "bike_id": "cb58545f59aaa35a3dae8c287fd3bc40", "rental_uris": {"android": "https://dc.lft.to/lastmile_qr_scan", "ios": "https://dc.lft.to/lastmile_qr_scan"}, "name": "cb58545f59aaa35a3dae8c287fd3bc40", "is_reserved": 0}, {"is_disabled": 0, "fusion_lon": 0.0, "fusion_lat": 0.0, "lat": 38.91188283333334, "type": "electric_scooter", "lon": -77.0392905, "bike_id": "a0fb5a22ef3cd9495427cfe0686d25bc", "rental_uris": {"android": "https://dc.lft.to/lastmile_qr_scan", "ios": "https://dc.lft.to/lastmile_qr_scan"}, "name": "a0fb5a22ef3cd9495427cfe0686d25bc", "is_reserved": 0}, {"is_disabled": 0, "fusion_lon": 0.0, "fusion_lat": 0.0, "lat": 38.9866925, "type": "electric_scooter", "lon": -77.02653183333334, "bike_id": "6cac21191fc27bcf7e18ea361c633dce", "rental_uris": {"android": "https://dc.lft.to/lastmile_qr_scan", "ios": "https://dc.lft.to/lastmile_qr_scan"}, "name": "6cac21191fc27bcf7e18ea361c633dce", "is_reserved": 0}, {"is_disabled": 0, "fusion_lon": 0.0, "fusion_lat": 0.0, "lat": 38.902452333333336, "type": "electric_scooter", "lon": -77.0343585, "bike_id": "ecc5f4f1cd8ee57c58ae69fd6eee4fb9", "rental_uris": {"android": "https://dc.lft.to/lastmile_qr_scan", "ios": "https://dc.lft.to/lastmile_qr_scan"}, "name": "ecc5f4f1cd8ee57c58ae69fd6eee4fb9", "is_reserved": 0}, {"is_disabled": 0, "fusion_lon": 0.0, "fusion_lat": 0.0, "lat": 38.96908966666667, "type": "electric_bike", "lon": -77.02583, "bike_id": "e940e8e04c5e6eef4609b0be02855622", "rental_uris": {"android": "https://dc.lft.to/lastmile_qr_scan", "ios": "https://dc.lft.to/lastmile_qr_scan"}, "name": "e940e8e04c5e6eef4609b0be02855622", "is_reserved": 0}, {"is_disabled": 0, "fusion_lon": 0.0, "fusion_lat": 0.0, "lat": 38.92122066666667, "type": "electric_scooter", "lon": -77.01209933333334, "bike_id": "9bc1e6542028ada2c9a4cd6d2ad33a65", "rental_uris": {"android": "https://dc.lft.to/lastmile_qr_scan", "ios": "https://dc.lft.to/lastmile_qr_scan"}, "name": "9bc1e6542028ada2c9a4cd6d2ad33a65", "is_reserved": 0}, {"is_disabled": 0, "fusion_lon": 0.0, "fusion_lat": 0.0, "lat": 38.905942, "type": "electric_scooter", "lon": -77.03253183333334, "bike_id": "60a606891da595274224e5247cb9a56a", "rental_uris": {"android": "https://dc.lft.to/lastmile_qr_scan", "ios": "https://dc.lft.to/lastmile_qr_scan"}, "name": "60a606891da595274224e5247cb9a56a", "is_reserved": 0}, {"is_disabled": 0, "fusion_lon": 0.0, "fusion_lat": 0.0, "lat": 38.907507833333334, "type": "electric_scooter", "lon": -77.04491266666666, "bike_id": "4efe541ef55a515933ad419e3578db9f", "rental_uris": {"android": "https://dc.lft.to/lastmile_qr_scan", "ios": "https://dc.lft.to/lastmile_qr_scan"}, "name": "4efe541ef55a515933ad419e3578db9f", "is_reserved": 0}, {"is_disabled": 0, "fusion_lon": 0.0, "fusion_lat": 0.0, "lat": 38.930884, "type": "electric_scooter", "lon": -77.02540116666667, "bike_id": "5afd4d733ec17397859988da06cf21e0", "rental_uris": {"android": "https://dc.lft.to/lastmile_qr_scan", "ios": "https://dc.lft.to/lastmile_qr_scan"}, "name": "5afd4d733ec17397859988da06cf21e0", "is_reserved": 0}, {"is_disabled": 0, "fusion_lon": 0.0, "fusion_lat": 0.0, "lat": 38.90054, "type": "electric_scooter", "lon": -76.98338533333333, "bike_id": "4aebabd63fe2b4b929d746af7cf63aaa", "rental_uris": {"android": "https://dc.lft.to/lastmile_qr_scan", "ios": "https://dc.lft.to/lastmile_qr_scan"}, "name": "4aebabd63fe2b4b929d746af7cf63aaa", "is_reserved": 0}, {"is_disabled": 0, "fusion_lon": 0.0, "fusion_lat": 0.0, "lat": 38.904933166666666, "type": "electric_scooter", "lon": -77.04890966666666, "bike_id": "5d876d67ad6e99ce9691bb69762bf2da", "rental_uris": {"android": "https://dc.lft.to/lastmile_qr_scan", "ios": "https://dc.lft.to/lastmile_qr_scan"}, "name": "5d876d67ad6e99ce9691bb69762bf2da", "is_reserved": 0}, {"is_disabled": 0, "fusion_lon": 0.0, "fusion_lat": 0.0, "lat": 38.90586166666667, "type": "electric_scooter", "lon": -77.04365566666667, "bike_id": "1ccaea6a7b9b4ce69a419b6d6579ccb5", "rental_uris": {"android": "https://dc.lft.to/lastmile_qr_scan", "ios": "https://dc.lft.to/lastmile_qr_scan"}, "name": "1ccaea6a7b9b4ce69a419b6d6579ccb5", "is_reserved": 0}, {"is_disabled": 0, "fusion_lon": 0.0, "fusion_lat": 0.0, "lat": 38.874979833333335, "type": "electric_scooter", "lon": -76.99797833333334, "bike_id": "f4e129f7aa96ea8c6621c24b5d11b0b1", "rental_uris": {"android": "https://dc.lft.to/lastmile_qr_scan", "ios": "https://dc.lft.to/lastmile_qr_scan"}, "name": "f4e129f7aa96ea8c6621c24b5d11b0b1", "is_reserved": 0}, {"is_disabled": 0, "fusion_lon": 0.0, "fusion_lat": 0.0, "lat": 38.89497816666667, "type": "electric_scooter", "lon": -77.00946616666667, "bike_id": "8d603d7f6ef089c81884c9d0b2b43d46", "rental_uris": {"android": "https://dc.lft.to/lastmile_qr_scan", "ios": "https://dc.lft.to/lastmile_qr_scan"}, "name": "8d603d7f6ef089c81884c9d0b2b43d46", "is_reserved": 0}, {"is_disabled": 0, "fusion_lon": 0.0, "fusion_lat": 0.0, "lat": 38.92997883333334, "type": "electric_scooter", "lon": -77.024041, "bike_id": "d9104cebe7fab8ae877dffefe9b03809", "rental_uris": {"android": "https://dc.lft.to/lastmile_qr_scan", "ios": "https://dc.lft.to/lastmile_qr_scan"}, "name": "d9104cebe7fab8ae877dffefe9b03809", "is_reserved": 0}, {"is_disabled": 0, "fusion_lon": 0.0, "fusion_lat": 0.0, "lat": 38.918736833333334, "type": "electric_bike", "lon": -76.96124133333333, "bike_id": "e14f8cbde33db412b95d215ec48b60ac", "rental_uris": {"android": "https://dc.lft.to/lastmile_qr_scan", "ios": "https://dc.lft.to/lastmile_qr_scan"}, "name": "e14f8cbde33db412b95d215ec48b60ac", "is_reserved": 0}, {"is_disabled": 0, "fusion_lon": 0.0, "fusion_lat": 0.0, "lat": 38.86584833333333, "type": "electric_scooter", "lon": -76.99027033333333, "bike_id": "0ed5208979841ee5aeb433a445bbf4f5", "rental_uris": {"android": "https://dc.lft.to/lastmile_qr_scan", "ios": "https://dc.lft.to/lastmile_qr_scan"}, "name": "0ed5208979841ee5aeb433a445bbf4f5", "is_reserved": 0}, {"is_disabled": 0, "fusion_lon": 0.0, "fusion_lat": 0.0, "lat": 38.901809666666665, "type": "electric_scooter", "lon": -76.92829383333333, "bike_id": "bcd627c439a3f063653f2525202a3514", "rental_uris": {"android": "https://dc.lft.to/lastmile_qr_scan", "ios": "https://dc.lft.to/lastmile_qr_scan"}, "name": "bcd627c439a3f063653f2525202a3514", "is_reserved": 0}, {"is_disabled": 0, "fusion_lon": 0.0, "fusion_lat": 0.0, "lat": 38.908251666666665, "type": "electric_scooter", "lon": -77.033853, "bike_id": "4765a33eb9ef3d578045e3a759dbbe07", "rental_uris": {"android": "https://dc.lft.to/lastmile_qr_scan", "ios": "https://dc.lft.to/lastmile_qr_scan"}, "name": "4765a33eb9ef3d578045e3a759dbbe07", "is_reserved": 0}, {"is_disabled": 0, "fusion_lon": 0.0, "fusion_lat": 0.0, "lat": 38.920677, "type": "electric_scooter", "lon": -77.0181535, "bike_id": "addb9d498be9962e85058f9b39601922", "rental_uris": {"android": "https://dc.lft.to/lastmile_qr_scan", "ios": "https://dc.lft.to/lastmile_qr_scan"}, "name": "addb9d498be9962e85058f9b39601922", "is_reserved": 0}, {"is_disabled": 0, "fusion_lon": 0.0, "fusion_lat": 0.0, "lat": 38.916991, "type": "electric_scooter", "lon": -77.02458766666666, "bike_id": "c744a2b0de0d2c546d538f78b2d81305", "rental_uris": {"android": "https://dc.lft.to/lastmile_qr_scan", "ios": "https://dc.lft.to/lastmile_qr_scan"}, "name": "c744a2b0de0d2c546d538f78b2d81305", "is_reserved": 0}, {"is_disabled": 0, "fusion_lon": 0.0, "fusion_lat": 0.0, "lat": 38.909710833333335, "type": "electric_scooter", "lon": -77.0320895, "bike_id": "f91b231249d46b815f2b4b3d20e4aaec", "rental_uris": {"android": "https://dc.lft.to/lastmile_qr_scan", "ios": "https://dc.lft.to/lastmile_qr_scan"}, "name": "f91b231249d46b815f2b4b3d20e4aaec", "is_reserved": 0}, {"is_disabled": 0, "fusion_lon": 0.0, "fusion_lat": 0.0, "lat": 38.918769, "type": "electric_scooter", "lon": -77.04426333333333, "bike_id": "0f5199f79ef7f57a290107f23e65ac02", "rental_uris": {"android": "https://dc.lft.to/lastmile_qr_scan", "ios": "https://dc.lft.to/lastmile_qr_scan"}, "name": "0f5199f79ef7f57a290107f23e65ac02", "is_reserved": 0}, {"is_disabled": 0, "fusion_lon": 0.0, "fusion_lat": 0.0, "lat": 38.91921716666667, "type": "electric_scooter", "lon": -77.03372633333333, "bike_id": "aacabfb900028d9fdc1d678afa1a7548", "rental_uris": {"android": "https://dc.lft.to/lastmile_qr_scan", "ios": "https://dc.lft.to/lastmile_qr_scan"}, "name": "aacabfb900028d9fdc1d678afa1a7548", "is_reserved": 0}, {"is_disabled": 0, "fusion_lon": 0.0, "fusion_lat": 0.0, "lat": 38.9034855, "type": "electric_scooter", "lon": -77.026141, "bike_id": "453d03c2b1f27639bc93eae7630f8dd3", "rental_uris": {"android": "https://dc.lft.to/lastmile_qr_scan", "ios": "https://dc.lft.to/lastmile_qr_scan"}, "name": "453d03c2b1f27639bc93eae7630f8dd3", "is_reserved": 0}, {"is_disabled": 0, "fusion_lon": 0.0, "fusion_lat": 0.0, "lat": 38.8961805, "type": "electric_scooter", "lon": -76.996353, "bike_id": "eedf7308904ea089c7d4bff76beb35dd", "rental_uris": {"android": "https://dc.lft.to/lastmile_qr_scan", "ios": "https://dc.lft.to/lastmile_qr_scan"}, "name": "eedf7308904ea089c7d4bff76beb35dd", "is_reserved": 0}, {"is_disabled": 0, "fusion_lon": 0.0, "fusion_lat": 0.0, "lat": 38.90535, "type": "electric_scooter", "lon": -77.04662666666667, "bike_id": "cb7f20b46257e905e17631e8ef7c3928", "rental_uris": {"android": "https://dc.lft.to/lastmile_qr_scan", "ios": "https://dc.lft.to/lastmile_qr_scan"}, "name": "cb7f20b46257e905e17631e8ef7c3928", "is_reserved": 0}, {"is_disabled": 0, "fusion_lon": 0.0, "fusion_lat": 0.0, "lat": 38.889682666666666, "type": "electric_bike", "lon": -76.94865633333333, "bike_id": "4ba24b9ad31b52f2cf4441c811397d9d", "rental_uris": {"android": "https://dc.lft.to/lastmile_qr_scan", "ios": "https://dc.lft.to/lastmile_qr_scan"}, "name": "4ba24b9ad31b52f2cf4441c811397d9d", "is_reserved": 0}, {"is_disabled": 0, "fusion_lon": 0.0, "fusion_lat": 0.0, "lat": 38.90396233333333, "type": "electric_scooter", "lon": -77.02976416666667, "bike_id": "173fbf728e4cb2da50845d7b76459997", "rental_uris": {"android": "https://dc.lft.to/lastmile_qr_scan", "ios": "https://dc.lft.to/lastmile_qr_scan"}, "name": "173fbf728e4cb2da50845d7b76459997", "is_reserved": 0}, {"is_disabled": 0, "fusion_lon": 0.0, "fusion_lat": 0.0, "lat": 38.91957083333333, "type": "electric_scooter", "lon": -77.041604, "bike_id": "365f5cc1e45a9bb6c1a74ab12b1173f1", "rental_uris": {"android": "https://dc.lft.to/lastmile_qr_scan", "ios": "https://dc.lft.to/lastmile_qr_scan"}, "name": "365f5cc1e45a9bb6c1a74ab12b1173f1", "is_reserved": 0}, {"is_disabled": 0, "fusion_lon": 0.0, "fusion_lat": 0.0, "lat": 38.90786216666667, "type": "electric_scooter", "lon": -77.03266716666667, "bike_id": "52d5e59f3f1040de11b943f8d4c74b7c", "rental_uris": {"android": "https://dc.lft.to/lastmile_qr_scan", "ios": "https://dc.lft.to/lastmile_qr_scan"}, "name": "52d5e59f3f1040de11b943f8d4c74b7c", "is_reserved": 0}, {"is_disabled": 0, "fusion_lon": 0.0, "fusion_lat": 0.0, "lat": 38.92474683333333, "type": "electric_scooter", "lon": -77.03200933333333, "bike_id": "9a722ac3bbd4261551b165828b6312fc", "rental_uris": {"android": "https://dc.lft.to/lastmile_qr_scan", "ios": "https://dc.lft.to/lastmile_qr_scan"}, "name": "9a722ac3bbd4261551b165828b6312fc", "is_reserved": 0}, {"is_disabled": 0, "fusion_lon": 0.0, "fusion_lat": 0.0, "lat": 38.88822483333333, "type": "electric_bike", "lon": -77.127344, "bike_id": "1b879b8e35bc8461e7b4057c119bb402", "rental_uris": {"android": "https://dc.lft.to/lastmile_qr_scan", "ios": "https://dc.lft.to/lastmile_qr_scan"}, "name": "1b879b8e35bc8461e7b4057c119bb402", "is_reserved": 0}, {"is_disabled": 0, "fusion_lon": 0.0, "fusion_lat": 0.0, "lat": 38.907802833333335, "type": "electric_scooter", "lon": -77.03202766666666, "bike_id": "83979e62fee8af4840b186c36d5eb883", "rental_uris": {"android": "https://dc.lft.to/lastmile_qr_scan", "ios": "https://dc.lft.to/lastmile_qr_scan"}, "name": "83979e62fee8af4840b186c36d5eb883", "is_reserved": 0}, {"is_disabled": 0, "fusion_lon": 0.0, "fusion_lat": 0.0, "lat": 38.97577066666667, "type": "electric_bike", "lon": -76.964038, "bike_id": "5ec7e96c7ad3b871323f182293614737", "rental_uris": {"android": "https://dc.lft.to/lastmile_qr_scan", "ios": "https://dc.lft.to/lastmile_qr_scan"}, "name": "5ec7e96c7ad3b871323f182293614737", "is_reserved": 0}, {"is_disabled": 0, "fusion_lon": 0.0, "fusion_lat": 0.0, "lat": 38.990911, "type": "electric_bike", "lon": -76.87496383333334, "bike_id": "1690c5f859e2a9cc963c222c4dae5f42", "rental_uris": {"android": "https://dc.lft.to/lastmile_qr_scan", "ios": "https://dc.lft.to/lastmile_qr_scan"}, "name": "1690c5f859e2a9cc963c222c4dae5f42", "is_reserved": 0}, {"is_disabled": 0, "fusion_lon": 0.0, "fusion_lat": 0.0, "lat": 38.907144, "type": "electric_scooter", "lon": -77.02716133333334, "bike_id": "3c5805b3bc8b1d72962ecfb0e424f588", "rental_uris": {"android": "https://dc.lft.to/lastmile_qr_scan", "ios": "https://dc.lft.to/lastmile_qr_scan"}, "name": "3c5805b3bc8b1d72962ecfb0e424f588", "is_reserved": 0}, {"is_disabled": 0, "fusion_lon": 0.0, "fusion_lat": 0.0, "lat": 38.845119, "type": "electric_bike", "lon": -76.972125, "bike_id": "014be0fc52062bbf87383719e1e80766", "rental_uris": {"android": "https://dc.lft.to/lastmile_qr_scan", "ios": "https://dc.lft.to/lastmile_qr_scan"}, "name": "014be0fc52062bbf87383719e1e80766", "is_reserved": 0}, {"is_disabled": 0, "fusion_lon": 0.0, "fusion_lat": 0.0, "lat": 38.93627883333333, "type": "electric_scooter", "lon": -77.0246385, "bike_id": "216329e42c86f2280d0fd62948893125", "rental_uris": {"android": "https://dc.lft.to/lastmile_qr_scan", "ios": "https://dc.lft.to/lastmile_qr_scan"}, "name": "216329e42c86f2280d0fd62948893125", "is_reserved": 0}, {"is_disabled": 0, "fusion_lon": 0.0, "fusion_lat": 0.0, "lat": 38.91365866666666, "type": "electric_scooter", "lon": -77.039715, "bike_id": "bdf18ca06e640b782f5ba5788ba8a6c1", "rental_uris": {"android": "https://dc.lft.to/lastmile_qr_scan", "ios": "https://dc.lft.to/lastmile_qr_scan"}, "name": "bdf18ca06e640b782f5ba5788ba8a6c1", "is_reserved": 0}, {"is_disabled": 0, "fusion_lon": 0.0, "fusion_lat": 0.0, "lat": 38.93625633333333, "type": "electric_scooter", "lon": -77.0590505, "bike_id": "a057937057a9e7a7f1c5b1b5daca449f", "rental_uris": {"android": "https://dc.lft.to/lastmile_qr_scan", "ios": "https://dc.lft.to/lastmile_qr_scan"}, "name": "a057937057a9e7a7f1c5b1b5daca449f", "is_reserved": 0}, {"is_disabled": 0, "fusion_lon": 0.0, "fusion_lat": 0.0, "lat": 38.89042966666667, "type": "electric_scooter", "lon": -76.9524585, "bike_id": "be0e5ce723d5a419ccd060c7b431110e", "rental_uris": {"android": "https://dc.lft.to/lastmile_qr_scan", "ios": "https://dc.lft.to/lastmile_qr_scan"}, "name": "be0e5ce723d5a419ccd060c7b431110e", "is_reserved": 0}, {"is_disabled": 0, "fusion_lon": 0.0, "fusion_lat": 0.0, "lat": 38.9056855, "type": "electric_scooter", "lon": -77.04442616666667, "bike_id": "eccd96ca08b796988528ef2acecc3b2b", "rental_uris": {"android": "https://dc.lft.to/lastmile_qr_scan", "ios": "https://dc.lft.to/lastmile_qr_scan"}, "name": "eccd96ca08b796988528ef2acecc3b2b", "is_reserved": 0}, {"is_disabled": 0, "fusion_lon": 0.0, "fusion_lat": 0.0, "lat": 38.923844333333335, "type": "electric_bike", "lon": -77.0408015, "bike_id": "56d882a6cfb94d703b7796157c00a63e", "rental_uris": {"android": "https://dc.lft.to/lastmile_qr_scan", "ios": "https://dc.lft.to/lastmile_qr_scan"}, "name": "56d882a6cfb94d703b7796157c00a63e", "is_reserved": 0}, {"is_disabled": 0, "fusion_lon": 0.0, "fusion_lat": 0.0, "lat": 38.931787166666666, "type": "electric_scooter", "lon": -77.02347383333333, "bike_id": "38286ac3bc3bdad60a67d1f0ede53db7", "rental_uris": {"android": "https://dc.lft.to/lastmile_qr_scan", "ios": "https://dc.lft.to/lastmile_qr_scan"}, "name": "38286ac3bc3bdad60a67d1f0ede53db7", "is_reserved": 0}, {"is_disabled": 0, "fusion_lon": 0.0, "fusion_lat": 0.0, "lat": 38.928633833333336, "type": "electric_scooter", "lon": -77.013996, "bike_id": "10cc44fc5d3930342f67b5284d439555", "rental_uris": {"android": "https://dc.lft.to/lastmile_qr_scan", "ios": "https://dc.lft.to/lastmile_qr_scan"}, "name": "10cc44fc5d3930342f67b5284d439555", "is_reserved": 0}, {"is_disabled": 0, "fusion_lon": 0.0, "fusion_lat": 0.0, "lat": 38.90146216666667, "type": "electric_scooter", "lon": -77.02925833333333, "bike_id": "cc25d7aa5f1ea419ad25e18a49aef42d", "rental_uris": {"android": "https://dc.lft.to/lastmile_qr_scan", "ios": "https://dc.lft.to/lastmile_qr_scan"}, "name": "cc25d7aa5f1ea419ad25e18a49aef42d", "is_reserved": 0}, {"is_disabled": 0, "fusion_lon": 0.0, "fusion_lat": 0.0, "lat": 38.900438666666666, "type": "electric_scooter", "lon": -76.92269916666666, "bike_id": "95d60bddf6449f56b1ac1b12e2b11294", "rental_uris": {"android": "https://dc.lft.to/lastmile_qr_scan", "ios": "https://dc.lft.to/lastmile_qr_scan"}, "name": "95d60bddf6449f56b1ac1b12e2b11294", "is_reserved": 0}, {"is_disabled": 0, "fusion_lon": 0.0, "fusion_lat": 0.0, "lat": 38.93490633333333, "type": "electric_scooter", "lon": -77.07242933333333, "bike_id": "e7ea290ab4cdd38b1269918104c209bc", "rental_uris": {"android": "https://dc.lft.to/lastmile_qr_scan", "ios": "https://dc.lft.to/lastmile_qr_scan"}, "name": "e7ea290ab4cdd38b1269918104c209bc", "is_reserved": 0}, {"is_disabled": 0, "fusion_lon": 0.0, "fusion_lat": 0.0, "lat": 38.918292666666666, "type": "electric_scooter", "lon": -77.024234, "bike_id": "c7a2101c5f180a79b837ee7742f348c0", "rental_uris": {"android": "https://dc.lft.to/lastmile_qr_scan", "ios": "https://dc.lft.to/lastmile_qr_scan"}, "name": "c7a2101c5f180a79b837ee7742f348c0", "is_reserved": 0}, {"is_disabled": 0, "fusion_lon": 0.0, "fusion_lat": 0.0, "lat": 38.9368025, "type": "electric_scooter", "lon": -77.024653, "bike_id": "f4664179730fb315caea5284467fdbdb", "rental_uris": {"android": "https://dc.lft.to/lastmile_qr_scan", "ios": "https://dc.lft.to/lastmile_qr_scan"}, "name": "f4664179730fb315caea5284467fdbdb", "is_reserved": 0}, {"is_disabled": 0, "fusion_lon": 0.0, "fusion_lat": 0.0, "lat": 38.89672066666667, "type": "electric_scooter", "lon": -76.99785866666667, "bike_id": "dd105c912576cb06fbdc75e34eb0c422", "rental_uris": {"android": "https://dc.lft.to/lastmile_qr_scan", "ios": "https://dc.lft.to/lastmile_qr_scan"}, "name": "dd105c912576cb06fbdc75e34eb0c422", "is_reserved": 0}, {"is_disabled": 0, "fusion_lon": 0.0, "fusion_lat": 0.0, "lat": 38.8937565, "type": "electric_scooter", "lon": -76.949958, "bike_id": "de2017564e1a22b2726026e485e8e26e", "rental_uris": {"android": "https://dc.lft.to/lastmile_qr_scan", "ios": "https://dc.lft.to/lastmile_qr_scan"}, "name": "de2017564e1a22b2726026e485e8e26e", "is_reserved": 0}, {"is_disabled": 0, "fusion_lon": 0.0, "fusion_lat": 0.0, "lat": 38.927109, "type": "electric_scooter", "lon": -77.02329883333333, "bike_id": "7b6a8c0ff931e89eee4fec4d8cc50d71", "rental_uris": {"android": "https://dc.lft.to/lastmile_qr_scan", "ios": "https://dc.lft.to/lastmile_qr_scan"}, "name": "7b6a8c0ff931e89eee4fec4d8cc50d71", "is_reserved": 0}, {"is_disabled": 0, "fusion_lon": 0.0, "fusion_lat": 0.0, "lat": 38.92734216666667, "type": "electric_scooter", "lon": -77.02247583333333, "bike_id": "b792992b3c4738feb3808679a409b7e7", "rental_uris": {"android": "https://dc.lft.to/lastmile_qr_scan", "ios": "https://dc.lft.to/lastmile_qr_scan"}, "name": "b792992b3c4738feb3808679a409b7e7", "is_reserved": 0}, {"is_disabled": 0, "fusion_lon": 0.0, "fusion_lat": 0.0, "lat": 38.86135933333333, "type": "electric_scooter", "lon": -76.98532766666666, "bike_id": "046eeacb92262fad6b45b0ef769ea552", "rental_uris": {"android": "https://dc.lft.to/lastmile_qr_scan", "ios": "https://dc.lft.to/lastmile_qr_scan"}, "name": "046eeacb92262fad6b45b0ef769ea552", "is_reserved": 0}, {"is_disabled": 0, "fusion_lon": 0.0, "fusion_lat": 0.0, "lat": 38.914767, "type": "electric_scooter", "lon": -77.03198916666666, "bike_id": "32b9802931bb98acb69f5382d8470615", "rental_uris": {"android": "https://dc.lft.to/lastmile_qr_scan", "ios": "https://dc.lft.to/lastmile_qr_scan"}, "name": "32b9802931bb98acb69f5382d8470615", "is_reserved": 0}, {"is_disabled": 0, "fusion_lon": 0.0, "fusion_lat": 0.0, "lat": 38.92973683333334, "type": "electric_scooter", "lon": -77.02080283333333, "bike_id": "33e9dc2f9d5fc718240e1a9a41719503", "rental_uris": {"android": "https://dc.lft.to/lastmile_qr_scan", "ios": "https://dc.lft.to/lastmile_qr_scan"}, "name": "33e9dc2f9d5fc718240e1a9a41719503", "is_reserved": 0}, {"is_disabled": 0, "fusion_lon": 0.0, "fusion_lat": 0.0, "lat": 38.8652275, "type": "electric_scooter", "lon": -76.98968366666666, "bike_id": "10a4085db6c4596e7ff0f03b36c5e544", "rental_uris": {"android": "https://dc.lft.to/lastmile_qr_scan", "ios": "https://dc.lft.to/lastmile_qr_scan"}, "name": "10a4085db6c4596e7ff0f03b36c5e544", "is_reserved": 0}, {"is_disabled": 0, "fusion_lon": 0.0, "fusion_lat": 0.0, "lat": 38.9160635, "type": "electric_scooter", "lon": -77.03141283333333, "bike_id": "ff6974bbbb3279292ca6a9d659b5866a", "rental_uris": {"android": "https://dc.lft.to/lastmile_qr_scan", "ios": "https://dc.lft.to/lastmile_qr_scan"}, "name": "ff6974bbbb3279292ca6a9d659b5866a", "is_reserved": 0}, {"is_disabled": 0, "fusion_lon": 0.0, "fusion_lat": 0.0, "lat": 38.89603266666667, "type": "electric_scooter", "lon": -77.00931183333333, "bike_id": "72ffa7da505b767d49e8402e8fa6cc63", "rental_uris": {"android": "https://dc.lft.to/lastmile_qr_scan", "ios": "https://dc.lft.to/lastmile_qr_scan"}, "name": "72ffa7da505b767d49e8402e8fa6cc63", "is_reserved": 0}, {"is_disabled": 0, "fusion_lon": 0.0, "fusion_lat": 0.0, "lat": 38.90427483333333, "type": "electric_scooter", "lon": -77.02864866666667, "bike_id": "ece99d55517b5b999ccf5874caba8dc8", "rental_uris": {"android": "https://dc.lft.to/lastmile_qr_scan", "ios": "https://dc.lft.to/lastmile_qr_scan"}, "name": "ece99d55517b5b999ccf5874caba8dc8", "is_reserved": 0}, {"is_disabled": 0, "fusion_lon": 0.0, "fusion_lat": 0.0, "lat": 38.9016595, "type": "electric_scooter", "lon": -77.022798, "bike_id": "989a48a75c9383efcb7ef200af5f768c", "rental_uris": {"android": "https://dc.lft.to/lastmile_qr_scan", "ios": "https://dc.lft.to/lastmile_qr_scan"}, "name": "989a48a75c9383efcb7ef200af5f768c", "is_reserved": 0}, {"is_disabled": 0, "fusion_lon": 0.0, "fusion_lat": 0.0, "lat": 38.906816, "type": "electric_scooter", "lon": -76.979983, "bike_id": "d9d147fb958b001b0d66cb2767f5c0f2", "rental_uris": {"android": "https://dc.lft.to/lastmile_qr_scan", "ios": "https://dc.lft.to/lastmile_qr_scan"}, "name": "d9d147fb958b001b0d66cb2767f5c0f2", "is_reserved": 0}, {"is_disabled": 0, "fusion_lon": 0.0, "fusion_lat": 0.0, "lat": 38.910381666666666, "type": "electric_scooter", "lon": -77.04015183333334, "bike_id": "0db1ca74079f47bba7c65c04171828d4", "rental_uris": {"android": "https://dc.lft.to/lastmile_qr_scan", "ios": "https://dc.lft.to/lastmile_qr_scan"}, "name": "0db1ca74079f47bba7c65c04171828d4", "is_reserved": 0}, {"is_disabled": 0, "fusion_lon": 0.0, "fusion_lat": 0.0, "lat": 38.858066666666666, "type": "electric_scooter", "lon": -76.98655766666667, "bike_id": "f909800ae44a19f27723844290bb4ff6", "rental_uris": {"android": "https://dc.lft.to/lastmile_qr_scan", "ios": "https://dc.lft.to/lastmile_qr_scan"}, "name": "f909800ae44a19f27723844290bb4ff6", "is_reserved": 0}, {"is_disabled": 0, "fusion_lon": 0.0, "fusion_lat": 0.0, "lat": 38.94204, "type": "electric_scooter", "lon": -77.02590133333334, "bike_id": "468c2bfd9d47c635f5cab966df66955a", "rental_uris": {"android": "https://dc.lft.to/lastmile_qr_scan", "ios": "https://dc.lft.to/lastmile_qr_scan"}, "name": "468c2bfd9d47c635f5cab966df66955a", "is_reserved": 0}, {"is_disabled": 0, "fusion_lon": 0.0, "fusion_lat": 0.0, "lat": 38.9353065, "type": "electric_scooter", "lon": -77.05438366666667, "bike_id": "6dddcab0973d67c990a344baacabaecf", "rental_uris": {"android": "https://dc.lft.to/lastmile_qr_scan", "ios": "https://dc.lft.to/lastmile_qr_scan"}, "name": "6dddcab0973d67c990a344baacabaecf", "is_reserved": 0}, {"is_disabled": 0, "fusion_lon": 0.0, "fusion_lat": 0.0, "lat": 38.926144666666666, "type": "electric_scooter", "lon": -77.05706766666667, "bike_id": "684b4da9bf1a33b5828843aaf9c2cc3e", "rental_uris": {"android": "https://dc.lft.to/lastmile_qr_scan", "ios": "https://dc.lft.to/lastmile_qr_scan"}, "name": "684b4da9bf1a33b5828843aaf9c2cc3e", "is_reserved": 0}, {"is_disabled": 0, "fusion_lon": 0.0, "fusion_lat": 0.0, "lat": 38.9118435, "type": "electric_scooter", "lon": -77.035051, "bike_id": "75f6e4dc895d3881bd06f8c1f20f73d6", "rental_uris": {"android": "https://dc.lft.to/lastmile_qr_scan", "ios": "https://dc.lft.to/lastmile_qr_scan"}, "name": "75f6e4dc895d3881bd06f8c1f20f73d6", "is_reserved": 0}, {"is_disabled": 0, "fusion_lon": 0.0, "fusion_lat": 0.0, "lat": 38.9086555, "type": "electric_scooter", "lon": -77.03542116666667, "bike_id": "7f3ea00ef55fdb4e4b1256c7408a4134", "rental_uris": {"android": "https://dc.lft.to/lastmile_qr_scan", "ios": "https://dc.lft.to/lastmile_qr_scan"}, "name": "7f3ea00ef55fdb4e4b1256c7408a4134", "is_reserved": 0}, {"is_disabled": 0, "fusion_lon": 0.0, "fusion_lat": 0.0, "lat": 38.96098466666667, "type": "electric_scooter", "lon": -77.06897416666666, "bike_id": "bd63f0dbd12eb7756bf5cb73449d57ac", "rental_uris": {"android": "https://dc.lft.to/lastmile_qr_scan", "ios": "https://dc.lft.to/lastmile_qr_scan"}, "name": "bd63f0dbd12eb7756bf5cb73449d57ac", "is_reserved": 0}, {"is_disabled": 0, "fusion_lon": 0.0, "fusion_lat": 0.0, "lat": 38.92132066666667, "type": "electric_scooter", "lon": -77.04443983333333, "bike_id": "0ee9da7e65028f5705ef8baa409e2324", "rental_uris": {"android": "https://dc.lft.to/lastmile_qr_scan", "ios": "https://dc.lft.to/lastmile_qr_scan"}, "name": "0ee9da7e65028f5705ef8baa409e2324", "is_reserved": 0}, {"is_disabled": 0, "fusion_lon": 0.0, "fusion_lat": 0.0, "lat": 38.85781466666667, "type": "electric_bike", "lon": -76.98760183333333, "bike_id": "954b00d1485fb96b52eec4a13d5c6a96", "rental_uris": {"android": "https://dc.lft.to/lastmile_qr_scan", "ios": "https://dc.lft.to/lastmile_qr_scan"}, "name": "954b00d1485fb96b52eec4a13d5c6a96", "is_reserved": 0}, {"is_disabled": 0, "fusion_lon": 0.0, "fusion_lat": 0.0, "lat": 38.92065566666667, "type": "electric_scooter", "lon": -77.04207416666667, "bike_id": "fc85436eb76584bedabdea3ccc6f9a97", "rental_uris": {"android": "https://dc.lft.to/lastmile_qr_scan", "ios": "https://dc.lft.to/lastmile_qr_scan"}, "name": "fc85436eb76584bedabdea3ccc6f9a97", "is_reserved": 0}, {"is_disabled": 0, "fusion_lon": 0.0, "fusion_lat": 0.0, "lat": 38.9001015, "type": "electric_scooter", "lon": -77.03374066666667, "bike_id": "8c0f8bfb2fa7e4ce6e4d35fb72ab5d59", "rental_uris": {"android": "https://dc.lft.to/lastmile_qr_scan", "ios": "https://dc.lft.to/lastmile_qr_scan"}, "name": "8c0f8bfb2fa7e4ce6e4d35fb72ab5d59", "is_reserved": 0}, {"is_disabled": 0, "fusion_lon": 0.0, "fusion_lat": 0.0, "lat": 38.9433345, "type": "electric_bike", "lon": -77.01478166666666, "bike_id": "0e1e42b9066da6f32540bac8b4270b66", "rental_uris": {"android": "https://dc.lft.to/lastmile_qr_scan", "ios": "https://dc.lft.to/lastmile_qr_scan"}, "name": "0e1e42b9066da6f32540bac8b4270b66", "is_reserved": 0}, {"is_disabled": 0, "fusion_lon": 0.0, "fusion_lat": 0.0, "lat": 38.91772816666667, "type": "electric_scooter", "lon": -77.04151483333334, "bike_id": "468ced85bddb45e6e9836ff60f361dfd", "rental_uris": {"android": "https://dc.lft.to/lastmile_qr_scan", "ios": "https://dc.lft.to/lastmile_qr_scan"}, "name": "468ced85bddb45e6e9836ff60f361dfd", "is_reserved": 0}, {"is_disabled": 0, "fusion_lon": 0.0, "fusion_lat": 0.0, "lat": 38.905816333333334, "type": "electric_scooter", "lon": -77.05597583333333, "bike_id": "b367ce769ca75b04750eca3747cafb96", "rental_uris": {"android": "https://dc.lft.to/lastmile_qr_scan", "ios": "https://dc.lft.to/lastmile_qr_scan"}, "name": "b367ce769ca75b04750eca3747cafb96", "is_reserved": 0}, {"is_disabled": 0, "fusion_lon": 0.0, "fusion_lat": 0.0, "lat": 38.90458016666667, "type": "electric_scooter", "lon": -77.02398016666666, "bike_id": "30412fba36133889cd49f1acd2df57ee", "rental_uris": {"android": "https://dc.lft.to/lastmile_qr_scan", "ios": "https://dc.lft.to/lastmile_qr_scan"}, "name": "30412fba36133889cd49f1acd2df57ee", "is_reserved": 0}, {"is_disabled": 0, "fusion_lon": 0.0, "fusion_lat": 0.0, "lat": 38.852817, "type": "electric_bike", "lon": -76.98149983333333, "bike_id": "6606474fc4f0395e69c6038dd37a6122", "rental_uris": {"android": "https://dc.lft.to/lastmile_qr_scan", "ios": "https://dc.lft.to/lastmile_qr_scan"}, "name": "6606474fc4f0395e69c6038dd37a6122", "is_reserved": 0}, {"is_disabled": 0, "fusion_lon": 0.0, "fusion_lat": 0.0, "lat": 38.904732, "type": "electric_bike", "lon": -76.92951083333334, "bike_id": "6f79cfccaf2e03eeeef55565894e22ba", "rental_uris": {"android": "https://dc.lft.to/lastmile_qr_scan", "ios": "https://dc.lft.to/lastmile_qr_scan"}, "name": "6f79cfccaf2e03eeeef55565894e22ba", "is_reserved": 0}, {"is_disabled": 0, "fusion_lon": 0.0, "fusion_lat": 0.0, "lat": 38.90410516666667, "type": "electric_scooter", "lon": -77.02216316666667, "bike_id": "7d5acdc2027e7041c68b82a15b429b96", "rental_uris": {"android": "https://dc.lft.to/lastmile_qr_scan", "ios": "https://dc.lft.to/lastmile_qr_scan"}, "name": "7d5acdc2027e7041c68b82a15b429b96", "is_reserved": 0}, {"is_disabled": 0, "fusion_lon": 0.0, "fusion_lat": 0.0, "lat": 39.000214666666665, "type": "electric_bike", "lon": -76.8728415, "bike_id": "bc70130f4a0c39a7dd2d98a67b2deaf7", "rental_uris": {"android": "https://dc.lft.to/lastmile_qr_scan", "ios": "https://dc.lft.to/lastmile_qr_scan"}, "name": "bc70130f4a0c39a7dd2d98a67b2deaf7", "is_reserved": 0}, {"is_disabled": 0, "fusion_lon": 0.0, "fusion_lat": 0.0, "lat": 38.912659166666664, "type": "electric_scooter", "lon": -77.0314735, "bike_id": "644b0fb4e31d5edebf33b75bbeb580c3", "rental_uris": {"android": "https://dc.lft.to/lastmile_qr_scan", "ios": "https://dc.lft.to/lastmile_qr_scan"}, "name": "644b0fb4e31d5edebf33b75bbeb580c3", "is_reserved": 0}, {"is_disabled": 0, "fusion_lon": 0.0, "fusion_lat": 0.0, "lat": 38.82870116666667, "type": "electric_bike", "lon": -77.112231, "bike_id": "8043265ef064cf81b7bbe5ee821a1d1a", "rental_uris": {"android": "https://dc.lft.to/lastmile_qr_scan", "ios": "https://dc.lft.to/lastmile_qr_scan"}, "name": "8043265ef064cf81b7bbe5ee821a1d1a", "is_reserved": 0}, {"is_disabled": 0, "fusion_lon": 0.0, "fusion_lat": 0.0, "lat": 38.90593333333333, "type": "electric_scooter", "lon": -77.0706395, "bike_id": "6f6d03d47f266ba0592c962506e0a897", "rental_uris": {"android": "https://dc.lft.to/lastmile_qr_scan", "ios": "https://dc.lft.to/lastmile_qr_scan"}, "name": "6f6d03d47f266ba0592c962506e0a897", "is_reserved": 0}, {"is_disabled": 0, "fusion_lon": 0.0, "fusion_lat": 0.0, "lat": 38.91722583333333, "type": "electric_scooter", "lon": -77.09810266666666, "bike_id": "718d3b056cd5db9bfef4728facd15c93", "rental_uris": {"android": "https://dc.lft.to/lastmile_qr_scan", "ios": "https://dc.lft.to/lastmile_qr_scan"}, "name": "718d3b056cd5db9bfef4728facd15c93", "is_reserved": 0}, {"is_disabled": 0, "fusion_lon": 0.0, "fusion_lat": 0.0, "lat": 39.0268645, "type": "electric_bike", "lon": -77.125984, "bike_id": "89e46d1b70065186284f22f3c4d7b239", "rental_uris": {"android": "https://dc.lft.to/lastmile_qr_scan", "ios": "https://dc.lft.to/lastmile_qr_scan"}, "name": "89e46d1b70065186284f22f3c4d7b239", "is_reserved": 0}, {"is_disabled": 0, "fusion_lon": 0.0, "fusion_lat": 0.0, "lat": 38.88977383333334, "type": "electric_scooter", "lon": -77.0024385, "bike_id": "776dbdcbbdec2b6be4f3551061d88acb", "rental_uris": {"android": "https://dc.lft.to/lastmile_qr_scan", "ios": "https://dc.lft.to/lastmile_qr_scan"}, "name": "776dbdcbbdec2b6be4f3551061d88acb", "is_reserved": 0}, {"is_disabled": 0, "fusion_lon": 0.0, "fusion_lat": 0.0, "lat": 38.914218, "type": "electric_scooter", "lon": -77.042837, "bike_id": "7a602622275ec4ba47554546cdcb3d62", "rental_uris": {"android": "https://dc.lft.to/lastmile_qr_scan", "ios": "https://dc.lft.to/lastmile_qr_scan"}, "name": "7a602622275ec4ba47554546cdcb3d62", "is_reserved": 0}, {"is_disabled": 0, "fusion_lon": 0.0, "fusion_lat": 0.0, "lat": 38.914537333333335, "type": "electric_scooter", "lon": -77.03212966666666, "bike_id": "184bc4116e34abed6d224ff419675b8c", "rental_uris": {"android": "https://dc.lft.to/lastmile_qr_scan", "ios": "https://dc.lft.to/lastmile_qr_scan"}, "name": "184bc4116e34abed6d224ff419675b8c", "is_reserved": 0}, {"is_disabled": 0, "fusion_lon": 0.0, "fusion_lat": 0.0, "lat": 38.90636583333333, "type": "electric_scooter", "lon": -76.98568, "bike_id": "9f3fc7244cf4eb85955613ca1a06bcdc", "rental_uris": {"android": "https://dc.lft.to/lastmile_qr_scan", "ios": "https://dc.lft.to/lastmile_qr_scan"}, "name": "9f3fc7244cf4eb85955613ca1a06bcdc", "is_reserved": 0}, {"is_disabled": 0, "fusion_lon": 0.0, "fusion_lat": 0.0, "lat": 38.90139816666667, "type": "electric_scooter", "lon": -76.9896275, "bike_id": "3f658db732fb9dc3b14a509ffa530efc", "rental_uris": {"android": "https://dc.lft.to/lastmile_qr_scan", "ios": "https://dc.lft.to/lastmile_qr_scan"}, "name": "3f658db732fb9dc3b14a509ffa530efc", "is_reserved": 0}, {"is_disabled": 0, "fusion_lon": 0.0, "fusion_lat": 0.0, "lat": 38.897407666666666, "type": "electric_scooter", "lon": -77.02724266666667, "bike_id": "fa810e60c16e9f07bd9d838f24b3c94f", "rental_uris": {"android": "https://dc.lft.to/lastmile_qr_scan", "ios": "https://dc.lft.to/lastmile_qr_scan"}, "name": "fa810e60c16e9f07bd9d838f24b3c94f", "is_reserved": 0}, {"is_disabled": 0, "fusion_lon": 0.0, "fusion_lat": 0.0, "lat": 38.9319345, "type": "electric_bike", "lon": -77.2293855, "bike_id": "c84b19c2226ea4492b0cc59d9d1127dc", "rental_uris": {"android": "https://dc.lft.to/lastmile_qr_scan", "ios": "https://dc.lft.to/lastmile_qr_scan"}, "name": "c84b19c2226ea4492b0cc59d9d1127dc", "is_reserved": 0}, {"is_disabled": 0, "fusion_lon": 0.0, "fusion_lat": 0.0, "lat": 38.91163916666667, "type": "electric_scooter", "lon": -77.001993, "bike_id": "a5f95b622bda5a92a50876aeb405043d", "rental_uris": {"android": "https://dc.lft.to/lastmile_qr_scan", "ios": "https://dc.lft.to/lastmile_qr_scan"}, "name": "a5f95b622bda5a92a50876aeb405043d", "is_reserved": 0}, {"is_disabled": 0, "fusion_lon": 0.0, "fusion_lat": 0.0, "lat": 38.99254533333333, "type": "electric_bike", "lon": -77.04995416666667, "bike_id": "007366644350feef07264d8d0b039bed", "rental_uris": {"android": "https://dc.lft.to/lastmile_qr_scan", "ios": "https://dc.lft.to/lastmile_qr_scan"}, "name": "007366644350feef07264d8d0b039bed", "is_reserved": 0}, {"is_disabled": 0, "fusion_lon": 0.0, "fusion_lat": 0.0, "lat": 38.9507945, "type": "electric_scooter", "lon": -77.0287735, "bike_id": "3805dfb6bdeec9800f868e619a3ad8bf", "rental_uris": {"android": "https://dc.lft.to/lastmile_qr_scan", "ios": "https://dc.lft.to/lastmile_qr_scan"}, "name": "3805dfb6bdeec9800f868e619a3ad8bf", "is_reserved": 0}, {"is_disabled": 0, "fusion_lon": 0.0, "fusion_lat": 0.0, "lat": 38.9176665, "type": "electric_scooter", "lon": -77.03599866666667, "bike_id": "8b8bbb1370f4d382a10dbffea1f97e74", "rental_uris": {"android": "https://dc.lft.to/lastmile_qr_scan", "ios": "https://dc.lft.to/lastmile_qr_scan"}, "name": "8b8bbb1370f4d382a10dbffea1f97e74", "is_reserved": 0}, {"is_disabled": 0, "fusion_lon": 0.0, "fusion_lat": 0.0, "lat": 38.883753666666664, "type": "electric_scooter", "lon": -76.92648466666667, "bike_id": "ea0cb0ddb64ad438f3c107b013943bec", "rental_uris": {"android": "https://dc.lft.to/lastmile_qr_scan", "ios": "https://dc.lft.to/lastmile_qr_scan"}, "name": "ea0cb0ddb64ad438f3c107b013943bec", "is_reserved": 0}, {"is_disabled": 0, "fusion_lon": 0.0, "fusion_lat": 0.0, "lat": 38.91331133333333, "type": "electric_scooter", "lon": -77.04015083333333, "bike_id": "54f7d75923f441bd29e03d9e3d4a1dc0", "rental_uris": {"android": "https://dc.lft.to/lastmile_qr_scan", "ios": "https://dc.lft.to/lastmile_qr_scan"}, "name": "54f7d75923f441bd29e03d9e3d4a1dc0", "is_reserved": 0}, {"is_disabled": 0, "fusion_lon": 0.0, "fusion_lat": 0.0, "lat": 38.91876383333334, "type": "electric_scooter", "lon": -77.01594433333334, "bike_id": "e0f0ee9760071be73d39e66acde919a0", "rental_uris": {"android": "https://dc.lft.to/lastmile_qr_scan", "ios": "https://dc.lft.to/lastmile_qr_scan"}, "name": "e0f0ee9760071be73d39e66acde919a0", "is_reserved": 0}, {"is_disabled": 0, "fusion_lon": 0.0, "fusion_lat": 0.0, "lat": 38.8962205, "type": "electric_scooter", "lon": -76.95638483333333, "bike_id": "cc56f239bada61908f5a7b689efea17d", "rental_uris": {"android": "https://dc.lft.to/lastmile_qr_scan", "ios": "https://dc.lft.to/lastmile_qr_scan"}, "name": "cc56f239bada61908f5a7b689efea17d", "is_reserved": 0}, {"is_disabled": 0, "fusion_lon": 0.0, "fusion_lat": 0.0, "lat": 38.910472666666664, "type": "electric_scooter", "lon": -77.03850683333333, "bike_id": "bca913fb943f0699d9fd15f718261555", "rental_uris": {"android": "https://dc.lft.to/lastmile_qr_scan", "ios": "https://dc.lft.to/lastmile_qr_scan"}, "name": "bca913fb943f0699d9fd15f718261555", "is_reserved": 0}, {"is_disabled": 0, "fusion_lon": 0.0, "fusion_lat": 0.0, "lat": 38.990900333333336, "type": "electric_bike", "lon": -76.87495316666667, "bike_id": "0cb129f36a80085fde407b7f8f2f82cc", "rental_uris": {"android": "https://dc.lft.to/lastmile_qr_scan", "ios": "https://dc.lft.to/lastmile_qr_scan"}, "name": "0cb129f36a80085fde407b7f8f2f82cc", "is_reserved": 0}, {"is_disabled": 0, "fusion_lon": 0.0, "fusion_lat": 0.0, "lat": 38.917024, "type": "electric_scooter", "lon": -77.0107145, "bike_id": "a75c2f69cb9cc35446e94bd8ccebe209", "rental_uris": {"android": "https://dc.lft.to/lastmile_qr_scan", "ios": "https://dc.lft.to/lastmile_qr_scan"}, "name": "a75c2f69cb9cc35446e94bd8ccebe209", "is_reserved": 0}, {"is_disabled": 0, "fusion_lon": 0.0, "fusion_lat": 0.0, "lat": 38.927522333333336, "type": "electric_scooter", "lon": -77.01317633333333, "bike_id": "354d9db7425d2e6cc5334bd8347525f8", "rental_uris": {"android": "https://dc.lft.to/lastmile_qr_scan", "ios": "https://dc.lft.to/lastmile_qr_scan"}, "name": "354d9db7425d2e6cc5334bd8347525f8", "is_reserved": 0}, {"is_disabled": 0, "fusion_lon": 0.0, "fusion_lat": 0.0, "lat": 38.886021, "type": "electric_scooter", "lon": -77.02002683333333, "bike_id": "074d44a1c114e58a2d7c11262ea489fc", "rental_uris": {"android": "https://dc.lft.to/lastmile_qr_scan", "ios": "https://dc.lft.to/lastmile_qr_scan"}, "name": "074d44a1c114e58a2d7c11262ea489fc", "is_reserved": 0}, {"is_disabled": 0, "fusion_lon": 0.0, "fusion_lat": 0.0, "lat": 38.909706666666665, "type": "electric_scooter", "lon": -77.02659183333333, "bike_id": "a8dc5bac5fea9828e24f812e227cdd64", "rental_uris": {"android": "https://dc.lft.to/lastmile_qr_scan", "ios": "https://dc.lft.to/lastmile_qr_scan"}, "name": "a8dc5bac5fea9828e24f812e227cdd64", "is_reserved": 0}, {"is_disabled": 0, "fusion_lon": 0.0, "fusion_lat": 0.0, "lat": 38.92689883333333, "type": "electric_scooter", "lon": -77.03739233333333, "bike_id": "0495c13b1f1581a4400dd3182113f13f", "rental_uris": {"android": "https://dc.lft.to/lastmile_qr_scan", "ios": "https://dc.lft.to/lastmile_qr_scan"}, "name": "0495c13b1f1581a4400dd3182113f13f", "is_reserved": 0}, {"is_disabled": 0, "fusion_lon": 0.0, "fusion_lat": 0.0, "lat": 38.90353316666667, "type": "electric_scooter", "lon": -77.02924716666666, "bike_id": "7b28ecfde3e5b910dc294ca2fe097904", "rental_uris": {"android": "https://dc.lft.to/lastmile_qr_scan", "ios": "https://dc.lft.to/lastmile_qr_scan"}, "name": "7b28ecfde3e5b910dc294ca2fe097904", "is_reserved": 0}, {"is_disabled": 0, "fusion_lon": 0.0, "fusion_lat": 0.0, "lat": 38.99064166666667, "type": "electric_bike", "lon": -77.10029183333333, "bike_id": "b1a54ad14f933ff26365e8b93396d787", "rental_uris": {"android": "https://dc.lft.to/lastmile_qr_scan", "ios": "https://dc.lft.to/lastmile_qr_scan"}, "name": "b1a54ad14f933ff26365e8b93396d787", "is_reserved": 0}, {"is_disabled": 0, "fusion_lon": 0.0, "fusion_lat": 0.0, "lat": 38.9097685, "type": "electric_scooter", "lon": -77.06758666666667, "bike_id": "37fb9b3288085d0fe99b3765d9716628", "rental_uris": {"android": "https://dc.lft.to/lastmile_qr_scan", "ios": "https://dc.lft.to/lastmile_qr_scan"}, "name": "37fb9b3288085d0fe99b3765d9716628", "is_reserved": 0}, {"is_disabled": 0, "fusion_lon": 0.0, "fusion_lat": 0.0, "lat": 38.86360233333333, "type": "electric_scooter", "lon": -76.99069916666667, "bike_id": "a928d69a1b2115d5ab254b4594148f33", "rental_uris": {"android": "https://dc.lft.to/lastmile_qr_scan", "ios": "https://dc.lft.to/lastmile_qr_scan"}, "name": "a928d69a1b2115d5ab254b4594148f33", "is_reserved": 0}, {"is_disabled": 0, "fusion_lon": 0.0, "fusion_lat": 0.0, "lat": 38.905319, "type": "electric_scooter", "lon": -77.05019533333333, "bike_id": "11c89188e3477a0b3c58f5a5bf94f16f", "rental_uris": {"android": "https://dc.lft.to/lastmile_qr_scan", "ios": "https://dc.lft.to/lastmile_qr_scan"}, "name": "11c89188e3477a0b3c58f5a5bf94f16f", "is_reserved": 0}, {"is_disabled": 0, "fusion_lon": 0.0, "fusion_lat": 0.0, "lat": 38.93641266666667, "type": "electric_bike", "lon": -76.95465633333333, "bike_id": "c12d57c8ca3d9df61fc18307d574fc93", "rental_uris": {"android": "https://dc.lft.to/lastmile_qr_scan", "ios": "https://dc.lft.to/lastmile_qr_scan"}, "name": "c12d57c8ca3d9df61fc18307d574fc93", "is_reserved": 0}, {"is_disabled": 0, "fusion_lon": 0.0, "fusion_lat": 0.0, "lat": 38.9457685, "type": "electric_bike", "lon": -76.98775216666667, "bike_id": "237cfbd80ecdd0716686bdc4eadc1f8b", "rental_uris": {"android": "https://dc.lft.to/lastmile_qr_scan", "ios": "https://dc.lft.to/lastmile_qr_scan"}, "name": "237cfbd80ecdd0716686bdc4eadc1f8b", "is_reserved": 0}, {"is_disabled": 0, "fusion_lon": 0.0, "fusion_lat": 0.0, "lat": 38.934593, "type": "electric_scooter", "lon": -77.03015716666667, "bike_id": "cbfb04875516323aaa4d9a6e8e17ca5f", "rental_uris": {"android": "https://dc.lft.to/lastmile_qr_scan", "ios": "https://dc.lft.to/lastmile_qr_scan"}, "name": "cbfb04875516323aaa4d9a6e8e17ca5f", "is_reserved": 0}, {"is_disabled": 0, "fusion_lon": 0.0, "fusion_lat": 0.0, "lat": 38.91815016666666, "type": "electric_scooter", "lon": -77.04004533333334, "bike_id": "d3fd6869865297607eae412fad32183f", "rental_uris": {"android": "https://dc.lft.to/lastmile_qr_scan", "ios": "https://dc.lft.to/lastmile_qr_scan"}, "name": "d3fd6869865297607eae412fad32183f", "is_reserved": 0}, {"is_disabled": 0, "fusion_lon": 0.0, "fusion_lat": 0.0, "lat": 38.90159366666666, "type": "electric_scooter", "lon": -77.0249635, "bike_id": "d1b43ae1875ae45a2d95020e55b475bc", "rental_uris": {"android": "https://dc.lft.to/lastmile_qr_scan", "ios": "https://dc.lft.to/lastmile_qr_scan"}, "name": "d1b43ae1875ae45a2d95020e55b475bc", "is_reserved": 0}, {"is_disabled": 0, "fusion_lon": 0.0, "fusion_lat": 0.0, "lat": 38.8239485, "type": "electric_scooter", "lon": -77.00698466666667, "bike_id": "36afbba2f1493148775d594d1acac4ff", "rental_uris": {"android": "https://dc.lft.to/lastmile_qr_scan", "ios": "https://dc.lft.to/lastmile_qr_scan"}, "name": "36afbba2f1493148775d594d1acac4ff", "is_reserved": 0}, {"is_disabled": 0, "fusion_lon": 0.0, "fusion_lat": 0.0, "lat": 38.96282566666667, "type": "electric_bike", "lon": -77.02872233333333, "bike_id": "74e9d0bbf0ecc9157605d921fe68f63d", "rental_uris": {"android": "https://dc.lft.to/lastmile_qr_scan", "ios": "https://dc.lft.to/lastmile_qr_scan"}, "name": "74e9d0bbf0ecc9157605d921fe68f63d", "is_reserved": 0}, {"is_disabled": 0, "fusion_lon": 0.0, "fusion_lat": 0.0, "lat": 38.910569, "type": "electric_scooter", "lon": -77.05446216666667, "bike_id": "2545b6833b349dc9c18e4eddefde26a8", "rental_uris": {"android": "https://dc.lft.to/lastmile_qr_scan", "ios": "https://dc.lft.to/lastmile_qr_scan"}, "name": "2545b6833b349dc9c18e4eddefde26a8", "is_reserved": 0}, {"is_disabled": 0, "fusion_lon": 0.0, "fusion_lat": 0.0, "lat": 38.89713533333333, "type": "electric_scooter", "lon": -77.0304955, "bike_id": "7f8d5466ac001b0c2fcb42249accbc9f", "rental_uris": {"android": "https://dc.lft.to/lastmile_qr_scan", "ios": "https://dc.lft.to/lastmile_qr_scan"}, "name": "7f8d5466ac001b0c2fcb42249accbc9f", "is_reserved": 0}, {"is_disabled": 0, "fusion_lon": 0.0, "fusion_lat": 0.0, "lat": 38.90466766666667, "type": "electric_scooter", "lon": -77.03555566666667, "bike_id": "80b47a29a6ed06b1434e5e01413d2f89", "rental_uris": {"android": "https://dc.lft.to/lastmile_qr_scan", "ios": "https://dc.lft.to/lastmile_qr_scan"}, "name": "80b47a29a6ed06b1434e5e01413d2f89", "is_reserved": 0}, {"is_disabled": 0, "fusion_lon": 0.0, "fusion_lat": 0.0, "lat": 38.8662205, "type": "electric_scooter", "lon": -76.9871605, "bike_id": "efc54f80dd8f31930256d18eb040b7a8", "rental_uris": {"android": "https://dc.lft.to/lastmile_qr_scan", "ios": "https://dc.lft.to/lastmile_qr_scan"}, "name": "efc54f80dd8f31930256d18eb040b7a8", "is_reserved": 0}, {"is_disabled": 0, "fusion_lon": 0.0, "fusion_lat": 0.0, "lat": 38.915536833333334, "type": "electric_scooter", "lon": -77.03400466666666, "bike_id": "b320e7ebd2d2a533dd1b44ae0c6ad7e1", "rental_uris": {"android": "https://dc.lft.to/lastmile_qr_scan", "ios": "https://dc.lft.to/lastmile_qr_scan"}, "name": "b320e7ebd2d2a533dd1b44ae0c6ad7e1", "is_reserved": 0}, {"is_disabled": 0, "fusion_lon": 0.0, "fusion_lat": 0.0, "lat": 38.901631333333334, "type": "electric_scooter", "lon": -77.02491066666667, "bike_id": "2b6f51fa082b53690f7c7387b9c01e2d", "rental_uris": {"android": "https://dc.lft.to/lastmile_qr_scan", "ios": "https://dc.lft.to/lastmile_qr_scan"}, "name": "2b6f51fa082b53690f7c7387b9c01e2d", "is_reserved": 0}, {"is_disabled": 0, "fusion_lon": 0.0, "fusion_lat": 0.0, "lat": 38.901905166666666, "type": "electric_scooter", "lon": -77.039055, "bike_id": "520bb349907d520c520af348f771d46d", "rental_uris": {"android": "https://dc.lft.to/lastmile_qr_scan", "ios": "https://dc.lft.to/lastmile_qr_scan"}, "name": "520bb349907d520c520af348f771d46d", "is_reserved": 0}, {"is_disabled": 0, "fusion_lon": 0.0, "fusion_lat": 0.0, "lat": 38.908942333333336, "type": "electric_scooter", "lon": -77.03248916666666, "bike_id": "d732cf8d5675035563375cef8f3c4088", "rental_uris": {"android": "https://dc.lft.to/lastmile_qr_scan", "ios": "https://dc.lft.to/lastmile_qr_scan"}, "name": "d732cf8d5675035563375cef8f3c4088", "is_reserved": 0}, {"is_disabled": 0, "fusion_lon": 0.0, "fusion_lat": 0.0, "lat": 38.845180166666665, "type": "electric_bike", "lon": -77.07798433333333, "bike_id": "ed6de603c87a96e2f2ef90fdd2d68608", "rental_uris": {"android": "https://dc.lft.to/lastmile_qr_scan", "ios": "https://dc.lft.to/lastmile_qr_scan"}, "name": "ed6de603c87a96e2f2ef90fdd2d68608", "is_reserved": 0}, {"is_disabled": 0, "fusion_lon": 0.0, "fusion_lat": 0.0, "lat": 38.90577116666667, "type": "electric_scooter", "lon": -77.04715233333333, "bike_id": "d9e5ba86f28fc3f2db128a0f28f29069", "rental_uris": {"android": "https://dc.lft.to/lastmile_qr_scan", "ios": "https://dc.lft.to/lastmile_qr_scan"}, "name": "d9e5ba86f28fc3f2db128a0f28f29069", "is_reserved": 0}, {"is_disabled": 0, "fusion_lon": 0.0, "fusion_lat": 0.0, "lat": 38.90682533333333, "type": "electric_scooter", "lon": -77.02692466666667, "bike_id": "31d9edd33c147acc970f4f89922eefba", "rental_uris": {"android": "https://dc.lft.to/lastmile_qr_scan", "ios": "https://dc.lft.to/lastmile_qr_scan"}, "name": "31d9edd33c147acc970f4f89922eefba", "is_reserved": 0}, {"is_disabled": 0, "fusion_lon": 0.0, "fusion_lat": 0.0, "lat": 38.9083825, "type": "electric_scooter", "lon": -76.99695683333333, "bike_id": "8d39dc4a698cf9571a8203ed3959738e", "rental_uris": {"android": "https://dc.lft.to/lastmile_qr_scan", "ios": "https://dc.lft.to/lastmile_qr_scan"}, "name": "8d39dc4a698cf9571a8203ed3959738e", "is_reserved": 0}, {"is_disabled": 0, "fusion_lon": 0.0, "fusion_lat": 0.0, "lat": 38.9409045, "type": "electric_scooter", "lon": -77.0381485, "bike_id": "41855e0f30917e10b7adb2c443836dc0", "rental_uris": {"android": "https://dc.lft.to/lastmile_qr_scan", "ios": "https://dc.lft.to/lastmile_qr_scan"}, "name": "41855e0f30917e10b7adb2c443836dc0", "is_reserved": 0}, {"is_disabled": 0, "fusion_lon": 0.0, "fusion_lat": 0.0, "lat": 38.9181995, "type": "electric_scooter", "lon": -77.03389733333333, "bike_id": "fe08d81997d4eb999a86e54a2566cc86", "rental_uris": {"android": "https://dc.lft.to/lastmile_qr_scan", "ios": "https://dc.lft.to/lastmile_qr_scan"}, "name": "fe08d81997d4eb999a86e54a2566cc86", "is_reserved": 0}, {"is_disabled": 0, "fusion_lon": 0.0, "fusion_lat": 0.0, "lat": 38.893526333333334, "type": "electric_scooter", "lon": -76.984746, "bike_id": "52b4a6e8ee7201449d1a265a6ae21f6a", "rental_uris": {"android": "https://dc.lft.to/lastmile_qr_scan", "ios": "https://dc.lft.to/lastmile_qr_scan"}, "name": "52b4a6e8ee7201449d1a265a6ae21f6a", "is_reserved": 0}, {"is_disabled": 0, "fusion_lon": 0.0, "fusion_lat": 0.0, "lat": 38.90135466666667, "type": "electric_scooter", "lon": -77.03989866666667, "bike_id": "c55cdfda3b196650479406a388613bf7", "rental_uris": {"android": "https://dc.lft.to/lastmile_qr_scan", "ios": "https://dc.lft.to/lastmile_qr_scan"}, "name": "c55cdfda3b196650479406a388613bf7", "is_reserved": 0}, {"is_disabled": 0, "fusion_lon": 0.0, "fusion_lat": 0.0, "lat": 38.968089166666665, "type": "electric_scooter", "lon": -77.0212135, "bike_id": "2e393d6bfa5221660fcaff33255492d7", "rental_uris": {"android": "https://dc.lft.to/lastmile_qr_scan", "ios": "https://dc.lft.to/lastmile_qr_scan"}, "name": "2e393d6bfa5221660fcaff33255492d7", "is_reserved": 0}, {"is_disabled": 0, "fusion_lon": 0.0, "fusion_lat": 0.0, "lat": 38.88024333333333, "type": "electric_scooter", "lon": -76.98242083333334, "bike_id": "3aab01b7ea7f6b52d30dc2d1f9a6b94d", "rental_uris": {"android": "https://dc.lft.to/lastmile_qr_scan", "ios": "https://dc.lft.to/lastmile_qr_scan"}, "name": "3aab01b7ea7f6b52d30dc2d1f9a6b94d", "is_reserved": 0}, {"is_disabled": 0, "fusion_lon": 0.0, "fusion_lat": 0.0, "lat": 38.97167683333333, "type": "electric_bike", "lon": -76.9802365, "bike_id": "3da06679a47ee53eeda39a8e2dd5b30d", "rental_uris": {"android": "https://dc.lft.to/lastmile_qr_scan", "ios": "https://dc.lft.to/lastmile_qr_scan"}, "name": "3da06679a47ee53eeda39a8e2dd5b30d", "is_reserved": 0}, {"is_disabled": 0, "fusion_lon": 0.0, "fusion_lat": 0.0, "lat": 38.88327016666667, "type": "electric_scooter", "lon": -77.01675233333333, "bike_id": "0bfd538cc5918d6685a8dd6c3fb0df2c", "rental_uris": {"android": "https://dc.lft.to/lastmile_qr_scan", "ios": "https://dc.lft.to/lastmile_qr_scan"}, "name": "0bfd538cc5918d6685a8dd6c3fb0df2c", "is_reserved": 0}, {"is_disabled": 0, "fusion_lon": 0.0, "fusion_lat": 0.0, "lat": 38.893697, "type": "electric_scooter", "lon": -76.97820983333334, "bike_id": "613dc64c473570738d6f171ece99a702", "rental_uris": {"android": "https://dc.lft.to/lastmile_qr_scan", "ios": "https://dc.lft.to/lastmile_qr_scan"}, "name": "613dc64c473570738d6f171ece99a702", "is_reserved": 0}, {"is_disabled": 0, "fusion_lon": 0.0, "fusion_lat": 0.0, "lat": 38.960396333333335, "type": "electric_bike", "lon": -76.92706983333333, "bike_id": "ba9b0d79828efd3a0817017fbd8554bd", "rental_uris": {"android": "https://dc.lft.to/lastmile_qr_scan", "ios": "https://dc.lft.to/lastmile_qr_scan"}, "name": "ba9b0d79828efd3a0817017fbd8554bd", "is_reserved": 0}, {"is_disabled": 0, "fusion_lon": 0.0, "fusion_lat": 0.0, "lat": 38.89310583333334, "type": "electric_scooter", "lon": -77.0220645, "bike_id": "1f37963eb8063fcc7fa7d39c306b0a27", "rental_uris": {"android": "https://dc.lft.to/lastmile_qr_scan", "ios": "https://dc.lft.to/lastmile_qr_scan"}, "name": "1f37963eb8063fcc7fa7d39c306b0a27", "is_reserved": 0}, {"is_disabled": 0, "fusion_lon": 0.0, "fusion_lat": 0.0, "lat": 38.89761566666667, "type": "electric_scooter", "lon": -77.02501416666667, "bike_id": "844e7d933b4fc3e7832a67be40ca26a4", "rental_uris": {"android": "https://dc.lft.to/lastmile_qr_scan", "ios": "https://dc.lft.to/lastmile_qr_scan"}, "name": "844e7d933b4fc3e7832a67be40ca26a4", "is_reserved": 0}, {"is_disabled": 0, "fusion_lon": 0.0, "fusion_lat": 0.0, "lat": 38.885315166666665, "type": "electric_scooter", "lon": -76.99803566666667, "bike_id": "137a7cc132d8d4dcac41a9d536e17627", "rental_uris": {"android": "https://dc.lft.to/lastmile_qr_scan", "ios": "https://dc.lft.to/lastmile_qr_scan"}, "name": "137a7cc132d8d4dcac41a9d536e17627", "is_reserved": 0}, {"is_disabled": 0, "fusion_lon": 0.0, "fusion_lat": 0.0, "lat": 38.9587985, "type": "electric_bike", "lon": -76.92484816666666, "bike_id": "3fbb6573d654178a376e42363ff67b20", "rental_uris": {"android": "https://dc.lft.to/lastmile_qr_scan", "ios": "https://dc.lft.to/lastmile_qr_scan"}, "name": "3fbb6573d654178a376e42363ff67b20", "is_reserved": 0}, {"is_disabled": 0, "fusion_lon": 0.0, "fusion_lat": 0.0, "lat": 38.9069975, "type": "electric_scooter", "lon": -77.06307333333334, "bike_id": "96b3c92781597e97d662e35f1af84c85", "rental_uris": {"android": "https://dc.lft.to/lastmile_qr_scan", "ios": "https://dc.lft.to/lastmile_qr_scan"}, "name": "96b3c92781597e97d662e35f1af84c85", "is_reserved": 0}, {"is_disabled": 0, "fusion_lon": 0.0, "fusion_lat": 0.0, "lat": 38.858676333333335, "type": "electric_scooter", "lon": -76.99024733333333, "bike_id": "9a1ac049ba3eb62fefe72ac77aa682ec", "rental_uris": {"android": "https://dc.lft.to/lastmile_qr_scan", "ios": "https://dc.lft.to/lastmile_qr_scan"}, "name": "9a1ac049ba3eb62fefe72ac77aa682ec", "is_reserved": 0}, {"is_disabled": 0, "fusion_lon": 0.0, "fusion_lat": 0.0, "lat": 38.8973195, "type": "electric_scooter", "lon": -77.025042, "bike_id": "8bc59a616ab10c171544f5181a3402f3", "rental_uris": {"android": "https://dc.lft.to/lastmile_qr_scan", "ios": "https://dc.lft.to/lastmile_qr_scan"}, "name": "8bc59a616ab10c171544f5181a3402f3", "is_reserved": 0}, {"is_disabled": 0, "fusion_lon": 0.0, "fusion_lat": 0.0, "lat": 38.920241833333336, "type": "electric_scooter", "lon": -77.04424416666667, "bike_id": "757ddf549df9c583b510aed4add84734", "rental_uris": {"android": "https://dc.lft.to/lastmile_qr_scan", "ios": "https://dc.lft.to/lastmile_qr_scan"}, "name": "757ddf549df9c583b510aed4add84734", "is_reserved": 0}, {"is_disabled": 0, "fusion_lon": 0.0, "fusion_lat": 0.0, "lat": 38.93101466666667, "type": "electric_scooter", "lon": -77.03814816666667, "bike_id": "489871fd10f1375ca5946316c3662ec8", "rental_uris": {"android": "https://dc.lft.to/lastmile_qr_scan", "ios": "https://dc.lft.to/lastmile_qr_scan"}, "name": "489871fd10f1375ca5946316c3662ec8", "is_reserved": 0}, {"is_disabled": 0, "fusion_lon": 0.0, "fusion_lat": 0.0, "lat": 38.91700383333333, "type": "electric_scooter", "lon": -77.011743, "bike_id": "3a5d1d6204dd2b46b085e680c8673aa8", "rental_uris": {"android": "https://dc.lft.to/lastmile_qr_scan", "ios": "https://dc.lft.to/lastmile_qr_scan"}, "name": "3a5d1d6204dd2b46b085e680c8673aa8", "is_reserved": 0}, {"is_disabled": 0, "fusion_lon": 0.0, "fusion_lat": 0.0, "lat": 38.907273333333336, "type": "electric_scooter", "lon": -77.00112716666666, "bike_id": "3efca88fab9f167d0f5b5766e053abc2", "rental_uris": {"android": "https://dc.lft.to/lastmile_qr_scan", "ios": "https://dc.lft.to/lastmile_qr_scan"}, "name": "3efca88fab9f167d0f5b5766e053abc2", "is_reserved": 0}, {"is_disabled": 0, "fusion_lon": 0.0, "fusion_lat": 0.0, "lat": 38.84933083333333, "type": "electric_bike", "lon": -77.10011716666666, "bike_id": "e414ca0a4157d3656933134701ba3278", "rental_uris": {"android": "https://dc.lft.to/lastmile_qr_scan", "ios": "https://dc.lft.to/lastmile_qr_scan"}, "name": "e414ca0a4157d3656933134701ba3278", "is_reserved": 0}, {"is_disabled": 0, "fusion_lon": 0.0, "fusion_lat": 0.0, "lat": 38.85647516666667, "type": "electric_bike", "lon": -77.08529133333333, "bike_id": "dc1098c116bcb9570e5440ea6dcaa214", "rental_uris": {"android": "https://dc.lft.to/lastmile_qr_scan", "ios": "https://dc.lft.to/lastmile_qr_scan"}, "name": "dc1098c116bcb9570e5440ea6dcaa214", "is_reserved": 0}, {"is_disabled": 0, "fusion_lon": 0.0, "fusion_lat": 0.0, "lat": 38.91444666666666, "type": "electric_scooter", "lon": -77.008954, "bike_id": "3b7cfccd084b57e5c9c22eedd7ae3615", "rental_uris": {"android": "https://dc.lft.to/lastmile_qr_scan", "ios": "https://dc.lft.to/lastmile_qr_scan"}, "name": "3b7cfccd084b57e5c9c22eedd7ae3615", "is_reserved": 0}, {"is_disabled": 0, "fusion_lon": 0.0, "fusion_lat": 0.0, "lat": 38.91314666666667, "type": "electric_scooter", "lon": -77.01435683333334, "bike_id": "c88f9b2b300124341954373799ab3551", "rental_uris": {"android": "https://dc.lft.to/lastmile_qr_scan", "ios": "https://dc.lft.to/lastmile_qr_scan"}, "name": "c88f9b2b300124341954373799ab3551", "is_reserved": 0}, {"is_disabled": 0, "fusion_lon": 0.0, "fusion_lat": 0.0, "lat": 38.870524333333336, "type": "electric_scooter", "lon": -76.98079516666667, "bike_id": "8247514eba2c47b4c6ec2e995766be55", "rental_uris": {"android": "https://dc.lft.to/lastmile_qr_scan", "ios": "https://dc.lft.to/lastmile_qr_scan"}, "name": "8247514eba2c47b4c6ec2e995766be55", "is_reserved": 0}, {"is_disabled": 0, "fusion_lon": 0.0, "fusion_lat": 0.0, "lat": 38.956387666666664, "type": "electric_scooter", "lon": -77.09101483333333, "bike_id": "6f6271ff659f1c3050b63046be35fbb9", "rental_uris": {"android": "https://dc.lft.to/lastmile_qr_scan", "ios": "https://dc.lft.to/lastmile_qr_scan"}, "name": "6f6271ff659f1c3050b63046be35fbb9", "is_reserved": 0}, {"is_disabled": 0, "fusion_lon": 0.0, "fusion_lat": 0.0, "lat": 38.8869545, "type": "electric_scooter", "lon": -76.9879705, "bike_id": "8b5d5c3cd02d087220a97b2ad308c89b", "rental_uris": {"android": "https://dc.lft.to/lastmile_qr_scan", "ios": "https://dc.lft.to/lastmile_qr_scan"}, "name": "8b5d5c3cd02d087220a97b2ad308c89b", "is_reserved": 0}, {"is_disabled": 0, "fusion_lon": 0.0, "fusion_lat": 0.0, "lat": 38.918953333333334, "type": "electric_scooter", "lon": -77.0240325, "bike_id": "bb36c5bf60cd64905e4ad9d66810f465", "rental_uris": {"android": "https://dc.lft.to/lastmile_qr_scan", "ios": "https://dc.lft.to/lastmile_qr_scan"}, "name": "bb36c5bf60cd64905e4ad9d66810f465", "is_reserved": 0}, {"is_disabled": 0, "fusion_lon": 0.0, "fusion_lat": 0.0, "lat": 38.899693666666664, "type": "electric_scooter", "lon": -77.02148333333334, "bike_id": "ed18eecbf830c264de05ad82db3a0422", "rental_uris": {"android": "https://dc.lft.to/lastmile_qr_scan", "ios": "https://dc.lft.to/lastmile_qr_scan"}, "name": "ed18eecbf830c264de05ad82db3a0422", "is_reserved": 0}, {"is_disabled": 0, "fusion_lon": 0.0, "fusion_lat": 0.0, "lat": 38.9169665, "type": "electric_scooter", "lon": -77.02741016666667, "bike_id": "b520e5cfc6f5c82f953e3ecc12ddaf5d", "rental_uris": {"android": "https://dc.lft.to/lastmile_qr_scan", "ios": "https://dc.lft.to/lastmile_qr_scan"}, "name": "b520e5cfc6f5c82f953e3ecc12ddaf5d", "is_reserved": 0}, {"is_disabled": 0, "fusion_lon": 0.0, "fusion_lat": 0.0, "lat": 38.90385233333333, "type": "electric_scooter", "lon": -77.0537235, "bike_id": "dab881e46655a20209230e48190423ac", "rental_uris": {"android": "https://dc.lft.to/lastmile_qr_scan", "ios": "https://dc.lft.to/lastmile_qr_scan"}, "name": "dab881e46655a20209230e48190423ac", "is_reserved": 0}, {"is_disabled": 0, "fusion_lon": 0.0, "fusion_lat": 0.0, "lat": 38.886076833333334, "type": "electric_scooter", "lon": -77.00576633333333, "bike_id": "653ea594c60237d34d75b145ee2a554f", "rental_uris": {"android": "https://dc.lft.to/lastmile_qr_scan", "ios": "https://dc.lft.to/lastmile_qr_scan"}, "name": "653ea594c60237d34d75b145ee2a554f", "is_reserved": 0}, {"is_disabled": 0, "fusion_lon": 0.0, "fusion_lat": 0.0, "lat": 38.94497483333333, "type": "electric_bike", "lon": -76.98668433333333, "bike_id": "9ae071d19e080f8d69742e5c07e68f55", "rental_uris": {"android": "https://dc.lft.to/lastmile_qr_scan", "ios": "https://dc.lft.to/lastmile_qr_scan"}, "name": "9ae071d19e080f8d69742e5c07e68f55", "is_reserved": 0}, {"is_disabled": 0, "fusion_lon": 0.0, "fusion_lat": 0.0, "lat": 38.91420316666667, "type": "electric_scooter", "lon": -77.02234433333334, "bike_id": "337e52f788114cc1740d7e207d8338cb", "rental_uris": {"android": "https://dc.lft.to/lastmile_qr_scan", "ios": "https://dc.lft.to/lastmile_qr_scan"}, "name": "337e52f788114cc1740d7e207d8338cb", "is_reserved": 0}, {"is_disabled": 0, "fusion_lon": 0.0, "fusion_lat": 0.0, "lat": 38.908398, "type": "electric_scooter", "lon": -77.026991, "bike_id": "fc25132df131b31a74d47c2134f766f2", "rental_uris": {"android": "https://dc.lft.to/lastmile_qr_scan", "ios": "https://dc.lft.to/lastmile_qr_scan"}, "name": "fc25132df131b31a74d47c2134f766f2", "is_reserved": 0}, {"is_disabled": 0, "fusion_lon": 0.0, "fusion_lat": 0.0, "lat": 38.91721833333333, "type": "electric_scooter", "lon": -77.03448083333333, "bike_id": "7a34e948939684f01c2a902080f7c364", "rental_uris": {"android": "https://dc.lft.to/lastmile_qr_scan", "ios": "https://dc.lft.to/lastmile_qr_scan"}, "name": "7a34e948939684f01c2a902080f7c364", "is_reserved": 0}, {"is_disabled": 0, "fusion_lon": 0.0, "fusion_lat": 0.0, "lat": 38.90219, "type": "electric_scooter", "lon": -77.0237635, "bike_id": "cfbd71670c4150ef45116509892aed39", "rental_uris": {"android": "https://dc.lft.to/lastmile_qr_scan", "ios": "https://dc.lft.to/lastmile_qr_scan"}, "name": "cfbd71670c4150ef45116509892aed39", "is_reserved": 0}, {"is_disabled": 0, "fusion_lon": 0.0, "fusion_lat": 0.0, "lat": 38.90964433333333, "type": "electric_scooter", "lon": -77.032381, "bike_id": "6bcb62f439ba38ee797df15cb81e0146", "rental_uris": {"android": "https://dc.lft.to/lastmile_qr_scan", "ios": "https://dc.lft.to/lastmile_qr_scan"}, "name": "6bcb62f439ba38ee797df15cb81e0146", "is_reserved": 0}, {"is_disabled": 0, "fusion_lon": 0.0, "fusion_lat": 0.0, "lat": 38.91253233333333, "type": "electric_scooter", "lon": -77.03186033333333, "bike_id": "563ea351856f921583de94d3e794a24a", "rental_uris": {"android": "https://dc.lft.to/lastmile_qr_scan", "ios": "https://dc.lft.to/lastmile_qr_scan"}, "name": "563ea351856f921583de94d3e794a24a", "is_reserved": 0}, {"is_disabled": 0, "fusion_lon": 0.0, "fusion_lat": 0.0, "lat": 38.9341135, "type": "electric_scooter", "lon": -77.04266816666667, "bike_id": "ac93ec105a39c6845370dfb24a9f8761", "rental_uris": {"android": "https://dc.lft.to/lastmile_qr_scan", "ios": "https://dc.lft.to/lastmile_qr_scan"}, "name": "ac93ec105a39c6845370dfb24a9f8761", "is_reserved": 0}, {"is_disabled": 0, "fusion_lon": 0.0, "fusion_lat": 0.0, "lat": 38.91913066666667, "type": "electric_scooter", "lon": -77.0249305, "bike_id": "8db0240f917fc3d5936e1fa4ebd082f7", "rental_uris": {"android": "https://dc.lft.to/lastmile_qr_scan", "ios": "https://dc.lft.to/lastmile_qr_scan"}, "name": "8db0240f917fc3d5936e1fa4ebd082f7", "is_reserved": 0}, {"is_disabled": 0, "fusion_lon": 0.0, "fusion_lat": 0.0, "lat": 38.9100625, "type": "electric_scooter", "lon": -77.02087183333333, "bike_id": "433ad73af0c5dc83f501c22306db9d06", "rental_uris": {"android": "https://dc.lft.to/lastmile_qr_scan", "ios": "https://dc.lft.to/lastmile_qr_scan"}, "name": "433ad73af0c5dc83f501c22306db9d06", "is_reserved": 0}, {"is_disabled": 0, "fusion_lon": 0.0, "fusion_lat": 0.0, "lat": 38.920905, "type": "electric_scooter", "lon": -77.0259235, "bike_id": "53ebbd35f165ced9242397c76c70c2a0", "rental_uris": {"android": "https://dc.lft.to/lastmile_qr_scan", "ios": "https://dc.lft.to/lastmile_qr_scan"}, "name": "53ebbd35f165ced9242397c76c70c2a0", "is_reserved": 0}, {"is_disabled": 0, "fusion_lon": 0.0, "fusion_lat": 0.0, "lat": 38.84685983333333, "type": "electric_scooter", "lon": -76.99623166666666, "bike_id": "ba7c65b77396954e5bb54b8ca9fe039a", "rental_uris": {"android": "https://dc.lft.to/lastmile_qr_scan", "ios": "https://dc.lft.to/lastmile_qr_scan"}, "name": "ba7c65b77396954e5bb54b8ca9fe039a", "is_reserved": 0}, {"is_disabled": 0, "fusion_lon": 0.0, "fusion_lat": 0.0, "lat": 38.8845425, "type": "electric_scooter", "lon": -76.95094866666666, "bike_id": "2ceadb5158e8a9a2934d5d503ab2a4ff", "rental_uris": {"android": "https://dc.lft.to/lastmile_qr_scan", "ios": "https://dc.lft.to/lastmile_qr_scan"}, "name": "2ceadb5158e8a9a2934d5d503ab2a4ff", "is_reserved": 0}, {"is_disabled": 0, "fusion_lon": 0.0, "fusion_lat": 0.0, "lat": 38.903062166666665, "type": "electric_scooter", "lon": -77.0215395, "bike_id": "5a05b4d433b9f00afa0a2d77e6d915af", "rental_uris": {"android": "https://dc.lft.to/lastmile_qr_scan", "ios": "https://dc.lft.to/lastmile_qr_scan"}, "name": "5a05b4d433b9f00afa0a2d77e6d915af", "is_reserved": 0}, {"is_disabled": 0, "fusion_lon": 0.0, "fusion_lat": 0.0, "lat": 38.89791316666667, "type": "electric_scooter", "lon": -77.04748433333333, "bike_id": "748852570d39c725812636cdf4cbc7d1", "rental_uris": {"android": "https://dc.lft.to/lastmile_qr_scan", "ios": "https://dc.lft.to/lastmile_qr_scan"}, "name": "748852570d39c725812636cdf4cbc7d1", "is_reserved": 0}, {"is_disabled": 0, "fusion_lon": 0.0, "fusion_lat": 0.0, "lat": 38.89581833333333, "type": "electric_bike", "lon": -76.97615316666666, "bike_id": "22912a211da30f16c690c2be5704457a", "rental_uris": {"android": "https://dc.lft.to/lastmile_qr_scan", "ios": "https://dc.lft.to/lastmile_qr_scan"}, "name": "22912a211da30f16c690c2be5704457a", "is_reserved": 0}, {"is_disabled": 0, "fusion_lon": 0.0, "fusion_lat": 0.0, "lat": 38.91949116666667, "type": "electric_scooter", "lon": -77.0249185, "bike_id": "f26e4ce75f1ec162a708f35525a8895f", "rental_uris": {"android": "https://dc.lft.to/lastmile_qr_scan", "ios": "https://dc.lft.to/lastmile_qr_scan"}, "name": "f26e4ce75f1ec162a708f35525a8895f", "is_reserved": 0}, {"is_disabled": 0, "fusion_lon": 0.0, "fusion_lat": 0.0, "lat": 38.9230865, "type": "electric_scooter", "lon": -77.03106583333333, "bike_id": "a650c9855522dc94c898e459ce2551c4", "rental_uris": {"android": "https://dc.lft.to/lastmile_qr_scan", "ios": "https://dc.lft.to/lastmile_qr_scan"}, "name": "a650c9855522dc94c898e459ce2551c4", "is_reserved": 0}, {"is_disabled": 0, "fusion_lon": 0.0, "fusion_lat": 0.0, "lat": 38.9655135, "type": "electric_bike", "lon": -77.02296016666666, "bike_id": "3323ce0534d17f79febd0b0b4eb78321", "rental_uris": {"android": "https://dc.lft.to/lastmile_qr_scan", "ios": "https://dc.lft.to/lastmile_qr_scan"}, "name": "3323ce0534d17f79febd0b0b4eb78321", "is_reserved": 0}, {"is_disabled": 0, "fusion_lon": 0.0, "fusion_lat": 0.0, "lat": 38.902378166666665, "type": "electric_scooter", "lon": -77.02423533333334, "bike_id": "0cba6aadf13f222246a3db69e194d6e0", "rental_uris": {"android": "https://dc.lft.to/lastmile_qr_scan", "ios": "https://dc.lft.to/lastmile_qr_scan"}, "name": "0cba6aadf13f222246a3db69e194d6e0", "is_reserved": 0}, {"is_disabled": 0, "fusion_lon": 0.0, "fusion_lat": 0.0, "lat": 38.90711666666667, "type": "electric_scooter", "lon": -77.027135, "bike_id": "fa01c776c68fa364073ac2c1bcbc73f2", "rental_uris": {"android": "https://dc.lft.to/lastmile_qr_scan", "ios": "https://dc.lft.to/lastmile_qr_scan"}, "name": "fa01c776c68fa364073ac2c1bcbc73f2", "is_reserved": 0}, {"is_disabled": 0, "fusion_lon": 0.0, "fusion_lat": 0.0, "lat": 38.934614333333336, "type": "electric_scooter", "lon": -77.0274365, "bike_id": "36bb619b83945fd7fd8ef03fbde5395a", "rental_uris": {"android": "https://dc.lft.to/lastmile_qr_scan", "ios": "https://dc.lft.to/lastmile_qr_scan"}, "name": "36bb619b83945fd7fd8ef03fbde5395a", "is_reserved": 0}, {"is_disabled": 0, "fusion_lon": 0.0, "fusion_lat": 0.0, "lat": 39.0038135, "type": "electric_bike", "lon": -77.012908, "bike_id": "3f6bfee6b16c670486fbb8e9f82f6f55", "rental_uris": {"android": "https://dc.lft.to/lastmile_qr_scan", "ios": "https://dc.lft.to/lastmile_qr_scan"}, "name": "3f6bfee6b16c670486fbb8e9f82f6f55", "is_reserved": 0}, {"is_disabled": 0, "fusion_lon": 0.0, "fusion_lat": 0.0, "lat": 38.903118166666665, "type": "electric_scooter", "lon": -77.0289065, "bike_id": "51baa7fcd30e666a07ba67eaa593cfe5", "rental_uris": {"android": "https://dc.lft.to/lastmile_qr_scan", "ios": "https://dc.lft.to/lastmile_qr_scan"}, "name": "51baa7fcd30e666a07ba67eaa593cfe5", "is_reserved": 0}, {"is_disabled": 0, "fusion_lon": 0.0, "fusion_lat": 0.0, "lat": 38.908348, "type": "electric_scooter", "lon": -77.04878666666667, "bike_id": "7f43f7542503c26505901af008ffd6d1", "rental_uris": {"android": "https://dc.lft.to/lastmile_qr_scan", "ios": "https://dc.lft.to/lastmile_qr_scan"}, "name": "7f43f7542503c26505901af008ffd6d1", "is_reserved": 0}, {"is_disabled": 0, "fusion_lon": 0.0, "fusion_lat": 0.0, "lat": 38.924016, "type": "electric_bike", "lon": -77.03215533333334, "bike_id": "24c8a36027a1e1ffe61e674c6e747fad", "rental_uris": {"android": "https://dc.lft.to/lastmile_qr_scan", "ios": "https://dc.lft.to/lastmile_qr_scan"}, "name": "24c8a36027a1e1ffe61e674c6e747fad", "is_reserved": 0}, {"is_disabled": 0, "fusion_lon": 0.0, "fusion_lat": 0.0, "lat": 38.89735733333333, "type": "electric_scooter", "lon": -77.05476783333333, "bike_id": "a9a0e513e162206b68fc024e66aaf6c1", "rental_uris": {"android": "https://dc.lft.to/lastmile_qr_scan", "ios": "https://dc.lft.to/lastmile_qr_scan"}, "name": "a9a0e513e162206b68fc024e66aaf6c1", "is_reserved": 0}, {"is_disabled": 0, "fusion_lon": 0.0, "fusion_lat": 0.0, "lat": 38.895242333333336, "type": "electric_scooter", "lon": -77.00917483333333, "bike_id": "854e66a8a4a9e0176f0b43ca25c8ba9b", "rental_uris": {"android": "https://dc.lft.to/lastmile_qr_scan", "ios": "https://dc.lft.to/lastmile_qr_scan"}, "name": "854e66a8a4a9e0176f0b43ca25c8ba9b", "is_reserved": 0}, {"is_disabled": 0, "fusion_lon": 0.0, "fusion_lat": 0.0, "lat": 38.86501466666667, "type": "electric_scooter", "lon": -76.989804, "bike_id": "a59cc8771b422ba3b1546f5ba855800a", "rental_uris": {"android": "https://dc.lft.to/lastmile_qr_scan", "ios": "https://dc.lft.to/lastmile_qr_scan"}, "name": "a59cc8771b422ba3b1546f5ba855800a", "is_reserved": 0}, {"is_disabled": 0, "fusion_lon": 0.0, "fusion_lat": 0.0, "lat": 38.925506166666665, "type": "electric_scooter", "lon": -77.0257185, "bike_id": "80c3e064d93e774e12ec3de9c219677d", "rental_uris": {"android": "https://dc.lft.to/lastmile_qr_scan", "ios": "https://dc.lft.to/lastmile_qr_scan"}, "name": "80c3e064d93e774e12ec3de9c219677d", "is_reserved": 0}, {"is_disabled": 0, "fusion_lon": 0.0, "fusion_lat": 0.0, "lat": 38.92826683333333, "type": "electric_scooter", "lon": -77.022551, "bike_id": "ad4e6e37a6f134d4b47c59531f5e7cb2", "rental_uris": {"android": "https://dc.lft.to/lastmile_qr_scan", "ios": "https://dc.lft.to/lastmile_qr_scan"}, "name": "ad4e6e37a6f134d4b47c59531f5e7cb2", "is_reserved": 0}, {"is_disabled": 0, "fusion_lon": 0.0, "fusion_lat": 0.0, "lat": 38.876652, "type": "electric_scooter", "lon": -76.93192533333334, "bike_id": "da94eec4215d8d00ae1ae19b1d319dfd", "rental_uris": {"android": "https://dc.lft.to/lastmile_qr_scan", "ios": "https://dc.lft.to/lastmile_qr_scan"}, "name": "da94eec4215d8d00ae1ae19b1d319dfd", "is_reserved": 0}, {"is_disabled": 0, "fusion_lon": 0.0, "fusion_lat": 0.0, "lat": 38.86577716666667, "type": "electric_scooter", "lon": -76.987206, "bike_id": "adc52137c6f1dc3ae44b9139f5338ac7", "rental_uris": {"android": "https://dc.lft.to/lastmile_qr_scan", "ios": "https://dc.lft.to/lastmile_qr_scan"}, "name": "adc52137c6f1dc3ae44b9139f5338ac7", "is_reserved": 0}, {"is_disabled": 0, "fusion_lon": 0.0, "fusion_lat": 0.0, "lat": 38.912667666666664, "type": "electric_scooter", "lon": -77.033616, "bike_id": "f57f6c772e00a10a2485532ab27c7d89", "rental_uris": {"android": "https://dc.lft.to/lastmile_qr_scan", "ios": "https://dc.lft.to/lastmile_qr_scan"}, "name": "f57f6c772e00a10a2485532ab27c7d89", "is_reserved": 0}, {"is_disabled": 0, "fusion_lon": 0.0, "fusion_lat": 0.0, "lat": 38.94972883333333, "type": "electric_scooter", "lon": -77.09443316666666, "bike_id": "b5cbb4505b75f134181221b7e92f2a50", "rental_uris": {"android": "https://dc.lft.to/lastmile_qr_scan", "ios": "https://dc.lft.to/lastmile_qr_scan"}, "name": "b5cbb4505b75f134181221b7e92f2a50", "is_reserved": 0}, {"is_disabled": 0, "fusion_lon": 0.0, "fusion_lat": 0.0, "lat": 38.87825183333333, "type": "electric_scooter", "lon": -76.96318283333333, "bike_id": "e591396b315fde36ba77c33157d6aa38", "rental_uris": {"android": "https://dc.lft.to/lastmile_qr_scan", "ios": "https://dc.lft.to/lastmile_qr_scan"}, "name": "e591396b315fde36ba77c33157d6aa38", "is_reserved": 0}, {"is_disabled": 0, "fusion_lon": 0.0, "fusion_lat": 0.0, "lat": 38.94544583333333, "type": "electric_bike", "lon": -77.34450283333334, "bike_id": "3e4bdfeade1018c3217463f136028d29", "rental_uris": {"android": "https://dc.lft.to/lastmile_qr_scan", "ios": "https://dc.lft.to/lastmile_qr_scan"}, "name": "3e4bdfeade1018c3217463f136028d29", "is_reserved": 0}, {"is_disabled": 0, "fusion_lon": 0.0, "fusion_lat": 0.0, "lat": 38.949245, "type": "electric_scooter", "lon": -77.022997, "bike_id": "5f0d7d7a6d08411b36949d6e0b7ecdfe", "rental_uris": {"android": "https://dc.lft.to/lastmile_qr_scan", "ios": "https://dc.lft.to/lastmile_qr_scan"}, "name": "5f0d7d7a6d08411b36949d6e0b7ecdfe", "is_reserved": 0}, {"is_disabled": 0, "fusion_lon": 0.0, "fusion_lat": 0.0, "lat": 38.88049933333333, "type": "electric_scooter", "lon": -77.00371283333334, "bike_id": "07020ecabfadb19922d19893f2b74f11", "rental_uris": {"android": "https://dc.lft.to/lastmile_qr_scan", "ios": "https://dc.lft.to/lastmile_qr_scan"}, "name": "07020ecabfadb19922d19893f2b74f11", "is_reserved": 0}, {"is_disabled": 0, "fusion_lon": 0.0, "fusion_lat": 0.0, "lat": 38.90005933333333, "type": "electric_scooter", "lon": -77.03976766666666, "bike_id": "99c83f399ef89f5d288e566d80a45102", "rental_uris": {"android": "https://dc.lft.to/lastmile_qr_scan", "ios": "https://dc.lft.to/lastmile_qr_scan"}, "name": "99c83f399ef89f5d288e566d80a45102", "is_reserved": 0}, {"is_disabled": 0, "fusion_lon": 0.0, "fusion_lat": 0.0, "lat": 38.90582466666667, "type": "electric_scooter", "lon": -77.04680333333333, "bike_id": "201914508a9346aebdd2cd162244674b", "rental_uris": {"android": "https://dc.lft.to/lastmile_qr_scan", "ios": "https://dc.lft.to/lastmile_qr_scan"}, "name": "201914508a9346aebdd2cd162244674b", "is_reserved": 0}, {"is_disabled": 0, "fusion_lon": 0.0, "fusion_lat": 0.0, "lat": 38.90532, "type": "electric_scooter", "lon": -77.03400583333334, "bike_id": "c637ded972fb8b9f148209cf4f851cb2", "rental_uris": {"android": "https://dc.lft.to/lastmile_qr_scan", "ios": "https://dc.lft.to/lastmile_qr_scan"}, "name": "c637ded972fb8b9f148209cf4f851cb2", "is_reserved": 0}, {"is_disabled": 0, "fusion_lon": 0.0, "fusion_lat": 0.0, "lat": 38.924077, "type": "electric_scooter", "lon": -77.05168766666667, "bike_id": "782505ea732fe9b72b86f268b8c3eec8", "rental_uris": {"android": "https://dc.lft.to/lastmile_qr_scan", "ios": "https://dc.lft.to/lastmile_qr_scan"}, "name": "782505ea732fe9b72b86f268b8c3eec8", "is_reserved": 0}, {"is_disabled": 0, "fusion_lon": 0.0, "fusion_lat": 0.0, "lat": 38.922953166666666, "type": "electric_scooter", "lon": -77.04466916666667, "bike_id": "a1723f5cddc638f90a60af71f08489ce", "rental_uris": {"android": "https://dc.lft.to/lastmile_qr_scan", "ios": "https://dc.lft.to/lastmile_qr_scan"}, "name": "a1723f5cddc638f90a60af71f08489ce", "is_reserved": 0}, {"is_disabled": 0, "fusion_lon": 0.0, "fusion_lat": 0.0, "lat": 38.924664166666666, "type": "electric_scooter", "lon": -77.07870416666667, "bike_id": "2800679b8d931e92e0a7145c298dcb5a", "rental_uris": {"android": "https://dc.lft.to/lastmile_qr_scan", "ios": "https://dc.lft.to/lastmile_qr_scan"}, "name": "2800679b8d931e92e0a7145c298dcb5a", "is_reserved": 0}, {"is_disabled": 0, "fusion_lon": 0.0, "fusion_lat": 0.0, "lat": 38.940653833333336, "type": "electric_scooter", "lon": -77.028737, "bike_id": "7aa2d1a03393a27cf473f29cb737c7f4", "rental_uris": {"android": "https://dc.lft.to/lastmile_qr_scan", "ios": "https://dc.lft.to/lastmile_qr_scan"}, "name": "7aa2d1a03393a27cf473f29cb737c7f4", "is_reserved": 0}, {"is_disabled": 0, "fusion_lon": 0.0, "fusion_lat": 0.0, "lat": 38.905777666666665, "type": "electric_scooter", "lon": -77.05594083333334, "bike_id": "d4cc2e8871d0e79b7ecad4f7dd41f45c", "rental_uris": {"android": "https://dc.lft.to/lastmile_qr_scan", "ios": "https://dc.lft.to/lastmile_qr_scan"}, "name": "d4cc2e8871d0e79b7ecad4f7dd41f45c", "is_reserved": 0}, {"is_disabled": 0, "fusion_lon": 0.0, "fusion_lat": 0.0, "lat": 38.89523966666667, "type": "electric_scooter", "lon": -77.04846433333333, "bike_id": "af5bb2e9503cd35b8872f2f35aada2c0", "rental_uris": {"android": "https://dc.lft.to/lastmile_qr_scan", "ios": "https://dc.lft.to/lastmile_qr_scan"}, "name": "af5bb2e9503cd35b8872f2f35aada2c0", "is_reserved": 0}, {"is_disabled": 0, "fusion_lon": 0.0, "fusion_lat": 0.0, "lat": 38.87759533333333, "type": "electric_bike", "lon": -76.97995566666667, "bike_id": "cbc9ef869ddc8821dcb3a08dddc944bc", "rental_uris": {"android": "https://dc.lft.to/lastmile_qr_scan", "ios": "https://dc.lft.to/lastmile_qr_scan"}, "name": "cbc9ef869ddc8821dcb3a08dddc944bc", "is_reserved": 0}, {"is_disabled": 0, "fusion_lon": 0.0, "fusion_lat": 0.0, "lat": 38.90287133333333, "type": "electric_scooter", "lon": -77.04904516666667, "bike_id": "557378fb2c95aa177a2df311f7f9a41a", "rental_uris": {"android": "https://dc.lft.to/lastmile_qr_scan", "ios": "https://dc.lft.to/lastmile_qr_scan"}, "name": "557378fb2c95aa177a2df311f7f9a41a", "is_reserved": 0}, {"is_disabled": 0, "fusion_lon": 0.0, "fusion_lat": 0.0, "lat": 38.92115883333334, "type": "electric_scooter", "lon": -77.017712, "bike_id": "ae4e0e7ef69dd8581fa0d445be52ddaf", "rental_uris": {"android": "https://dc.lft.to/lastmile_qr_scan", "ios": "https://dc.lft.to/lastmile_qr_scan"}, "name": "ae4e0e7ef69dd8581fa0d445be52ddaf", "is_reserved": 0}, {"is_disabled": 0, "fusion_lon": 0.0, "fusion_lat": 0.0, "lat": 38.89221666666667, "type": "electric_scooter", "lon": -77.02221316666666, "bike_id": "b488bafc2568f5ed13638038f7aa26ef", "rental_uris": {"android": "https://dc.lft.to/lastmile_qr_scan", "ios": "https://dc.lft.to/lastmile_qr_scan"}, "name": "b488bafc2568f5ed13638038f7aa26ef", "is_reserved": 0}, {"is_disabled": 0, "fusion_lon": 0.0, "fusion_lat": 0.0, "lat": 38.93972433333333, "type": "electric_bike", "lon": -77.36092116666667, "bike_id": "3c51926be5d3d9d7ff31239afaa7ff27", "rental_uris": {"android": "https://dc.lft.to/lastmile_qr_scan", "ios": "https://dc.lft.to/lastmile_qr_scan"}, "name": "3c51926be5d3d9d7ff31239afaa7ff27", "is_reserved": 0}, {"is_disabled": 0, "fusion_lon": 0.0, "fusion_lat": 0.0, "lat": 38.92572116666667, "type": "electric_scooter", "lon": -77.08064116666667, "bike_id": "7366e0b2496bad50262dba18412cd7d0", "rental_uris": {"android": "https://dc.lft.to/lastmile_qr_scan", "ios": "https://dc.lft.to/lastmile_qr_scan"}, "name": "7366e0b2496bad50262dba18412cd7d0", "is_reserved": 0}, {"is_disabled": 0, "fusion_lon": 0.0, "fusion_lat": 0.0, "lat": 38.89590183333333, "type": "electric_scooter", "lon": -77.02308133333334, "bike_id": "9d50eef86570ac12542d0a2b9d2db85b", "rental_uris": {"android": "https://dc.lft.to/lastmile_qr_scan", "ios": "https://dc.lft.to/lastmile_qr_scan"}, "name": "9d50eef86570ac12542d0a2b9d2db85b", "is_reserved": 0}, {"is_disabled": 0, "fusion_lon": 0.0, "fusion_lat": 0.0, "lat": 38.913566, "type": "electric_scooter", "lon": -77.03321783333334, "bike_id": "59f3dd4de4ef5818ca46b2074d7b4fa3", "rental_uris": {"android": "https://dc.lft.to/lastmile_qr_scan", "ios": "https://dc.lft.to/lastmile_qr_scan"}, "name": "59f3dd4de4ef5818ca46b2074d7b4fa3", "is_reserved": 0}, {"is_disabled": 0, "fusion_lon": 0.0, "fusion_lat": 0.0, "lat": 38.90545983333333, "type": "electric_scooter", "lon": -77.02208883333333, "bike_id": "47ec97d458e2ff0c3606539e7f93a2e3", "rental_uris": {"android": "https://dc.lft.to/lastmile_qr_scan", "ios": "https://dc.lft.to/lastmile_qr_scan"}, "name": "47ec97d458e2ff0c3606539e7f93a2e3", "is_reserved": 0}, {"is_disabled": 0, "fusion_lon": 0.0, "fusion_lat": 0.0, "lat": 38.94456066666667, "type": "electric_scooter", "lon": -77.06346816666667, "bike_id": "9b74b9c26703609308702fc43c3391e6", "rental_uris": {"android": "https://dc.lft.to/lastmile_qr_scan", "ios": "https://dc.lft.to/lastmile_qr_scan"}, "name": "9b74b9c26703609308702fc43c3391e6", "is_reserved": 0}, {"is_disabled": 0, "fusion_lon": 0.0, "fusion_lat": 0.0, "lat": 38.89737866666667, "type": "electric_scooter", "lon": -77.02475466666667, "bike_id": "ac1ff4962c92da45b1448254618527a1", "rental_uris": {"android": "https://dc.lft.to/lastmile_qr_scan", "ios": "https://dc.lft.to/lastmile_qr_scan"}, "name": "ac1ff4962c92da45b1448254618527a1", "is_reserved": 0}, {"is_disabled": 0, "fusion_lon": 0.0, "fusion_lat": 0.0, "lat": 38.902825166666666, "type": "electric_scooter", "lon": -77.03624766666667, "bike_id": "956f3d780dcbff942a64b8d073deb074", "rental_uris": {"android": "https://dc.lft.to/lastmile_qr_scan", "ios": "https://dc.lft.to/lastmile_qr_scan"}, "name": "956f3d780dcbff942a64b8d073deb074", "is_reserved": 0}, {"is_disabled": 0, "fusion_lon": 0.0, "fusion_lat": 0.0, "lat": 38.988297833333334, "type": "electric_bike", "lon": -76.98754033333333, "bike_id": "8a1760a0abc70605280e4f801fa8825a", "rental_uris": {"android": "https://dc.lft.to/lastmile_qr_scan", "ios": "https://dc.lft.to/lastmile_qr_scan"}, "name": "8a1760a0abc70605280e4f801fa8825a", "is_reserved": 0}, {"is_disabled": 0, "fusion_lon": 0.0, "fusion_lat": 0.0, "lat": 38.907007666666665, "type": "electric_scooter", "lon": -77.02700666666667, "bike_id": "fc516d81b6e857469d359157c44271cf", "rental_uris": {"android": "https://dc.lft.to/lastmile_qr_scan", "ios": "https://dc.lft.to/lastmile_qr_scan"}, "name": "fc516d81b6e857469d359157c44271cf", "is_reserved": 0}, {"is_disabled": 0, "fusion_lon": 0.0, "fusion_lat": 0.0, "lat": 38.920387833333336, "type": "electric_scooter", "lon": -77.02593183333333, "bike_id": "ca44dd63748e11496edaf49d54d7dd4f", "rental_uris": {"android": "https://dc.lft.to/lastmile_qr_scan", "ios": "https://dc.lft.to/lastmile_qr_scan"}, "name": "ca44dd63748e11496edaf49d54d7dd4f", "is_reserved": 0}, {"is_disabled": 0, "fusion_lon": 0.0, "fusion_lat": 0.0, "lat": 38.913507, "type": "electric_scooter", "lon": -77.041602, "bike_id": "0463caeb8a08e08d3b08ea8b0fe4d5cb", "rental_uris": {"android": "https://dc.lft.to/lastmile_qr_scan", "ios": "https://dc.lft.to/lastmile_qr_scan"}, "name": "0463caeb8a08e08d3b08ea8b0fe4d5cb", "is_reserved": 0}, {"is_disabled": 0, "fusion_lon": 0.0, "fusion_lat": 0.0, "lat": 38.88511366666667, "type": "electric_scooter", "lon": -76.9985495, "bike_id": "3a987454da8439f962207adab70b2e08", "rental_uris": {"android": "https://dc.lft.to/lastmile_qr_scan", "ios": "https://dc.lft.to/lastmile_qr_scan"}, "name": "3a987454da8439f962207adab70b2e08", "is_reserved": 0}, {"is_disabled": 0, "fusion_lon": 0.0, "fusion_lat": 0.0, "lat": 38.879360166666665, "type": "electric_scooter", "lon": -77.01342983333333, "bike_id": "9d3f6f16a3d173c95c6a7f7b9d54fc37", "rental_uris": {"android": "https://dc.lft.to/lastmile_qr_scan", "ios": "https://dc.lft.to/lastmile_qr_scan"}, "name": "9d3f6f16a3d173c95c6a7f7b9d54fc37", "is_reserved": 0}, {"is_disabled": 0, "fusion_lon": 0.0, "fusion_lat": 0.0, "lat": 38.949230166666666, "type": "electric_scooter", "lon": -77.019478, "bike_id": "160b1afcfef5ded56fb3c07f65c40e2a", "rental_uris": {"android": "https://dc.lft.to/lastmile_qr_scan", "ios": "https://dc.lft.to/lastmile_qr_scan"}, "name": "160b1afcfef5ded56fb3c07f65c40e2a", "is_reserved": 0}, {"is_disabled": 0, "fusion_lon": 0.0, "fusion_lat": 0.0, "lat": 38.90899533333334, "type": "electric_scooter", "lon": -76.99865833333334, "bike_id": "1b08ab66fc33908dfc931f150c66009e", "rental_uris": {"android": "https://dc.lft.to/lastmile_qr_scan", "ios": "https://dc.lft.to/lastmile_qr_scan"}, "name": "1b08ab66fc33908dfc931f150c66009e", "is_reserved": 0}, {"is_disabled": 0, "fusion_lon": 0.0, "fusion_lat": 0.0, "lat": 38.914088, "type": "electric_scooter", "lon": -77.03174033333333, "bike_id": "86b8a5905c8695c1fc6bbb5f3531cbcb", "rental_uris": {"android": "https://dc.lft.to/lastmile_qr_scan", "ios": "https://dc.lft.to/lastmile_qr_scan"}, "name": "86b8a5905c8695c1fc6bbb5f3531cbcb", "is_reserved": 0}, {"is_disabled": 0, "fusion_lon": 0.0, "fusion_lat": 0.0, "lat": 38.89432466666667, "type": "electric_scooter", "lon": -77.01102333333333, "bike_id": "e2c5f2d4657385730a0816a172ef2f3b", "rental_uris": {"android": "https://dc.lft.to/lastmile_qr_scan", "ios": "https://dc.lft.to/lastmile_qr_scan"}, "name": "e2c5f2d4657385730a0816a172ef2f3b", "is_reserved": 0}, {"is_disabled": 0, "fusion_lon": 0.0, "fusion_lat": 0.0, "lat": 38.972614, "type": "electric_bike", "lon": -76.99168916666666, "bike_id": "0f2e753014eb9e4b3710ac15cbed7d61", "rental_uris": {"android": "https://dc.lft.to/lastmile_qr_scan", "ios": "https://dc.lft.to/lastmile_qr_scan"}, "name": "0f2e753014eb9e4b3710ac15cbed7d61", "is_reserved": 0}, {"is_disabled": 0, "fusion_lon": 0.0, "fusion_lat": 0.0, "lat": 38.919304833333335, "type": "electric_scooter", "lon": -77.03391833333333, "bike_id": "84465cf9f2207c44386ebaa9d90577c8", "rental_uris": {"android": "https://dc.lft.to/lastmile_qr_scan", "ios": "https://dc.lft.to/lastmile_qr_scan"}, "name": "84465cf9f2207c44386ebaa9d90577c8", "is_reserved": 0}, {"is_disabled": 0, "fusion_lon": 0.0, "fusion_lat": 0.0, "lat": 38.917354, "type": "electric_scooter", "lon": -77.03641566666667, "bike_id": "9e66dc17844d5dd25983acce4861713d", "rental_uris": {"android": "https://dc.lft.to/lastmile_qr_scan", "ios": "https://dc.lft.to/lastmile_qr_scan"}, "name": "9e66dc17844d5dd25983acce4861713d", "is_reserved": 0}, {"is_disabled": 0, "fusion_lon": 0.0, "fusion_lat": 0.0, "lat": 38.839346166666665, "type": "electric_bike", "lon": -77.07901583333333, "bike_id": "e0f39b04ba99dd1fee90487ab0fbc55f", "rental_uris": {"android": "https://dc.lft.to/lastmile_qr_scan", "ios": "https://dc.lft.to/lastmile_qr_scan"}, "name": "e0f39b04ba99dd1fee90487ab0fbc55f", "is_reserved": 0}, {"is_disabled": 0, "fusion_lon": 0.0, "fusion_lat": 0.0, "lat": 38.897530333333336, "type": "electric_scooter", "lon": -77.0100425, "bike_id": "d384f8d7d78b64ded5ea65539f8bcfb2", "rental_uris": {"android": "https://dc.lft.to/lastmile_qr_scan", "ios": "https://dc.lft.to/lastmile_qr_scan"}, "name": "d384f8d7d78b64ded5ea65539f8bcfb2", "is_reserved": 0}, {"is_disabled": 0, "fusion_lon": 0.0, "fusion_lat": 0.0, "lat": 38.907300666666664, "type": "electric_scooter", "lon": -77.02482016666667, "bike_id": "3d63a1ff25372dbce90dce2116a129d5", "rental_uris": {"android": "https://dc.lft.to/lastmile_qr_scan", "ios": "https://dc.lft.to/lastmile_qr_scan"}, "name": "3d63a1ff25372dbce90dce2116a129d5", "is_reserved": 0}, {"is_disabled": 0, "fusion_lon": 0.0, "fusion_lat": 0.0, "lat": 38.93474233333333, "type": "electric_scooter", "lon": -77.0688225, "bike_id": "122defa4d6cb3121ef30f5457276ce7d", "rental_uris": {"android": "https://dc.lft.to/lastmile_qr_scan", "ios": "https://dc.lft.to/lastmile_qr_scan"}, "name": "122defa4d6cb3121ef30f5457276ce7d", "is_reserved": 0}, {"is_disabled": 0, "fusion_lon": 0.0, "fusion_lat": 0.0, "lat": 38.902371, "type": "electric_scooter", "lon": -77.03442016666666, "bike_id": "4a6fc8286c338fa8a7b59644ee3b2a48", "rental_uris": {"android": "https://dc.lft.to/lastmile_qr_scan", "ios": "https://dc.lft.to/lastmile_qr_scan"}, "name": "4a6fc8286c338fa8a7b59644ee3b2a48", "is_reserved": 0}, {"is_disabled": 0, "fusion_lon": 0.0, "fusion_lat": 0.0, "lat": 38.909507166666664, "type": "electric_scooter", "lon": -77.0344585, "bike_id": "bf1bcea76837512fe8ebbc9002b523fa", "rental_uris": {"android": "https://dc.lft.to/lastmile_qr_scan", "ios": "https://dc.lft.to/lastmile_qr_scan"}, "name": "bf1bcea76837512fe8ebbc9002b523fa", "is_reserved": 0}, {"is_disabled": 0, "fusion_lon": 0.0, "fusion_lat": 0.0, "lat": 38.91837683333333, "type": "electric_scooter", "lon": -77.07216633333333, "bike_id": "65ccf93c1b749d07ec2c44973c692546", "rental_uris": {"android": "https://dc.lft.to/lastmile_qr_scan", "ios": "https://dc.lft.to/lastmile_qr_scan"}, "name": "65ccf93c1b749d07ec2c44973c692546", "is_reserved": 0}, {"is_disabled": 0, "fusion_lon": 0.0, "fusion_lat": 0.0, "lat": 38.8886825, "type": "electric_scooter", "lon": -77.03994383333334, "bike_id": "a423cb6c40e95e4d8f33b095b7bc0f2a", "rental_uris": {"android": "https://dc.lft.to/lastmile_qr_scan", "ios": "https://dc.lft.to/lastmile_qr_scan"}, "name": "a423cb6c40e95e4d8f33b095b7bc0f2a", "is_reserved": 0},