{"data": {"bikes": [{"bike_id": "82e0eb556f9bc5e1bd0c9ddf3322c864", "lat": 38.8588745, "is_reserved": 0, "fusion_lat": 0.0, "rental_uris": {"android": "https://dc.lft.to/lastmile_qr_scan", "ios": "https://dc.lft.to/lastmile_qr_scan"}, "fusion_lon": 0.0, "name": "82e0eb556f9bc5e1bd0c9ddf3322c864", "lon": -76.99556066666666, "is_disabled": 0, "type": "electric_scooter"}, {"bike_id": "9a807f9d053c4ee10c474551f77ce1a1", "lat": 38.938851166666666, "is_reserved": 0, "fusion_lat": 0.0, "rental_uris": {"android": "https://dc.lft.to/lastmile_qr_scan", "ios": "https://dc.lft.to/lastmile_qr_scan"}, "fusion_lon": 0.0, "name": "9a807f9d053c4ee10c474551f77ce1a1", "lon": -77.0333275, "is_disabled": 0, "type": "electric_scooter"}, {"bike_id": "227e48569166f6200848d24f39968b7a", "lat": 38.901416833333336, "is_reserved": 0, "fusion_lat": 0.0, "rental_uris": {"android": "https://dc.lft.to/lastmile_qr_scan", "ios": "https://dc.lft.to/lastmile_qr_scan"}, "fusion_lon": 0.0, "name": "227e48569166f6200848d24f39968b7a", "lon": -77.02948866666667, "is_disabled": 0, "type": "electric_scooter"}, {"bike_id": "35b8389e42d36875dd6c9bf1b677944c", "lat": 38.8874335, "is_reserved": 0, "fusion_lat": 0.0, "rental_uris": {"android": "https://dc.lft.to/lastmile_qr_scan", "ios": "https://dc.lft.to/lastmile_qr_scan"}, "fusion_lon": 0.0, "name": "35b8389e42d36875dd6c9bf1b677944c", "lon": -77.03165033333333, "is_disabled": 0, "type": "electric_scooter"}, {"bike_id": "5a49d6d06c0e9d5137811d40b51a80cf", "lat": 38.93732033333333, "is_reserved": 0, "fusion_lat": 0.0, "rental_uris": {"android": "https://dc.lft.to/lastmile_qr_scan", "ios": "https://dc.lft.to/lastmile_qr_scan"}, "fusion_lon": 0.0, "name": "5a49d6d06c0e9d5137811d40b51a80cf", "lon": -77.03256683333333, "is_disabled": 0, "type": "electric_scooter"}, {"bike_id": "fed1866b15dfe2fdb7a4ac68c7a7e869", "lat": 38.929187666666664, "is_reserved": 0, "fusion_lat": 0.0, "rental_uris": {"android": "https://dc.lft.to/lastmile_qr_scan", "ios": "https://dc.lft.to/lastmile_qr_scan"}, "fusion_lon": 0.0, "name": "fed1866b15dfe2fdb7a4ac68c7a7e869", "lon": -77.02091616666667, "is_disabled": 0, "type": "electric_scooter"}, {"bike_id": "2dad77d9ab9629e146b13d5e79d6bd1e", "lat": 38.92467366666666, "is_reserved": 0, "fusion_lat": 0.0, "rental_uris": {"android": "https://dc.lft.to/lastmile_qr_scan", "ios": "https://dc.lft.to/lastmile_qr_scan"}, "fusion_lon": 0.0, "name": "2dad77d9ab9629e146b13d5e79d6bd1e", "lon": -77.052379, "is_disabled": 0, "type": "electric_scooter"}, {"bike_id": "3d92c7c7ee4537c661cbf80702a049dc", "lat": 38.908727166666665, "is_reserved": 0, "fusion_lat": 0.0, "rental_uris": {"android": "https://dc.lft.to/lastmile_qr_scan", "ios": "https://dc.lft.to/lastmile_qr_scan"}, "fusion_lon": 0.0, "name": "3d92c7c7ee4537c661cbf80702a049dc", "lon": -76.99808583333333, "is_disabled": 0, "type": "electric_scooter"}, {"bike_id": "22e4b5f8331ea3a1cc71dd78cbb42cf5", "lat": 38.92769366666667, "is_reserved": 0, "fusion_lat": 0.0, "rental_uris": {"android": "https://dc.lft.to/lastmile_qr_scan", "ios": "https://dc.lft.to/lastmile_qr_scan"}, "fusion_lon": 0.0, "name": "22e4b5f8331ea3a1cc71dd78cbb42cf5", "lon": -77.02786533333334, "is_disabled": 0, "type": "electric_scooter"}, {"bike_id": "cfae31d7ef28097c79cc5ee90b5e24a2", "lat": 38.867508666666666, "is_reserved": 0, "fusion_lat": 0.0, "rental_uris": {"android": "https://dc.lft.to/lastmile_qr_scan", "ios": "https://dc.lft.to/lastmile_qr_scan"}, "fusion_lon": 0.0, "name": "cfae31d7ef28097c79cc5ee90b5e24a2", "lon": -76.94533216666666, "is_disabled": 0, "type": "electric_bike"}, {"bike_id": "a5c51309a1a61b0d863195fb414c3a8e", "lat": 38.903363666666664, "is_reserved": 0, "fusion_lat": 0.0, "rental_uris": {"android": "https://dc.lft.to/lastmile_qr_scan", "ios": "https://dc.lft.to/lastmile_qr_scan"}, "fusion_lon": 0.0, "name": "a5c51309a1a61b0d863195fb414c3a8e", "lon": -77.06187733333333, "is_disabled": 0, "type": "electric_scooter"}, {"bike_id": "b52964837b6d49db31ff715bd48f7229", "lat": 38.8988705, "is_reserved": 0, "fusion_lat": 0.0, "rental_uris": {"android": "https://dc.lft.to/lastmile_qr_scan", "ios": "https://dc.lft.to/lastmile_qr_scan"}, "fusion_lon": 0.0, "name": "b52964837b6d49db31ff715bd48f7229", "lon": -76.93174866666666, "is_disabled": 0, "type": "electric_scooter"}, {"bike_id": "e760c47e37d0a4430c9c72f87d258854", "lat": 38.882672666666664, "is_reserved": 0, "fusion_lat": 0.0, "rental_uris": {"android": "https://dc.lft.to/lastmile_qr_scan", "ios": "https://dc.lft.to/lastmile_qr_scan"}, "fusion_lon": 0.0, "name": "e760c47e37d0a4430c9c72f87d258854", "lon": -77.00514516666667, "is_disabled": 0, "type": "electric_scooter"}, {"bike_id": "cde96b3c395f9e41c7a55ede119d5777", "lat": 38.918062666666664, "is_reserved": 0, "fusion_lat": 0.0, "rental_uris": {"android": "https://dc.lft.to/lastmile_qr_scan", "ios": "https://dc.lft.to/lastmile_qr_scan"}, "fusion_lon": 0.0, "name": "cde96b3c395f9e41c7a55ede119d5777", "lon": -77.03075866666667, "is_disabled": 0, "type": "electric_scooter"}, {"bike_id": "5e2cd4c5b2523e51d1d1c312f25b48cf", "lat": 38.90295783333333, "is_reserved": 0, "fusion_lat": 0.0, "rental_uris": {"android": "https://dc.lft.to/lastmile_qr_scan", "ios": "https://dc.lft.to/lastmile_qr_scan"}, "fusion_lon": 0.0, "name": "5e2cd4c5b2523e51d1d1c312f25b48cf", "lon": -77.04686466666666, "is_disabled": 0, "type": "electric_scooter"}, {"bike_id": "2de9085c13a16e69faa250a52c75dbb2", "lat": 38.91402733333334, "is_reserved": 0, "fusion_lat": 0.0, "rental_uris": {"android": "https://dc.lft.to/lastmile_qr_scan", "ios": "https://dc.lft.to/lastmile_qr_scan"}, "fusion_lon": 0.0, "name": "2de9085c13a16e69faa250a52c75dbb2", "lon": -77.01650833333333, "is_disabled": 0, "type": "electric_scooter"}, {"bike_id": "6e25df5563a7ba843d56b3f5d487410c", "lat": 38.89671933333333, "is_reserved": 0, "fusion_lat": 0.0, "rental_uris": {"android": "https://dc.lft.to/lastmile_qr_scan", "ios": "https://dc.lft.to/lastmile_qr_scan"}, "fusion_lon": 0.0, "name": "6e25df5563a7ba843d56b3f5d487410c", "lon": -77.027236, "is_disabled": 0, "type": "electric_scooter"}, {"bike_id": "79d3517e990bce878f88f26573e8b792", "lat": 38.93996883333333, "is_reserved": 0, "fusion_lat": 0.0, "rental_uris": {"android": "https://dc.lft.to/lastmile_qr_scan", "ios": "https://dc.lft.to/lastmile_qr_scan"}, "fusion_lon": 0.0, "name": "79d3517e990bce878f88f26573e8b792", "lon": -77.03807233333333, "is_disabled": 0, "type": "electric_scooter"}, {"bike_id": "005baeab3f360a48a8d2fa5e49b5b37b", "lat": 38.8965095, "is_reserved": 0, "fusion_lat": 0.0, "rental_uris": {"android": "https://dc.lft.to/lastmile_qr_scan", "ios": "https://dc.lft.to/lastmile_qr_scan"}, "fusion_lon": 0.0, "name": "005baeab3f360a48a8d2fa5e49b5b37b", "lon": -77.05025833333333, "is_disabled": 0, "type": "electric_scooter"}, {"bike_id": "e29cb00710f4447816ad303d75318085", "lat": 38.9222905, "is_reserved": 0, "fusion_lat": 0.0, "rental_uris": {"android": "https://dc.lft.to/lastmile_qr_scan", "ios": "https://dc.lft.to/lastmile_qr_scan"}, "fusion_lon": 0.0, "name": "e29cb00710f4447816ad303d75318085", "lon": -77.043789, "is_disabled": 0, "type": "electric_scooter"}, {"bike_id": "efc5756414c5c7c4c7075e2d833d6808", "lat": 38.884697333333335, "is_reserved": 0, "fusion_lat": 0.0, "rental_uris": {"android": "https://dc.lft.to/lastmile_qr_scan", "ios": "https://dc.lft.to/lastmile_qr_scan"}, "fusion_lon": 0.0, "name": "efc5756414c5c7c4c7075e2d833d6808", "lon": -77.0005635, "is_disabled": 0, "type": "electric_scooter"}, {"bike_id": "9ab8ab8413fd7165047d8c31d6183093", "lat": 38.895068, "is_reserved": 0, "fusion_lat": 0.0, "rental_uris": {"android": "https://dc.lft.to/lastmile_qr_scan", "ios": "https://dc.lft.to/lastmile_qr_scan"}, "fusion_lon": 0.0, "name": "9ab8ab8413fd7165047d8c31d6183093", "lon": -77.00341333333333, "is_disabled": 0, "type": "electric_scooter"}, {"bike_id": "ef4f9d79913ff12e0b76c2072205bd71", "lat": 38.90002116666667, "is_reserved": 0, "fusion_lat": 0.0, "rental_uris": {"android": "https://dc.lft.to/lastmile_qr_scan", "ios": "https://dc.lft.to/lastmile_qr_scan"}, "fusion_lon": 0.0, "name": "ef4f9d79913ff12e0b76c2072205bd71", "lon": -77.02725516666666, "is_disabled": 0, "type": "electric_scooter"}, {"bike_id": "2da97e0bdcac994a040e7182d91e57fe", "lat": 38.89868083333333, "is_reserved": 0, "fusion_lat": 0.0, "rental_uris": {"android": "https://dc.lft.to/lastmile_qr_scan", "ios": "https://dc.lft.to/lastmile_qr_scan"}, "fusion_lon": 0.0, "name": "2da97e0bdcac994a040e7182d91e57fe", "lon": -77.01247566666666, "is_disabled": 0, "type": "electric_scooter"}, {"bike_id": "d22d5b5ddcaad89184808cac52d6a0b9", "lat": 38.924836666666664, "is_reserved": 0, "fusion_lat": 0.0, "rental_uris": {"android": "https://dc.lft.to/lastmile_qr_scan", "ios": "https://dc.lft.to/lastmile_qr_scan"}, "fusion_lon": 0.0, "name": "d22d5b5ddcaad89184808cac52d6a0b9", "lon": -77.031799, "is_disabled": 0, "type": "electric_scooter"}, {"bike_id": "c6bce83b438f189d3c959abd08b2cf54", "lat": 38.89226683333333, "is_reserved": 0, "fusion_lat": 0.0, "rental_uris": {"android": "https://dc.lft.to/lastmile_qr_scan", "ios": "https://dc.lft.to/lastmile_qr_scan"}, "fusion_lon": 0.0, "name": "c6bce83b438f189d3c959abd08b2cf54", "lon": -77.02459866666666, "is_disabled": 0, "type": "electric_scooter"}, {"bike_id": "019f63c4db86d01910ea31ef4e9696c5", "lat": 38.921757666666664, "is_reserved": 0, "fusion_lat": 0.0, "rental_uris": {"android": "https://dc.lft.to/lastmile_qr_scan", "ios": "https://dc.lft.to/lastmile_qr_scan"}, "fusion_lon": 0.0, "name": "019f63c4db86d01910ea31ef4e9696c5", "lon": -77.0210195, "is_disabled": 0, "type": "electric_scooter"}, {"bike_id": "65fd94d67a2334be46db994f65aa0863", "lat": 38.916515833333335, "is_reserved": 0, "fusion_lat": 0.0, "rental_uris": {"android": "https://dc.lft.to/lastmile_qr_scan", "ios": "https://dc.lft.to/lastmile_qr_scan"}, "fusion_lon": 0.0, "name": "65fd94d67a2334be46db994f65aa0863", "lon": -76.97915116666667, "is_disabled": 0, "type": "electric_scooter"}, {"bike_id": "9f3e6b10c6fdb1fdeff65f4c3a3aa460", "lat": 38.918569833333336, "is_reserved": 0, "fusion_lat": 0.0, "rental_uris": {"android": "https://dc.lft.to/lastmile_qr_scan", "ios": "https://dc.lft.to/lastmile_qr_scan"}, "fusion_lon": 0.0, "name": "9f3e6b10c6fdb1fdeff65f4c3a3aa460", "lon": -77.03220616666667, "is_disabled": 0, "type": "electric_scooter"}, {"bike_id": "23115f4805bd5c872523a714dfb7abe1", "lat": 38.920292, "is_reserved": 0, "fusion_lat": 0.0, "rental_uris": {"android": "https://dc.lft.to/lastmile_qr_scan", "ios": "https://dc.lft.to/lastmile_qr_scan"}, "fusion_lon": 0.0, "name": "23115f4805bd5c872523a714dfb7abe1", "lon": -77.003093, "is_disabled": 0, "type": "electric_scooter"}, {"bike_id": "0940624ff7725edcd525fd876df6b414", "lat": 38.987695333333335, "is_reserved": 0, "fusion_lat": 0.0, "rental_uris": {"android": "https://dc.lft.to/lastmile_qr_scan", "ios": "https://dc.lft.to/lastmile_qr_scan"}, "fusion_lon": 0.0, "name": "0940624ff7725edcd525fd876df6b414", "lon": -77.14057333333334, "is_disabled": 0, "type": "electric_bike"}, {"bike_id": "7581aa19797a056998981e7529bb48ff", "lat": 38.923275, "is_reserved": 0, "fusion_lat": 0.0, "rental_uris": {"android": "https://dc.lft.to/lastmile_qr_scan", "ios": "https://dc.lft.to/lastmile_qr_scan"}, "fusion_lon": 0.0, "name": "7581aa19797a056998981e7529bb48ff", "lon": -77.008887, "is_disabled": 0, "type": "electric_scooter"}, {"bike_id": "006418fea67caae1992b88ee90a8a0f9", "lat": 38.884934666666666, "is_reserved": 0, "fusion_lat": 0.0, "rental_uris": {"android": "https://dc.lft.to/lastmile_qr_scan", "ios": "https://dc.lft.to/lastmile_qr_scan"}, "fusion_lon": 0.0, "name": "006418fea67caae1992b88ee90a8a0f9", "lon": -77.00726566666667, "is_disabled": 0, "type": "electric_scooter"}, {"bike_id": "4bd47c9d4bba10f67b96e58fd6f90ce9", "lat": 38.90228333333334, "is_reserved": 0, "fusion_lat": 0.0, "rental_uris": {"android": "https://dc.lft.to/lastmile_qr_scan", "ios": "https://dc.lft.to/lastmile_qr_scan"}, "fusion_lon": 0.0, "name": "4bd47c9d4bba10f67b96e58fd6f90ce9", "lon": -77.03473033333333, "is_disabled": 0, "type": "electric_scooter"}, {"bike_id": "1d840cd438f9cde48dce1b04b364f983", "lat": 38.9030345, "is_reserved": 0, "fusion_lat": 0.0, "rental_uris": {"android": "https://dc.lft.to/lastmile_qr_scan", "ios": "https://dc.lft.to/lastmile_qr_scan"}, "fusion_lon": 0.0, "name": "1d840cd438f9cde48dce1b04b364f983", "lon": -77.05060483333334, "is_disabled": 0, "type": "electric_scooter"}, {"bike_id": "6ff5f27e1a7562824cee21cf5154ab46", "lat": 38.898614333333335, "is_reserved": 0, "fusion_lat": 0.0, "rental_uris": {"android": "https://dc.lft.to/lastmile_qr_scan", "ios": "https://dc.lft.to/lastmile_qr_scan"}, "fusion_lon": 0.0, "name": "6ff5f27e1a7562824cee21cf5154ab46", "lon": -77.0487595, "is_disabled": 0, "type": "electric_scooter"}, {"bike_id": "20a7109c2a835cda8901d53442d62563", "lat": 38.9067125, "is_reserved": 0, "fusion_lat": 0.0, "rental_uris": {"android": "https://dc.lft.to/lastmile_qr_scan", "ios": "https://dc.lft.to/lastmile_qr_scan"}, "fusion_lon": 0.0, "name": "20a7109c2a835cda8901d53442d62563", "lon": -77.01054033333334, "is_disabled": 0, "type": "electric_scooter"}, {"bike_id": "46de439c18ba7940cde020663efd76a0", "lat": 38.91018, "is_reserved": 0, "fusion_lat": 0.0, "rental_uris": {"android": "https://dc.lft.to/lastmile_qr_scan", "ios": "https://dc.lft.to/lastmile_qr_scan"}, "fusion_lon": 0.0, "name": "46de439c18ba7940cde020663efd76a0", "lon": -77.04454933333334, "is_disabled": 0, "type": "electric_scooter"}, {"bike_id": "8cc99713ed7aa1ae63d3834ad499e226", "lat": 38.87663916666666, "is_reserved": 0, "fusion_lat": 0.0, "rental_uris": {"android": "https://dc.lft.to/lastmile_qr_scan", "ios": "https://dc.lft.to/lastmile_qr_scan"}, "fusion_lon": 0.0, "name": "8cc99713ed7aa1ae63d3834ad499e226", "lon": -77.00824516666667, "is_disabled": 0, "type": "electric_scooter"}, {"bike_id": "7b4b61b17e67743e9d1586c940326068", "lat": 38.89719766666666, "is_reserved": 0, "fusion_lat": 0.0, "rental_uris": {"android": "https://dc.lft.to/lastmile_qr_scan", "ios": "https://dc.lft.to/lastmile_qr_scan"}, "fusion_lon": 0.0, "name": "7b4b61b17e67743e9d1586c940326068", "lon": -77.00801783333333, "is_disabled": 0, "type": "electric_scooter"}, {"bike_id": "df2bf16374421ff270d92e5425d55e5d", "lat": 38.91029783333333, "is_reserved": 0, "fusion_lat": 0.0, "rental_uris": {"android": "https://dc.lft.to/lastmile_qr_scan", "ios": "https://dc.lft.to/lastmile_qr_scan"}, "fusion_lon": 0.0, "name": "df2bf16374421ff270d92e5425d55e5d", "lon": -76.99345483333333, "is_disabled": 0, "type": "electric_scooter"}, {"bike_id": "a948fcc62a8c1722de70cb908bf81dff", "lat": 38.875027, "is_reserved": 0, "fusion_lat": 0.0, "rental_uris": {"android": "https://dc.lft.to/lastmile_qr_scan", "ios": "https://dc.lft.to/lastmile_qr_scan"}, "fusion_lon": 0.0, "name": "a948fcc62a8c1722de70cb908bf81dff", "lon": -77.01239016666666, "is_disabled": 0, "type": "electric_scooter"}, {"bike_id": "3e72b84ed59bd5c8f8f0df2aa88af9f6", "lat": 38.94016833333333, "is_reserved": 0, "fusion_lat": 0.0, "rental_uris": {"android": "https://dc.lft.to/lastmile_qr_scan", "ios": "https://dc.lft.to/lastmile_qr_scan"}, "fusion_lon": 0.0, "name": "3e72b84ed59bd5c8f8f0df2aa88af9f6", "lon": -77.02637866666667, "is_disabled": 0, "type": "electric_scooter"}, {"bike_id": "42ba401481dcdc8f5e323aa02ec3824d", "lat": 38.9561605, "is_reserved": 0, "fusion_lat": 0.0, "rental_uris": {"android": "https://dc.lft.to/lastmile_qr_scan", "ios": "https://dc.lft.to/lastmile_qr_scan"}, "fusion_lon": 0.0, "name": "42ba401481dcdc8f5e323aa02ec3824d", "lon": -77.01023733333334, "is_disabled": 0, "type": "electric_scooter"}, {"bike_id": "faa86f9d613d93f8a9d76a3c1d5c4d34", "lat": 38.8982465, "is_reserved": 0, "fusion_lat": 0.0, "rental_uris": {"android": "https://dc.lft.to/lastmile_qr_scan", "ios": "https://dc.lft.to/lastmile_qr_scan"}, "fusion_lon": 0.0, "name": "faa86f9d613d93f8a9d76a3c1d5c4d34", "lon": -77.04105683333333, "is_disabled": 0, "type": "electric_scooter"}, {"bike_id": "dd29bc2688683c01b113a55e86f52a07", "lat": 38.91722583333333, "is_reserved": 0, "fusion_lat": 0.0, "rental_uris": {"android": "https://dc.lft.to/lastmile_qr_scan", "ios": "https://dc.lft.to/lastmile_qr_scan"}, "fusion_lon": 0.0, "name": "dd29bc2688683c01b113a55e86f52a07", "lon": -77.01907783333333, "is_disabled": 0, "type": "electric_scooter"}, {"bike_id": "4cd632821b02106f36ae628ddb9da424", "lat": 38.90799616666666, "is_reserved": 0, "fusion_lat": 0.0, "rental_uris": {"android": "https://dc.lft.to/lastmile_qr_scan", "ios": "https://dc.lft.to/lastmile_qr_scan"}, "fusion_lon": 0.0, "name": "4cd632821b02106f36ae628ddb9da424", "lon": -77.03452, "is_disabled": 0, "type": "electric_scooter"}, {"bike_id": "2ec2cbe469eaf6801813d4ca155e4624", "lat": 38.876261666666664, "is_reserved": 0, "fusion_lat": 0.0, "rental_uris": {"android": "https://dc.lft.to/lastmile_qr_scan", "ios": "https://dc.lft.to/lastmile_qr_scan"}, "fusion_lon": 0.0, "name": "2ec2cbe469eaf6801813d4ca155e4624", "lon": -76.96529033333333, "is_disabled": 0, "type": "electric_scooter"}, {"bike_id": "d32463b096a5938d50b89d279cc02271", "lat": 38.887103833333335, "is_reserved": 0, "fusion_lat": 0.0, "rental_uris": {"android": "https://dc.lft.to/lastmile_qr_scan", "ios": "https://dc.lft.to/lastmile_qr_scan"}, "fusion_lon": 0.0, "name": "d32463b096a5938d50b89d279cc02271", "lon": -77.0177445, "is_disabled": 0, "type": "electric_scooter"}, {"bike_id": "029d40a1c59e75fd731c1bd97b2faa48", "lat": 38.914176499999996, "is_reserved": 0, "fusion_lat": 0.0, "rental_uris": {"android": "https://dc.lft.to/lastmile_qr_scan", "ios": "https://dc.lft.to/lastmile_qr_scan"}, "fusion_lon": 0.0, "name": "029d40a1c59e75fd731c1bd97b2faa48", "lon": -77.01991183333334, "is_disabled": 0, "type": "electric_scooter"}, {"bike_id": "13586190a6c1e8effc7e9af04abea850", "lat": 38.9408445, "is_reserved": 0, "fusion_lat": 0.0, "rental_uris": {"android": "https://dc.lft.to/lastmile_qr_scan", "ios": "https://dc.lft.to/lastmile_qr_scan"}, "fusion_lon": 0.0, "name": "13586190a6c1e8effc7e9af04abea850", "lon": -77.02729183333334, "is_disabled": 0, "type": "electric_scooter"}, {"bike_id": "a8149e1d0bc384a2c91b62a47ae77a36", "lat": 38.904635999999996, "is_reserved": 0, "fusion_lat": 0.0, "rental_uris": {"android": "https://dc.lft.to/lastmile_qr_scan", "ios": "https://dc.lft.to/lastmile_qr_scan"}, "fusion_lon": 0.0, "name": "a8149e1d0bc384a2c91b62a47ae77a36", "lon": -77.01942033333333, "is_disabled": 0, "type": "electric_scooter"}, {"bike_id": "d1de2ae591577f44988e336a0bff9273", "lat": 38.922415666666666, "is_reserved": 0, "fusion_lat": 0.0, "rental_uris": {"android": "https://dc.lft.to/lastmile_qr_scan", "ios": "https://dc.lft.to/lastmile_qr_scan"}, "fusion_lon": 0.0, "name": "d1de2ae591577f44988e336a0bff9273", "lon": -77.01836666666667, "is_disabled": 0, "type": "electric_scooter"}, {"bike_id": "0b506be9b52b5acf3be763d464b8437f", "lat": 38.90654383333333, "is_reserved": 0, "fusion_lat": 0.0, "rental_uris": {"android": "https://dc.lft.to/lastmile_qr_scan", "ios": "https://dc.lft.to/lastmile_qr_scan"}, "fusion_lon": 0.0, "name": "0b506be9b52b5acf3be763d464b8437f", "lon": -77.006098, "is_disabled": 0, "type": "electric_scooter"}, {"bike_id": "260c5365c98a51e5a8d9a328d2cd387e", "lat": 38.9168695, "is_reserved": 0, "fusion_lat": 0.0, "rental_uris": {"android": "https://dc.lft.to/lastmile_qr_scan", "ios": "https://dc.lft.to/lastmile_qr_scan"}, "fusion_lon": 0.0, "name": "260c5365c98a51e5a8d9a328d2cd387e", "lon": -77.03775433333334, "is_disabled": 0, "type": "electric_scooter"}, {"bike_id": "6164e7d31f27b59a6bd0bf36644e77d3", "lat": 38.903855166666666, "is_reserved": 0, "fusion_lat": 0.0, "rental_uris": {"android": "https://dc.lft.to/lastmile_qr_scan", "ios": "https://dc.lft.to/lastmile_qr_scan"}, "fusion_lon": 0.0, "name": "6164e7d31f27b59a6bd0bf36644e77d3", "lon": -77.03871483333333, "is_disabled": 0, "type": "electric_scooter"}, {"bike_id": "ed1a31cb0c8bdb859670328c797d6386", "lat": 38.908206166666666, "is_reserved": 0, "fusion_lat": 0.0, "rental_uris": {"android": "https://dc.lft.to/lastmile_qr_scan", "ios": "https://dc.lft.to/lastmile_qr_scan"}, "fusion_lon": 0.0, "name": "ed1a31cb0c8bdb859670328c797d6386", "lon": -76.99711833333333, "is_disabled": 0, "type": "electric_scooter"}, {"bike_id": "63e046a166d9753e6bbdc8e94ca9d37a", "lat": 38.9030855, "is_reserved": 0, "fusion_lat": 0.0, "rental_uris": {"android": "https://dc.lft.to/lastmile_qr_scan", "ios": "https://dc.lft.to/lastmile_qr_scan"}, "fusion_lon": 0.0, "name": "63e046a166d9753e6bbdc8e94ca9d37a", "lon": -77.04888316666667, "is_disabled": 0, "type": "electric_scooter"}, {"bike_id": "fc417dabea6a858ddda72767577559f7", "lat": 38.88543966666667, "is_reserved": 0, "fusion_lat": 0.0, "rental_uris": {"android": "https://dc.lft.to/lastmile_qr_scan", "ios": "https://dc.lft.to/lastmile_qr_scan"}, "fusion_lon": 0.0, "name": "fc417dabea6a858ddda72767577559f7", "lon": -77.0057975, "is_disabled": 0, "type": "electric_scooter"}, {"bike_id": "46d40e03f608a535c6feb41d6e622037", "lat": 38.91770783333333, "is_reserved": 0, "fusion_lat": 0.0, "rental_uris": {"android": "https://dc.lft.to/lastmile_qr_scan", "ios": "https://dc.lft.to/lastmile_qr_scan"}, "fusion_lon": 0.0, "name": "46d40e03f608a535c6feb41d6e622037", "lon": -77.02952666666667, "is_disabled": 0, "type": "electric_scooter"}, {"bike_id": "c6eafb699592f7175fda81e69caf6d38", "lat": 38.905900333333335, "is_reserved": 0, "fusion_lat": 0.0, "rental_uris": {"android": "https://dc.lft.to/lastmile_qr_scan", "ios": "https://dc.lft.to/lastmile_qr_scan"}, "fusion_lon": 0.0, "name": "c6eafb699592f7175fda81e69caf6d38", "lon": -77.02196983333333, "is_disabled": 0, "type": "electric_scooter"}, {"bike_id": "2353564a6495b17cc266561e3d98ecd4", "lat": 38.9286825, "is_reserved": 0, "fusion_lat": 0.0, "rental_uris": {"android": "https://dc.lft.to/lastmile_qr_scan", "ios": "https://dc.lft.to/lastmile_qr_scan"}, "fusion_lon": 0.0, "name": "2353564a6495b17cc266561e3d98ecd4", "lon": -76.99031683333334, "is_disabled": 0, "type": "electric_scooter"}, {"bike_id": "32cd573659a6e6f105c784857b4a5289", "lat": 39.01370166666667, "is_reserved": 0, "fusion_lat": 0.0, "rental_uris": {"android": "https://dc.lft.to/lastmile_qr_scan", "ios": "https://dc.lft.to/lastmile_qr_scan"}, "fusion_lon": 0.0, "name": "32cd573659a6e6f105c784857b4a5289", "lon": -76.9213945, "is_disabled": 0, "type": "electric_bike"}, {"bike_id": "70bd1282e5a79ff85f2fe4f586a628b6", "lat": 38.902907666666664, "is_reserved": 0, "fusion_lat": 0.0, "rental_uris": {"android": "https://dc.lft.to/lastmile_qr_scan", "ios": "https://dc.lft.to/lastmile_qr_scan"}, "fusion_lon": 0.0, "name": "70bd1282e5a79ff85f2fe4f586a628b6", "lon": -76.97636833333334, "is_disabled": 0, "type": "electric_scooter"}, {"bike_id": "e82649d8ab53d96cadff4fcf4f2b475f", "lat": 38.90069716666667, "is_reserved": 0, "fusion_lat": 0.0, "rental_uris": {"android": "https://dc.lft.to/lastmile_qr_scan", "ios": "https://dc.lft.to/lastmile_qr_scan"}, "fusion_lon": 0.0, "name": "e82649d8ab53d96cadff4fcf4f2b475f", "lon": -77.03647933333333, "is_disabled": 0, "type": "electric_scooter"}, {"bike_id": "e6bc548c017b20f0ae216b048dc4482f", "lat": 39.0398695, "is_reserved": 0, "fusion_lat": 0.0, "rental_uris": {"android": "https://dc.lft.to/lastmile_qr_scan", "ios": "https://dc.lft.to/lastmile_qr_scan"}, "fusion_lon": 0.0, "name": "e6bc548c017b20f0ae216b048dc4482f", "lon": -76.99933383333334, "is_disabled": 0, "type": "electric_bike"}, {"bike_id": "e51eec254f0b7ab9178296dfc23fd939", "lat": 38.892254333333334, "is_reserved": 0, "fusion_lat": 0.0, "rental_uris": {"android": "https://dc.lft.to/lastmile_qr_scan", "ios": "https://dc.lft.to/lastmile_qr_scan"}, "fusion_lon": 0.0, "name": "e51eec254f0b7ab9178296dfc23fd939", "lon": -77.03172733333334, "is_disabled": 0, "type": "electric_scooter"}, {"bike_id": "df88f4599cab71db4f7111dddce92d8c", "lat": 38.888207, "is_reserved": 0, "fusion_lat": 0.0, "rental_uris": {"android": "https://dc.lft.to/lastmile_qr_scan", "ios": "https://dc.lft.to/lastmile_qr_scan"}, "fusion_lon": 0.0, "name": "df88f4599cab71db4f7111dddce92d8c", "lon": -76.93009583333334, "is_disabled": 0, "type": "electric_scooter"}, {"bike_id": "a106448532d3a2545a40fda57418ae48", "lat": 38.90723, "is_reserved": 0, "fusion_lat": 0.0, "rental_uris": {"android": "https://dc.lft.to/lastmile_qr_scan", "ios": "https://dc.lft.to/lastmile_qr_scan"}, "fusion_lon": 0.0, "name": "a106448532d3a2545a40fda57418ae48", "lon": -77.02274933333334, "is_disabled": 0, "type": "electric_scooter"}, {"bike_id": "7a892e918205cf40bfe0e95d5f628a9a", "lat": 38.932355333333334, "is_reserved": 0, "fusion_lat": 0.0, "rental_uris": {"android": "https://dc.lft.to/lastmile_qr_scan", "ios": "https://dc.lft.to/lastmile_qr_scan"}, "fusion_lon": 0.0, "name": "7a892e918205cf40bfe0e95d5f628a9a", "lon": -76.99503916666667, "is_disabled": 0, "type": "electric_scooter"}, {"bike_id": "0b272c1ba57e9ca436ecc0fb5183af9c", "lat": 38.92121266666667, "is_reserved": 0, "fusion_lat": 0.0, "rental_uris": {"android": "https://dc.lft.to/lastmile_qr_scan", "ios": "https://dc.lft.to/lastmile_qr_scan"}, "fusion_lon": 0.0, "name": "0b272c1ba57e9ca436ecc0fb5183af9c", "lon": -77.0366, "is_disabled": 0, "type": "electric_scooter"}, {"bike_id": "0f6b359ca41500d62c08a3b0bb55c0a3", "lat": 38.92220416666667, "is_reserved": 0, "fusion_lat": 0.0, "rental_uris": {"android": "https://dc.lft.to/lastmile_qr_scan", "ios": "https://dc.lft.to/lastmile_qr_scan"}, "fusion_lon": 0.0, "name": "0f6b359ca41500d62c08a3b0bb55c0a3", "lon": -77.03462883333333, "is_disabled": 0, "type": "electric_scooter"}, {"bike_id": "a84501e89e592f96fecd3e69b50de7ad", "lat": 38.91724966666666, "is_reserved": 0, "fusion_lat": 0.0, "rental_uris": {"android": "https://dc.lft.to/lastmile_qr_scan", "ios": "https://dc.lft.to/lastmile_qr_scan"}, "fusion_lon": 0.0, "name": "a84501e89e592f96fecd3e69b50de7ad", "lon": -77.03216266666666, "is_disabled": 0, "type": "electric_scooter"}, {"bike_id": "cbd5ae89663cc9f1a49ed027f365f51d", "lat": 38.916138333333336, "is_reserved": 0, "fusion_lat": 0.0, "rental_uris": {"android": "https://dc.lft.to/lastmile_qr_scan", "ios": "https://dc.lft.to/lastmile_qr_scan"}, "fusion_lon": 0.0, "name": "cbd5ae89663cc9f1a49ed027f365f51d", "lon": -77.048346, "is_disabled": 0, "type": "electric_scooter"}, {"bike_id": "68e0e468a36187bd5c7fddb16d7d0580", "lat": 38.94624666666667, "is_reserved": 0, "fusion_lat": 0.0, "rental_uris": {"android": "https://dc.lft.to/lastmile_qr_scan", "ios": "https://dc.lft.to/lastmile_qr_scan"}, "fusion_lon": 0.0, "name": "68e0e468a36187bd5c7fddb16d7d0580", "lon": -77.01847266666667, "is_disabled": 0, "type": "electric_scooter"}, {"bike_id": "c231e1527df3b5c8e17aa3bcc2cdf81e", "lat": 38.89496483333333, "is_reserved": 0, "fusion_lat": 0.0, "rental_uris": {"android": "https://dc.lft.to/lastmile_qr_scan", "ios": "https://dc.lft.to/lastmile_qr_scan"}, "fusion_lon": 0.0, "name": "c231e1527df3b5c8e17aa3bcc2cdf81e", "lon": -77.0228225, "is_disabled": 0, "type": "electric_scooter"}, {"bike_id": "bc267e5c5b41bb9af6ec01a02b4cefa7", "lat": 38.866933, "is_reserved": 0, "fusion_lat": 0.0, "rental_uris": {"android": "https://dc.lft.to/lastmile_qr_scan", "ios": "https://dc.lft.to/lastmile_qr_scan"}, "fusion_lon": 0.0, "name": "bc267e5c5b41bb9af6ec01a02b4cefa7", "lon": -76.98713783333334, "is_disabled": 0, "type": "electric_scooter"}, {"bike_id": "66df57d2a0de484f99801300623dbdbf", "lat": 38.92439233333333, "is_reserved": 0, "fusion_lat": 0.0, "rental_uris": {"android": "https://dc.lft.to/lastmile_qr_scan", "ios": "https://dc.lft.to/lastmile_qr_scan"}, "fusion_lon": 0.0, "name": "66df57d2a0de484f99801300623dbdbf", "lon": -77.01958133333333, "is_disabled": 0, "type": "electric_scooter"}, {"bike_id": "948125158853f7ba3f16c501c8de7343", "lat": 38.905552666666665, "is_reserved": 0, "fusion_lat": 0.0, "rental_uris": {"android": "https://dc.lft.to/lastmile_qr_scan", "ios": "https://dc.lft.to/lastmile_qr_scan"}, "fusion_lon": 0.0, "name": "948125158853f7ba3f16c501c8de7343", "lon": -77.04311066666666, "is_disabled": 0, "type": "electric_scooter"}, {"bike_id": "0aa03a954c61b267418659a9f23fa794", "lat": 38.933535166666665, "is_reserved": 0, "fusion_lat": 0.0, "rental_uris": {"android": "https://dc.lft.to/lastmile_qr_scan", "ios": "https://dc.lft.to/lastmile_qr_scan"}, "fusion_lon": 0.0, "name": "0aa03a954c61b267418659a9f23fa794", "lon": -77.073578, "is_disabled": 0, "type": "electric_scooter"}, {"bike_id": "cee33ea959320a8c732828499d1a83b6", "lat": 38.857472, "is_reserved": 0, "fusion_lat": 0.0, "rental_uris": {"android": "https://dc.lft.to/lastmile_qr_scan", "ios": "https://dc.lft.to/lastmile_qr_scan"}, "fusion_lon": 0.0, "name": "cee33ea959320a8c732828499d1a83b6", "lon": -76.99303633333334, "is_disabled": 0, "type": "electric_scooter"}, {"bike_id": "b816e7c0749440d2bbe1f346fdc37792", "lat": 38.81336783333333, "is_reserved": 0, "fusion_lat": 0.0, "rental_uris": {"android": "https://dc.lft.to/lastmile_qr_scan", "ios": "https://dc.lft.to/lastmile_qr_scan"}, "fusion_lon": 0.0, "name": "b816e7c0749440d2bbe1f346fdc37792", "lon": -77.051085, "is_disabled": 0, "type": "electric_bike"}, {"bike_id": "4cea5102f1530e8f60db8d93f7a1a2ac", "lat": 38.918461666666666, "is_reserved": 0, "fusion_lat": 0.0, "rental_uris": {"android": "https://dc.lft.to/lastmile_qr_scan", "ios": "https://dc.lft.to/lastmile_qr_scan"}, "fusion_lon": 0.0, "name": "4cea5102f1530e8f60db8d93f7a1a2ac", "lon": -77.03209616666666, "is_disabled": 0, "type": "electric_scooter"}, {"bike_id": "481b5ed36057b1726c8b5a4e6dda32b1", "lat": 38.941200333333335, "is_reserved": 0, "fusion_lat": 0.0, "rental_uris": {"android": "https://dc.lft.to/lastmile_qr_scan", "ios": "https://dc.lft.to/lastmile_qr_scan"}, "fusion_lon": 0.0, "name": "481b5ed36057b1726c8b5a4e6dda32b1", "lon": -77.00070366666667, "is_disabled": 0, "type": "electric_bike"}, {"bike_id": "05ffe54741b6bf3033159b4940d36b72", "lat": 38.896206166666666, "is_reserved": 0, "fusion_lat": 0.0, "rental_uris": {"android": "https://dc.lft.to/lastmile_qr_scan", "ios": "https://dc.lft.to/lastmile_qr_scan"}, "fusion_lon": 0.0, "name": "05ffe54741b6bf3033159b4940d36b72", "lon": -76.99852733333333, "is_disabled": 0, "type": "electric_scooter"}, {"bike_id": "57f3ca9f07e0ef71c29fc99486de5792", "lat": 38.90498916666667, "is_reserved": 0, "fusion_lat": 0.0, "rental_uris": {"android": "https://dc.lft.to/lastmile_qr_scan", "ios": "https://dc.lft.to/lastmile_qr_scan"}, "fusion_lon": 0.0, "name": "57f3ca9f07e0ef71c29fc99486de5792", "lon": -77.05820066666666, "is_disabled": 0, "type": "electric_scooter"}, {"bike_id": "cc6a2081b331e9ee31488659e667a8c4", "lat": 38.921897, "is_reserved": 0, "fusion_lat": 0.0, "rental_uris": {"android": "https://dc.lft.to/lastmile_qr_scan", "ios": "https://dc.lft.to/lastmile_qr_scan"}, "fusion_lon": 0.0, "name": "cc6a2081b331e9ee31488659e667a8c4", "lon": -77.02414266666666, "is_disabled": 0, "type": "electric_scooter"}, {"bike_id": "05075a1aea33c80ae0c10dc4b8b66e69", "lat": 38.85831016666667, "is_reserved": 0, "fusion_lat": 0.0, "rental_uris": {"android": "https://dc.lft.to/lastmile_qr_scan", "ios": "https://dc.lft.to/lastmile_qr_scan"}, "fusion_lon": 0.0, "name": "05075a1aea33c80ae0c10dc4b8b66e69", "lon": -76.98733766666666, "is_disabled": 0, "type": "electric_scooter"}, {"bike_id": "ca969931f30c4d332daa59f3ee3b9d13", "lat": 38.9167395, "is_reserved": 0, "fusion_lat": 0.0, "rental_uris": {"android": "https://dc.lft.to/lastmile_qr_scan", "ios": "https://dc.lft.to/lastmile_qr_scan"}, "fusion_lon": 0.0, "name": "ca969931f30c4d332daa59f3ee3b9d13", "lon": -77.023863, "is_disabled": 0, "type": "electric_scooter"}, {"bike_id": "2f4711107fda6ea4485eb3e0bc89435a", "lat": 38.91406283333333, "is_reserved": 0, "fusion_lat": 0.0, "rental_uris": {"android": "https://dc.lft.to/lastmile_qr_scan", "ios": "https://dc.lft.to/lastmile_qr_scan"}, "fusion_lon": 0.0, "name": "2f4711107fda6ea4485eb3e0bc89435a", "lon": -77.0201125, "is_disabled": 0, "type": "electric_scooter"}, {"bike_id": "78056dcd4269bdd0923a634d1f1110ae", "lat": 38.933515166666666, "is_reserved": 0, "fusion_lat": 0.0, "rental_uris": {"android": "https://dc.lft.to/lastmile_qr_scan", "ios": "https://dc.lft.to/lastmile_qr_scan"}, "fusion_lon": 0.0, "name": "78056dcd4269bdd0923a634d1f1110ae", "lon": -77.06202533333334, "is_disabled": 0, "type": "electric_scooter"}, {"bike_id": "fbefc7d8a973566f6316dd6718bea5e2", "lat": 38.905947166666664, "is_reserved": 0, "fusion_lat": 0.0, "rental_uris": {"android": "https://dc.lft.to/lastmile_qr_scan", "ios": "https://dc.lft.to/lastmile_qr_scan"}, "fusion_lon": 0.0, "name": "fbefc7d8a973566f6316dd6718bea5e2", "lon": -77.04003933333334, "is_disabled": 0, "type": "electric_scooter"}, {"bike_id": "d776c5b040aa6930650c188571a40753", "lat": 38.912635333333334, "is_reserved": 0, "fusion_lat": 0.0, "rental_uris": {"android": "https://dc.lft.to/lastmile_qr_scan", "ios": "https://dc.lft.to/lastmile_qr_scan"}, "fusion_lon": 0.0, "name": "d776c5b040aa6930650c188571a40753", "lon": -77.03185083333334, "is_disabled": 0, "type": "electric_scooter"}, {"bike_id": "7aca8f0a60e8b58e199f56408d029e8a", "lat": 38.84432566666667, "is_reserved": 0, "fusion_lat": 0.0, "rental_uris": {"android": "https://dc.lft.to/lastmile_qr_scan", "ios": "https://dc.lft.to/lastmile_qr_scan"}, "fusion_lon": 0.0, "name": "7aca8f0a60e8b58e199f56408d029e8a", "lon": -76.99873533333333, "is_disabled": 0, "type": "electric_scooter"}, {"bike_id": "45259a1051b93f15ec40bcf34e9f78d0", "lat": 38.91690033333333, "is_reserved": 0, "fusion_lat": 0.0, "rental_uris": {"android": "https://dc.lft.to/lastmile_qr_scan", "ios": "https://dc.lft.to/lastmile_qr_scan"}, "fusion_lon": 0.0, "name": "45259a1051b93f15ec40bcf34e9f78d0", "lon": -77.0260085, "is_disabled": 0, "type": "electric_scooter"}, {"bike_id": "13961c4b28d89e304833c61e45bb062b", "lat": 38.91006266666667, "is_reserved": 0, "fusion_lat": 0.0, "rental_uris": {"android": "https://dc.lft.to/lastmile_qr_scan", "ios": "https://dc.lft.to/lastmile_qr_scan"}, "fusion_lon": 0.0, "name": "13961c4b28d89e304833c61e45bb062b", "lon": -77.04506666666667, "is_disabled": 0, "type": "electric_scooter"}, {"bike_id": "e93d44a24890f8031bd1109b0695e9c6", "lat": 38.95003533333333, "is_reserved": 0, "fusion_lat": 0.0, "rental_uris": {"android": "https://dc.lft.to/lastmile_qr_scan", "ios": "https://dc.lft.to/lastmile_qr_scan"}, "fusion_lon": 0.0, "name": "e93d44a24890f8031bd1109b0695e9c6", "lon": -77.01841666666667, "is_disabled": 0, "type": "electric_scooter"}, {"bike_id": "630bf887e94aed948162a16759dacf61", "lat": 38.8550675, "is_reserved": 0, "fusion_lat": 0.0, "rental_uris": {"android": "https://dc.lft.to/lastmile_qr_scan", "ios": "https://dc.lft.to/lastmile_qr_scan"}, "fusion_lon": 0.0, "name": "630bf887e94aed948162a16759dacf61", "lon": -77.1206405, "is_disabled": 0, "type": "electric_bike"}, {"bike_id": "e85acd497f1087a1f545fcdf5b055bbb", "lat": 38.89360683333334, "is_reserved": 0, "fusion_lat": 0.0, "rental_uris": {"android": "https://dc.lft.to/lastmile_qr_scan", "ios": "https://dc.lft.to/lastmile_qr_scan"}, "fusion_lon": 0.0, "name": "e85acd497f1087a1f545fcdf5b055bbb", "lon": -77.02218983333333, "is_disabled": 0, "type": "electric_scooter"}, {"bike_id": "df459b9b38fdb12cd2ef3ead36f5cd23", "lat": 38.905387, "is_reserved": 0, "fusion_lat": 0.0, "rental_uris": {"android": "https://dc.lft.to/lastmile_qr_scan", "ios": "https://dc.lft.to/lastmile_qr_scan"}, "fusion_lon": 0.0, "name": "df459b9b38fdb12cd2ef3ead36f5cd23", "lon": -77.04476733333334, "is_disabled": 0, "type": "electric_scooter"}, {"bike_id": "adefda99877f578064b77518f26a475c", "lat": 38.89884166666667, "is_reserved": 0, "fusion_lat": 0.0, "rental_uris": {"android": "https://dc.lft.to/lastmile_qr_scan", "ios": "https://dc.lft.to/lastmile_qr_scan"}, "fusion_lon": 0.0, "name": "adefda99877f578064b77518f26a475c", "lon": -77.02167766666666, "is_disabled": 0, "type": "electric_scooter"}, {"bike_id": "ab0006d6e763329cf02e5613d4bf4330", "lat": 38.92472866666667, "is_reserved": 0, "fusion_lat": 0.0, "rental_uris": {"android": "https://dc.lft.to/lastmile_qr_scan", "ios": "https://dc.lft.to/lastmile_qr_scan"}, "fusion_lon": 0.0, "name": "ab0006d6e763329cf02e5613d4bf4330", "lon": -77.02886516666666, "is_disabled": 0, "type": "electric_scooter"}, {"bike_id": "4b35d865cea8c25703bc170bbda781dd", "lat": 38.894799666666664, "is_reserved": 0, "fusion_lat": 0.0, "rental_uris": {"android": "https://dc.lft.to/lastmile_qr_scan", "ios": "https://dc.lft.to/lastmile_qr_scan"}, "fusion_lon": 0.0, "name": "4b35d865cea8c25703bc170bbda781dd", "lon": -77.0217745, "is_disabled": 0, "type": "electric_scooter"}, {"bike_id": "3d61972345e3f5a4a206b427e5f6800f", "lat": 38.91741533333333, "is_reserved": 0, "fusion_lat": 0.0, "rental_uris": {"android": "https://dc.lft.to/lastmile_qr_scan", "ios": "https://dc.lft.to/lastmile_qr_scan"}, "fusion_lon": 0.0, "name": "3d61972345e3f5a4a206b427e5f6800f", "lon": -77.02116616666666, "is_disabled": 0, "type": "electric_scooter"}, {"bike_id": "34ebb80166c3da2a2f3c3b10435b7d7b", "lat": 38.926973333333336, "is_reserved": 0, "fusion_lat": 0.0, "rental_uris": {"android": "https://dc.lft.to/lastmile_qr_scan", "ios": "https://dc.lft.to/lastmile_qr_scan"}, "fusion_lon": 0.0, "name": "34ebb80166c3da2a2f3c3b10435b7d7b", "lon": -77.03565516666667, "is_disabled": 0, "type": "electric_scooter"}, {"bike_id": "a60130ea98f83a6818c885f914d2cec4", "lat": 38.916073, "is_reserved": 0, "fusion_lat": 0.0, "rental_uris": {"android": "https://dc.lft.to/lastmile_qr_scan", "ios": "https://dc.lft.to/lastmile_qr_scan"}, "fusion_lon": 0.0, "name": "a60130ea98f83a6818c885f914d2cec4", "lon": -77.023093, "is_disabled": 0, "type": "electric_scooter"}, {"bike_id": "f7b5beb837209c31bc3f7360ac81891b", "lat": 38.95099666666667, "is_reserved": 0, "fusion_lat": 0.0, "rental_uris": {"android": "https://dc.lft.to/lastmile_qr_scan", "ios": "https://dc.lft.to/lastmile_qr_scan"}, "fusion_lon": 0.0, "name": "f7b5beb837209c31bc3f7360ac81891b", "lon": -77.09719016666666, "is_disabled": 0, "type": "electric_scooter"}, {"bike_id": "22745d37bb617243c5c3b72d82b58c43", "lat": 38.90012216666667, "is_reserved": 0, "fusion_lat": 0.0, "rental_uris": {"android": "https://dc.lft.to/lastmile_qr_scan", "ios": "https://dc.lft.to/lastmile_qr_scan"}, "fusion_lon": 0.0, "name": "22745d37bb617243c5c3b72d82b58c43", "lon": -76.98701733333333, "is_disabled": 0, "type": "electric_scooter"}, {"bike_id": "e35417144c4ccac2d9748bf30efa53c6", "lat": 38.932687666666666, "is_reserved": 0, "fusion_lat": 0.0, "rental_uris": {"android": "https://dc.lft.to/lastmile_qr_scan", "ios": "https://dc.lft.to/lastmile_qr_scan"}, "fusion_lon": 0.0, "name": "e35417144c4ccac2d9748bf30efa53c6", "lon": -77.03501166666666, "is_disabled": 0, "type": "electric_scooter"}, {"bike_id": "e49e2d97fe3afd3991e52f6dd6d739f1", "lat": 38.892366, "is_reserved": 0, "fusion_lat": 0.0, "rental_uris": {"android": "https://dc.lft.to/lastmile_qr_scan", "ios": "https://dc.lft.to/lastmile_qr_scan"}, "fusion_lon": 0.0, "name": "e49e2d97fe3afd3991e52f6dd6d739f1", "lon": -76.94096383333333, "is_disabled": 0, "type": "electric_scooter"}, {"bike_id": "e4a05ac4eee5cf86ca5f3fc413be180f", "lat": 38.8978745, "is_reserved": 0, "fusion_lat": 0.0, "rental_uris": {"android": "https://dc.lft.to/lastmile_qr_scan", "ios": "https://dc.lft.to/lastmile_qr_scan"}, "fusion_lon": 0.0, "name": "e4a05ac4eee5cf86ca5f3fc413be180f", "lon": -77.02492716666667, "is_disabled": 0, "type": "electric_scooter"}, {"bike_id": "74056cb587791d2d820e669851902bbe", "lat": 38.920252833333336, "is_reserved": 0, "fusion_lat": 0.0, "rental_uris": {"android": "https://dc.lft.to/lastmile_qr_scan", "ios": "https://dc.lft.to/lastmile_qr_scan"}, "fusion_lon": 0.0, "name": "74056cb587791d2d820e669851902bbe", "lon": -77.04205083333333, "is_disabled": 0, "type": "electric_scooter"}, {"bike_id": "2d3908418effe23518b455ed7d733539", "lat": 38.90387966666667, "is_reserved": 0, "fusion_lat": 0.0, "rental_uris": {"android": "https://dc.lft.to/lastmile_qr_scan", "ios": "https://dc.lft.to/lastmile_qr_scan"}, "fusion_lon": 0.0, "name": "2d3908418effe23518b455ed7d733539", "lon": -77.02946766666666, "is_disabled": 0, "type": "electric_scooter"}, {"bike_id": "8513cfdad79f4bf343f3afb5672f07a6", "lat": 38.93509916666667, "is_reserved": 0, "fusion_lat": 0.0, "rental_uris": {"android": "https://dc.lft.to/lastmile_qr_scan", "ios": "https://dc.lft.to/lastmile_qr_scan"}, "fusion_lon": 0.0, "name": "8513cfdad79f4bf343f3afb5672f07a6", "lon": -77.03292866666666, "is_disabled": 0, "type": "electric_scooter"}, {"bike_id": "5a67c31efa4772a0a76cf3c82d3eca29", "lat": 38.916359666666665, "is_reserved": 0, "fusion_lat": 0.0, "rental_uris": {"android": "https://dc.lft.to/lastmile_qr_scan", "ios": "https://dc.lft.to/lastmile_qr_scan"}, "fusion_lon": 0.0, "name": "5a67c31efa4772a0a76cf3c82d3eca29", "lon": -77.00046516666667, "is_disabled": 0, "type": "electric_scooter"}, {"bike_id": "746197b45158004b9ab79b768bbe78e2", "lat": 38.928797, "is_reserved": 0, "fusion_lat": 0.0, "rental_uris": {"android": "https://dc.lft.to/lastmile_qr_scan", "ios": "https://dc.lft.to/lastmile_qr_scan"}, "fusion_lon": 0.0, "name": "746197b45158004b9ab79b768bbe78e2", "lon": -77.02712516666666, "is_disabled": 0, "type": "electric_scooter"}, {"bike_id": "645dce39c2358e388625a050ce255727", "lat": 38.892018166666666, "is_reserved": 0, "fusion_lat": 0.0, "rental_uris": {"android": "https://dc.lft.to/lastmile_qr_scan", "ios": "https://dc.lft.to/lastmile_qr_scan"}, "fusion_lon": 0.0, "name": "645dce39c2358e388625a050ce255727", "lon": -77.00298666666667, "is_disabled": 0, "type": "electric_scooter"}, {"bike_id": "a0f7532d8ae26888f745b8298c325cd6", "lat": 38.91710033333333, "is_reserved": 0, "fusion_lat": 0.0, "rental_uris": {"android": "https://dc.lft.to/lastmile_qr_scan", "ios": "https://dc.lft.to/lastmile_qr_scan"}, "fusion_lon": 0.0, "name": "a0f7532d8ae26888f745b8298c325cd6", "lon": -77.02975616666667, "is_disabled": 0, "type": "electric_scooter"}, {"bike_id": "b2e983c3f9674893c71eb29bef596849", "lat": 38.88551966666667, "is_reserved": 0, "fusion_lat": 0.0, "rental_uris": {"android": "https://dc.lft.to/lastmile_qr_scan", "ios": "https://dc.lft.to/lastmile_qr_scan"}, "fusion_lon": 0.0, "name": "b2e983c3f9674893c71eb29bef596849", "lon": -76.996242, "is_disabled": 0, "type": "electric_scooter"}, {"bike_id": "c4fdd0fb5da55eb99fbbe32afa128bc9", "lat": 38.910301833333335, "is_reserved": 0, "fusion_lat": 0.0, "rental_uris": {"android": "https://dc.lft.to/lastmile_qr_scan", "ios": "https://dc.lft.to/lastmile_qr_scan"}, "fusion_lon": 0.0, "name": "c4fdd0fb5da55eb99fbbe32afa128bc9", "lon": -76.98556566666667, "is_disabled": 0, "type": "electric_scooter"}, {"bike_id": "b1562c5c95b0fffe76ad42d2eb3c38c2", "lat": 38.85969, "is_reserved": 0, "fusion_lat": 0.0, "rental_uris": {"android": "https://dc.lft.to/lastmile_qr_scan", "ios": "https://dc.lft.to/lastmile_qr_scan"}, "fusion_lon": 0.0, "name": "b1562c5c95b0fffe76ad42d2eb3c38c2", "lon": -76.99162316666667, "is_disabled": 0, "type": "electric_scooter"}, {"bike_id": "415d41ff06985f7940d7e1aebe222cdc", "lat": 38.92872933333334, "is_reserved": 0, "fusion_lat": 0.0, "rental_uris": {"android": "https://dc.lft.to/lastmile_qr_scan", "ios": "https://dc.lft.to/lastmile_qr_scan"}, "fusion_lon": 0.0, "name": "415d41ff06985f7940d7e1aebe222cdc", "lon": -77.03339183333334, "is_disabled": 0, "type": "electric_scooter"}, {"bike_id": "470e8a76bfb212bef6fc930d047a4144", "lat": 38.941866, "is_reserved": 0, "fusion_lat": 0.0, "rental_uris": {"android": "https://dc.lft.to/lastmile_qr_scan", "ios": "https://dc.lft.to/lastmile_qr_scan"}, "fusion_lon": 0.0, "name": "470e8a76bfb212bef6fc930d047a4144", "lon": -77.02489983333334, "is_disabled": 0, "type": "electric_scooter"}, {"bike_id": "5de6d63ddd5bd15349531fd51837bfad", "lat": 38.9564815, "is_reserved": 0, "fusion_lat": 0.0, "rental_uris": {"android": "https://dc.lft.to/lastmile_qr_scan", "ios": "https://dc.lft.to/lastmile_qr_scan"}, "fusion_lon": 0.0, "name": "5de6d63ddd5bd15349531fd51837bfad", "lon": -77.01967166666667, "is_disabled": 0, "type": "electric_scooter"}, {"bike_id": "c923ebaa47dce13648fc020500ff7234", "lat": 38.921533, "is_reserved": 0, "fusion_lat": 0.0, "rental_uris": {"android": "https://dc.lft.to/lastmile_qr_scan", "ios": "https://dc.lft.to/lastmile_qr_scan"}, "fusion_lon": 0.0, "name": "c923ebaa47dce13648fc020500ff7234", "lon": -77.03321916666667, "is_disabled": 0, "type": "electric_scooter"}, {"bike_id": "5b8f3b0af16dcef1d70bd89d225fcc95", "lat": 38.892173166666666, "is_reserved": 0, "fusion_lat": 0.0, "rental_uris": {"android": "https://dc.lft.to/lastmile_qr_scan", "ios": "https://dc.lft.to/lastmile_qr_scan"}, "fusion_lon": 0.0, "name": "5b8f3b0af16dcef1d70bd89d225fcc95", "lon": -77.02231466666667, "is_disabled": 0, "type": "electric_scooter"}, {"bike_id": "18e441f8adf708b06514126a820db5bb", "lat": 38.914129, "is_reserved": 0, "fusion_lat": 0.0, "rental_uris": {"android": "https://dc.lft.to/lastmile_qr_scan", "ios": "https://dc.lft.to/lastmile_qr_scan"}, "fusion_lon": 0.0, "name": "18e441f8adf708b06514126a820db5bb", "lon": -77.012316, "is_disabled": 0, "type": "electric_scooter"}, {"bike_id": "777aaeb10bb2cb432e67d1922e5e4770", "lat": 38.90313733333333, "is_reserved": 0, "fusion_lat": 0.0, "rental_uris": {"android": "https://dc.lft.to/lastmile_qr_scan", "ios": "https://dc.lft.to/lastmile_qr_scan"}, "fusion_lon": 0.0, "name": "777aaeb10bb2cb432e67d1922e5e4770", "lon": -77.01886233333333, "is_disabled": 0, "type": "electric_scooter"}, {"bike_id": "8de0488b0c73d58156586cd010abc563", "lat": 38.906277333333335, "is_reserved": 0, "fusion_lat": 0.0, "rental_uris": {"android": "https://dc.lft.to/lastmile_qr_scan", "ios": "https://dc.lft.to/lastmile_qr_scan"}, "fusion_lon": 0.0, "name": "8de0488b0c73d58156586cd010abc563", "lon": -77.00762466666667, "is_disabled": 0, "type": "electric_scooter"}, {"bike_id": "e2f7fded69901fafe9a37060c46556e8", "lat": 38.896751, "is_reserved": 0, "fusion_lat": 0.0, "rental_uris": {"android": "https://dc.lft.to/lastmile_qr_scan", "ios": "https://dc.lft.to/lastmile_qr_scan"}, "fusion_lon": 0.0, "name": "e2f7fded69901fafe9a37060c46556e8", "lon": -77.02383516666667, "is_disabled": 0, "type": "electric_scooter"}, {"bike_id": "68094178b892369316f26100d2a3ba86", "lat": 38.88733783333333, "is_reserved": 0, "fusion_lat": 0.0, "rental_uris": {"android": "https://dc.lft.to/lastmile_qr_scan", "ios": "https://dc.lft.to/lastmile_qr_scan"}, "fusion_lon": 0.0, "name": "68094178b892369316f26100d2a3ba86", "lon": -77.02838533333333, "is_disabled": 0, "type": "electric_scooter"}, {"bike_id": "268751d26df5999efcdba9c813673c73", "lat": 38.898157166666664, "is_reserved": 0, "fusion_lat": 0.0, "rental_uris": {"android": "https://dc.lft.to/lastmile_qr_scan", "ios": "https://dc.lft.to/lastmile_qr_scan"}, "fusion_lon": 0.0, "name": "268751d26df5999efcdba9c813673c73", "lon": -77.01226866666667, "is_disabled": 0, "type": "electric_scooter"}, {"bike_id": "21184976dcb20bd2b78574d70c438156", "lat": 38.904480666666664, "is_reserved": 0, "fusion_lat": 0.0, "rental_uris": {"android": "https://dc.lft.to/lastmile_qr_scan", "ios": "https://dc.lft.to/lastmile_qr_scan"}, "fusion_lon": 0.0, "name": "21184976dcb20bd2b78574d70c438156", "lon": -77.04480216666667, "is_disabled": 0, "type": "electric_scooter"}, {"bike_id": "4ff9b9e5b08c8b11e233d09ace75f479", "lat": 38.903447166666666, "is_reserved": 0, "fusion_lat": 0.0, "rental_uris": {"android": "https://dc.lft.to/lastmile_qr_scan", "ios": "https://dc.lft.to/lastmile_qr_scan"}, "fusion_lon": 0.0, "name": "4ff9b9e5b08c8b11e233d09ace75f479", "lon": -76.98513716666666, "is_disabled": 0, "type": "electric_scooter"}, {"bike_id": "9bbd51f4747c377f5e19cc02c1eddc01", "lat": 38.8974045, "is_reserved": 0, "fusion_lat": 0.0, "rental_uris": {"android": "https://dc.lft.to/lastmile_qr_scan", "ios": "https://dc.lft.to/lastmile_qr_scan"}, "fusion_lon": 0.0, "name": "9bbd51f4747c377f5e19cc02c1eddc01", "lon": -77.02696266666666, "is_disabled": 0, "type": "electric_scooter"}, {"bike_id": "e8e98f5c8b299a8c26cc0d2c727e7cf2", "lat": 38.835808166666666, "is_reserved": 0, "fusion_lat": 0.0, "rental_uris": {"android": "https://dc.lft.to/lastmile_qr_scan", "ios": "https://dc.lft.to/lastmile_qr_scan"}, "fusion_lon": 0.0, "name": "e8e98f5c8b299a8c26cc0d2c727e7cf2", "lon": -77.001259, "is_disabled": 0, "type": "electric_scooter"}, {"bike_id": "c178eda4d3cff01b5577f34854df0af6", "lat": 38.8945895, "is_reserved": 0, "fusion_lat": 0.0, "rental_uris": {"android": "https://dc.lft.to/lastmile_qr_scan", "ios": "https://dc.lft.to/lastmile_qr_scan"}, "fusion_lon": 0.0, "name": "c178eda4d3cff01b5577f34854df0af6", "lon": -77.00349616666666, "is_disabled": 0, "type": "electric_scooter"}, {"bike_id": "c02a7c6c089f8204c3d618a56b3773e8", "lat": 38.928882333333334, "is_reserved": 0, "fusion_lat": 0.0, "rental_uris": {"android": "https://dc.lft.to/lastmile_qr_scan", "ios": "https://dc.lft.to/lastmile_qr_scan"}, "fusion_lon": 0.0, "name": "c02a7c6c089f8204c3d618a56b3773e8", "lon": -77.03256266666666, "is_disabled": 0, "type": "electric_scooter"}, {"bike_id": "d1f7c2e9db962b4588e2ff9dd68c04bb", "lat": 38.908701666666666, "is_reserved": 0, "fusion_lat": 0.0, "rental_uris": {"android": "https://dc.lft.to/lastmile_qr_scan", "ios": "https://dc.lft.to/lastmile_qr_scan"}, "fusion_lon": 0.0, "name": "d1f7c2e9db962b4588e2ff9dd68c04bb", "lon": -76.99790633333333, "is_disabled": 0, "type": "electric_scooter"}, {"bike_id": "6d7d5058ddf641115245404c5db11861", "lat": 38.919770166666666, "is_reserved": 0, "fusion_lat": 0.0, "rental_uris": {"android": "https://dc.lft.to/lastmile_qr_scan", "ios": "https://dc.lft.to/lastmile_qr_scan"}, "fusion_lon": 0.0, "name": "6d7d5058ddf641115245404c5db11861", "lon": -77.01211983333333, "is_disabled": 0, "type": "electric_scooter"}, {"bike_id": "46fbe3b052dbd82f718cc8ea56c12ebd", "lat": 38.916671666666666, "is_reserved": 0, "fusion_lat": 0.0, "rental_uris": {"android": "https://dc.lft.to/lastmile_qr_scan", "ios": "https://dc.lft.to/lastmile_qr_scan"}, "fusion_lon": 0.0, "name": "46fbe3b052dbd82f718cc8ea56c12ebd", "lon": -77.02327416666667, "is_disabled": 0, "type": "electric_scooter"}, {"bike_id": "48cdeb84f14ded95ea6ce55fd04809ce", "lat": 38.89223466666667, "is_reserved": 0, "fusion_lat": 0.0, "rental_uris": {"android": "https://dc.lft.to/lastmile_qr_scan", "ios": "https://dc.lft.to/lastmile_qr_scan"}, "fusion_lon": 0.0, "name": "48cdeb84f14ded95ea6ce55fd04809ce", "lon": -77.03214, "is_disabled": 0, "type": "electric_scooter"}, {"bike_id": "6c5575e7aa3ef8af16192309d2bfa6d7", "lat": 38.9170725, "is_reserved": 0, "fusion_lat": 0.0, "rental_uris": {"android": "https://dc.lft.to/lastmile_qr_scan", "ios": "https://dc.lft.to/lastmile_qr_scan"}, "fusion_lon": 0.0, "name": "6c5575e7aa3ef8af16192309d2bfa6d7", "lon": -77.09581983333334, "is_disabled": 0, "type": "electric_scooter"}, {"bike_id": "5ce02cd5d0180e2ab05b7c72f71c4cfc", "lat": 38.86505116666667, "is_reserved": 0, "fusion_lat": 0.0, "rental_uris": {"android": "https://dc.lft.to/lastmile_qr_scan", "ios": "https://dc.lft.to/lastmile_qr_scan"}, "fusion_lon": 0.0, "name": "5ce02cd5d0180e2ab05b7c72f71c4cfc", "lon": -76.99016583333334, "is_disabled": 0, "type": "electric_scooter"}, {"bike_id": "bf3c36861da0360abb93910b57db439d", "lat": 38.927697, "is_reserved": 0, "fusion_lat": 0.0, "rental_uris": {"android": "https://dc.lft.to/lastmile_qr_scan", "ios": "https://dc.lft.to/lastmile_qr_scan"}, "fusion_lon": 0.0, "name": "bf3c36861da0360abb93910b57db439d", "lon": -76.9876005, "is_disabled": 0, "type": "electric_scooter"}, {"bike_id": "0bf5323b730a2a3b18b9bb21cd82d35c", "lat": 38.904984666666664, "is_reserved": 0, "fusion_lat": 0.0, "rental_uris": {"android": "https://dc.lft.to/lastmile_qr_scan", "ios": "https://dc.lft.to/lastmile_qr_scan"}, "fusion_lon": 0.0, "name": "0bf5323b730a2a3b18b9bb21cd82d35c", "lon": -77.04089016666667, "is_disabled": 0, "type": "electric_scooter"}, {"bike_id": "59e9995a93e8b9f609c562b9743dd3c7", "lat": 38.8838605, "is_reserved": 0, "fusion_lat": 0.0, "rental_uris": {"android": "https://dc.lft.to/lastmile_qr_scan", "ios": "https://dc.lft.to/lastmile_qr_scan"}, "fusion_lon": 0.0, "name": "59e9995a93e8b9f609c562b9743dd3c7", "lon": -77.01775016666667, "is_disabled": 0, "type": "electric_scooter"}, {"bike_id": "e41ef3012bd1a28de056da11b422b17f", "lat": 38.907679, "is_reserved": 0, "fusion_lat": 0.0, "rental_uris": {"android": "https://dc.lft.to/lastmile_qr_scan", "ios": "https://dc.lft.to/lastmile_qr_scan"}, "fusion_lon": 0.0, "name": "e41ef3012bd1a28de056da11b422b17f", "lon": -77.07393816666666, "is_disabled": 0, "type": "electric_scooter"}, {"bike_id": "f4eb77a96d38b69d7d7942d8922d28ba", "lat": 38.866829, "is_reserved": 0, "fusion_lat": 0.0, "rental_uris": {"android": "https://dc.lft.to/lastmile_qr_scan", "ios": "https://dc.lft.to/lastmile_qr_scan"}, "fusion_lon": 0.0, "name": "f4eb77a96d38b69d7d7942d8922d28ba", "lon": -76.98580183333334, "is_disabled": 0, "type": "electric_scooter"}, {"bike_id": "618e94352187d506205eee1b56ddb0e8", "lat": 38.90234433333333, "is_reserved": 0, "fusion_lat": 0.0, "rental_uris": {"android": "https://dc.lft.to/lastmile_qr_scan", "ios": "https://dc.lft.to/lastmile_qr_scan"}, "fusion_lon": 0.0, "name": "618e94352187d506205eee1b56ddb0e8", "lon": -77.05904866666667, "is_disabled": 0, "type": "electric_scooter"}, {"bike_id": "312e81f84d0e405217335e6ec5cadcd3", "lat": 38.94350266666667, "is_reserved": 0, "fusion_lat": 0.0, "rental_uris": {"android": "https://dc.lft.to/lastmile_qr_scan", "ios": "https://dc.lft.to/lastmile_qr_scan"}, "fusion_lon": 0.0, "name": "312e81f84d0e405217335e6ec5cadcd3", "lon": -77.037707, "is_disabled": 0, "type": "electric_scooter"}, {"bike_id": "11e6198bf17067a9522f24bf237e0c7f", "lat": 38.9155185, "is_reserved": 0, "fusion_lat": 0.0, "rental_uris": {"android": "https://dc.lft.to/lastmile_qr_scan", "ios": "https://dc.lft.to/lastmile_qr_scan"}, "fusion_lon": 0.0, "name": "11e6198bf17067a9522f24bf237e0c7f", "lon": -77.04445416666667, "is_disabled": 0, "type": "electric_scooter"}, {"bike_id": "6ed53efa4a4665965f739662f7ee71d6", "lat": 38.929722166666664, "is_reserved": 0, "fusion_lat": 0.0, "rental_uris": {"android": "https://dc.lft.to/lastmile_qr_scan", "ios": "https://dc.lft.to/lastmile_qr_scan"}, "fusion_lon": 0.0, "name": "6ed53efa4a4665965f739662f7ee71d6", "lon": -77.027894, "is_disabled": 0, "type": "electric_scooter"}, {"bike_id": "02675864b61b7efa8a16d4fa47edb9fd", "lat": 38.900361, "is_reserved": 0, "fusion_lat": 0.0, "rental_uris": {"android": "https://dc.lft.to/lastmile_qr_scan", "ios": "https://dc.lft.to/lastmile_qr_scan"}, "fusion_lon": 0.0, "name": "02675864b61b7efa8a16d4fa47edb9fd", "lon": -76.97226983333333, "is_disabled": 0, "type": "electric_bike"}, {"bike_id": "b6b01db6ab85c9acf9a6704be5cc4d87", "lat": 38.905291, "is_reserved": 0, "fusion_lat": 0.0, "rental_uris": {"android": "https://dc.lft.to/lastmile_qr_scan", "ios": "https://dc.lft.to/lastmile_qr_scan"}, "fusion_lon": 0.0, "name": "b6b01db6ab85c9acf9a6704be5cc4d87", "lon": -77.04156616666667, "is_disabled": 0, "type": "electric_scooter"}, {"bike_id": "3b7b6fda98dc46671dbd4b4f33adae95", "lat": 38.898334, "is_reserved": 0, "fusion_lat": 0.0, "rental_uris": {"android": "https://dc.lft.to/lastmile_qr_scan", "ios": "https://dc.lft.to/lastmile_qr_scan"}, "fusion_lon": 0.0, "name": "3b7b6fda98dc46671dbd4b4f33adae95", "lon": -76.91953866666667, "is_disabled": 0, "type": "electric_scooter"}, {"bike_id": "a7ec4105e39448ed13f4d643293d3c9f", "lat": 38.86018816666667, "is_reserved": 0, "fusion_lat": 0.0, "rental_uris": {"android": "https://dc.lft.to/lastmile_qr_scan", "ios": "https://dc.lft.to/lastmile_qr_scan"}, "fusion_lon": 0.0, "name": "a7ec4105e39448ed13f4d643293d3c9f", "lon": -76.99686633333333, "is_disabled": 0, "type": "electric_scooter"}, {"bike_id": "fe380cb9d8fb81cbd5676817ba75a1b9", "lat": 38.92621416666667, "is_reserved": 0, "fusion_lat": 0.0, "rental_uris": {"android": "https://dc.lft.to/lastmile_qr_scan", "ios": "https://dc.lft.to/lastmile_qr_scan"}, "fusion_lon": 0.0, "name": "fe380cb9d8fb81cbd5676817ba75a1b9", "lon": -77.03708616666667, "is_disabled": 0, "type": "electric_scooter"}, {"bike_id": "48381ddf5718006f5b2ea670b0f50a65", "lat": 38.90854133333333, "is_reserved": 0, "fusion_lat": 0.0, "rental_uris": {"android": "https://dc.lft.to/lastmile_qr_scan", "ios": "https://dc.lft.to/lastmile_qr_scan"}, "fusion_lon": 0.0, "name": "48381ddf5718006f5b2ea670b0f50a65", "lon": -76.99801416666666, "is_disabled": 0, "type": "electric_scooter"}, {"bike_id": "107f0f0e8393ed630f3c3f81ebae399e", "lat": 38.90768083333333, "is_reserved": 0, "fusion_lat": 0.0, "rental_uris": {"android": "https://dc.lft.to/lastmile_qr_scan", "ios": "https://dc.lft.to/lastmile_qr_scan"}, "fusion_lon": 0.0, "name": "107f0f0e8393ed630f3c3f81ebae399e", "lon": -77.03468616666666, "is_disabled": 0, "type": "electric_scooter"}, {"bike_id": "81c732d353ee34e1a7a98f5f2b2b1e42", "lat": 38.87654966666667, "is_reserved": 0, "fusion_lat": 0.0, "rental_uris": {"android": "https://dc.lft.to/lastmile_qr_scan", "ios": "https://dc.lft.to/lastmile_qr_scan"}, "fusion_lon": 0.0, "name": "81c732d353ee34e1a7a98f5f2b2b1e42", "lon": -76.931324, "is_disabled": 0, "type": "electric_scooter"}, {"bike_id": "ec051906fa482613c344eb8e520aa4ee", "lat": 38.892190166666666, "is_reserved": 0, "fusion_lat": 0.0, "rental_uris": {"android": "https://dc.lft.to/lastmile_qr_scan", "ios": "https://dc.lft.to/lastmile_qr_scan"}, "fusion_lon": 0.0, "name": "ec051906fa482613c344eb8e520aa4ee", "lon": -77.043073, "is_disabled": 0, "type": "electric_scooter"}, {"bike_id": "81fc5fe4937a6b9dee04cc881c19c687", "lat": 38.876483, "is_reserved": 0, "fusion_lat": 0.0, "rental_uris": {"android": "https://dc.lft.to/lastmile_qr_scan", "ios": "https://dc.lft.to/lastmile_qr_scan"}, "fusion_lon": 0.0, "name": "81fc5fe4937a6b9dee04cc881c19c687", "lon": -77.004378, "is_disabled": 0, "type": "electric_scooter"}, {"bike_id": "d81f37fa92c250b8966e2d7caf3b8192", "lat": 38.920624833333335, "is_reserved": 0, "fusion_lat": 0.0, "rental_uris": {"android": "https://dc.lft.to/lastmile_qr_scan", "ios": "https://dc.lft.to/lastmile_qr_scan"}, "fusion_lon": 0.0, "name": "d81f37fa92c250b8966e2d7caf3b8192", "lon": -77.04259316666666, "is_disabled": 0, "type": "electric_scooter"}, {"bike_id": "57e5b65bab53cf7504b5ba6031f91be9", "lat": 38.9112205, "is_reserved": 0, "fusion_lat": 0.0, "rental_uris": {"android": "https://dc.lft.to/lastmile_qr_scan", "ios": "https://dc.lft.to/lastmile_qr_scan"}, "fusion_lon": 0.0, "name": "57e5b65bab53cf7504b5ba6031f91be9", "lon": -77.0434615, "is_disabled": 0, "type": "electric_scooter"}, {"bike_id": "d70d50a8ba836a09a94c947e9e536ed3", "lat": 38.8885795, "is_reserved": 0, "fusion_lat": 0.0, "rental_uris": {"android": "https://dc.lft.to/lastmile_qr_scan", "ios": "https://dc.lft.to/lastmile_qr_scan"}, "fusion_lon": 0.0, "name": "d70d50a8ba836a09a94c947e9e536ed3", "lon": -77.00053933333334, "is_disabled": 0, "type": "electric_scooter"}, {"bike_id": "a9d93a3077fa9a6c70c7fc21809e1738", "lat": 38.89600166666666, "is_reserved": 0, "fusion_lat": 0.0, "rental_uris": {"android": "https://dc.lft.to/lastmile_qr_scan", "ios": "https://dc.lft.to/lastmile_qr_scan"}, "fusion_lon": 0.0, "name": "a9d93a3077fa9a6c70c7fc21809e1738", "lon": -77.02252716666666, "is_disabled": 0, "type": "electric_scooter"}, {"bike_id": "6aee7e63aaaaacc8e6f14e90f6dcb013", "lat": 38.918916333333335, "is_reserved": 0, "fusion_lat": 0.0, "rental_uris": {"android": "https://dc.lft.to/lastmile_qr_scan", "ios": "https://dc.lft.to/lastmile_qr_scan"}, "fusion_lon": 0.0, "name": "6aee7e63aaaaacc8e6f14e90f6dcb013", "lon": -77.029739, "is_disabled": 0, "type": "electric_scooter"}, {"bike_id": "098a47b850d350d73197f0810a0f4382", "lat": 38.877373166666665, "is_reserved": 0, "fusion_lat": 0.0, "rental_uris": {"android": "https://dc.lft.to/lastmile_qr_scan", "ios": "https://dc.lft.to/lastmile_qr_scan"}, "fusion_lon": 0.0, "name": "098a47b850d350d73197f0810a0f4382", "lon": -77.0215835, "is_disabled": 0, "type": "electric_scooter"}, {"bike_id": "82e10a4bdb66531420d69c481bb048ea", "lat": 38.95075516666667, "is_reserved": 0, "fusion_lat": 0.0, "rental_uris": {"android": "https://dc.lft.to/lastmile_qr_scan", "ios": "https://dc.lft.to/lastmile_qr_scan"}, "fusion_lon": 0.0, "name": "82e10a4bdb66531420d69c481bb048ea", "lon": -77.0298985, "is_disabled": 0, "type": "electric_scooter"}, {"bike_id": "87f4d0f2dfa9cddc90e062ac2f3fcfc7", "lat": 38.907272, "is_reserved": 0, "fusion_lat": 0.0, "rental_uris": {"android": "https://dc.lft.to/lastmile_qr_scan", "ios": "https://dc.lft.to/lastmile_qr_scan"}, "fusion_lon": 0.0, "name": "87f4d0f2dfa9cddc90e062ac2f3fcfc7", "lon": -77.02375916666666, "is_disabled": 0, "type": "electric_scooter"}, {"bike_id": "5ed37856ca4de5d26056bc35cf2c659b", "lat": 38.90969783333333, "is_reserved": 0, "fusion_lat": 0.0, "rental_uris": {"android": "https://dc.lft.to/lastmile_qr_scan", "ios": "https://dc.lft.to/lastmile_qr_scan"}, "fusion_lon": 0.0, "name": "5ed37856ca4de5d26056bc35cf2c659b", "lon": -77.02701733333333, "is_disabled": 0, "type": "electric_scooter"}, {"bike_id": "46b8474d77af806e4b4d235a4826695d", "lat": 38.9231585, "is_reserved": 0, "fusion_lat": 0.0, "rental_uris": {"android": "https://dc.lft.to/lastmile_qr_scan", "ios": "https://dc.lft.to/lastmile_qr_scan"}, "fusion_lon": 0.0, "name": "46b8474d77af806e4b4d235a4826695d", "lon": -77.04443583333334, "is_disabled": 0, "type": "electric_scooter"}, {"bike_id": "a672b15389fc5ba3f1d1bdc01e1841a9", "lat": 38.88186366666667, "is_reserved": 0, "fusion_lat": 0.0, "rental_uris": {"android": "https://dc.lft.to/lastmile_qr_scan", "ios": "https://dc.lft.to/lastmile_qr_scan"}, "fusion_lon": 0.0, "name": "a672b15389fc5ba3f1d1bdc01e1841a9", "lon": -77.02087916666666, "is_disabled": 0, "type": "electric_scooter"}, {"bike_id": "9773128e53dd36624aadf8b526fa2075", "lat": 38.9499175, "is_reserved": 0, "fusion_lat": 0.0, "rental_uris": {"android": "https://dc.lft.to/lastmile_qr_scan", "ios": "https://dc.lft.to/lastmile_qr_scan"}, "fusion_lon": 0.0, "name": "9773128e53dd36624aadf8b526fa2075", "lon": -77.0183225, "is_disabled": 0, "type": "electric_scooter"}, {"bike_id": "e9dfc05b9fec04be1de46c9477786892", "lat": 38.876476333333336, "is_reserved": 0, "fusion_lat": 0.0, "rental_uris": {"android": "https://dc.lft.to/lastmile_qr_scan", "ios": "https://dc.lft.to/lastmile_qr_scan"}, "fusion_lon": 0.0, "name": "e9dfc05b9fec04be1de46c9477786892", "lon": -77.00443266666667, "is_disabled": 0, "type": "electric_scooter"}, {"bike_id": "deba5f77fb9f7d74c25a80af97b9c460", "lat": 38.90182083333333, "is_reserved": 0, "fusion_lat": 0.0, "rental_uris": {"android": "https://dc.lft.to/lastmile_qr_scan", "ios": "https://dc.lft.to/lastmile_qr_scan"}, "fusion_lon": 0.0, "name": "deba5f77fb9f7d74c25a80af97b9c460", "lon": -77.020335, "is_disabled": 0, "type": "electric_scooter"}, {"bike_id": "922a07f136d6ab19720283e249a475b0", "lat": 38.88659333333333, "is_reserved": 0, "fusion_lat": 0.0, "rental_uris": {"android": "https://dc.lft.to/lastmile_qr_scan", "ios": "https://dc.lft.to/lastmile_qr_scan"}, "fusion_lon": 0.0, "name": "922a07f136d6ab19720283e249a475b0", "lon": -77.16235966666666, "is_disabled": 0, "type": "electric_bike"}, {"bike_id": "4ba58b7b07a31819eba86dc35a66066e", "lat": 38.87621566666667, "is_reserved": 0, "fusion_lat": 0.0, "rental_uris": {"android": "https://dc.lft.to/lastmile_qr_scan", "ios": "https://dc.lft.to/lastmile_qr_scan"}, "fusion_lon": 0.0, "name": "4ba58b7b07a31819eba86dc35a66066e", "lon": -76.96528733333334, "is_disabled": 0, "type": "electric_scooter"}, {"bike_id": "a9c0a5d21b4c9c5fefa5a6927560b30c", "lat": 38.931526833333336, "is_reserved": 0, "fusion_lat": 0.0, "rental_uris": {"android": "https://dc.lft.to/lastmile_qr_scan", "ios": "https://dc.lft.to/lastmile_qr_scan"}, "fusion_lon": 0.0, "name": "a9c0a5d21b4c9c5fefa5a6927560b30c", "lon": -77.02882366666667, "is_disabled": 0, "type": "electric_scooter"}, {"bike_id": "7097ec783aeb4bf74ac636254227b800", "lat": 38.883415, "is_reserved": 0, "fusion_lat": 0.0, "rental_uris": {"android": "https://dc.lft.to/lastmile_qr_scan", "ios": "https://dc.lft.to/lastmile_qr_scan"}, "fusion_lon": 0.0, "name": "7097ec783aeb4bf74ac636254227b800", "lon": -76.9949185, "is_disabled": 0, "type": "electric_scooter"}, {"bike_id": "87777b7482865657060c0c30f4fdc85c", "lat": 38.900705333333335, "is_reserved": 0, "fusion_lat": 0.0, "rental_uris": {"android": "https://dc.lft.to/lastmile_qr_scan", "ios": "https://dc.lft.to/lastmile_qr_scan"}, "fusion_lon": 0.0, "name": "87777b7482865657060c0c30f4fdc85c", "lon": -76.92743183333333, "is_disabled": 0, "type": "electric_scooter"}, {"bike_id": "f8b68b554fe5077c07601cf069e2fc1c", "lat": 38.9052005, "is_reserved": 0, "fusion_lat": 0.0, "rental_uris": {"android": "https://dc.lft.to/lastmile_qr_scan", "ios": "https://dc.lft.to/lastmile_qr_scan"}, "fusion_lon": 0.0, "name": "f8b68b554fe5077c07601cf069e2fc1c", "lon": -77.043614, "is_disabled": 0, "type": "electric_scooter"}, {"bike_id": "2bd68505d67e01ef5b5433d7911b55fb", "lat": 38.90979083333333, "is_reserved": 0, "fusion_lat": 0.0, "rental_uris": {"android": "https://dc.lft.to/lastmile_qr_scan", "ios": "https://dc.lft.to/lastmile_qr_scan"}, "fusion_lon": 0.0, "name": "2bd68505d67e01ef5b5433d7911b55fb", "lon": -76.995128, "is_disabled": 0, "type": "electric_scooter"}, {"bike_id": "1cf533e28b3a620748002acb1433d5d5", "lat": 38.931949333333336, "is_reserved": 0, "fusion_lat": 0.0, "rental_uris": {"android": "https://dc.lft.to/lastmile_qr_scan", "ios": "https://dc.lft.to/lastmile_qr_scan"}, "fusion_lon": 0.0, "name": "1cf533e28b3a620748002acb1433d5d5", "lon": -77.02399833333334, "is_disabled": 0, "type": "electric_scooter"}, {"bike_id": "2f696f435d67f3c4910aede5c4e30080", "lat": 38.90605766666667, "is_reserved": 0, "fusion_lat": 0.0, "rental_uris": {"android": "https://dc.lft.to/lastmile_qr_scan", "ios": "https://dc.lft.to/lastmile_qr_scan"}, "fusion_lon": 0.0, "name": "2f696f435d67f3c4910aede5c4e30080", "lon": -77.076445, "is_disabled": 0, "type": "electric_bike"}, {"bike_id": "e1787e6ffc95beee20e0aece13edd004", "lat": 38.926908833333336, "is_reserved": 0, "fusion_lat": 0.0, "rental_uris": {"android": "https://dc.lft.to/lastmile_qr_scan", "ios": "https://dc.lft.to/lastmile_qr_scan"}, "fusion_lon": 0.0, "name": "e1787e6ffc95beee20e0aece13edd004", "lon": -77.01501783333333, "is_disabled": 0, "type": "electric_scooter"}, {"bike_id": "12c00902793ca8c197a1b58f1fa9d9de", "lat": 38.9072605, "is_reserved": 0, "fusion_lat": 0.0, "rental_uris": {"android": "https://dc.lft.to/lastmile_qr_scan", "ios": "https://dc.lft.to/lastmile_qr_scan"}, "fusion_lon": 0.0, "name": "12c00902793ca8c197a1b58f1fa9d9de", "lon": -77.031818, "is_disabled": 0, "type": "electric_scooter"}, {"bike_id": "f6b55ca66c766ad5a0575cb16ca12876", "lat": 38.892879666666666, "is_reserved": 0, "fusion_lat": 0.0, "rental_uris": {"android": "https://dc.lft.to/lastmile_qr_scan", "ios": "https://dc.lft.to/lastmile_qr_scan"}, "fusion_lon": 0.0, "name": "f6b55ca66c766ad5a0575cb16ca12876", "lon": -77.04490766666666, "is_disabled": 0, "type": "electric_scooter"}, {"bike_id": "ea0b7e59ac6a4c08a7a98045e9c58400", "lat": 38.901175333333335, "is_reserved": 0, "fusion_lat": 0.0, "rental_uris": {"android": "https://dc.lft.to/lastmile_qr_scan", "ios": "https://dc.lft.to/lastmile_qr_scan"}, "fusion_lon": 0.0, "name": "ea0b7e59ac6a4c08a7a98045e9c58400", "lon": -77.04479233333333, "is_disabled": 0, "type": "electric_scooter"}, {"bike_id": "96c35226a3eaaeb7a9e48d5e5948b299", "lat": 38.897371, "is_reserved": 0, "fusion_lat": 0.0, "rental_uris": {"android": "https://dc.lft.to/lastmile_qr_scan", "ios": "https://dc.lft.to/lastmile_qr_scan"}, "fusion_lon": 0.0, "name": "96c35226a3eaaeb7a9e48d5e5948b299", "lon": -77.02459916666666, "is_disabled": 0, "type": "electric_scooter"}, {"bike_id": "8dcdac7b5dd889f80d447b366de75740", "lat": 38.92008116666667, "is_reserved": 0, "fusion_lat": 0.0, "rental_uris": {"android": "https://dc.lft.to/lastmile_qr_scan", "ios": "https://dc.lft.to/lastmile_qr_scan"}, "fusion_lon": 0.0, "name": "8dcdac7b5dd889f80d447b366de75740", "lon": -77.0320635, "is_disabled": 0, "type": "electric_scooter"}, {"bike_id": "460fbde99c78f5857674f26c401d30a2", "lat": 38.942918166666665, "is_reserved": 0, "fusion_lat": 0.0, "rental_uris": {"android": "https://dc.lft.to/lastmile_qr_scan", "ios": "https://dc.lft.to/lastmile_qr_scan"}, "fusion_lon": 0.0, "name": "460fbde99c78f5857674f26c401d30a2", "lon": -77.02174566666666, "is_disabled": 0, "type": "electric_scooter"}, {"bike_id": "e3e951ce002b84c20fe309976757468d", "lat": 38.93420116666667, "is_reserved": 0, "fusion_lat": 0.0, "rental_uris": {"android": "https://dc.lft.to/lastmile_qr_scan", "ios": "https://dc.lft.to/lastmile_qr_scan"}, "fusion_lon": 0.0, "name": "e3e951ce002b84c20fe309976757468d", "lon": -77.040032, "is_disabled": 0, "type": "electric_scooter"}, {"bike_id": "8116855e7facf230f286c9a2f804e3d4", "lat": 38.911057666666665, "is_reserved": 0, "fusion_lat": 0.0, "rental_uris": {"android": "https://dc.lft.to/lastmile_qr_scan", "ios": "https://dc.lft.to/lastmile_qr_scan"}, "fusion_lon": 0.0, "name": "8116855e7facf230f286c9a2f804e3d4", "lon": -77.043609, "is_disabled": 0, "type": "electric_scooter"}, {"bike_id": "6520e3e59fc95b38f4210ac4301fe8c3", "lat": 38.915487, "is_reserved": 0, "fusion_lat": 0.0, "rental_uris": {"android": "https://dc.lft.to/lastmile_qr_scan", "ios": "https://dc.lft.to/lastmile_qr_scan"}, "fusion_lon": 0.0, "name": "6520e3e59fc95b38f4210ac4301fe8c3", "lon": -77.04452083333334, "is_disabled": 0, "type": "electric_scooter"}, {"bike_id": "fd05add026fc85ad818d79b4e12dff1e", "lat": 38.91901416666666, "is_reserved": 0, "fusion_lat": 0.0, "rental_uris": {"android": "https://dc.lft.to/lastmile_qr_scan", "ios": "https://dc.lft.to/lastmile_qr_scan"}, "fusion_lon": 0.0, "name": "fd05add026fc85ad818d79b4e12dff1e", "lon": -77.016891, "is_disabled": 0, "type": "electric_scooter"}, {"bike_id": "4be9ce61fc5336baf44c90b2dd60c028", "lat": 38.873734666666664, "is_reserved": 0, "fusion_lat": 0.0, "rental_uris": {"android": "https://dc.lft.to/lastmile_qr_scan", "ios": "https://dc.lft.to/lastmile_qr_scan"}, "fusion_lon": 0.0, "name": "4be9ce61fc5336baf44c90b2dd60c028", "lon": -77.0010995, "is_disabled": 0, "type": "electric_scooter"}, {"bike_id": "1003b5abc34276574130e340d0e3eaf7", "lat": 38.9553025, "is_reserved": 0, "fusion_lat": 0.0, "rental_uris": {"android": "https://dc.lft.to/lastmile_qr_scan", "ios": "https://dc.lft.to/lastmile_qr_scan"}, "fusion_lon": 0.0, "name": "1003b5abc34276574130e340d0e3eaf7", "lon": -77.027836, "is_disabled": 0, "type": "electric_scooter"}, {"bike_id": "e8689d73739bc161ffe690a900cb7a7b", "lat": 38.925842833333334, "is_reserved": 0, "fusion_lat": 0.0, "rental_uris": {"android": "https://dc.lft.to/lastmile_qr_scan", "ios": "https://dc.lft.to/lastmile_qr_scan"}, "fusion_lon": 0.0, "name": "e8689d73739bc161ffe690a900cb7a7b", "lon": -77.03985133333333, "is_disabled": 0, "type": "electric_scooter"}, {"bike_id": "29b466825fd25c3ffd31a7774fbd2674", "lat": 38.8535285, "is_reserved": 0, "fusion_lat": 0.0, "rental_uris": {"android": "https://dc.lft.to/lastmile_qr_scan", "ios": "https://dc.lft.to/lastmile_qr_scan"}, "fusion_lon": 0.0, "name": "29b466825fd25c3ffd31a7774fbd2674", "lon": -77.134666, "is_disabled": 0, "type": "electric_bike"}, {"bike_id": "c8b483b99e0319a7eed0f641e8d91799", "lat": 38.89971966666667, "is_reserved": 0, "fusion_lat": 0.0, "rental_uris": {"android": "https://dc.lft.to/lastmile_qr_scan", "ios": "https://dc.lft.to/lastmile_qr_scan"}, "fusion_lon": 0.0, "name": "c8b483b99e0319a7eed0f641e8d91799", "lon": -77.03170366666667, "is_disabled": 0, "type": "electric_scooter"}, {"bike_id": "06336ef48d4a43d83da4ec699017513e", "lat": 38.94289533333333, "is_reserved": 0, "fusion_lat": 0.0, "rental_uris": {"android": "https://dc.lft.to/lastmile_qr_scan", "ios": "https://dc.lft.to/lastmile_qr_scan"}, "fusion_lon": 0.0, "name": "06336ef48d4a43d83da4ec699017513e", "lon": -77.02175833333334, "is_disabled": 0, "type": "electric_scooter"}, {"bike_id": "e57e0525c06875e04ac6d68d05bd8d93", "lat": 38.90027283333333, "is_reserved": 0, "fusion_lat": 0.0, "rental_uris": {"android": "https://dc.lft.to/lastmile_qr_scan", "ios": "https://dc.lft.to/lastmile_qr_scan"}, "fusion_lon": 0.0, "name": "e57e0525c06875e04ac6d68d05bd8d93", "lon": -77.0008275, "is_disabled": 0, "type": "electric_scooter"}, {"bike_id": "77b1e0ef47460dd2f7d37fc78f1fe8f2", "lat": 38.91671433333333, "is_reserved": 0, "fusion_lat": 0.0, "rental_uris": {"android": "https://dc.lft.to/lastmile_qr_scan", "ios": "https://dc.lft.to/lastmile_qr_scan"}, "fusion_lon": 0.0, "name": "77b1e0ef47460dd2f7d37fc78f1fe8f2", "lon": -77.02386233333333, "is_disabled": 0, "type": "electric_scooter"}, {"bike_id": "349059f33c4a5061ef00e92601cccc9b", "lat": 38.92414766666667, "is_reserved": 0, "fusion_lat": 0.0, "rental_uris": {"android": "https://dc.lft.to/lastmile_qr_scan", "ios": "https://dc.lft.to/lastmile_qr_scan"}, "fusion_lon": 0.0, "name": "349059f33c4a5061ef00e92601cccc9b", "lon": -77.02137933333333, "is_disabled": 0, "type": "electric_scooter"}, {"bike_id": "9e12fe02820ec692dfbb5cf05eec4bea", "lat": 38.9215805, "is_reserved": 0, "fusion_lat": 0.0, "rental_uris": {"android": "https://dc.lft.to/lastmile_qr_scan", "ios": "https://dc.lft.to/lastmile_qr_scan"}, "fusion_lon": 0.0, "name": "9e12fe02820ec692dfbb5cf05eec4bea", "lon": -77.03392116666667, "is_disabled": 0, "type": "electric_scooter"}, {"bike_id": "fec40759e167148993a4d4a462cc05f1", "lat": 38.90756533333333, "is_reserved": 0, "fusion_lat": 0.0, "rental_uris": {"android": "https://dc.lft.to/lastmile_qr_scan", "ios": "https://dc.lft.to/lastmile_qr_scan"}, "fusion_lon": 0.0, "name": "fec40759e167148993a4d4a462cc05f1", "lon": -77.032135, "is_disabled": 0, "type": "electric_scooter"}, {"bike_id": "565de84b32491aced8404f60ab74d553", "lat": 38.89974183333333, "is_reserved": 0, "fusion_lat": 0.0, "rental_uris": {"android": "https://dc.lft.to/lastmile_qr_scan", "ios": "https://dc.lft.to/lastmile_qr_scan"}, "fusion_lon": 0.0, "name": "565de84b32491aced8404f60ab74d553", "lon": -77.01884733333333, "is_disabled": 0, "type": "electric_scooter"}, {"bike_id": "1bbee2d4c063397e31d31737880b17b5", "lat": 38.9235685, "is_reserved": 0, "fusion_lat": 0.0, "rental_uris": {"android": "https://dc.lft.to/lastmile_qr_scan", "ios": "https://dc.lft.to/lastmile_qr_scan"}, "fusion_lon": 0.0, "name": "1bbee2d4c063397e31d31737880b17b5", "lon": -77.04132983333334, "is_disabled": 0, "type": "electric_scooter"}, {"bike_id": "4e0800a7e91856206062c12d94647a1d", "lat": 38.9208365, "is_reserved": 0, "fusion_lat": 0.0, "rental_uris": {"android": "https://dc.lft.to/lastmile_qr_scan", "ios": "https://dc.lft.to/lastmile_qr_scan"}, "fusion_lon": 0.0, "name": "4e0800a7e91856206062c12d94647a1d", "lon": -77.031662, "is_disabled": 0, "type": "electric_scooter"}, {"bike_id": "8438d99911b04935f1fe1af3a2455a18", "lat": 38.8668135, "is_reserved": 0, "fusion_lat": 0.0, "rental_uris": {"android": "https://dc.lft.to/lastmile_qr_scan", "ios": "https://dc.lft.to/lastmile_qr_scan"}, "fusion_lon": 0.0, "name": "8438d99911b04935f1fe1af3a2455a18", "lon": -76.98576333333334, "is_disabled": 0, "type": "electric_scooter"}, {"bike_id": "fc2045f4faf774ebfd5cff1247259c55", "lat": 38.907258666666664, "is_reserved": 0, "fusion_lat": 0.0, "rental_uris": {"android": "https://dc.lft.to/lastmile_qr_scan", "ios": "https://dc.lft.to/lastmile_qr_scan"}, "fusion_lon": 0.0, "name": "fc2045f4faf774ebfd5cff1247259c55", "lon": -77.040266, "is_disabled": 0, "type": "electric_scooter"}, {"bike_id": "a1505588d23cb10dab27d3d06ff5434d", "lat": 38.9069745, "is_reserved": 0, "fusion_lat": 0.0, "rental_uris": {"android": "https://dc.lft.to/lastmile_qr_scan", "ios": "https://dc.lft.to/lastmile_qr_scan"}, "fusion_lon": 0.0, "name": "a1505588d23cb10dab27d3d06ff5434d", "lon": -77.02404783333333, "is_disabled": 0, "type": "electric_bike"}, {"bike_id": "3050906e2ce849ced4295432ea8f4aac", "lat": 38.92493183333333, "is_reserved": 0, "fusion_lat": 0.0, "rental_uris": {"android": "https://dc.lft.to/lastmile_qr_scan", "ios": "https://dc.lft.to/lastmile_qr_scan"}, "fusion_lon": 0.0, "name": "3050906e2ce849ced4295432ea8f4aac", "lon": -77.05111966666666, "is_disabled": 0, "type": "electric_scooter"}, {"bike_id": "5cc1caaaebfa4230537258223c847455", "lat": 38.8974275, "is_reserved": 0, "fusion_lat": 0.0, "rental_uris": {"android": "https://dc.lft.to/lastmile_qr_scan", "ios": "https://dc.lft.to/lastmile_qr_scan"}, "fusion_lon": 0.0, "name": "5cc1caaaebfa4230537258223c847455", "lon": -76.97977716666666, "is_disabled": 0, "type": "electric_scooter"}, {"bike_id": "d700c3868d0bc04a369f979e18bb5655", "lat": 38.918111, "is_reserved": 0, "fusion_lat": 0.0, "rental_uris": {"android": "https://dc.lft.to/lastmile_qr_scan", "ios": "https://dc.lft.to/lastmile_qr_scan"}, "fusion_lon": 0.0, "name": "d700c3868d0bc04a369f979e18bb5655", "lon": -77.04007983333334, "is_disabled": 0, "type": "electric_scooter"}, {"bike_id": "a7461760b953dae8ef7bfe77e4f04945", "lat": 38.95089633333333, "is_reserved": 0, "fusion_lat": 0.0, "rental_uris": {"android": "https://dc.lft.to/lastmile_qr_scan", "ios": "https://dc.lft.to/lastmile_qr_scan"}, "fusion_lon": 0.0, "name": "a7461760b953dae8ef7bfe77e4f04945", "lon": -77.08094733333333, "is_disabled": 0, "type": "electric_bike"}, {"bike_id": "b3ef0ca9b26624683db31e2da2340b93", "lat": 38.92247416666667, "is_reserved": 0, "fusion_lat": 0.0, "rental_uris": {"android": "https://dc.lft.to/lastmile_qr_scan", "ios": "https://dc.lft.to/lastmile_qr_scan"}, "fusion_lon": 0.0, "name": "b3ef0ca9b26624683db31e2da2340b93", "lon": -77.0427615, "is_disabled": 0, "type": "electric_scooter"}, {"bike_id": "9f5b06cbe0735772687786f76219de5a", "lat": 38.897200833333336, "is_reserved": 0, "fusion_lat": 0.0, "rental_uris": {"android": "https://dc.lft.to/lastmile_qr_scan", "ios": "https://dc.lft.to/lastmile_qr_scan"}, "fusion_lon": 0.0, "name": "9f5b06cbe0735772687786f76219de5a", "lon": -76.98359616666667, "is_disabled": 0, "type": "electric_scooter"}, {"bike_id": "3b38c9389d634ac26a8e458f5caf74b5", "lat": 38.91488, "is_reserved": 0, "fusion_lat": 0.0, "rental_uris": {"android": "https://dc.lft.to/lastmile_qr_scan", "ios": "https://dc.lft.to/lastmile_qr_scan"}, "fusion_lon": 0.0, "name": "3b38c9389d634ac26a8e458f5caf74b5", "lon": -77.0257775, "is_disabled": 0, "type": "electric_scooter"}, {"bike_id": "f7c6cb963f125510483139687ebe80d2", "lat": 38.8982285, "is_reserved": 0, "fusion_lat": 0.0, "rental_uris": {"android": "https://dc.lft.to/lastmile_qr_scan", "ios": "https://dc.lft.to/lastmile_qr_scan"}, "fusion_lon": 0.0, "name": "f7c6cb963f125510483139687ebe80d2", "lon": -77.01752033333334, "is_disabled": 0, "type": "electric_scooter"}, {"bike_id": "09200b726ded1d014a45f9eb271d1210", "lat": 38.932548, "is_reserved": 0, "fusion_lat": 0.0, "rental_uris": {"android": "https://dc.lft.to/lastmile_qr_scan", "ios": "https://dc.lft.to/lastmile_qr_scan"}, "fusion_lon": 0.0, "name": "09200b726ded1d014a45f9eb271d1210", "lon": -77.032788, "is_disabled": 0, "type": "electric_scooter"}, {"bike_id": "88a64ca8347b309a70419e364f6daa4e", "lat": 38.937697166666666, "is_reserved": 0, "fusion_lat": 0.0, "rental_uris": {"android": "https://dc.lft.to/lastmile_qr_scan", "ios": "https://dc.lft.to/lastmile_qr_scan"}, "fusion_lon": 0.0, "name": "88a64ca8347b309a70419e364f6daa4e", "lon": -77.01916683333333, "is_disabled": 0, "type": "electric_bike"}, {"bike_id": "5ddecc328a3d7852e9689328a9d38306", "lat": 39.03699666666667, "is_reserved": 0, "fusion_lat": 0.0, "rental_uris": {"android": "https://dc.lft.to/lastmile_qr_scan", "ios": "https://dc.lft.to/lastmile_qr_scan"}, "fusion_lon": 0.0, "name": "5ddecc328a3d7852e9689328a9d38306", "lon": -77.02864033333333, "is_disabled": 0, "type": "electric_bike"}, {"bike_id": "879bda0e80f72eb52c806b1c4b68621f", "lat": 38.91412716666667, "is_reserved": 0, "fusion_lat": 0.0, "rental_uris": {"android": "https://dc.lft.to/lastmile_qr_scan", "ios": "https://dc.lft.to/lastmile_qr_scan"}, "fusion_lon": 0.0, "name": "879bda0e80f72eb52c806b1c4b68621f", "lon": -77.0261405, "is_disabled": 0, "type": "electric_scooter"}, {"bike_id": "4e3e53c6fa64cfc1c49d12960778de3e", "lat": 38.92882316666667, "is_reserved": 0, "fusion_lat": 0.0, "rental_uris": {"android": "https://dc.lft.to/lastmile_qr_scan", "ios": "https://dc.lft.to/lastmile_qr_scan"}, "fusion_lon": 0.0, "name": "4e3e53c6fa64cfc1c49d12960778de3e", "lon": -77.02670383333333, "is_disabled": 0, "type": "electric_scooter"}, {"bike_id": "2fd08a0fe3506224326c085bb002d42e", "lat": 38.9153905, "is_reserved": 0, "fusion_lat": 0.0, "rental_uris": {"android": "https://dc.lft.to/lastmile_qr_scan", "ios": "https://dc.lft.to/lastmile_qr_scan"}, "fusion_lon": 0.0, "name": "2fd08a0fe3506224326c085bb002d42e", "lon": -77.01843566666666, "is_disabled": 0, "type": "electric_scooter"}, {"bike_id": "0ad1e60105c6c75715af50cff7a39fc7", "lat": 38.871727666666665, "is_reserved": 0, "fusion_lat": 0.0, "rental_uris": {"android": "https://dc.lft.to/lastmile_qr_scan", "ios": "https://dc.lft.to/lastmile_qr_scan"}, "fusion_lon": 0.0, "name": "0ad1e60105c6c75715af50cff7a39fc7", "lon": -77.00627966666667, "is_disabled": 0, "type": "electric_scooter"}, {"bike_id": "5f5f35a0c784e14133ab429058d7c6ee", "lat": 38.91570633333333, "is_reserved": 0, "fusion_lat": 0.0, "rental_uris": {"android": "https://dc.lft.to/lastmile_qr_scan", "ios": "https://dc.lft.to/lastmile_qr_scan"}, "fusion_lon": 0.0, "name": "5f5f35a0c784e14133ab429058d7c6ee", "lon": -77.01956683333333, "is_disabled": 0, "type": "electric_scooter"}, {"bike_id": "be43dd36bc2d100496ff69d89b3d76f8", "lat": 38.914236833333334, "is_reserved": 0, "fusion_lat": 0.0, "rental_uris": {"android": "https://dc.lft.to/lastmile_qr_scan", "ios": "https://dc.lft.to/lastmile_qr_scan"}, "fusion_lon": 0.0, "name": "be43dd36bc2d100496ff69d89b3d76f8", "lon": -77.0451185, "is_disabled": 0, "type": "electric_scooter"}, {"bike_id": "8b402af08200b97d2aa65ff21bd5472f", "lat": 38.9391795, "is_reserved": 0, "fusion_lat": 0.0, "rental_uris": {"android": "https://dc.lft.to/lastmile_qr_scan", "ios": "https://dc.lft.to/lastmile_qr_scan"}, "fusion_lon": 0.0, "name": "8b402af08200b97d2aa65ff21bd5472f", "lon": -77.06054316666666, "is_disabled": 0, "type": "electric_scooter"}, {"bike_id": "ce56d196139f782f37d158519aac2580", "lat": 38.9168595, "is_reserved": 0, "fusion_lat": 0.0, "rental_uris": {"android": "https://dc.lft.to/lastmile_qr_scan", "ios": "https://dc.lft.to/lastmile_qr_scan"}, "fusion_lon": 0.0, "name": "ce56d196139f782f37d158519aac2580", "lon": -77.02959166666666, "is_disabled": 0, "type": "electric_scooter"}, {"bike_id": "4ffbca4e21a57e165251fc2282cbcc1d", "lat": 38.915932166666664, "is_reserved": 0, "fusion_lat": 0.0, "rental_uris": {"android": "https://dc.lft.to/lastmile_qr_scan", "ios": "https://dc.lft.to/lastmile_qr_scan"}, "fusion_lon": 0.0, "name": "4ffbca4e21a57e165251fc2282cbcc1d", "lon": -77.0230425, "is_disabled": 0, "type": "electric_scooter"}, {"bike_id": "4efbd83f9cfc251fa16c6071babedf6d", "lat": 38.830955833333334, "is_reserved": 0, "fusion_lat": 0.0, "rental_uris": {"android": "https://dc.lft.to/lastmile_qr_scan", "ios": "https://dc.lft.to/lastmile_qr_scan"}, "fusion_lon": 0.0, "name": "4efbd83f9cfc251fa16c6071babedf6d", "lon": -77.04296116666667, "is_disabled": 0, "type": "electric_bike"}, {"bike_id": "530dec6fee26854d494d6e185f2c5609", "lat": 38.89743333333333, "is_reserved": 0, "fusion_lat": 0.0, "rental_uris": {"android": "https://dc.lft.to/lastmile_qr_scan", "ios": "https://dc.lft.to/lastmile_qr_scan"}, "fusion_lon": 0.0, "name": "530dec6fee26854d494d6e185f2c5609", "lon": -77.0297555, "is_disabled": 0, "type": "electric_scooter"}, {"bike_id": "7ac9f3c96b313773b515dc022f92538a", "lat": 38.9240575, "is_reserved": 0, "fusion_lat": 0.0, "rental_uris": {"android": "https://dc.lft.to/lastmile_qr_scan", "ios": "https://dc.lft.to/lastmile_qr_scan"}, "fusion_lon": 0.0, "name": "7ac9f3c96b313773b515dc022f92538a", "lon": -77.0297115, "is_disabled": 0, "type": "electric_scooter"}, {"bike_id": "d8801e239145f6d87ed8f034e1d95d41", "lat": 38.919824, "is_reserved": 0, "fusion_lat": 0.0, "rental_uris": {"android": "https://dc.lft.to/lastmile_qr_scan", "ios": "https://dc.lft.to/lastmile_qr_scan"}, "fusion_lon": 0.0, "name": "d8801e239145f6d87ed8f034e1d95d41", "lon": -77.02378766666666, "is_disabled": 0, "type": "electric_scooter"}, {"bike_id": "ea31cee7f11e30e59a635e05277354a8", "lat": 38.884092333333335, "is_reserved": 0, "fusion_lat": 0.0, "rental_uris": {"android": "https://dc.lft.to/lastmile_qr_scan", "ios": "https://dc.lft.to/lastmile_qr_scan"}, "fusion_lon": 0.0, "name": "ea31cee7f11e30e59a635e05277354a8", "lon": -76.94830433333334, "is_disabled": 0, "type": "electric_scooter"}, {"bike_id": "6bb8f3be57aef9abaa47b9cb7e9c158f", "lat": 38.91817533333333, "is_reserved": 0, "fusion_lat": 0.0, "rental_uris": {"android": "https://dc.lft.to/lastmile_qr_scan", "ios": "https://dc.lft.to/lastmile_qr_scan"}, "fusion_lon": 0.0, "name": "6bb8f3be57aef9abaa47b9cb7e9c158f", "lon": -77.012113, "is_disabled": 0, "type": "electric_scooter"}, {"bike_id": "854fd4aea634301c95fd7bd06e35e7bb", "lat": 38.90565616666667, "is_reserved": 0, "fusion_lat": 0.0, "rental_uris": {"android": "https://dc.lft.to/lastmile_qr_scan", "ios": "https://dc.lft.to/lastmile_qr_scan"}, "fusion_lon": 0.0, "name": "854fd4aea634301c95fd7bd06e35e7bb", "lon": -77.04166666666667, "is_disabled": 0, "type": "electric_scooter"}, {"bike_id": "eefb885cc7c1f8dfb4352fe457cf28e6", "lat": 38.89629883333333, "is_reserved": 0, "fusion_lat": 0.0, "rental_uris": {"android": "https://dc.lft.to/lastmile_qr_scan", "ios": "https://dc.lft.to/lastmile_qr_scan"}, "fusion_lon": 0.0, "name": "eefb885cc7c1f8dfb4352fe457cf28e6", "lon": -77.02615333333334, "is_disabled": 0, "type": "electric_scooter"}, {"bike_id": "20111dc8ccdd4879752556a98f2f90a6", "lat": 38.934016, "is_reserved": 0, "fusion_lat": 0.0, "rental_uris": {"android": "https://dc.lft.to/lastmile_qr_scan", "ios": "https://dc.lft.to/lastmile_qr_scan"}, "fusion_lon": 0.0, "name": "20111dc8ccdd4879752556a98f2f90a6", "lon": -77.0574775, "is_disabled": 0, "type": "electric_scooter"}, {"bike_id": "d4a84fb29d374caf909fa436a9251b2f", "lat": 38.8381015, "is_reserved": 0, "fusion_lat": 0.0, "rental_uris": {"android": "https://dc.lft.to/lastmile_qr_scan", "ios": "https://dc.lft.to/lastmile_qr_scan"}, "fusion_lon": 0.0, "name": "d4a84fb29d374caf909fa436a9251b2f", "lon": -77.09523366666667, "is_disabled": 0, "type": "electric_bike"}, {"bike_id": "6c0d55c9f144e4e09e5e405943747a4a", "lat": 38.92888333333333, "is_reserved": 0, "fusion_lat": 0.0, "rental_uris": {"android": "https://dc.lft.to/lastmile_qr_scan", "ios": "https://dc.lft.to/lastmile_qr_scan"}, "fusion_lon": 0.0, "name": "6c0d55c9f144e4e09e5e405943747a4a", "lon": -77.0373635, "is_disabled": 0, "type": "electric_scooter"}, {"bike_id": "5bc6c571f0c71d0e99562177d3fe60de", "lat": 38.8997845, "is_reserved": 0, "fusion_lat": 0.0, "rental_uris": {"android": "https://dc.lft.to/lastmile_qr_scan", "ios": "https://dc.lft.to/lastmile_qr_scan"}, "fusion_lon": 0.0, "name": "5bc6c571f0c71d0e99562177d3fe60de", "lon": -76.996123, "is_disabled": 0, "type": "electric_scooter"}, {"bike_id": "f74f1ff8c7b4465556a38354235bd305", "lat": 38.90870983333333, "is_reserved": 0, "fusion_lat": 0.0, "rental_uris": {"android": "https://dc.lft.to/lastmile_qr_scan", "ios": "https://dc.lft.to/lastmile_qr_scan"}, "fusion_lon": 0.0, "name": "f74f1ff8c7b4465556a38354235bd305", "lon": -76.997839, "is_disabled": 0, "type": "electric_scooter"}, {"bike_id": "c7a6cad7c5244506c605ec7fd86241d4", "lat": 38.9053985, "is_reserved": 0, "fusion_lat": 0.0, "rental_uris": {"android": "https://dc.lft.to/lastmile_qr_scan", "ios": "https://dc.lft.to/lastmile_qr_scan"}, "fusion_lon": 0.0, "name": "c7a6cad7c5244506c605ec7fd86241d4", "lon": -77.04473883333333, "is_disabled": 0, "type": "electric_scooter"}, {"bike_id": "ebdc1fcf1ff5f43221a29d613fe2a648", "lat": 38.96552533333333, "is_reserved": 0, "fusion_lat": 0.0, "rental_uris": {"android": "https://dc.lft.to/lastmile_qr_scan", "ios": "https://dc.lft.to/lastmile_qr_scan"}, "fusion_lon": 0.0, "name": "ebdc1fcf1ff5f43221a29d613fe2a648", "lon": -77.0362565, "is_disabled": 0, "type": "electric_scooter"}, {"bike_id": "cda5ed47f361d81c4b038fb22ef87c69", "lat": 38.916865666666666, "is_reserved": 0, "fusion_lat": 0.0, "rental_uris": {"android": "https://dc.lft.to/lastmile_qr_scan", "ios": "https://dc.lft.to/lastmile_qr_scan"}, "fusion_lon": 0.0, "name": "cda5ed47f361d81c4b038fb22ef87c69", "lon": -77.02969466666667, "is_disabled": 0, "type": "electric_scooter"}, {"bike_id": "7d653b3314cedea8e335eb6dec196346", "lat": 38.898966, "is_reserved": 0, "fusion_lat": 0.0, "rental_uris": {"android": "https://dc.lft.to/lastmile_qr_scan", "ios": "https://dc.lft.to/lastmile_qr_scan"}, "fusion_lon": 0.0, "name": "7d653b3314cedea8e335eb6dec196346", "lon": -77.03283633333334, "is_disabled": 0, "type": "electric_scooter"}, {"bike_id": "0bbcd10d06f479aa298d599b4b97503e", "lat": 38.885176666666666, "is_reserved": 0, "fusion_lat": 0.0, "rental_uris": {"android": "https://dc.lft.to/lastmile_qr_scan", "ios": "https://dc.lft.to/lastmile_qr_scan"}, "fusion_lon": 0.0, "name": "0bbcd10d06f479aa298d599b4b97503e", "lon": -76.99095233333334, "is_disabled": 0, "type": "electric_scooter"}, {"bike_id": "22c465f7c34c599bdc7b9d946ecd414d", "lat": 38.902482166666665, "is_reserved": 0, "fusion_lat": 0.0, "rental_uris": {"android": "https://dc.lft.to/lastmile_qr_scan", "ios": "https://dc.lft.to/lastmile_qr_scan"}, "fusion_lon": 0.0, "name": "22c465f7c34c599bdc7b9d946ecd414d", "lon": -77.0394865, "is_disabled": 0, "type": "electric_scooter"}, {"bike_id": "286a63039f40c6c98e25c5f8bde0ffbe", "lat": 38.920285166666666, "is_reserved": 0, "fusion_lat": 0.0, "rental_uris": {"android": "https://dc.lft.to/lastmile_qr_scan", "ios": "https://dc.lft.to/lastmile_qr_scan"}, "fusion_lon": 0.0, "name": "286a63039f40c6c98e25c5f8bde0ffbe", "lon": -77.017768, "is_disabled": 0, "type": "electric_scooter"}, {"bike_id": "3716b2d68efc02cbac976588a168b2a1", "lat": 38.928594833333335, "is_reserved": 0, "fusion_lat": 0.0, "rental_uris": {"android": "https://dc.lft.to/lastmile_qr_scan", "ios": "https://dc.lft.to/lastmile_qr_scan"}, "fusion_lon": 0.0, "name": "3716b2d68efc02cbac976588a168b2a1", "lon": -77.030255, "is_disabled": 0, "type": "electric_scooter"}, {"bike_id": "b0fcef57fa596033afe2291ec2f20d6a", "lat": 38.9295935, "is_reserved": 0, "fusion_lat": 0.0, "rental_uris": {"android": "https://dc.lft.to/lastmile_qr_scan", "ios": "https://dc.lft.to/lastmile_qr_scan"}, "fusion_lon": 0.0, "name": "b0fcef57fa596033afe2291ec2f20d6a", "lon": -77.01147916666666, "is_disabled": 0, "type": "electric_scooter"}, {"bike_id": "e3bb13c49ad05c91d3e9d9a55c45f945", "lat": 38.88974483333333, "is_reserved": 0, "fusion_lat": 0.0, "rental_uris": {"android": "https://dc.lft.to/lastmile_qr_scan", "ios": "https://dc.lft.to/lastmile_qr_scan"}, "fusion_lon": 0.0, "name": "e3bb13c49ad05c91d3e9d9a55c45f945", "lon": -76.999364, "is_disabled": 0, "type": "electric_scooter"}, {"bike_id": "1528200ccec25a33666317d914a0da33", "lat": 38.9056485, "is_reserved": 0, "fusion_lat": 0.0, "rental_uris": {"android": "https://dc.lft.to/lastmile_qr_scan", "ios": "https://dc.lft.to/lastmile_qr_scan"}, "fusion_lon": 0.0, "name": "1528200ccec25a33666317d914a0da33", "lon": -77.02529216666667, "is_disabled": 0, "type": "electric_scooter"}, {"bike_id": "11758db5dd2c45ac437a0315aa827f09", "lat": 38.94332283333333, "is_reserved": 0, "fusion_lat": 0.0, "rental_uris": {"android": "https://dc.lft.to/lastmile_qr_scan", "ios": "https://dc.lft.to/lastmile_qr_scan"}, "fusion_lon": 0.0, "name": "11758db5dd2c45ac437a0315aa827f09", "lon": -77.06284183333334, "is_disabled": 0, "type": "electric_scooter"}, {"bike_id": "0c7e4bbfd5f1d2d3a5a2800058c0f98a", "lat": 38.841451166666666, "is_reserved": 0, "fusion_lat": 0.0, "rental_uris": {"android": "https://dc.lft.to/lastmile_qr_scan", "ios": "https://dc.lft.to/lastmile_qr_scan"}, "fusion_lon": 0.0, "name": "0c7e4bbfd5f1d2d3a5a2800058c0f98a", "lon": -77.11469066666666, "is_disabled": 0, "type": "electric_bike"}, {"bike_id": "533b100f7a3a93c5b0f1d04b934472f4", "lat": 38.92161866666667, "is_reserved": 0, "fusion_lat": 0.0, "rental_uris": {"android": "https://dc.lft.to/lastmile_qr_scan", "ios": "https://dc.lft.to/lastmile_qr_scan"}, "fusion_lon": 0.0, "name": "533b100f7a3a93c5b0f1d04b934472f4", "lon": -77.02091133333333, "is_disabled": 0, "type": "electric_scooter"}, {"bike_id": "567ae25be97e43e830d7c6a04800376d", "lat": 38.99222566666667, "is_reserved": 0, "fusion_lat": 0.0, "rental_uris": {"android": "https://dc.lft.to/lastmile_qr_scan", "ios": "https://dc.lft.to/lastmile_qr_scan"}, "fusion_lon": 0.0, "name": "567ae25be97e43e830d7c6a04800376d", "lon": -76.94466466666667, "is_disabled": 0, "type": "electric_bike"}, {"bike_id": "261a53e5b58b55ee9503a6c8e040eeec", "lat": 38.90563566666667, "is_reserved": 0, "fusion_lat": 0.0, "rental_uris": {"android": "https://dc.lft.to/lastmile_qr_scan", "ios": "https://dc.lft.to/lastmile_qr_scan"}, "fusion_lon": 0.0, "name": "261a53e5b58b55ee9503a6c8e040eeec", "lon": -77.0168235, "is_disabled": 0, "type": "electric_scooter"}, {"bike_id": "444c54d3ae02e2fead55909d55d5fc92", "lat": 38.8549155, "is_reserved": 0, "fusion_lat": 0.0, "rental_uris": {"android": "https://dc.lft.to/lastmile_qr_scan", "ios": "https://dc.lft.to/lastmile_qr_scan"}, "fusion_lon": 0.0, "name": "444c54d3ae02e2fead55909d55d5fc92", "lon": -77.11617733333334, "is_disabled": 0, "type": "electric_bike"}, {"bike_id": "83e2f0062c4613d15c89e4e6f1dc0c2f", "lat": 38.90524466666667, "is_reserved": 0, "fusion_lat": 0.0, "rental_uris": {"android": "https://dc.lft.to/lastmile_qr_scan", "ios": "https://dc.lft.to/lastmile_qr_scan"}, "fusion_lon": 0.0, "name": "83e2f0062c4613d15c89e4e6f1dc0c2f", "lon": -77.066185, "is_disabled": 0, "type": "electric_scooter"}, {"bike_id": "f3c9efce92588ae15968db348c08c28a", "lat": 38.85561466666667, "is_reserved": 0, "fusion_lat": 0.0, "rental_uris": {"android": "https://dc.lft.to/lastmile_qr_scan", "ios": "https://dc.lft.to/lastmile_qr_scan"}, "fusion_lon": 0.0, "name": "f3c9efce92588ae15968db348c08c28a", "lon": -77.113193, "is_disabled": 0, "type": "electric_bike"}, {"bike_id": "8f38a19c61ed431abe18325bed77e2dc", "lat": 38.906975333333335, "is_reserved": 0, "fusion_lat": 0.0, "rental_uris": {"android": "https://dc.lft.to/lastmile_qr_scan", "ios": "https://dc.lft.to/lastmile_qr_scan"}, "fusion_lon": 0.0, "name": "8f38a19c61ed431abe18325bed77e2dc", "lon": -77.0260255, "is_disabled": 0, "type": "electric_scooter"}, {"bike_id": "672d8b1f748d92bde77ebeb12351702a", "lat": 38.92764016666667, "is_reserved": 0, "fusion_lat": 0.0, "rental_uris": {"android": "https://dc.lft.to/lastmile_qr_scan", "ios": "https://dc.lft.to/lastmile_qr_scan"}, "fusion_lon": 0.0, "name": "672d8b1f748d92bde77ebeb12351702a", "lon": -77.02736116666667, "is_disabled": 0, "type": "electric_scooter"}, {"bike_id": "15f6c06c0596ab4cb017ef32d4f837ae", "lat": 38.91568683333333, "is_reserved": 0, "fusion_lat": 0.0, "rental_uris": {"android": "https://dc.lft.to/lastmile_qr_scan", "ios": "https://dc.lft.to/lastmile_qr_scan"}, "fusion_lon": 0.0, "name": "15f6c06c0596ab4cb017ef32d4f837ae", "lon": -77.0383505, "is_disabled": 0, "type": "electric_scooter"}, {"bike_id": "751aae7ffb25b65d4e178c925ea8ba2e", "lat": 38.907275166666665, "is_reserved": 0, "fusion_lat": 0.0, "rental_uris": {"android": "https://dc.lft.to/lastmile_qr_scan", "ios": "https://dc.lft.to/lastmile_qr_scan"}, "fusion_lon": 0.0, "name": "751aae7ffb25b65d4e178c925ea8ba2e", "lon": -77.0416105, "is_disabled": 0, "type": "electric_scooter"}, {"bike_id": "a4023b2341acca04c87f955e026b183c", "lat": 38.91407, "is_reserved": 0, "fusion_lat": 0.0, "rental_uris": {"android": "https://dc.lft.to/lastmile_qr_scan", "ios": "https://dc.lft.to/lastmile_qr_scan"}, "fusion_lon": 0.0, "name": "a4023b2341acca04c87f955e026b183c", "lon": -77.02013833333334, "is_disabled": 0, "type": "electric_scooter"}, {"bike_id": "bfaa7c2b525c716dac4061ee998c1593", "lat": 38.866612833333335, "is_reserved": 0, "fusion_lat": 0.0, "rental_uris": {"android": "https://dc.lft.to/lastmile_qr_scan", "ios": "https://dc.lft.to/lastmile_qr_scan"}, "fusion_lon": 0.0, "name": "bfaa7c2b525c716dac4061ee998c1593", "lon": -76.9888615, "is_disabled": 0, "type": "electric_scooter"}, {"bike_id": "c68503dca68f37eadf52faea72f49094", "lat": 38.886597333333334, "is_reserved": 0, "fusion_lat": 0.0, "rental_uris": {"android": "https://dc.lft.to/lastmile_qr_scan", "ios": "https://dc.lft.to/lastmile_qr_scan"}, "fusion_lon": 0.0, "name": "c68503dca68f37eadf52faea72f49094", "lon": -77.03388666666666, "is_disabled": 0, "type": "electric_scooter"}, {"bike_id": "88f643a08b9ec273dd134876ae5f195b", "lat": 38.9257945, "is_reserved": 0, "fusion_lat": 0.0, "rental_uris": {"android": "https://dc.lft.to/lastmile_qr_scan", "ios": "https://dc.lft.to/lastmile_qr_scan"}, "fusion_lon": 0.0, "name": "88f643a08b9ec273dd134876ae5f195b", "lon": -77.05427333333333, "is_disabled": 0, "type": "electric_scooter"}, {"bike_id": "e04a3405d46843d2a65e515da1a67f30", "lat": 38.89961233333333, "is_reserved": 0, "fusion_lat": 0.0, "rental_uris": {"android": "https://dc.lft.to/lastmile_qr_scan", "ios": "https://dc.lft.to/lastmile_qr_scan"}, "fusion_lon": 0.0, "name": "e04a3405d46843d2a65e515da1a67f30", "lon": -76.97537383333334, "is_disabled": 0, "type": "electric_scooter"}, {"bike_id": "81f3cd17c1f95c246c25f3c45c116f1b", "lat": 38.90421966666667, "is_reserved": 0, "fusion_lat": 0.0, "rental_uris": {"android": "https://dc.lft.to/lastmile_qr_scan", "ios": "https://dc.lft.to/lastmile_qr_scan"}, "fusion_lon": 0.0, "name": "81f3cd17c1f95c246c25f3c45c116f1b", "lon": -76.97376933333334, "is_disabled": 0, "type": "electric_scooter"}, {"bike_id": "180f94477d0becccf5a25894be5f76c4", "lat": 38.900088833333335, "is_reserved": 0, "fusion_lat": 0.0, "rental_uris": {"android": "https://dc.lft.to/lastmile_qr_scan", "ios": "https://dc.lft.to/lastmile_qr_scan"}, "fusion_lon": 0.0, "name": "180f94477d0becccf5a25894be5f76c4", "lon": -76.9990715, "is_disabled": 0, "type": "electric_scooter"}, {"bike_id": "7f0baf2cb31652cfaab658f99d753473", "lat": 38.86564883333333, "is_reserved": 0, "fusion_lat": 0.0, "rental_uris": {"android": "https://dc.lft.to/lastmile_qr_scan", "ios": "https://dc.lft.to/lastmile_qr_scan"}, "fusion_lon": 0.0, "name": "7f0baf2cb31652cfaab658f99d753473", "lon": -76.98214416666667, "is_disabled": 0, "type": "electric_scooter"}, {"bike_id": "70bf714dfe3694875b7e448a98f5da56", "lat": 38.90568116666667, "is_reserved": 0, "fusion_lat": 0.0, "rental_uris": {"android": "https://dc.lft.to/lastmile_qr_scan", "ios": "https://dc.lft.to/lastmile_qr_scan"}, "fusion_lon": 0.0, "name": "70bf714dfe3694875b7e448a98f5da56", "lon": -77.041681, "is_disabled": 0, "type": "electric_scooter"}, {"bike_id": "2c7278dcda4b414551d610c2059274f2", "lat": 38.8461555, "is_reserved": 0, "fusion_lat": 0.0, "rental_uris": {"android": "https://dc.lft.to/lastmile_qr_scan", "ios": "https://dc.lft.to/lastmile_qr_scan"}, "fusion_lon": 0.0, "name": "2c7278dcda4b414551d610c2059274f2", "lon": -76.969133, "is_disabled": 0, "type": "electric_bike"}, {"bike_id": "4ad4879c99f7e3c4f99306873f91d168", "lat": 38.90683683333334, "is_reserved": 0, "fusion_lat": 0.0, "rental_uris": {"android": "https://dc.lft.to/lastmile_qr_scan", "ios": "https://dc.lft.to/lastmile_qr_scan"}, "fusion_lon": 0.0, "name": "4ad4879c99f7e3c4f99306873f91d168", "lon": -77.0615535, "is_disabled": 0, "type": "electric_scooter"}, {"bike_id": "347649f02f28bed2fbe7f36e9bd58df7", "lat": 38.892182166666665, "is_reserved": 0, "fusion_lat": 0.0, "rental_uris": {"android": "https://dc.lft.to/lastmile_qr_scan", "ios": "https://dc.lft.to/lastmile_qr_scan"}, "fusion_lon": 0.0, "name": "347649f02f28bed2fbe7f36e9bd58df7", "lon": -77.02455266666666, "is_disabled": 0, "type": "electric_scooter"},