{"data": {"bikes": [{"lon": -77.04111, "bike_id": "8d27f92f9d7764e0a4b1997f41c03377", "lat": 38.93468933333333, "fusion_lon": 0.0, "fusion_lat": 0.0, "type": "electric_scooter", "name": "8d27f92f9d7764e0a4b1997f41c03377", "is_disabled": 0, "rental_uris": {"ios": "https://dc.lft.to/lastmile_qr_scan", "android": "https://dc.lft.to/lastmile_qr_scan"}, "is_reserved": 0}, {"lon": -77.048878, "bike_id": "ab2daf2dea92cf78ad424d25add06d68", "lat": 38.90456016666667, "fusion_lon": 0.0, "fusion_lat": 0.0, "type": "electric_scooter", "name": "ab2daf2dea92cf78ad424d25add06d68", "is_disabled": 0, "rental_uris": {"ios": "https://dc.lft.to/lastmile_qr_scan", "android": "https://dc.lft.to/lastmile_qr_scan"}, "is_reserved": 0}, {"lon": -76.9810975, "bike_id": "966f0d6d791f5fc1e43631b77e7b5186", "lat": 38.90411816666666, "fusion_lon": 0.0, "fusion_lat": 0.0, "type": "electric_scooter", "name": "966f0d6d791f5fc1e43631b77e7b5186", "is_disabled": 0, "rental_uris": {"ios": "https://dc.lft.to/lastmile_qr_scan", "android": "https://dc.lft.to/lastmile_qr_scan"}, "is_reserved": 0}, {"lon": -77.03629616666667, "bike_id": "c41b5ab6a9a1508563e151fc61cd713f", "lat": 38.945038, "fusion_lon": 0.0, "fusion_lat": 0.0, "type": "electric_scooter", "name": "c41b5ab6a9a1508563e151fc61cd713f", "is_disabled": 0, "rental_uris": {"ios": "https://dc.lft.to/lastmile_qr_scan", "android": "https://dc.lft.to/lastmile_qr_scan"}, "is_reserved": 0}, {"lon": -77.02850933333333, "bike_id": "7c41a3583c6eddd6916e062fe553a162", "lat": 38.9277745, "fusion_lon": 0.0, "fusion_lat": 0.0, "type": "electric_scooter", "name": "7c41a3583c6eddd6916e062fe553a162", "is_disabled": 0, "rental_uris": {"ios": "https://dc.lft.to/lastmile_qr_scan", "android": "https://dc.lft.to/lastmile_qr_scan"}, "is_reserved": 0}, {"lon": -76.98631883333333, "bike_id": "322f4eebd50e14e401b6e9dd4363a9d9", "lat": 38.901679, "fusion_lon": 0.0, "fusion_lat": 0.0, "type": "electric_scooter", "name": "322f4eebd50e14e401b6e9dd4363a9d9", "is_disabled": 0, "rental_uris": {"ios": "https://dc.lft.to/lastmile_qr_scan", "android": "https://dc.lft.to/lastmile_qr_scan"}, "is_reserved": 0}, {"lon": -77.03363633333333, "bike_id": "e18421d38b3910ed73886f0865cb6e53", "lat": 38.9359005, "fusion_lon": 0.0, "fusion_lat": 0.0, "type": "electric_scooter", "name": "e18421d38b3910ed73886f0865cb6e53", "is_disabled": 0, "rental_uris": {"ios": "https://dc.lft.to/lastmile_qr_scan", "android": "https://dc.lft.to/lastmile_qr_scan"}, "is_reserved": 0}, {"lon": -76.97708933333334, "bike_id": "d52c37801fff5402cfd375f323e33daf", "lat": 38.887800666666664, "fusion_lon": 0.0, "fusion_lat": 0.0, "type": "electric_scooter", "name": "d52c37801fff5402cfd375f323e33daf", "is_disabled": 0, "rental_uris": {"ios": "https://dc.lft.to/lastmile_qr_scan", "android": "https://dc.lft.to/lastmile_qr_scan"}, "is_reserved": 0}, {"lon": -77.00793133333333, "bike_id": "10a5df014ece3bb483476e9b7da6dcdc", "lat": 38.8964335, "fusion_lon": 0.0, "fusion_lat": 0.0, "type": "electric_scooter", "name": "10a5df014ece3bb483476e9b7da6dcdc", "is_disabled": 0, "rental_uris": {"ios": "https://dc.lft.to/lastmile_qr_scan", "android": "https://dc.lft.to/lastmile_qr_scan"}, "is_reserved": 0}, {"lon": -77.01108833333333, "bike_id": "2516f13697543c6965f6ec37660a5964", "lat": 38.89856116666667, "fusion_lon": 0.0, "fusion_lat": 0.0, "type": "electric_scooter", "name": "2516f13697543c6965f6ec37660a5964", "is_disabled": 0, "rental_uris": {"ios": "https://dc.lft.to/lastmile_qr_scan", "android": "https://dc.lft.to/lastmile_qr_scan"}, "is_reserved": 0}, {"lon": -77.0265305, "bike_id": "58300f7e4ff60a3735c49ecac2162e33", "lat": 38.978133166666666, "fusion_lon": 0.0, "fusion_lat": 0.0, "type": "electric_scooter", "name": "58300f7e4ff60a3735c49ecac2162e33", "is_disabled": 0, "rental_uris": {"ios": "https://dc.lft.to/lastmile_qr_scan", "android": "https://dc.lft.to/lastmile_qr_scan"}, "is_reserved": 0}, {"lon": -77.04505716666667, "bike_id": "c3500a3884a28c86c7ba9fb2a9368400", "lat": 38.903604666666666, "fusion_lon": 0.0, "fusion_lat": 0.0, "type": "electric_scooter", "name": "c3500a3884a28c86c7ba9fb2a9368400", "is_disabled": 0, "rental_uris": {"ios": "https://dc.lft.to/lastmile_qr_scan", "android": "https://dc.lft.to/lastmile_qr_scan"}, "is_reserved": 0}, {"lon": -76.97869816666666, "bike_id": "2bbe4d1752b920c3784177d795aae6c0", "lat": 38.883028333333336, "fusion_lon": 0.0, "fusion_lat": 0.0, "type": "electric_scooter", "name": "2bbe4d1752b920c3784177d795aae6c0", "is_disabled": 0, "rental_uris": {"ios": "https://dc.lft.to/lastmile_qr_scan", "android": "https://dc.lft.to/lastmile_qr_scan"}, "is_reserved": 0}, {"lon": -77.02168533333334, "bike_id": "01471c67abdd0fffb3d35d4da06dc4cb", "lat": 38.911444833333334, "fusion_lon": 0.0, "fusion_lat": 0.0, "type": "electric_scooter", "name": "01471c67abdd0fffb3d35d4da06dc4cb", "is_disabled": 0, "rental_uris": {"ios": "https://dc.lft.to/lastmile_qr_scan", "android": "https://dc.lft.to/lastmile_qr_scan"}, "is_reserved": 0}, {"lon": -76.99461816666667, "bike_id": "0188194621c7149e168923b161497772", "lat": 38.940718833333335, "fusion_lon": 0.0, "fusion_lat": 0.0, "type": "electric_scooter", "name": "0188194621c7149e168923b161497772", "is_disabled": 0, "rental_uris": {"ios": "https://dc.lft.to/lastmile_qr_scan", "android": "https://dc.lft.to/lastmile_qr_scan"}, "is_reserved": 0}, {"lon": -77.024217, "bike_id": "f117a14d9017edaf38eafb089e07daeb", "lat": 38.8838115, "fusion_lon": 0.0, "fusion_lat": 0.0, "type": "electric_scooter", "name": "f117a14d9017edaf38eafb089e07daeb", "is_disabled": 0, "rental_uris": {"ios": "https://dc.lft.to/lastmile_qr_scan", "android": "https://dc.lft.to/lastmile_qr_scan"}, "is_reserved": 0}, {"lon": -77.02998383333333, "bike_id": "48cbd7ada74124166bcbdd2b29a87154", "lat": 38.89620633333333, "fusion_lon": 0.0, "fusion_lat": 0.0, "type": "electric_scooter", "name": "48cbd7ada74124166bcbdd2b29a87154", "is_disabled": 0, "rental_uris": {"ios": "https://dc.lft.to/lastmile_qr_scan", "android": "https://dc.lft.to/lastmile_qr_scan"}, "is_reserved": 0}, {"lon": -77.00439583333333, "bike_id": "15517dc96c3d8dd28dc7a95e2fc1b80a", "lat": 38.91198033333333, "fusion_lon": 0.0, "fusion_lat": 0.0, "type": "electric_scooter", "name": "15517dc96c3d8dd28dc7a95e2fc1b80a", "is_disabled": 0, "rental_uris": {"ios": "https://dc.lft.to/lastmile_qr_scan", "android": "https://dc.lft.to/lastmile_qr_scan"}, "is_reserved": 0}, {"lon": -77.079032, "bike_id": "7e77397b6a75540074387917eb150028", "lat": 38.931288, "fusion_lon": 0.0, "fusion_lat": 0.0, "type": "electric_scooter", "name": "7e77397b6a75540074387917eb150028", "is_disabled": 0, "rental_uris": {"ios": "https://dc.lft.to/lastmile_qr_scan", "android": "https://dc.lft.to/lastmile_qr_scan"}, "is_reserved": 0}, {"lon": -77.02276566666667, "bike_id": "e4bd87a326529cf950f0d2499615ac23", "lat": 38.887542333333336, "fusion_lon": 0.0, "fusion_lat": 0.0, "type": "electric_scooter", "name": "e4bd87a326529cf950f0d2499615ac23", "is_disabled": 0, "rental_uris": {"ios": "https://dc.lft.to/lastmile_qr_scan", "android": "https://dc.lft.to/lastmile_qr_scan"}, "is_reserved": 0}, {"lon": -77.048655, "bike_id": "a5d2e2edc4ee7356697805c46d42d12d", "lat": 38.89232233333333, "fusion_lon": 0.0, "fusion_lat": 0.0, "type": "electric_scooter", "name": "a5d2e2edc4ee7356697805c46d42d12d", "is_disabled": 0, "rental_uris": {"ios": "https://dc.lft.to/lastmile_qr_scan", "android": "https://dc.lft.to/lastmile_qr_scan"}, "is_reserved": 0}, {"lon": -77.03595766666666, "bike_id": "fe153011d1e4f4de1f1e9b93c4cdadc9", "lat": 38.9394065, "fusion_lon": 0.0, "fusion_lat": 0.0, "type": "electric_scooter", "name": "fe153011d1e4f4de1f1e9b93c4cdadc9", "is_disabled": 0, "rental_uris": {"ios": "https://dc.lft.to/lastmile_qr_scan", "android": "https://dc.lft.to/lastmile_qr_scan"}, "is_reserved": 0}, {"lon": -77.0325795, "bike_id": "1817def0225d6541e7fd2ed85b012872", "lat": 38.905939833333335, "fusion_lon": 0.0, "fusion_lat": 0.0, "type": "electric_scooter", "name": "1817def0225d6541e7fd2ed85b012872", "is_disabled": 0, "rental_uris": {"ios": "https://dc.lft.to/lastmile_qr_scan", "android": "https://dc.lft.to/lastmile_qr_scan"}, "is_reserved": 0}, {"lon": -76.988033, "bike_id": "b8ca09e66600dd70dd057b70202985b6", "lat": 38.86743, "fusion_lon": 0.0, "fusion_lat": 0.0, "type": "electric_scooter", "name": "b8ca09e66600dd70dd057b70202985b6", "is_disabled": 0, "rental_uris": {"ios": "https://dc.lft.to/lastmile_qr_scan", "android": "https://dc.lft.to/lastmile_qr_scan"}, "is_reserved": 0}, {"lon": -77.04872833333333, "bike_id": "5b252d25f9edcac1a9725e4ef56be89d", "lat": 38.905735166666666, "fusion_lon": 0.0, "fusion_lat": 0.0, "type": "electric_scooter", "name": "5b252d25f9edcac1a9725e4ef56be89d", "is_disabled": 0, "rental_uris": {"ios": "https://dc.lft.to/lastmile_qr_scan", "android": "https://dc.lft.to/lastmile_qr_scan"}, "is_reserved": 0}, {"lon": -77.03083866666667, "bike_id": "27743cd7e48b5f3f63e7e850af288512", "lat": 38.9271905, "fusion_lon": 0.0, "fusion_lat": 0.0, "type": "electric_scooter", "name": "27743cd7e48b5f3f63e7e850af288512", "is_disabled": 0, "rental_uris": {"ios": "https://dc.lft.to/lastmile_qr_scan", "android": "https://dc.lft.to/lastmile_qr_scan"}, "is_reserved": 0}, {"lon": -76.98148716666667, "bike_id": "1b6778151e3d6d7514f111b7c519a32a", "lat": 38.90322, "fusion_lon": 0.0, "fusion_lat": 0.0, "type": "electric_scooter", "name": "1b6778151e3d6d7514f111b7c519a32a", "is_disabled": 0, "rental_uris": {"ios": "https://dc.lft.to/lastmile_qr_scan", "android": "https://dc.lft.to/lastmile_qr_scan"}, "is_reserved": 0}, {"lon": -77.01981216666667, "bike_id": "7ed447c30fc5f582bc1a2522d6c1671b", "lat": 38.9025455, "fusion_lon": 0.0, "fusion_lat": 0.0, "type": "electric_scooter", "name": "7ed447c30fc5f582bc1a2522d6c1671b", "is_disabled": 0, "rental_uris": {"ios": "https://dc.lft.to/lastmile_qr_scan", "android": "https://dc.lft.to/lastmile_qr_scan"}, "is_reserved": 0}, {"lon": -76.97669933333333, "bike_id": "d23ea3dac577122b9ea5ea3878c34a24", "lat": 38.9524855, "fusion_lon": 0.0, "fusion_lat": 0.0, "type": "electric_bike", "name": "d23ea3dac577122b9ea5ea3878c34a24", "is_disabled": 0, "rental_uris": {"ios": "https://dc.lft.to/lastmile_qr_scan", "android": "https://dc.lft.to/lastmile_qr_scan"}, "is_reserved": 0}, {"lon": -77.00681966666667, "bike_id": "a0e185d7bae05f0bf84c593d8d2a4c50", "lat": 38.90018383333334, "fusion_lon": 0.0, "fusion_lat": 0.0, "type": "electric_scooter", "name": "a0e185d7bae05f0bf84c593d8d2a4c50", "is_disabled": 0, "rental_uris": {"ios": "https://dc.lft.to/lastmile_qr_scan", "android": "https://dc.lft.to/lastmile_qr_scan"}, "is_reserved": 0}, {"lon": -77.017271, "bike_id": "730922759d295c2f2ae1e54ba93d0c1c", "lat": 38.885063833333334, "fusion_lon": 0.0, "fusion_lat": 0.0, "type": "electric_scooter", "name": "730922759d295c2f2ae1e54ba93d0c1c", "is_disabled": 0, "rental_uris": {"ios": "https://dc.lft.to/lastmile_qr_scan", "android": "https://dc.lft.to/lastmile_qr_scan"}, "is_reserved": 0}, {"lon": -76.9898705, "bike_id": "d6b62bdd7ea08404300c09d03ff739f7", "lat": 38.93363683333333, "fusion_lon": 0.0, "fusion_lat": 0.0, "type": "electric_scooter", "name": "d6b62bdd7ea08404300c09d03ff739f7", "is_disabled": 0, "rental_uris": {"ios": "https://dc.lft.to/lastmile_qr_scan", "android": "https://dc.lft.to/lastmile_qr_scan"}, "is_reserved": 0}, {"lon": -77.0214975, "bike_id": "514e34766bf63080202a7d59239f8e45", "lat": 38.950827333333336, "fusion_lon": 0.0, "fusion_lat": 0.0, "type": "electric_scooter", "name": "514e34766bf63080202a7d59239f8e45", "is_disabled": 0, "rental_uris": {"ios": "https://dc.lft.to/lastmile_qr_scan", "android": "https://dc.lft.to/lastmile_qr_scan"}, "is_reserved": 0}, {"lon": -77.00729733333333, "bike_id": "07f9e5b84d9219d84d282ad515005d64", "lat": 38.8990705, "fusion_lon": 0.0, "fusion_lat": 0.0, "type": "electric_scooter", "name": "07f9e5b84d9219d84d282ad515005d64", "is_disabled": 0, "rental_uris": {"ios": "https://dc.lft.to/lastmile_qr_scan", "android": "https://dc.lft.to/lastmile_qr_scan"}, "is_reserved": 0}, {"lon": -77.020037, "bike_id": "97964243d4adb0ddc1426d0639c10b46", "lat": 38.924114833333334, "fusion_lon": 0.0, "fusion_lat": 0.0, "type": "electric_scooter", "name": "97964243d4adb0ddc1426d0639c10b46", "is_disabled": 0, "rental_uris": {"ios": "https://dc.lft.to/lastmile_qr_scan", "android": "https://dc.lft.to/lastmile_qr_scan"}, "is_reserved": 0}, {"lon": -77.02358166666667, "bike_id": "835454f711d837da55c4c16f5b9f8613", "lat": 38.896344, "fusion_lon": 0.0, "fusion_lat": 0.0, "type": "electric_scooter", "name": "835454f711d837da55c4c16f5b9f8613", "is_disabled": 0, "rental_uris": {"ios": "https://dc.lft.to/lastmile_qr_scan", "android": "https://dc.lft.to/lastmile_qr_scan"}, "is_reserved": 0}, {"lon": -77.01729766666666, "bike_id": "00f9996cc99b2ad340e1f6be1be568ba", "lat": 38.91682983333333, "fusion_lon": 0.0, "fusion_lat": 0.0, "type": "electric_scooter", "name": "00f9996cc99b2ad340e1f6be1be568ba", "is_disabled": 0, "rental_uris": {"ios": "https://dc.lft.to/lastmile_qr_scan", "android": "https://dc.lft.to/lastmile_qr_scan"}, "is_reserved": 0}, {"lon": -77.00263466666667, "bike_id": "c284872cfbd28ad6e87375dc1bc2dedc", "lat": 38.909205166666666, "fusion_lon": 0.0, "fusion_lat": 0.0, "type": "electric_scooter", "name": "c284872cfbd28ad6e87375dc1bc2dedc", "is_disabled": 0, "rental_uris": {"ios": "https://dc.lft.to/lastmile_qr_scan", "android": "https://dc.lft.to/lastmile_qr_scan"}, "is_reserved": 0}, {"lon": -77.02164766666667, "bike_id": "f1f2bd6d3c1a2fe506c594dd8fd358df", "lat": 38.92618683333333, "fusion_lon": 0.0, "fusion_lat": 0.0, "type": "electric_scooter", "name": "f1f2bd6d3c1a2fe506c594dd8fd358df", "is_disabled": 0, "rental_uris": {"ios": "https://dc.lft.to/lastmile_qr_scan", "android": "https://dc.lft.to/lastmile_qr_scan"}, "is_reserved": 0}, {"lon": -77.01921233333333, "bike_id": "e3b4352b7d91a1feb681f5e4dfc0ccc2", "lat": 38.892408, "fusion_lon": 0.0, "fusion_lat": 0.0, "type": "electric_scooter", "name": "e3b4352b7d91a1feb681f5e4dfc0ccc2", "is_disabled": 0, "rental_uris": {"ios": "https://dc.lft.to/lastmile_qr_scan", "android": "https://dc.lft.to/lastmile_qr_scan"}, "is_reserved": 0}, {"lon": -76.98012533333333, "bike_id": "9af520d1f868be7dd7eb15a7a77bccec", "lat": 38.853240666666665, "fusion_lon": 0.0, "fusion_lat": 0.0, "type": "electric_bike", "name": "9af520d1f868be7dd7eb15a7a77bccec", "is_disabled": 0, "rental_uris": {"ios": "https://dc.lft.to/lastmile_qr_scan", "android": "https://dc.lft.to/lastmile_qr_scan"}, "is_reserved": 0}, {"lon": -77.00839383333333, "bike_id": "a05db56e3d7f5c0250b2d94e721629e1", "lat": 38.91626266666667, "fusion_lon": 0.0, "fusion_lat": 0.0, "type": "electric_scooter", "name": "a05db56e3d7f5c0250b2d94e721629e1", "is_disabled": 0, "rental_uris": {"ios": "https://dc.lft.to/lastmile_qr_scan", "android": "https://dc.lft.to/lastmile_qr_scan"}, "is_reserved": 0}, {"lon": -77.03080966666667, "bike_id": "6a5a6b2b0c526efb115f718ac5de403b", "lat": 38.907581, "fusion_lon": 0.0, "fusion_lat": 0.0, "type": "electric_scooter", "name": "6a5a6b2b0c526efb115f718ac5de403b", "is_disabled": 0, "rental_uris": {"ios": "https://dc.lft.to/lastmile_qr_scan", "android": "https://dc.lft.to/lastmile_qr_scan"}, "is_reserved": 0}, {"lon": -77.04198533333333, "bike_id": "ca218a876d41357dba4976503ad6311c", "lat": 38.92072783333333, "fusion_lon": 0.0, "fusion_lat": 0.0, "type": "electric_scooter", "name": "ca218a876d41357dba4976503ad6311c", "is_disabled": 0, "rental_uris": {"ios": "https://dc.lft.to/lastmile_qr_scan", "android": "https://dc.lft.to/lastmile_qr_scan"}, "is_reserved": 0}, {"lon": -77.0295905, "bike_id": "ab51055d42fe3d3812d887c1c32dc50f", "lat": 38.89636566666667, "fusion_lon": 0.0, "fusion_lat": 0.0, "type": "electric_scooter", "name": "ab51055d42fe3d3812d887c1c32dc50f", "is_disabled": 0, "rental_uris": {"ios": "https://dc.lft.to/lastmile_qr_scan", "android": "https://dc.lft.to/lastmile_qr_scan"}, "is_reserved": 0}, {"lon": -77.041563, "bike_id": "fcba9689314c9cb90b4693e926ecd9af", "lat": 38.90353833333333, "fusion_lon": 0.0, "fusion_lat": 0.0, "type": "electric_scooter", "name": "fcba9689314c9cb90b4693e926ecd9af", "is_disabled": 0, "rental_uris": {"ios": "https://dc.lft.to/lastmile_qr_scan", "android": "https://dc.lft.to/lastmile_qr_scan"}, "is_reserved": 0}, {"lon": -77.03371483333333, "bike_id": "3a06990a34ffbfdf170fa826152beec6", "lat": 38.901674166666666, "fusion_lon": 0.0, "fusion_lat": 0.0, "type": "electric_scooter", "name": "3a06990a34ffbfdf170fa826152beec6", "is_disabled": 0, "rental_uris": {"ios": "https://dc.lft.to/lastmile_qr_scan", "android": "https://dc.lft.to/lastmile_qr_scan"}, "is_reserved": 0}, {"lon": -77.01970833333333, "bike_id": "101bdf74629a469af08b9b20426300b1", "lat": 38.977586333333335, "fusion_lon": 0.0, "fusion_lat": 0.0, "type": "electric_scooter", "name": "101bdf74629a469af08b9b20426300b1", "is_disabled": 0, "rental_uris": {"ios": "https://dc.lft.to/lastmile_qr_scan", "android": "https://dc.lft.to/lastmile_qr_scan"}, "is_reserved": 0}, {"lon": -77.0293475, "bike_id": "f931c1831923703de1a98c0906350aa5", "lat": 38.9208345, "fusion_lon": 0.0, "fusion_lat": 0.0, "type": "electric_scooter", "name": "f931c1831923703de1a98c0906350aa5", "is_disabled": 0, "rental_uris": {"ios": "https://dc.lft.to/lastmile_qr_scan", "android": "https://dc.lft.to/lastmile_qr_scan"}, "is_reserved": 0}, {"lon": -77.00198783333333, "bike_id": "1e156e21541c829d64dae64e26569710", "lat": 38.9024855, "fusion_lon": 0.0, "fusion_lat": 0.0, "type": "electric_scooter", "name": "1e156e21541c829d64dae64e26569710", "is_disabled": 0, "rental_uris": {"ios": "https://dc.lft.to/lastmile_qr_scan", "android": "https://dc.lft.to/lastmile_qr_scan"}, "is_reserved": 0}, {"lon": -77.0279705, "bike_id": "6763bfddd809cb7aeceb0bac02048eee", "lat": 38.9025325, "fusion_lon": 0.0, "fusion_lat": 0.0, "type": "electric_scooter", "name": "6763bfddd809cb7aeceb0bac02048eee", "is_disabled": 0, "rental_uris": {"ios": "https://dc.lft.to/lastmile_qr_scan", "android": "https://dc.lft.to/lastmile_qr_scan"}, "is_reserved": 0}, {"lon": -77.04239083333333, "bike_id": "80dc77961f1078eca63ea17c357bf526", "lat": 38.922643, "fusion_lon": 0.0, "fusion_lat": 0.0, "type": "electric_scooter", "name": "80dc77961f1078eca63ea17c357bf526", "is_disabled": 0, "rental_uris": {"ios": "https://dc.lft.to/lastmile_qr_scan", "android": "https://dc.lft.to/lastmile_qr_scan"}, "is_reserved": 0}, {"lon": -77.02979566666667, "bike_id": "c6b0fbaa7306ea275ce34ee58618ed7c", "lat": 38.90305033333333, "fusion_lon": 0.0, "fusion_lat": 0.0, "type": "electric_scooter", "name": "c6b0fbaa7306ea275ce34ee58618ed7c", "is_disabled": 0, "rental_uris": {"ios": "https://dc.lft.to/lastmile_qr_scan", "android": "https://dc.lft.to/lastmile_qr_scan"}, "is_reserved": 0}, {"lon": -77.05910716666666, "bike_id": "c962ae3ade7980398d87d1c28ed30aa3", "lat": 38.862544, "fusion_lon": 0.0, "fusion_lat": 0.0, "type": "electric_scooter", "name": "c962ae3ade7980398d87d1c28ed30aa3", "is_disabled": 0, "rental_uris": {"ios": "https://dc.lft.to/lastmile_qr_scan", "android": "https://dc.lft.to/lastmile_qr_scan"}, "is_reserved": 0}, {"lon": -76.98836366666667, "bike_id": "62a1adbfe7441a6143f1852beea76262", "lat": 38.90041983333333, "fusion_lon": 0.0, "fusion_lat": 0.0, "type": "electric_scooter", "name": "62a1adbfe7441a6143f1852beea76262", "is_disabled": 0, "rental_uris": {"ios": "https://dc.lft.to/lastmile_qr_scan", "android": "https://dc.lft.to/lastmile_qr_scan"}, "is_reserved": 0}, {"lon": -77.0154455, "bike_id": "736958ab1d192a6abc96feb7d36f69d4", "lat": 38.88511716666667, "fusion_lon": 0.0, "fusion_lat": 0.0, "type": "electric_scooter", "name": "736958ab1d192a6abc96feb7d36f69d4", "is_disabled": 0, "rental_uris": {"ios": "https://dc.lft.to/lastmile_qr_scan", "android": "https://dc.lft.to/lastmile_qr_scan"}, "is_reserved": 0}, {"lon": -77.03760566666666, "bike_id": "7371164fb6236bad028c18f3f7e98991", "lat": 38.9118805, "fusion_lon": 0.0, "fusion_lat": 0.0, "type": "electric_scooter", "name": "7371164fb6236bad028c18f3f7e98991", "is_disabled": 0, "rental_uris": {"ios": "https://dc.lft.to/lastmile_qr_scan", "android": "https://dc.lft.to/lastmile_qr_scan"}, "is_reserved": 0}, {"lon": -77.04351083333333, "bike_id": "8268c6f79ede7b5e1288d8816f966977", "lat": 38.91588766666667, "fusion_lon": 0.0, "fusion_lat": 0.0, "type": "electric_scooter", "name": "8268c6f79ede7b5e1288d8816f966977", "is_disabled": 0, "rental_uris": {"ios": "https://dc.lft.to/lastmile_qr_scan", "android": "https://dc.lft.to/lastmile_qr_scan"}, "is_reserved": 0}, {"lon": -76.949872, "bike_id": "6e971604cef2ad938be83b9e8e90df41", "lat": 38.8938835, "fusion_lon": 0.0, "fusion_lat": 0.0, "type": "electric_scooter", "name": "6e971604cef2ad938be83b9e8e90df41", "is_disabled": 0, "rental_uris": {"ios": "https://dc.lft.to/lastmile_qr_scan", "android": "https://dc.lft.to/lastmile_qr_scan"}, "is_reserved": 0}, {"lon": -77.00740166666667, "bike_id": "378f7a74474f43e57d618310077ddadd", "lat": 38.898512833333335, "fusion_lon": 0.0, "fusion_lat": 0.0, "type": "electric_scooter", "name": "378f7a74474f43e57d618310077ddadd", "is_disabled": 0, "rental_uris": {"ios": "https://dc.lft.to/lastmile_qr_scan", "android": "https://dc.lft.to/lastmile_qr_scan"}, "is_reserved": 0}, {"lon": -76.9975155, "bike_id": "42d077f42251ebf6050ef0793c0cdcf6", "lat": 38.95014416666667, "fusion_lon": 0.0, "fusion_lat": 0.0, "type": "electric_bike", "name": "42d077f42251ebf6050ef0793c0cdcf6", "is_disabled": 0, "rental_uris": {"ios": "https://dc.lft.to/lastmile_qr_scan", "android": "https://dc.lft.to/lastmile_qr_scan"}, "is_reserved": 0}, {"lon": -77.0021525, "bike_id": "bc500f5ae5fa8827c2284f5bbd440817", "lat": 38.88513066666667, "fusion_lon": 0.0, "fusion_lat": 0.0, "type": "electric_scooter", "name": "bc500f5ae5fa8827c2284f5bbd440817", "is_disabled": 0, "rental_uris": {"ios": "https://dc.lft.to/lastmile_qr_scan", "android": "https://dc.lft.to/lastmile_qr_scan"}, "is_reserved": 0}, {"lon": -77.0758025, "bike_id": "6ed325ba4e0f20dfa6aa3a42a4efa663", "lat": 38.912227333333334, "fusion_lon": 0.0, "fusion_lat": 0.0, "type": "electric_scooter", "name": "6ed325ba4e0f20dfa6aa3a42a4efa663", "is_disabled": 0, "rental_uris": {"ios": "https://dc.lft.to/lastmile_qr_scan", "android": "https://dc.lft.to/lastmile_qr_scan"}, "is_reserved": 0}, {"lon": -77.023614, "bike_id": "96d8e8be0ddbce0c1da26c157967acce", "lat": 38.903073, "fusion_lon": 0.0, "fusion_lat": 0.0, "type": "electric_scooter", "name": "96d8e8be0ddbce0c1da26c157967acce", "is_disabled": 0, "rental_uris": {"ios": "https://dc.lft.to/lastmile_qr_scan", "android": "https://dc.lft.to/lastmile_qr_scan"}, "is_reserved": 0}, {"lon": -77.0225455, "bike_id": "cc55d5b7f847e91ff8879927745fd27a", "lat": 38.9252825, "fusion_lon": 0.0, "fusion_lat": 0.0, "type": "electric_scooter", "name": "cc55d5b7f847e91ff8879927745fd27a", "is_disabled": 0, "rental_uris": {"ios": "https://dc.lft.to/lastmile_qr_scan", "android": "https://dc.lft.to/lastmile_qr_scan"}, "is_reserved": 0}, {"lon": -77.02503533333334, "bike_id": "425e4120fdfd7456d1c7e901906ee0c9", "lat": 38.904223333333334, "fusion_lon": 0.0, "fusion_lat": 0.0, "type": "electric_scooter", "name": "425e4120fdfd7456d1c7e901906ee0c9", "is_disabled": 0, "rental_uris": {"ios": "https://dc.lft.to/lastmile_qr_scan", "android": "https://dc.lft.to/lastmile_qr_scan"}, "is_reserved": 0}, {"lon": -77.02157766666667, "bike_id": "c79c7190cde87b6953f7a6e442cbe0be", "lat": 38.904292833333336, "fusion_lon": 0.0, "fusion_lat": 0.0, "type": "electric_scooter", "name": "c79c7190cde87b6953f7a6e442cbe0be", "is_disabled": 0, "rental_uris": {"ios": "https://dc.lft.to/lastmile_qr_scan", "android": "https://dc.lft.to/lastmile_qr_scan"}, "is_reserved": 0}, {"lon": -77.04173683333333, "bike_id": "a4addddb57c41ff073e547b19fcf6276", "lat": 38.90812483333333, "fusion_lon": 0.0, "fusion_lat": 0.0, "type": "electric_scooter", "name": "a4addddb57c41ff073e547b19fcf6276", "is_disabled": 0, "rental_uris": {"ios": "https://dc.lft.to/lastmile_qr_scan", "android": "https://dc.lft.to/lastmile_qr_scan"}, "is_reserved": 0}, {"lon": -77.0223215, "bike_id": "58e87b2cee350ceafc2cd870b1110ab9", "lat": 38.962078166666664, "fusion_lon": 0.0, "fusion_lat": 0.0, "type": "electric_scooter", "name": "58e87b2cee350ceafc2cd870b1110ab9", "is_disabled": 0, "rental_uris": {"ios": "https://dc.lft.to/lastmile_qr_scan", "android": "https://dc.lft.to/lastmile_qr_scan"}, "is_reserved": 0}, {"lon": -77.02322783333334, "bike_id": "0c87485ecf5323210a86072920ea49dc", "lat": 38.92089983333334, "fusion_lon": 0.0, "fusion_lat": 0.0, "type": "electric_scooter", "name": "0c87485ecf5323210a86072920ea49dc", "is_disabled": 0, "rental_uris": {"ios": "https://dc.lft.to/lastmile_qr_scan", "android": "https://dc.lft.to/lastmile_qr_scan"}, "is_reserved": 0}, {"lon": -76.98235833333334, "bike_id": "c6e0bca5a615ab1df309db64be08b273", "lat": 38.91667066666667, "fusion_lon": 0.0, "fusion_lat": 0.0, "type": "electric_scooter", "name": "c6e0bca5a615ab1df309db64be08b273", "is_disabled": 0, "rental_uris": {"ios": "https://dc.lft.to/lastmile_qr_scan", "android": "https://dc.lft.to/lastmile_qr_scan"}, "is_reserved": 0}, {"lon": -77.03861616666667, "bike_id": "7636a9392802c193bf34531f5a47285a", "lat": 38.906662, "fusion_lon": 0.0, "fusion_lat": 0.0, "type": "electric_scooter", "name": "7636a9392802c193bf34531f5a47285a", "is_disabled": 0, "rental_uris": {"ios": "https://dc.lft.to/lastmile_qr_scan", "android": "https://dc.lft.to/lastmile_qr_scan"}, "is_reserved": 0}, {"lon": -76.9935145, "bike_id": "c2fec0a6da3c3d0ad1d4889954343121", "lat": 38.845102, "fusion_lon": 0.0, "fusion_lat": 0.0, "type": "electric_bike", "name": "c2fec0a6da3c3d0ad1d4889954343121", "is_disabled": 0, "rental_uris": {"ios": "https://dc.lft.to/lastmile_qr_scan", "android": "https://dc.lft.to/lastmile_qr_scan"}, "is_reserved": 0}, {"lon": -76.94408133333333, "bike_id": "7d95ecb6ad306eacd0d7fd222958e77e", "lat": 38.8814215, "fusion_lon": 0.0, "fusion_lat": 0.0, "type": "electric_scooter", "name": "7d95ecb6ad306eacd0d7fd222958e77e", "is_disabled": 0, "rental_uris": {"ios": "https://dc.lft.to/lastmile_qr_scan", "android": "https://dc.lft.to/lastmile_qr_scan"}, "is_reserved": 0}, {"lon": -77.04575666666666, "bike_id": "d0d4b18ceace5410d7d5266786223552", "lat": 38.92123333333333, "fusion_lon": 0.0, "fusion_lat": 0.0, "type": "electric_scooter", "name": "d0d4b18ceace5410d7d5266786223552", "is_disabled": 0, "rental_uris": {"ios": "https://dc.lft.to/lastmile_qr_scan", "android": "https://dc.lft.to/lastmile_qr_scan"}, "is_reserved": 0}, {"lon": -77.01368716666667, "bike_id": "c7e76ec472120d5d1dac6293a5dc5563", "lat": 38.88705983333333, "fusion_lon": 0.0, "fusion_lat": 0.0, "type": "electric_scooter", "name": "c7e76ec472120d5d1dac6293a5dc5563", "is_disabled": 0, "rental_uris": {"ios": "https://dc.lft.to/lastmile_qr_scan", "android": "https://dc.lft.to/lastmile_qr_scan"}, "is_reserved": 0}, {"lon": -77.03290866666667, "bike_id": "e11d52de2f7321d5c716b9c679cc9bc1", "lat": 38.9234775, "fusion_lon": 0.0, "fusion_lat": 0.0, "type": "electric_scooter", "name": "e11d52de2f7321d5c716b9c679cc9bc1", "is_disabled": 0, "rental_uris": {"ios": "https://dc.lft.to/lastmile_qr_scan", "android": "https://dc.lft.to/lastmile_qr_scan"}, "is_reserved": 0}, {"lon": -77.06296766666667, "bike_id": "1d31a13ca5c1f1219f272e4dbd7d371e", "lat": 38.903964333333334, "fusion_lon": 0.0, "fusion_lat": 0.0, "type": "electric_scooter", "name": "1d31a13ca5c1f1219f272e4dbd7d371e", "is_disabled": 0, "rental_uris": {"ios": "https://dc.lft.to/lastmile_qr_scan", "android": "https://dc.lft.to/lastmile_qr_scan"}, "is_reserved": 0}, {"lon": -77.024979, "bike_id": "ce107141b76ed7cc7dedbf86504e706a", "lat": 38.921076666666664, "fusion_lon": 0.0, "fusion_lat": 0.0, "type": "electric_scooter", "name": "ce107141b76ed7cc7dedbf86504e706a", "is_disabled": 0, "rental_uris": {"ios": "https://dc.lft.to/lastmile_qr_scan", "android": "https://dc.lft.to/lastmile_qr_scan"}, "is_reserved": 0}, {"lon": -77.02211466666667, "bike_id": "c706ab1d692d38f3fce70e5953cced08", "lat": 38.9000595, "fusion_lon": 0.0, "fusion_lat": 0.0, "type": "electric_scooter", "name": "c706ab1d692d38f3fce70e5953cced08", "is_disabled": 0, "rental_uris": {"ios": "https://dc.lft.to/lastmile_qr_scan", "android": "https://dc.lft.to/lastmile_qr_scan"}, "is_reserved": 0}, {"lon": -77.02274583333333, "bike_id": "200b25614d12f90d50195c2ab997c117", "lat": 38.927389833333336, "fusion_lon": 0.0, "fusion_lat": 0.0, "type": "electric_scooter", "name": "200b25614d12f90d50195c2ab997c117", "is_disabled": 0, "rental_uris": {"ios": "https://dc.lft.to/lastmile_qr_scan", "android": "https://dc.lft.to/lastmile_qr_scan"}, "is_reserved": 0}, {"lon": -76.9749355, "bike_id": "4b5e419a567d44036c3457cdb0c05c60", "lat": 38.91927233333333, "fusion_lon": 0.0, "fusion_lat": 0.0, "type": "electric_scooter", "name": "4b5e419a567d44036c3457cdb0c05c60", "is_disabled": 0, "rental_uris": {"ios": "https://dc.lft.to/lastmile_qr_scan", "android": "https://dc.lft.to/lastmile_qr_scan"}, "is_reserved": 0}, {"lon": -77.02829116666666, "bike_id": "46b5ead916517540fdc66320cca1b645", "lat": 38.91707, "fusion_lon": 0.0, "fusion_lat": 0.0, "type": "electric_scooter", "name": "46b5ead916517540fdc66320cca1b645", "is_disabled": 0, "rental_uris": {"ios": "https://dc.lft.to/lastmile_qr_scan", "android": "https://dc.lft.to/lastmile_qr_scan"}, "is_reserved": 0}, {"lon": -77.009696, "bike_id": "2b4159fbc8b12e5b54661b588832378a", "lat": 38.8973255, "fusion_lon": 0.0, "fusion_lat": 0.0, "type": "electric_scooter", "name": "2b4159fbc8b12e5b54661b588832378a", "is_disabled": 0, "rental_uris": {"ios": "https://dc.lft.to/lastmile_qr_scan", "android": "https://dc.lft.to/lastmile_qr_scan"}, "is_reserved": 0}, {"lon": -77.0488555, "bike_id": "0d3e21f61bdbd916503ced71e047dd4a", "lat": 38.903609, "fusion_lon": 0.0, "fusion_lat": 0.0, "type": "electric_scooter", "name": "0d3e21f61bdbd916503ced71e047dd4a", "is_disabled": 0, "rental_uris": {"ios": "https://dc.lft.to/lastmile_qr_scan", "android": "https://dc.lft.to/lastmile_qr_scan"}, "is_reserved": 0}, {"lon": -77.009987, "bike_id": "d5601370ee230c36369ae1e91f159043", "lat": 38.91925416666667, "fusion_lon": 0.0, "fusion_lat": 0.0, "type": "electric_scooter", "name": "d5601370ee230c36369ae1e91f159043", "is_disabled": 0, "rental_uris": {"ios": "https://dc.lft.to/lastmile_qr_scan", "android": "https://dc.lft.to/lastmile_qr_scan"}, "is_reserved": 0}, {"lon": -77.05066816666667, "bike_id": "c073708b35f972b13e18278d5e313e40", "lat": 38.89685016666667, "fusion_lon": 0.0, "fusion_lat": 0.0, "type": "electric_scooter", "name": "c073708b35f972b13e18278d5e313e40", "is_disabled": 0, "rental_uris": {"ios": "https://dc.lft.to/lastmile_qr_scan", "android": "https://dc.lft.to/lastmile_qr_scan"}, "is_reserved": 0}, {"lon": -76.933566, "bike_id": "bbba2e7739b88360639f0277bb6b9a52", "lat": 38.888003833333336, "fusion_lon": 0.0, "fusion_lat": 0.0, "type": "electric_scooter", "name": "bbba2e7739b88360639f0277bb6b9a52", "is_disabled": 0, "rental_uris": {"ios": "https://dc.lft.to/lastmile_qr_scan", "android": "https://dc.lft.to/lastmile_qr_scan"}, "is_reserved": 0}, {"lon": -77.03286633333333, "bike_id": "6416203048d04d3e5e8dc0cd71a354c8", "lat": 38.93884583333333, "fusion_lon": 0.0, "fusion_lat": 0.0, "type": "electric_scooter", "name": "6416203048d04d3e5e8dc0cd71a354c8", "is_disabled": 0, "rental_uris": {"ios": "https://dc.lft.to/lastmile_qr_scan", "android": "https://dc.lft.to/lastmile_qr_scan"}, "is_reserved": 0}, {"lon": -77.03381516666667, "bike_id": "8904bfc18e9aba0d1fc6f4f5f86ebab3", "lat": 38.90278, "fusion_lon": 0.0, "fusion_lat": 0.0, "type": "electric_scooter", "name": "8904bfc18e9aba0d1fc6f4f5f86ebab3", "is_disabled": 0, "rental_uris": {"ios": "https://dc.lft.to/lastmile_qr_scan", "android": "https://dc.lft.to/lastmile_qr_scan"}, "is_reserved": 0}, {"lon": -76.94875483333334, "bike_id": "23552c7cca65bf38ec5953a31f74f6a6", "lat": 38.89554566666666, "fusion_lon": 0.0, "fusion_lat": 0.0, "type": "electric_scooter", "name": "23552c7cca65bf38ec5953a31f74f6a6", "is_disabled": 0, "rental_uris": {"ios": "https://dc.lft.to/lastmile_qr_scan", "android": "https://dc.lft.to/lastmile_qr_scan"}, "is_reserved": 0}, {"lon": -76.9870405, "bike_id": "b71b5d4b013cf317ccb18d74299d052b", "lat": 38.90939233333334, "fusion_lon": 0.0, "fusion_lat": 0.0, "type": "electric_scooter", "name": "b71b5d4b013cf317ccb18d74299d052b", "is_disabled": 0, "rental_uris": {"ios": "https://dc.lft.to/lastmile_qr_scan", "android": "https://dc.lft.to/lastmile_qr_scan"}, "is_reserved": 0}, {"lon": -77.02969266666666, "bike_id": "d1893cd5d2dedb04c28fbf51e97a13ff", "lat": 38.916815166666666, "fusion_lon": 0.0, "fusion_lat": 0.0, "type": "electric_scooter", "name": "d1893cd5d2dedb04c28fbf51e97a13ff", "is_disabled": 0, "rental_uris": {"ios": "https://dc.lft.to/lastmile_qr_scan", "android": "https://dc.lft.to/lastmile_qr_scan"}, "is_reserved": 0}, {"lon": -76.98833466666666, "bike_id": "6a8881b5b72be2b86e40a908e94ff75d", "lat": 38.90040583333333, "fusion_lon": 0.0, "fusion_lat": 0.0, "type": "electric_scooter", "name": "6a8881b5b72be2b86e40a908e94ff75d", "is_disabled": 0, "rental_uris": {"ios": "https://dc.lft.to/lastmile_qr_scan", "android": "https://dc.lft.to/lastmile_qr_scan"}, "is_reserved": 0}, {"lon": -77.04495566666667, "bike_id": "c5195399255755d30764433e28b21e58", "lat": 38.90031316666666, "fusion_lon": 0.0, "fusion_lat": 0.0, "type": "electric_scooter", "name": "c5195399255755d30764433e28b21e58", "is_disabled": 0, "rental_uris": {"ios": "https://dc.lft.to/lastmile_qr_scan", "android": "https://dc.lft.to/lastmile_qr_scan"}, "is_reserved": 0}, {"lon": -77.03471583333334, "bike_id": "5cbb8436a504f9dc77384daacb614435", "lat": 38.9074145, "fusion_lon": 0.0, "fusion_lat": 0.0, "type": "electric_scooter", "name": "5cbb8436a504f9dc77384daacb614435", "is_disabled": 0, "rental_uris": {"ios": "https://dc.lft.to/lastmile_qr_scan", "android": "https://dc.lft.to/lastmile_qr_scan"}, "is_reserved": 0}, {"lon": -77.03542766666666, "bike_id": "f1ced8174851a852497b92b72fe690b0", "lat": 38.92423, "fusion_lon": 0.0, "fusion_lat": 0.0, "type": "electric_scooter", "name": "f1ced8174851a852497b92b72fe690b0", "is_disabled": 0, "rental_uris": {"ios": "https://dc.lft.to/lastmile_qr_scan", "android": "https://dc.lft.to/lastmile_qr_scan"}, "is_reserved": 0}, {"lon": -77.0034405, "bike_id": "f0ceebf54e81e9c96977a78f5a62d443", "lat": 38.887191333333334, "fusion_lon": 0.0, "fusion_lat": 0.0, "type": "electric_scooter", "name": "f0ceebf54e81e9c96977a78f5a62d443", "is_disabled": 0, "rental_uris": {"ios": "https://dc.lft.to/lastmile_qr_scan", "android": "https://dc.lft.to/lastmile_qr_scan"}, "is_reserved": 0}, {"lon": -77.13102866666667, "bike_id": "752eb790e03de037a4612d856a05ba28", "lat": 39.02438516666667, "fusion_lon": 0.0, "fusion_lat": 0.0, "type": "electric_bike", "name": "752eb790e03de037a4612d856a05ba28", "is_disabled": 0, "rental_uris": {"ios": "https://dc.lft.to/lastmile_qr_scan", "android": "https://dc.lft.to/lastmile_qr_scan"}, "is_reserved": 0}, {"lon": -77.01117683333334, "bike_id": "b8736eb6dcd305157b2d3e0ad1596f13", "lat": 38.8855245, "fusion_lon": 0.0, "fusion_lat": 0.0, "type": "electric_scooter", "name": "b8736eb6dcd305157b2d3e0ad1596f13", "is_disabled": 0, "rental_uris": {"ios": "https://dc.lft.to/lastmile_qr_scan", "android": "https://dc.lft.to/lastmile_qr_scan"}, "is_reserved": 0}, {"lon": -77.02943983333333, "bike_id": "305b47d879a4071d31a69952a2929adb", "lat": 38.920606666666664, "fusion_lon": 0.0, "fusion_lat": 0.0, "type": "electric_scooter", "name": "305b47d879a4071d31a69952a2929adb", "is_disabled": 0, "rental_uris": {"ios": "https://dc.lft.to/lastmile_qr_scan", "android": "https://dc.lft.to/lastmile_qr_scan"}, "is_reserved": 0}, {"lon": -77.05623933333334, "bike_id": "6ef4b332beb3902869930d32838c834f", "lat": 38.960746, "fusion_lon": 0.0, "fusion_lat": 0.0, "type": "electric_scooter", "name": "6ef4b332beb3902869930d32838c834f", "is_disabled": 0, "rental_uris": {"ios": "https://dc.lft.to/lastmile_qr_scan", "android": "https://dc.lft.to/lastmile_qr_scan"}, "is_reserved": 0}, {"lon": -77.03432766666667, "bike_id": "3d90b91494495bc1164e5a5642ecb3af", "lat": 38.965326, "fusion_lon": 0.0, "fusion_lat": 0.0, "type": "electric_bike", "name": "3d90b91494495bc1164e5a5642ecb3af", "is_disabled": 0, "rental_uris": {"ios": "https://dc.lft.to/lastmile_qr_scan", "android": "https://dc.lft.to/lastmile_qr_scan"}, "is_reserved": 0}, {"lon": -77.13922333333333, "bike_id": "67bdd4d28426dfab3e34dc6096d88c79", "lat": 38.87308683333333, "fusion_lon": 0.0, "fusion_lat": 0.0, "type": "electric_bike", "name": "67bdd4d28426dfab3e34dc6096d88c79", "is_disabled": 0, "rental_uris": {"ios": "https://dc.lft.to/lastmile_qr_scan", "android": "https://dc.lft.to/lastmile_qr_scan"}, "is_reserved": 0}, {"lon": -76.99034433333334, "bike_id": "2b31cdb630743d9c2a30fe4ef7a9035c", "lat": 38.896022333333335, "fusion_lon": 0.0, "fusion_lat": 0.0, "type": "electric_scooter", "name": "2b31cdb630743d9c2a30fe4ef7a9035c", "is_disabled": 0, "rental_uris": {"ios": "https://dc.lft.to/lastmile_qr_scan", "android": "https://dc.lft.to/lastmile_qr_scan"}, "is_reserved": 0}, {"lon": -77.01782666666666, "bike_id": "83074acbfe40c7e1abb952ac461c263c", "lat": 38.90040033333333, "fusion_lon": 0.0, "fusion_lat": 0.0, "type": "electric_scooter", "name": "83074acbfe40c7e1abb952ac461c263c", "is_disabled": 0, "rental_uris": {"ios": "https://dc.lft.to/lastmile_qr_scan", "android": "https://dc.lft.to/lastmile_qr_scan"}, "is_reserved": 0}, {"lon": -77.04249166666666, "bike_id": "70ab700b502e983ac46f03a8f75b7a50", "lat": 38.922613166666665, "fusion_lon": 0.0, "fusion_lat": 0.0, "type": "electric_scooter", "name": "70ab700b502e983ac46f03a8f75b7a50", "is_disabled": 0, "rental_uris": {"ios": "https://dc.lft.to/lastmile_qr_scan", "android": "https://dc.lft.to/lastmile_qr_scan"}, "is_reserved": 0}, {"lon": -77.0269605, "bike_id": "13f72bbb0b34b49b7e19f4ae56c273e2", "lat": 38.89754633333333, "fusion_lon": 0.0, "fusion_lat": 0.0, "type": "electric_scooter", "name": "13f72bbb0b34b49b7e19f4ae56c273e2", "is_disabled": 0, "rental_uris": {"ios": "https://dc.lft.to/lastmile_qr_scan", "android": "https://dc.lft.to/lastmile_qr_scan"}, "is_reserved": 0}, {"lon": -76.93963133333334, "bike_id": "669346ca791e6969da2e2185b45b95ce", "lat": 38.898394833333334, "fusion_lon": 0.0, "fusion_lat": 0.0, "type": "electric_scooter", "name": "669346ca791e6969da2e2185b45b95ce", "is_disabled": 0, "rental_uris": {"ios": "https://dc.lft.to/lastmile_qr_scan", "android": "https://dc.lft.to/lastmile_qr_scan"}, "is_reserved": 0}, {"lon": -77.04905566666666, "bike_id": "6bff3149b58331a6ebced8fcd39544bb", "lat": 38.91607183333333, "fusion_lon": 0.0, "fusion_lat": 0.0, "type": "electric_scooter", "name": "6bff3149b58331a6ebced8fcd39544bb", "is_disabled": 0, "rental_uris": {"ios": "https://dc.lft.to/lastmile_qr_scan", "android": "https://dc.lft.to/lastmile_qr_scan"}, "is_reserved": 0}, {"lon": -76.982324, "bike_id": "6ce04b5fdef3d0957ce3c4d42d622e06", "lat": 38.8647485, "fusion_lon": 0.0, "fusion_lat": 0.0, "type": "electric_scooter", "name": "6ce04b5fdef3d0957ce3c4d42d622e06", "is_disabled": 0, "rental_uris": {"ios": "https://dc.lft.to/lastmile_qr_scan", "android": "https://dc.lft.to/lastmile_qr_scan"}, "is_reserved": 0}, {"lon": -76.99533916666667, "bike_id": "e687da47711876b24803610a3568772a", "lat": 38.862043666666665, "fusion_lon": 0.0, "fusion_lat": 0.0, "type": "electric_scooter", "name": "e687da47711876b24803610a3568772a", "is_disabled": 0, "rental_uris": {"ios": "https://dc.lft.to/lastmile_qr_scan", "android": "https://dc.lft.to/lastmile_qr_scan"}, "is_reserved": 0}, {"lon": -77.06107716666666, "bike_id": "4f8e6f3328ee16bfc8cde7da576da416", "lat": 38.90543266666667, "fusion_lon": 0.0, "fusion_lat": 0.0, "type": "electric_scooter", "name": "4f8e6f3328ee16bfc8cde7da576da416", "is_disabled": 0, "rental_uris": {"ios": "https://dc.lft.to/lastmile_qr_scan", "android": "https://dc.lft.to/lastmile_qr_scan"}, "is_reserved": 0}, {"lon": -77.04726216666667, "bike_id": "f0b168048f8d98dc6d4201be420cb254", "lat": 38.922328666666665, "fusion_lon": 0.0, "fusion_lat": 0.0, "type": "electric_scooter", "name": "f0b168048f8d98dc6d4201be420cb254", "is_disabled": 0, "rental_uris": {"ios": "https://dc.lft.to/lastmile_qr_scan", "android": "https://dc.lft.to/lastmile_qr_scan"}, "is_reserved": 0}, {"lon": -77.0557465, "bike_id": "d267c5d4227b5ada56fd4848eeac6cf0", "lat": 38.8975075, "fusion_lon": 0.0, "fusion_lat": 0.0, "type": "electric_scooter", "name": "d267c5d4227b5ada56fd4848eeac6cf0", "is_disabled": 0, "rental_uris": {"ios": "https://dc.lft.to/lastmile_qr_scan", "android": "https://dc.lft.to/lastmile_qr_scan"}, "is_reserved": 0}, {"lon": -77.02214616666667, "bike_id": "c69498763117f5bd2b40f73a287c08f8", "lat": 38.8872355, "fusion_lon": 0.0, "fusion_lat": 0.0, "type": "electric_scooter", "name": "c69498763117f5bd2b40f73a287c08f8", "is_disabled": 0, "rental_uris": {"ios": "https://dc.lft.to/lastmile_qr_scan", "android": "https://dc.lft.to/lastmile_qr_scan"}, "is_reserved": 0}, {"lon": -77.03231683333334, "bike_id": "97b69afe9ddd01b54787a4db2900097d", "lat": 38.9288075, "fusion_lon": 0.0, "fusion_lat": 0.0, "type": "electric_scooter", "name": "97b69afe9ddd01b54787a4db2900097d", "is_disabled": 0, "rental_uris": {"ios": "https://dc.lft.to/lastmile_qr_scan", "android": "https://dc.lft.to/lastmile_qr_scan"}, "is_reserved": 0}, {"lon": -77.03057066666666, "bike_id": "a21560c9574f75b408068485e20feab1", "lat": 38.93109066666667, "fusion_lon": 0.0, "fusion_lat": 0.0, "type": "electric_scooter", "name": "a21560c9574f75b408068485e20feab1", "is_disabled": 0, "rental_uris": {"ios": "https://dc.lft.to/lastmile_qr_scan", "android": "https://dc.lft.to/lastmile_qr_scan"}, "is_reserved": 0}, {"lon": -77.01303883333334, "bike_id": "761895cd0c2f22c627886c8b3251ee94", "lat": 38.91151133333334, "fusion_lon": 0.0, "fusion_lat": 0.0, "type": "electric_scooter", "name": "761895cd0c2f22c627886c8b3251ee94", "is_disabled": 0, "rental_uris": {"ios": "https://dc.lft.to/lastmile_qr_scan", "android": "https://dc.lft.to/lastmile_qr_scan"}, "is_reserved": 0}, {"lon": -77.08959333333334, "bike_id": "44eab26fbfb5f54e82107833e313b7f3", "lat": 38.842994166666664, "fusion_lon": 0.0, "fusion_lat": 0.0, "type": "electric_bike", "name": "44eab26fbfb5f54e82107833e313b7f3", "is_disabled": 0, "rental_uris": {"ios": "https://dc.lft.to/lastmile_qr_scan", "android": "https://dc.lft.to/lastmile_qr_scan"}, "is_reserved": 0}, {"lon": -77.01801516666667, "bike_id": "8da1c25fbb1f27aad8e4f4a58076c52d", "lat": 38.919819833333335, "fusion_lon": 0.0, "fusion_lat": 0.0, "type": "electric_scooter", "name": "8da1c25fbb1f27aad8e4f4a58076c52d", "is_disabled": 0, "rental_uris": {"ios": "https://dc.lft.to/lastmile_qr_scan", "android": "https://dc.lft.to/lastmile_qr_scan"}, "is_reserved": 0}, {"lon": -77.031233, "bike_id": "2cacc89cfba8901a1cebefb089fce656", "lat": 38.914972166666665, "fusion_lon": 0.0, "fusion_lat": 0.0, "type": "electric_scooter", "name": "2cacc89cfba8901a1cebefb089fce656", "is_disabled": 0, "rental_uris": {"ios": "https://dc.lft.to/lastmile_qr_scan", "android": "https://dc.lft.to/lastmile_qr_scan"}, "is_reserved": 0}, {"lon": -76.9493805, "bike_id": "bab229dbb1d3212edd99350a3cf14ec6", "lat": 38.904998166666665, "fusion_lon": 0.0, "fusion_lat": 0.0, "type": "electric_scooter", "name": "bab229dbb1d3212edd99350a3cf14ec6", "is_disabled": 0, "rental_uris": {"ios": "https://dc.lft.to/lastmile_qr_scan", "android": "https://dc.lft.to/lastmile_qr_scan"}, "is_reserved": 0}, {"lon": -77.007382, "bike_id": "b24d57e7e2fd2d48e912b9ef7daf55f0", "lat": 38.92551483333333, "fusion_lon": 0.0, "fusion_lat": 0.0, "type": "electric_scooter", "name": "b24d57e7e2fd2d48e912b9ef7daf55f0", "is_disabled": 0, "rental_uris": {"ios": "https://dc.lft.to/lastmile_qr_scan", "android": "https://dc.lft.to/lastmile_qr_scan"}, "is_reserved": 0}, {"lon": -77.01430233333333, "bike_id": "f8a64cbe3b4bdbae14488cf8ec65faaf", "lat": 38.99795233333333, "fusion_lon": 0.0, "fusion_lat": 0.0, "type": "electric_bike", "name": "f8a64cbe3b4bdbae14488cf8ec65faaf", "is_disabled": 0, "rental_uris": {"ios": "https://dc.lft.to/lastmile_qr_scan", "android": "https://dc.lft.to/lastmile_qr_scan"}, "is_reserved": 0}, {"lon": -77.04266783333334, "bike_id": "b4c0a2fc00ac8fa6c43d038028630793", "lat": 38.910514166666665, "fusion_lon": 0.0, "fusion_lat": 0.0, "type": "electric_scooter", "name": "b4c0a2fc00ac8fa6c43d038028630793", "is_disabled": 0, "rental_uris": {"ios": "https://dc.lft.to/lastmile_qr_scan", "android": "https://dc.lft.to/lastmile_qr_scan"}, "is_reserved": 0}, {"lon": -76.95756483333334, "bike_id": "3c8cf6aeeb8d9652f34ac2b62145f532", "lat": 38.884348, "fusion_lon": 0.0, "fusion_lat": 0.0, "type": "electric_scooter", "name": "3c8cf6aeeb8d9652f34ac2b62145f532", "is_disabled": 0, "rental_uris": {"ios": "https://dc.lft.to/lastmile_qr_scan", "android": "https://dc.lft.to/lastmile_qr_scan"}, "is_reserved": 0}, {"lon": -76.982595, "bike_id": "e09da85c0404d491f1d78c243c721233", "lat": 38.90855, "fusion_lon": 0.0, "fusion_lat": 0.0, "type": "electric_scooter", "name": "e09da85c0404d491f1d78c243c721233", "is_disabled": 0, "rental_uris": {"ios": "https://dc.lft.to/lastmile_qr_scan", "android": "https://dc.lft.to/lastmile_qr_scan"}, "is_reserved": 0}, {"lon": -76.944389, "bike_id": "b7ebf500b6111dcb5ebfcf5d3e41b170", "lat": 38.90046983333333, "fusion_lon": 0.0, "fusion_lat": 0.0, "type": "electric_scooter", "name": "b7ebf500b6111dcb5ebfcf5d3e41b170", "is_disabled": 0, "rental_uris": {"ios": "https://dc.lft.to/lastmile_qr_scan", "android": "https://dc.lft.to/lastmile_qr_scan"}, "is_reserved": 0}, {"lon": -77.00791433333333, "bike_id": "f680f2a118b8acaedbc401261b6be560", "lat": 38.896658, "fusion_lon": 0.0, "fusion_lat": 0.0, "type": "electric_scooter", "name": "f680f2a118b8acaedbc401261b6be560", "is_disabled": 0, "rental_uris": {"ios": "https://dc.lft.to/lastmile_qr_scan", "android": "https://dc.lft.to/lastmile_qr_scan"}, "is_reserved": 0}, {"lon": -76.99409233333333, "bike_id": "81f9a261538a44cafad60139cb09f6fe", "lat": 38.83139233333333, "fusion_lon": 0.0, "fusion_lat": 0.0, "type": "electric_bike", "name": "81f9a261538a44cafad60139cb09f6fe", "is_disabled": 0, "rental_uris": {"ios": "https://dc.lft.to/lastmile_qr_scan", "android": "https://dc.lft.to/lastmile_qr_scan"}, "is_reserved": 0}, {"lon": -77.03661466666667, "bike_id": "877902b41ab745383b578d0aec061900", "lat": 38.91753416666667, "fusion_lon": 0.0, "fusion_lat": 0.0, "type": "electric_scooter", "name": "877902b41ab745383b578d0aec061900", "is_disabled": 0, "rental_uris": {"ios": "https://dc.lft.to/lastmile_qr_scan", "android": "https://dc.lft.to/lastmile_qr_scan"}, "is_reserved": 0}, {"lon": -77.01550316666666, "bike_id": "ff97a4f0915d412354b0b376959e3729", "lat": 38.89168683333333, "fusion_lon": 0.0, "fusion_lat": 0.0, "type": "electric_scooter", "name": "ff97a4f0915d412354b0b376959e3729", "is_disabled": 0, "rental_uris": {"ios": "https://dc.lft.to/lastmile_qr_scan", "android": "https://dc.lft.to/lastmile_qr_scan"}, "is_reserved": 0}, {"lon": -76.9335445, "bike_id": "044ca35fd6f3ceddcd1ab4357662bbb9", "lat": 38.899201, "fusion_lon": 0.0, "fusion_lat": 0.0, "type": "electric_scooter", "name": "044ca35fd6f3ceddcd1ab4357662bbb9", "is_disabled": 0, "rental_uris": {"ios": "https://dc.lft.to/lastmile_qr_scan", "android": "https://dc.lft.to/lastmile_qr_scan"}, "is_reserved": 0}, {"lon": -77.10089433333333, "bike_id": "bfc8256174c1196718c4f4881a57482b", "lat": 38.95954866666667, "fusion_lon": 0.0, "fusion_lat": 0.0, "type": "electric_bike", "name": "bfc8256174c1196718c4f4881a57482b", "is_disabled": 0, "rental_uris": {"ios": "https://dc.lft.to/lastmile_qr_scan", "android": "https://dc.lft.to/lastmile_qr_scan"}, "is_reserved": 0}, {"lon": -77.011593, "bike_id": "3fd2121426542923e697583678581fd6", "lat": 38.91412033333334, "fusion_lon": 0.0, "fusion_lat": 0.0, "type": "electric_scooter", "name": "3fd2121426542923e697583678581fd6", "is_disabled": 0, "rental_uris": {"ios": "https://dc.lft.to/lastmile_qr_scan", "android": "https://dc.lft.to/lastmile_qr_scan"}, "is_reserved": 0}, {"lon": -76.98498416666666, "bike_id": "b2ff950e5189238a48b0c7b0894231a2", "lat": 38.920064833333335, "fusion_lon": 0.0, "fusion_lat": 0.0, "type": "electric_scooter", "name": "b2ff950e5189238a48b0c7b0894231a2", "is_disabled": 0, "rental_uris": {"ios": "https://dc.lft.to/lastmile_qr_scan", "android": "https://dc.lft.to/lastmile_qr_scan"}, "is_reserved": 0}, {"lon": -76.96878833333334, "bike_id": "d1ecaa0d1e0e6422de56f42d1a91f8b1", "lat": 38.955786, "fusion_lon": 0.0, "fusion_lat": 0.0, "type": "electric_bike", "name": "d1ecaa0d1e0e6422de56f42d1a91f8b1", "is_disabled": 0, "rental_uris": {"ios": "https://dc.lft.to/lastmile_qr_scan", "android": "https://dc.lft.to/lastmile_qr_scan"}, "is_reserved": 0}, {"lon": -77.009752, "bike_id": "81280324b974652c4228070d5839e45a", "lat": 38.89735733333333, "fusion_lon": 0.0, "fusion_lat": 0.0, "type": "electric_scooter", "name": "81280324b974652c4228070d5839e45a", "is_disabled": 0, "rental_uris": {"ios": "https://dc.lft.to/lastmile_qr_scan", "android": "https://dc.lft.to/lastmile_qr_scan"}, "is_reserved": 0}, {"lon": -77.02680933333333, "bike_id": "9f50ace3ee1da8be6f3571d6961487e7", "lat": 38.92787116666667, "fusion_lon": 0.0, "fusion_lat": 0.0, "type": "electric_scooter", "name": "9f50ace3ee1da8be6f3571d6961487e7", "is_disabled": 0, "rental_uris": {"ios": "https://dc.lft.to/lastmile_qr_scan", "android": "https://dc.lft.to/lastmile_qr_scan"}, "is_reserved": 0}, {"lon": -77.03050483333334, "bike_id": "96778cc61deb28f62ae4c6e40d0cdfda", "lat": 38.90799633333334, "fusion_lon": 0.0, "fusion_lat": 0.0, "type": "electric_scooter", "name": "96778cc61deb28f62ae4c6e40d0cdfda", "is_disabled": 0, "rental_uris": {"ios": "https://dc.lft.to/lastmile_qr_scan", "android": "https://dc.lft.to/lastmile_qr_scan"}, "is_reserved": 0}, {"lon": -76.9948275, "bike_id": "e07c751b2378dcc7738063542488637a", "lat": 38.915736333333335, "fusion_lon": 0.0, "fusion_lat": 0.0, "type": "electric_scooter", "name": "e07c751b2378dcc7738063542488637a", "is_disabled": 0, "rental_uris": {"ios": "https://dc.lft.to/lastmile_qr_scan", "android": "https://dc.lft.to/lastmile_qr_scan"}, "is_reserved": 0}, {"lon": -76.98592266666667, "bike_id": "4a918ceaf56c6b9e60965a73cbe73eb9", "lat": 38.9081955, "fusion_lon": 0.0, "fusion_lat": 0.0, "type": "electric_scooter", "name": "4a918ceaf56c6b9e60965a73cbe73eb9", "is_disabled": 0, "rental_uris": {"ios": "https://dc.lft.to/lastmile_qr_scan", "android": "https://dc.lft.to/lastmile_qr_scan"}, "is_reserved": 0}, {"lon": -77.02057066666667, "bike_id": "fc7adb2be5039cfaa7b7f704df308b7a", "lat": 38.901582166666664, "fusion_lon": 0.0, "fusion_lat": 0.0, "type": "electric_scooter", "name": "fc7adb2be5039cfaa7b7f704df308b7a", "is_disabled": 0, "rental_uris": {"ios": "https://dc.lft.to/lastmile_qr_scan", "android": "https://dc.lft.to/lastmile_qr_scan"}, "is_reserved": 0}, {"lon": -77.044301, "bike_id": "c9ce956ebfe53c9565cad7fb02a1f3ad", "lat": 38.92138, "fusion_lon": 0.0, "fusion_lat": 0.0, "type": "electric_scooter", "name": "c9ce956ebfe53c9565cad7fb02a1f3ad", "is_disabled": 0, "rental_uris": {"ios": "https://dc.lft.to/lastmile_qr_scan", "android": "https://dc.lft.to/lastmile_qr_scan"}, "is_reserved": 0}, {"lon": -77.04447833333333, "bike_id": "3d07ab63f6e1774a2fa7e0b4b73c5a55", "lat": 38.92170516666667, "fusion_lon": 0.0, "fusion_lat": 0.0, "type": "electric_scooter", "name": "3d07ab63f6e1774a2fa7e0b4b73c5a55", "is_disabled": 0, "rental_uris": {"ios": "https://dc.lft.to/lastmile_qr_scan", "android": "https://dc.lft.to/lastmile_qr_scan"}, "is_reserved": 0}, {"lon": -76.97727333333333, "bike_id": "c65ab72d1dd86b317df5c9e4b932780b", "lat": 38.872981333333335, "fusion_lon": 0.0, "fusion_lat": 0.0, "type": "electric_scooter", "name": "c65ab72d1dd86b317df5c9e4b932780b", "is_disabled": 0, "rental_uris": {"ios": "https://dc.lft.to/lastmile_qr_scan", "android": "https://dc.lft.to/lastmile_qr_scan"}, "is_reserved": 0}, {"lon": -77.01411333333333, "bike_id": "3978d930b1f8f04fd9e16c221da26275", "lat": 38.928658166666665, "fusion_lon": 0.0, "fusion_lat": 0.0, "type": "electric_scooter", "name": "3978d930b1f8f04fd9e16c221da26275", "is_disabled": 0, "rental_uris": {"ios": "https://dc.lft.to/lastmile_qr_scan", "android": "https://dc.lft.to/lastmile_qr_scan"}, "is_reserved": 0}, {"lon": -77.038438, "bike_id": "9d4d72bd84bf828767408fb362501a47", "lat": 38.932094166666666, "fusion_lon": 0.0, "fusion_lat": 0.0, "type": "electric_scooter", "name": "9d4d72bd84bf828767408fb362501a47", "is_disabled": 0, "rental_uris": {"ios": "https://dc.lft.to/lastmile_qr_scan", "android": "https://dc.lft.to/lastmile_qr_scan"}, "is_reserved": 0}, {"lon": -77.03193666666667, "bike_id": "827a975e18894d58bb4f348edecdb1c0", "lat": 38.910675499999996, "fusion_lon": 0.0, "fusion_lat": 0.0, "type": "electric_scooter", "name": "827a975e18894d58bb4f348edecdb1c0", "is_disabled": 0, "rental_uris": {"ios": "https://dc.lft.to/lastmile_qr_scan", "android": "https://dc.lft.to/lastmile_qr_scan"}, "is_reserved": 0}, {"lon": -77.0320635, "bike_id": "92ae91e9afcee98a678384d2a8c09bc5", "lat": 38.93974433333333, "fusion_lon": 0.0, "fusion_lat": 0.0, "type": "electric_scooter", "name": "92ae91e9afcee98a678384d2a8c09bc5", "is_disabled": 0, "rental_uris": {"ios": "https://dc.lft.to/lastmile_qr_scan", "android": "https://dc.lft.to/lastmile_qr_scan"}, "is_reserved": 0}, {"lon": -77.027888, "bike_id": "0f4adcbad564e72988837443efe0bee1", "lat": 38.93540516666667, "fusion_lon": 0.0, "fusion_lat": 0.0, "type": "electric_scooter", "name": "0f4adcbad564e72988837443efe0bee1", "is_disabled": 0, "rental_uris": {"ios": "https://dc.lft.to/lastmile_qr_scan", "android": "https://dc.lft.to/lastmile_qr_scan"}, "is_reserved": 0}, {"lon": -77.028727, "bike_id": "5d1a6410463f4eff21bd613f6175b813", "lat": 38.88494433333334, "fusion_lon": 0.0, "fusion_lat": 0.0, "type": "electric_scooter", "name": "5d1a6410463f4eff21bd613f6175b813", "is_disabled": 0, "rental_uris": {"ios": "https://dc.lft.to/lastmile_qr_scan", "android": "https://dc.lft.to/lastmile_qr_scan"}, "is_reserved": 0}, {"lon": -77.12975833333333, "bike_id": "36ca5a59a1d269c165cd09623dbaf899", "lat": 38.79988633333333, "fusion_lon": 0.0, "fusion_lat": 0.0, "type": "electric_bike", "name": "36ca5a59a1d269c165cd09623dbaf899", "is_disabled": 0, "rental_uris": {"ios": "https://dc.lft.to/lastmile_qr_scan", "android": "https://dc.lft.to/lastmile_qr_scan"}, "is_reserved": 0}, {"lon": -76.976218, "bike_id": "27bf039b775628556846adaedecdf890", "lat": 38.92653716666667, "fusion_lon": 0.0, "fusion_lat": 0.0, "type": "electric_scooter", "name": "27bf039b775628556846adaedecdf890", "is_disabled": 0, "rental_uris": {"ios": "https://dc.lft.to/lastmile_qr_scan", "android": "https://dc.lft.to/lastmile_qr_scan"}, "is_reserved": 0}, {"lon": -77.018644, "bike_id": "07ecc0ea46e44b1f8964a91ec0a114b7", "lat": 38.95152266666667, "fusion_lon": 0.0, "fusion_lat": 0.0, "type": "electric_scooter", "name": "07ecc0ea46e44b1f8964a91ec0a114b7", "is_disabled": 0, "rental_uris": {"ios": "https://dc.lft.to/lastmile_qr_scan", "android": "https://dc.lft.to/lastmile_qr_scan"}, "is_reserved": 0}, {"lon": -77.01428116666666, "bike_id": "ec15943945ad515ecde0d216ab43a23a", "lat": 38.97223916666667, "fusion_lon": 0.0, "fusion_lat": 0.0, "type": "electric_bike", "name": "ec15943945ad515ecde0d216ab43a23a", "is_disabled": 0, "rental_uris": {"ios": "https://dc.lft.to/lastmile_qr_scan", "android": "https://dc.lft.to/lastmile_qr_scan"}, "is_reserved": 0}, {"lon": -77.0364905, "bike_id": "cebadfbc20a37aa694f976d023690d2a", "lat": 38.90389366666667, "fusion_lon": 0.0, "fusion_lat": 0.0, "type": "electric_scooter", "name": "cebadfbc20a37aa694f976d023690d2a", "is_disabled": 0, "rental_uris": {"ios": "https://dc.lft.to/lastmile_qr_scan", "android": "https://dc.lft.to/lastmile_qr_scan"}, "is_reserved": 0}, {"lon": -77.03862066666667, "bike_id": "9b9e1b51acff5b553fe33a8696db7115", "lat": 38.932509333333336, "fusion_lon": 0.0, "fusion_lat": 0.0, "type": "electric_scooter", "name": "9b9e1b51acff5b553fe33a8696db7115", "is_disabled": 0, "rental_uris": {"ios": "https://dc.lft.to/lastmile_qr_scan", "android": "https://dc.lft.to/lastmile_qr_scan"}, "is_reserved": 0}, {"lon": -77.03867833333334, "bike_id": "f377b0db58e02c1c901c3a8114d464fe", "lat": 38.915561833333335, "fusion_lon": 0.0, "fusion_lat": 0.0, "type": "electric_scooter", "name": "f377b0db58e02c1c901c3a8114d464fe", "is_disabled": 0, "rental_uris": {"ios": "https://dc.lft.to/lastmile_qr_scan", "android": "https://dc.lft.to/lastmile_qr_scan"}, "is_reserved": 0}, {"lon": -77.02641766666666, "bike_id": "6d21339d16c158067e61d0c865a32440", "lat": 38.91709266666667, "fusion_lon": 0.0, "fusion_lat": 0.0, "type": "electric_scooter", "name": "6d21339d16c158067e61d0c865a32440", "is_disabled": 0, "rental_uris": {"ios": "https://dc.lft.to/lastmile_qr_scan", "android": "https://dc.lft.to/lastmile_qr_scan"}, "is_reserved": 0}, {"lon": -77.00676933333334, "bike_id": "c241a9d435815e1f018b6d20e176013a", "lat": 38.900256, "fusion_lon": 0.0, "fusion_lat": 0.0, "type": "electric_scooter", "name": "c241a9d435815e1f018b6d20e176013a", "is_disabled": 0, "rental_uris": {"ios": "https://dc.lft.to/lastmile_qr_scan", "android": "https://dc.lft.to/lastmile_qr_scan"}, "is_reserved": 0}, {"lon": -77.05042233333333, "bike_id": "a8dfabc06b70d2aeead9577f2f2a8537", "lat": 38.9236075, "fusion_lon": 0.0, "fusion_lat": 0.0, "type": "electric_scooter", "name": "a8dfabc06b70d2aeead9577f2f2a8537", "is_disabled": 0, "rental_uris": {"ios": "https://dc.lft.to/lastmile_qr_scan", "android": "https://dc.lft.to/lastmile_qr_scan"}, "is_reserved": 0}, {"lon": -77.05474516666666, "bike_id": "6b4ae397650f97fb51080ea196ce1da6", "lat": 38.855534166666665, "fusion_lon": 0.0, "fusion_lat": 0.0, "type": "electric_bike", "name": "6b4ae397650f97fb51080ea196ce1da6", "is_disabled": 0, "rental_uris": {"ios": "https://dc.lft.to/lastmile_qr_scan", "android": "https://dc.lft.to/lastmile_qr_scan"}, "is_reserved": 0}, {"lon": -77.02735716666666, "bike_id": "d52a0ccaff67f35dcd2fe2a7f41d911f", "lat": 38.8966665, "fusion_lon": 0.0, "fusion_lat": 0.0, "type": "electric_scooter", "name": "d52a0ccaff67f35dcd2fe2a7f41d911f", "is_disabled": 0, "rental_uris": {"ios": "https://dc.lft.to/lastmile_qr_scan", "android": "https://dc.lft.to/lastmile_qr_scan"}, "is_reserved": 0}, {"lon": -77.02612, "bike_id": "1ef6c9386f9c9e390c4afd09d2397a18", "lat": 38.916955, "fusion_lon": 0.0, "fusion_lat": 0.0, "type": "electric_scooter", "name": "1ef6c9386f9c9e390c4afd09d2397a18", "is_disabled": 0, "rental_uris": {"ios": "https://dc.lft.to/lastmile_qr_scan", "android": "https://dc.lft.to/lastmile_qr_scan"}, "is_reserved": 0}, {"lon": -77.008833, "bike_id": "81d2904de33236f3a47b28aee440e5ae", "lat": 38.917159, "fusion_lon": 0.0, "fusion_lat": 0.0, "type": "electric_scooter", "name": "81d2904de33236f3a47b28aee440e5ae", "is_disabled": 0, "rental_uris": {"ios": "https://dc.lft.to/lastmile_qr_scan", "android": "https://dc.lft.to/lastmile_qr_scan"}, "is_reserved": 0}, {"lon": -77.03170083333333, "bike_id": "40f2399c582016f5059c0031583d76d0", "lat": 38.915775333333336, "fusion_lon": 0.0, "fusion_lat": 0.0, "type": "electric_scooter", "name": "40f2399c582016f5059c0031583d76d0", "is_disabled": 0, "rental_uris": {"ios": "https://dc.lft.to/lastmile_qr_scan", "android": "https://dc.lft.to/lastmile_qr_scan"}, "is_reserved": 0}, {"lon": -77.01128516666667, "bike_id": "8e595247059cb45cfa6d1ace5dcf78a3", "lat": 38.899966, "fusion_lon": 0.0, "fusion_lat": 0.0, "type": "electric_scooter", "name": "8e595247059cb45cfa6d1ace5dcf78a3", "is_disabled": 0, "rental_uris": {"ios": "https://dc.lft.to/lastmile_qr_scan", "android": "https://dc.lft.to/lastmile_qr_scan"}, "is_reserved": 0}, {"lon": -77.02230166666666, "bike_id": "bef1c5e5f2cd75f5984ee593dd0ea4c9", "lat": 38.91417116666667, "fusion_lon": 0.0, "fusion_lat": 0.0, "type": "electric_scooter", "name": "bef1c5e5f2cd75f5984ee593dd0ea4c9", "is_disabled": 0, "rental_uris": {"ios": "https://dc.lft.to/lastmile_qr_scan", "android": "https://dc.lft.to/lastmile_qr_scan"}, "is_reserved": 0}, {"lon": -77.048106, "bike_id": "59d6af4da410d3ee7808d56642ee8f37", "lat": 38.916393666666664, "fusion_lon": 0.0, "fusion_lat": 0.0, "type": "electric_scooter", "name": "59d6af4da410d3ee7808d56642ee8f37", "is_disabled": 0, "rental_uris": {"ios": "https://dc.lft.to/lastmile_qr_scan", "android": "https://dc.lft.to/lastmile_qr_scan"}, "is_reserved": 0}, {"lon": -76.99466083333333, "bike_id": "2ef1b081fe66073eae076e818006daa6", "lat": 38.862244, "fusion_lon": 0.0, "fusion_lat": 0.0, "type": "electric_scooter", "name": "2ef1b081fe66073eae076e818006daa6", "is_disabled": 0, "rental_uris": {"ios": "https://dc.lft.to/lastmile_qr_scan", "android": "https://dc.lft.to/lastmile_qr_scan"}, "is_reserved": 0}, {"lon": -77.034063, "bike_id": "7fe0c6a014b35f0bb39884d6bcdcc23a", "lat": 38.9312745, "fusion_lon": 0.0, "fusion_lat": 0.0, "type": "electric_scooter", "name": "7fe0c6a014b35f0bb39884d6bcdcc23a", "is_disabled": 0, "rental_uris": {"ios": "https://dc.lft.to/lastmile_qr_scan", "android": "https://dc.lft.to/lastmile_qr_scan"}, "is_reserved": 0}, {"lon": -77.03061566666666, "bike_id": "cc4d24cb1b12564e4e82f858db714990", "lat": 38.90812483333333, "fusion_lon": 0.0, "fusion_lat": 0.0, "type": "electric_scooter", "name": "cc4d24cb1b12564e4e82f858db714990", "is_disabled": 0, "rental_uris": {"ios": "https://dc.lft.to/lastmile_qr_scan", "android": "https://dc.lft.to/lastmile_qr_scan"}, "is_reserved": 0}, {"lon": -77.0215815, "bike_id": "b6ed06cbe86ed5540874b8ba05ecad00", "lat": 38.93307183333334, "fusion_lon": 0.0, "fusion_lat": 0.0, "type": "electric_scooter", "name": "b6ed06cbe86ed5540874b8ba05ecad00", "is_disabled": 0, "rental_uris": {"ios": "https://dc.lft.to/lastmile_qr_scan", "android": "https://dc.lft.to/lastmile_qr_scan"}, "is_reserved": 0}, {"lon": -77.02326883333333, "bike_id": "8960f58294710364d1eb88d09e99fb0e", "lat": 38.90411566666667, "fusion_lon": 0.0, "fusion_lat": 0.0, "type": "electric_scooter", "name": "8960f58294710364d1eb88d09e99fb0e", "is_disabled": 0, "rental_uris": {"ios": "https://dc.lft.to/lastmile_qr_scan", "android": "https://dc.lft.to/lastmile_qr_scan"}, "is_reserved": 0}, {"lon": -77.06487183333333, "bike_id": "3b90e87f84c451ce4f11d665a464843c", "lat": 38.929101333333335, "fusion_lon": 0.0, "fusion_lat": 0.0, "type": "electric_scooter", "name": "3b90e87f84c451ce4f11d665a464843c", "is_disabled": 0, "rental_uris": {"ios": "https://dc.lft.to/lastmile_qr_scan", "android": "https://dc.lft.to/lastmile_qr_scan"}, "is_reserved": 0}, {"lon": -77.0267355, "bike_id": "aba48520d0852d14273cc695153b449a", "lat": 38.98436016666667, "fusion_lon": 0.0, "fusion_lat": 0.0, "type": "electric_scooter", "name": "aba48520d0852d14273cc695153b449a", "is_disabled": 0, "rental_uris": {"ios": "https://dc.lft.to/lastmile_qr_scan", "android": "https://dc.lft.to/lastmile_qr_scan"}, "is_reserved": 0}, {"lon": -77.00189166666667, "bike_id": "a5bdc2cded69df8aee943635ad197b34", "lat": 38.90039083333333, "fusion_lon": 0.0, "fusion_lat": 0.0, "type": "electric_scooter", "name": "a5bdc2cded69df8aee943635ad197b34", "is_disabled": 0, "rental_uris": {"ios": "https://dc.lft.to/lastmile_qr_scan", "android": "https://dc.lft.to/lastmile_qr_scan"}, "is_reserved": 0}, {"lon": -76.98038816666667, "bike_id": "68c6e38cadd226202fce94d136284ea5", "lat": 38.889732333333335, "fusion_lon": 0.0, "fusion_lat": 0.0, "type": "electric_scooter", "name": "68c6e38cadd226202fce94d136284ea5", "is_disabled": 0, "rental_uris": {"ios": "https://dc.lft.to/lastmile_qr_scan", "android": "https://dc.lft.to/lastmile_qr_scan"}, "is_reserved": 0}, {"lon": -77.12224366666666, "bike_id": "7ea097116e4b33e26c6d46bb693421e1", "lat": 38.8530305, "fusion_lon": 0.0, "fusion_lat": 0.0, "type": "electric_bike", "name": "7ea097116e4b33e26c6d46bb693421e1", "is_disabled": 0, "rental_uris": {"ios": "https://dc.lft.to/lastmile_qr_scan", "android": "https://dc.lft.to/lastmile_qr_scan"}, "is_reserved": 0}, {"lon": -77.02978266666666, "bike_id": "ead97113c2f828f1e298fb83bc653be1", "lat": 38.93006366666667, "fusion_lon": 0.0, "fusion_lat": 0.0, "type": "electric_scooter", "name": "ead97113c2f828f1e298fb83bc653be1", "is_disabled": 0, "rental_uris": {"ios": "https://dc.lft.to/lastmile_qr_scan", "android": "https://dc.lft.to/lastmile_qr_scan"}, "is_reserved": 0}, {"lon": -77.041487, "bike_id": "51919f7efb2d44193eed91bf89465bfa", "lat": 38.9027875, "fusion_lon": 0.0, "fusion_lat": 0.0, "type": "electric_scooter", "name": "51919f7efb2d44193eed91bf89465bfa", "is_disabled": 0, "rental_uris": {"ios": "https://dc.lft.to/lastmile_qr_scan", "android": "https://dc.lft.to/lastmile_qr_scan"}, "is_reserved": 0}, {"lon": -77.04447316666666, "bike_id": "2966e308425bc3f49c2837da87e369d5", "lat": 38.90304616666667, "fusion_lon": 0.0, "fusion_lat": 0.0, "type": "electric_scooter", "name": "2966e308425bc3f49c2837da87e369d5", "is_disabled": 0, "rental_uris": {"ios": "https://dc.lft.to/lastmile_qr_scan", "android": "https://dc.lft.to/lastmile_qr_scan"}, "is_reserved": 0}, {"lon": -77.01455816666666, "bike_id": "b45ee0f812a336758fde1cbefcdca5b4", "lat": 38.90517833333333, "fusion_lon": 0.0, "fusion_lat": 0.0, "type": "electric_scooter", "name": "b45ee0f812a336758fde1cbefcdca5b4", "is_disabled": 0, "rental_uris": {"ios": "https://dc.lft.to/lastmile_qr_scan", "android": "https://dc.lft.to/lastmile_qr_scan"}, "is_reserved": 0}, {"lon": -77.02115266666667, "bike_id": "30917cbe5892c96edf47acd4c6ba587a", "lat": 38.91773466666667, "fusion_lon": 0.0, "fusion_lat": 0.0, "type": "electric_scooter", "name": "30917cbe5892c96edf47acd4c6ba587a", "is_disabled": 0, "rental_uris": {"ios": "https://dc.lft.to/lastmile_qr_scan", "android": "https://dc.lft.to/lastmile_qr_scan"}, "is_reserved": 0}, {"lon": -77.01135883333333, "bike_id": "12c77b5ee500bda2f8e61add34a0cc4b", "lat": 38.8947995, "fusion_lon": 0.0, "fusion_lat": 0.0, "type": "electric_scooter", "name": "12c77b5ee500bda2f8e61add34a0cc4b", "is_disabled": 0, "rental_uris": {"ios": "https://dc.lft.to/lastmile_qr_scan", "android": "https://dc.lft.to/lastmile_qr_scan"}, "is_reserved": 0}, {"lon": -77.01112066666667, "bike_id": "0c783574b44f26c10bb6eddcb50ecae1", "lat": 38.896007166666664, "fusion_lon": 0.0, "fusion_lat": 0.0, "type": "electric_scooter", "name": "0c783574b44f26c10bb6eddcb50ecae1", "is_disabled": 0, "rental_uris": {"ios": "https://dc.lft.to/lastmile_qr_scan", "android": "https://dc.lft.to/lastmile_qr_scan"}, "is_reserved": 0}, {"lon": -76.988487, "bike_id": "c70b95d70e712b1a23b3f4ec2d446042", "lat": 38.901331, "fusion_lon": 0.0, "fusion_lat": 0.0, "type": "electric_scooter", "name": "c70b95d70e712b1a23b3f4ec2d446042", "is_disabled": 0, "rental_uris": {"ios": "https://dc.lft.to/lastmile_qr_scan", "android": "https://dc.lft.to/lastmile_qr_scan"}, "is_reserved": 0}, {"lon": -76.97752366666667, "bike_id": "74cb4a421d14ee8d6db837898a078625", "lat": 38.86507183333333, "fusion_lon": 0.0, "fusion_lat": 0.0, "type": "electric_scooter", "name": "74cb4a421d14ee8d6db837898a078625", "is_disabled": 0, "rental_uris": {"ios": "https://dc.lft.to/lastmile_qr_scan", "android": "https://dc.lft.to/lastmile_qr_scan"}, "is_reserved": 0}, {"lon": -76.99809283333333, "bike_id": "0d4eac0e927b609a75957b50a84df7d3", "lat": 38.8292475, "fusion_lon": 0.0, "fusion_lat": 0.0, "type": "electric_bike", "name": "0d4eac0e927b609a75957b50a84df7d3", "is_disabled": 0, "rental_uris": {"ios": "https://dc.lft.to/lastmile_qr_scan", "android": "https://dc.lft.to/lastmile_qr_scan"}, "is_reserved": 0}, {"lon": -77.00101233333334, "bike_id": "478b34dedee3be745e8ac43ec610ecd0", "lat": 38.91636116666667, "fusion_lon": 0.0, "fusion_lat": 0.0, "type": "electric_scooter", "name": "478b34dedee3be745e8ac43ec610ecd0", "is_disabled": 0, "rental_uris": {"ios": "https://dc.lft.to/lastmile_qr_scan", "android": "https://dc.lft.to/lastmile_qr_scan"}, "is_reserved": 0}, {"lon": -77.0122335, "bike_id": "d81e75759b885ce52c0f2f612b6a84e6", "lat": 38.900609, "fusion_lon": 0.0, "fusion_lat": 0.0, "type": "electric_scooter", "name": "d81e75759b885ce52c0f2f612b6a84e6", "is_disabled": 0, "rental_uris": {"ios": "https://dc.lft.to/lastmile_qr_scan", "android": "https://dc.lft.to/lastmile_qr_scan"}, "is_reserved": 0}, {"lon": -77.04816816666667, "bike_id": "b9cb459ab0209d4c52e4a1ec1c403019", "lat": 38.907304833333335, "fusion_lon": 0.0, "fusion_lat": 0.0, "type": "electric_scooter", "name": "b9cb459ab0209d4c52e4a1ec1c403019", "is_disabled": 0, "rental_uris": {"ios": "https://dc.lft.to/lastmile_qr_scan", "android": "https://dc.lft.to/lastmile_qr_scan"}, "is_reserved": 0}, {"lon": -77.0432935, "bike_id": "f1a28824f77633588f207fe35f88ce8e", "lat": 38.915958833333335, "fusion_lon": 0.0, "fusion_lat": 0.0, "type": "electric_scooter", "name": "f1a28824f77633588f207fe35f88ce8e", "is_disabled": 0, "rental_uris": {"ios": "https://dc.lft.to/lastmile_qr_scan", "android": "https://dc.lft.to/lastmile_qr_scan"}, "is_reserved": 0}, {"lon": -77.03453333333333, "bike_id": "9be1073102da0b1910586f3c0591cee2", "lat": 38.92743883333333, "fusion_lon": 0.0, "fusion_lat": 0.0, "type": "electric_scooter", "name": "9be1073102da0b1910586f3c0591cee2", "is_disabled": 0, "rental_uris": {"ios": "https://dc.lft.to/lastmile_qr_scan", "android": "https://dc.lft.to/lastmile_qr_scan"}, "is_reserved": 0}, {"lon": -77.11709466666667, "bike_id": "5b4b8f17718de2329bdea6e0c63b22ba", "lat": 38.867486166666666, "fusion_lon": 0.0, "fusion_lat": 0.0, "type": "electric_bike", "name": "5b4b8f17718de2329bdea6e0c63b22ba", "is_disabled": 0, "rental_uris": {"ios": "https://dc.lft.to/lastmile_qr_scan", "android": "https://dc.lft.to/lastmile_qr_scan"}, "is_reserved": 0}, {"lon": -77.03279883333333, "bike_id": "d30a7f7bbe7d98e470785c12838d8c6a", "lat": 38.928447, "fusion_lon": 0.0, "fusion_lat": 0.0, "type": "electric_scooter", "name": "d30a7f7bbe7d98e470785c12838d8c6a", "is_disabled": 0, "rental_uris": {"ios": "https://dc.lft.to/lastmile_qr_scan", "android": "https://dc.lft.to/lastmile_qr_scan"}, "is_reserved": 0}, {"lon": -77.02087183333333, "bike_id": "c489c02be830d373d9760cedd2c9c0bd", "lat": 38.927116, "fusion_lon": 0.0, "fusion_lat": 0.0, "type": "electric_scooter", "name": "c489c02be830d373d9760cedd2c9c0bd", "is_disabled": 0, "rental_uris": {"ios": "https://dc.lft.to/lastmile_qr_scan", "android": "https://dc.lft.to/lastmile_qr_scan"}, "is_reserved": 0}, {"lon": -77.03208016666666, "bike_id": "be8b52b551903694e23f802d1cba7c72", "lat": 38.91646716666666, "fusion_lon": 0.0, "fusion_lat": 0.0, "type": "electric_scooter", "name": "be8b52b551903694e23f802d1cba7c72", "is_disabled": 0, "rental_uris": {"ios": "https://dc.lft.to/lastmile_qr_scan", "android": "https://dc.lft.to/lastmile_qr_scan"}, "is_reserved": 0}, {"lon": -77.01346533333333, "bike_id": "01a168c4d732c65c0c61c1ba6a77ce10", "lat": 38.87817416666667, "fusion_lon": 0.0, "fusion_lat": 0.0, "type": "electric_scooter", "name": "01a168c4d732c65c0c61c1ba6a77ce10", "is_disabled": 0, "rental_uris": {"ios": "https://dc.lft.to/lastmile_qr_scan", "android": "https://dc.lft.to/lastmile_qr_scan"}, "is_reserved": 0}, {"lon": -77.03848466666666, "bike_id": "da51b72b277f8f20c19b3baae64f5de3", "lat": 38.906743666666664, "fusion_lon": 0.0, "fusion_lat": 0.0, "type": "electric_scooter", "name": "da51b72b277f8f20c19b3baae64f5de3", "is_disabled": 0, "rental_uris": {"ios": "https://dc.lft.to/lastmile_qr_scan", "android": "https://dc.lft.to/lastmile_qr_scan"}, "is_reserved": 0}, {"lon": -76.98521966666667, "bike_id": "9da42d62ec3f94a28bd5476b7e873a3d", "lat": 38.904673, "fusion_lon": 0.0, "fusion_lat": 0.0, "type": "electric_scooter", "name": "9da42d62ec3f94a28bd5476b7e873a3d", "is_disabled": 0, "rental_uris": {"ios": "https://dc.lft.to/lastmile_qr_scan", "android": "https://dc.lft.to/lastmile_qr_scan"}, "is_reserved": 0}, {"lon": -77.04743516666667, "bike_id": "f777d1185189d755375881869cce1377", "lat": 38.91770433333333, "fusion_lon": 0.0, "fusion_lat": 0.0, "type": "electric_scooter", "name": "f777d1185189d755375881869cce1377", "is_disabled": 0, "rental_uris": {"ios": "https://dc.lft.to/lastmile_qr_scan", "android": "https://dc.lft.to/lastmile_qr_scan"}, "is_reserved": 0}, {"lon": -77.071519, "bike_id": "f1155b1954d9b09807824ea664422482", "lat": 38.908738666666665, "fusion_lon": 0.0, "fusion_lat": 0.0, "type": "electric_scooter", "name": "f1155b1954d9b09807824ea664422482", "is_disabled": 0, "rental_uris": {"ios": "https://dc.lft.to/lastmile_qr_scan", "android": "https://dc.lft.to/lastmile_qr_scan"}, "is_reserved": 0}, {"lon": -77.01328466666666, "bike_id": "081691fac4156f8a83f4c4de26e6a015", "lat": 38.8792515, "fusion_lon": 0.0, "fusion_lat": 0.0, "type": "electric_scooter", "name": "081691fac4156f8a83f4c4de26e6a015", "is_disabled": 0, "rental_uris": {"ios": "https://dc.lft.to/lastmile_qr_scan", "android": "https://dc.lft.to/lastmile_qr_scan"}, "is_reserved": 0}, {"lon": -76.99864433333333, "bike_id": "7fe691fcfa7269633a520418661e598d", "lat": 38.90029216666667, "fusion_lon": 0.0, "fusion_lat": 0.0, "type": "electric_scooter", "name": "7fe691fcfa7269633a520418661e598d", "is_disabled": 0, "rental_uris": {"ios": "https://dc.lft.to/lastmile_qr_scan", "android": "https://dc.lft.to/lastmile_qr_scan"}, "is_reserved": 0}, {"lon": -77.0553355, "bike_id": "8f5d6c29dcf462f1147abdd77a79a732", "lat": 38.934337666666664, "fusion_lon": 0.0, "fusion_lat": 0.0, "type": "electric_scooter", "name": "8f5d6c29dcf462f1147abdd77a79a732", "is_disabled": 0, "rental_uris": {"ios": "https://dc.lft.to/lastmile_qr_scan", "android": "https://dc.lft.to/lastmile_qr_scan"}, "is_reserved": 0}, {"lon": -77.03499383333333, "bike_id": "ccfaa87dfed0681a81b4ad07ec12059f", "lat": 38.937517166666666, "fusion_lon": 0.0, "fusion_lat": 0.0, "type": "electric_scooter", "name": "ccfaa87dfed0681a81b4ad07ec12059f", "is_disabled": 0, "rental_uris": {"ios": "https://dc.lft.to/lastmile_qr_scan", "android": "https://dc.lft.to/lastmile_qr_scan"}, "is_reserved": 0}, {"lon": -77.03448033333333, "bike_id": "73b2a9c3fef47678307f3c00bf70e527", "lat": 38.90953, "fusion_lon": 0.0, "fusion_lat": 0.0, "type": "electric_scooter", "name": "73b2a9c3fef47678307f3c00bf70e527", "is_disabled": 0, "rental_uris": {"ios": "https://dc.lft.to/lastmile_qr_scan", "android": "https://dc.lft.to/lastmile_qr_scan"}, "is_reserved": 0}, {"lon": -77.02417283333334, "bike_id": "2eeebfa2fa628fa0620073d7a2479b2a", "lat": 38.909737666666665, "fusion_lon": 0.0, "fusion_lat": 0.0, "type": "electric_scooter", "name": "2eeebfa2fa628fa0620073d7a2479b2a", "is_disabled": 0, "rental_uris": {"ios": "https://dc.lft.to/lastmile_qr_scan", "android": "https://dc.lft.to/lastmile_qr_scan"}, "is_reserved": 0}, {"lon": -77.00359316666666, "bike_id": "181067b843b388431e6a882b67035938", "lat": 38.92051466666667, "fusion_lon": 0.0, "fusion_lat": 0.0, "type": "electric_scooter", "name": "181067b843b388431e6a882b67035938", "is_disabled": 0, "rental_uris": {"ios": "https://dc.lft.to/lastmile_qr_scan", "android": "https://dc.lft.to/lastmile_qr_scan"}, "is_reserved": 0}, {"lon": -76.98838016666667, "bike_id": "82a89157dd574f2b5c1e70fbf71f8b1f", "lat": 38.9008375, "fusion_lon": 0.0, "fusion_lat": 0.0, "type": "electric_scooter", "name": "82a89157dd574f2b5c1e70fbf71f8b1f", "is_disabled": 0, "rental_uris": {"ios": "https://dc.lft.to/lastmile_qr_scan", "android": "https://dc.lft.to/lastmile_qr_scan"}, "is_reserved": 0}, {"lon": -77.01601166666667, "bike_id": "af27ba22f5adcacf3ef56c0f30a5d282", "lat": 38.89975916666667, "fusion_lon": 0.0, "fusion_lat": 0.0, "type": "electric_scooter", "name": "af27ba22f5adcacf3ef56c0f30a5d282", "is_disabled": 0, "rental_uris": {"ios": "https://dc.lft.to/lastmile_qr_scan", "android": "https://dc.lft.to/lastmile_qr_scan"}, "is_reserved": 0}, {"lon": -77.032294, "bike_id": "63b2c1dc55da34b0e9ec247fe7a9d9ff", "lat": 38.91712, "fusion_lon": 0.0, "fusion_lat": 0.0, "type": "electric_scooter", "name": "63b2c1dc55da34b0e9ec247fe7a9d9ff", "is_disabled": 0, "rental_uris": {"ios": "https://dc.lft.to/lastmile_qr_scan", "android": "https://dc.lft.to/lastmile_qr_scan"}, "is_reserved": 0}, {"lon": -77.084578, "bike_id": "e601cecca40f9c707bee0413761b4a48", "lat": 38.84824033333334, "fusion_lon": 0.0, "fusion_lat": 0.0, "type": "electric_bike", "name": "e601cecca40f9c707bee0413761b4a48", "is_disabled": 0, "rental_uris": {"ios": "https://dc.lft.to/lastmile_qr_scan", "android": "https://dc.lft.to/lastmile_qr_scan"}, "is_reserved": 0}, {"lon": -77.03214616666666, "bike_id": "799898b794768f5d3ecfe64bd602e407", "lat": 38.91816083333333, "fusion_lon": 0.0, "fusion_lat": 0.0, "type": "electric_scooter", "name": "799898b794768f5d3ecfe64bd602e407", "is_disabled": 0, "rental_uris": {"ios": "https://dc.lft.to/lastmile_qr_scan", "android": "https://dc.lft.to/lastmile_qr_scan"}, "is_reserved": 0}, {"lon": -77.0456995, "bike_id": "1e19e00eb5037fef31bcdabd86d239b5", "lat": 38.91411166666666, "fusion_lon": 0.0, "fusion_lat": 0.0, "type": "electric_scooter", "name": "1e19e00eb5037fef31bcdabd86d239b5", "is_disabled": 0, "rental_uris": {"ios": "https://dc.lft.to/lastmile_qr_scan", "android": "https://dc.lft.to/lastmile_qr_scan"}, "is_reserved": 0}, {"lon": -77.034054, "bike_id": "defcb235d65e998f1abedeb7b7bcfd69", "lat": 38.92251433333333, "fusion_lon": 0.0, "fusion_lat": 0.0, "type": "electric_scooter", "name": "defcb235d65e998f1abedeb7b7bcfd69", "is_disabled": 0, "rental_uris": {"ios": "https://dc.lft.to/lastmile_qr_scan", "android": "https://dc.lft.to/lastmile_qr_scan"}, "is_reserved": 0}, {"lon": -77.0393175, "bike_id": "98965614f70e33218964e2a1a0374044", "lat": 38.91567916666666, "fusion_lon": 0.0, "fusion_lat": 0.0, "type": "electric_scooter", "name": "98965614f70e33218964e2a1a0374044", "is_disabled": 0, "rental_uris": {"ios": "https://dc.lft.to/lastmile_qr_scan", "android": "https://dc.lft.to/lastmile_qr_scan"}, "is_reserved": 0}, {"lon": -77.03318433333334, "bike_id": "335f3aeb4ea0934cf7896597d7f006d5", "lat": 38.928935833333334, "fusion_lon": 0.0, "fusion_lat": 0.0, "type": "electric_scooter", "name": "335f3aeb4ea0934cf7896597d7f006d5", "is_disabled": 0, "rental_uris": {"ios": "https://dc.lft.to/lastmile_qr_scan", "android": "https://dc.lft.to/lastmile_qr_scan"}, "is_reserved": 0}, {"lon": -77.18738533333334, "bike_id": "cb0ff099efadcff007f15c9dd4330b4e", "lat": 38.89355233333333, "fusion_lon": 0.0, "fusion_lat": 0.0, "type": "electric_bike", "name": "cb0ff099efadcff007f15c9dd4330b4e", "is_disabled": 0, "rental_uris": {"ios": "https://dc.lft.to/lastmile_qr_scan", "android": "https://dc.lft.to/lastmile_qr_scan"}, "is_reserved": 0}, {"lon": -77.01410716666666, "bike_id": "d084414322500f5839ff7b889c86c710", "lat": 38.928299, "fusion_lon": 0.0, "fusion_lat": 0.0, "type": "electric_scooter", "name": "d084414322500f5839ff7b889c86c710", "is_disabled": 0, "rental_uris": {"ios": "https://dc.lft.to/lastmile_qr_scan", "android": "https://dc.lft.to/lastmile_qr_scan"}, "is_reserved": 0}, {"lon": -77.02415416666666, "bike_id": "b5833f0f6f2aecc065a58d0a9c78a22d", "lat": 38.9040635, "fusion_lon": 0.0, "fusion_lat": 0.0, "type": "electric_scooter", "name": "b5833f0f6f2aecc065a58d0a9c78a22d", "is_disabled": 0, "rental_uris": {"ios": "https://dc.lft.to/lastmile_qr_scan", "android": "https://dc.lft.to/lastmile_qr_scan"}, "is_reserved": 0}, {"lon": -76.9690905, "bike_id": "e98b1ef8c77b3ac880a8c19d9e738938", "lat": 38.846198666666666, "fusion_lon": 0.0, "fusion_lat": 0.0, "type": "electric_bike", "name": "e98b1ef8c77b3ac880a8c19d9e738938", "is_disabled": 0, "rental_uris": {"ios": "https://dc.lft.to/lastmile_qr_scan", "android": "https://dc.lft.to/lastmile_qr_scan"}, "is_reserved": 0}, {"lon": -77.0334725, "bike_id": "e9c13e4404de61efa185fec97f1143b2", "lat": 38.94512983333333, "fusion_lon": 0.0, "fusion_lat": 0.0, "type": "electric_bike", "name": "e9c13e4404de61efa185fec97f1143b2", "is_disabled": 0, "rental_uris": {"ios": "https://dc.lft.to/lastmile_qr_scan", "android": "https://dc.lft.to/lastmile_qr_scan"}, "is_reserved": 0}, {"lon": -77.02270966666667, "bike_id": "20d2cdd91e4b49873f169b8755794c35", "lat": 38.92695366666667, "fusion_lon": 0.0, "fusion_lat": 0.0, "type": "electric_scooter", "name": "20d2cdd91e4b49873f169b8755794c35", "is_disabled": 0, "rental_uris": {"ios": "https://dc.lft.to/lastmile_qr_scan", "android": "https://dc.lft.to/lastmile_qr_scan"}, "is_reserved": 0}, {"lon": -77.01995183333334, "bike_id": "823453c36f6d02ba0437aa238870f99e", "lat": 38.902590000000004, "fusion_lon": 0.0, "fusion_lat": 0.0, "type": "electric_scooter", "name": "823453c36f6d02ba0437aa238870f99e", "is_disabled": 0, "rental_uris": {"ios": "https://dc.lft.to/lastmile_qr_scan", "android": "https://dc.lft.to/lastmile_qr_scan"}, "is_reserved": 0}, {"lon": -77.0236915, "bike_id": "7e6649cfde05a04b5e5e276f84670ce0", "lat": 38.89985433333333, "fusion_lon": 0.0, "fusion_lat": 0.0, "type": "electric_scooter", "name": "7e6649cfde05a04b5e5e276f84670ce0", "is_disabled": 0, "rental_uris": {"ios": "https://dc.lft.to/lastmile_qr_scan", "android": "https://dc.lft.to/lastmile_qr_scan"}, "is_reserved": 0}, {"lon": -76.9969905, "bike_id": "3e81022769aed816d4a74010dbe5f123", "lat": 38.908022833333334, "fusion_lon": 0.0, "fusion_lat": 0.0, "type": "electric_scooter", "name": "3e81022769aed816d4a74010dbe5f123", "is_disabled": 0, "rental_uris": {"ios": "https://dc.lft.to/lastmile_qr_scan", "android": "https://dc.lft.to/lastmile_qr_scan"}, "is_reserved": 0}, {"lon": -77.115925, "bike_id": "0df1f961db782cd10a5e04983c1780bc", "lat": 39.0749985, "fusion_lon": 0.0, "fusion_lat": 0.0, "type": "electric_bike", "name": "0df1f961db782cd10a5e04983c1780bc", "is_disabled": 0, "rental_uris": {"ios": "https://dc.lft.to/lastmile_qr_scan", "android": "https://dc.lft.to/lastmile_qr_scan"}, "is_reserved": 0}, {"lon": -76.983448, "bike_id": "32e57583c3c5362bd628ec0d3bbd2162", "lat": 38.90016416666667, "fusion_lon": 0.0, "fusion_lat": 0.0, "type": "electric_scooter", "name": "32e57583c3c5362bd628ec0d3bbd2162", "is_disabled": 0, "rental_uris": {"ios": "https://dc.lft.to/lastmile_qr_scan", "android": "https://dc.lft.to/lastmile_qr_scan"}, "is_reserved": 0}, {"lon": -77.01738616666667, "bike_id": "92a723f61fffa0bc5b78d5cc0ed85fb7", "lat": 38.91366283333333, "fusion_lon": 0.0, "fusion_lat": 0.0, "type": "electric_scooter", "name": "92a723f61fffa0bc5b78d5cc0ed85fb7", "is_disabled": 0, "rental_uris": {"ios": "https://dc.lft.to/lastmile_qr_scan", "android": "https://dc.lft.to/lastmile_qr_scan"}, "is_reserved": 0}, {"lon": -77.02348633333334, "bike_id": "69a47e1f55b72bfd976a0560e58ae8ca", "lat": 38.922506166666665, "fusion_lon": 0.0, "fusion_lat": 0.0, "type": "electric_scooter", "name": "69a47e1f55b72bfd976a0560e58ae8ca", "is_disabled": 0, "rental_uris": {"ios": "https://dc.lft.to/lastmile_qr_scan", "android": "https://dc.lft.to/lastmile_qr_scan"}, "is_reserved": 0}, {"lon": -77.03320516666666, "bike_id": "73496c150b61d32bb85e2f9d32d973a2", "lat": 38.89011633333333, "fusion_lon": 0.0, "fusion_lat": 0.0, "type": "electric_scooter", "name": "73496c150b61d32bb85e2f9d32d973a2", "is_disabled": 0, "rental_uris": {"ios": "https://dc.lft.to/lastmile_qr_scan", "android": "https://dc.lft.to/lastmile_qr_scan"}, "is_reserved": 0}, {"lon": -76.98692133333333, "bike_id": "efb1377e6505822d63e1df1d042111ff", "lat": 38.912206833333336, "fusion_lon": 0.0, "fusion_lat": 0.0, "type": "electric_scooter", "name": "efb1377e6505822d63e1df1d042111ff", "is_disabled": 0, "rental_uris": {"ios": "https://dc.lft.to/lastmile_qr_scan", "android": "https://dc.lft.to/lastmile_qr_scan"}, "is_reserved": 0}, {"lon": -77.021639, "bike_id": "c2a185ba5c4c1a982e6b8bab5450dab4", "lat": 38.90973833333334, "fusion_lon": 0.0, "fusion_lat": 0.0, "type": "electric_scooter", "name": "c2a185ba5c4c1a982e6b8bab5450dab4", "is_disabled": 0, "rental_uris": {"ios": "https://dc.lft.to/lastmile_qr_scan", "android": "https://dc.lft.to/lastmile_qr_scan"}, "is_reserved": 0}, {"lon": -77.02393066666667, "bike_id": "7210d5272550dcea91f3fbf46adf7017", "lat": 38.909390333333334, "fusion_lon": 0.0, "fusion_lat": 0.0, "type": "electric_scooter", "name": "7210d5272550dcea91f3fbf46adf7017", "is_disabled": 0, "rental_uris": {"ios": "https://dc.lft.to/lastmile_qr_scan", "android": "https://dc.lft.to/lastmile_qr_scan"}, "is_reserved": 0}, {"lon": -77.02150516666667, "bike_id": "0c6b9d90bc58c2d5e1b47244fbc84798", "lat": 38.879299333333336, "fusion_lon": 0.0, "fusion_lat": 0.0, "type": "electric_scooter", "name": "0c6b9d90bc58c2d5e1b47244fbc84798", "is_disabled": 0, "rental_uris": {"ios": "https://dc.lft.to/lastmile_qr_scan", "android": "https://dc.lft.to/lastmile_qr_scan"}, "is_reserved": 0}, {"lon": -76.98172683333334, "bike_id": "fcdd53f899ceac1dd0914bb71b176e08", "lat": 38.904401, "fusion_lon": 0.0, "fusion_lat": 0.0, "type": "electric_scooter", "name": "fcdd53f899ceac1dd0914bb71b176e08", "is_disabled": 0, "rental_uris": {"ios": "https://dc.lft.to/lastmile_qr_scan", "android": "https://dc.lft.to/lastmile_qr_scan"}, "is_reserved": 0}, {"lon": -77.03367033333333, "bike_id": "caa2fb8a1bf5c277a3b488b35ab1f2ef", "lat": 38.8922715, "fusion_lon": 0.0, "fusion_lat": 0.0, "type": "electric_scooter", "name": "caa2fb8a1bf5c277a3b488b35ab1f2ef", "is_disabled": 0, "rental_uris": {"ios": "https://dc.lft.to/lastmile_qr_scan", "android": "https://dc.lft.to/lastmile_qr_scan"}, "is_reserved": 0}, {"lon": -76.98106716666666, "bike_id": "c10e1f4d3818b948af206d1fcdfc4650", "lat": 38.90422, "fusion_lon": 0.0, "fusion_lat": 0.0, "type": "electric_scooter", "name": "c10e1f4d3818b948af206d1fcdfc4650", "is_disabled": 0, "rental_uris": {"ios": "https://dc.lft.to/lastmile_qr_scan", "android": "https://dc.lft.to/lastmile_qr_scan"}, "is_reserved": 0}, {"lon": -77.02679616666667, "bike_id": "5969968919fe5877b8937a4778c2d123", "lat": 38.91257, "fusion_lon": 0.0, "fusion_lat": 0.0, "type": "electric_scooter", "name": "5969968919fe5877b8937a4778c2d123", "is_disabled": 0, "rental_uris": {"ios": "https://dc.lft.to/lastmile_qr_scan", "android": "https://dc.lft.to/lastmile_qr_scan"}, "is_reserved": 0}, {"lon": -77.04089816666666, "bike_id": "6a777071b682fd95dcbf3e86ef38f392", "lat": 38.92529316666667, "fusion_lon": 0.0, "fusion_lat": 0.0, "type": "electric_scooter", "name": "6a777071b682fd95dcbf3e86ef38f392", "is_disabled": 0, "rental_uris": {"ios": "https://dc.lft.to/lastmile_qr_scan", "android": "https://dc.lft.to/lastmile_qr_scan"}, "is_reserved": 0}, {"lon": -77.03268116666666, "bike_id": "2a803e24a1a1921a86c3f5f26cd98f48", "lat": 38.91990033333333, "fusion_lon": 0.0, "fusion_lat": 0.0, "type": "electric_scooter", "name": "2a803e24a1a1921a86c3f5f26cd98f48", "is_disabled": 0, "rental_uris": {"ios": "https://dc.lft.to/lastmile_qr_scan", "android": "https://dc.lft.to/lastmile_qr_scan"}, "is_reserved": 0}, {"lon": -76.979099, "bike_id": "277cdd306d8506f878ffd8f404161b31", "lat": 38.924636166666666, "fusion_lon": 0.0, "fusion_lat": 0.0, "type": "electric_bike", "name": "277cdd306d8506f878ffd8f404161b31", "is_disabled": 0, "rental_uris": {"ios": "https://dc.lft.to/lastmile_qr_scan", "android": "https://dc.lft.to/lastmile_qr_scan"}, "is_reserved": 0}, {"lon": -77.00489083333333, "bike_id": "53fe28fce9cad831f9ff69dae94f4c70", "lat": 38.87479483333333, "fusion_lon": 0.0, "fusion_lat": 0.0, "type": "electric_scooter", "name": "53fe28fce9cad831f9ff69dae94f4c70", "is_disabled": 0, "rental_uris": {"ios": "https://dc.lft.to/lastmile_qr_scan", "android": "https://dc.lft.to/lastmile_qr_scan"}, "is_reserved": 0}, {"lon": -77.05726583333333, "bike_id": "5a99d6522e1783202f75ee76a641829e", "lat": 38.933589, "fusion_lon": 0.0, "fusion_lat": 0.0, "type": "electric_scooter", "name": "5a99d6522e1783202f75ee76a641829e", "is_disabled": 0, "rental_uris": {"ios": "https://dc.lft.to/lastmile_qr_scan", "android": "https://dc.lft.to/lastmile_qr_scan"}, "is_reserved": 0}, {"lon": -77.03851416666667, "bike_id": "455637a1eedc943c733230b5f50ccf3f", "lat": 38.906727, "fusion_lon": 0.0, "fusion_lat": 0.0, "type": "electric_scooter", "name": "455637a1eedc943c733230b5f50ccf3f", "is_disabled": 0, "rental_uris": {"ios": "https://dc.lft.to/lastmile_qr_scan", "android": "https://dc.lft.to/lastmile_qr_scan"}, "is_reserved": 0}, {"lon": -77.034682, "bike_id": "7760620e8bb344d39668f40ed2fca0c0", "lat": 38.91873483333333, "fusion_lon": 0.0, "fusion_lat": 0.0, "type": "electric_scooter", "name": "7760620e8bb344d39668f40ed2fca0c0", "is_disabled": 0, "rental_uris": {"ios": "https://dc.lft.to/lastmile_qr_scan", "android": "https://dc.lft.to/lastmile_qr_scan"}, "is_reserved": 0}, {"lon": -77.02372633333333, "bike_id": "9f0c3a5fb27a51f6d5f1881cf90fac0e", "lat": 38.920589, "fusion_lon": 0.0, "fusion_lat": 0.0, "type": "electric_scooter", "name": "9f0c3a5fb27a51f6d5f1881cf90fac0e", "is_disabled": 0, "rental_uris": {"ios": "https://dc.lft.to/lastmile_qr_scan", "android": "https://dc.lft.to/lastmile_qr_scan"}, "is_reserved": 0}, {"lon": -77.02599116666667, "bike_id": "38503323161e2b5638d5bcdc0beb8b57", "lat": 38.90033716666667, "fusion_lon": 0.0, "fusion_lat": 0.0, "type": "electric_scooter", "name": "38503323161e2b5638d5bcdc0beb8b57", "is_disabled": 0, "rental_uris": {"ios": "https://dc.lft.to/lastmile_qr_scan", "android": "https://dc.lft.to/lastmile_qr_scan"}, "is_reserved": 0}, {"lon": -76.98846333333333, "bike_id": "02d79904399e780110db6bf2adc8c8e6", "lat": 38.89669333333333, "fusion_lon": 0.0, "fusion_lat": 0.0, "type": "electric_scooter", "name": "02d79904399e780110db6bf2adc8c8e6", "is_disabled": 0, "rental_uris": {"ios": "https://dc.lft.to/lastmile_qr_scan", "android": "https://dc.lft.to/lastmile_qr_scan"}, "is_reserved": 0}, {"lon": -77.06518716666666, "bike_id": "945a3c68d140231e18681953d39e5d16", "lat": 38.908861333333334, "fusion_lon": 0.0, "fusion_lat": 0.0, "type": "electric_scooter", "name": "945a3c68d140231e18681953d39e5d16", "is_disabled": 0, "rental_uris": {"ios": "https://dc.lft.to/lastmile_qr_scan", "android": "https://dc.lft.to/lastmile_qr_scan"}, "is_reserved": 0}, {"lon": -76.98498133333334, "bike_id": "797eb07dc8115bf0921d19987193c5be", "lat": 38.89358933333333, "fusion_lon": 0.0, "fusion_lat": 0.0, "type": "electric_scooter", "name": "797eb07dc8115bf0921d19987193c5be", "is_disabled": 0, "rental_uris": {"ios": "https://dc.lft.to/lastmile_qr_scan", "android": "https://dc.lft.to/lastmile_qr_scan"}, "is_reserved": 0}, {"lon": -77.0385445, "bike_id": "587bb9019f95155d4e65e773c64b8801", "lat": 38.92513616666667, "fusion_lon": 0.0, "fusion_lat": 0.0, "type": "electric_scooter", "name": "587bb9019f95155d4e65e773c64b8801", "is_disabled": 0, "rental_uris": {"ios": "https://dc.lft.to/lastmile_qr_scan", "android": "https://dc.lft.to/lastmile_qr_scan"}, "is_reserved": 0}, {"lon": -77.032232, "bike_id": "d6bcbd5e4e23e5a876efeb806709bd6f", "lat": 38.89680533333333, "fusion_lon": 0.0, "fusion_lat": 0.0, "type": "electric_scooter", "name": "d6bcbd5e4e23e5a876efeb806709bd6f", "is_disabled": 0, "rental_uris": {"ios": "https://dc.lft.to/lastmile_qr_scan", "android": "https://dc.lft.to/lastmile_qr_scan"}, "is_reserved": 0}, {"lon": -76.973348, "bike_id": "e76889b2504aa484369d84e9d19403f1", "lat": 38.90483116666667, "fusion_lon": 0.0, "fusion_lat": 0.0, "type": "electric_bike", "name": "e76889b2504aa484369d84e9d19403f1", "is_disabled": 0, "rental_uris": {"ios": "https://dc.lft.to/lastmile_qr_scan", "android": "https://dc.lft.to/lastmile_qr_scan"}, "is_reserved": 0}, {"lon": -76.997916, "bike_id": "c88d606c87a32cd3e2381b7da28bb4aa", "lat": 38.95647683333333, "fusion_lon": 0.0, "fusion_lat": 0.0, "type": "electric_bike", "name": "c88d606c87a32cd3e2381b7da28bb4aa", "is_disabled": 0, "rental_uris": {"ios": "https://dc.lft.to/lastmile_qr_scan", "android": "https://dc.lft.to/lastmile_qr_scan"}, "is_reserved": 0}, {"lon": -76.9552545, "bike_id": "b28d36a09559035091c6b31798e9837e", "lat": 38.887720333333334, "fusion_lon": 0.0, "fusion_lat": 0.0, "type": "electric_scooter", "name": "b28d36a09559035091c6b31798e9837e", "is_disabled": 0, "rental_uris": {"ios": "https://dc.lft.to/lastmile_qr_scan", "android": "https://dc.lft.to/lastmile_qr_scan"}, "is_reserved": 0}, {"lon": -77.07586983333333, "bike_id": "477b3c8967cabe50ae68da7b56a4d84b", "lat": 38.91218116666667, "fusion_lon": 0.0, "fusion_lat": 0.0, "type": "electric_scooter", "name": "477b3c8967cabe50ae68da7b56a4d84b", "is_disabled": 0, "rental_uris": {"ios": "https://dc.lft.to/lastmile_qr_scan", "android": "https://dc.lft.to/lastmile_qr_scan"}, "is_reserved": 0}, {"lon": -77.1856525, "bike_id": "2eb0d96331aee64286c7ba22a568a35b", "lat": 39.099755, "fusion_lon": 0.0, "fusion_lat": 0.0, "type": "electric_bike", "name": "2eb0d96331aee64286c7ba22a568a35b", "is_disabled": 0, "rental_uris": {"ios": "https://dc.lft.to/lastmile_qr_scan", "android": "https://dc.lft.to/lastmile_qr_scan"}, "is_reserved": 0}, {"lon": -76.97743466666667, "bike_id": "20c9f86251578d44f07f4ad3abc83077", "lat": 38.86481533333333, "fusion_lon": 0.0, "fusion_lat": 0.0, "type": "electric_bike", "name": "20c9f86251578d44f07f4ad3abc83077", "is_disabled": 0, "rental_uris": {"ios": "https://dc.lft.to/lastmile_qr_scan", "android": "https://dc.lft.to/lastmile_qr_scan"}, "is_reserved": 0}, {"lon": -77.01062416666667, "bike_id": "dcacbac3d6376a2cf7e4261aa55f0139", "lat": 38.916380833333335, "fusion_lon": 0.0, "fusion_lat": 0.0, "type": "electric_scooter", "name": "dcacbac3d6376a2cf7e4261aa55f0139", "is_disabled": 0, "rental_uris": {"ios": "https://dc.lft.to/lastmile_qr_scan", "android": "https://dc.lft.to/lastmile_qr_scan"}, "is_reserved": 0}, {"lon": -77.03167216666667, "bike_id": "af7b07028467c918c6e24d01b4fd909b", "lat": 38.936034, "fusion_lon": 0.0, "fusion_lat": 0.0, "type": "electric_scooter", "name": "af7b07028467c918c6e24d01b4fd909b", "is_disabled": 0, "rental_uris": {"ios": "https://dc.lft.to/lastmile_qr_scan", "android": "https://dc.lft.to/lastmile_qr_scan"}, "is_reserved": 0}, {"lon": -77.03168616666666, "bike_id": "2fae8bb94b0528eeba7e1efe4a3f35f0", "lat": 38.9209325, "fusion_lon": 0.0, "fusion_lat": 0.0, "type": "electric_bike", "name": "2fae8bb94b0528eeba7e1efe4a3f35f0", "is_disabled": 0, "rental_uris": {"ios": "https://dc.lft.to/lastmile_qr_scan", "android": "https://dc.lft.to/lastmile_qr_scan"}, "is_reserved": 0}, {"lon": -77.0403955, "bike_id": "b00d43b30692801c6aef8553ff618dd9", "lat": 38.91861316666667, "fusion_lon": 0.0, "fusion_lat": 0.0, "type": "electric_scooter", "name": "b00d43b30692801c6aef8553ff618dd9", "is_disabled": 0, "rental_uris": {"ios": "https://dc.lft.to/lastmile_qr_scan", "android": "https://dc.lft.to/lastmile_qr_scan"}, "is_reserved": 0}, {"lon": -77.04173416666667, "bike_id": "024845b34da8941880bd823d233024ac", "lat": 38.918712166666666, "fusion_lon": 0.0, "fusion_lat": 0.0, "type": "electric_scooter", "name": "024845b34da8941880bd823d233024ac", "is_disabled": 0, "rental_uris": {"ios": "https://dc.lft.to/lastmile_qr_scan", "android": "https://dc.lft.to/lastmile_qr_scan"}, "is_reserved": 0}, {"lon": -77.0347115, "bike_id": "0c772ebe2dea5d64391af710d1feecee", "lat": 38.90553883333333, "fusion_lon": 0.0, "fusion_lat": 0.0, "type": "electric_scooter", "name": "0c772ebe2dea5d64391af710d1feecee", "is_disabled": 0, "rental_uris": {"ios": "https://dc.lft.to/lastmile_qr_scan", "android": "https://dc.lft.to/lastmile_qr_scan"}, "is_reserved": 0}, {"lon": -77.00441933333333, "bike_id": "06aa9e91df78e18f76839a3aec813366", "lat": 38.87768783333333, "fusion_lon": 0.0, "fusion_lat": 0.0, "type": "electric_scooter", "name": "06aa9e91df78e18f76839a3aec813366", "is_disabled": 0, "rental_uris": {"ios": "https://dc.lft.to/lastmile_qr_scan", "android": "https://dc.lft.to/lastmile_qr_scan"}, "is_reserved": 0}, {"lon": -76.98775316666666, "bike_id": "ae8efb62b9839e50af644f3a343befd6", "lat": 38.866131, "fusion_lon": 0.0, "fusion_lat": 0.0, "type": "electric_bike", "name": "ae8efb62b9839e50af644f3a343befd6", "is_disabled": 0, "rental_uris": {"ios": "https://dc.lft.to/lastmile_qr_scan", "android": "https://dc.lft.to/lastmile_qr_scan"}, "is_reserved": 0}, {"lon": -76.99769266666667, "bike_id": "66bd5dc103562893ffa39d7bbd9f7350", "lat": 38.90135016666667, "fusion_lon": 0.0, "fusion_lat": 0.0, "type": "electric_scooter", "name": "66bd5dc103562893ffa39d7bbd9f7350", "is_disabled": 0, "rental_uris": {"ios": "https://dc.lft.to/lastmile_qr_scan", "android": "https://dc.lft.to/lastmile_qr_scan"}, "is_reserved": 0}, {"lon": -76.97855766666666, "bike_id": "1da1c0aed6f90f052b2064e33b8b52d7", "lat": 38.92561833333333, "fusion_lon": 0.0, "fusion_lat": 0.0, "type": "electric_bike", "name": "1da1c0aed6f90f052b2064e33b8b52d7", "is_disabled": 0, "rental_uris": {"ios": "https://dc.lft.to/lastmile_qr_scan", "android": "https://dc.lft.to/lastmile_qr_scan"}, "is_reserved": 0}, {"lon": -77.04149416666667, "bike_id": "12a7b283679d7f1b062e497a21590f42", "lat": 38.9155865, "fusion_lon": 0.0, "fusion_lat": 0.0, "type": "electric_scooter", "name": "12a7b283679d7f1b062e497a21590f42", "is_disabled": 0, "rental_uris": {"ios": "https://dc.lft.to/lastmile_qr_scan", "android": "https://dc.lft.to/lastmile_qr_scan"}, "is_reserved": 0}, {"lon": -76.948757, "bike_id": "43cd285ec086b4c83cf04b3ef99e1c32", "lat": 38.89550583333333, "fusion_lon": 0.0, "fusion_lat": 0.0, "type": "electric_scooter", "name": "43cd285ec086b4c83cf04b3ef99e1c32", "is_disabled": 0, "rental_uris": {"ios": "https://dc.lft.to/lastmile_qr_scan", "android": "https://dc.lft.to/lastmile_qr_scan"}, "is_reserved": 0}, {"lon": -77.070092, "bike_id": "993faa29511b0284d6a0fc1cf3aa398b", "lat": 38.95855316666667, "fusion_lon": 0.0, "fusion_lat": 0.0, "type": "electric_scooter", "name": "993faa29511b0284d6a0fc1cf3aa398b", "is_disabled": 0, "rental_uris": {"ios": "https://dc.lft.to/lastmile_qr_scan", "android": "https://dc.lft.to/lastmile_qr_scan"}, "is_reserved": 0}, {"lon": -77.05251133333333, "bike_id": "416c4e77ac41da093d57713ba9cc4a81", "lat": 38.92376066666667, "fusion_lon": 0.0, "fusion_lat": 0.0, "type": "electric_scooter", "name": "416c4e77ac41da093d57713ba9cc4a81", "is_disabled": 0, "rental_uris": {"ios": "https://dc.lft.to/lastmile_qr_scan", "android": "https://dc.lft.to/lastmile_qr_scan"}, "is_reserved": 0}, {"lon": -77.03950716666667, "bike_id": "d2c424603a01a50e8422a32f239c491d", "lat": 38.90064483333333, "fusion_lon": 0.0, "fusion_lat": 0.0, "type": "electric_scooter", "name": "d2c424603a01a50e8422a32f239c491d", "is_disabled": 0, "rental_uris": {"ios": "https://dc.lft.to/lastmile_qr_scan", "android": "https://dc.lft.to/lastmile_qr_scan"}, "is_reserved": 0}, {"lon": -77.04809816666666, "bike_id": "83edc110e526738e38c29ec284ae9b54", "lat": 38.90977383333333, "fusion_lon": 0.0, "fusion_lat": 0.0, "type": "electric_scooter", "name": "83edc110e526738e38c29ec284ae9b54", "is_disabled": 0, "rental_uris": {"ios": "https://dc.lft.to/lastmile_qr_scan", "android": "https://dc.lft.to/lastmile_qr_scan"}, "is_reserved": 0}, {"lon": -76.993791, "bike_id": "a9ebfe1ebf9c535f88822fd83611253a", "lat": 38.971924, "fusion_lon": 0.0, "fusion_lat": 0.0, "type": "electric_bike", "name": "a9ebfe1ebf9c535f88822fd83611253a", "is_disabled": 0, "rental_uris": {"ios": "https://dc.lft.to/lastmile_qr_scan", "android": "https://dc.lft.to/lastmile_qr_scan"}, "is_reserved": 0}, {"lon": -77.020892, "bike_id": "d7f0085bee7fa73a827916035c45d2bd", "lat": 38.94526666666667, "fusion_lon": 0.0, "fusion_lat": 0.0, "type": "electric_scooter", "name": "d7f0085bee7fa73a827916035c45d2bd", "is_disabled": 0, "rental_uris": {"ios": "https://dc.lft.to/lastmile_qr_scan", "android": "https://dc.lft.to/lastmile_qr_scan"}, "is_reserved": 0}, {"lon": -77.0243855, "bike_id": "3becb6c1daa2e4e551f9aa639fdab932", "lat": 38.91700066666667, "fusion_lon": 0.0, "fusion_lat": 0.0, "type": "electric_scooter", "name": "3becb6c1daa2e4e551f9aa639fdab932", "is_disabled": 0, "rental_uris": {"ios": "https://dc.lft.to/lastmile_qr_scan", "android": "https://dc.lft.to/lastmile_qr_scan"}, "is_reserved": 0},