{"data": {"bikes": [{"rental_uris": {"android": "https://dc.lft.to/lastmile_qr_scan", "ios": "https://dc.lft.to/lastmile_qr_scan"}, "type": "electric_scooter", "lon": -76.937537, "name": "e0e472bcbe809803a4e6900fc2a776da", "bike_id": "e0e472bcbe809803a4e6900fc2a776da", "fusion_lat": 0.0, "is_reserved": 0, "lat": 38.890482666666664, "fusion_lon": 0.0, "is_disabled": 0}, {"rental_uris": {"android": "https://dc.lft.to/lastmile_qr_scan", "ios": "https://dc.lft.to/lastmile_qr_scan"}, "type": "electric_scooter", "lon": -77.04345733333334, "name": "afebf89a3850fad6172cfe4b81b2c3a7", "bike_id": "afebf89a3850fad6172cfe4b81b2c3a7", "fusion_lat": 0.0, "is_reserved": 0, "lat": 38.90354816666667, "fusion_lon": 0.0, "is_disabled": 0}, {"rental_uris": {"android": "https://dc.lft.to/lastmile_qr_scan", "ios": "https://dc.lft.to/lastmile_qr_scan"}, "type": "electric_scooter", "lon": -77.02135883333334, "name": "541aa790fc41b836be9e7122189fba52", "bike_id": "541aa790fc41b836be9e7122189fba52", "fusion_lat": 0.0, "is_reserved": 0, "lat": 38.911068, "fusion_lon": 0.0, "is_disabled": 0}, {"rental_uris": {"android": "https://dc.lft.to/lastmile_qr_scan", "ios": "https://dc.lft.to/lastmile_qr_scan"}, "type": "electric_scooter", "lon": -77.02478966666666, "name": "3b04c3cca10db2d02be7e8de1d6b5b29", "bike_id": "3b04c3cca10db2d02be7e8de1d6b5b29", "fusion_lat": 0.0, "is_reserved": 0, "lat": 38.93921783333333, "fusion_lon": 0.0, "is_disabled": 0}, {"rental_uris": {"android": "https://dc.lft.to/lastmile_qr_scan", "ios": "https://dc.lft.to/lastmile_qr_scan"}, "type": "electric_scooter", "lon": -77.0270505, "name": "1e91a8c7be23035ed7fbb04d88535f07", "bike_id": "1e91a8c7be23035ed7fbb04d88535f07", "fusion_lat": 0.0, "is_reserved": 0, "lat": 38.9066395, "fusion_lon": 0.0, "is_disabled": 0}, {"rental_uris": {"android": "https://dc.lft.to/lastmile_qr_scan", "ios": "https://dc.lft.to/lastmile_qr_scan"}, "type": "electric_scooter", "lon": -77.02688483333333, "name": "8c4a16917a016a414200f8011bab3901", "bike_id": "8c4a16917a016a414200f8011bab3901", "fusion_lat": 0.0, "is_reserved": 0, "lat": 38.89741816666667, "fusion_lon": 0.0, "is_disabled": 0}, {"rental_uris": {"android": "https://dc.lft.to/lastmile_qr_scan", "ios": "https://dc.lft.to/lastmile_qr_scan"}, "type": "electric_scooter", "lon": -77.06736783333334, "name": "3270ac1a0e1729b38e5112f6ed6abb72", "bike_id": "3270ac1a0e1729b38e5112f6ed6abb72", "fusion_lat": 0.0, "is_reserved": 0, "lat": 38.950188, "fusion_lon": 0.0, "is_disabled": 0}, {"rental_uris": {"android": "https://dc.lft.to/lastmile_qr_scan", "ios": "https://dc.lft.to/lastmile_qr_scan"}, "type": "electric_scooter", "lon": -77.00281716666667, "name": "a23e1e9865df295fb761b6f992e200d0", "bike_id": "a23e1e9865df295fb761b6f992e200d0", "fusion_lat": 0.0, "is_reserved": 0, "lat": 38.914789166666665, "fusion_lon": 0.0, "is_disabled": 0}, {"rental_uris": {"android": "https://dc.lft.to/lastmile_qr_scan", "ios": "https://dc.lft.to/lastmile_qr_scan"}, "type": "electric_scooter", "lon": -77.031731, "name": "7ef74840d7903455d987928d0f8084ed", "bike_id": "7ef74840d7903455d987928d0f8084ed", "fusion_lat": 0.0, "is_reserved": 0, "lat": 38.901308, "fusion_lon": 0.0, "is_disabled": 0}, {"rental_uris": {"android": "https://dc.lft.to/lastmile_qr_scan", "ios": "https://dc.lft.to/lastmile_qr_scan"}, "type": "electric_scooter", "lon": -76.98497533333334, "name": "4fa8d4a0b894e1e5bba01704070fa04e", "bike_id": "4fa8d4a0b894e1e5bba01704070fa04e", "fusion_lat": 0.0, "is_reserved": 0, "lat": 38.860466, "fusion_lon": 0.0, "is_disabled": 0}, {"rental_uris": {"android": "https://dc.lft.to/lastmile_qr_scan", "ios": "https://dc.lft.to/lastmile_qr_scan"}, "type": "electric_scooter", "lon": -76.99021316666666, "name": "fde5a47f6103451303804313568cdfc2", "bike_id": "fde5a47f6103451303804313568cdfc2", "fusion_lat": 0.0, "is_reserved": 0, "lat": 38.85868933333333, "fusion_lon": 0.0, "is_disabled": 0}, {"rental_uris": {"android": "https://dc.lft.to/lastmile_qr_scan", "ios": "https://dc.lft.to/lastmile_qr_scan"}, "type": "electric_scooter", "lon": -77.02550766666667, "name": "b3a6a59468e63f9ecb38b4fe4d8fa7a1", "bike_id": "b3a6a59468e63f9ecb38b4fe4d8fa7a1", "fusion_lat": 0.0, "is_reserved": 0, "lat": 38.89225533333333, "fusion_lon": 0.0, "is_disabled": 0}, {"rental_uris": {"android": "https://dc.lft.to/lastmile_qr_scan", "ios": "https://dc.lft.to/lastmile_qr_scan"}, "type": "electric_bike", "lon": -77.18293633333333, "name": "0826fbed88f4ba136e2eef654a2819e0", "bike_id": "0826fbed88f4ba136e2eef654a2819e0", "fusion_lat": 0.0, "is_reserved": 0, "lat": 38.8834415, "fusion_lon": 0.0, "is_disabled": 0}, {"rental_uris": {"android": "https://dc.lft.to/lastmile_qr_scan", "ios": "https://dc.lft.to/lastmile_qr_scan"}, "type": "electric_scooter", "lon": -77.04692033333333, "name": "b1d5d8294327eb0d92640e16882bc297", "bike_id": "b1d5d8294327eb0d92640e16882bc297", "fusion_lat": 0.0, "is_reserved": 0, "lat": 38.902052166666664, "fusion_lon": 0.0, "is_disabled": 0}, {"rental_uris": {"android": "https://dc.lft.to/lastmile_qr_scan", "ios": "https://dc.lft.to/lastmile_qr_scan"}, "type": "electric_scooter", "lon": -77.03058483333334, "name": "a79356a650ca08093921ed0f3843d8a1", "bike_id": "a79356a650ca08093921ed0f3843d8a1", "fusion_lat": 0.0, "is_reserved": 0, "lat": 38.91922233333333, "fusion_lon": 0.0, "is_disabled": 0}, {"rental_uris": {"android": "https://dc.lft.to/lastmile_qr_scan", "ios": "https://dc.lft.to/lastmile_qr_scan"}, "type": "electric_scooter", "lon": -76.93826766666666, "name": "6e57e841bb1b7ea285202a700b18ce80", "bike_id": "6e57e841bb1b7ea285202a700b18ce80", "fusion_lat": 0.0, "is_reserved": 0, "lat": 38.897645833333335, "fusion_lon": 0.0, "is_disabled": 0}, {"rental_uris": {"android": "https://dc.lft.to/lastmile_qr_scan", "ios": "https://dc.lft.to/lastmile_qr_scan"}, "type": "electric_scooter", "lon": -77.02810233333334, "name": "bb27339802c41851e4b59111a1d494a4", "bike_id": "bb27339802c41851e4b59111a1d494a4", "fusion_lat": 0.0, "is_reserved": 0, "lat": 38.944634, "fusion_lon": 0.0, "is_disabled": 0}, {"rental_uris": {"android": "https://dc.lft.to/lastmile_qr_scan", "ios": "https://dc.lft.to/lastmile_qr_scan"}, "type": "electric_scooter", "lon": -76.9921745, "name": "22e9dc52ac255d643b4ca91993840621", "bike_id": "22e9dc52ac255d643b4ca91993840621", "fusion_lat": 0.0, "is_reserved": 0, "lat": 38.90473816666667, "fusion_lon": 0.0, "is_disabled": 0}, {"rental_uris": {"android": "https://dc.lft.to/lastmile_qr_scan", "ios": "https://dc.lft.to/lastmile_qr_scan"}, "type": "electric_scooter", "lon": -76.948424, "name": "2dcddee65456c289b1dbcd5e9d717b9b", "bike_id": "2dcddee65456c289b1dbcd5e9d717b9b", "fusion_lat": 0.0, "is_reserved": 0, "lat": 38.8948605, "fusion_lon": 0.0, "is_disabled": 0}, {"rental_uris": {"android": "https://dc.lft.to/lastmile_qr_scan", "ios": "https://dc.lft.to/lastmile_qr_scan"}, "type": "electric_scooter", "lon": -77.082172, "name": "ba05bb5bef3f05f3ccb445ba142269a4", "bike_id": "ba05bb5bef3f05f3ccb445ba142269a4", "fusion_lat": 0.0, "is_reserved": 0, "lat": 38.935541, "fusion_lon": 0.0, "is_disabled": 0}, {"rental_uris": {"android": "https://dc.lft.to/lastmile_qr_scan", "ios": "https://dc.lft.to/lastmile_qr_scan"}, "type": "electric_scooter", "lon": -76.9841715, "name": "49f8e0fbac6117baf853c3d1466c017f", "bike_id": "49f8e0fbac6117baf853c3d1466c017f", "fusion_lat": 0.0, "is_reserved": 0, "lat": 38.9139615, "fusion_lon": 0.0, "is_disabled": 0}, {"rental_uris": {"android": "https://dc.lft.to/lastmile_qr_scan", "ios": "https://dc.lft.to/lastmile_qr_scan"}, "type": "electric_scooter", "lon": -77.00290283333334, "name": "00b2cb93f7eab7c46026f4092d260d7d", "bike_id": "00b2cb93f7eab7c46026f4092d260d7d", "fusion_lat": 0.0, "is_reserved": 0, "lat": 38.889821166666664, "fusion_lon": 0.0, "is_disabled": 0}, {"rental_uris": {"android": "https://dc.lft.to/lastmile_qr_scan", "ios": "https://dc.lft.to/lastmile_qr_scan"}, "type": "electric_scooter", "lon": -77.003458, "name": "72284b4ab7d4b370f895d5391f02da2c", "bike_id": "72284b4ab7d4b370f895d5391f02da2c", "fusion_lat": 0.0, "is_reserved": 0, "lat": 38.91346933333333, "fusion_lon": 0.0, "is_disabled": 0}, {"rental_uris": {"android": "https://dc.lft.to/lastmile_qr_scan", "ios": "https://dc.lft.to/lastmile_qr_scan"}, "type": "electric_scooter", "lon": -77.00918566666667, "name": "b681befaab43e82be49b7802fc22af67", "bike_id": "b681befaab43e82be49b7802fc22af67", "fusion_lat": 0.0, "is_reserved": 0, "lat": 38.91050583333333, "fusion_lon": 0.0, "is_disabled": 0}, {"rental_uris": {"android": "https://dc.lft.to/lastmile_qr_scan", "ios": "https://dc.lft.to/lastmile_qr_scan"}, "type": "electric_scooter", "lon": -77.04335816666666, "name": "c95de440248b1397b454c0ed2b453ccc", "bike_id": "c95de440248b1397b454c0ed2b453ccc", "fusion_lat": 0.0, "is_reserved": 0, "lat": 38.9002225, "fusion_lon": 0.0, "is_disabled": 0}, {"rental_uris": {"android": "https://dc.lft.to/lastmile_qr_scan", "ios": "https://dc.lft.to/lastmile_qr_scan"}, "type": "electric_bike", "lon": -77.14324383333333, "name": "a9dca0dc91cdadb634c9ac5e24b02be8", "bike_id": "a9dca0dc91cdadb634c9ac5e24b02be8", "fusion_lat": 0.0, "is_reserved": 0, "lat": 39.054559833333336, "fusion_lon": 0.0, "is_disabled": 0}, {"rental_uris": {"android": "https://dc.lft.to/lastmile_qr_scan", "ios": "https://dc.lft.to/lastmile_qr_scan"}, "type": "electric_bike", "lon": -76.97950033333333, "name": "ee712090fc32323a230bb4444bd31523", "bike_id": "ee712090fc32323a230bb4444bd31523", "fusion_lat": 0.0, "is_reserved": 0, "lat": 38.8980675, "fusion_lon": 0.0, "is_disabled": 0}, {"rental_uris": {"android": "https://dc.lft.to/lastmile_qr_scan", "ios": "https://dc.lft.to/lastmile_qr_scan"}, "type": "electric_scooter", "lon": -76.9903085, "name": "09990373623d9efda0f731207922efdd", "bike_id": "09990373623d9efda0f731207922efdd", "fusion_lat": 0.0, "is_reserved": 0, "lat": 38.86068866666667, "fusion_lon": 0.0, "is_disabled": 0}, {"rental_uris": {"android": "https://dc.lft.to/lastmile_qr_scan", "ios": "https://dc.lft.to/lastmile_qr_scan"}, "type": "electric_scooter", "lon": -77.01439433333333, "name": "c243463b5082f85728cc81228d63d3cf", "bike_id": "c243463b5082f85728cc81228d63d3cf", "fusion_lat": 0.0, "is_reserved": 0, "lat": 38.877758666666665, "fusion_lon": 0.0, "is_disabled": 0}, {"rental_uris": {"android": "https://dc.lft.to/lastmile_qr_scan", "ios": "https://dc.lft.to/lastmile_qr_scan"}, "type": "electric_scooter", "lon": -77.03478483333333, "name": "04e39628930eb7926b7078b9d5966949", "bike_id": "04e39628930eb7926b7078b9d5966949", "fusion_lat": 0.0, "is_reserved": 0, "lat": 38.928665333333335, "fusion_lon": 0.0, "is_disabled": 0}, {"rental_uris": {"android": "https://dc.lft.to/lastmile_qr_scan", "ios": "https://dc.lft.to/lastmile_qr_scan"}, "type": "electric_scooter", "lon": -77.02949633333333, "name": "d4c285b44069879bc2f47ec8177eddf5", "bike_id": "d4c285b44069879bc2f47ec8177eddf5", "fusion_lat": 0.0, "is_reserved": 0, "lat": 38.917199333333336, "fusion_lon": 0.0, "is_disabled": 0}, {"rental_uris": {"android": "https://dc.lft.to/lastmile_qr_scan", "ios": "https://dc.lft.to/lastmile_qr_scan"}, "type": "electric_scooter", "lon": -77.0315625, "name": "431ed2b97e7c66867ffc5dc32fcff229", "bike_id": "431ed2b97e7c66867ffc5dc32fcff229", "fusion_lat": 0.0, "is_reserved": 0, "lat": 38.92791283333333, "fusion_lon": 0.0, "is_disabled": 0}, {"rental_uris": {"android": "https://dc.lft.to/lastmile_qr_scan", "ios": "https://dc.lft.to/lastmile_qr_scan"}, "type": "electric_scooter", "lon": -76.94855433333333, "name": "45f9f57a76b6d75679292f41fe3db6e9", "bike_id": "45f9f57a76b6d75679292f41fe3db6e9", "fusion_lat": 0.0, "is_reserved": 0, "lat": 38.883040666666666, "fusion_lon": 0.0, "is_disabled": 0}, {"rental_uris": {"android": "https://dc.lft.to/lastmile_qr_scan", "ios": "https://dc.lft.to/lastmile_qr_scan"}, "type": "electric_scooter", "lon": -77.03443383333334, "name": "6c0966486c217a69824b25a85b5c0152", "bike_id": "6c0966486c217a69824b25a85b5c0152", "fusion_lat": 0.0, "is_reserved": 0, "lat": 38.90537333333333, "fusion_lon": 0.0, "is_disabled": 0}, {"rental_uris": {"android": "https://dc.lft.to/lastmile_qr_scan", "ios": "https://dc.lft.to/lastmile_qr_scan"}, "type": "electric_scooter", "lon": -77.06189816666667, "name": "97df9680e3f29c8f607959a67dffb777", "bike_id": "97df9680e3f29c8f607959a67dffb777", "fusion_lat": 0.0, "is_reserved": 0, "lat": 38.9301055, "fusion_lon": 0.0, "is_disabled": 0}, {"rental_uris": {"android": "https://dc.lft.to/lastmile_qr_scan", "ios": "https://dc.lft.to/lastmile_qr_scan"}, "type": "electric_scooter", "lon": -77.03445883333333, "name": "a46e68a3252051a3d11eb38fb0093133", "bike_id": "a46e68a3252051a3d11eb38fb0093133", "fusion_lat": 0.0, "is_reserved": 0, "lat": 38.903926, "fusion_lon": 0.0, "is_disabled": 0}, {"rental_uris": {"android": "https://dc.lft.to/lastmile_qr_scan", "ios": "https://dc.lft.to/lastmile_qr_scan"}, "type": "electric_scooter", "lon": -77.01170833333333, "name": "2920fc522869f5e7b2f50207ea969bb8", "bike_id": "2920fc522869f5e7b2f50207ea969bb8", "fusion_lat": 0.0, "is_reserved": 0, "lat": 38.90305083333333, "fusion_lon": 0.0, "is_disabled": 0}, {"rental_uris": {"android": "https://dc.lft.to/lastmile_qr_scan", "ios": "https://dc.lft.to/lastmile_qr_scan"}, "type": "electric_scooter", "lon": -76.98762433333333, "name": "a59a887108d2ed130d3405c5d56e2447", "bike_id": "a59a887108d2ed130d3405c5d56e2447", "fusion_lat": 0.0, "is_reserved": 0, "lat": 38.84499233333333, "fusion_lon": 0.0, "is_disabled": 0}, {"rental_uris": {"android": "https://dc.lft.to/lastmile_qr_scan", "ios": "https://dc.lft.to/lastmile_qr_scan"}, "type": "electric_scooter", "lon": -77.0481175, "name": "3d8a70729ae5c764c91c8e66c33bad69", "bike_id": "3d8a70729ae5c764c91c8e66c33bad69", "fusion_lat": 0.0, "is_reserved": 0, "lat": 38.9110645, "fusion_lon": 0.0, "is_disabled": 0}, {"rental_uris": {"android": "https://dc.lft.to/lastmile_qr_scan", "ios": "https://dc.lft.to/lastmile_qr_scan"}, "type": "electric_bike", "lon": -77.23284383333333, "name": "b72f687f5114cfc626010ea770879daf", "bike_id": "b72f687f5114cfc626010ea770879daf", "fusion_lat": 0.0, "is_reserved": 0, "lat": 38.925291333333334, "fusion_lon": 0.0, "is_disabled": 0}, {"rental_uris": {"android": "https://dc.lft.to/lastmile_qr_scan", "ios": "https://dc.lft.to/lastmile_qr_scan"}, "type": "electric_scooter", "lon": -77.04221483333333, "name": "3285d0c743072dc08292da147183f82a", "bike_id": "3285d0c743072dc08292da147183f82a", "fusion_lat": 0.0, "is_reserved": 0, "lat": 38.90375483333333, "fusion_lon": 0.0, "is_disabled": 0}, {"rental_uris": {"android": "https://dc.lft.to/lastmile_qr_scan", "ios": "https://dc.lft.to/lastmile_qr_scan"}, "type": "electric_scooter", "lon": -76.95410633333333, "name": "0f963cf3f2d837a362300e1e3de05600", "bike_id": "0f963cf3f2d837a362300e1e3de05600", "fusion_lat": 0.0, "is_reserved": 0, "lat": 38.89158233333333, "fusion_lon": 0.0, "is_disabled": 0}, {"rental_uris": {"android": "https://dc.lft.to/lastmile_qr_scan", "ios": "https://dc.lft.to/lastmile_qr_scan"}, "type": "electric_bike", "lon": -77.122701, "name": "2654f5462573ce3f461e1bf81a8357ea", "bike_id": "2654f5462573ce3f461e1bf81a8357ea", "fusion_lat": 0.0, "is_reserved": 0, "lat": 38.89733183333333, "fusion_lon": 0.0, "is_disabled": 0}, {"rental_uris": {"android": "https://dc.lft.to/lastmile_qr_scan", "ios": "https://dc.lft.to/lastmile_qr_scan"}, "type": "electric_scooter", "lon": -77.02579183333333, "name": "2931b2ece56292791c5c5943317ffcee", "bike_id": "2931b2ece56292791c5c5943317ffcee", "fusion_lat": 0.0, "is_reserved": 0, "lat": 38.92506, "fusion_lon": 0.0, "is_disabled": 0}, {"rental_uris": {"android": "https://dc.lft.to/lastmile_qr_scan", "ios": "https://dc.lft.to/lastmile_qr_scan"}, "type": "electric_scooter", "lon": -77.04012233333333, "name": "7043da22b5234451c4804e46ce9691c4", "bike_id": "7043da22b5234451c4804e46ce9691c4", "fusion_lat": 0.0, "is_reserved": 0, "lat": 38.91303516666667, "fusion_lon": 0.0, "is_disabled": 0}, {"rental_uris": {"android": "https://dc.lft.to/lastmile_qr_scan", "ios": "https://dc.lft.to/lastmile_qr_scan"}, "type": "electric_scooter", "lon": -77.0438375, "name": "4b730f956db97f4eed3364ed1797b52a", "bike_id": "4b730f956db97f4eed3364ed1797b52a", "fusion_lat": 0.0, "is_reserved": 0, "lat": 38.9063995, "fusion_lon": 0.0, "is_disabled": 0}, {"rental_uris": {"android": "https://dc.lft.to/lastmile_qr_scan", "ios": "https://dc.lft.to/lastmile_qr_scan"}, "type": "electric_bike", "lon": -76.916565, "name": "89390f103f89edee8b021e9e48e1837e", "bike_id": "89390f103f89edee8b021e9e48e1837e", "fusion_lat": 0.0, "is_reserved": 0, "lat": 38.868557833333334, "fusion_lon": 0.0, "is_disabled": 0}, {"rental_uris": {"android": "https://dc.lft.to/lastmile_qr_scan", "ios": "https://dc.lft.to/lastmile_qr_scan"}, "type": "electric_scooter", "lon": -77.07349566666667, "name": "e6a174eb54841bfbf7eb4f1094f218df", "bike_id": "e6a174eb54841bfbf7eb4f1094f218df", "fusion_lat": 0.0, "is_reserved": 0, "lat": 38.91105266666667, "fusion_lon": 0.0, "is_disabled": 0}, {"rental_uris": {"android": "https://dc.lft.to/lastmile_qr_scan", "ios": "https://dc.lft.to/lastmile_qr_scan"}, "type": "electric_scooter", "lon": -76.99503066666666, "name": "dccfc813469a85ff35c767c3694dd507", "bike_id": "dccfc813469a85ff35c767c3694dd507", "fusion_lat": 0.0, "is_reserved": 0, "lat": 38.862478, "fusion_lon": 0.0, "is_disabled": 0}, {"rental_uris": {"android": "https://dc.lft.to/lastmile_qr_scan", "ios": "https://dc.lft.to/lastmile_qr_scan"}, "type": "electric_bike", "lon": -76.99837916666667, "name": "139f00ed45e23bc325edbd6a66cf4393", "bike_id": "139f00ed45e23bc325edbd6a66cf4393", "fusion_lat": 0.0, "is_reserved": 0, "lat": 38.83916583333333, "fusion_lon": 0.0, "is_disabled": 0}, {"rental_uris": {"android": "https://dc.lft.to/lastmile_qr_scan", "ios": "https://dc.lft.to/lastmile_qr_scan"}, "type": "electric_scooter", "lon": -76.99528833333333, "name": "0a3469655f8b9790935f81cf5f77b862", "bike_id": "0a3469655f8b9790935f81cf5f77b862", "fusion_lat": 0.0, "is_reserved": 0, "lat": 38.88405233333334, "fusion_lon": 0.0, "is_disabled": 0}, {"rental_uris": {"android": "https://dc.lft.to/lastmile_qr_scan", "ios": "https://dc.lft.to/lastmile_qr_scan"}, "type": "electric_bike", "lon": -77.0107495, "name": "c416b03ab4a3967e98e431e8e68c5a79", "bike_id": "c416b03ab4a3967e98e431e8e68c5a79", "fusion_lat": 0.0, "is_reserved": 0, "lat": 38.96258666666667, "fusion_lon": 0.0, "is_disabled": 0}, {"rental_uris": {"android": "https://dc.lft.to/lastmile_qr_scan", "ios": "https://dc.lft.to/lastmile_qr_scan"}, "type": "electric_scooter", "lon": -77.01889133333333, "name": "9b9ae2044fa972654d7a29617923b169", "bike_id": "9b9ae2044fa972654d7a29617923b169", "fusion_lat": 0.0, "is_reserved": 0, "lat": 38.929424166666664, "fusion_lon": 0.0, "is_disabled": 0}, {"rental_uris": {"android": "https://dc.lft.to/lastmile_qr_scan", "ios": "https://dc.lft.to/lastmile_qr_scan"}, "type": "electric_scooter", "lon": -77.00197416666667, "name": "5387549dd224c674782af33ec51dbc9c", "bike_id": "5387549dd224c674782af33ec51dbc9c", "fusion_lat": 0.0, "is_reserved": 0, "lat": 38.902403166666666, "fusion_lon": 0.0, "is_disabled": 0}, {"rental_uris": {"android": "https://dc.lft.to/lastmile_qr_scan", "ios": "https://dc.lft.to/lastmile_qr_scan"}, "type": "electric_scooter", "lon": -77.02318383333333, "name": "7e6112e9ccdd2d9c69ca2e788057f81e", "bike_id": "7e6112e9ccdd2d9c69ca2e788057f81e", "fusion_lat": 0.0, "is_reserved": 0, "lat": 38.9176625, "fusion_lon": 0.0, "is_disabled": 0}, {"rental_uris": {"android": "https://dc.lft.to/lastmile_qr_scan", "ios": "https://dc.lft.to/lastmile_qr_scan"}, "type": "electric_scooter", "lon": -77.03479116666666, "name": "96c692282a7b1cc9d4863e442dac9533", "bike_id": "96c692282a7b1cc9d4863e442dac9533", "fusion_lat": 0.0, "is_reserved": 0, "lat": 38.90246533333333, "fusion_lon": 0.0, "is_disabled": 0}, {"rental_uris": {"android": "https://dc.lft.to/lastmile_qr_scan", "ios": "https://dc.lft.to/lastmile_qr_scan"}, "type": "electric_scooter", "lon": -77.012593, "name": "49a64b986a3b55ee279f08b30d7e1561", "bike_id": "49a64b986a3b55ee279f08b30d7e1561", "fusion_lat": 0.0, "is_reserved": 0, "lat": 38.90849333333333, "fusion_lon": 0.0, "is_disabled": 0}, {"rental_uris": {"android": "https://dc.lft.to/lastmile_qr_scan", "ios": "https://dc.lft.to/lastmile_qr_scan"}, "type": "electric_bike", "lon": -77.07635266666666, "name": "c1a9f9b111091e7bf19ff3103d24ef81", "bike_id": "c1a9f9b111091e7bf19ff3103d24ef81", "fusion_lat": 0.0, "is_reserved": 0, "lat": 38.906129166666666, "fusion_lon": 0.0, "is_disabled": 0}, {"rental_uris": {"android": "https://dc.lft.to/lastmile_qr_scan", "ios": "https://dc.lft.to/lastmile_qr_scan"}, "type": "electric_scooter", "lon": -77.00553016666667, "name": "78724be314361b67e8131e8c962a6129", "bike_id": "78724be314361b67e8131e8c962a6129", "fusion_lat": 0.0, "is_reserved": 0, "lat": 38.905769666666664, "fusion_lon": 0.0, "is_disabled": 0}, {"rental_uris": {"android": "https://dc.lft.to/lastmile_qr_scan", "ios": "https://dc.lft.to/lastmile_qr_scan"}, "type": "electric_scooter", "lon": -77.0091735, "name": "1e8fcbcaea90b067b48709858f865cef", "bike_id": "1e8fcbcaea90b067b48709858f865cef", "fusion_lat": 0.0, "is_reserved": 0, "lat": 38.900386, "fusion_lon": 0.0, "is_disabled": 0}, {"rental_uris": {"android": "https://dc.lft.to/lastmile_qr_scan", "ios": "https://dc.lft.to/lastmile_qr_scan"}, "type": "electric_scooter", "lon": -77.01959, "name": "2dd6b787cc1683dbb58d93508e8abe53", "bike_id": "2dd6b787cc1683dbb58d93508e8abe53", "fusion_lat": 0.0, "is_reserved": 0, "lat": 38.935793833333335, "fusion_lon": 0.0, "is_disabled": 0}, {"rental_uris": {"android": "https://dc.lft.to/lastmile_qr_scan", "ios": "https://dc.lft.to/lastmile_qr_scan"}, "type": "electric_scooter", "lon": -77.04714416666667, "name": "470c434a26142a3103a252bf9e82b207", "bike_id": "470c434a26142a3103a252bf9e82b207", "fusion_lat": 0.0, "is_reserved": 0, "lat": 38.896141, "fusion_lon": 0.0, "is_disabled": 0}, {"rental_uris": {"android": "https://dc.lft.to/lastmile_qr_scan", "ios": "https://dc.lft.to/lastmile_qr_scan"}, "type": "electric_bike", "lon": -76.9733175, "name": "ef6424d411c20f2ebca9be19e7fba6d5", "bike_id": "ef6424d411c20f2ebca9be19e7fba6d5", "fusion_lat": 0.0, "is_reserved": 0, "lat": 38.85066966666667, "fusion_lon": 0.0, "is_disabled": 0}, {"rental_uris": {"android": "https://dc.lft.to/lastmile_qr_scan", "ios": "https://dc.lft.to/lastmile_qr_scan"}, "type": "electric_scooter", "lon": -77.046487, "name": "fa24e31080f8ecc7349c158d10787e21", "bike_id": "fa24e31080f8ecc7349c158d10787e21", "fusion_lat": 0.0, "is_reserved": 0, "lat": 38.905437, "fusion_lon": 0.0, "is_disabled": 0}, {"rental_uris": {"android": "https://dc.lft.to/lastmile_qr_scan", "ios": "https://dc.lft.to/lastmile_qr_scan"}, "type": "electric_scooter", "lon": -77.04344383333333, "name": "b9d56f067f709e8f3aa294410ec7a416", "bike_id": "b9d56f067f709e8f3aa294410ec7a416", "fusion_lat": 0.0, "is_reserved": 0, "lat": 38.9031115, "fusion_lon": 0.0, "is_disabled": 0}, {"rental_uris": {"android": "https://dc.lft.to/lastmile_qr_scan", "ios": "https://dc.lft.to/lastmile_qr_scan"}, "type": "electric_scooter", "lon": -77.03179783333333, "name": "4d906a1575c617621a0e2281033f82ea", "bike_id": "4d906a1575c617621a0e2281033f82ea", "fusion_lat": 0.0, "is_reserved": 0, "lat": 38.92111366666666, "fusion_lon": 0.0, "is_disabled": 0}, {"rental_uris": {"android": "https://dc.lft.to/lastmile_qr_scan", "ios": "https://dc.lft.to/lastmile_qr_scan"}, "type": "electric_scooter", "lon": -77.03436816666667, "name": "979a2d0af2c704b520cdecac7e1d4de3", "bike_id": "979a2d0af2c704b520cdecac7e1d4de3", "fusion_lat": 0.0, "is_reserved": 0, "lat": 38.90720666666667, "fusion_lon": 0.0, "is_disabled": 0}, {"rental_uris": {"android": "https://dc.lft.to/lastmile_qr_scan", "ios": "https://dc.lft.to/lastmile_qr_scan"}, "type": "electric_scooter", "lon": -77.024039, "name": "888e4a7b42d721da4e7a3b1f161de9ee", "bike_id": "888e4a7b42d721da4e7a3b1f161de9ee", "fusion_lat": 0.0, "is_reserved": 0, "lat": 38.92003166666667, "fusion_lon": 0.0, "is_disabled": 0}, {"rental_uris": {"android": "https://dc.lft.to/lastmile_qr_scan", "ios": "https://dc.lft.to/lastmile_qr_scan"}, "type": "electric_scooter", "lon": -77.03270733333333, "name": "0d4d42e2a186c5cb0e87fbcf9adb3c16", "bike_id": "0d4d42e2a186c5cb0e87fbcf9adb3c16", "fusion_lat": 0.0, "is_reserved": 0, "lat": 38.932497, "fusion_lon": 0.0, "is_disabled": 0}, {"rental_uris": {"android": "https://dc.lft.to/lastmile_qr_scan", "ios": "https://dc.lft.to/lastmile_qr_scan"}, "type": "electric_scooter", "lon": -77.033263, "name": "a3c3e5c5837c93fa2bffa6e10634bae5", "bike_id": "a3c3e5c5837c93fa2bffa6e10634bae5", "fusion_lat": 0.0, "is_reserved": 0, "lat": 38.90402266666667, "fusion_lon": 0.0, "is_disabled": 0}, {"rental_uris": {"android": "https://dc.lft.to/lastmile_qr_scan", "ios": "https://dc.lft.to/lastmile_qr_scan"}, "type": "electric_scooter", "lon": -77.04611983333334, "name": "8b693b6b656c7a280e24b31415fab004", "bike_id": "8b693b6b656c7a280e24b31415fab004", "fusion_lat": 0.0, "is_reserved": 0, "lat": 38.902542, "fusion_lon": 0.0, "is_disabled": 0}, {"rental_uris": {"android": "https://dc.lft.to/lastmile_qr_scan", "ios": "https://dc.lft.to/lastmile_qr_scan"}, "type": "electric_scooter", "lon": -76.977255, "name": "1a460c4b884194272bb049f84589159b", "bike_id": "1a460c4b884194272bb049f84589159b", "fusion_lat": 0.0, "is_reserved": 0, "lat": 38.87244466666667, "fusion_lon": 0.0, "is_disabled": 0}, {"rental_uris": {"android": "https://dc.lft.to/lastmile_qr_scan", "ios": "https://dc.lft.to/lastmile_qr_scan"}, "type": "electric_scooter", "lon": -77.0343935, "name": "55f906c3cfa4479663b0b9626c3b3c7f", "bike_id": "55f906c3cfa4479663b0b9626c3b3c7f", "fusion_lat": 0.0, "is_reserved": 0, "lat": 38.92867833333333, "fusion_lon": 0.0, "is_disabled": 0}, {"rental_uris": {"android": "https://dc.lft.to/lastmile_qr_scan", "ios": "https://dc.lft.to/lastmile_qr_scan"}, "type": "electric_scooter", "lon": -77.03255583333333, "name": "48bc696b3bd191c4a0d6dafbf0b4cb65", "bike_id": "48bc696b3bd191c4a0d6dafbf0b4cb65", "fusion_lat": 0.0, "is_reserved": 0, "lat": 38.909678666666665, "fusion_lon": 0.0, "is_disabled": 0}, {"rental_uris": {"android": "https://dc.lft.to/lastmile_qr_scan", "ios": "https://dc.lft.to/lastmile_qr_scan"}, "type": "electric_scooter", "lon": -77.025014, "name": "fff0ba0c305bccf00edc1d567c1eb577", "bike_id": "fff0ba0c305bccf00edc1d567c1eb577", "fusion_lat": 0.0, "is_reserved": 0, "lat": 38.9420115, "fusion_lon": 0.0, "is_disabled": 0}, {"rental_uris": {"android": "https://dc.lft.to/lastmile_qr_scan", "ios": "https://dc.lft.to/lastmile_qr_scan"}, "type": "electric_scooter", "lon": -77.02169633333334, "name": "d2af958d24704f9d96b651598a04c66c", "bike_id": "d2af958d24704f9d96b651598a04c66c", "fusion_lat": 0.0, "is_reserved": 0, "lat": 38.887449333333336, "fusion_lon": 0.0, "is_disabled": 0}, {"rental_uris": {"android": "https://dc.lft.to/lastmile_qr_scan", "ios": "https://dc.lft.to/lastmile_qr_scan"}, "type": "electric_scooter", "lon": -77.03964933333333, "name": "03f3c8cf4ba23274203a5fab1d64cfe2", "bike_id": "03f3c8cf4ba23274203a5fab1d64cfe2", "fusion_lat": 0.0, "is_reserved": 0, "lat": 38.906086333333334, "fusion_lon": 0.0, "is_disabled": 0}, {"rental_uris": {"android": "https://dc.lft.to/lastmile_qr_scan", "ios": "https://dc.lft.to/lastmile_qr_scan"}, "type": "electric_scooter", "lon": -77.02166433333333, "name": "338e202f70ca75fdebd2d8b3669e2e6d", "bike_id": "338e202f70ca75fdebd2d8b3669e2e6d", "fusion_lat": 0.0, "is_reserved": 0, "lat": 38.88743783333334, "fusion_lon": 0.0, "is_disabled": 0}, {"rental_uris": {"android": "https://dc.lft.to/lastmile_qr_scan", "ios": "https://dc.lft.to/lastmile_qr_scan"}, "type": "electric_bike", "lon": -76.9457295, "name": "dfb234dbcdb9d25b0586f596ce43be66", "bike_id": "dfb234dbcdb9d25b0586f596ce43be66", "fusion_lat": 0.0, "is_reserved": 0, "lat": 38.8662365, "fusion_lon": 0.0, "is_disabled": 0}, {"rental_uris": {"android": "https://dc.lft.to/lastmile_qr_scan", "ios": "https://dc.lft.to/lastmile_qr_scan"}, "type": "electric_scooter", "lon": -77.06888566666667, "name": "7a482fa457d3ce5dd228d0a2262ba40a", "bike_id": "7a482fa457d3ce5dd228d0a2262ba40a", "fusion_lat": 0.0, "is_reserved": 0, "lat": 38.905124666666666, "fusion_lon": 0.0, "is_disabled": 0}, {"rental_uris": {"android": "https://dc.lft.to/lastmile_qr_scan", "ios": "https://dc.lft.to/lastmile_qr_scan"}, "type": "electric_scooter", "lon": -77.0238675, "name": "f9cfd2021c28e814746141f63f69b2e1", "bike_id": "f9cfd2021c28e814746141f63f69b2e1", "fusion_lat": 0.0, "is_reserved": 0, "lat": 38.9071535, "fusion_lon": 0.0, "is_disabled": 0}, {"rental_uris": {"android": "https://dc.lft.to/lastmile_qr_scan", "ios": "https://dc.lft.to/lastmile_qr_scan"}, "type": "electric_scooter", "lon": -77.04320966666667, "name": "411e89d9d57a9dcfea275113e636d581", "bike_id": "411e89d9d57a9dcfea275113e636d581", "fusion_lat": 0.0, "is_reserved": 0, "lat": 38.892224666666664, "fusion_lon": 0.0, "is_disabled": 0}, {"rental_uris": {"android": "https://dc.lft.to/lastmile_qr_scan", "ios": "https://dc.lft.to/lastmile_qr_scan"}, "type": "electric_scooter", "lon": -77.0378125, "name": "1b01efa3ce9ac2377d849f0ce5434c1b", "bike_id": "1b01efa3ce9ac2377d849f0ce5434c1b", "fusion_lat": 0.0, "is_reserved": 0, "lat": 38.906823333333335, "fusion_lon": 0.0, "is_disabled": 0}, {"rental_uris": {"android": "https://dc.lft.to/lastmile_qr_scan", "ios": "https://dc.lft.to/lastmile_qr_scan"}, "type": "electric_bike", "lon": -77.00507666666667, "name": "f4bd152ab9f313d95a0ce67e29cf6738", "bike_id": "f4bd152ab9f313d95a0ce67e29cf6738", "fusion_lat": 0.0, "is_reserved": 0, "lat": 38.87531383333334, "fusion_lon": 0.0, "is_disabled": 0}, {"rental_uris": {"android": "https://dc.lft.to/lastmile_qr_scan", "ios": "https://dc.lft.to/lastmile_qr_scan"}, "type": "electric_scooter", "lon": -77.01830766666667, "name": "ed3fa746cb550d806038afcfb24ab611", "bike_id": "ed3fa746cb550d806038afcfb24ab611", "fusion_lat": 0.0, "is_reserved": 0, "lat": 38.909588166666666, "fusion_lon": 0.0, "is_disabled": 0}, {"rental_uris": {"android": "https://dc.lft.to/lastmile_qr_scan", "ios": "https://dc.lft.to/lastmile_qr_scan"}, "type": "electric_scooter", "lon": -76.996117, "name": "147b8db75805f1f52ae0f961192c3cd1", "bike_id": "147b8db75805f1f52ae0f961192c3cd1", "fusion_lat": 0.0, "is_reserved": 0, "lat": 38.89764133333333, "fusion_lon": 0.0, "is_disabled": 0}, {"rental_uris": {"android": "https://dc.lft.to/lastmile_qr_scan", "ios": "https://dc.lft.to/lastmile_qr_scan"}, "type": "electric_scooter", "lon": -77.02204983333333, "name": "5f1f61a5bf39abf9a577649b0726c838", "bike_id": "5f1f61a5bf39abf9a577649b0726c838", "fusion_lat": 0.0, "is_reserved": 0, "lat": 38.896337, "fusion_lon": 0.0, "is_disabled": 0}, {"rental_uris": {"android": "https://dc.lft.to/lastmile_qr_scan", "ios": "https://dc.lft.to/lastmile_qr_scan"}, "type": "electric_scooter", "lon": -77.03855383333334, "name": "089defe96f62e3054237ef4b003abcc0", "bike_id": "089defe96f62e3054237ef4b003abcc0", "fusion_lat": 0.0, "is_reserved": 0, "lat": 38.91536383333333, "fusion_lon": 0.0, "is_disabled": 0}, {"rental_uris": {"android": "https://dc.lft.to/lastmile_qr_scan", "ios": "https://dc.lft.to/lastmile_qr_scan"}, "type": "electric_scooter", "lon": -77.03079216666667, "name": "8ace9b1ddd72d7addffde82d5cb6a622", "bike_id": "8ace9b1ddd72d7addffde82d5cb6a622", "fusion_lat": 0.0, "is_reserved": 0, "lat": 38.927243, "fusion_lon": 0.0, "is_disabled": 0}, {"rental_uris": {"android": "https://dc.lft.to/lastmile_qr_scan", "ios": "https://dc.lft.to/lastmile_qr_scan"}, "type": "electric_scooter", "lon": -76.99683433333334, "name": "0a2aa204f7b982098ae82c83fd28490c", "bike_id": "0a2aa204f7b982098ae82c83fd28490c", "fusion_lat": 0.0, "is_reserved": 0, "lat": 38.8869845, "fusion_lon": 0.0, "is_disabled": 0}, {"rental_uris": {"android": "https://dc.lft.to/lastmile_qr_scan", "ios": "https://dc.lft.to/lastmile_qr_scan"}, "type": "electric_scooter", "lon": -77.03495783333334, "name": "ead344cc83edcd74ca02a8b08e4f49a7", "bike_id": "ead344cc83edcd74ca02a8b08e4f49a7", "fusion_lat": 0.0, "is_reserved": 0, "lat": 38.904105, "fusion_lon": 0.0, "is_disabled": 0}, {"rental_uris": {"android": "https://dc.lft.to/lastmile_qr_scan", "ios": "https://dc.lft.to/lastmile_qr_scan"}, "type": "electric_scooter", "lon": -77.03394716666666, "name": "086cc0ced7ef36a3f94629adc1b06ce3", "bike_id": "086cc0ced7ef36a3f94629adc1b06ce3", "fusion_lat": 0.0, "is_reserved": 0, "lat": 38.9204775, "fusion_lon": 0.0, "is_disabled": 0}, {"rental_uris": {"android": "https://dc.lft.to/lastmile_qr_scan", "ios": "https://dc.lft.to/lastmile_qr_scan"}, "type": "electric_bike", "lon": -77.10127833333334, "name": "607bfa2bbe1729afd1af5e12aaee7c44", "bike_id": "607bfa2bbe1729afd1af5e12aaee7c44", "fusion_lat": 0.0, "is_reserved": 0, "lat": 38.8520535, "fusion_lon": 0.0, "is_disabled": 0}, {"rental_uris": {"android": "https://dc.lft.to/lastmile_qr_scan", "ios": "https://dc.lft.to/lastmile_qr_scan"}, "type": "electric_scooter", "lon": -77.0297755, "name": "c86fef4de4a9c48a375b542d5e3f9da5", "bike_id": "c86fef4de4a9c48a375b542d5e3f9da5", "fusion_lat": 0.0, "is_reserved": 0, "lat": 38.9622845, "fusion_lon": 0.0, "is_disabled": 0}, {"rental_uris": {"android": "https://dc.lft.to/lastmile_qr_scan", "ios": "https://dc.lft.to/lastmile_qr_scan"}, "type": "electric_scooter", "lon": -76.99492333333333, "name": "3874b60515eeaa6a1933d98a430e5829", "bike_id": "3874b60515eeaa6a1933d98a430e5829", "fusion_lat": 0.0, "is_reserved": 0, "lat": 38.86220566666667, "fusion_lon": 0.0, "is_disabled": 0}, {"rental_uris": {"android": "https://dc.lft.to/lastmile_qr_scan", "ios": "https://dc.lft.to/lastmile_qr_scan"}, "type": "electric_scooter", "lon": -77.04400333333334, "name": "b6c6a3bf32980da30457515907a266de", "bike_id": "b6c6a3bf32980da30457515907a266de", "fusion_lat": 0.0, "is_reserved": 0, "lat": 38.923531, "fusion_lon": 0.0, "is_disabled": 0}, {"rental_uris": {"android": "https://dc.lft.to/lastmile_qr_scan", "ios": "https://dc.lft.to/lastmile_qr_scan"}, "type": "electric_bike", "lon": -77.12265266666667, "name": "2513eb0698ef28592f3f226c205de871", "bike_id": "2513eb0698ef28592f3f226c205de871", "fusion_lat": 0.0, "is_reserved": 0, "lat": 38.891913833333334, "fusion_lon": 0.0, "is_disabled": 0}, {"rental_uris": {"android": "https://dc.lft.to/lastmile_qr_scan", "ios": "https://dc.lft.to/lastmile_qr_scan"}, "type": "electric_scooter", "lon": -77.02816816666666, "name": "0f49b19947d86e8da0d11039a38e7423", "bike_id": "0f49b19947d86e8da0d11039a38e7423", "fusion_lat": 0.0, "is_reserved": 0, "lat": 38.95610533333333, "fusion_lon": 0.0, "is_disabled": 0}, {"rental_uris": {"android": "https://dc.lft.to/lastmile_qr_scan", "ios": "https://dc.lft.to/lastmile_qr_scan"}, "type": "electric_scooter", "lon": -77.06761366666667, "name": "2ab71da96d7a091e7e87f00db9be157d", "bike_id": "2ab71da96d7a091e7e87f00db9be157d", "fusion_lat": 0.0, "is_reserved": 0, "lat": 38.90371416666667, "fusion_lon": 0.0, "is_disabled": 0}, {"rental_uris": {"android": "https://dc.lft.to/lastmile_qr_scan", "ios": "https://dc.lft.to/lastmile_qr_scan"}, "type": "electric_scooter", "lon": -77.038819, "name": "ff7a46c082d147d9e24a9d8b7a4b39eb", "bike_id": "ff7a46c082d147d9e24a9d8b7a4b39eb", "fusion_lat": 0.0, "is_reserved": 0, "lat": 38.932633333333335, "fusion_lon": 0.0, "is_disabled": 0}, {"rental_uris": {"android": "https://dc.lft.to/lastmile_qr_scan", "ios": "https://dc.lft.to/lastmile_qr_scan"}, "type": "electric_scooter", "lon": -77.04491983333334, "name": "97f5b738edd5bfefee16ed0259aa36bc", "bike_id": "97f5b738edd5bfefee16ed0259aa36bc", "fusion_lat": 0.0, "is_reserved": 0, "lat": 38.90132833333333, "fusion_lon": 0.0, "is_disabled": 0}, {"rental_uris": {"android": "https://dc.lft.to/lastmile_qr_scan", "ios": "https://dc.lft.to/lastmile_qr_scan"}, "type": "electric_scooter", "lon": -76.99166666666666, "name": "a00140fc0bd3c507c420702179b270cd", "bike_id": "a00140fc0bd3c507c420702179b270cd", "fusion_lat": 0.0, "is_reserved": 0, "lat": 38.879148666666666, "fusion_lon": 0.0, "is_disabled": 0}, {"rental_uris": {"android": "https://dc.lft.to/lastmile_qr_scan", "ios": "https://dc.lft.to/lastmile_qr_scan"}, "type": "electric_scooter", "lon": -77.0022185, "name": "d76bbd30da8c39de520bf3b368cb7c43", "bike_id": "d76bbd30da8c39de520bf3b368cb7c43", "fusion_lat": 0.0, "is_reserved": 0, "lat": 38.8773835, "fusion_lon": 0.0, "is_disabled": 0}, {"rental_uris": {"android": "https://dc.lft.to/lastmile_qr_scan", "ios": "https://dc.lft.to/lastmile_qr_scan"}, "type": "electric_bike", "lon": -76.93540183333333, "name": "0cba432121665603b48c3dcbe8b2484a", "bike_id": "0cba432121665603b48c3dcbe8b2484a", "fusion_lat": 0.0, "is_reserved": 0, "lat": 38.9555035, "fusion_lon": 0.0, "is_disabled": 0}, {"rental_uris": {"android": "https://dc.lft.to/lastmile_qr_scan", "ios": "https://dc.lft.to/lastmile_qr_scan"}, "type": "electric_scooter", "lon": -76.99348983333333, "name": "1bcb77b57d621b68f2c787cceb8b7a50", "bike_id": "1bcb77b57d621b68f2c787cceb8b7a50", "fusion_lat": 0.0, "is_reserved": 0, "lat": 38.88292, "fusion_lon": 0.0, "is_disabled": 0}, {"rental_uris": {"android": "https://dc.lft.to/lastmile_qr_scan", "ios": "https://dc.lft.to/lastmile_qr_scan"}, "type": "electric_scooter", "lon": -77.03475783333333, "name": "748116a47443f36e316a2522c3f95221", "bike_id": "748116a47443f36e316a2522c3f95221", "fusion_lat": 0.0, "is_reserved": 0, "lat": 38.902998833333335, "fusion_lon": 0.0, "is_disabled": 0}, {"rental_uris": {"android": "https://dc.lft.to/lastmile_qr_scan", "ios": "https://dc.lft.to/lastmile_qr_scan"}, "type": "electric_scooter", "lon": -77.010998, "name": "c761902b82e0da5a6f96a23c04baec6f", "bike_id": "c761902b82e0da5a6f96a23c04baec6f", "fusion_lat": 0.0, "is_reserved": 0, "lat": 38.905592166666665, "fusion_lon": 0.0, "is_disabled": 0}, {"rental_uris": {"android": "https://dc.lft.to/lastmile_qr_scan", "ios": "https://dc.lft.to/lastmile_qr_scan"}, "type": "electric_scooter", "lon": -77.0473835, "name": "06113d3970e87de37da06321d0e49014", "bike_id": "06113d3970e87de37da06321d0e49014", "fusion_lat": 0.0, "is_reserved": 0, "lat": 38.90223866666667, "fusion_lon": 0.0, "is_disabled": 0}, {"rental_uris": {"android": "https://dc.lft.to/lastmile_qr_scan", "ios": "https://dc.lft.to/lastmile_qr_scan"}, "type": "electric_scooter", "lon": -77.06989483333334, "name": "0a4ad279ac5b6da6375380b2322a06d6", "bike_id": "0a4ad279ac5b6da6375380b2322a06d6", "fusion_lat": 0.0, "is_reserved": 0, "lat": 38.94693083333333, "fusion_lon": 0.0, "is_disabled": 0}, {"rental_uris": {"android": "https://dc.lft.to/lastmile_qr_scan", "ios": "https://dc.lft.to/lastmile_qr_scan"}, "type": "electric_bike", "lon": -77.11225533333334, "name": "c7894e03ad530c9331a43d1e3eeceaaa", "bike_id": "c7894e03ad530c9331a43d1e3eeceaaa", "fusion_lat": 0.0, "is_reserved": 0, "lat": 38.82864883333333, "fusion_lon": 0.0, "is_disabled": 0}, {"rental_uris": {"android": "https://dc.lft.to/lastmile_qr_scan", "ios": "https://dc.lft.to/lastmile_qr_scan"}, "type": "electric_scooter", "lon": -77.04767433333333, "name": "abbffe4b4fcb6cb3d51f7df3dde1c155", "bike_id": "abbffe4b4fcb6cb3d51f7df3dde1c155", "fusion_lat": 0.0, "is_reserved": 0, "lat": 38.902271166666665, "fusion_lon": 0.0, "is_disabled": 0}, {"rental_uris": {"android": "https://dc.lft.to/lastmile_qr_scan", "ios": "https://dc.lft.to/lastmile_qr_scan"}, "type": "electric_scooter", "lon": -77.01557166666667, "name": "5ff434f5211e887954a6e375d7d15809", "bike_id": "5ff434f5211e887954a6e375d7d15809", "fusion_lat": 0.0, "is_reserved": 0, "lat": 38.914683333333336, "fusion_lon": 0.0, "is_disabled": 0}, {"rental_uris": {"android": "https://dc.lft.to/lastmile_qr_scan", "ios": "https://dc.lft.to/lastmile_qr_scan"}, "type": "electric_scooter", "lon": -77.029935, "name": "a47f1141719f7a9b16dc033744374c66", "bike_id": "a47f1141719f7a9b16dc033744374c66", "fusion_lat": 0.0, "is_reserved": 0, "lat": 38.90720733333333, "fusion_lon": 0.0, "is_disabled": 0}, {"rental_uris": {"android": "https://dc.lft.to/lastmile_qr_scan", "ios": "https://dc.lft.to/lastmile_qr_scan"}, "type": "electric_bike", "lon": -76.98739783333333, "name": "e02e38457f874e6138bbbf5f344197d5", "bike_id": "e02e38457f874e6138bbbf5f344197d5", "fusion_lat": 0.0, "is_reserved": 0, "lat": 38.94429916666667, "fusion_lon": 0.0, "is_disabled": 0}, {"rental_uris": {"android": "https://dc.lft.to/lastmile_qr_scan", "ios": "https://dc.lft.to/lastmile_qr_scan"}, "type": "electric_scooter", "lon": -77.00100266666666, "name": "d1cea4942798a54891497c2a2bd6f37e", "bike_id": "d1cea4942798a54891497c2a2bd6f37e", "fusion_lat": 0.0, "is_reserved": 0, "lat": 38.900118166666665, "fusion_lon": 0.0, "is_disabled": 0}, {"rental_uris": {"android": "https://dc.lft.to/lastmile_qr_scan", "ios": "https://dc.lft.to/lastmile_qr_scan"}, "type": "electric_scooter", "lon": -77.03214966666667, "name": "27e8fb7742eadfc67a6a23356e6cfcbc", "bike_id": "27e8fb7742eadfc67a6a23356e6cfcbc", "fusion_lat": 0.0, "is_reserved": 0, "lat": 38.9287955, "fusion_lon": 0.0, "is_disabled": 0}, {"rental_uris": {"android": "https://dc.lft.to/lastmile_qr_scan", "ios": "https://dc.lft.to/lastmile_qr_scan"}, "type": "electric_scooter", "lon": -77.024246, "name": "79e1030571092c032b22f395af84d4ce", "bike_id": "79e1030571092c032b22f395af84d4ce", "fusion_lat": 0.0, "is_reserved": 0, "lat": 38.89225716666667, "fusion_lon": 0.0, "is_disabled": 0}, {"rental_uris": {"android": "https://dc.lft.to/lastmile_qr_scan", "ios": "https://dc.lft.to/lastmile_qr_scan"}, "type": "electric_bike", "lon": -77.07685, "name": "66d126f3791ab4c455174e7a33a1b396", "bike_id": "66d126f3791ab4c455174e7a33a1b396", "fusion_lat": 0.0, "is_reserved": 0, "lat": 38.831938666666666, "fusion_lon": 0.0, "is_disabled": 0}, {"rental_uris": {"android": "https://dc.lft.to/lastmile_qr_scan", "ios": "https://dc.lft.to/lastmile_qr_scan"}, "type": "electric_scooter", "lon": -77.05629116666667, "name": "410cee0108070c4efedc7235eaddcee7", "bike_id": "410cee0108070c4efedc7235eaddcee7", "fusion_lat": 0.0, "is_reserved": 0, "lat": 38.924171666666666, "fusion_lon": 0.0, "is_disabled": 0}, {"rental_uris": {"android": "https://dc.lft.to/lastmile_qr_scan", "ios": "https://dc.lft.to/lastmile_qr_scan"}, "type": "electric_scooter", "lon": -77.03029766666667, "name": "dd41f40e6da8d5bd618c36083f8649d8", "bike_id": "dd41f40e6da8d5bd618c36083f8649d8", "fusion_lat": 0.0, "is_reserved": 0, "lat": 38.905167666666664, "fusion_lon": 0.0, "is_disabled": 0}, {"rental_uris": {"android": "https://dc.lft.to/lastmile_qr_scan", "ios": "https://dc.lft.to/lastmile_qr_scan"}, "type": "electric_scooter", "lon": -77.03907366666667, "name": "2d440e6c212a0c2df29104ebd3ca555c", "bike_id": "2d440e6c212a0c2df29104ebd3ca555c", "fusion_lat": 0.0, "is_reserved": 0, "lat": 38.90651616666667, "fusion_lon": 0.0, "is_disabled": 0}, {"rental_uris": {"android": "https://dc.lft.to/lastmile_qr_scan", "ios": "https://dc.lft.to/lastmile_qr_scan"}, "type": "electric_bike", "lon": -77.05038566666667, "name": "316b7fb5475266429066f7e3856ef8d7", "bike_id": "316b7fb5475266429066f7e3856ef8d7", "fusion_lat": 0.0, "is_reserved": 0, "lat": 38.911145833333336, "fusion_lon": 0.0, "is_disabled": 0}, {"rental_uris": {"android": "https://dc.lft.to/lastmile_qr_scan", "ios": "https://dc.lft.to/lastmile_qr_scan"}, "type": "electric_scooter", "lon": -77.01953033333334, "name": "ee9d13c4151541859405c90a0a336d31", "bike_id": "ee9d13c4151541859405c90a0a336d31", "fusion_lat": 0.0, "is_reserved": 0, "lat": 38.92244183333333, "fusion_lon": 0.0, "is_disabled": 0}, {"rental_uris": {"android": "https://dc.lft.to/lastmile_qr_scan", "ios": "https://dc.lft.to/lastmile_qr_scan"}, "type": "electric_scooter", "lon": -77.03220283333333, "name": "792e63910770b9b8af6edfe51059523f", "bike_id": "792e63910770b9b8af6edfe51059523f", "fusion_lat": 0.0, "is_reserved": 0, "lat": 38.8924935, "fusion_lon": 0.0, "is_disabled": 0}, {"rental_uris": {"android": "https://dc.lft.to/lastmile_qr_scan", "ios": "https://dc.lft.to/lastmile_qr_scan"}, "type": "electric_scooter", "lon": -77.03127833333333, "name": "266b7b0ca5e7b6e6d1f5137545918e7d", "bike_id": "266b7b0ca5e7b6e6d1f5137545918e7d", "fusion_lat": 0.0, "is_reserved": 0, "lat": 38.973747, "fusion_lon": 0.0, "is_disabled": 0}, {"rental_uris": {"android": "https://dc.lft.to/lastmile_qr_scan", "ios": "https://dc.lft.to/lastmile_qr_scan"}, "type": "electric_scooter", "lon": -77.0415475, "name": "48351184698ae1fbc36b573b10e95db8", "bike_id": "48351184698ae1fbc36b573b10e95db8", "fusion_lat": 0.0, "is_reserved": 0, "lat": 38.9235085, "fusion_lon": 0.0, "is_disabled": 0}, {"rental_uris": {"android": "https://dc.lft.to/lastmile_qr_scan", "ios": "https://dc.lft.to/lastmile_qr_scan"}, "type": "electric_bike", "lon": -77.09159783333334, "name": "8e223bd89152315370557fa52bb89b8d", "bike_id": "8e223bd89152315370557fa52bb89b8d", "fusion_lat": 0.0, "is_reserved": 0, "lat": 38.967591166666665, "fusion_lon": 0.0, "is_disabled": 0}, {"rental_uris": {"android": "https://dc.lft.to/lastmile_qr_scan", "ios": "https://dc.lft.to/lastmile_qr_scan"}, "type": "electric_scooter", "lon": -77.02284733333333, "name": "ecc382e6335f498bddd4f4bf5bfe2692", "bike_id": "ecc382e6335f498bddd4f4bf5bfe2692", "fusion_lat": 0.0, "is_reserved": 0, "lat": 38.91286733333333, "fusion_lon": 0.0, "is_disabled": 0}, {"rental_uris": {"android": "https://dc.lft.to/lastmile_qr_scan", "ios": "https://dc.lft.to/lastmile_qr_scan"}, "type": "electric_scooter", "lon": -77.04658, "name": "5bef4ec6b6525a65192e9cd852e8e1a0", "bike_id": "5bef4ec6b6525a65192e9cd852e8e1a0", "fusion_lat": 0.0, "is_reserved": 0, "lat": 38.892972666666665, "fusion_lon": 0.0, "is_disabled": 0}, {"rental_uris": {"android": "https://dc.lft.to/lastmile_qr_scan", "ios": "https://dc.lft.to/lastmile_qr_scan"}, "type": "electric_scooter", "lon": -77.02987216666666, "name": "958ee5896f114ce4b0ae1d52c983d8f6", "bike_id": "958ee5896f114ce4b0ae1d52c983d8f6", "fusion_lat": 0.0, "is_reserved": 0, "lat": 38.92234333333333, "fusion_lon": 0.0, "is_disabled": 0}, {"rental_uris": {"android": "https://dc.lft.to/lastmile_qr_scan", "ios": "https://dc.lft.to/lastmile_qr_scan"}, "type": "electric_scooter", "lon": -77.02641633333333, "name": "2aac4e09899699a218615cb81eb54e4f", "bike_id": "2aac4e09899699a218615cb81eb54e4f", "fusion_lat": 0.0, "is_reserved": 0, "lat": 38.936649833333334, "fusion_lon": 0.0, "is_disabled": 0}, {"rental_uris": {"android": "https://dc.lft.to/lastmile_qr_scan", "ios": "https://dc.lft.to/lastmile_qr_scan"}, "type": "electric_scooter", "lon": -77.01734883333333, "name": "405e37fbd53a173bcc70ace00badf551", "bike_id": "405e37fbd53a173bcc70ace00badf551", "fusion_lat": 0.0, "is_reserved": 0, "lat": 38.87697416666666, "fusion_lon": 0.0, "is_disabled": 0}, {"rental_uris": {"android": "https://dc.lft.to/lastmile_qr_scan", "ios": "https://dc.lft.to/lastmile_qr_scan"}, "type": "electric_scooter", "lon": -77.03182133333334, "name": "8352985ad57edfc6d1cc7a759229113e", "bike_id": "8352985ad57edfc6d1cc7a759229113e", "fusion_lat": 0.0, "is_reserved": 0, "lat": 38.9129705, "fusion_lon": 0.0, "is_disabled": 0}, {"rental_uris": {"android": "https://dc.lft.to/lastmile_qr_scan", "ios": "https://dc.lft.to/lastmile_qr_scan"}, "type": "electric_scooter", "lon": -77.044082, "name": "ba11678f278596192478aaba89a30db7", "bike_id": "ba11678f278596192478aaba89a30db7", "fusion_lat": 0.0, "is_reserved": 0, "lat": 38.87423666666667, "fusion_lon": 0.0, "is_disabled": 0}, {"rental_uris": {"android": "https://dc.lft.to/lastmile_qr_scan", "ios": "https://dc.lft.to/lastmile_qr_scan"}, "type": "electric_scooter", "lon": -77.03372833333333, "name": "d70414ab1b4d13a9670e30162601cdf6", "bike_id": "d70414ab1b4d13a9670e30162601cdf6", "fusion_lat": 0.0, "is_reserved": 0, "lat": 38.91039333333333, "fusion_lon": 0.0, "is_disabled": 0}, {"rental_uris": {"android": "https://dc.lft.to/lastmile_qr_scan", "ios": "https://dc.lft.to/lastmile_qr_scan"}, "type": "electric_scooter", "lon": -76.969189, "name": "d5be7ddd6fe70c82851d51cc6b61e743", "bike_id": "d5be7ddd6fe70c82851d51cc6b61e743", "fusion_lat": 0.0, "is_reserved": 0, "lat": 38.8552625, "fusion_lon": 0.0, "is_disabled": 0}, {"rental_uris": {"android": "https://dc.lft.to/lastmile_qr_scan", "ios": "https://dc.lft.to/lastmile_qr_scan"}, "type": "electric_bike", "lon": -77.02491783333333, "name": "6ac61be996f00513019a94259e57b0d5", "bike_id": "6ac61be996f00513019a94259e57b0d5", "fusion_lat": 0.0, "is_reserved": 0, "lat": 38.97367233333333, "fusion_lon": 0.0, "is_disabled": 0}, {"rental_uris": {"android": "https://dc.lft.to/lastmile_qr_scan", "ios": "https://dc.lft.to/lastmile_qr_scan"}, "type": "electric_scooter", "lon": -77.06287983333333, "name": "21e451be9eb58751638450c01cdf5c3c", "bike_id": "21e451be9eb58751638450c01cdf5c3c", "fusion_lat": 0.0, "is_reserved": 0, "lat": 38.904487333333336, "fusion_lon": 0.0, "is_disabled": 0}, {"rental_uris": {"android": "https://dc.lft.to/lastmile_qr_scan", "ios": "https://dc.lft.to/lastmile_qr_scan"}, "type": "electric_scooter", "lon": -77.01534916666667, "name": "035d52cfd6a6a8898985c9ea521f76b5", "bike_id": "035d52cfd6a6a8898985c9ea521f76b5", "fusion_lat": 0.0, "is_reserved": 0, "lat": 38.9431215, "fusion_lon": 0.0, "is_disabled": 0}, {"rental_uris": {"android": "https://dc.lft.to/lastmile_qr_scan", "ios": "https://dc.lft.to/lastmile_qr_scan"}, "type": "electric_scooter", "lon": -76.949252, "name": "e7011ddf1d262b9d731270ee8f5706b5", "bike_id": "e7011ddf1d262b9d731270ee8f5706b5", "fusion_lat": 0.0, "is_reserved": 0, "lat": 38.884820833333336, "fusion_lon": 0.0, "is_disabled": 0}, {"rental_uris": {"android": "https://dc.lft.to/lastmile_qr_scan", "ios": "https://dc.lft.to/lastmile_qr_scan"}, "type": "electric_scooter", "lon": -77.01898333333334, "name": "75e7a63a26d1e1c877964104da728eaa", "bike_id": "75e7a63a26d1e1c877964104da728eaa", "fusion_lat": 0.0, "is_reserved": 0, "lat": 38.909429, "fusion_lon": 0.0, "is_disabled": 0}, {"rental_uris": {"android": "https://dc.lft.to/lastmile_qr_scan", "ios": "https://dc.lft.to/lastmile_qr_scan"}, "type": "electric_scooter", "lon": -77.03883533333334, "name": "1136e5f5747863923127e4ec78c0605d", "bike_id": "1136e5f5747863923127e4ec78c0605d", "fusion_lat": 0.0, "is_reserved": 0, "lat": 38.93260383333333, "fusion_lon": 0.0, "is_disabled": 0}, {"rental_uris": {"android": "https://dc.lft.to/lastmile_qr_scan", "ios": "https://dc.lft.to/lastmile_qr_scan"}, "type": "electric_scooter", "lon": -76.99017916666666, "name": "d113ed4b1d684be2c0bd3379e994bbfe", "bike_id": "d113ed4b1d684be2c0bd3379e994bbfe", "fusion_lat": 0.0, "is_reserved": 0, "lat": 38.861143, "fusion_lon": 0.0, "is_disabled": 0}, {"rental_uris": {"android": "https://dc.lft.to/lastmile_qr_scan", "ios": "https://dc.lft.to/lastmile_qr_scan"}, "type": "electric_scooter", "lon": -76.99632666666666, "name": "5b5c046cc8d2273ef9270ab94ed4829a", "bike_id": "5b5c046cc8d2273ef9270ab94ed4829a", "fusion_lat": 0.0, "is_reserved": 0, "lat": 38.846197, "fusion_lon": 0.0, "is_disabled": 0}, {"rental_uris": {"android": "https://dc.lft.to/lastmile_qr_scan", "ios": "https://dc.lft.to/lastmile_qr_scan"}, "type": "electric_scooter", "lon": -77.02804283333333, "name": "8f6480b00c5cf85cd910f5d1c1ef53b1", "bike_id": "8f6480b00c5cf85cd910f5d1c1ef53b1", "fusion_lat": 0.0, "is_reserved": 0, "lat": 38.8982465, "fusion_lon": 0.0, "is_disabled": 0}, {"rental_uris": {"android": "https://dc.lft.to/lastmile_qr_scan", "ios": "https://dc.lft.to/lastmile_qr_scan"}, "type": "electric_scooter", "lon": -76.937386, "name": "d46ebe425296c10aeb3c227306980d6c", "bike_id": "d46ebe425296c10aeb3c227306980d6c", "fusion_lat": 0.0, "is_reserved": 0, "lat": 38.89015783333333, "fusion_lon": 0.0, "is_disabled": 0}, {"rental_uris": {"android": "https://dc.lft.to/lastmile_qr_scan", "ios": "https://dc.lft.to/lastmile_qr_scan"}, "type": "electric_scooter", "lon": -77.0342685, "name": "d80d8a65925813e01baeb98975fd70f9", "bike_id": "d80d8a65925813e01baeb98975fd70f9", "fusion_lat": 0.0, "is_reserved": 0, "lat": 38.904429666666665, "fusion_lon": 0.0, "is_disabled": 0}, {"rental_uris": {"android": "https://dc.lft.to/lastmile_qr_scan", "ios": "https://dc.lft.to/lastmile_qr_scan"}, "type": "electric_scooter", "lon": -77.02484666666666, "name": "51db1c4d129038d8bfc5a07d101373e0", "bike_id": "51db1c4d129038d8bfc5a07d101373e0", "fusion_lat": 0.0, "is_reserved": 0, "lat": 38.93878483333334, "fusion_lon": 0.0, "is_disabled": 0}, {"rental_uris": {"android": "https://dc.lft.to/lastmile_qr_scan", "ios": "https://dc.lft.to/lastmile_qr_scan"}, "type": "electric_scooter", "lon": -77.0005015, "name": "fe159d50eb8be9f9b69f3179ae2ce315", "bike_id": "fe159d50eb8be9f9b69f3179ae2ce315", "fusion_lat": 0.0, "is_reserved": 0, "lat": 38.9036645, "fusion_lon": 0.0, "is_disabled": 0}, {"rental_uris": {"android": "https://dc.lft.to/lastmile_qr_scan", "ios": "https://dc.lft.to/lastmile_qr_scan"}, "type": "electric_scooter", "lon": -77.050042, "name": "2fc2aba81baaa16275f2bf0cdd8a6b80", "bike_id": "2fc2aba81baaa16275f2bf0cdd8a6b80", "fusion_lat": 0.0, "is_reserved": 0, "lat": 38.89228883333333, "fusion_lon": 0.0, "is_disabled": 0}, {"rental_uris": {"android": "https://dc.lft.to/lastmile_qr_scan", "ios": "https://dc.lft.to/lastmile_qr_scan"}, "type": "electric_scooter", "lon": -77.025474, "name": "d9f9d5c14603ef2aca227e0a472027ad", "bike_id": "d9f9d5c14603ef2aca227e0a472027ad", "fusion_lat": 0.0, "is_reserved": 0, "lat": 38.9351645, "fusion_lon": 0.0, "is_disabled": 0}, {"rental_uris": {"android": "https://dc.lft.to/lastmile_qr_scan", "ios": "https://dc.lft.to/lastmile_qr_scan"}, "type": "electric_scooter", "lon": -77.04626866666666, "name": "d35274c1272555ed12f1f81c090be45b", "bike_id": "d35274c1272555ed12f1f81c090be45b", "fusion_lat": 0.0, "is_reserved": 0, "lat": 38.90073983333333, "fusion_lon": 0.0, "is_disabled": 0}, {"rental_uris": {"android": "https://dc.lft.to/lastmile_qr_scan", "ios": "https://dc.lft.to/lastmile_qr_scan"}, "type": "electric_bike", "lon": -77.039946, "name": "1db96b4bc004be60d0b247e4ec73c077", "bike_id": "1db96b4bc004be60d0b247e4ec73c077", "fusion_lat": 0.0, "is_reserved": 0, "lat": 38.90615233333333, "fusion_lon": 0.0, "is_disabled": 0}, {"rental_uris": {"android": "https://dc.lft.to/lastmile_qr_scan", "ios": "https://dc.lft.to/lastmile_qr_scan"}, "type": "electric_scooter", "lon": -77.03273433333334, "name": "87b97b1a3ba4a6e4aee7eb230fa99daf", "bike_id": "87b97b1a3ba4a6e4aee7eb230fa99daf", "fusion_lat": 0.0, "is_reserved": 0, "lat": 38.924579666666666, "fusion_lon": 0.0, "is_disabled": 0}, {"rental_uris": {"android": "https://dc.lft.to/lastmile_qr_scan", "ios": "https://dc.lft.to/lastmile_qr_scan"}, "type": "electric_scooter", "lon": -77.02180233333333, "name": "31345e04745fffdf07f9a41ad1a68ae5", "bike_id": "31345e04745fffdf07f9a41ad1a68ae5", "fusion_lat": 0.0, "is_reserved": 0, "lat": 38.89232583333333, "fusion_lon": 0.0, "is_disabled": 0}, {"rental_uris": {"android": "https://dc.lft.to/lastmile_qr_scan", "ios": "https://dc.lft.to/lastmile_qr_scan"}, "type": "electric_scooter", "lon": -77.02179166666667, "name": "4ce114d8dfee3f0909b974fa49f99b18", "bike_id": "4ce114d8dfee3f0909b974fa49f99b18", "fusion_lat": 0.0, "is_reserved": 0, "lat": 38.89229233333333, "fusion_lon": 0.0, "is_disabled": 0}, {"rental_uris": {"android": "https://dc.lft.to/lastmile_qr_scan", "ios": "https://dc.lft.to/lastmile_qr_scan"}, "type": "electric_scooter", "lon": -77.017938, "name": "c8964388f2a5ae68675c23a78f09b3db", "bike_id": "c8964388f2a5ae68675c23a78f09b3db", "fusion_lat": 0.0, "is_reserved": 0, "lat": 38.90641183333334, "fusion_lon": 0.0, "is_disabled": 0}, {"rental_uris": {"android": "https://dc.lft.to/lastmile_qr_scan", "ios": "https://dc.lft.to/lastmile_qr_scan"}, "type": "electric_scooter", "lon": -77.0254495, "name": "4d6b472f56f5532ced8222d26613897f", "bike_id": "4d6b472f56f5532ced8222d26613897f", "fusion_lat": 0.0, "is_reserved": 0, "lat": 38.927410333333334, "fusion_lon": 0.0, "is_disabled": 0}, {"rental_uris": {"android": "https://dc.lft.to/lastmile_qr_scan", "ios": "https://dc.lft.to/lastmile_qr_scan"}, "type": "electric_bike", "lon": -76.98830916666667, "name": "9677073d34213ceaa1d11e780db6a5b2", "bike_id": "9677073d34213ceaa1d11e780db6a5b2", "fusion_lat": 0.0, "is_reserved": 0, "lat": 38.9855995, "fusion_lon": 0.0, "is_disabled": 0}, {"rental_uris": {"android": "https://dc.lft.to/lastmile_qr_scan", "ios": "https://dc.lft.to/lastmile_qr_scan"}, "type": "electric_scooter", "lon": -77.02345616666666, "name": "35a7dbe075609612889a03fdc81a65cd", "bike_id": "35a7dbe075609612889a03fdc81a65cd", "fusion_lat": 0.0, "is_reserved": 0, "lat": 38.929882166666665, "fusion_lon": 0.0, "is_disabled": 0}, {"rental_uris": {"android": "https://dc.lft.to/lastmile_qr_scan", "ios": "https://dc.lft.to/lastmile_qr_scan"}, "type": "electric_scooter", "lon": -77.02345716666666, "name": "9f8939b5f5f6fb94621f991b35d855f1", "bike_id": "9f8939b5f5f6fb94621f991b35d855f1", "fusion_lat": 0.0, "is_reserved": 0, "lat": 38.9332035, "fusion_lon": 0.0, "is_disabled": 0}, {"rental_uris": {"android": "https://dc.lft.to/lastmile_qr_scan", "ios": "https://dc.lft.to/lastmile_qr_scan"}, "type": "electric_bike", "lon": -77.099671, "name": "42f0f1f02e65c287ca33f3101ab68d7a", "bike_id": "42f0f1f02e65c287ca33f3101ab68d7a", "fusion_lat": 0.0, "is_reserved": 0, "lat": 38.85794833333333, "fusion_lon": 0.0, "is_disabled": 0}, {"rental_uris": {"android": "https://dc.lft.to/lastmile_qr_scan", "ios": "https://dc.lft.to/lastmile_qr_scan"}, "type": "electric_scooter", "lon": -77.00610616666667, "name": "901ae600780ecc9cd63e237784419e4b", "bike_id": "901ae600780ecc9cd63e237784419e4b", "fusion_lat": 0.0, "is_reserved": 0, "lat": 38.874649, "fusion_lon": 0.0, "is_disabled": 0}, {"rental_uris": {"android": "https://dc.lft.to/lastmile_qr_scan", "ios": "https://dc.lft.to/lastmile_qr_scan"}, "type": "electric_scooter", "lon": -77.04839483333333, "name": "2fd8478eebaeb78dba6ced1a5929e475", "bike_id": "2fd8478eebaeb78dba6ced1a5929e475", "fusion_lat": 0.0, "is_reserved": 0, "lat": 38.900319333333336, "fusion_lon": 0.0, "is_disabled": 0}, {"rental_uris": {"android": "https://dc.lft.to/lastmile_qr_scan", "ios": "https://dc.lft.to/lastmile_qr_scan"}, "type": "electric_scooter", "lon": -77.00612566666666, "name": "dd55b103ef4629488edf6f4cabec8a41", "bike_id": "dd55b103ef4629488edf6f4cabec8a41", "fusion_lat": 0.0, "is_reserved": 0, "lat": 38.874590166666664, "fusion_lon": 0.0, "is_disabled": 0}, {"rental_uris": {"android": "https://dc.lft.to/lastmile_qr_scan", "ios": "https://dc.lft.to/lastmile_qr_scan"}, "type": "electric_scooter", "lon": -77.04586833333333, "name": "5682c3e70d1e496be72433a3e18ec7cd", "bike_id": "5682c3e70d1e496be72433a3e18ec7cd", "fusion_lat": 0.0, "is_reserved": 0, "lat": 38.92147416666667, "fusion_lon": 0.0, "is_disabled": 0}, {"rental_uris": {"android": "https://dc.lft.to/lastmile_qr_scan", "ios": "https://dc.lft.to/lastmile_qr_scan"}, "type": "electric_scooter", "lon": -77.07431533333333, "name": "b0d7a7d1523c734838dc93dee21fd50b", "bike_id": "b0d7a7d1523c734838dc93dee21fd50b", "fusion_lat": 0.0, "is_reserved": 0, "lat": 38.91093583333333, "fusion_lon": 0.0, "is_disabled": 0}, {"rental_uris": {"android": "https://dc.lft.to/lastmile_qr_scan", "ios": "https://dc.lft.to/lastmile_qr_scan"}, "type": "electric_scooter", "lon": -77.02931366666667, "name": "5d7efeb688cad50bcc29723d11258dad", "bike_id": "5d7efeb688cad50bcc29723d11258dad", "fusion_lat": 0.0, "is_reserved": 0, "lat": 38.9428165, "fusion_lon": 0.0, "is_disabled": 0}, {"rental_uris": {"android": "https://dc.lft.to/lastmile_qr_scan", "ios": "https://dc.lft.to/lastmile_qr_scan"}, "type": "electric_scooter", "lon": -77.00574866666666, "name": "dfc092aae030995454ebc9e2b4546f8b", "bike_id": "dfc092aae030995454ebc9e2b4546f8b", "fusion_lat": 0.0, "is_reserved": 0, "lat": 38.885296, "fusion_lon": 0.0, "is_disabled": 0}, {"rental_uris": {"android": "https://dc.lft.to/lastmile_qr_scan", "ios": "https://dc.lft.to/lastmile_qr_scan"}, "type": "electric_scooter", "lon": -77.04642766666667, "name": "4ab73194ff7934ecdcd6e534f5f42af5", "bike_id": "4ab73194ff7934ecdcd6e534f5f42af5", "fusion_lat": 0.0, "is_reserved": 0, "lat": 38.92234033333333, "fusion_lon": 0.0, "is_disabled": 0}, {"rental_uris": {"android": "https://dc.lft.to/lastmile_qr_scan", "ios": "https://dc.lft.to/lastmile_qr_scan"}, "type": "electric_scooter", "lon": -77.03979566666666, "name": "0121e695a2f8fd57c5dac3ea6f1df24c", "bike_id": "0121e695a2f8fd57c5dac3ea6f1df24c", "fusion_lat": 0.0, "is_reserved": 0, "lat": 38.90926133333333, "fusion_lon": 0.0, "is_disabled": 0}, {"rental_uris": {"android": "https://dc.lft.to/lastmile_qr_scan", "ios": "https://dc.lft.to/lastmile_qr_scan"}, "type": "electric_scooter", "lon": -76.9938975, "name": "9b1c7b6a48a43d87fa1d5b9364b4ce3a", "bike_id": "9b1c7b6a48a43d87fa1d5b9364b4ce3a", "fusion_lat": 0.0, "is_reserved": 0, "lat": 38.884496166666665, "fusion_lon": 0.0, "is_disabled": 0}, {"rental_uris": {"android": "https://dc.lft.to/lastmile_qr_scan", "ios": "https://dc.lft.to/lastmile_qr_scan"}, "type": "electric_scooter", "lon": -77.04671033333334, "name": "c26849e20d1806c53235144d22758eb7", "bike_id": "c26849e20d1806c53235144d22758eb7", "fusion_lat": 0.0, "is_reserved": 0, "lat": 38.8955415, "fusion_lon": 0.0, "is_disabled": 0}, {"rental_uris": {"android": "https://dc.lft.to/lastmile_qr_scan", "ios": "https://dc.lft.to/lastmile_qr_scan"}, "type": "electric_scooter", "lon": -77.0326345, "name": "38ebd92c96a68bfb911dabc53b16e26b", "bike_id": "38ebd92c96a68bfb911dabc53b16e26b", "fusion_lat": 0.0, "is_reserved": 0, "lat": 38.936702333333336, "fusion_lon": 0.0, "is_disabled": 0}, {"rental_uris": {"android": "https://dc.lft.to/lastmile_qr_scan", "ios": "https://dc.lft.to/lastmile_qr_scan"}, "type": "electric_bike", "lon": -77.1290295, "name": "47bf50e2e046c3f0c313274a46331079", "bike_id": "47bf50e2e046c3f0c313274a46331079", "fusion_lat": 0.0, "is_reserved": 0, "lat": 38.86376966666667, "fusion_lon": 0.0, "is_disabled": 0}, {"rental_uris": {"android": "https://dc.lft.to/lastmile_qr_scan", "ios": "https://dc.lft.to/lastmile_qr_scan"}, "type": "electric_scooter", "lon": -77.04259633333334, "name": "f176404feb4c11c8fac40365ba895a25", "bike_id": "f176404feb4c11c8fac40365ba895a25", "fusion_lat": 0.0, "is_reserved": 0, "lat": 38.90981883333333, "fusion_lon": 0.0, "is_disabled": 0}, {"rental_uris": {"android": "https://dc.lft.to/lastmile_qr_scan", "ios": "https://dc.lft.to/lastmile_qr_scan"}, "type": "electric_scooter", "lon": -77.060399, "name": "e7615e15365877ff43b9fda5126e6155", "bike_id": "e7615e15365877ff43b9fda5126e6155", "fusion_lat": 0.0, "is_reserved": 0, "lat": 38.93921233333333, "fusion_lon": 0.0, "is_disabled": 0}, {"rental_uris": {"android": "https://dc.lft.to/lastmile_qr_scan", "ios": "https://dc.lft.to/lastmile_qr_scan"}, "type": "electric_scooter", "lon": -76.999714, "name": "baca2d653d97f22e05609de776f35fe8", "bike_id": "baca2d653d97f22e05609de776f35fe8", "fusion_lat": 0.0, "is_reserved": 0, "lat": 38.90934433333334, "fusion_lon": 0.0, "is_disabled": 0}, {"rental_uris": {"android": "https://dc.lft.to/lastmile_qr_scan", "ios": "https://dc.lft.to/lastmile_qr_scan"}, "type": "electric_bike", "lon": -77.02110433333333, "name": "d26b398d23b4cb5ce56efab8dad80b16", "bike_id": "d26b398d23b4cb5ce56efab8dad80b16", "fusion_lat": 0.0, "is_reserved": 0, "lat": 39.022988833333336, "fusion_lon": 0.0, "is_disabled": 0}, {"rental_uris": {"android": "https://dc.lft.to/lastmile_qr_scan", "ios": "https://dc.lft.to/lastmile_qr_scan"}, "type": "electric_scooter", "lon": -77.05108266666667, "name": "d32b4f28776d42a442deb44fe26d00e9", "bike_id": "d32b4f28776d42a442deb44fe26d00e9", "fusion_lat": 0.0, "is_reserved": 0, "lat": 38.90519183333333, "fusion_lon": 0.0, "is_disabled": 0}, {"rental_uris": {"android": "https://dc.lft.to/lastmile_qr_scan", "ios": "https://dc.lft.to/lastmile_qr_scan"}, "type": "electric_scooter", "lon": -77.00592566666667, "name": "7b6793dea640d91799f0fe94ecf2fe49", "bike_id": "7b6793dea640d91799f0fe94ecf2fe49", "fusion_lat": 0.0, "is_reserved": 0, "lat": 38.88379583333333, "fusion_lon": 0.0, "is_disabled": 0}, {"rental_uris": {"android": "https://dc.lft.to/lastmile_qr_scan", "ios": "https://dc.lft.to/lastmile_qr_scan"}, "type": "electric_scooter", "lon": -77.02720583333333, "name": "d4d6ec0695e50cd3dfd5bf797992238a", "bike_id": "d4d6ec0695e50cd3dfd5bf797992238a", "fusion_lat": 0.0, "is_reserved": 0, "lat": 38.899686, "fusion_lon": 0.0, "is_disabled": 0}, {"rental_uris": {"android": "https://dc.lft.to/lastmile_qr_scan", "ios": "https://dc.lft.to/lastmile_qr_scan"}, "type": "electric_scooter", "lon": -77.00575116666667, "name": "9948a6762ebec641620e7cce786b9478", "bike_id": "9948a6762ebec641620e7cce786b9478", "fusion_lat": 0.0, "is_reserved": 0, "lat": 38.9056325, "fusion_lon": 0.0, "is_disabled": 0}, {"rental_uris": {"android": "https://dc.lft.to/lastmile_qr_scan", "ios": "https://dc.lft.to/lastmile_qr_scan"}, "type": "electric_scooter", "lon": -76.9473115, "name": "5529ae1e4665842d90f4d338de0ed155", "bike_id": "5529ae1e4665842d90f4d338de0ed155", "fusion_lat": 0.0, "is_reserved": 0, "lat": 38.89671033333333, "fusion_lon": 0.0, "is_disabled": 0}, {"rental_uris": {"android": "https://dc.lft.to/lastmile_qr_scan", "ios": "https://dc.lft.to/lastmile_qr_scan"}, "type": "electric_scooter", "lon": -76.98042316666667, "name": "470bbe0ca0a42db048938b9d5ba05bc9", "bike_id": "470bbe0ca0a42db048938b9d5ba05bc9", "fusion_lat": 0.0, "is_reserved": 0, "lat": 38.916804, "fusion_lon": 0.0, "is_disabled": 0}, {"rental_uris": {"android": "https://dc.lft.to/lastmile_qr_scan", "ios": "https://dc.lft.to/lastmile_qr_scan"}, "type": "electric_scooter", "lon": -77.01995283333333, "name": "d25fcfe7a7b709566ef813e139d2250f", "bike_id": "d25fcfe7a7b709566ef813e139d2250f", "fusion_lat": 0.0, "is_reserved": 0, "lat": 38.89840016666667, "fusion_lon": 0.0, "is_disabled": 0}, {"rental_uris": {"android": "https://dc.lft.to/lastmile_qr_scan", "ios": "https://dc.lft.to/lastmile_qr_scan"}, "type": "electric_scooter", "lon": -77.04364316666667, "name": "0ab5d5895af1d667c30842ef9261bbb2", "bike_id": "0ab5d5895af1d667c30842ef9261bbb2", "fusion_lat": 0.0, "is_reserved": 0, "lat": 38.89229483333333, "fusion_lon": 0.0, "is_disabled": 0}, {"rental_uris": {"android": "https://dc.lft.to/lastmile_qr_scan", "ios": "https://dc.lft.to/lastmile_qr_scan"}, "type": "electric_scooter", "lon": -77.033677, "name": "4539221935c810e0e841373d13f92fd5", "bike_id": "4539221935c810e0e841373d13f92fd5", "fusion_lat": 0.0, "is_reserved": 0, "lat": 38.91184416666667, "fusion_lon": 0.0, "is_disabled": 0}, {"rental_uris": {"android": "https://dc.lft.to/lastmile_qr_scan", "ios": "https://dc.lft.to/lastmile_qr_scan"}, "type": "electric_scooter", "lon": -77.05439916666667, "name": "84276e46b2affb3dfb22b9068260c930", "bike_id": "84276e46b2affb3dfb22b9068260c930", "fusion_lat": 0.0, "is_reserved": 0, "lat": 38.896052, "fusion_lon": 0.0, "is_disabled": 0}, {"rental_uris": {"android": "https://dc.lft.to/lastmile_qr_scan", "ios": "https://dc.lft.to/lastmile_qr_scan"}, "type": "electric_scooter", "lon": -76.999453, "name": "c627cebd9fe7843cf2e7f35353624c2e", "bike_id": "c627cebd9fe7843cf2e7f35353624c2e", "fusion_lat": 0.0, "is_reserved": 0, "lat": 38.842964, "fusion_lon": 0.0, "is_disabled": 0}, {"rental_uris": {"android": "https://dc.lft.to/lastmile_qr_scan", "ios": "https://dc.lft.to/lastmile_qr_scan"}, "type": "electric_scooter", "lon": -77.0302925, "name": "b83a77793588cf02e17e9c93b16dc825", "bike_id": "b83a77793588cf02e17e9c93b16dc825", "fusion_lat": 0.0, "is_reserved": 0, "lat": 38.926818833333336, "fusion_lon": 0.0, "is_disabled": 0}, {"rental_uris": {"android": "https://dc.lft.to/lastmile_qr_scan", "ios": "https://dc.lft.to/lastmile_qr_scan"}, "type": "electric_bike", "lon": -77.02488733333334, "name": "e2ddfb26b8c466aad3fdb3a6cba06685", "bike_id": "e2ddfb26b8c466aad3fdb3a6cba06685", "fusion_lat": 0.0, "is_reserved": 0, "lat": 38.973974, "fusion_lon": 0.0, "is_disabled": 0}, {"rental_uris": {"android": "https://dc.lft.to/lastmile_qr_scan", "ios": "https://dc.lft.to/lastmile_qr_scan"}, "type": "electric_scooter", "lon": -77.02308316666667, "name": "f61971fb114432f026742347dc489f35", "bike_id": "f61971fb114432f026742347dc489f35", "fusion_lat": 0.0, "is_reserved": 0, "lat": 38.91751, "fusion_lon": 0.0, "is_disabled": 0}, {"rental_uris": {"android": "https://dc.lft.to/lastmile_qr_scan", "ios": "https://dc.lft.to/lastmile_qr_scan"}, "type": "electric_scooter", "lon": -77.03212616666667, "name": "e4cdbfa11a554d64b12d684f5d272953", "bike_id": "e4cdbfa11a554d64b12d684f5d272953", "fusion_lat": 0.0, "is_reserved": 0, "lat": 38.92255383333333, "fusion_lon": 0.0, "is_disabled": 0}, {"rental_uris": {"android": "https://dc.lft.to/lastmile_qr_scan", "ios": "https://dc.lft.to/lastmile_qr_scan"}, "type": "electric_scooter", "lon": -77.032363, "name": "e1e4ee8221bf4cd0c20669627b826adf", "bike_id": "e1e4ee8221bf4cd0c20669627b826adf", "fusion_lat": 0.0, "is_reserved": 0, "lat": 38.9014265, "fusion_lon": 0.0, "is_disabled": 0}, {"rental_uris": {"android": "https://dc.lft.to/lastmile_qr_scan", "ios": "https://dc.lft.to/lastmile_qr_scan"}, "type": "electric_bike", "lon": -77.02953666666667, "name": "eeaf848d6d8d1647a60d37f4033cfedb", "bike_id": "eeaf848d6d8d1647a60d37f4033cfedb", "fusion_lat": 0.0, "is_reserved": 0, "lat": 38.94302366666667, "fusion_lon": 0.0, "is_disabled": 0}, {"rental_uris": {"android": "https://dc.lft.to/lastmile_qr_scan", "ios": "https://dc.lft.to/lastmile_qr_scan"}, "type": "electric_scooter", "lon": -77.00322166666666, "name": "cad3fcc402121fbe6101578e3a90553f", "bike_id": "cad3fcc402121fbe6101578e3a90553f", "fusion_lat": 0.0, "is_reserved": 0, "lat": 38.88732066666667, "fusion_lon": 0.0, "is_disabled": 0}, {"rental_uris": {"android": "https://dc.lft.to/lastmile_qr_scan", "ios": "https://dc.lft.to/lastmile_qr_scan"}, "type": "electric_scooter", "lon": -77.05433916666667, "name": "b801aa501cedc2681e95b4d78acc216f", "bike_id": "b801aa501cedc2681e95b4d78acc216f", "fusion_lat": 0.0, "is_reserved": 0, "lat": 38.92860266666667, "fusion_lon": 0.0, "is_disabled": 0}, {"rental_uris": {"android": "https://dc.lft.to/lastmile_qr_scan", "ios": "https://dc.lft.to/lastmile_qr_scan"}, "type": "electric_scooter", "lon": -77.0303985, "name": "174ab122ce3b19102ebb98d7c6c2784c", "bike_id": "174ab122ce3b19102ebb98d7c6c2784c", "fusion_lat": 0.0, "is_reserved": 0, "lat": 38.88394516666666, "fusion_lon": 0.0, "is_disabled": 0}, {"rental_uris": {"android": "https://dc.lft.to/lastmile_qr_scan", "ios": "https://dc.lft.to/lastmile_qr_scan"}, "type": "electric_scooter", "lon": -77.052292, "name": "71bdc8a70452007077bcda590ec0d8da", "bike_id": "71bdc8a70452007077bcda590ec0d8da", "fusion_lat": 0.0, "is_reserved": 0, "lat": 38.92445266666667, "fusion_lon": 0.0, "is_disabled": 0}, {"rental_uris": {"android": "https://dc.lft.to/lastmile_qr_scan", "ios": "https://dc.lft.to/lastmile_qr_scan"}, "type": "electric_scooter", "lon": -77.0676255, "name": "9c192887c93a83d773a06e284ad56f72", "bike_id": "9c192887c93a83d773a06e284ad56f72", "fusion_lat": 0.0, "is_reserved": 0, "lat": 38.9037035, "fusion_lon": 0.0, "is_disabled": 0}, {"rental_uris": {"android": "https://dc.lft.to/lastmile_qr_scan", "ios": "https://dc.lft.to/lastmile_qr_scan"}, "type": "electric_scooter", "lon": -77.00598516666666, "name": "d5f11cd29be7f0be9971a2e7a2d77a07", "bike_id": "d5f11cd29be7f0be9971a2e7a2d77a07", "fusion_lat": 0.0, "is_reserved": 0, "lat": 38.90821233333333, "fusion_lon": 0.0, "is_disabled": 0}, {"rental_uris": {"android": "https://dc.lft.to/lastmile_qr_scan", "ios": "https://dc.lft.to/lastmile_qr_scan"}, "type": "electric_scooter", "lon": -77.0487725, "name": "eeabce116f223a4b048b7ff494e7ae9d", "bike_id": "eeabce116f223a4b048b7ff494e7ae9d", "fusion_lat": 0.0, "is_reserved": 0, "lat": 38.900954666666664, "fusion_lon": 0.0, "is_disabled": 0}, {"rental_uris": {"android": "https://dc.lft.to/lastmile_qr_scan", "ios": "https://dc.lft.to/lastmile_qr_scan"}, "type": "electric_scooter", "lon": -77.03670866666667, "name": "a0044ee40b8f35c62b317a008237bac8", "bike_id": "a0044ee40b8f35c62b317a008237bac8", "fusion_lat": 0.0, "is_reserved": 0, "lat": 38.90259116666667, "fusion_lon": 0.0, "is_disabled": 0}, {"rental_uris": {"android": "https://dc.lft.to/lastmile_qr_scan", "ios": "https://dc.lft.to/lastmile_qr_scan"}, "type": "electric_scooter", "lon": -76.9902765, "name": "a8f9e323bcc578d2b1804ca17090c007", "bike_id": "a8f9e323bcc578d2b1804ca17090c007", "fusion_lat": 0.0, "is_reserved": 0, "lat": 38.864068833333334, "fusion_lon": 0.0, "is_disabled": 0}, {"rental_uris": {"android": "https://dc.lft.to/lastmile_qr_scan", "ios": "https://dc.lft.to/lastmile_qr_scan"}, "type": "electric_scooter", "lon": -77.01411433333334, "name": "235431323eca9392d93743ec82312785", "bike_id": "235431323eca9392d93743ec82312785", "fusion_lat": 0.0, "is_reserved": 0, "lat": 38.9280695, "fusion_lon": 0.0, "is_disabled": 0}, {"rental_uris": {"android": "https://dc.lft.to/lastmile_qr_scan", "ios": "https://dc.lft.to/lastmile_qr_scan"}, "type": "electric_scooter", "lon": -77.06095266666667, "name": "aa237577d97742046dda1fd57ee76c87", "bike_id": "aa237577d97742046dda1fd57ee76c87", "fusion_lat": 0.0, "is_reserved": 0, "lat": 38.94370966666666, "fusion_lon": 0.0, "is_disabled": 0}, {"rental_uris": {"android": "https://dc.lft.to/lastmile_qr_scan", "ios": "https://dc.lft.to/lastmile_qr_scan"}, "type": "electric_scooter", "lon": -77.02029466666667, "name": "1dc7bf0eb8f0d7308ddab9bf7d8e1828", "bike_id": "1dc7bf0eb8f0d7308ddab9bf7d8e1828", "fusion_lat": 0.0, "is_reserved": 0, "lat": 38.92429633333333, "fusion_lon": 0.0, "is_disabled": 0}, {"rental_uris": {"android": "https://dc.lft.to/lastmile_qr_scan", "ios": "https://dc.lft.to/lastmile_qr_scan"}, "type": "electric_scooter", "lon": -77.04024116666666, "name": "f75050108c93e178311f9260ea8c7c7a", "bike_id": "f75050108c93e178311f9260ea8c7c7a", "fusion_lat": 0.0, "is_reserved": 0, "lat": 38.903475, "fusion_lon": 0.0, "is_disabled": 0}, {"rental_uris": {"android": "https://dc.lft.to/lastmile_qr_scan", "ios": "https://dc.lft.to/lastmile_qr_scan"}, "type": "electric_scooter", "lon": -77.04409883333334, "name": "08aa76f8f91ff22944f68b1cdd5deb03", "bike_id": "08aa76f8f91ff22944f68b1cdd5deb03", "fusion_lat": 0.0, "is_reserved": 0, "lat": 38.92546316666667, "fusion_lon": 0.0, "is_disabled": 0}, {"rental_uris": {"android": "https://dc.lft.to/lastmile_qr_scan", "ios": "https://dc.lft.to/lastmile_qr_scan"}, "type": "electric_scooter", "lon": -76.997318, "name": "dd828cacc5f342100204e9fda79c872a", "bike_id": "dd828cacc5f342100204e9fda79c872a", "fusion_lat": 0.0, "is_reserved": 0, "lat": 38.8989915, "fusion_lon": 0.0, "is_disabled": 0}, {"rental_uris": {"android": "https://dc.lft.to/lastmile_qr_scan", "ios": "https://dc.lft.to/lastmile_qr_scan"}, "type": "electric_scooter", "lon": -76.99547833333334, "name": "63eaca7c8afc68ebeb17865263fe97e3", "bike_id": "63eaca7c8afc68ebeb17865263fe97e3", "fusion_lat": 0.0, "is_reserved": 0, "lat": 38.88421616666667, "fusion_lon": 0.0, "is_disabled": 0}, {"rental_uris": {"android": "https://dc.lft.to/lastmile_qr_scan", "ios": "https://dc.lft.to/lastmile_qr_scan"}, "type": "electric_bike", "lon": -77.095243, "name": "502a4fd14a654765fbbc616a0307547c", "bike_id": "502a4fd14a654765fbbc616a0307547c", "fusion_lat": 0.0, "is_reserved": 0, "lat": 38.83813833333333, "fusion_lon": 0.0, "is_disabled": 0}, {"rental_uris": {"android": "https://dc.lft.to/lastmile_qr_scan", "ios": "https://dc.lft.to/lastmile_qr_scan"}, "type": "electric_scooter", "lon": -77.04482983333334, "name": "075583c87acfc82ad8fac13e2a02378e", "bike_id": "075583c87acfc82ad8fac13e2a02378e", "fusion_lat": 0.0, "is_reserved": 0, "lat": 38.90114483333333, "fusion_lon": 0.0, "is_disabled": 0}, {"rental_uris": {"android": "https://dc.lft.to/lastmile_qr_scan", "ios": "https://dc.lft.to/lastmile_qr_scan"}, "type": "electric_scooter", "lon": -77.042103, "name": "54e0f9464730d79e4fef8df2e066d4c7", "bike_id": "54e0f9464730d79e4fef8df2e066d4c7", "fusion_lat": 0.0, "is_reserved": 0, "lat": 38.92128616666667, "fusion_lon": 0.0, "is_disabled": 0}, {"rental_uris": {"android": "https://dc.lft.to/lastmile_qr_scan", "ios": "https://dc.lft.to/lastmile_qr_scan"}, "type": "electric_scooter", "lon": -76.933854, "name": "13412656f883f0a356dd64aad468a3fc", "bike_id": "13412656f883f0a356dd64aad468a3fc", "fusion_lat": 0.0, "is_reserved": 0, "lat": 38.89916233333334, "fusion_lon": 0.0, "is_disabled": 0}, {"rental_uris": {"android": "https://dc.lft.to/lastmile_qr_scan", "ios": "https://dc.lft.to/lastmile_qr_scan"}, "type": "electric_bike", "lon": -77.04335466666667, "name": "6b2a469495d978ba443d31f85d411d7d", "bike_id": "6b2a469495d978ba443d31f85d411d7d", "fusion_lat": 0.0, "is_reserved": 0, "lat": 38.906298, "fusion_lon": 0.0, "is_disabled": 0}, {"rental_uris": {"android": "https://dc.lft.to/lastmile_qr_scan", "ios": "https://dc.lft.to/lastmile_qr_scan"}, "type": "electric_scooter", "lon": -77.017322, "name": "0f09f09ba5dd27722f0f8522fb9a226c", "bike_id": "0f09f09ba5dd27722f0f8522fb9a226c", "fusion_lat": 0.0, "is_reserved": 0, "lat": 38.87700983333333, "fusion_lon": 0.0, "is_disabled": 0}, {"rental_uris": {"android": "https://dc.lft.to/lastmile_qr_scan", "ios": "https://dc.lft.to/lastmile_qr_scan"}, "type": "electric_scooter", "lon": -77.04589483333334, "name": "9aab0290e61cca42ef541f2216653037", "bike_id": "9aab0290e61cca42ef541f2216653037", "fusion_lat": 0.0, "is_reserved": 0, "lat": 38.921392166666664, "fusion_lon": 0.0, "is_disabled": 0}, {"rental_uris": {"android": "https://dc.lft.to/lastmile_qr_scan", "ios": "https://dc.lft.to/lastmile_qr_scan"}, "type": "electric_scooter", "lon": -77.00064066666667, "name": "462803e67a4cd9eeca053994c151f369", "bike_id": "462803e67a4cd9eeca053994c151f369", "fusion_lat": 0.0, "is_reserved": 0, "lat": 38.90052816666667, "fusion_lon": 0.0, "is_disabled": 0}, {"rental_uris": {"android": "https://dc.lft.to/lastmile_qr_scan", "ios": "https://dc.lft.to/lastmile_qr_scan"}, "type": "electric_scooter", "lon": -77.0543385, "name": "64a171518a2a6863977ed41678491414", "bike_id": "64a171518a2a6863977ed41678491414", "fusion_lat": 0.0, "is_reserved": 0, "lat": 38.928604666666665, "fusion_lon": 0.0, "is_disabled": 0}, {"rental_uris": {"android": "https://dc.lft.to/lastmile_qr_scan", "ios": "https://dc.lft.to/lastmile_qr_scan"}, "type": "electric_scooter", "lon": -77.05429816666667, "name": "95f86a6c57e450e3020301ea9b286d24", "bike_id": "95f86a6c57e450e3020301ea9b286d24", "fusion_lat": 0.0, "is_reserved": 0, "lat": 38.928618, "fusion_lon": 0.0, "is_disabled": 0}, {"rental_uris": {"android": "https://dc.lft.to/lastmile_qr_scan", "ios": "https://dc.lft.to/lastmile_qr_scan"}, "type": "electric_scooter", "lon": -77.05711033333333, "name": "91d5cb899c8b6d1ba28a85b7059e0546", "bike_id": "91d5cb899c8b6d1ba28a85b7059e0546", "fusion_lat": 0.0, "is_reserved": 0, "lat": 38.911002833333335, "fusion_lon": 0.0, "is_disabled": 0}, {"rental_uris": {"android": "https://dc.lft.to/lastmile_qr_scan", "ios": "https://dc.lft.to/lastmile_qr_scan"}, "type": "electric_scooter", "lon": -77.02176733333333, "name": "07f355444a3c5319e7a40e5edf98c587", "bike_id": "07f355444a3c5319e7a40e5edf98c587", "fusion_lat": 0.0, "is_reserved": 0, "lat": 38.943125, "fusion_lon": 0.0, "is_disabled": 0}, {"rental_uris": {"android": "https://dc.lft.to/lastmile_qr_scan", "ios": "https://dc.lft.to/lastmile_qr_scan"}, "type": "electric_scooter", "lon": -77.03823416666667, "name": "425d7ca278292dca97faec3c7b90235c", "bike_id": "425d7ca278292dca97faec3c7b90235c", "fusion_lat": 0.0, "is_reserved": 0, "lat": 38.9205795, "fusion_lon": 0.0, "is_disabled": 0}, {"rental_uris": {"android": "https://dc.lft.to/lastmile_qr_scan", "ios": "https://dc.lft.to/lastmile_qr_scan"}, "type": "electric_scooter", "lon": -77.03666633333333, "name": "76f4b21f997c2b4afb842223d1bb8dbf", "bike_id": "76f4b21f997c2b4afb842223d1bb8dbf", "fusion_lat": 0.0, "is_reserved": 0, "lat": 38.931742166666666, "fusion_lon": 0.0, "is_disabled": 0}, {"rental_uris": {"android": "https://dc.lft.to/lastmile_qr_scan", "ios": "https://dc.lft.to/lastmile_qr_scan"}, "type": "electric_scooter", "lon": -77.028052, "name": "83414a75cd735d8dafa739f728d172f3", "bike_id": "83414a75cd735d8dafa739f728d172f3", "fusion_lat": 0.0, "is_reserved": 0, "lat": 38.93057116666667, "fusion_lon": 0.0, "is_disabled": 0}, {"rental_uris": {"android": "https://dc.lft.to/lastmile_qr_scan", "ios": "https://dc.lft.to/lastmile_qr_scan"}, "type": "electric_bike", "lon": -77.00596333333333, "name": "aa5a67efe893ba47faf8430504a169cb", "bike_id": "aa5a67efe893ba47faf8430504a169cb", "fusion_lat": 0.0, "is_reserved": 0, "lat": 38.89810216666667, "fusion_lon": 0.0, "is_disabled": 0}, {"rental_uris": {"android": "https://dc.lft.to/lastmile_qr_scan", "ios": "https://dc.lft.to/lastmile_qr_scan"}, "type": "electric_scooter", "lon": -77.03337633333334, "name": "2e2e2dc08a014547dc7c921a77af7582", "bike_id": "2e2e2dc08a014547dc7c921a77af7582", "fusion_lat": 0.0, "is_reserved": 0, "lat": 38.92251316666667, "fusion_lon": 0.0, "is_disabled": 0}, {"rental_uris": {"android": "https://dc.lft.to/lastmile_qr_scan", "ios": "https://dc.lft.to/lastmile_qr_scan"}, "type": "electric_scooter", "lon": -77.00382983333333, "name": "95b0d53ef98097b70986bba9bc6ebd2f", "bike_id": "95b0d53ef98097b70986bba9bc6ebd2f", "fusion_lat": 0.0, "is_reserved": 0, "lat": 38.87938116666667, "fusion_lon": 0.0, "is_disabled": 0}, {"rental_uris": {"android": "https://dc.lft.to/lastmile_qr_scan", "ios": "https://dc.lft.to/lastmile_qr_scan"}, "type": "electric_scooter", "lon": -77.03211433333334, "name": "4c18fa57414307e86733cbd19ede051b", "bike_id": "4c18fa57414307e86733cbd19ede051b", "fusion_lat": 0.0, "is_reserved": 0, "lat": 38.91269033333333, "fusion_lon": 0.0, "is_disabled": 0}, {"rental_uris": {"android": "https://dc.lft.to/lastmile_qr_scan", "ios": "https://dc.lft.to/lastmile_qr_scan"}, "type": "electric_scooter", "lon": -77.01683, "name": "dd9947feeb229a2ed577695308f86a1e", "bike_id": "dd9947feeb229a2ed577695308f86a1e", "fusion_lat": 0.0, "is_reserved": 0, "lat": 38.90247216666667, "fusion_lon": 0.0, "is_disabled": 0}, {"rental_uris": {"android": "https://dc.lft.to/lastmile_qr_scan", "ios": "https://dc.lft.to/lastmile_qr_scan"}, "type": "electric_scooter", "lon": -77.04707433333333, "name": "c298ef0596ef516d4c62dd2c08d09559", "bike_id": "c298ef0596ef516d4c62dd2c08d09559", "fusion_lat": 0.0, "is_reserved": 0, "lat": 38.91265333333333, "fusion_lon": 0.0, "is_disabled": 0}, {"rental_uris": {"android": "https://dc.lft.to/lastmile_qr_scan", "ios": "https://dc.lft.to/lastmile_qr_scan"}, "type": "electric_scooter", "lon": -76.91922966666667, "name": "9acaba28000ed0f716179b084d45eb95", "bike_id": "9acaba28000ed0f716179b084d45eb95", "fusion_lat": 0.0, "is_reserved": 0, "lat": 38.890747, "fusion_lon": 0.0, "is_disabled": 0}, {"rental_uris": {"android": "https://dc.lft.to/lastmile_qr_scan", "ios": "https://dc.lft.to/lastmile_qr_scan"}, "type": "electric_scooter", "lon": -77.03435333333333, "name": "44810a89bf9a49957e1b773c99cc1cdd", "bike_id": "44810a89bf9a49957e1b773c99cc1cdd", "fusion_lat": 0.0, "is_reserved": 0, "lat": 38.904295166666664, "fusion_lon": 0.0, "is_disabled": 0}, {"rental_uris": {"android": "https://dc.lft.to/lastmile_qr_scan", "ios": "https://dc.lft.to/lastmile_qr_scan"}, "type": "electric_scooter", "lon": -77.02830666666667, "name": "58926d728c0aa3970dceab7f588973ba", "bike_id": "58926d728c0aa3970dceab7f588973ba", "fusion_lat": 0.0, "is_reserved": 0, "lat": 38.9508295, "fusion_lon": 0.0, "is_disabled": 0}, {"rental_uris": {"android": "https://dc.lft.to/lastmile_qr_scan", "ios": "https://dc.lft.to/lastmile_qr_scan"}, "type": "electric_scooter", "lon": -77.0529755, "name": "9d34f1dbc5f01616e04b1d2a6d64caef", "bike_id": "9d34f1dbc5f01616e04b1d2a6d64caef", "fusion_lat": 0.0, "is_reserved": 0, "lat": 38.916989666666666, "fusion_lon": 0.0, "is_disabled": 0}, {"rental_uris": {"android": "https://dc.lft.to/lastmile_qr_scan", "ios": "https://dc.lft.to/lastmile_qr_scan"}, "type": "electric_bike", "lon": -77.06986533333334, "name": "7664161ae61f672e0ebdb16046695e8f", "bike_id": "7664161ae61f672e0ebdb16046695e8f", "fusion_lat": 0.0, "is_reserved": 0, "lat": 38.952681, "fusion_lon": 0.0, "is_disabled": 0}, {"rental_uris": {"android": "https://dc.lft.to/lastmile_qr_scan", "ios": "https://dc.lft.to/lastmile_qr_scan"}, "type": "electric_scooter", "lon": -76.99657916666666, "name": "23656dd40827a58030f981b0cd5ce8ff", "bike_id": "23656dd40827a58030f981b0cd5ce8ff", "fusion_lat": 0.0, "is_reserved": 0, "lat": 38.8988125, "fusion_lon": 0.0, "is_disabled": 0}, {"rental_uris": {"android": "https://dc.lft.to/lastmile_qr_scan", "ios": "https://dc.lft.to/lastmile_qr_scan"}, "type": "electric_bike", "lon": -76.99058833333333, "name": "8e3eed08e662e50daed7270b4479cca6", "bike_id": "8e3eed08e662e50daed7270b4479cca6", "fusion_lat": 0.0, "is_reserved": 0, "lat": 38.9368835, "fusion_lon": 0.0, "is_disabled": 0}, {"rental_uris": {"android": "https://dc.lft.to/lastmile_qr_scan", "ios": "https://dc.lft.to/lastmile_qr_scan"}, "type": "electric_scooter", "lon": -77.0246205, "name": "6bd97e299e424e5bfe3f5f5f891e45f2", "bike_id": "6bd97e299e424e5bfe3f5f5f891e45f2", "fusion_lat": 0.0, "is_reserved": 0, "lat": 38.938638166666664, "fusion_lon": 0.0, "is_disabled": 0}, {"rental_uris": {"android": "https://dc.lft.to/lastmile_qr_scan", "ios": "https://dc.lft.to/lastmile_qr_scan"}, "type": "electric_scooter", "lon": -77.01755816666666, "name": "21f59477ba15517159b9608399a98f85", "bike_id": "21f59477ba15517159b9608399a98f85", "fusion_lat": 0.0, "is_reserved": 0, "lat": 38.913535, "fusion_lon": 0.0, "is_disabled": 0}, {"rental_uris": {"android": "https://dc.lft.to/lastmile_qr_scan", "ios": "https://dc.lft.to/lastmile_qr_scan"}, "type": "electric_scooter", "lon": -77.02694983333333, "name": "bfd7be4c7c354edb1f258c4fb8971c92", "bike_id": "bfd7be4c7c354edb1f258c4fb8971c92", "fusion_lat": 0.0, "is_reserved": 0, "lat": 38.91812133333333, "fusion_lon": 0.0, "is_disabled": 0}, {"rental_uris": {"android": "https://dc.lft.to/lastmile_qr_scan", "ios": "https://dc.lft.to/lastmile_qr_scan"}, "type": "electric_scooter", "lon": -77.045075, "name": "26ca56f08e08e7dc6ddaa87cc8098bc3", "bike_id": "26ca56f08e08e7dc6ddaa87cc8098bc3", "fusion_lat": 0.0, "is_reserved": 0, "lat": 38.8922105, "fusion_lon": 0.0, "is_disabled": 0}, {"rental_uris": {"android": "https://dc.lft.to/lastmile_qr_scan", "ios": "https://dc.lft.to/lastmile_qr_scan"}, "type": "electric_scooter", "lon": -77.00891383333334, "name": "d2cff41610cc3343e2ff8fe65a981e09", "bike_id": "d2cff41610cc3343e2ff8fe65a981e09", "fusion_lat": 0.0, "is_reserved": 0, "lat": 38.873554, "fusion_lon": 0.0, "is_disabled": 0}, {"rental_uris": {"android": "https://dc.lft.to/lastmile_qr_scan", "ios": "https://dc.lft.to/lastmile_qr_scan"}, "type": "electric_scooter", "lon": -77.04837416666666, "name": "faf0d812eceb43bc34d1573c4c9c2873", "bike_id": "faf0d812eceb43bc34d1573c4c9c2873", "fusion_lat": 0.0, "is_reserved": 0, "lat": 38.911406166666666, "fusion_lon": 0.0, "is_disabled": 0}, {"rental_uris": {"android": "https://dc.lft.to/lastmile_qr_scan", "ios": "https://dc.lft.to/lastmile_qr_scan"}, "type": "electric_scooter", "lon": -77.03215283333333, "name": "9b56ab33401335e95035b18c90445e88", "bike_id": "9b56ab33401335e95035b18c90445e88", "fusion_lat": 0.0, "is_reserved": 0, "lat": 38.9138345, "fusion_lon": 0.0, "is_disabled": 0}, {"rental_uris": {"android": "https://dc.lft.to/lastmile_qr_scan", "ios": "https://dc.lft.to/lastmile_qr_scan"}, "type": "electric_scooter", "lon": -76.99333216666666, "name": "173834efb345f6a29a85662bae7c088b", "bike_id": "173834efb345f6a29a85662bae7c088b", "fusion_lat": 0.0, "is_reserved": 0, "lat": 38.876472166666666, "fusion_lon": 0.0, "is_disabled": 0}, {"rental_uris": {"android": "https://dc.lft.to/lastmile_qr_scan", "ios": "https://dc.lft.to/lastmile_qr_scan"}, "type": "electric_bike", "lon": -77.11426583333333, "name": "28e1d17d51734e459ea0851d18884edd", "bike_id": "28e1d17d51734e459ea0851d18884edd", "fusion_lat": 0.0, "is_reserved": 0, "lat": 38.8524395, "fusion_lon": 0.0, "is_disabled": 0}, {"rental_uris": {"android": "https://dc.lft.to/lastmile_qr_scan", "ios": "https://dc.lft.to/lastmile_qr_scan"}, "type": "electric_scooter", "lon": -77.01767316666667, "name": "0bd99c44286cc1603c8f7067fb4b1c98", "bike_id": "0bd99c44286cc1603c8f7067fb4b1c98", "fusion_lat": 0.0, "is_reserved": 0, "lat": 38.87294966666666, "fusion_lon": 0.0, "is_disabled": 0}, {"rental_uris": {"android": "https://dc.lft.to/lastmile_qr_scan", "ios": "https://dc.lft.to/lastmile_qr_scan"}, "type": "electric_scooter", "lon": -77.02040466666666, "name": "c10f8509bbea8f3630a002fc79b8a73e", "bike_id": "c10f8509bbea8f3630a002fc79b8a73e", "fusion_lat": 0.0, "is_reserved": 0, "lat": 38.89261583333333, "fusion_lon": 0.0, "is_disabled": 0}, {"rental_uris": {"android": "https://dc.lft.to/lastmile_qr_scan", "ios": "https://dc.lft.to/lastmile_qr_scan"}, "type": "electric_scooter", "lon": -77.0366085, "name": "6243006582f43b7d67c4f37d97ea710e", "bike_id": "6243006582f43b7d67c4f37d97ea710e", "fusion_lat": 0.0, "is_reserved": 0, "lat": 38.91625283333333, "fusion_lon": 0.0, "is_disabled": 0}, {"rental_uris": {"android": "https://dc.lft.to/lastmile_qr_scan", "ios": "https://dc.lft.to/lastmile_qr_scan"}, "type": "electric_scooter", "lon": -77.06347433333333, "name": "bd1793ea40991da5f02a3e00d9098312", "bike_id": "bd1793ea40991da5f02a3e00d9098312", "fusion_lat": 0.0, "is_reserved": 0, "lat": 38.908498, "fusion_lon": 0.0, "is_disabled": 0}, {"rental_uris": {"android": "https://dc.lft.to/lastmile_qr_scan", "ios": "https://dc.lft.to/lastmile_qr_scan"}, "type": "electric_scooter", "lon": -76.9976135, "name": "c1e47272ab4f5b2d2955627ddc257310", "bike_id": "c1e47272ab4f5b2d2955627ddc257310", "fusion_lat": 0.0, "is_reserved": 0, "lat": 38.92279333333333, "fusion_lon": 0.0, "is_disabled": 0}, {"rental_uris": {"android": "https://dc.lft.to/lastmile_qr_scan", "ios": "https://dc.lft.to/lastmile_qr_scan"}, "type": "electric_scooter", "lon": -77.0216875, "name": "ad2688981be55486edbf622745e6d452", "bike_id": "ad2688981be55486edbf622745e6d452", "fusion_lat": 0.0, "is_reserved": 0, "lat": 38.9408395, "fusion_lon": 0.0, "is_disabled": 0}, {"rental_uris": {"android": "https://dc.lft.to/lastmile_qr_scan", "ios": "https://dc.lft.to/lastmile_qr_scan"}, "type": "electric_scooter", "lon": -77.03666666666666, "name": "fd27a1862a3b909d5c8e54ce075f1848", "bike_id": "fd27a1862a3b909d5c8e54ce075f1848", "fusion_lat": 0.0, "is_reserved": 0, "lat": 38.922612, "fusion_lon": 0.0, "is_disabled": 0}, {"rental_uris": {"android": "https://dc.lft.to/lastmile_qr_scan", "ios": "https://dc.lft.to/lastmile_qr_scan"}, "type": "electric_scooter", "lon": -76.997313, "name": "ebb14f0ac15ad12004a63e0ef912577b", "bike_id": "ebb14f0ac15ad12004a63e0ef912577b", "fusion_lat": 0.0, "is_reserved": 0, "lat": 38.90793766666667, "fusion_lon": 0.0, "is_disabled": 0}, {"rental_uris": {"android": "https://dc.lft.to/lastmile_qr_scan", "ios": "https://dc.lft.to/lastmile_qr_scan"}, "type": "electric_scooter", "lon": -77.02964466666667, "name": "8302efd4db224b98a5d5b674626a734b", "bike_id": "8302efd4db224b98a5d5b674626a734b", "fusion_lat": 0.0, "is_reserved": 0, "lat": 38.898659333333335, "fusion_lon": 0.0, "is_disabled": 0}, {"rental_uris": {"android": "https://dc.lft.to/lastmile_qr_scan", "ios": "https://dc.lft.to/lastmile_qr_scan"}, "type": "electric_scooter", "lon": -77.02938, "name": "22a6fdaa13cd69194ca88e7ad7a1b915", "bike_id": "22a6fdaa13cd69194ca88e7ad7a1b915", "fusion_lat": 0.0, "is_reserved": 0, "lat": 38.904901333333335, "fusion_lon": 0.0, "is_disabled": 0}, {"rental_uris": {"android": "https://dc.lft.to/lastmile_qr_scan", "ios": "https://dc.lft.to/lastmile_qr_scan"}, "type": "electric_scooter", "lon": -77.026932, "name": "f0292ee166a2af7ef66b82b9896d37ba", "bike_id": "f0292ee166a2af7ef66b82b9896d37ba", "fusion_lat": 0.0, "is_reserved": 0, "lat": 38.91271316666667, "fusion_lon": 0.0, "is_disabled": 0}, {"rental_uris": {"android": "https://dc.lft.to/lastmile_qr_scan", "ios": "https://dc.lft.to/lastmile_qr_scan"}, "type": "electric_scooter", "lon": -77.032092, "name": "cc2e9b30718fa1b78d113996172e9eff", "bike_id": "cc2e9b30718fa1b78d113996172e9eff", "fusion_lat": 0.0, "is_reserved": 0, "lat": 38.917172666666666, "fusion_lon": 0.0, "is_disabled": 0}, {"rental_uris": {"android": "https://dc.lft.to/lastmile_qr_scan", "ios": "https://dc.lft.to/lastmile_qr_scan"}, "type": "electric_scooter", "lon": -76.98365833333334, "name": "7ba66d5c90067c9dc6fc52e77316ec82", "bike_id": "7ba66d5c90067c9dc6fc52e77316ec82", "fusion_lat": 0.0, "is_reserved": 0, "lat": 38.864800333333335, "fusion_lon": 0.0, "is_disabled": 0}, {"rental_uris": {"android": "https://dc.lft.to/lastmile_qr_scan", "ios": "https://dc.lft.to/lastmile_qr_scan"}, "type": "electric_scooter", "lon": -77.040944, "name": "9c09a9e10706be5005460cf9b7787047", "bike_id": "9c09a9e10706be5005460cf9b7787047", "fusion_lat": 0.0, "is_reserved": 0, "lat": 38.90508283333333, "fusion_lon": 0.0, "is_disabled": 0}, {"rental_uris": {"android": "https://dc.lft.to/lastmile_qr_scan", "ios": "https://dc.lft.to/lastmile_qr_scan"}, "type": "electric_bike", "lon": -76.99766916666667, "name": "98f0cbd050085d2f3a78d8d86681f0ed", "bike_id": "98f0cbd050085d2f3a78d8d86681f0ed", "fusion_lat": 0.0, "is_reserved": 0, "lat": 39.0059, "fusion_lon": 0.0, "is_disabled": 0}, {"rental_uris": {"android": "https://dc.lft.to/lastmile_qr_scan", "ios": "https://dc.lft.to/lastmile_qr_scan"}, "type": "electric_scooter", "lon": -77.04963683333334, "name": "43fdcca474691f6912b9f1da2a365a1a", "bike_id": "43fdcca474691f6912b9f1da2a365a1a", "fusion_lat": 0.0, "is_reserved": 0, "lat": 38.900956, "fusion_lon": 0.0, "is_disabled": 0}, {"rental_uris": {"android": "https://dc.lft.to/lastmile_qr_scan", "ios": "https://dc.lft.to/lastmile_qr_scan"}, "type": "electric_scooter", "lon": -77.03214566666666, "name": "39cf02f099219c84a89df5d148b36f84", "bike_id": "39cf02f099219c84a89df5d148b36f84", "fusion_lat": 0.0, "is_reserved": 0, "lat": 38.907627833333336, "fusion_lon": 0.0, "is_disabled": 0}, {"rental_uris": {"android": "https://dc.lft.to/lastmile_qr_scan", "ios": "https://dc.lft.to/lastmile_qr_scan"}, "type": "electric_scooter", "lon": -76.99630683333334, "name": "12173045662022eb278be09ff7b8b148", "bike_id": "12173045662022eb278be09ff7b8b148", "fusion_lat": 0.0, "is_reserved": 0, "lat": 38.84617466666667, "fusion_lon": 0.0, "is_disabled": 0}, {"rental_uris": {"android": "https://dc.lft.to/lastmile_qr_scan", "ios": "https://dc.lft.to/lastmile_qr_scan"}, "type": "electric_scooter", "lon": -77.04430316666667, "name": "bd05ea5ae3a0e89444be57d72c4f1098", "bike_id": "bd05ea5ae3a0e89444be57d72c4f1098", "fusion_lat": 0.0, "is_reserved": 0, "lat": 38.905612166666664, "fusion_lon": 0.0, "is_disabled": 0}, {"rental_uris": {"android": "https://dc.lft.to/lastmile_qr_scan", "ios": "https://dc.lft.to/lastmile_qr_scan"}, "type": "electric_bike", "lon": -77.12405866666667, "name": "aebcffb9a4589f494554124a009d3ae3", "bike_id": "aebcffb9a4589f494554124a009d3ae3", "fusion_lat": 0.0, "is_reserved": 0, "lat": 38.8932915, "fusion_lon": 0.0, "is_disabled": 0}, {"rental_uris": {"android": "https://dc.lft.to/lastmile_qr_scan", "ios": "https://dc.lft.to/lastmile_qr_scan"}, "type": "electric_bike", "lon": -77.03174283333334, "name": "0f4f2f5af7039eb56d1ca9f6748bf100", "bike_id": "0f4f2f5af7039eb56d1ca9f6748bf100", "fusion_lat": 0.0, "is_reserved": 0, "lat": 38.90453316666667, "fusion_lon": 0.0, "is_disabled": 0}, {"rental_uris": {"android": "https://dc.lft.to/lastmile_qr_scan", "ios": "https://dc.lft.to/lastmile_qr_scan"}, "type": "electric_scooter", "lon": -77.00222666666667, "name": "b79576bb29516617dd8155cfab9be2e4", "bike_id": "b79576bb29516617dd8155cfab9be2e4", "fusion_lat": 0.0, "is_reserved": 0, "lat": 38.902454166666665, "fusion_lon": 0.0, "is_disabled": 0}, {"rental_uris": {"android": "https://dc.lft.to/lastmile_qr_scan", "ios": "https://dc.lft.to/lastmile_qr_scan"}, "type": "electric_scooter", "lon": -76.936746, "name": "8f49d5934296ad3111b4510d4fb9d0f4", "bike_id": "8f49d5934296ad3111b4510d4fb9d0f4", "fusion_lat": 0.0, "is_reserved": 0, "lat": 38.88753533333333, "fusion_lon": 0.0, "is_disabled": 0}, {"rental_uris": {"android": "https://dc.lft.to/lastmile_qr_scan", "ios": "https://dc.lft.to/lastmile_qr_scan"}, "type": "electric_scooter", "lon": -77.03625833333334, "name": "e9b74fdb8461ee4da9f905ff56bfb4ee", "bike_id": "e9b74fdb8461ee4da9f905ff56bfb4ee", "fusion_lat": 0.0, "is_reserved": 0, "lat": 38.931544833333334, "fusion_lon": 0.0, "is_disabled": 0}, {"rental_uris": {"android": "https://dc.lft.to/lastmile_qr_scan", "ios": "https://dc.lft.to/lastmile_qr_scan"}, "type": "electric_scooter", "lon": -77.03423316666667, "name": "2a9d152353276082f9a2f9281b011b03", "bike_id": "2a9d152353276082f9a2f9281b011b03", "fusion_lat": 0.0, "is_reserved": 0, "lat": 38.919201, "fusion_lon": 0.0, "is_disabled": 0}, {"rental_uris": {"android": "https://dc.lft.to/lastmile_qr_scan", "ios": "https://dc.lft.to/lastmile_qr_scan"}, "type": "electric_scooter", "lon": -77.05885, "name": "55171293c82afd52e8ee02e548e33050", "bike_id": "55171293c82afd52e8ee02e548e33050", "fusion_lat": 0.0, "is_reserved": 0, "lat": 38.936348833333334, "fusion_lon": 0.0, "is_disabled": 0}, {"rental_uris": {"android": "https://dc.lft.to/lastmile_qr_scan", "ios": "https://dc.lft.to/lastmile_qr_scan"}, "type": "electric_scooter", "lon": -76.96507016666666, "name": "bcc0c95b2744d63513a45d585573c330", "bike_id": "bcc0c95b2744d63513a45d585573c330", "fusion_lat": 0.0, "is_reserved": 0, "lat": 38.87645, "fusion_lon": 0.0, "is_disabled": 0}, {"rental_uris": {"android": "https://dc.lft.to/lastmile_qr_scan", "ios": "https://dc.lft.to/lastmile_qr_scan"}, "type": "electric_scooter", "lon": -77.04991733333334, "name": "251a465d36da7c61f54217f239345e7e", "bike_id": "251a465d36da7c61f54217f239345e7e", "fusion_lat": 0.0, "is_reserved": 0, "lat": 38.90517833333333, "fusion_lon": 0.0, "is_disabled": 0}, {"rental_uris": {"android": "https://dc.lft.to/lastmile_qr_scan", "ios": "https://dc.lft.to/lastmile_qr_scan"}, "type": "electric_scooter", "lon": -77.03283616666667, "name": "c4474bc0d3267dbdbd128025284a52b9", "bike_id": "c4474bc0d3267dbdbd128025284a52b9", "fusion_lat": 0.0, "is_reserved": 0, "lat": 38.93681183333333, "fusion_lon": 0.0, "is_disabled": 0}, {"rental_uris": {"android": "https://dc.lft.to/lastmile_qr_scan", "ios": "https://dc.lft.to/lastmile_qr_scan"}, "type": "electric_bike", "lon": -76.98119666666666, "name": "df8d1df034269979ff4e3a2e593b3947", "bike_id": "df8d1df034269979ff4e3a2e593b3947", "fusion_lat": 0.0, "is_reserved": 0, "lat": 38.89668433333333, "fusion_lon": 0.0, "is_disabled": 0}, {"rental_uris": {"android": "https://dc.lft.to/lastmile_qr_scan", "ios": "https://dc.lft.to/lastmile_qr_scan"}, "type": "electric_scooter", "lon": -77.04172883333334, "name": "577693a2105dce75b273a588f1b2db3e", "bike_id": "577693a2105dce75b273a588f1b2db3e", "fusion_lat": 0.0, "is_reserved": 0, "lat": 38.902964833333336, "fusion_lon": 0.0, "is_disabled": 0}, {"rental_uris": {"android": "https://dc.lft.to/lastmile_qr_scan", "ios": "https://dc.lft.to/lastmile_qr_scan"}, "type": "electric_bike", "lon": -77.1123745, "name": "41a63a65f9441c89f50390774c760564", "bike_id": "41a63a65f9441c89f50390774c760564", "fusion_lat": 0.0, "is_reserved": 0, "lat": 38.81226766666666, "fusion_lon": 0.0, "is_disabled": 0}, {"rental_uris": {"android": "https://dc.lft.to/lastmile_qr_scan", "ios": "https://dc.lft.to/lastmile_qr_scan"}, "type": "electric_scooter", "lon": -77.03753066666667, "name": "0508c47cd2a9136157f7ff5658b7e52d", "bike_id": "0508c47cd2a9136157f7ff5658b7e52d", "fusion_lat": 0.0, "is_reserved": 0, "lat": 38.9292905, "fusion_lon": 0.0, "is_disabled": 0}, {"rental_uris": {"android": "https://dc.lft.to/lastmile_qr_scan", "ios": "https://dc.lft.to/lastmile_qr_scan"},