{"data": {"bikes": [{"is_disabled": 0, "rental_uris": {"android": "https://dc.lft.to/lastmile_qr_scan", "ios": "https://dc.lft.to/lastmile_qr_scan"}, "is_reserved": 0, "name": "7967f600edd0d29168f5f37d0c4ca667", "lon": -77.0319765, "type": "electric_scooter", "bike_id": "7967f600edd0d29168f5f37d0c4ca667", "fusion_lon": 0.0, "lat": 38.9182835, "fusion_lat": 0.0}, {"is_disabled": 0, "rental_uris": {"android": "https://dc.lft.to/lastmile_qr_scan", "ios": "https://dc.lft.to/lastmile_qr_scan"}, "is_reserved": 0, "name": "ec4d558f1f9dc76d994f35d3cdc38e5c", "lon": -77.00203866666666, "type": "electric_scooter", "bike_id": "ec4d558f1f9dc76d994f35d3cdc38e5c", "fusion_lon": 0.0, "lat": 38.886786, "fusion_lat": 0.0}, {"is_disabled": 0, "rental_uris": {"android": "https://dc.lft.to/lastmile_qr_scan", "ios": "https://dc.lft.to/lastmile_qr_scan"}, "is_reserved": 0, "name": "80ed7e6ada3fe21faab03203ddfdec82", "lon": -77.00797566666667, "type": "electric_scooter", "bike_id": "80ed7e6ada3fe21faab03203ddfdec82", "fusion_lon": 0.0, "lat": 38.89714983333333, "fusion_lat": 0.0}, {"is_disabled": 0, "rental_uris": {"android": "https://dc.lft.to/lastmile_qr_scan", "ios": "https://dc.lft.to/lastmile_qr_scan"}, "is_reserved": 0, "name": "a4ac33249de1bfebdfefab5605085c1d", "lon": -77.04901533333333, "type": "electric_bike", "bike_id": "a4ac33249de1bfebdfefab5605085c1d", "fusion_lon": 0.0, "lat": 38.874939, "fusion_lat": 0.0}, {"is_disabled": 0, "rental_uris": {"android": "https://dc.lft.to/lastmile_qr_scan", "ios": "https://dc.lft.to/lastmile_qr_scan"}, "is_reserved": 0, "name": "cb65dba9eceea684a694125e4e414e2d", "lon": -77.01409883333334, "type": "electric_scooter", "bike_id": "cb65dba9eceea684a694125e4e414e2d", "fusion_lon": 0.0, "lat": 38.927925, "fusion_lat": 0.0}, {"is_disabled": 0, "rental_uris": {"android": "https://dc.lft.to/lastmile_qr_scan", "ios": "https://dc.lft.to/lastmile_qr_scan"}, "is_reserved": 0, "name": "0cd4aa635ccdb6543c561b1d4ffabce1", "lon": -77.05512033333333, "type": "electric_scooter", "bike_id": "0cd4aa635ccdb6543c561b1d4ffabce1", "fusion_lon": 0.0, "lat": 38.9298, "fusion_lat": 0.0}, {"is_disabled": 0, "rental_uris": {"android": "https://dc.lft.to/lastmile_qr_scan", "ios": "https://dc.lft.to/lastmile_qr_scan"}, "is_reserved": 0, "name": "abe161b11c491648ccd54119a61101a9", "lon": -77.021545, "type": "electric_scooter", "bike_id": "abe161b11c491648ccd54119a61101a9", "fusion_lon": 0.0, "lat": 38.92603416666667, "fusion_lat": 0.0}, {"is_disabled": 0, "rental_uris": {"android": "https://dc.lft.to/lastmile_qr_scan", "ios": "https://dc.lft.to/lastmile_qr_scan"}, "is_reserved": 0, "name": "fcaf89cc41fd5606cfa7c6ef913e59f5", "lon": -77.03640516666667, "type": "electric_scooter", "bike_id": "fcaf89cc41fd5606cfa7c6ef913e59f5", "fusion_lon": 0.0, "lat": 38.9181295, "fusion_lat": 0.0}, {"is_disabled": 0, "rental_uris": {"android": "https://dc.lft.to/lastmile_qr_scan", "ios": "https://dc.lft.to/lastmile_qr_scan"}, "is_reserved": 0, "name": "bc8a62bd3328deb13617a93a9f45e994", "lon": -77.01785733333334, "type": "electric_scooter", "bike_id": "bc8a62bd3328deb13617a93a9f45e994", "fusion_lon": 0.0, "lat": 38.94121833333333, "fusion_lat": 0.0}, {"is_disabled": 0, "rental_uris": {"android": "https://dc.lft.to/lastmile_qr_scan", "ios": "https://dc.lft.to/lastmile_qr_scan"}, "is_reserved": 0, "name": "c78f4a38e2168000c880ece56b7f93b5", "lon": -77.0238965, "type": "electric_scooter", "bike_id": "c78f4a38e2168000c880ece56b7f93b5", "fusion_lon": 0.0, "lat": 38.908689333333335, "fusion_lat": 0.0}, {"is_disabled": 0, "rental_uris": {"android": "https://dc.lft.to/lastmile_qr_scan", "ios": "https://dc.lft.to/lastmile_qr_scan"}, "is_reserved": 0, "name": "25d7b3e67b33dde9adf0eed8ffd29a99", "lon": -77.02799166666667, "type": "electric_scooter", "bike_id": "25d7b3e67b33dde9adf0eed8ffd29a99", "fusion_lon": 0.0, "lat": 38.96206816666667, "fusion_lat": 0.0}, {"is_disabled": 0, "rental_uris": {"android": "https://dc.lft.to/lastmile_qr_scan", "ios": "https://dc.lft.to/lastmile_qr_scan"}, "is_reserved": 0, "name": "c4106243bb509d840760846525a66a75", "lon": -77.03825133333333, "type": "electric_scooter", "bike_id": "c4106243bb509d840760846525a66a75", "fusion_lon": 0.0, "lat": 38.91481783333333, "fusion_lat": 0.0}, {"is_disabled": 0, "rental_uris": {"android": "https://dc.lft.to/lastmile_qr_scan", "ios": "https://dc.lft.to/lastmile_qr_scan"}, "is_reserved": 0, "name": "ea0aaad621d05e644082b501236c3900", "lon": -77.100267, "type": "electric_bike", "bike_id": "ea0aaad621d05e644082b501236c3900", "fusion_lon": 0.0, "lat": 38.9906015, "fusion_lat": 0.0}, {"is_disabled": 0, "rental_uris": {"android": "https://dc.lft.to/lastmile_qr_scan", "ios": "https://dc.lft.to/lastmile_qr_scan"}, "is_reserved": 0, "name": "bb6c3f76b8e78d074a0f7991eb83d4f7", "lon": -77.03524133333333, "type": "electric_scooter", "bike_id": "bb6c3f76b8e78d074a0f7991eb83d4f7", "fusion_lon": 0.0, "lat": 38.9215615, "fusion_lat": 0.0}, {"is_disabled": 0, "rental_uris": {"android": "https://dc.lft.to/lastmile_qr_scan", "ios": "https://dc.lft.to/lastmile_qr_scan"}, "is_reserved": 0, "name": "6a33c4ed3f57048715abdc137131a3a7", "lon": -77.022959, "type": "electric_scooter", "bike_id": "6a33c4ed3f57048715abdc137131a3a7", "fusion_lon": 0.0, "lat": 38.917002, "fusion_lat": 0.0}, {"is_disabled": 0, "rental_uris": {"android": "https://dc.lft.to/lastmile_qr_scan", "ios": "https://dc.lft.to/lastmile_qr_scan"}, "is_reserved": 0, "name": "dd48a08525ff0cfd9b9681f288ab1104", "lon": -76.874966, "type": "electric_bike", "bike_id": "dd48a08525ff0cfd9b9681f288ab1104", "fusion_lon": 0.0, "lat": 38.99091, "fusion_lat": 0.0}, {"is_disabled": 0, "rental_uris": {"android": "https://dc.lft.to/lastmile_qr_scan", "ios": "https://dc.lft.to/lastmile_qr_scan"}, "is_reserved": 0, "name": "4a64a39f61a26d6061fd5b560dd018d8", "lon": -77.01948633333333, "type": "electric_scooter", "bike_id": "4a64a39f61a26d6061fd5b560dd018d8", "fusion_lon": 0.0, "lat": 38.88404466666667, "fusion_lat": 0.0}, {"is_disabled": 0, "rental_uris": {"android": "https://dc.lft.to/lastmile_qr_scan", "ios": "https://dc.lft.to/lastmile_qr_scan"}, "is_reserved": 0, "name": "adcc594e45144156ff74c458b0a9a689", "lon": -77.0486915, "type": "electric_scooter", "bike_id": "adcc594e45144156ff74c458b0a9a689", "fusion_lon": 0.0, "lat": 38.910184666666666, "fusion_lat": 0.0}, {"is_disabled": 0, "rental_uris": {"android": "https://dc.lft.to/lastmile_qr_scan", "ios": "https://dc.lft.to/lastmile_qr_scan"}, "is_reserved": 0, "name": "deb35f16ad53be9b069debe0f3f0016e", "lon": -77.037852, "type": "electric_scooter", "bike_id": "deb35f16ad53be9b069debe0f3f0016e", "fusion_lon": 0.0, "lat": 38.9360895, "fusion_lat": 0.0}, {"is_disabled": 0, "rental_uris": {"android": "https://dc.lft.to/lastmile_qr_scan", "ios": "https://dc.lft.to/lastmile_qr_scan"}, "is_reserved": 0, "name": "aa6d12e477bb72e543b162dcb397888e", "lon": -76.90967533333334, "type": "electric_bike", "bike_id": "aa6d12e477bb72e543b162dcb397888e", "fusion_lon": 0.0, "lat": 38.85429583333333, "fusion_lat": 0.0}, {"is_disabled": 0, "rental_uris": {"android": "https://dc.lft.to/lastmile_qr_scan", "ios": "https://dc.lft.to/lastmile_qr_scan"}, "is_reserved": 0, "name": "eafcd453116934426bf6a275f9cc15c5", "lon": -77.03919966666666, "type": "electric_scooter", "bike_id": "eafcd453116934426bf6a275f9cc15c5", "fusion_lon": 0.0, "lat": 38.89852666666667, "fusion_lat": 0.0}, {"is_disabled": 0, "rental_uris": {"android": "https://dc.lft.to/lastmile_qr_scan", "ios": "https://dc.lft.to/lastmile_qr_scan"}, "is_reserved": 0, "name": "279ed8058ffab7ea0cfd858c53be6c33", "lon": -77.06111116666666, "type": "electric_scooter", "bike_id": "279ed8058ffab7ea0cfd858c53be6c33", "fusion_lon": 0.0, "lat": 38.943732, "fusion_lat": 0.0}, {"is_disabled": 0, "rental_uris": {"android": "https://dc.lft.to/lastmile_qr_scan", "ios": "https://dc.lft.to/lastmile_qr_scan"}, "is_reserved": 0, "name": "c22f2f32364745568147b94712fcca8f", "lon": -77.05297333333333, "type": "electric_scooter", "bike_id": "c22f2f32364745568147b94712fcca8f", "fusion_lon": 0.0, "lat": 38.903383166666664, "fusion_lat": 0.0}, {"is_disabled": 0, "rental_uris": {"android": "https://dc.lft.to/lastmile_qr_scan", "ios": "https://dc.lft.to/lastmile_qr_scan"}, "is_reserved": 0, "name": "b1db15c931ea0d516921e48508e35a78", "lon": -77.03056983333333, "type": "electric_scooter", "bike_id": "b1db15c931ea0d516921e48508e35a78", "fusion_lon": 0.0, "lat": 38.90110833333333, "fusion_lat": 0.0}, {"is_disabled": 0, "rental_uris": {"android": "https://dc.lft.to/lastmile_qr_scan", "ios": "https://dc.lft.to/lastmile_qr_scan"}, "is_reserved": 0, "name": "79deffb2d2aa066c13315637123062ed", "lon": -77.05133466666666, "type": "electric_scooter", "bike_id": "79deffb2d2aa066c13315637123062ed", "fusion_lon": 0.0, "lat": 38.90708716666666, "fusion_lat": 0.0}, {"is_disabled": 0, "rental_uris": {"android": "https://dc.lft.to/lastmile_qr_scan", "ios": "https://dc.lft.to/lastmile_qr_scan"}, "is_reserved": 0, "name": "b2213ffbc41166bd6b1daf39cf9fe10a", "lon": -77.008056, "type": "electric_bike", "bike_id": "b2213ffbc41166bd6b1daf39cf9fe10a", "fusion_lon": 0.0, "lat": 38.953400333333335, "fusion_lat": 0.0}, {"is_disabled": 0, "rental_uris": {"android": "https://dc.lft.to/lastmile_qr_scan", "ios": "https://dc.lft.to/lastmile_qr_scan"}, "is_reserved": 0, "name": "e1e56bf07a020b5d441a235d51a6f160", "lon": -77.05173016666667, "type": "electric_scooter", "bike_id": "e1e56bf07a020b5d441a235d51a6f160", "fusion_lon": 0.0, "lat": 38.903235, "fusion_lat": 0.0}, {"is_disabled": 0, "rental_uris": {"android": "https://dc.lft.to/lastmile_qr_scan", "ios": "https://dc.lft.to/lastmile_qr_scan"}, "is_reserved": 0, "name": "771a0c69b0bf2dab5d8bcab0520e80e1", "lon": -77.0101405, "type": "electric_scooter", "bike_id": "771a0c69b0bf2dab5d8bcab0520e80e1", "fusion_lon": 0.0, "lat": 38.8671405, "fusion_lat": 0.0}, {"is_disabled": 0, "rental_uris": {"android": "https://dc.lft.to/lastmile_qr_scan", "ios": "https://dc.lft.to/lastmile_qr_scan"}, "is_reserved": 0, "name": "6f7821b23a22d1da3c4668ee30098f39", "lon": -76.941545, "type": "electric_scooter", "bike_id": "6f7821b23a22d1da3c4668ee30098f39", "fusion_lon": 0.0, "lat": 38.883644833333335, "fusion_lat": 0.0}, {"is_disabled": 0, "rental_uris": {"android": "https://dc.lft.to/lastmile_qr_scan", "ios": "https://dc.lft.to/lastmile_qr_scan"}, "is_reserved": 0, "name": "666718e302847582ac1b90a91050f6d9", "lon": -77.01410066666666, "type": "electric_scooter", "bike_id": "666718e302847582ac1b90a91050f6d9", "fusion_lon": 0.0, "lat": 38.928045166666664, "fusion_lat": 0.0}, {"is_disabled": 0, "rental_uris": {"android": "https://dc.lft.to/lastmile_qr_scan", "ios": "https://dc.lft.to/lastmile_qr_scan"}, "is_reserved": 0, "name": "4b0ec53b7b7bc77daa9939564800638c", "lon": -77.03217883333333, "type": "electric_scooter", "bike_id": "4b0ec53b7b7bc77daa9939564800638c", "fusion_lon": 0.0, "lat": 38.924744833333335, "fusion_lat": 0.0}, {"is_disabled": 0, "rental_uris": {"android": "https://dc.lft.to/lastmile_qr_scan", "ios": "https://dc.lft.to/lastmile_qr_scan"}, "is_reserved": 0, "name": "c5216736e23ff0f643708383eb35e9ac", "lon": -76.93737016666667, "type": "electric_scooter", "bike_id": "c5216736e23ff0f643708383eb35e9ac", "fusion_lon": 0.0, "lat": 38.89009566666667, "fusion_lat": 0.0}, {"is_disabled": 0, "rental_uris": {"android": "https://dc.lft.to/lastmile_qr_scan", "ios": "https://dc.lft.to/lastmile_qr_scan"}, "is_reserved": 0, "name": "be2f89811e2fdda0b8863f606635aaec", "lon": -77.04160066666667, "type": "electric_scooter", "bike_id": "be2f89811e2fdda0b8863f606635aaec", "fusion_lon": 0.0, "lat": 38.89876683333333, "fusion_lat": 0.0}, {"is_disabled": 0, "rental_uris": {"android": "https://dc.lft.to/lastmile_qr_scan", "ios": "https://dc.lft.to/lastmile_qr_scan"}, "is_reserved": 0, "name": "3d9b8ece9e057ec5976e6fe94dc1cd95", "lon": -76.93745116666666, "type": "electric_scooter", "bike_id": "3d9b8ece9e057ec5976e6fe94dc1cd95", "fusion_lon": 0.0, "lat": 38.890116166666665, "fusion_lat": 0.0}, {"is_disabled": 0, "rental_uris": {"android": "https://dc.lft.to/lastmile_qr_scan", "ios": "https://dc.lft.to/lastmile_qr_scan"}, "is_reserved": 0, "name": "0e0f325cb042bce8c6d7cd4cce99d07e", "lon": -77.042032, "type": "electric_scooter", "bike_id": "0e0f325cb042bce8c6d7cd4cce99d07e", "fusion_lon": 0.0, "lat": 38.9112625, "fusion_lat": 0.0}, {"is_disabled": 0, "rental_uris": {"android": "https://dc.lft.to/lastmile_qr_scan", "ios": "https://dc.lft.to/lastmile_qr_scan"}, "is_reserved": 0, "name": "0742b1dfe79fbed401dcb960b3e52a38", "lon": -77.054163, "type": "electric_scooter", "bike_id": "0742b1dfe79fbed401dcb960b3e52a38", "fusion_lon": 0.0, "lat": 38.928242166666664, "fusion_lat": 0.0}, {"is_disabled": 0, "rental_uris": {"android": "https://dc.lft.to/lastmile_qr_scan", "ios": "https://dc.lft.to/lastmile_qr_scan"}, "is_reserved": 0, "name": "8a973b1963cd2256fcef467b39fdcbcc", "lon": -77.05513133333334, "type": "electric_bike", "bike_id": "8a973b1963cd2256fcef467b39fdcbcc", "fusion_lon": 0.0, "lat": 38.910560333333336, "fusion_lat": 0.0}, {"is_disabled": 0, "rental_uris": {"android": "https://dc.lft.to/lastmile_qr_scan", "ios": "https://dc.lft.to/lastmile_qr_scan"}, "is_reserved": 0, "name": "d34eb0880a04ba52c4ba4b99abacbe78", "lon": -76.9731275, "type": "electric_bike", "bike_id": "d34eb0880a04ba52c4ba4b99abacbe78", "fusion_lon": 0.0, "lat": 38.8656645, "fusion_lat": 0.0}, {"is_disabled": 0, "rental_uris": {"android": "https://dc.lft.to/lastmile_qr_scan", "ios": "https://dc.lft.to/lastmile_qr_scan"}, "is_reserved": 0, "name": "a1ab1cae5678b536adc3ba39b30fcb08", "lon": -77.00599133333333, "type": "electric_bike", "bike_id": "a1ab1cae5678b536adc3ba39b30fcb08", "fusion_lon": 0.0, "lat": 38.89811983333333, "fusion_lat": 0.0}, {"is_disabled": 0, "rental_uris": {"android": "https://dc.lft.to/lastmile_qr_scan", "ios": "https://dc.lft.to/lastmile_qr_scan"}, "is_reserved": 0, "name": "abe6e89d316f9be0f2ede88e368853f8", "lon": -77.04661333333334, "type": "electric_scooter", "bike_id": "abe6e89d316f9be0f2ede88e368853f8", "fusion_lon": 0.0, "lat": 38.90348566666667, "fusion_lat": 0.0}, {"is_disabled": 0, "rental_uris": {"android": "https://dc.lft.to/lastmile_qr_scan", "ios": "https://dc.lft.to/lastmile_qr_scan"}, "is_reserved": 0, "name": "dec214916980d22f5ac8ffb5d4f03cd7", "lon": -76.99398516666666, "type": "electric_scooter", "bike_id": "dec214916980d22f5ac8ffb5d4f03cd7", "fusion_lon": 0.0, "lat": 38.921649333333335, "fusion_lat": 0.0}, {"is_disabled": 0, "rental_uris": {"android": "https://dc.lft.to/lastmile_qr_scan", "ios": "https://dc.lft.to/lastmile_qr_scan"}, "is_reserved": 0, "name": "786948581c0ac8eb1c8b3cee06470967", "lon": -77.0527455, "type": "electric_scooter", "bike_id": "786948581c0ac8eb1c8b3cee06470967", "fusion_lon": 0.0, "lat": 38.9225015, "fusion_lat": 0.0}, {"is_disabled": 0, "rental_uris": {"android": "https://dc.lft.to/lastmile_qr_scan", "ios": "https://dc.lft.to/lastmile_qr_scan"}, "is_reserved": 0, "name": "f780207cd7b146480ab6542dbe98a5c9", "lon": -77.044192, "type": "electric_scooter", "bike_id": "f780207cd7b146480ab6542dbe98a5c9", "fusion_lon": 0.0, "lat": 38.909380166666665, "fusion_lat": 0.0}, {"is_disabled": 0, "rental_uris": {"android": "https://dc.lft.to/lastmile_qr_scan", "ios": "https://dc.lft.to/lastmile_qr_scan"}, "is_reserved": 0, "name": "78bb008a074819b841d20277abf2df3f", "lon": -77.03448666666667, "type": "electric_scooter", "bike_id": "78bb008a074819b841d20277abf2df3f", "fusion_lon": 0.0, "lat": 38.93357266666667, "fusion_lat": 0.0}, {"is_disabled": 0, "rental_uris": {"android": "https://dc.lft.to/lastmile_qr_scan", "ios": "https://dc.lft.to/lastmile_qr_scan"}, "is_reserved": 0, "name": "a533527566f24e0fb5389a6dc700532c", "lon": -77.03659833333333, "type": "electric_scooter", "bike_id": "a533527566f24e0fb5389a6dc700532c", "fusion_lon": 0.0, "lat": 38.92281916666666, "fusion_lat": 0.0}, {"is_disabled": 0, "rental_uris": {"android": "https://dc.lft.to/lastmile_qr_scan", "ios": "https://dc.lft.to/lastmile_qr_scan"}, "is_reserved": 0, "name": "1d0158eb682c6ed1a209f435c7eb60fb", "lon": -76.98728233333334, "type": "electric_scooter", "bike_id": "1d0158eb682c6ed1a209f435c7eb60fb", "fusion_lon": 0.0, "lat": 38.867120166666666, "fusion_lat": 0.0}, {"is_disabled": 0, "rental_uris": {"android": "https://dc.lft.to/lastmile_qr_scan", "ios": "https://dc.lft.to/lastmile_qr_scan"}, "is_reserved": 0, "name": "38be21334fe3a1dac5cac65333d9293b", "lon": -77.029658, "type": "electric_scooter", "bike_id": "38be21334fe3a1dac5cac65333d9293b", "fusion_lon": 0.0, "lat": 38.90393566666667, "fusion_lat": 0.0}, {"is_disabled": 0, "rental_uris": {"android": "https://dc.lft.to/lastmile_qr_scan", "ios": "https://dc.lft.to/lastmile_qr_scan"}, "is_reserved": 0, "name": "a440b8e2f55cb8ab47daddcf78c44af7", "lon": -77.017718, "type": "electric_scooter", "bike_id": "a440b8e2f55cb8ab47daddcf78c44af7", "fusion_lon": 0.0, "lat": 38.8839365, "fusion_lat": 0.0}, {"is_disabled": 0, "rental_uris": {"android": "https://dc.lft.to/lastmile_qr_scan", "ios": "https://dc.lft.to/lastmile_qr_scan"}, "is_reserved": 0, "name": "bff1ed72e04eae535c84d69220d67340", "lon": -77.07366766666667, "type": "electric_bike", "bike_id": "bff1ed72e04eae535c84d69220d67340", "fusion_lon": 0.0, "lat": 38.961734166666666, "fusion_lat": 0.0}, {"is_disabled": 0, "rental_uris": {"android": "https://dc.lft.to/lastmile_qr_scan", "ios": "https://dc.lft.to/lastmile_qr_scan"}, "is_reserved": 0, "name": "a1502c31e39234d7489a2d847d2de506", "lon": -76.94284316666666, "type": "electric_scooter", "bike_id": "a1502c31e39234d7489a2d847d2de506", "fusion_lon": 0.0, "lat": 38.88302516666667, "fusion_lat": 0.0}, {"is_disabled": 0, "rental_uris": {"android": "https://dc.lft.to/lastmile_qr_scan", "ios": "https://dc.lft.to/lastmile_qr_scan"}, "is_reserved": 0, "name": "598475f6573073005001ac1e16f76682", "lon": -77.022113, "type": "electric_scooter", "bike_id": "598475f6573073005001ac1e16f76682", "fusion_lon": 0.0, "lat": 38.89497566666667, "fusion_lat": 0.0}, {"is_disabled": 0, "rental_uris": {"android": "https://dc.lft.to/lastmile_qr_scan", "ios": "https://dc.lft.to/lastmile_qr_scan"}, "is_reserved": 0, "name": "e65975e128f1ffe8c0c8eb23bff0ef27", "lon": -77.0120985, "type": "electric_scooter", "bike_id": "e65975e128f1ffe8c0c8eb23bff0ef27", "fusion_lon": 0.0, "lat": 38.91817983333333, "fusion_lat": 0.0}, {"is_disabled": 0, "rental_uris": {"android": "https://dc.lft.to/lastmile_qr_scan", "ios": "https://dc.lft.to/lastmile_qr_scan"}, "is_reserved": 0, "name": "da32acf38283211cd3c3acbff1dbcfa9", "lon": -76.92231983333333, "type": "electric_scooter", "bike_id": "da32acf38283211cd3c3acbff1dbcfa9", "fusion_lon": 0.0, "lat": 38.89999316666667, "fusion_lat": 0.0}, {"is_disabled": 0, "rental_uris": {"android": "https://dc.lft.to/lastmile_qr_scan", "ios": "https://dc.lft.to/lastmile_qr_scan"}, "is_reserved": 0, "name": "43dbd3fd5bd5e46c4d3568595b7159bd", "lon": -77.02173633333334, "type": "electric_scooter", "bike_id": "43dbd3fd5bd5e46c4d3568595b7159bd", "fusion_lon": 0.0, "lat": 38.8993245, "fusion_lat": 0.0}, {"is_disabled": 0, "rental_uris": {"android": "https://dc.lft.to/lastmile_qr_scan", "ios": "https://dc.lft.to/lastmile_qr_scan"}, "is_reserved": 0, "name": "b416bffae77014d47173b7538384378f", "lon": -77.04647383333334, "type": "electric_scooter", "bike_id": "b416bffae77014d47173b7538384378f", "fusion_lon": 0.0, "lat": 38.89342583333333, "fusion_lat": 0.0}, {"is_disabled": 0, "rental_uris": {"android": "https://dc.lft.to/lastmile_qr_scan", "ios": "https://dc.lft.to/lastmile_qr_scan"}, "is_reserved": 0, "name": "b3fd5becb9bb297e376d8e2402aae4f4", "lon": -77.0038705, "type": "electric_scooter", "bike_id": "b3fd5becb9bb297e376d8e2402aae4f4", "fusion_lon": 0.0, "lat": 38.91067016666667, "fusion_lat": 0.0}, {"is_disabled": 0, "rental_uris": {"android": "https://dc.lft.to/lastmile_qr_scan", "ios": "https://dc.lft.to/lastmile_qr_scan"}, "is_reserved": 0, "name": "cfadec5ad5f038915245772011cdd584", "lon": -77.0314555, "type": "electric_scooter", "bike_id": "cfadec5ad5f038915245772011cdd584", "fusion_lon": 0.0, "lat": 38.9097445, "fusion_lat": 0.0}, {"is_disabled": 0, "rental_uris": {"android": "https://dc.lft.to/lastmile_qr_scan", "ios": "https://dc.lft.to/lastmile_qr_scan"}, "is_reserved": 0, "name": "9881a6878fde85e96463b298fb1efe52", "lon": -77.0317265, "type": "electric_scooter", "bike_id": "9881a6878fde85e96463b298fb1efe52", "fusion_lon": 0.0, "lat": 38.91805383333333, "fusion_lat": 0.0}, {"is_disabled": 0, "rental_uris": {"android": "https://dc.lft.to/lastmile_qr_scan", "ios": "https://dc.lft.to/lastmile_qr_scan"}, "is_reserved": 0, "name": "5e1b835ffe2299756b0aa128e2e42076", "lon": -77.0019785, "type": "electric_scooter", "bike_id": "5e1b835ffe2299756b0aa128e2e42076", "fusion_lon": 0.0, "lat": 38.9163965, "fusion_lat": 0.0}, {"is_disabled": 0, "rental_uris": {"android": "https://dc.lft.to/lastmile_qr_scan", "ios": "https://dc.lft.to/lastmile_qr_scan"}, "is_reserved": 0, "name": "47c11c8d8bfdbaa79eb4c4bbd6679a7d", "lon": -77.00579783333333, "type": "electric_bike", "bike_id": "47c11c8d8bfdbaa79eb4c4bbd6679a7d", "fusion_lon": 0.0, "lat": 38.836888333333334, "fusion_lat": 0.0}, {"is_disabled": 0, "rental_uris": {"android": "https://dc.lft.to/lastmile_qr_scan", "ios": "https://dc.lft.to/lastmile_qr_scan"}, "is_reserved": 0, "name": "f5fc8d28610a1167e4a4c0801ed5f42f", "lon": -77.02801416666667, "type": "electric_scooter", "bike_id": "f5fc8d28610a1167e4a4c0801ed5f42f", "fusion_lon": 0.0, "lat": 38.89793683333333, "fusion_lat": 0.0}, {"is_disabled": 0, "rental_uris": {"android": "https://dc.lft.to/lastmile_qr_scan", "ios": "https://dc.lft.to/lastmile_qr_scan"}, "is_reserved": 0, "name": "0ef0fda601d357926f78b5b6ce38cb08", "lon": -76.96172883333334, "type": "electric_bike", "bike_id": "0ef0fda601d357926f78b5b6ce38cb08", "fusion_lon": 0.0, "lat": 38.91859133333333, "fusion_lat": 0.0}, {"is_disabled": 0, "rental_uris": {"android": "https://dc.lft.to/lastmile_qr_scan", "ios": "https://dc.lft.to/lastmile_qr_scan"}, "is_reserved": 0, "name": "c82c6a5ccdf24721d51ff49ecbf32359", "lon": -77.029523, "type": "electric_scooter", "bike_id": "c82c6a5ccdf24721d51ff49ecbf32359", "fusion_lon": 0.0, "lat": 38.91707616666667, "fusion_lat": 0.0}, {"is_disabled": 0, "rental_uris": {"android": "https://dc.lft.to/lastmile_qr_scan", "ios": "https://dc.lft.to/lastmile_qr_scan"}, "is_reserved": 0, "name": "9bee43f41c57886c7f7f0917c53eec7a", "lon": -77.03829366666666, "type": "electric_scooter", "bike_id": "9bee43f41c57886c7f7f0917c53eec7a", "fusion_lon": 0.0, "lat": 38.911133166666666, "fusion_lat": 0.0}, {"is_disabled": 0, "rental_uris": {"android": "https://dc.lft.to/lastmile_qr_scan", "ios": "https://dc.lft.to/lastmile_qr_scan"}, "is_reserved": 0, "name": "200403b581f983de55637ae806492b75", "lon": -77.06350416666666, "type": "electric_scooter", "bike_id": "200403b581f983de55637ae806492b75", "fusion_lon": 0.0, "lat": 38.944411833333334, "fusion_lat": 0.0}, {"is_disabled": 0, "rental_uris": {"android": "https://dc.lft.to/lastmile_qr_scan", "ios": "https://dc.lft.to/lastmile_qr_scan"}, "is_reserved": 0, "name": "5f0102dab283298c35f7777bf05e787e", "lon": -76.93383483333334, "type": "electric_scooter", "bike_id": "5f0102dab283298c35f7777bf05e787e", "fusion_lon": 0.0, "lat": 38.8990795, "fusion_lat": 0.0}, {"is_disabled": 0, "rental_uris": {"android": "https://dc.lft.to/lastmile_qr_scan", "ios": "https://dc.lft.to/lastmile_qr_scan"}, "is_reserved": 0, "name": "aaec8e608b85115e3c5bf1dce5dca104", "lon": -77.032878, "type": "electric_scooter", "bike_id": "aaec8e608b85115e3c5bf1dce5dca104", "fusion_lon": 0.0, "lat": 38.930548, "fusion_lat": 0.0}, {"is_disabled": 0, "rental_uris": {"android": "https://dc.lft.to/lastmile_qr_scan", "ios": "https://dc.lft.to/lastmile_qr_scan"}, "is_reserved": 0, "name": "7773b73aa2349a47c77a7a995ac04281", "lon": -76.92929366666667, "type": "electric_bike", "bike_id": "7773b73aa2349a47c77a7a995ac04281", "fusion_lon": 0.0, "lat": 38.90288833333334, "fusion_lat": 0.0}, {"is_disabled": 0, "rental_uris": {"android": "https://dc.lft.to/lastmile_qr_scan", "ios": "https://dc.lft.to/lastmile_qr_scan"}, "is_reserved": 0, "name": "4da68a31573e9b604bfc8cbb81873fbe", "lon": -77.0118205, "type": "electric_scooter", "bike_id": "4da68a31573e9b604bfc8cbb81873fbe", "fusion_lon": 0.0, "lat": 38.87074483333333, "fusion_lat": 0.0}, {"is_disabled": 0, "rental_uris": {"android": "https://dc.lft.to/lastmile_qr_scan", "ios": "https://dc.lft.to/lastmile_qr_scan"}, "is_reserved": 0, "name": "2dcada10941fca57a864550034c3cad9", "lon": -77.0249245, "type": "electric_scooter", "bike_id": "2dcada10941fca57a864550034c3cad9", "fusion_lon": 0.0, "lat": 38.9026075, "fusion_lat": 0.0}, {"is_disabled": 0, "rental_uris": {"android": "https://dc.lft.to/lastmile_qr_scan", "ios": "https://dc.lft.to/lastmile_qr_scan"}, "is_reserved": 0, "name": "5cd29a302c88cd97382fa8880e0d8c94", "lon": -77.03087016666667, "type": "electric_scooter", "bike_id": "5cd29a302c88cd97382fa8880e0d8c94", "fusion_lon": 0.0, "lat": 38.9353765, "fusion_lat": 0.0}, {"is_disabled": 0, "rental_uris": {"android": "https://dc.lft.to/lastmile_qr_scan", "ios": "https://dc.lft.to/lastmile_qr_scan"}, "is_reserved": 0, "name": "ad2dcaef7074fa7ed767e9b480d8f49a", "lon": -77.03582216666666, "type": "electric_scooter", "bike_id": "ad2dcaef7074fa7ed767e9b480d8f49a", "fusion_lon": 0.0, "lat": 38.907529, "fusion_lat": 0.0}, {"is_disabled": 0, "rental_uris": {"android": "https://dc.lft.to/lastmile_qr_scan", "ios": "https://dc.lft.to/lastmile_qr_scan"}, "is_reserved": 0, "name": "ce98b3da94374a6cdf26b578ddd9cef2", "lon": -77.0252185, "type": "electric_scooter", "bike_id": "ce98b3da94374a6cdf26b578ddd9cef2", "fusion_lon": 0.0, "lat": 38.975733166666664, "fusion_lat": 0.0}, {"is_disabled": 0, "rental_uris": {"android": "https://dc.lft.to/lastmile_qr_scan", "ios": "https://dc.lft.to/lastmile_qr_scan"}, "is_reserved": 0, "name": "f39e1c303640f3fe402f342685f7c5ad", "lon": -77.0221925, "type": "electric_scooter", "bike_id": "f39e1c303640f3fe402f342685f7c5ad", "fusion_lon": 0.0, "lat": 38.912673833333336, "fusion_lat": 0.0}, {"is_disabled": 0, "rental_uris": {"android": "https://dc.lft.to/lastmile_qr_scan", "ios": "https://dc.lft.to/lastmile_qr_scan"}, "is_reserved": 0, "name": "5c0d1b3cb76459f1596266c754750cb5", "lon": -76.914208, "type": "electric_bike", "bike_id": "5c0d1b3cb76459f1596266c754750cb5", "fusion_lon": 0.0, "lat": 38.89832083333334, "fusion_lat": 0.0}, {"is_disabled": 0, "rental_uris": {"android": "https://dc.lft.to/lastmile_qr_scan", "ios": "https://dc.lft.to/lastmile_qr_scan"}, "is_reserved": 0, "name": "66b07cc9108f17cbfd4e630b03ca86b1", "lon": -76.9188585, "type": "electric_scooter", "bike_id": "66b07cc9108f17cbfd4e630b03ca86b1", "fusion_lon": 0.0, "lat": 38.89086283333334, "fusion_lat": 0.0}, {"is_disabled": 0, "rental_uris": {"android": "https://dc.lft.to/lastmile_qr_scan", "ios": "https://dc.lft.to/lastmile_qr_scan"}, "is_reserved": 0, "name": "de870b86476f13b1c740510010dd01f4", "lon": -77.03943766666667, "type": "electric_scooter", "bike_id": "de870b86476f13b1c740510010dd01f4", "fusion_lon": 0.0, "lat": 38.908019833333334, "fusion_lat": 0.0}, {"is_disabled": 0, "rental_uris": {"android": "https://dc.lft.to/lastmile_qr_scan", "ios": "https://dc.lft.to/lastmile_qr_scan"}, "is_reserved": 0, "name": "5c566cf105b72e67eaf618a39286338a", "lon": -76.99965316666666, "type": "electric_scooter", "bike_id": "5c566cf105b72e67eaf618a39286338a", "fusion_lon": 0.0, "lat": 38.90106883333333, "fusion_lat": 0.0}, {"is_disabled": 0, "rental_uris": {"android": "https://dc.lft.to/lastmile_qr_scan", "ios": "https://dc.lft.to/lastmile_qr_scan"}, "is_reserved": 0, "name": "8f10b1634d5e1d2c27cae0b647d91139", "lon": -77.021616, "type": "electric_scooter", "bike_id": "8f10b1634d5e1d2c27cae0b647d91139", "fusion_lon": 0.0, "lat": 38.88625416666667, "fusion_lat": 0.0}, {"is_disabled": 0, "rental_uris": {"android": "https://dc.lft.to/lastmile_qr_scan", "ios": "https://dc.lft.to/lastmile_qr_scan"}, "is_reserved": 0, "name": "6e2628ab58a0e1d226db31bc50e72b2d", "lon": -77.03957633333333, "type": "electric_scooter", "bike_id": "6e2628ab58a0e1d226db31bc50e72b2d", "fusion_lon": 0.0, "lat": 38.898900166666664, "fusion_lat": 0.0}, {"is_disabled": 0, "rental_uris": {"android": "https://dc.lft.to/lastmile_qr_scan", "ios": "https://dc.lft.to/lastmile_qr_scan"}, "is_reserved": 0, "name": "36b2d30cb4316d85a542e99ef578d7d3", "lon": -77.04888433333333, "type": "electric_scooter", "bike_id": "36b2d30cb4316d85a542e99ef578d7d3", "fusion_lon": 0.0, "lat": 38.898090333333336, "fusion_lat": 0.0}, {"is_disabled": 0, "rental_uris": {"android": "https://dc.lft.to/lastmile_qr_scan", "ios": "https://dc.lft.to/lastmile_qr_scan"}, "is_reserved": 0, "name": "edb6fa14c78c045cefc9d15aefa970e5", "lon": -77.00605066666667, "type": "electric_scooter", "bike_id": "edb6fa14c78c045cefc9d15aefa970e5", "fusion_lon": 0.0, "lat": 38.90555233333333, "fusion_lat": 0.0}, {"is_disabled": 0, "rental_uris": {"android": "https://dc.lft.to/lastmile_qr_scan", "ios": "https://dc.lft.to/lastmile_qr_scan"}, "is_reserved": 0, "name": "f2684c7303726f31c11426723b1675a2", "lon": -76.99384233333333, "type": "electric_scooter", "bike_id": "f2684c7303726f31c11426723b1675a2", "fusion_lon": 0.0, "lat": 38.910069666666665, "fusion_lat": 0.0}, {"is_disabled": 0, "rental_uris": {"android": "https://dc.lft.to/lastmile_qr_scan", "ios": "https://dc.lft.to/lastmile_qr_scan"}, "is_reserved": 0, "name": "14e19597b92c26ed3bac811c2b705dbf", "lon": -77.0523285, "type": "electric_scooter", "bike_id": "14e19597b92c26ed3bac811c2b705dbf", "fusion_lon": 0.0, "lat": 38.92464283333333, "fusion_lat": 0.0}, {"is_disabled": 0, "rental_uris": {"android": "https://dc.lft.to/lastmile_qr_scan", "ios": "https://dc.lft.to/lastmile_qr_scan"}, "is_reserved": 0, "name": "cebf2dc55abe0837918fb33850ec6792", "lon": -76.9302045, "type": "electric_bike", "bike_id": "cebf2dc55abe0837918fb33850ec6792", "fusion_lon": 0.0, "lat": 38.9664565, "fusion_lat": 0.0}, {"is_disabled": 0, "rental_uris": {"android": "https://dc.lft.to/lastmile_qr_scan", "ios": "https://dc.lft.to/lastmile_qr_scan"}, "is_reserved": 0, "name": "f18091d53b2b3fd5394ab6a4ce732d71", "lon": -77.00493533333334, "type": "electric_scooter", "bike_id": "f18091d53b2b3fd5394ab6a4ce732d71", "fusion_lon": 0.0, "lat": 38.89675833333333, "fusion_lat": 0.0}, {"is_disabled": 0, "rental_uris": {"android": "https://dc.lft.to/lastmile_qr_scan", "ios": "https://dc.lft.to/lastmile_qr_scan"}, "is_reserved": 0, "name": "7ea848758ff4f5fdc1eeeaacfd007882", "lon": -77.03280666666667, "type": "electric_scooter", "bike_id": "7ea848758ff4f5fdc1eeeaacfd007882", "fusion_lon": 0.0, "lat": 38.93542016666667, "fusion_lat": 0.0}, {"is_disabled": 0, "rental_uris": {"android": "https://dc.lft.to/lastmile_qr_scan", "ios": "https://dc.lft.to/lastmile_qr_scan"}, "is_reserved": 0, "name": "1a9ca8a7e1aec938103d64e1a1700bae", "lon": -77.04876116666667, "type": "electric_scooter", "bike_id": "1a9ca8a7e1aec938103d64e1a1700bae", "fusion_lon": 0.0, "lat": 38.908376, "fusion_lat": 0.0}, {"is_disabled": 0, "rental_uris": {"android": "https://dc.lft.to/lastmile_qr_scan", "ios": "https://dc.lft.to/lastmile_qr_scan"}, "is_reserved": 0, "name": "3e0a530ec97537679b13f7e74b00212a", "lon": -77.04047166666666, "type": "electric_scooter", "bike_id": "3e0a530ec97537679b13f7e74b00212a", "fusion_lon": 0.0, "lat": 38.9011965, "fusion_lat": 0.0}, {"is_disabled": 0, "rental_uris": {"android": "https://dc.lft.to/lastmile_qr_scan", "ios": "https://dc.lft.to/lastmile_qr_scan"}, "is_reserved": 0, "name": "86421bf6d8e9106926c550bab57ead07", "lon": -77.03255283333333, "type": "electric_scooter", "bike_id": "86421bf6d8e9106926c550bab57ead07", "fusion_lon": 0.0, "lat": 38.90971566666666, "fusion_lat": 0.0}, {"is_disabled": 0, "rental_uris": {"android": "https://dc.lft.to/lastmile_qr_scan", "ios": "https://dc.lft.to/lastmile_qr_scan"}, "is_reserved": 0, "name": "44797c48a4870fbfd42f23d2d84d22e8", "lon": -77.032059, "type": "electric_scooter", "bike_id": "44797c48a4870fbfd42f23d2d84d22e8", "fusion_lon": 0.0, "lat": 38.91844183333333, "fusion_lat": 0.0}, {"is_disabled": 0, "rental_uris": {"android": "https://dc.lft.to/lastmile_qr_scan", "ios": "https://dc.lft.to/lastmile_qr_scan"}, "is_reserved": 0, "name": "0c306744ebae12d16ef63148c45ae175", "lon": -77.07274966666667, "type": "electric_scooter", "bike_id": "0c306744ebae12d16ef63148c45ae175", "fusion_lon": 0.0, "lat": 38.934725666666665, "fusion_lat": 0.0}, {"is_disabled": 0, "rental_uris": {"android": "https://dc.lft.to/lastmile_qr_scan", "ios": "https://dc.lft.to/lastmile_qr_scan"}, "is_reserved": 0, "name": "94d378f95ddaa8935e980472d59ef4fa", "lon": -77.03401283333334, "type": "electric_scooter", "bike_id": "94d378f95ddaa8935e980472d59ef4fa", "fusion_lon": 0.0, "lat": 38.921437833333336, "fusion_lat": 0.0}, {"is_disabled": 0, "rental_uris": {"android": "https://dc.lft.to/lastmile_qr_scan", "ios": "https://dc.lft.to/lastmile_qr_scan"}, "is_reserved": 0, "name": "a9f4acbf3f611660bb60a966fcdc4ae0", "lon": -77.02547233333334, "type": "electric_scooter", "bike_id": "a9f4acbf3f611660bb60a966fcdc4ae0", "fusion_lon": 0.0, "lat": 38.94838433333334, "fusion_lat": 0.0}, {"is_disabled": 0, "rental_uris": {"android": "https://dc.lft.to/lastmile_qr_scan", "ios": "https://dc.lft.to/lastmile_qr_scan"}, "is_reserved": 0, "name": "f9605d64f3b880cd7a300d68400aa6f3", "lon": -77.025855, "type": "electric_scooter", "bike_id": "f9605d64f3b880cd7a300d68400aa6f3", "fusion_lon": 0.0, "lat": 38.92034566666667, "fusion_lat": 0.0}, {"is_disabled": 0, "rental_uris": {"android": "https://dc.lft.to/lastmile_qr_scan", "ios": "https://dc.lft.to/lastmile_qr_scan"}, "is_reserved": 0, "name": "96aeb7fce57e3096f820da5c1f19d8b1", "lon": -77.0031035, "type": "electric_scooter", "bike_id": "96aeb7fce57e3096f820da5c1f19d8b1", "fusion_lon": 0.0, "lat": 38.892279, "fusion_lat": 0.0}, {"is_disabled": 0, "rental_uris": {"android": "https://dc.lft.to/lastmile_qr_scan", "ios": "https://dc.lft.to/lastmile_qr_scan"}, "is_reserved": 0, "name": "71695eba68ad8c7d5a9a84a1eac50e2c", "lon": -77.05992166666667, "type": "electric_scooter", "bike_id": "71695eba68ad8c7d5a9a84a1eac50e2c", "fusion_lon": 0.0, "lat": 38.911810833333334, "fusion_lat": 0.0}, {"is_disabled": 0, "rental_uris": {"android": "https://dc.lft.to/lastmile_qr_scan", "ios": "https://dc.lft.to/lastmile_qr_scan"}, "is_reserved": 0, "name": "fdcbf122f9246b783f61e9a060231638", "lon": -77.00926216666667, "type": "electric_scooter", "bike_id": "fdcbf122f9246b783f61e9a060231638", "fusion_lon": 0.0, "lat": 38.896012166666665, "fusion_lat": 0.0}, {"is_disabled": 0, "rental_uris": {"android": "https://dc.lft.to/lastmile_qr_scan", "ios": "https://dc.lft.to/lastmile_qr_scan"}, "is_reserved": 0, "name": "b895e7ec68a750b2c1f47da89c33b6b9", "lon": -76.952231, "type": "electric_bike", "bike_id": "b895e7ec68a750b2c1f47da89c33b6b9", "fusion_lon": 0.0, "lat": 38.892327, "fusion_lat": 0.0}, {"is_disabled": 0, "rental_uris": {"android": "https://dc.lft.to/lastmile_qr_scan", "ios": "https://dc.lft.to/lastmile_qr_scan"}, "is_reserved": 0, "name": "cac933ee6a50b036c95707e5636dbbd5", "lon": -77.0541495, "type": "electric_scooter", "bike_id": "cac933ee6a50b036c95707e5636dbbd5", "fusion_lon": 0.0, "lat": 38.899189166666666, "fusion_lat": 0.0}, {"is_disabled": 0, "rental_uris": {"android": "https://dc.lft.to/lastmile_qr_scan", "ios": "https://dc.lft.to/lastmile_qr_scan"}, "is_reserved": 0, "name": "75d7eba9dc50273517cb78c23e9544fa", "lon": -77.0208245, "type": "electric_scooter", "bike_id": "75d7eba9dc50273517cb78c23e9544fa", "fusion_lon": 0.0, "lat": 38.93006716666667, "fusion_lat": 0.0}, {"is_disabled": 0, "rental_uris": {"android": "https://dc.lft.to/lastmile_qr_scan", "ios": "https://dc.lft.to/lastmile_qr_scan"}, "is_reserved": 0, "name": "4eaf2d54696bc040a3941c71a6b2ca23", "lon": -77.03261783333333, "type": "electric_scooter", "bike_id": "4eaf2d54696bc040a3941c71a6b2ca23", "fusion_lon": 0.0, "lat": 38.936971166666666, "fusion_lat": 0.0}, {"is_disabled": 0, "rental_uris": {"android": "https://dc.lft.to/lastmile_qr_scan", "ios": "https://dc.lft.to/lastmile_qr_scan"}, "is_reserved": 0, "name": "fe2f96fe2ebee2ceb77e01895c2c165e", "lon": -77.05161033333333, "type": "electric_scooter", "bike_id": "fe2f96fe2ebee2ceb77e01895c2c165e", "fusion_lon": 0.0, "lat": 38.905875333333334, "fusion_lat": 0.0}, {"is_disabled": 0, "rental_uris": {"android": "https://dc.lft.to/lastmile_qr_scan", "ios": "https://dc.lft.to/lastmile_qr_scan"}, "is_reserved": 0, "name": "7ab569f267fab5942a7e168e6c6bd609", "lon": -77.00830283333333, "type": "electric_scooter", "bike_id": "7ab569f267fab5942a7e168e6c6bd609", "fusion_lon": 0.0, "lat": 38.9125745, "fusion_lat": 0.0}, {"is_disabled": 0, "rental_uris": {"android": "https://dc.lft.to/lastmile_qr_scan", "ios": "https://dc.lft.to/lastmile_qr_scan"}, "is_reserved": 0, "name": "6cdaf7dba51884c2c6cc9ac5a40dac1e", "lon": -77.01399183333334, "type": "electric_scooter", "bike_id": "6cdaf7dba51884c2c6cc9ac5a40dac1e", "fusion_lon": 0.0, "lat": 38.9285265, "fusion_lat": 0.0}, {"is_disabled": 0, "rental_uris": {"android": "https://dc.lft.to/lastmile_qr_scan", "ios": "https://dc.lft.to/lastmile_qr_scan"}, "is_reserved": 0, "name": "058e798c7556d4691dc0e03826d3acaa", "lon": -77.0033755, "type": "electric_scooter", "bike_id": "058e798c7556d4691dc0e03826d3acaa", "fusion_lon": 0.0, "lat": 38.89353833333333, "fusion_lat": 0.0}, {"is_disabled": 0, "rental_uris": {"android": "https://dc.lft.to/lastmile_qr_scan", "ios": "https://dc.lft.to/lastmile_qr_scan"}, "is_reserved": 0, "name": "2457f7650f3ebf679d644a6dfb3c4e28", "lon": -76.889083, "type": "electric_bike", "bike_id": "2457f7650f3ebf679d644a6dfb3c4e28", "fusion_lon": 0.0, "lat": 38.92591933333333, "fusion_lat": 0.0}, {"is_disabled": 0, "rental_uris": {"android": "https://dc.lft.to/lastmile_qr_scan", "ios": "https://dc.lft.to/lastmile_qr_scan"}, "is_reserved": 0, "name": "cfa83e89b8f84c2f97377700e47f8611", "lon": -77.041686, "type": "electric_scooter", "bike_id": "cfa83e89b8f84c2f97377700e47f8611", "fusion_lon": 0.0, "lat": 38.911908, "fusion_lat": 0.0}, {"is_disabled": 0, "rental_uris": {"android": "https://dc.lft.to/lastmile_qr_scan", "ios": "https://dc.lft.to/lastmile_qr_scan"}, "is_reserved": 0, "name": "609692e8dcf7b450501495f10eacaada", "lon": -76.99941033333333, "type": "electric_scooter", "bike_id": "609692e8dcf7b450501495f10eacaada", "fusion_lon": 0.0, "lat": 38.900423333333336, "fusion_lat": 0.0}, {"is_disabled": 0, "rental_uris": {"android": "https://dc.lft.to/lastmile_qr_scan", "ios": "https://dc.lft.to/lastmile_qr_scan"}, "is_reserved": 0, "name": "edbd29266f348875a0e3df1a8034d61c", "lon": -76.9722595, "type": "electric_scooter", "bike_id": "edbd29266f348875a0e3df1a8034d61c", "fusion_lon": 0.0, "lat": 38.854547833333335, "fusion_lat": 0.0}, {"is_disabled": 0, "rental_uris": {"android": "https://dc.lft.to/lastmile_qr_scan", "ios": "https://dc.lft.to/lastmile_qr_scan"}, "is_reserved": 0, "name": "d847ee6fde5395ad1322ac617607ec2a", "lon": -77.009238, "type": "electric_scooter", "bike_id": "d847ee6fde5395ad1322ac617607ec2a", "fusion_lon": 0.0, "lat": 38.898371833333336, "fusion_lat": 0.0}, {"is_disabled": 0, "rental_uris": {"android": "https://dc.lft.to/lastmile_qr_scan", "ios": "https://dc.lft.to/lastmile_qr_scan"}, "is_reserved": 0, "name": "9a854bc5e26a30a52c2aba9109afecc6", "lon": -77.005712, "type": "electric_scooter", "bike_id": "9a854bc5e26a30a52c2aba9109afecc6", "fusion_lon": 0.0, "lat": 38.88502316666667, "fusion_lat": 0.0}, {"is_disabled": 0, "rental_uris": {"android": "https://dc.lft.to/lastmile_qr_scan", "ios": "https://dc.lft.to/lastmile_qr_scan"}, "is_reserved": 0, "name": "6161951b4201efdb0cf4654b0278b2d5", "lon": -77.01141133333333, "type": "electric_scooter", "bike_id": "6161951b4201efdb0cf4654b0278b2d5", "fusion_lon": 0.0, "lat": 38.90958583333333, "fusion_lat": 0.0}, {"is_disabled": 0, "rental_uris": {"android": "https://dc.lft.to/lastmile_qr_scan", "ios": "https://dc.lft.to/lastmile_qr_scan"}, "is_reserved": 0, "name": "e49cdcbeb3ad4be023724ca85b7c4157", "lon": -77.03855166666666, "type": "electric_scooter", "bike_id": "e49cdcbeb3ad4be023724ca85b7c4157", "fusion_lon": 0.0, "lat": 38.91838216666667, "fusion_lat": 0.0}, {"is_disabled": 0, "rental_uris": {"android": "https://dc.lft.to/lastmile_qr_scan", "ios": "https://dc.lft.to/lastmile_qr_scan"}, "is_reserved": 0, "name": "a1a36a6a0d9175566ddd773a9ed6bb4b", "lon": -77.02375316666667, "type": "electric_scooter", "bike_id": "a1a36a6a0d9175566ddd773a9ed6bb4b", "fusion_lon": 0.0, "lat": 38.902045, "fusion_lat": 0.0}, {"is_disabled": 0, "rental_uris": {"android": "https://dc.lft.to/lastmile_qr_scan", "ios": "https://dc.lft.to/lastmile_qr_scan"}, "is_reserved": 0, "name": "e48a3b701ceda31c00b089505039070b", "lon": -77.04371766666667, "type": "electric_scooter", "bike_id": "e48a3b701ceda31c00b089505039070b", "fusion_lon": 0.0, "lat": 38.92577283333333, "fusion_lat": 0.0}, {"is_disabled": 0, "rental_uris": {"android": "https://dc.lft.to/lastmile_qr_scan", "ios": "https://dc.lft.to/lastmile_qr_scan"}, "is_reserved": 0, "name": "287e7b21b7b9cbb212540ee358a7e0f4", "lon": -77.0175645, "type": "electric_scooter", "bike_id": "287e7b21b7b9cbb212540ee358a7e0f4", "fusion_lon": 0.0, "lat": 38.87703616666667, "fusion_lat": 0.0}, {"is_disabled": 0, "rental_uris": {"android": "https://dc.lft.to/lastmile_qr_scan", "ios": "https://dc.lft.to/lastmile_qr_scan"}, "is_reserved": 0, "name": "b8945976a947cae0e3037d8795e28d9e", "lon": -77.03259233333333, "type": "electric_scooter", "bike_id": "b8945976a947cae0e3037d8795e28d9e", "fusion_lon": 0.0, "lat": 38.935217, "fusion_lat": 0.0}, {"is_disabled": 0, "rental_uris": {"android": "https://dc.lft.to/lastmile_qr_scan", "ios": "https://dc.lft.to/lastmile_qr_scan"}, "is_reserved": 0, "name": "fb9bc66f269fc4daea602f515ffbc2aa", "lon": -76.98951866666667, "type": "electric_scooter", "bike_id": "fb9bc66f269fc4daea602f515ffbc2aa", "fusion_lon": 0.0, "lat": 38.843975, "fusion_lat": 0.0}, {"is_disabled": 0, "rental_uris": {"android": "https://dc.lft.to/lastmile_qr_scan", "ios": "https://dc.lft.to/lastmile_qr_scan"}, "is_reserved": 0, "name": "915c4f86ae4aebc031fbe07e102b69b0", "lon": -77.032142, "type": "electric_scooter", "bike_id": "915c4f86ae4aebc031fbe07e102b69b0", "fusion_lon": 0.0, "lat": 38.92580233333333, "fusion_lat": 0.0}, {"is_disabled": 0, "rental_uris": {"android": "https://dc.lft.to/lastmile_qr_scan", "ios": "https://dc.lft.to/lastmile_qr_scan"}, "is_reserved": 0, "name": "ef39f49afc217f9f2869d7effb40373e", "lon": -77.09100016666666, "type": "electric_scooter", "bike_id": "ef39f49afc217f9f2869d7effb40373e", "fusion_lon": 0.0, "lat": 38.956364666666666, "fusion_lat": 0.0}, {"is_disabled": 0, "rental_uris": {"android": "https://dc.lft.to/lastmile_qr_scan", "ios": "https://dc.lft.to/lastmile_qr_scan"}, "is_reserved": 0, "name": "a29bd078493687b08ab9615b277ce07f", "lon": -77.04176483333333, "type": "electric_scooter", "bike_id": "a29bd078493687b08ab9615b277ce07f", "fusion_lon": 0.0, "lat": 38.91543383333333, "fusion_lat": 0.0}, {"is_disabled": 0, "rental_uris": {"android": "https://dc.lft.to/lastmile_qr_scan", "ios": "https://dc.lft.to/lastmile_qr_scan"}, "is_reserved": 0, "name": "ee1302021df38137ffd20cb3e65871f7", "lon": -77.02189483333333, "type": "electric_scooter", "bike_id": "ee1302021df38137ffd20cb3e65871f7", "fusion_lon": 0.0, "lat": 38.92104466666667, "fusion_lat": 0.0}, {"is_disabled": 0, "rental_uris": {"android": "https://dc.lft.to/lastmile_qr_scan", "ios": "https://dc.lft.to/lastmile_qr_scan"}, "is_reserved": 0, "name": "86724922c1feded4f321e49fea3102c3", "lon": -77.00931683333333, "type": "electric_scooter", "bike_id": "86724922c1feded4f321e49fea3102c3", "fusion_lon": 0.0, "lat": 38.871165, "fusion_lat": 0.0}, {"is_disabled": 0, "rental_uris": {"android": "https://dc.lft.to/lastmile_qr_scan", "ios": "https://dc.lft.to/lastmile_qr_scan"}, "is_reserved": 0, "name": "d6c1bc25b2f51f2c4a5479f8166fab54", "lon": -77.04975366666666, "type": "electric_bike", "bike_id": "d6c1bc25b2f51f2c4a5479f8166fab54", "fusion_lon": 0.0, "lat": 38.992415666666666, "fusion_lat": 0.0}, {"is_disabled": 0, "rental_uris": {"android": "https://dc.lft.to/lastmile_qr_scan", "ios": "https://dc.lft.to/lastmile_qr_scan"}, "is_reserved": 0, "name": "d4f5206ef678d088dbdeeff419e04fd2", "lon": -77.0177805, "type": "electric_scooter", "bike_id": "d4f5206ef678d088dbdeeff419e04fd2", "fusion_lon": 0.0, "lat": 38.8858425, "fusion_lat": 0.0}, {"is_disabled": 0, "rental_uris": {"android": "https://dc.lft.to/lastmile_qr_scan", "ios": "https://dc.lft.to/lastmile_qr_scan"}, "is_reserved": 0, "name": "f7d635f9d269be73f550ec34eebcfe1a", "lon": -77.02555933333333, "type": "electric_scooter", "bike_id": "f7d635f9d269be73f550ec34eebcfe1a", "fusion_lon": 0.0, "lat": 38.916390166666666, "fusion_lat": 0.0}, {"is_disabled": 0, "rental_uris": {"android": "https://dc.lft.to/lastmile_qr_scan", "ios": "https://dc.lft.to/lastmile_qr_scan"}, "is_reserved": 0, "name": "2123fb74996342b6b503a9e2750cdb20", "lon": -77.02349933333333, "type": "electric_scooter", "bike_id": "2123fb74996342b6b503a9e2750cdb20", "fusion_lon": 0.0, "lat": 38.942929166666666, "fusion_lat": 0.0}, {"is_disabled": 0, "rental_uris": {"android": "https://dc.lft.to/lastmile_qr_scan", "ios": "https://dc.lft.to/lastmile_qr_scan"}, "is_reserved": 0, "name": "15ed1df41404224a39168e31c7ff7364", "lon": -77.004306, "type": "electric_scooter", "bike_id": "15ed1df41404224a39168e31c7ff7364", "fusion_lon": 0.0, "lat": 38.83801866666667, "fusion_lat": 0.0}, {"is_disabled": 0, "rental_uris": {"android": "https://dc.lft.to/lastmile_qr_scan", "ios": "https://dc.lft.to/lastmile_qr_scan"}, "is_reserved": 0, "name": "e500abc5b3f394d1f7d78b5473f80469", "lon": -77.04671716666667, "type": "electric_scooter", "bike_id": "e500abc5b3f394d1f7d78b5473f80469", "fusion_lon": 0.0, "lat": 38.915699000000004, "fusion_lat": 0.0}, {"is_disabled": 0, "rental_uris": {"android": "https://dc.lft.to/lastmile_qr_scan", "ios": "https://dc.lft.to/lastmile_qr_scan"}, "is_reserved": 0, "name": "b2705f06bb1481c1eccbf8fe35619dcc", "lon": -77.19541516666666, "type": "electric_bike", "bike_id": "b2705f06bb1481c1eccbf8fe35619dcc", "fusion_lon": 0.0, "lat": 39.115044833333336, "fusion_lat": 0.0}, {"is_disabled": 0, "rental_uris": {"android": "https://dc.lft.to/lastmile_qr_scan", "ios": "https://dc.lft.to/lastmile_qr_scan"}, "is_reserved": 0, "name": "dec1c06dff9b1b7a8db291221cdf3539", "lon": -76.98095033333334, "type": "electric_bike", "bike_id": "dec1c06dff9b1b7a8db291221cdf3539", "fusion_lon": 0.0, "lat": 38.85713416666667, "fusion_lat": 0.0}, {"is_disabled": 0, "rental_uris": {"android": "https://dc.lft.to/lastmile_qr_scan", "ios": "https://dc.lft.to/lastmile_qr_scan"}, "is_reserved": 0, "name": "af52c00f723aa1f4cf43a08e05136ffd", "lon": -77.0591185, "type": "electric_scooter", "bike_id": "af52c00f723aa1f4cf43a08e05136ffd", "fusion_lon": 0.0, "lat": 38.90538466666667, "fusion_lat": 0.0}, {"is_disabled": 0, "rental_uris": {"android": "https://dc.lft.to/lastmile_qr_scan", "ios": "https://dc.lft.to/lastmile_qr_scan"}, "is_reserved": 0, "name": "998e17573774829dcb49956485b6091c", "lon": -77.01992116666666, "type": "electric_bike", "bike_id": "998e17573774829dcb49956485b6091c", "fusion_lon": 0.0, "lat": 38.89452516666667, "fusion_lat": 0.0}, {"is_disabled": 0, "rental_uris": {"android": "https://dc.lft.to/lastmile_qr_scan", "ios": "https://dc.lft.to/lastmile_qr_scan"}, "is_reserved": 0, "name": "b668d61977d1361580b6eb2a4ac991c1", "lon": -76.98371183333333, "type": "electric_scooter", "bike_id": "b668d61977d1361580b6eb2a4ac991c1", "fusion_lon": 0.0, "lat": 38.906469, "fusion_lat": 0.0}, {"is_disabled": 0, "rental_uris": {"android": "https://dc.lft.to/lastmile_qr_scan", "ios": "https://dc.lft.to/lastmile_qr_scan"}, "is_reserved": 0, "name": "8d9f0bdad320a3e3eb2e13f065e39302", "lon": -76.95193066666667, "type": "electric_bike", "bike_id": "8d9f0bdad320a3e3eb2e13f065e39302", "fusion_lon": 0.0, "lat": 38.906814, "fusion_lat": 0.0}, {"is_disabled": 0, "rental_uris": {"android": "https://dc.lft.to/lastmile_qr_scan", "ios": "https://dc.lft.to/lastmile_qr_scan"}, "is_reserved": 0, "name": "ba6b8d4f6327056eb6ec4291a085d445", "lon": -77.00722433333334, "type": "electric_bike", "bike_id": "ba6b8d4f6327056eb6ec4291a085d445", "fusion_lon": 0.0, "lat": 38.90051066666667, "fusion_lat": 0.0}, {"is_disabled": 0, "rental_uris": {"android": "https://dc.lft.to/lastmile_qr_scan", "ios": "https://dc.lft.to/lastmile_qr_scan"}, "is_reserved": 0, "name": "9abbea92176cc5c0601ff7373133d8f6", "lon": -77.01403116666667, "type": "electric_scooter", "bike_id": "9abbea92176cc5c0601ff7373133d8f6", "fusion_lon": 0.0, "lat": 38.876553666666666, "fusion_lat": 0.0}, {"is_disabled": 0, "rental_uris": {"android": "https://dc.lft.to/lastmile_qr_scan", "ios": "https://dc.lft.to/lastmile_qr_scan"}, "is_reserved": 0, "name": "bfa6387a969a3c127d02cb71827b8078", "lon": -77.00569683333333, "type": "electric_scooter", "bike_id": "bfa6387a969a3c127d02cb71827b8078", "fusion_lon": 0.0, "lat": 38.88499566666667, "fusion_lat": 0.0}, {"is_disabled": 0, "rental_uris": {"android": "https://dc.lft.to/lastmile_qr_scan", "ios": "https://dc.lft.to/lastmile_qr_scan"}, "is_reserved": 0, "name": "cdb71b6ad5a1a4609a9e6d0b54f04f38", "lon": -77.112241, "type": "electric_bike", "bike_id": "cdb71b6ad5a1a4609a9e6d0b54f04f38", "fusion_lon": 0.0, "lat": 38.8122215, "fusion_lat": 0.0}, {"is_disabled": 0, "rental_uris": {"android": "https://dc.lft.to/lastmile_qr_scan", "ios": "https://dc.lft.to/lastmile_qr_scan"}, "is_reserved": 0, "name": "0d231d36c00c5c721d1bef64a1c06588", "lon": -77.02151983333333, "type": "electric_scooter", "bike_id": "0d231d36c00c5c721d1bef64a1c06588", "fusion_lon": 0.0, "lat": 38.9259735, "fusion_lat": 0.0}, {"is_disabled": 0, "rental_uris": {"android": "https://dc.lft.to/lastmile_qr_scan", "ios": "https://dc.lft.to/lastmile_qr_scan"}, "is_reserved": 0, "name": "68bce6dea8f29b62c945568481a5daeb", "lon": -76.99882466666666, "type": "electric_scooter", "bike_id": "68bce6dea8f29b62c945568481a5daeb", "fusion_lon": 0.0, "lat": 38.88978383333333, "fusion_lat": 0.0}, {"is_disabled": 0, "rental_uris": {"android": "https://dc.lft.to/lastmile_qr_scan", "ios": "https://dc.lft.to/lastmile_qr_scan"}, "is_reserved": 0, "name": "0ab6ad5e941c87ef81cfd677c4a543ab", "lon": -77.04265466666666, "type": "electric_scooter", "bike_id": "0ab6ad5e941c87ef81cfd677c4a543ab", "fusion_lon": 0.0, "lat": 38.934101166666665, "fusion_lat": 0.0}, {"is_disabled": 0, "rental_uris": {"android": "https://dc.lft.to/lastmile_qr_scan", "ios": "https://dc.lft.to/lastmile_qr_scan"}, "is_reserved": 0, "name": "b3ab18e9c5ae15ca76d28f2324d7fae5", "lon": -77.04033033333333, "type": "electric_scooter", "bike_id": "b3ab18e9c5ae15ca76d28f2324d7fae5", "fusion_lon": 0.0, "lat": 38.9178715, "fusion_lat": 0.0}, {"is_disabled": 0, "rental_uris": {"android": "https://dc.lft.to/lastmile_qr_scan", "ios": "https://dc.lft.to/lastmile_qr_scan"}, "is_reserved": 0, "name": "d7354114327b3fedbc60c7b8e24b21bc", "lon": -76.95019366666666, "type": "electric_scooter", "bike_id": "d7354114327b3fedbc60c7b8e24b21bc", "fusion_lon": 0.0, "lat": 38.883914833333336, "fusion_lat": 0.0}, {"is_disabled": 0, "rental_uris": {"android": "https://dc.lft.to/lastmile_qr_scan", "ios": "https://dc.lft.to/lastmile_qr_scan"}, "is_reserved": 0, "name": "cb98818ec4d3cbb77327800a9f3e3f5c", "lon": -77.10180516666667, "type": "electric_bike", "bike_id": "cb98818ec4d3cbb77327800a9f3e3f5c", "fusion_lon": 0.0, "lat": 38.91808616666667, "fusion_lat": 0.0}, {"is_disabled": 0, "rental_uris": {"android": "https://dc.lft.to/lastmile_qr_scan", "ios": "https://dc.lft.to/lastmile_qr_scan"}, "is_reserved": 0, "name": "a87781485810b425192505c9499fb4d7", "lon": -77.02454016666667, "type": "electric_scooter", "bike_id": "a87781485810b425192505c9499fb4d7", "fusion_lon": 0.0, "lat": 38.937152, "fusion_lat": 0.0}, {"is_disabled": 0, "rental_uris": {"android": "https://dc.lft.to/lastmile_qr_scan", "ios": "https://dc.lft.to/lastmile_qr_scan"}, "is_reserved": 0, "name": "a32d9c4caa38ee77e2dc2a232d0a95dc", "lon": -77.131818, "type": "electric_bike", "bike_id": "a32d9c4caa38ee77e2dc2a232d0a95dc", "fusion_lon": 0.0, "lat": 38.869075333333335, "fusion_lat": 0.0}, {"is_disabled": 0, "rental_uris": {"android": "https://dc.lft.to/lastmile_qr_scan", "ios": "https://dc.lft.to/lastmile_qr_scan"}, "is_reserved": 0, "name": "b2e1a16d4dd7f5e99f1b608d98dd0b4f", "lon": -77.04348233333333, "type": "electric_scooter", "bike_id": "b2e1a16d4dd7f5e99f1b608d98dd0b4f", "fusion_lon": 0.0, "lat": 38.9032665, "fusion_lat": 0.0}, {"is_disabled": 0, "rental_uris": {"android": "https://dc.lft.to/lastmile_qr_scan", "ios": "https://dc.lft.to/lastmile_qr_scan"}, "is_reserved": 0, "name": "97eeed76b634c7f7ea7245f665838946", "lon": -77.03057166666666, "type": "electric_scooter", "bike_id": "97eeed76b634c7f7ea7245f665838946", "fusion_lon": 0.0, "lat": 38.8998225, "fusion_lat": 0.0}, {"is_disabled": 0, "rental_uris": {"android": "https://dc.lft.to/lastmile_qr_scan", "ios": "https://dc.lft.to/lastmile_qr_scan"}, "is_reserved": 0, "name": "a703d991e301400bd21caf72ded1a6ae", "lon": -77.00070133333334, "type": "electric_scooter", "bike_id": "a703d991e301400bd21caf72ded1a6ae", "fusion_lon": 0.0, "lat": 38.8765235, "fusion_lat": 0.0}, {"is_disabled": 0, "rental_uris": {"android": "https://dc.lft.to/lastmile_qr_scan", "ios": "https://dc.lft.to/lastmile_qr_scan"}, "is_reserved": 0, "name": "a9b00a6d54634ca9fe621288f428cb37", "lon": -77.0280795, "type": "electric_scooter", "bike_id": "a9b00a6d54634ca9fe621288f428cb37", "fusion_lon": 0.0, "lat": 38.904615, "fusion_lat": 0.0}, {"is_disabled": 0, "rental_uris": {"android": "https://dc.lft.to/lastmile_qr_scan", "ios": "https://dc.lft.to/lastmile_qr_scan"}, "is_reserved": 0, "name": "278985bcb099a0925fde5b8e684ece4e", "lon": -77.03421933333334, "type": "electric_scooter", "bike_id": "278985bcb099a0925fde5b8e684ece4e", "fusion_lon": 0.0, "lat": 38.9294875, "fusion_lat": 0.0}, {"is_disabled": 0, "rental_uris": {"android": "https://dc.lft.to/lastmile_qr_scan", "ios": "https://dc.lft.to/lastmile_qr_scan"}, "is_reserved": 0, "name": "d42d0384b53fec290ca35fa2ce8a7752", "lon": -77.04533466666666, "type": "electric_scooter", "bike_id": "d42d0384b53fec290ca35fa2ce8a7752", "fusion_lon": 0.0, "lat": 38.90371566666666, "fusion_lat": 0.0}, {"is_disabled": 0, "rental_uris": {"android": "https://dc.lft.to/lastmile_qr_scan", "ios": "https://dc.lft.to/lastmile_qr_scan"}, "is_reserved": 0, "name": "aecc42257cd8f0d69d2310b1849d132e", "lon": -77.03638316666667, "type": "electric_scooter", "bike_id": "aecc42257cd8f0d69d2310b1849d132e", "fusion_lon": 0.0, "lat": 38.9181415, "fusion_lat": 0.0}, {"is_disabled": 0, "rental_uris": {"android": "https://dc.lft.to/lastmile_qr_scan", "ios": "https://dc.lft.to/lastmile_qr_scan"}, "is_reserved": 0, "name": "3405075519cb503dd8d4a58c32287cea", "lon": -77.0208035, "type": "electric_scooter", "bike_id": "3405075519cb503dd8d4a58c32287cea", "fusion_lon": 0.0, "lat": 38.8849285, "fusion_lat": 0.0}, {"is_disabled": 0, "rental_uris": {"android": "https://dc.lft.to/lastmile_qr_scan", "ios": "https://dc.lft.to/lastmile_qr_scan"}, "is_reserved": 0, "name": "31dd6566278262dd6c115c5b998e7869", "lon": -77.0318245, "type": "electric_scooter", "bike_id": "31dd6566278262dd6c115c5b998e7869", "fusion_lon": 0.0, "lat": 38.91398566666667, "fusion_lat": 0.0}, {"is_disabled": 0, "rental_uris": {"android": "https://dc.lft.to/lastmile_qr_scan", "ios": "https://dc.lft.to/lastmile_qr_scan"}, "is_reserved": 0, "name": "a9383c7f458adeb333269445e2221281", "lon": -77.11305783333333, "type": "electric_bike", "bike_id": "a9383c7f458adeb333269445e2221281", "fusion_lon": 0.0, "lat": 38.88197433333333, "fusion_lat": 0.0}, {"is_disabled": 0, "rental_uris": {"android": "https://dc.lft.to/lastmile_qr_scan", "ios": "https://dc.lft.to/lastmile_qr_scan"}, "is_reserved": 0, "name": "1b8d9a9b85d0596f77e6da86c4469b52", "lon": -77.04170316666666, "type": "electric_scooter", "bike_id": "1b8d9a9b85d0596f77e6da86c4469b52", "fusion_lon": 0.0, "lat": 38.915765, "fusion_lat": 0.0}, {"is_disabled": 0, "rental_uris": {"android": "https://dc.lft.to/lastmile_qr_scan", "ios": "https://dc.lft.to/lastmile_qr_scan"}, "is_reserved": 0, "name": "f279f78e17dc3def2145f8e32bd8284f", "lon": -77.0299855, "type": "electric_scooter", "bike_id": "f279f78e17dc3def2145f8e32bd8284f", "fusion_lon": 0.0, "lat": 38.89761633333333, "fusion_lat": 0.0}, {"is_disabled": 0, "rental_uris": {"android": "https://dc.lft.to/lastmile_qr_scan", "ios": "https://dc.lft.to/lastmile_qr_scan"}, "is_reserved": 0, "name": "349c78c0001f1ff3137d2daa931259cc", "lon": -77.02799533333334, "type": "electric_scooter", "bike_id": "349c78c0001f1ff3137d2daa931259cc", "fusion_lon": 0.0, "lat": 38.90390583333333, "fusion_lat": 0.0}, {"is_disabled": 0, "rental_uris": {"android": "https://dc.lft.to/lastmile_qr_scan", "ios": "https://dc.lft.to/lastmile_qr_scan"}, "is_reserved": 0, "name": "c2e1b0989cb4b1436e46a8959ce20daa", "lon": -77.0316735, "type": "electric_scooter", "bike_id": "c2e1b0989cb4b1436e46a8959ce20daa", "fusion_lon": 0.0, "lat": 38.911062, "fusion_lat": 0.0}, {"is_disabled": 0, "rental_uris": {"android": "https://dc.lft.to/lastmile_qr_scan", "ios": "https://dc.lft.to/lastmile_qr_scan"}, "is_reserved": 0, "name": "6c491cbfdeac1414f10ae6e8442f3bf3", "lon": -77.01623716666667, "type": "electric_scooter", "bike_id": "6c491cbfdeac1414f10ae6e8442f3bf3", "fusion_lon": 0.0, "lat": 38.89536916666667, "fusion_lat": 0.0}, {"is_disabled": 0, "rental_uris": {"android": "https://dc.lft.to/lastmile_qr_scan", "ios": "https://dc.lft.to/lastmile_qr_scan"}, "is_reserved": 0, "name": "47f6c7356aa8c9e64c83ac3aa231e287", "lon": -76.94630916666667, "type": "electric_scooter", "bike_id": "47f6c7356aa8c9e64c83ac3aa231e287", "fusion_lon": 0.0, "lat": 38.898329833333335, "fusion_lat": 0.0}, {"is_disabled": 0, "rental_uris": {"android": "https://dc.lft.to/lastmile_qr_scan", "ios": "https://dc.lft.to/lastmile_qr_scan"}, "is_reserved": 0, "name": "1afc9503c20bb65328166256795592e3", "lon": -77.02992783333333, "type": "electric_scooter", "bike_id": "1afc9503c20bb65328166256795592e3", "fusion_lon": 0.0, "lat": 38.926826, "fusion_lat": 0.0}, {"is_disabled": 0, "rental_uris": {"android": "https://dc.lft.to/lastmile_qr_scan", "ios": "https://dc.lft.to/lastmile_qr_scan"}, "is_reserved": 0, "name": "df430b69eb0a4a7a038838b9d0e8f273", "lon": -77.03473783333334, "type": "electric_scooter", "bike_id": "df430b69eb0a4a7a038838b9d0e8f273", "fusion_lon": 0.0, "lat": 38.907162666666665, "fusion_lat": 0.0}, {"is_disabled": 0, "rental_uris": {"android": "https://dc.lft.to/lastmile_qr_scan", "ios": "https://dc.lft.to/lastmile_qr_scan"}, "is_reserved": 0, "name": "437409ded67bb53e273ee82e94d64eb4", "lon": -77.01216833333334, "type": "electric_scooter", "bike_id": "437409ded67bb53e273ee82e94d64eb4", "fusion_lon": 0.0, "lat": 38.914912666666666, "fusion_lat": 0.0}, {"is_disabled": 0, "rental_uris": {"android": "https://dc.lft.to/lastmile_qr_scan", "ios": "https://dc.lft.to/lastmile_qr_scan"}, "is_reserved": 0, "name": "8ecadfe77f1efb07798c8e9e56b3e686", "lon": -77.03638633333334, "type": "electric_scooter", "bike_id": "8ecadfe77f1efb07798c8e9e56b3e686", "fusion_lon": 0.0, "lat": 38.916293833333334, "fusion_lat": 0.0}, {"is_disabled": 0, "rental_uris": {"android": "https://dc.lft.to/lastmile_qr_scan", "ios": "https://dc.lft.to/lastmile_qr_scan"}, "is_reserved": 0, "name": "ec0046d4e2351ac4e252398265d0e597", "lon": -76.99008716666667, "type": "electric_scooter", "bike_id": "ec0046d4e2351ac4e252398265d0e597", "fusion_lon": 0.0, "lat": 38.865075, "fusion_lat": 0.0}, {"is_disabled": 0, "rental_uris": {"android": "https://dc.lft.to/lastmile_qr_scan", "ios": "https://dc.lft.to/lastmile_qr_scan"}, "is_reserved": 0, "name": "7050d907e359121f79b58374f674c5be", "lon": -77.04162366666667, "type": "electric_scooter", "bike_id": "7050d907e359121f79b58374f674c5be", "fusion_lon": 0.0, "lat": 38.9080625, "fusion_lat": 0.0}, {"is_disabled": 0, "rental_uris": {"android": "https://dc.lft.to/lastmile_qr_scan", "ios": "https://dc.lft.to/lastmile_qr_scan"}, "is_reserved": 0, "name": "1bcae3a6b0116751fc2c27381c35924c", "lon": -76.99557816666666, "type": "electric_scooter", "bike_id": "1bcae3a6b0116751fc2c27381c35924c", "fusion_lon": 0.0, "lat": 38.920371, "fusion_lat": 0.0}, {"is_disabled": 0, "rental_uris": {"android": "https://dc.lft.to/lastmile_qr_scan", "ios": "https://dc.lft.to/lastmile_qr_scan"}, "is_reserved": 0, "name": "a0e7a2d82ce5b018dfacea5a6568bb89", "lon": -76.94993516666666, "type": "electric_scooter", "bike_id": "a0e7a2d82ce5b018dfacea5a6568bb89", "fusion_lon": 0.0, "lat": 38.893937, "fusion_lat": 0.0}, {"is_disabled": 0, "rental_uris": {"android": "https://dc.lft.to/lastmile_qr_scan", "ios": "https://dc.lft.to/lastmile_qr_scan"}, "is_reserved": 0, "name": "ec62f35b6897b4224e780dcd68d0156c", "lon": -76.9908165, "type": "electric_scooter", "bike_id": "ec62f35b6897b4224e780dcd68d0156c", "fusion_lon": 0.0, "lat": 38.86049233333333, "fusion_lat": 0.0}, {"is_disabled": 0, "rental_uris": {"android": "https://dc.lft.to/lastmile_qr_scan", "ios": "https://dc.lft.to/lastmile_qr_scan"}, "is_reserved": 0, "name": "f54e65fb342cca4acce5922b184c6c9a", "lon": -77.03125366666667, "type": "electric_scooter", "bike_id": "f54e65fb342cca4acce5922b184c6c9a", "fusion_lon": 0.0, "lat": 38.934215333333334, "fusion_lat": 0.0}, {"is_disabled": 0, "rental_uris": {"android": "https://dc.lft.to/lastmile_qr_scan", "ios": "https://dc.lft.to/lastmile_qr_scan"}, "is_reserved": 0, "name": "84cb9c1ba4edbc1a1652f59c5734a9d8", "lon": -76.9881085, "type": "electric_scooter", "bike_id": "84cb9c1ba4edbc1a1652f59c5734a9d8", "fusion_lon": 0.0, "lat": 38.900095, "fusion_lat": 0.0}, {"is_disabled": 0, "rental_uris": {"android": "https://dc.lft.to/lastmile_qr_scan", "ios": "https://dc.lft.to/lastmile_qr_scan"}, "is_reserved": 0, "name": "a3b73b47ec604c022ff9021d0cbadc9f", "lon": -77.03659516666667, "type": "electric_scooter", "bike_id": "a3b73b47ec604c022ff9021d0cbadc9f", "fusion_lon": 0.0, "lat": 38.917125666666664, "fusion_lat": 0.0}, {"is_disabled": 0, "rental_uris": {"android": "https://dc.lft.to/lastmile_qr_scan", "ios": "https://dc.lft.to/lastmile_qr_scan"}, "is_reserved": 0, "name": "3fdf33ef61ee1dd96a9b7e37b6ced4c1", "lon": -77.05388916666666, "type": "electric_scooter", "bike_id": "3fdf33ef61ee1dd96a9b7e37b6ced4c1", "fusion_lon": 0.0, "lat": 38.9051095, "fusion_lat": 0.0}, {"is_disabled": 0, "rental_uris": {"android": "https://dc.lft.to/lastmile_qr_scan", "ios": "https://dc.lft.to/lastmile_qr_scan"}, "is_reserved": 0, "name": "d8487a906d30b832e24c69d1ce7f49fa", "lon": -77.03233083333333, "type": "electric_scooter", "bike_id": "d8487a906d30b832e24c69d1ce7f49fa", "fusion_lon": 0.0, "lat": 38.901325666666665, "fusion_lat": 0.0}, {"is_disabled": 0, "rental_uris": {"android": "https://dc.lft.to/lastmile_qr_scan", "ios": "https://dc.lft.to/lastmile_qr_scan"}, "is_reserved": 0, "name": "fa44d43d445fb14147b307cdd2e16ae8", "lon": -77.04994116666667, "type": "electric_scooter", "bike_id": "fa44d43d445fb14147b307cdd2e16ae8", "fusion_lon": 0.0, "lat": 38.90149983333333, "fusion_lat": 0.0}, {"is_disabled": 0, "rental_uris": {"android": "https://dc.lft.to/lastmile_qr_scan", "ios": "https://dc.lft.to/lastmile_qr_scan"}, "is_reserved": 0, "name": "ca9389e3111966c60a2503726bb41684", "lon": -77.00534016666667, "type": "electric_scooter", "bike_id": "ca9389e3111966c60a2503726bb41684", "fusion_lon": 0.0, "lat": 38.87471033333333, "fusion_lat": 0.0}, {"is_disabled": 0, "rental_uris": {"android": "https://dc.lft.to/lastmile_qr_scan", "ios": "https://dc.lft.to/lastmile_qr_scan"}, "is_reserved": 0, "name": "b8776c313378f72d2e08d6c94fdd46a8", "lon": -77.04062066666667, "type": "electric_scooter", "bike_id": "b8776c313378f72d2e08d6c94fdd46a8", "fusion_lon": 0.0, "lat": 38.9088565, "fusion_lat": 0.0}, {"is_disabled": 0, "rental_uris": {"android": "https://dc.lft.to/lastmile_qr_scan", "ios": "https://dc.lft.to/lastmile_qr_scan"}, "is_reserved": 0, "name": "83760df4b3970e1ec4a73bd73bb39b5b", "lon": -77.02166966666667, "type": "electric_scooter", "bike_id": "83760df4b3970e1ec4a73bd73bb39b5b", "fusion_lon": 0.0, "lat": 38.926128, "fusion_lat": 0.0}, {"is_disabled": 0, "rental_uris": {"android": "https://dc.lft.to/lastmile_qr_scan", "ios": "https://dc.lft.to/lastmile_qr_scan"}, "is_reserved": 0, "name": "5a17947b0484fe3f59fcf943ca23b1f1", "lon": -76.98747666666667, "type": "electric_bike", "bike_id": "5a17947b0484fe3f59fcf943ca23b1f1", "fusion_lon": 0.0, "lat": 38.988276, "fusion_lat": 0.0}, {"is_disabled": 0, "rental_uris": {"android": "https://dc.lft.to/lastmile_qr_scan", "ios": "https://dc.lft.to/lastmile_qr_scan"}, "is_reserved": 0, "name": "5e2b83de17ff27527bfbf46dea6b2dd8", "lon": -77.0372465, "type": "electric_scooter", "bike_id": "5e2b83de17ff27527bfbf46dea6b2dd8", "fusion_lon": 0.0, "lat": 38.911184, "fusion_lat": 0.0}, {"is_disabled": 0, "rental_uris": {"android": "https://dc.lft.to/lastmile_qr_scan", "ios": "https://dc.lft.to/lastmile_qr_scan"}, "is_reserved": 0, "name": "0657ac2c230b9854a51c19fada3803f7", "lon": -76.98069283333334, "type": "electric_scooter", "bike_id": "0657ac2c230b9854a51c19fada3803f7", "fusion_lon": 0.0, "lat": 38.90174416666667, "fusion_lat": 0.0}, {"is_disabled": 0, "rental_uris": {"android": "https://dc.lft.to/lastmile_qr_scan", "ios": "https://dc.lft.to/lastmile_qr_scan"}, "is_reserved": 0, "name": "c13aecf24ebbcfc653614fb171680454", "lon": -77.03579616666667, "type": "electric_scooter", "bike_id": "c13aecf24ebbcfc653614fb171680454", "fusion_lon": 0.0, "lat": 38.904670333333335, "fusion_lat": 0.0}, {"is_disabled": 0, "rental_uris": {"android": "https://dc.lft.to/lastmile_qr_scan", "ios": "https://dc.lft.to/lastmile_qr_scan"}, "is_reserved": 0, "name": "e1cf4b92e5ef9e2f3e43c30b0d79a59c", "lon": -77.03640433333334, "type": "electric_scooter", "bike_id": "e1cf4b92e5ef9e2f3e43c30b0d79a59c", "fusion_lon": 0.0, "lat": 38.9317495, "fusion_lat": 0.0}, {"is_disabled": 0, "rental_uris": {"android": "https://dc.lft.to/lastmile_qr_scan", "ios": "https://dc.lft.to/lastmile_qr_scan"}, "is_reserved": 0, "name": "1197610c061c488e128d460ed2396744", "lon": -76.9288655, "type": "electric_bike", "bike_id": "1197610c061c488e128d460ed2396744", "fusion_lon": 0.0, "lat": 38.978432, "fusion_lat": 0.0}, {"is_disabled": 0, "rental_uris": {"android": "https://dc.lft.to/lastmile_qr_scan", "ios": "https://dc.lft.to/lastmile_qr_scan"}, "is_reserved": 0, "name": "580fbd4c62230a00c87775e364c1269e", "lon": -77.03155733333334, "type": "electric_scooter", "bike_id": "580fbd4c62230a00c87775e364c1269e", "fusion_lon": 0.0, "lat": 38.92814416666667, "fusion_lat": 0.0}, {"is_disabled": 0, "rental_uris": {"android": "https://dc.lft.to/lastmile_qr_scan", "ios": "https://dc.lft.to/lastmile_qr_scan"}, "is_reserved": 0, "name": "a39ee1352ba1017c46a465e5e398e125", "lon": -76.996322, "type": "electric_scooter", "bike_id": "a39ee1352ba1017c46a465e5e398e125", "fusion_lon": 0.0, "lat": 38.846205, "fusion_lat": 0.0}, {"is_disabled": 0, "rental_uris": {"android": "https://dc.lft.to/lastmile_qr_scan", "ios": "https://dc.lft.to/lastmile_qr_scan"}, "is_reserved": 0, "name": "f37b86765d5b53ee29b397fffc6b779c", "lon": -77.01198366666667, "type": "electric_scooter", "bike_id": "f37b86765d5b53ee29b397fffc6b779c", "fusion_lon": 0.0, "lat": 38.89524733333333, "fusion_lat": 0.0}, {"is_disabled": 0, "rental_uris": {"android": "https://dc.lft.to/lastmile_qr_scan", "ios": "https://dc.lft.to/lastmile_qr_scan"}, "is_reserved": 0, "name": "bc3cf9599a9be8e73ab38875fb3c0a18", "lon": -77.0175455, "type": "electric_scooter", "bike_id": "bc3cf9599a9be8e73ab38875fb3c0a18", "fusion_lon": 0.0, "lat": 38.91354883333333, "fusion_lat": 0.0}, {"is_disabled": 0, "rental_uris": {"android": "https://dc.lft.to/lastmile_qr_scan", "ios": "https://dc.lft.to/lastmile_qr_scan"}, "is_reserved": 0, "name": "e75f2bef886a706c240eb7ab8e8706ce", "lon": -77.05000683333333, "type": "electric_scooter", "bike_id": "e75f2bef886a706c240eb7ab8e8706ce", "fusion_lon": 0.0, "lat": 38.91578233333333, "fusion_lat": 0.0}, {"is_disabled": 0, "rental_uris": {"android": "https://dc.lft.to/lastmile_qr_scan", "ios": "https://dc.lft.to/lastmile_qr_scan"}, "is_reserved": 0, "name": "7c3f17cdd920a88d17efa93a4d13a044", "lon": -76.93356383333334, "type": "electric_scooter", "bike_id": "7c3f17cdd920a88d17efa93a4d13a044", "fusion_lon": 0.0, "lat": 38.887966, "fusion_lat": 0.0}, {"is_disabled": 0, "rental_uris": {"android": "https://dc.lft.to/lastmile_qr_scan", "ios": "https://dc.lft.to/lastmile_qr_scan"}, "is_reserved": 0, "name": "41e6d3ba557480b7ce4385e527209a1f", "lon": -77.04471383333333, "type": "electric_scooter", "bike_id": "41e6d3ba557480b7ce4385e527209a1f", "fusion_lon": 0.0, "lat": 38.911079, "fusion_lat": 0.0}, {"is_disabled": 0, "rental_uris": {"android": "https://dc.lft.to/lastmile_qr_scan", "ios": "https://dc.lft.to/lastmile_qr_scan"}, "is_reserved": 0, "name": "4078a69c320c8136ce87088601790073", "lon": -77.02110583333334, "type": "electric_scooter", "bike_id": "4078a69c320c8136ce87088601790073", "fusion_lon": 0.0, "lat": 38.9409505, "fusion_lat": 0.0}, {"is_disabled": 0, "rental_uris": {"android": "https://dc.lft.to/lastmile_qr_scan", "ios": "https://dc.lft.to/lastmile_qr_scan"}, "is_reserved": 0, "name": "33e76934903afa24f93d8eefe1f8ae20", "lon": -76.99056266666666, "type": "electric_scooter", "bike_id": "33e76934903afa24f93d8eefe1f8ae20", "fusion_lon": 0.0, "lat": 38.86359616666667, "fusion_lat": 0.0}, {"is_disabled": 0, "rental_uris": {"android": "https://dc.lft.to/lastmile_qr_scan", "ios": "https://dc.lft.to/lastmile_qr_scan"}, "is_reserved": 0, "name": "9b5b91b45a06f260f79e8d5314599a2b", "lon": -77.01245466666667, "type": "electric_scooter", "bike_id": "9b5b91b45a06f260f79e8d5314599a2b", "fusion_lon": 0.0, "lat": 38.93108633333333, "fusion_lat": 0.0}, {"is_disabled": 0, "rental_uris": {"android": "https://dc.lft.to/lastmile_qr_scan", "ios": "https://dc.lft.to/lastmile_qr_scan"}, "is_reserved": 0, "name": "128292b617a3c26ec36be7022de21bdd", "lon": -77.024803, "type": "electric_scooter", "bike_id": "128292b617a3c26ec36be7022de21bdd", "fusion_lon": 0.0, "lat": 38.9375525, "fusion_lat": 0.0}, {"is_disabled": 0, "rental_uris": {"android": "https://dc.lft.to/lastmile_qr_scan", "ios": "https://dc.lft.to/lastmile_qr_scan"}, "is_reserved": 0, "name": "bb35709a79befbd339c62e5f7270fba1", "lon": -77.04130983333333, "type": "electric_scooter", "bike_id": "bb35709a79befbd339c62e5f7270fba1", "fusion_lon": 0.0, "lat": 38.92142166666667, "fusion_lat": 0.0}, {"is_disabled": 0, "rental_uris": {"android": "https://dc.lft.to/lastmile_qr_scan", "ios": "https://dc.lft.to/lastmile_qr_scan"}, "is_reserved": 0, "name": "d13853dc08ad522bb526e7697beb6da0", "lon": -77.04408283333333, "type": "electric_scooter", "bike_id": "d13853dc08ad522bb526e7697beb6da0", "fusion_lon": 0.0, "lat": 38.9295295, "fusion_lat": 0.0}, {"is_disabled": 0, "rental_uris": {"android": "https://dc.lft.to/lastmile_qr_scan", "ios": "https://dc.lft.to/lastmile_qr_scan"}, "is_reserved": 0, "name": "f2a226cb75eb92435f61ba38b2a0ff64", "lon": -77.03866566666666, "type": "electric_scooter", "bike_id": "f2a226cb75eb92435f61ba38b2a0ff64", "fusion_lon": 0.0, "lat": 38.921474, "fusion_lat": 0.0}, {"is_disabled": 0, "rental_uris": {"android": "https://dc.lft.to/lastmile_qr_scan", "ios": "https://dc.lft.to/lastmile_qr_scan"}, "is_reserved": 0, "name": "5d072a930ba01c0ff53fc0a7fefd56a6", "lon": -77.02781416666667, "type": "electric_scooter", "bike_id": "5d072a930ba01c0ff53fc0a7fefd56a6", "fusion_lon": 0.0, "lat": 38.9511905, "fusion_lat": 0.0}, {"is_disabled": 0, "rental_uris": {"android": "https://dc.lft.to/lastmile_qr_scan", "ios": "https://dc.lft.to/lastmile_qr_scan"}, "is_reserved": 0, "name": "e7cbc65c064fecd68da65ccaf4617e9e", "lon": -77.02048383333333, "type": "electric_scooter", "bike_id": "e7cbc65c064fecd68da65ccaf4617e9e", "fusion_lon": 0.0, "lat": 38.95867833333333, "fusion_lat": 0.0}, {"is_disabled": 0, "rental_uris": {"android": "https://dc.lft.to/lastmile_qr_scan", "ios": "https://dc.lft.to/lastmile_qr_scan"}, "is_reserved": 0, "name": "cfc575423c52456afe8a80912cdc7048", "lon": -77.0386725, "type": "electric_scooter", "bike_id": "cfc575423c52456afe8a80912cdc7048", "fusion_lon": 0.0, "lat": 38.9155615, "fusion_lat": 0.0}, {"is_disabled": 0, "rental_uris": {"android": "https://dc.lft.to/lastmile_qr_scan", "ios": "https://dc.lft.to/lastmile_qr_scan"}, "is_reserved": 0, "name": "a76e141a135b5a993bfdbe2b2e67131f", "lon": -77.01740816666667, "type": "electric_scooter", "bike_id": "a76e141a135b5a993bfdbe2b2e67131f", "fusion_lon": 0.0, "lat": 38.9144285, "fusion_lat": 0.0}, {"is_disabled": 0, "rental_uris": {"android": "https://dc.lft.to/lastmile_qr_scan", "ios": "https://dc.lft.to/lastmile_qr_scan"}, "is_reserved": 0, "name": "4472ffb452c4f363a18173ff77bff054", "lon": -77.02713716666666, "type": "electric_scooter", "bike_id": "4472ffb452c4f363a18173ff77bff054", "fusion_lon": 0.0, "lat": 38.90963133333333, "fusion_lat": 0.0}, {"is_disabled": 0, "rental_uris": {"android": "https://dc.lft.to/lastmile_qr_scan", "ios": "https://dc.lft.to/lastmile_qr_scan"}, "is_reserved": 0, "name": "8618fee16cf1bfd60eaf52c0e355283f", "lon": -76.94532466666666, "type": "electric_bike", "bike_id": "8618fee16cf1bfd60eaf52c0e355283f", "fusion_lon": 0.0, "lat": 38.86753316666667, "fusion_lat": 0.0}, {"is_disabled": 0, "rental_uris": {"android": "https://dc.lft.to/lastmile_qr_scan", "ios": "https://dc.lft.to/lastmile_qr_scan"}, "is_reserved": 0, "name": "f3078fd4db81efa391a0e9025f50b797", "lon": -77.04306066666666, "type": "electric_scooter", "bike_id": "f3078fd4db81efa391a0e9025f50b797", "fusion_lon": 0.0, "lat": 38.903650666666664, "fusion_lat": 0.0}, {"is_disabled": 0, "rental_uris": {"android": "https://dc.lft.to/lastmile_qr_scan", "ios": "https://dc.lft.to/lastmile_qr_scan"}, "is_reserved": 0, "name": "a47f562ad1287aaac9a98cb991668e7e", "lon": -77.034407, "type": "electric_scooter", "bike_id": "a47f562ad1287aaac9a98cb991668e7e", "fusion_lon": 0.0, "lat": 38.9101065, "fusion_lat": 0.0}, {"is_disabled": 0, "rental_uris": {"android": "https://dc.lft.to/lastmile_qr_scan", "ios": "https://dc.lft.to/lastmile_qr_scan"}, "is_reserved": 0, "name": "d3478959dc1eb52dd1797504cad5f9cc", "lon": -77.0007335, "type": "electric_scooter", "bike_id": "d3478959dc1eb52dd1797504cad5f9cc", "fusion_lon": 0.0, "lat": 38.8765845, "fusion_lat": 0.0}, {"is_disabled": 0, "rental_uris": {"android": "https://dc.lft.to/lastmile_qr_scan", "ios": "https://dc.lft.to/lastmile_qr_scan"}, "is_reserved": 0, "name": "3a62c02cab02a75b086399aa618adba0", "lon": -76.990644, "type": "electric_scooter", "bike_id": "3a62c02cab02a75b086399aa618adba0", "fusion_lon": 0.0, "lat": 38.8635795, "fusion_lat": 0.0}, {"is_disabled": 0, "rental_uris": {"android": "https://dc.lft.to/lastmile_qr_scan", "ios": "https://dc.lft.to/lastmile_qr_scan"}, "is_reserved": 0, "name": "2627ca12580aea4543fa46356337368e", "lon": -77.03052833333334, "type": "electric_scooter", "bike_id": "2627ca12580aea4543fa46356337368e", "fusion_lon": 0.0, "lat": 38.89977316666667, "fusion_lat": 0.0}, {"is_disabled": 0, "rental_uris": {"android": "https://dc.lft.to/lastmile_qr_scan", "ios": "https://dc.lft.to/lastmile_qr_scan"}, "is_reserved": 0, "name": "59545b20ca201e60bab7ceb77f3ce63c", "lon": -76.98077716666667, "type": "electric_scooter", "bike_id": "59545b20ca201e60bab7ceb77f3ce63c", "fusion_lon": 0.0, "lat": 38.9364665, "fusion_lat": 0.0}, {"is_disabled": 0, "rental_uris": {"android": "https://dc.lft.to/lastmile_qr_scan", "ios": "https://dc.lft.to/lastmile_qr_scan"}, "is_reserved": 0, "name": "36f24105f5b2d0cca1d9df293c5b8869", "lon": -77.072986, "type": "electric_scooter", "bike_id": "36f24105f5b2d0cca1d9df293c5b8869", "fusion_lon": 0.0, "lat": 38.92284933333333, "fusion_lat": 0.0}, {"is_disabled": 0, "rental_uris": {"android": "https://dc.lft.to/lastmile_qr_scan", "ios": "https://dc.lft.to/lastmile_qr_scan"}, "is_reserved": 0, "name": "507d87afe595916aff64d26a7c743329", "lon": -77.02004616666666, "type": "electric_scooter", "bike_id": "507d87afe595916aff64d26a7c743329", "fusion_lon": 0.0, "lat": 38.898789, "fusion_lat": 0.0}, {"is_disabled": 0, "rental_uris": {"android": "https://dc.lft.to/lastmile_qr_scan", "ios": "https://dc.lft.to/lastmile_qr_scan"}, "is_reserved": 0, "name": "83ef942a54e8c646fa62ecba7d089a39", "lon": -77.01446266666666, "type": "electric_scooter", "bike_id": "83ef942a54e8c646fa62ecba7d089a39", "fusion_lon": 0.0, "lat": 38.929859, "fusion_lat": 0.0}, {"is_disabled": 0, "rental_uris": {"android": "https://dc.lft.to/lastmile_qr_scan", "ios": "https://dc.lft.to/lastmile_qr_scan"}, "is_reserved": 0, "name": "5bf8ff601f8ef8b027b8831fe5ab036a", "lon": -77.03655716666667, "type": "electric_scooter", "bike_id": "5bf8ff601f8ef8b027b8831fe5ab036a", "fusion_lon": 0.0, "lat": 38.91583416666667, "fusion_lat": 0.0}, {"is_disabled": 0, "rental_uris": {"android": "https://dc.lft.to/lastmile_qr_scan", "ios": "https://dc.lft.to/lastmile_qr_scan"}, "is_reserved": 0, "name": "d241178752a9250c8fc6a4c6aca9a305", "lon": -77.0394775, "type": "electric_scooter", "bike_id": "d241178752a9250c8fc6a4c6aca9a305", "fusion_lon": 0.0, "lat": 38.91399116666667, "fusion_lat": 0.0}, {"is_disabled": 0, "rental_uris": {"android": "https://dc.lft.to/lastmile_qr_scan", "ios": "https://dc.lft.to/lastmile_qr_scan"}, "is_reserved": 0, "name": "4d85860dcdbb47b182f47074c29817f5", "lon": -77.0236145, "type": "electric_scooter", "bike_id": "4d85860dcdbb47b182f47074c29817f5", "fusion_lon": 0.0, "lat": 38.925156666666666, "fusion_lat": 0.0}, {"is_disabled": 0, "rental_uris": {"android": "https://dc.lft.to/lastmile_qr_scan", "ios": "https://dc.lft.to/lastmile_qr_scan"}, "is_reserved": 0, "name": "91a2a5f6cf0622e03c99778f8b37e5df", "lon": -77.0065705, "type": "electric_scooter", "bike_id": "91a2a5f6cf0622e03c99778f8b37e5df", "fusion_lon": 0.0, "lat": 38.9446225, "fusion_lat": 0.0}, {"is_disabled": 0, "rental_uris": {"android": "https://dc.lft.to/lastmile_qr_scan", "ios": "https://dc.lft.to/lastmile_qr_scan"}, "is_reserved": 0, "name": "2d1f0af578dca4e818b699632a213dab", "lon": -77.00567033333333, "type": "electric_scooter", "bike_id": "2d1f0af578dca4e818b699632a213dab", "fusion_lon": 0.0, "lat": 38.88506666666667, "fusion_lat": 0.0}, {"is_disabled": 0, "rental_uris": {"android": "https://dc.lft.to/lastmile_qr_scan", "ios": "https://dc.lft.to/lastmile_qr_scan"}, "is_reserved": 0, "name": "96d246b3fed728964f4a18330e93bd30", "lon": -77.0366605, "type": "electric_scooter", "bike_id": "96d246b3fed728964f4a18330e93bd30", "fusion_lon": 0.0, "lat": 38.923245333333334, "fusion_lat": 0.0}, {"is_disabled": 0, "rental_uris": {"android": "https://dc.lft.to/lastmile_qr_scan", "ios": "https://dc.lft.to/lastmile_qr_scan"}, "is_reserved": 0, "name": "58a1cdd84d1bc51b5f4af87414d85afb", "lon": -77.02883816666667, "type": "electric_bike", "bike_id": "58a1cdd84d1bc51b5f4af87414d85afb", "fusion_lon": 0.0, "lat": 38.998511666666666, "fusion_lat": 0.0}, {"is_disabled": 0, "rental_uris": {"android": "https://dc.lft.to/lastmile_qr_scan", "ios": "https://dc.lft.to/lastmile_qr_scan"}, "is_reserved": 0, "name": "9ad72242b5c9bdf4694016dfef5392cb", "lon": -77.22936383333334, "type": "electric_bike", "bike_id": "9ad72242b5c9bdf4694016dfef5392cb", "fusion_lon": 0.0, "lat": 38.9318935, "fusion_lat": 0.0}, {"is_disabled": 0, "rental_uris": {"android": "https://dc.lft.to/lastmile_qr_scan", "ios": "https://dc.lft.to/lastmile_qr_scan"}, "is_reserved": 0, "name": "84f5ee7c7116ac6846eccf6c5b393b6c", "lon": -76.931843, "type": "electric_scooter", "bike_id": "84f5ee7c7116ac6846eccf6c5b393b6c", "fusion_lon": 0.0, "lat": 38.898770999999996, "fusion_lat": 0.0}, {"is_disabled": 0, "rental_uris": {"android": "https://dc.lft.to/lastmile_qr_scan", "ios": "https://dc.lft.to/lastmile_qr_scan"}, "is_reserved": 0, "name": "d069a4839990fc724b5c7ed63a2088c7", "lon": -77.00207233333333, "type": "electric_scooter", "bike_id": "d069a4839990fc724b5c7ed63a2088c7", "fusion_lon": 0.0, "lat": 38.900394166666665, "fusion_lat": 0.0}, {"is_disabled": 0, "rental_uris": {"android": "https://dc.lft.to/lastmile_qr_scan", "ios": "https://dc.lft.to/lastmile_qr_scan"}, "is_reserved": 0, "name": "9fe575ca7fa78f9471d46c1a5372aa86", "lon": -77.036046, "type": "electric_scooter", "bike_id": "9fe575ca7fa78f9471d46c1a5372aa86", "fusion_lon": 0.0, "lat": 38.93481333333333, "fusion_lat": 0.0}, {"is_disabled": 0, "rental_uris": {"android": "https://dc.lft.to/lastmile_qr_scan", "ios": "https://dc.lft.to/lastmile_qr_scan"}, "is_reserved": 0, "name": "0b6522016b1d7a7b44dc5d04326e554e", "lon": -76.91655833333333, "type": "electric_bike", "bike_id": "0b6522016b1d7a7b44dc5d04326e554e", "fusion_lon": 0.0, "lat": 38.868599333333336, "fusion_lat": 0.0}, {"is_disabled": 0, "rental_uris": {"android": "https://dc.lft.to/lastmile_qr_scan", "ios": "https://dc.lft.to/lastmile_qr_scan"}, "is_reserved": 0, "name": "782904eb080aa9cad2ab0129f5049d12", "lon": -77.022256, "type": "electric_scooter", "bike_id": "782904eb080aa9cad2ab0129f5049d12", "fusion_lon": 0.0, "lat": 38.89219816666667, "fusion_lat": 0.0}, {"is_disabled": 0, "rental_uris": {"android": "https://dc.lft.to/lastmile_qr_scan", "ios": "https://dc.lft.to/lastmile_qr_scan"}, "is_reserved": 0, "name": "a0843426c7856835422269521d8eefc7", "lon": -77.12266633333333, "type": "electric_bike", "bike_id": "a0843426c7856835422269521d8eefc7", "fusion_lon": 0.0, "lat": 38.89734933333333, "fusion_lat": 0.0}, {"is_disabled": 0, "rental_uris": {"android": "https://dc.lft.to/lastmile_qr_scan", "ios": "https://dc.lft.to/lastmile_qr_scan"}, "is_reserved": 0, "name": "6e90169851fdd853f2632b05e09a9bc9", "lon": -77.02580533333334, "type": "electric_scooter", "bike_id": "6e90169851fdd853f2632b05e09a9bc9", "fusion_lon": 0.0, "lat": 38.89521583333333, "fusion_lat": 0.0}, {"is_disabled": 0, "rental_uris": {"android": "https://dc.lft.to/lastmile_qr_scan", "ios": "https://dc.lft.to/lastmile_qr_scan"}, "is_reserved": 0, "name": "6b852c2f60c5dfc72161e2373cc72384", "lon": -77.0246515, "type": "electric_scooter", "bike_id": "6b852c2f60c5dfc72161e2373cc72384", "fusion_lon": 0.0, "lat": 38.939151833333334, "fusion_lat": 0.0}, {"is_disabled": 0, "rental_uris": {"android": "https://dc.lft.to/lastmile_qr_scan", "ios": "https://dc.lft.to/lastmile_qr_scan"}, "is_reserved": 0, "name": "3d6026e6069edcb4ab2f4034d481a4ce", "lon": -77.018531, "type": "electric_scooter", "bike_id": "3d6026e6069edcb4ab2f4034d481a4ce", "fusion_lon": 0.0, "lat": 38.97369583333333, "fusion_lat": 0.0}, {"is_disabled": 0, "rental_uris": {"android": "https://dc.lft.to/lastmile_qr_scan", "ios": "https://dc.lft.to/lastmile_qr_scan"}, "is_reserved": 0, "name": "89a7e7b059a76106cbb6c04820168b01", "lon": -76.98520583333334, "type": "electric_scooter", "bike_id": "89a7e7b059a76106cbb6c04820168b01", "fusion_lon": 0.0, "lat": 38.86005766666667, "fusion_lat": 0.0}, {"is_disabled": 0, "rental_uris": {"android": "https://dc.lft.to/lastmile_qr_scan", "ios": "https://dc.lft.to/lastmile_qr_scan"}, "is_reserved": 0, "name": "a00f10645fb713108b2b485dc2ccf834", "lon": -77.05930733333334, "type": "electric_scooter", "bike_id": "a00f10645fb713108b2b485dc2ccf834", "fusion_lon": 0.0, "lat": 38.936646333333336, "fusion_lat": 0.0}, {"is_disabled": 0, "rental_uris": {"android": "https://dc.lft.to/lastmile_qr_scan", "ios": "https://dc.lft.to/lastmile_qr_scan"}, "is_reserved": 0, "name": "2a3b879faa6b3c39847ae58376dd14dd", "lon": -77.02836716666667, "type": "electric_scooter", "bike_id": "2a3b879faa6b3c39847ae58376dd14dd", "fusion_lon": 0.0, "lat": 38.89526633333333, "fusion_lat": 0.0}, {"is_disabled": 0, "rental_uris": {"android": "https://dc.lft.to/lastmile_qr_scan", "ios": "https://dc.lft.to/lastmile_qr_scan"}, "is_reserved": 0, "name": "167b2651e44cf257872257d375431636", "lon": -77.042853, "type": "electric_scooter", "bike_id": "167b2651e44cf257872257d375431636", "fusion_lon": 0.0, "lat": 38.91102266666667, "fusion_lat": 0.0}, {"is_disabled": 0, "rental_uris": {"android": "https://dc.lft.to/lastmile_qr_scan", "ios": "https://dc.lft.to/lastmile_qr_scan"}, "is_reserved": 0, "name": "8324c0897e5f8792475c4852bbd67aac", "lon": -77.18292883333334, "type": "electric_bike", "bike_id": "8324c0897e5f8792475c4852bbd67aac", "fusion_lon": 0.0, "lat": 38.8834085, "fusion_lat": 0.0}, {"is_disabled": 0, "rental_uris": {"android": "https://dc.lft.to/lastmile_qr_scan", "ios": "https://dc.lft.to/lastmile_qr_scan"}, "is_reserved": 0, "name": "a1e1f30f55290d7301fdad3a72dc4c76", "lon": -77.0158365, "type": "electric_bike", "bike_id": "a1e1f30f55290d7301fdad3a72dc4c76", "fusion_lon": 0.0, "lat": 39.046385666666666, "fusion_lat": 0.0}, {"is_disabled": 0, "rental_uris": {"android": "https://dc.lft.to/lastmile_qr_scan", "ios": "https://dc.lft.to/lastmile_qr_scan"}, "is_reserved": 0, "name": "fcc82953a619fd2af05c6c2eee262cd3", "lon": -77.05094766666667, "type": "electric_scooter", "bike_id": "fcc82953a619fd2af05c6c2eee262cd3", "fusion_lon": 0.0, "lat": 38.92341033333334, "fusion_lat": 0.0}, {"is_disabled": 0, "rental_uris": {"android": "https://dc.lft.to/lastmile_qr_scan", "ios": "https://dc.lft.to/lastmile_qr_scan"}, "is_reserved": 0, "name": "50e754baf558b06bd918fc8e6bde8b4c", "lon": -76.9809005, "type": "electric_scooter", "bike_id": "50e754baf558b06bd918fc8e6bde8b4c", "fusion_lon": 0.0, "lat": 38.857203, "fusion_lat": 0.0}, {"is_disabled": 0, "rental_uris": {"android": "https://dc.lft.to/lastmile_qr_scan", "ios": "https://dc.lft.to/lastmile_qr_scan"}, "is_reserved": 0, "name": "1193ff3f977cce1d322115bd8f6feeed", "lon": -77.0230875, "type": "electric_scooter", "bike_id": "1193ff3f977cce1d322115bd8f6feeed", "fusion_lon": 0.0, "lat": 38.9096105, "fusion_lat": 0.0}, {"is_disabled": 0, "rental_uris": {"android": "https://dc.lft.to/lastmile_qr_scan", "ios": "https://dc.lft.to/lastmile_qr_scan"}, "is_reserved": 0, "name": "01481a896b67f5e12f71d16df4954fb8", "lon": -77.03262, "type": "electric_scooter", "bike_id": "01481a896b67f5e12f71d16df4954fb8", "fusion_lon": 0.0, "lat": 38.91845516666667, "fusion_lat": 0.0}, {"is_disabled": 0, "rental_uris": {"android": "https://dc.lft.to/lastmile_qr_scan", "ios": "https://dc.lft.to/lastmile_qr_scan"}, "is_reserved": 0, "name": "28ca23e306ee12b18e61cbebef336309", "lon": -77.04543933333333, "type": "electric_scooter", "bike_id": "28ca23e306ee12b18e61cbebef336309", "fusion_lon": 0.0, "lat": 38.9013925, "fusion_lat": 0.0}, {"is_disabled": 0, "rental_uris": {"android": "https://dc.lft.to/lastmile_qr_scan", "ios": "https://dc.lft.to/lastmile_qr_scan"}, "is_reserved": 0, "name": "2e9980a35b39d3e0a41190ae812e775a", "lon": -76.96916666666667, "type": "electric_scooter", "bike_id": "2e9980a35b39d3e0a41190ae812e775a", "fusion_lon": 0.0, "lat": 38.85526616666667, "fusion_lat": 0.0}, {"is_disabled": 0, "rental_uris": {"android": "https://dc.lft.to/lastmile_qr_scan", "ios": "https://dc.lft.to/lastmile_qr_scan"}, "is_reserved": 0, "name": "886be7f3b92222359140bc3c06fea05e", "lon": -77.01892266666667, "type": "electric_scooter", "bike_id": "886be7f3b92222359140bc3c06fea05e", "fusion_lon": 0.0, "lat": 38.90640033333333, "fusion_lat": 0.0}, {"is_disabled": 0, "rental_uris": {"android": "https://dc.lft.to/lastmile_qr_scan", "ios": "https://dc.lft.to/lastmile_qr_scan"}, "is_reserved": 0, "name": "19a6799b8616d623a499baf636a5fd47", "lon": -76.96526716666666, "type": "electric_scooter", "bike_id": "19a6799b8616d623a499baf636a5fd47", "fusion_lon": 0.0, "lat": 38.8762665, "fusion_lat": 0.0}, {"is_disabled": 0, "rental_uris": {"android": "https://dc.lft.to/lastmile_qr_scan", "ios": "https://dc.lft.to/lastmile_qr_scan"}, "is_reserved": 0, "name": "bfd31a472dab2768971e05cc33277258", "lon": -76.965583, "type": "electric_bike", "bike_id": "bfd31a472dab2768971e05cc33277258", "fusion_lon": 0.0, "lat": 38.950879666666665, "fusion_lat": 0.0}, {"is_disabled": 0, "rental_uris": {"android": "https://dc.lft.to/lastmile_qr_scan", "ios": "https://dc.lft.to/lastmile_qr_scan"}, "is_reserved": 0, "name": "6d709ad46c9ee94cb003a5fde3794e0f", "lon": -77.03849466666667, "type": "electric_scooter", "bike_id": "6d709ad46c9ee94cb003a5fde3794e0f", "fusion_lon": 0.0, "lat": 38.9025375, "fusion_lat": 0.0}, {"is_disabled": 0, "rental_uris": {"android": "https://dc.lft.to/lastmile_qr_scan", "ios": "https://dc.lft.to/lastmile_qr_scan"}, "is_reserved": 0, "name": "e527b0990dd3dc64e4934ea50075d5aa", "lon": -77.024107, "type": "electric_scooter", "bike_id": "e527b0990dd3dc64e4934ea50075d5aa", "fusion_lon": 0.0, "lat": 38.909579, "fusion_lat": 0.0}, {"is_disabled": 0, "rental_uris": {"android": "https://dc.lft.to/lastmile_qr_scan", "ios": "https://dc.lft.to/lastmile_qr_scan"}, "is_reserved": 0, "name": "e79a54144a2be3eb90a87f3bce93a462", "lon": -77.02796183333334, "type": "electric_scooter", "bike_id": "e79a54144a2be3eb90a87f3bce93a462", "fusion_lon": 0.0, "lat": 38.912508333333335, "fusion_lat": 0.0}, {"is_disabled": 0, "rental_uris": {"android": "https://dc.lft.to/lastmile_qr_scan", "ios": "https://dc.lft.to/lastmile_qr_scan"}, "is_reserved": 0, "name": "5ded949de55b063d9e0d598211b46fd8", "lon": -77.0467785, "type": "electric_scooter", "bike_id": "5ded949de55b063d9e0d598211b46fd8", "fusion_lon": 0.0, "lat": 38.895052, "fusion_lat": 0.0}, {"is_disabled": 0, "rental_uris": {"android": "https://dc.lft.to/lastmile_qr_scan", "ios": "https://dc.lft.to/lastmile_qr_scan"}, "is_reserved": 0, "name": "55054e647bedab222b35fadebf7ce897", "lon": -77.041077, "type": "electric_scooter", "bike_id": "55054e647bedab222b35fadebf7ce897", "fusion_lon": 0.0, "lat": 38.91695283333333, "fusion_lat": 0.0}, {"is_disabled": 0, "rental_uris": {"android": "https://dc.lft.to/lastmile_qr_scan", "ios": "https://dc.lft.to/lastmile_qr_scan"}, "is_reserved": 0, "name": "a6f17b699a0b4d48db065727dd9f18f5", "lon": -77.01953166666667, "type": "electric_scooter", "bike_id": "a6f17b699a0b4d48db065727dd9f18f5", "fusion_lon": 0.0, "lat": 38.92847116666667, "fusion_lat": 0.0}, {"is_disabled": 0, "rental_uris": {"android": "https://dc.lft.to/lastmile_qr_scan", "ios": "https://dc.lft.to/lastmile_qr_scan"}, "is_reserved": 0, "name": "a8c750430e05dd9bcaf2d9787e738f58", "lon": -77.040997, "type": "electric_scooter", "bike_id": "a8c750430e05dd9bcaf2d9787e738f58", "fusion_lon": 0.0, "lat": 38.907803, "fusion_lat": 0.0}, {"is_disabled": 0, "rental_uris": {"android": "https://dc.lft.to/lastmile_qr_scan", "ios": "https://dc.lft.to/lastmile_qr_scan"}, "is_reserved": 0, "name": "28be72aa96dde3e90ef3fef3751f47a5", "lon": -77.04733083333333, "type": "electric_scooter", "bike_id": "28be72aa96dde3e90ef3fef3751f47a5", "fusion_lon": 0.0, "lat": 38.905409166666665, "fusion_lat": 0.0}, {"is_disabled": 0, "rental_uris": {"android": "https://dc.lft.to/lastmile_qr_scan", "ios": "https://dc.lft.to/lastmile_qr_scan"}, "is_reserved": 0, "name": "5214cc92741bccb2c55a2964d093ecb6", "lon": -77.02944883333333, "type": "electric_scooter", "bike_id": "5214cc92741bccb2c55a2964d093ecb6", "fusion_lon": 0.0, "lat": 38.905000666666666, "fusion_lat": 0.0}, {"is_disabled": 0, "rental_uris": {"android": "https://dc.lft.to/lastmile_qr_scan", "ios": "https://dc.lft.to/lastmile_qr_scan"}, "is_reserved": 0, "name": "11a3de43b8b632c299f05235e39c2c5d", "lon": -77.01782133333333, "type": "electric_scooter", "bike_id": "11a3de43b8b632c299f05235e39c2c5d", "fusion_lon": 0.0, "lat": 38.913573, "fusion_lat": 0.0}, {"is_disabled": 0, "rental_uris": {"android": "https://dc.lft.to/lastmile_qr_scan", "ios": "https://dc.lft.to/lastmile_qr_scan"}, "is_reserved": 0, "name": "48108b91b0f0c8317088b341757d9f46", "lon": -77.03437633333333, "type": "electric_scooter", "bike_id": "48108b91b0f0c8317088b341757d9f46", "fusion_lon": 0.0, "lat": 38.907214833333335, "fusion_lat": 0.0}, {"is_disabled": 0, "rental_uris": {"android": "https://dc.lft.to/lastmile_qr_scan", "ios": "https://dc.lft.to/lastmile_qr_scan"}, "is_reserved": 0, "name": "59097358cde2f108ea1544204ea6da61", "lon": -77.018182, "type": "electric_scooter", "bike_id": "59097358cde2f108ea1544204ea6da61", "fusion_lon": 0.0, "lat": 38.9220135, "fusion_lat": 0.0}, {"is_disabled": 0, "rental_uris": {"android": "https://dc.lft.to/lastmile_qr_scan", "ios": "https://dc.lft.to/lastmile_qr_scan"}, "is_reserved": 0, "name": "f37341987d251c426542df9d823ab280", "lon": -77.04475016666666, "type": "electric_scooter", "bike_id": "f37341987d251c426542df9d823ab280", "fusion_lon": 0.0, "lat": 38.908579333333336, "fusion_lat": 0.0}, {"is_disabled": 0, "rental_uris": {"android": "https://dc.lft.to/lastmile_qr_scan", "ios": "https://dc.lft.to/lastmile_qr_scan"}, "is_reserved": 0, "name": "f4145f626e3a6c8a5faa0f8d72c62fd8", "lon": -77.04383733333333, "type": "electric_bike", "bike_id": "f4145f626e3a6c8a5faa0f8d72c62fd8", "fusion_lon": 0.0, "lat": 39.05273916666667, "fusion_lat": 0.0}, {"is_disabled": 0, "rental_uris": {"android": "https://dc.lft.to/lastmile_qr_scan", "ios": "https://dc.lft.to/lastmile_qr_scan"}, "is_reserved": 0, "name": "bd7f5f30d2abf5fc98d7abe410e2defc", "lon": -76.986763, "type": "electric_scooter", "bike_id": "bd7f5f30d2abf5fc98d7abe410e2defc", "fusion_lon": 0.0, "lat": 38.90141883333333, "fusion_lat": 0.0}, {"is_disabled": 0, "rental_uris": {"android": "https://dc.lft.to/lastmile_qr_scan", "ios": "https://dc.lft.to/lastmile_qr_scan"}, "is_reserved": 0, "name": "f53bcf5cd928fd7b4868a41b215fca33", "lon": -77.010728, "type": "electric_bike", "bike_id": "f53bcf5cd928fd7b4868a41b215fca33", "fusion_lon": 0.0, "lat": 38.89789916666667, "fusion_lat": 0.0}, {"is_disabled": 0, "rental_uris": {"android": "https://dc.lft.to/lastmile_qr_scan", "ios": "https://dc.lft.to/lastmile_qr_scan"}, "is_reserved": 0, "name": "2da6a1308c0ed76bfc07a9432c7e262f", "lon": -76.931838, "type": "electric_scooter", "bike_id": "2da6a1308c0ed76bfc07a9432c7e262f", "fusion_lon": 0.0, "lat": 38.8987705, "fusion_lat": 0.0}, {"is_disabled": 0, "rental_uris": {"android": "https://dc.lft.to/lastmile_qr_scan", "ios": "https://dc.lft.to/lastmile_qr_scan"}, "is_reserved": 0, "name": "4be82a443424d519a054fff8ecb2036e", "lon": -77.0225975, "type": "electric_scooter", "bike_id": "4be82a443424d519a054fff8ecb2036e", "fusion_lon": 0.0, "lat": 38.9282775, "fusion_lat": 0.0}, {"is_disabled": 0, "rental_uris": {"android": "https://dc.lft.to/lastmile_qr_scan", "ios": "https://dc.lft.to/lastmile_qr_scan"}, "is_reserved": 0, "name": "1da73c9f8afd1c35a5e2f6d31a570f58", "lon": -77.0158165, "type": "electric_scooter", "bike_id": "1da73c9f8afd1c35a5e2f6d31a570f58", "fusion_lon": 0.0, "lat": 38.87657816666667, "fusion_lat": 0.0}, {"is_disabled": 0, "rental_uris": {"android": "https://dc.lft.to/lastmile_qr_scan", "ios": "https://dc.lft.to/lastmile_qr_scan"}, "is_reserved": 0, "name": "7ae4516e7a4fed356f03fed023b81e6a", "lon": -77.0236715, "type": "electric_scooter", "bike_id": "7ae4516e7a4fed356f03fed023b81e6a", "fusion_lon": 0.0, "lat": 38.88769333333333, "fusion_lat": 0.0}, {"is_disabled": 0, "rental_uris": {"android": "https://dc.lft.to/lastmile_qr_scan", "ios": "https://dc.lft.to/lastmile_qr_scan"}, "is_reserved": 0, "name": "82583c864f520686f70f651ffeaff2da", "lon": -77.05971666666667, "type": "electric_scooter", "bike_id": "82583c864f520686f70f651ffeaff2da", "fusion_lon": 0.0, "lat": 38.90520816666667, "fusion_lat": 0.0}, {"is_disabled": 0, "rental_uris": {"android": "https://dc.lft.to/lastmile_qr_scan", "ios": "https://dc.lft.to/lastmile_qr_scan"}, "is_reserved": 0, "name": "3e5c27cba4e6b80e83d847f171881589", "lon": -77.03440683333334, "type": "electric_scooter", "bike_id": "3e5c27cba4e6b80e83d847f171881589", "fusion_lon": 0.0, "lat": 38.90727483333333, "fusion_lat": 0.0}, {"is_disabled": 0, "rental_uris": {"android": "https://dc.lft.to/lastmile_qr_scan", "ios": "https://dc.lft.to/lastmile_qr_scan"}, "is_reserved": 0, "name": "04cf4c25cc5ede5871b413a6efc126af", "lon": -77.0284845, "type": "electric_scooter", "bike_id": "04cf4c25cc5ede5871b413a6efc126af", "fusion_lon": 0.0, "lat": 38.9341765, "fusion_lat": 0.0}, {"is_disabled": 0, "rental_uris": {"android": "https://dc.lft.to/lastmile_qr_scan", "ios": "https://dc.lft.to/lastmile_qr_scan"}, "is_reserved": 0, "name": "06833be2f4b60ee921204d40109a5ac0", "lon": -77.01255333333333, "type": "electric_scooter", "bike_id": "06833be2f4b60ee921204d40109a5ac0", "fusion_lon": 0.0, "lat": 38.876308333333334, "fusion_lat": 0.0}, {"is_disabled": 0, "rental_uris": {"android": "https://dc.lft.to/lastmile_qr_scan", "ios": "https://dc.lft.to/lastmile_qr_scan"}, "is_reserved": 0, "name": "14fe3a1c86e62b147533503cf1860945", "lon": -77.0395965, "type": "electric_scooter", "bike_id": "14fe3a1c86e62b147533503cf1860945", "fusion_lon": 0.0, "lat": 38.931460333333334, "fusion_lat": 0.0}, {"is_disabled": 0, "rental_uris": {"android": "https://dc.lft.to/lastmile_qr_scan", "ios": "https://dc.lft.to/lastmile_qr_scan"}, "is_reserved": 0, "name": "6bd5a269077949e79f5a26c96b4a654e", "lon": -76.93410083333333, "type": "electric_bike", "bike_id": "6bd5a269077949e79f5a26c96b4a654e", "fusion_lon": 0.0, "lat": 38.94624966666667, "fusion_lat": 0.0}, {"is_disabled": 0, "rental_uris": {"android": "https://dc.lft.to/lastmile_qr_scan", "ios": "https://dc.lft.to/lastmile_qr_scan"}, "is_reserved": 0, "name": "b473c5d134c1cfa57ca47161956de66b", "lon": -77.03519783333333, "type": "electric_scooter", "bike_id": "b473c5d134c1cfa57ca47161956de66b", "fusion_lon": 0.0, "lat": 38.93591633333333, "fusion_lat": 0.0}, {"is_disabled": 0, "rental_uris": {"android": "https://dc.lft.to/lastmile_qr_scan", "ios": "https://dc.lft.to/lastmile_qr_scan"}, "is_reserved": 0, "name": "31f82e0020940938b80ae7a29b97074c", "lon": -77.02124666666667, "type": "electric_scooter", "bike_id": "31f82e0020940938b80ae7a29b97074c", "fusion_lon": 0.0, "lat": 38.887407833333334, "fusion_lat": 0.0}, {"is_disabled": 0, "rental_uris": {"android": "https://dc.lft.to/lastmile_qr_scan", "ios": "https://dc.lft.to/lastmile_qr_scan"}, "is_reserved": 0, "name": "7dab5552e984f61b5d3abe0d0ed18937", "lon": -77.02922816666667, "type": "electric_scooter", "bike_id": "7dab5552e984f61b5d3abe0d0ed18937", "fusion_lon": 0.0, "lat": 38.938789666666665, "fusion_lat": 0.0}, {"is_disabled": 0, "rental_uris": {"android": "https://dc.lft.to/lastmile_qr_scan", "ios": "https://dc.lft.to/lastmile_qr_scan"}, "is_reserved": 0, "name": "5b90b27b325065686292046a0b0a6753", "lon": -77.02533516666666, "type": "electric_scooter", "bike_id": "5b90b27b325065686292046a0b0a6753", "fusion_lon": 0.0, "lat": 38.902498333333334, "fusion_lat": 0.0}, {"is_disabled": 0, "rental_uris": {"android": "https://dc.lft.to/lastmile_qr_scan", "ios": "https://dc.lft.to/lastmile_qr_scan"}, "is_reserved": 0, "name": "e358d18408507d4c8f61e34b7065647c", "lon": -76.965475, "type": "electric_scooter", "bike_id": "e358d18408507d4c8f61e34b7065647c", "fusion_lon": 0.0, "lat": 38.918668333333336, "fusion_lat": 0.0}, {"is_disabled": 0, "rental_uris": {"android": "https://dc.lft.to/lastmile_qr_scan", "ios": "https://dc.lft.to/lastmile_qr_scan"}, "is_reserved": 0, "name": "7b65b22045073895e52f32821f5ce8fa", "lon": -77.03055083333334, "type": "electric_scooter", "bike_id": "7b65b22045073895e52f32821f5ce8fa", "fusion_lon": 0.0, "lat": 38.89981183333333, "fusion_lat": 0.0}, {"is_disabled": 0, "rental_uris": {"android": "https://dc.lft.to/lastmile_qr_scan", "ios": "https://dc.lft.to/lastmile_qr_scan"}, "is_reserved": 0, "name": "5e3a519ef9fe0002c459c6cafb5c9abf", "lon": -77.00916116666667, "type": "electric_scooter", "bike_id": "5e3a519ef9fe0002c459c6cafb5c9abf", "fusion_lon": 0.0, "lat": 38.8955505, "fusion_lat": 0.0}, {"is_disabled": 0, "rental_uris": {"android": "https://dc.lft.to/lastmile_qr_scan", "ios": "https://dc.lft.to/lastmile_qr_scan"},