{"data": {"bikes": [{"lat": 38.93259233333333, "bike_id": "25bb71c5a24aadab6dbf33990161fabc", "is_reserved": 0, "is_disabled": 0, "rental_uris": {"android": "https://dc.lft.to/lastmile_qr_scan", "ios": "https://dc.lft.to/lastmile_qr_scan"}, "fusion_lon": 0.0, "lon": -77.03882433333334, "type": "electric_scooter", "fusion_lat": 0.0, "name": "25bb71c5a24aadab6dbf33990161fabc"}, {"lat": 38.844285666666664, "bike_id": "8a7fc09c11f1af1e958bb70b19ddca22", "is_reserved": 0, "is_disabled": 0, "rental_uris": {"android": "https://dc.lft.to/lastmile_qr_scan", "ios": "https://dc.lft.to/lastmile_qr_scan"}, "fusion_lon": 0.0, "lon": -76.9977825, "type": "electric_scooter", "fusion_lat": 0.0, "name": "8a7fc09c11f1af1e958bb70b19ddca22"}, {"lat": 38.84370916666666, "bike_id": "c76ff7cb71ae5f91684299d394e93bb3", "is_reserved": 0, "is_disabled": 0, "rental_uris": {"android": "https://dc.lft.to/lastmile_qr_scan", "ios": "https://dc.lft.to/lastmile_qr_scan"}, "fusion_lon": 0.0, "lon": -76.97829483333334, "type": "electric_bike", "fusion_lat": 0.0, "name": "c76ff7cb71ae5f91684299d394e93bb3"}, {"lat": 38.904050833333336, "bike_id": "c1afc8f61cef406d9bf0ece979c6016d", "is_reserved": 0, "is_disabled": 0, "rental_uris": {"android": "https://dc.lft.to/lastmile_qr_scan", "ios": "https://dc.lft.to/lastmile_qr_scan"}, "fusion_lon": 0.0, "lon": -76.97423633333334, "type": "electric_scooter", "fusion_lat": 0.0, "name": "c1afc8f61cef406d9bf0ece979c6016d"}, {"lat": 38.89691233333333, "bike_id": "a9bbcbd227f95768b9ae3eb3f6c6f78b", "is_reserved": 0, "is_disabled": 0, "rental_uris": {"android": "https://dc.lft.to/lastmile_qr_scan", "ios": "https://dc.lft.to/lastmile_qr_scan"}, "fusion_lon": 0.0, "lon": -77.004946, "type": "electric_scooter", "fusion_lat": 0.0, "name": "a9bbcbd227f95768b9ae3eb3f6c6f78b"}, {"lat": 38.8967185, "bike_id": "37e09798773c754d8321f4a36690f642", "is_reserved": 0, "is_disabled": 0, "rental_uris": {"android": "https://dc.lft.to/lastmile_qr_scan", "ios": "https://dc.lft.to/lastmile_qr_scan"}, "fusion_lon": 0.0, "lon": -77.03206966666667, "type": "electric_scooter", "fusion_lat": 0.0, "name": "37e09798773c754d8321f4a36690f642"}, {"lat": 38.914454, "bike_id": "9bdf5a94951651f46507d193905c44db", "is_reserved": 0, "is_disabled": 0, "rental_uris": {"android": "https://dc.lft.to/lastmile_qr_scan", "ios": "https://dc.lft.to/lastmile_qr_scan"}, "fusion_lon": 0.0, "lon": -77.00212566666667, "type": "electric_scooter", "fusion_lat": 0.0, "name": "9bdf5a94951651f46507d193905c44db"}, {"lat": 38.93202733333333, "bike_id": "02818f389ce267b2a89b6c343a8940b1", "is_reserved": 0, "is_disabled": 0, "rental_uris": {"android": "https://dc.lft.to/lastmile_qr_scan", "ios": "https://dc.lft.to/lastmile_qr_scan"}, "fusion_lon": 0.0, "lon": -77.03278533333334, "type": "electric_scooter", "fusion_lat": 0.0, "name": "02818f389ce267b2a89b6c343a8940b1"}, {"lat": 38.9193285, "bike_id": "1db3c183de49b4fd1e9978ad41edd59d", "is_reserved": 0, "is_disabled": 0, "rental_uris": {"android": "https://dc.lft.to/lastmile_qr_scan", "ios": "https://dc.lft.to/lastmile_qr_scan"}, "fusion_lon": 0.0, "lon": -77.01906366666667, "type": "electric_scooter", "fusion_lat": 0.0, "name": "1db3c183de49b4fd1e9978ad41edd59d"}, {"lat": 38.894421, "bike_id": "afb0dd8dd9a073d407256951d0a54f9d", "is_reserved": 0, "is_disabled": 0, "rental_uris": {"android": "https://dc.lft.to/lastmile_qr_scan", "ios": "https://dc.lft.to/lastmile_qr_scan"}, "fusion_lon": 0.0, "lon": -76.949629, "type": "electric_scooter", "fusion_lat": 0.0, "name": "afb0dd8dd9a073d407256951d0a54f9d"}, {"lat": 38.89046533333333, "bike_id": "561ce694a3c99cbd530ad3e92d34a777", "is_reserved": 0, "is_disabled": 0, "rental_uris": {"android": "https://dc.lft.to/lastmile_qr_scan", "ios": "https://dc.lft.to/lastmile_qr_scan"}, "fusion_lon": 0.0, "lon": -76.93752216666667, "type": "electric_scooter", "fusion_lat": 0.0, "name": "561ce694a3c99cbd530ad3e92d34a777"}, {"lat": 38.8648685, "bike_id": "853ba2e1ef270347363828b43264efd8", "is_reserved": 0, "is_disabled": 0, "rental_uris": {"android": "https://dc.lft.to/lastmile_qr_scan", "ios": "https://dc.lft.to/lastmile_qr_scan"}, "fusion_lon": 0.0, "lon": -77.0731095, "type": "electric_bike", "fusion_lat": 0.0, "name": "853ba2e1ef270347363828b43264efd8"}, {"lat": 38.91779583333334, "bike_id": "b7a714dd43b008532f1a9bb0c051da28", "is_reserved": 0, "is_disabled": 0, "rental_uris": {"android": "https://dc.lft.to/lastmile_qr_scan", "ios": "https://dc.lft.to/lastmile_qr_scan"}, "fusion_lon": 0.0, "lon": -77.04338, "type": "electric_scooter", "fusion_lat": 0.0, "name": "b7a714dd43b008532f1a9bb0c051da28"}, {"lat": 38.8996805, "bike_id": "9af93496d066ac1cb487f2367e53e924", "is_reserved": 0, "is_disabled": 0, "rental_uris": {"android": "https://dc.lft.to/lastmile_qr_scan", "ios": "https://dc.lft.to/lastmile_qr_scan"}, "fusion_lon": 0.0, "lon": -76.9871255, "type": "electric_scooter", "fusion_lat": 0.0, "name": "9af93496d066ac1cb487f2367e53e924"}, {"lat": 38.92272283333333, "bike_id": "15cad10c6763bb3fb454d2229b81458b", "is_reserved": 0, "is_disabled": 0, "rental_uris": {"android": "https://dc.lft.to/lastmile_qr_scan", "ios": "https://dc.lft.to/lastmile_qr_scan"}, "fusion_lon": 0.0, "lon": -77.01984116666667, "type": "electric_scooter", "fusion_lat": 0.0, "name": "15cad10c6763bb3fb454d2229b81458b"}, {"lat": 38.893267, "bike_id": "0a2a42f20c40473e4897963ed9f09308", "is_reserved": 0, "is_disabled": 0, "rental_uris": {"android": "https://dc.lft.to/lastmile_qr_scan", "ios": "https://dc.lft.to/lastmile_qr_scan"}, "fusion_lon": 0.0, "lon": -76.94381033333333, "type": "electric_scooter", "fusion_lat": 0.0, "name": "0a2a42f20c40473e4897963ed9f09308"}, {"lat": 38.90171016666667, "bike_id": "a09d331d3f71f13a6b555ce2da51e261", "is_reserved": 0, "is_disabled": 0, "rental_uris": {"android": "https://dc.lft.to/lastmile_qr_scan", "ios": "https://dc.lft.to/lastmile_qr_scan"}, "fusion_lon": 0.0, "lon": -76.97818016666666, "type": "electric_scooter", "fusion_lat": 0.0, "name": "a09d331d3f71f13a6b555ce2da51e261"}, {"lat": 38.91825266666667, "bike_id": "113eef1b8f42a1c6ccd8433124e98da2", "is_reserved": 0, "is_disabled": 0, "rental_uris": {"android": "https://dc.lft.to/lastmile_qr_scan", "ios": "https://dc.lft.to/lastmile_qr_scan"}, "fusion_lon": 0.0, "lon": -77.02604133333334, "type": "electric_scooter", "fusion_lat": 0.0, "name": "113eef1b8f42a1c6ccd8433124e98da2"}, {"lat": 38.9262455, "bike_id": "d241d929726d05dea759bd9f11779ed6", "is_reserved": 0, "is_disabled": 0, "rental_uris": {"android": "https://dc.lft.to/lastmile_qr_scan", "ios": "https://dc.lft.to/lastmile_qr_scan"}, "fusion_lon": 0.0, "lon": -77.04204033333333, "type": "electric_scooter", "fusion_lat": 0.0, "name": "d241d929726d05dea759bd9f11779ed6"}, {"lat": 38.899143333333335, "bike_id": "8fff54dff58569e9e90bbc789d78f5aa", "is_reserved": 0, "is_disabled": 0, "rental_uris": {"android": "https://dc.lft.to/lastmile_qr_scan", "ios": "https://dc.lft.to/lastmile_qr_scan"}, "fusion_lon": 0.0, "lon": -76.93376533333333, "type": "electric_scooter", "fusion_lat": 0.0, "name": "8fff54dff58569e9e90bbc789d78f5aa"}, {"lat": 38.907725666666664, "bike_id": "5dff0200c78d97f7149bb0a6c977962f", "is_reserved": 0, "is_disabled": 0, "rental_uris": {"android": "https://dc.lft.to/lastmile_qr_scan", "ios": "https://dc.lft.to/lastmile_qr_scan"}, "fusion_lon": 0.0, "lon": -77.04359883333333, "type": "electric_scooter", "fusion_lat": 0.0, "name": "5dff0200c78d97f7149bb0a6c977962f"}, {"lat": 38.900399, "bike_id": "74ef9bec84e53b3185e558c91f8b44bb", "is_reserved": 0, "is_disabled": 0, "rental_uris": {"android": "https://dc.lft.to/lastmile_qr_scan", "ios": "https://dc.lft.to/lastmile_qr_scan"}, "fusion_lon": 0.0, "lon": -77.00226133333334, "type": "electric_scooter", "fusion_lat": 0.0, "name": "74ef9bec84e53b3185e558c91f8b44bb"}, {"lat": 38.934003, "bike_id": "2a2746f57effb07b1dac2e154eda0a93", "is_reserved": 0, "is_disabled": 0, "rental_uris": {"android": "https://dc.lft.to/lastmile_qr_scan", "ios": "https://dc.lft.to/lastmile_qr_scan"}, "fusion_lon": 0.0, "lon": -77.03771966666666, "type": "electric_scooter", "fusion_lat": 0.0, "name": "2a2746f57effb07b1dac2e154eda0a93"}, {"lat": 38.9075205, "bike_id": "2a013235742912a59db3b2a48625760b", "is_reserved": 0, "is_disabled": 0, "rental_uris": {"android": "https://dc.lft.to/lastmile_qr_scan", "ios": "https://dc.lft.to/lastmile_qr_scan"}, "fusion_lon": 0.0, "lon": -77.00094233333333, "type": "electric_scooter", "fusion_lat": 0.0, "name": "2a013235742912a59db3b2a48625760b"}, {"lat": 38.92272783333333, "bike_id": "6c293edf96f7de71f56b79e2eb17c744", "is_reserved": 0, "is_disabled": 0, "rental_uris": {"android": "https://dc.lft.to/lastmile_qr_scan", "ios": "https://dc.lft.to/lastmile_qr_scan"}, "fusion_lon": 0.0, "lon": -77.021913, "type": "electric_scooter", "fusion_lat": 0.0, "name": "6c293edf96f7de71f56b79e2eb17c744"}, {"lat": 38.91718, "bike_id": "1c1d33d2ddbcf96b4a145b15f0944a80", "is_reserved": 0, "is_disabled": 0, "rental_uris": {"android": "https://dc.lft.to/lastmile_qr_scan", "ios": "https://dc.lft.to/lastmile_qr_scan"}, "fusion_lon": 0.0, "lon": -77.03202066666667, "type": "electric_scooter", "fusion_lat": 0.0, "name": "1c1d33d2ddbcf96b4a145b15f0944a80"}, {"lat": 38.8942565, "bike_id": "e2aa02c700ade34c5b724280845a91ad", "is_reserved": 0, "is_disabled": 0, "rental_uris": {"android": "https://dc.lft.to/lastmile_qr_scan", "ios": "https://dc.lft.to/lastmile_qr_scan"}, "fusion_lon": 0.0, "lon": -76.9112495, "type": "electric_scooter", "fusion_lat": 0.0, "name": "e2aa02c700ade34c5b724280845a91ad"}, {"lat": 38.898448333333334, "bike_id": "ad551644ad97a4fd416ed35185b6eb41", "is_reserved": 0, "is_disabled": 0, "rental_uris": {"android": "https://dc.lft.to/lastmile_qr_scan", "ios": "https://dc.lft.to/lastmile_qr_scan"}, "fusion_lon": 0.0, "lon": -76.94635983333333, "type": "electric_scooter", "fusion_lat": 0.0, "name": "ad551644ad97a4fd416ed35185b6eb41"}, {"lat": 38.9246115, "bike_id": "7ff3f353d97cdac251b0ca3c3773222c", "is_reserved": 0, "is_disabled": 0, "rental_uris": {"android": "https://dc.lft.to/lastmile_qr_scan", "ios": "https://dc.lft.to/lastmile_qr_scan"}, "fusion_lon": 0.0, "lon": -77.07860216666667, "type": "electric_scooter", "fusion_lat": 0.0, "name": "7ff3f353d97cdac251b0ca3c3773222c"}, {"lat": 38.887438, "bike_id": "c89e6d47bcaa38039b7da47fc04cfd84", "is_reserved": 0, "is_disabled": 0, "rental_uris": {"android": "https://dc.lft.to/lastmile_qr_scan", "ios": "https://dc.lft.to/lastmile_qr_scan"}, "fusion_lon": 0.0, "lon": -76.99850183333334, "type": "electric_scooter", "fusion_lat": 0.0, "name": "c89e6d47bcaa38039b7da47fc04cfd84"}, {"lat": 38.930610333333334, "bike_id": "ba022d75dd887c6727311ba6682066f8", "is_reserved": 0, "is_disabled": 0, "rental_uris": {"android": "https://dc.lft.to/lastmile_qr_scan", "ios": "https://dc.lft.to/lastmile_qr_scan"}, "fusion_lon": 0.0, "lon": -77.02323866666667, "type": "electric_scooter", "fusion_lat": 0.0, "name": "ba022d75dd887c6727311ba6682066f8"}, {"lat": 38.881372999999996, "bike_id": "6e973da8d0fbed259e3139b412ca1799", "is_reserved": 0, "is_disabled": 0, "rental_uris": {"android": "https://dc.lft.to/lastmile_qr_scan", "ios": "https://dc.lft.to/lastmile_qr_scan"}, "fusion_lon": 0.0, "lon": -76.980923, "type": "electric_bike", "fusion_lat": 0.0, "name": "6e973da8d0fbed259e3139b412ca1799"}, {"lat": 38.91708716666667, "bike_id": "105d6cdef804d63b94fbb7645443f75c", "is_reserved": 0, "is_disabled": 0, "rental_uris": {"android": "https://dc.lft.to/lastmile_qr_scan", "ios": "https://dc.lft.to/lastmile_qr_scan"}, "fusion_lon": 0.0, "lon": -77.03878383333333, "type": "electric_scooter", "fusion_lat": 0.0, "name": "105d6cdef804d63b94fbb7645443f75c"}, {"lat": 38.90240983333333, "bike_id": "77ad3ea4e7574e82f6afde8c1b168b52", "is_reserved": 0, "is_disabled": 0, "rental_uris": {"android": "https://dc.lft.to/lastmile_qr_scan", "ios": "https://dc.lft.to/lastmile_qr_scan"}, "fusion_lon": 0.0, "lon": -77.05419, "type": "electric_scooter", "fusion_lat": 0.0, "name": "77ad3ea4e7574e82f6afde8c1b168b52"}, {"lat": 38.89550583333333, "bike_id": "1f6edf4e12ae9bc1f4eb330f5618a6dd", "is_reserved": 0, "is_disabled": 0, "rental_uris": {"android": "https://dc.lft.to/lastmile_qr_scan", "ios": "https://dc.lft.to/lastmile_qr_scan"}, "fusion_lon": 0.0, "lon": -76.94875133333333, "type": "electric_scooter", "fusion_lat": 0.0, "name": "1f6edf4e12ae9bc1f4eb330f5618a6dd"}, {"lat": 38.89378116666666, "bike_id": "89efc0152f993aa53c113ddd4c9a2bf0", "is_reserved": 0, "is_disabled": 0, "rental_uris": {"android": "https://dc.lft.to/lastmile_qr_scan", "ios": "https://dc.lft.to/lastmile_qr_scan"}, "fusion_lon": 0.0, "lon": -77.04663933333333, "type": "electric_scooter", "fusion_lat": 0.0, "name": "89efc0152f993aa53c113ddd4c9a2bf0"}, {"lat": 38.903917166666666, "bike_id": "452c85321d4abdc50a26637c51a72171", "is_reserved": 0, "is_disabled": 0, "rental_uris": {"android": "https://dc.lft.to/lastmile_qr_scan", "ios": "https://dc.lft.to/lastmile_qr_scan"}, "fusion_lon": 0.0, "lon": -76.98106766666666, "type": "electric_scooter", "fusion_lat": 0.0, "name": "452c85321d4abdc50a26637c51a72171"}, {"lat": 38.88493533333333, "bike_id": "f8ec35d8e00a42f42111be23b5257173", "is_reserved": 0, "is_disabled": 0, "rental_uris": {"android": "https://dc.lft.to/lastmile_qr_scan", "ios": "https://dc.lft.to/lastmile_qr_scan"}, "fusion_lon": 0.0, "lon": -77.00727866666666, "type": "electric_scooter", "fusion_lat": 0.0, "name": "f8ec35d8e00a42f42111be23b5257173"}, {"lat": 38.91680933333333, "bike_id": "0569030fcfa6cb79157b8c48040d01ba", "is_reserved": 0, "is_disabled": 0, "rental_uris": {"android": "https://dc.lft.to/lastmile_qr_scan", "ios": "https://dc.lft.to/lastmile_qr_scan"}, "fusion_lon": 0.0, "lon": -77.0228595, "type": "electric_scooter", "fusion_lat": 0.0, "name": "0569030fcfa6cb79157b8c48040d01ba"}, {"lat": 38.9539225, "bike_id": "15870a6155a64f7944e38fd43dad9078", "is_reserved": 0, "is_disabled": 0, "rental_uris": {"android": "https://dc.lft.to/lastmile_qr_scan", "ios": "https://dc.lft.to/lastmile_qr_scan"}, "fusion_lon": 0.0, "lon": -77.02756833333333, "type": "electric_scooter", "fusion_lat": 0.0, "name": "15870a6155a64f7944e38fd43dad9078"}, {"lat": 38.915266, "bike_id": "98206164b36f496c8db1a4c94aee97ae", "is_reserved": 0, "is_disabled": 0, "rental_uris": {"android": "https://dc.lft.to/lastmile_qr_scan", "ios": "https://dc.lft.to/lastmile_qr_scan"}, "fusion_lon": 0.0, "lon": -77.03209333333334, "type": "electric_scooter", "fusion_lat": 0.0, "name": "98206164b36f496c8db1a4c94aee97ae"}, {"lat": 38.898443, "bike_id": "2888ba9497eadd574370a9cbcdbc3c89", "is_reserved": 0, "is_disabled": 0, "rental_uris": {"android": "https://dc.lft.to/lastmile_qr_scan", "ios": "https://dc.lft.to/lastmile_qr_scan"}, "fusion_lon": 0.0, "lon": -76.9463425, "type": "electric_scooter", "fusion_lat": 0.0, "name": "2888ba9497eadd574370a9cbcdbc3c89"}, {"lat": 38.9036505, "bike_id": "cad3e86ad9bb11ebac1731c07a470817", "is_reserved": 0, "is_disabled": 0, "rental_uris": {"android": "https://dc.lft.to/lastmile_qr_scan", "ios": "https://dc.lft.to/lastmile_qr_scan"}, "fusion_lon": 0.0, "lon": -77.043328, "type": "electric_scooter", "fusion_lat": 0.0, "name": "cad3e86ad9bb11ebac1731c07a470817"}, {"lat": 38.963776, "bike_id": "937c955f32eecd09dad117fdbfa3d172", "is_reserved": 0, "is_disabled": 0, "rental_uris": {"android": "https://dc.lft.to/lastmile_qr_scan", "ios": "https://dc.lft.to/lastmile_qr_scan"}, "fusion_lon": 0.0, "lon": -77.0747955, "type": "electric_scooter", "fusion_lat": 0.0, "name": "937c955f32eecd09dad117fdbfa3d172"}, {"lat": 38.881176833333335, "bike_id": "078fa31950a14bf7f22b2b1f2eddd163", "is_reserved": 0, "is_disabled": 0, "rental_uris": {"android": "https://dc.lft.to/lastmile_qr_scan", "ios": "https://dc.lft.to/lastmile_qr_scan"}, "fusion_lon": 0.0, "lon": -77.01404033333333, "type": "electric_scooter", "fusion_lat": 0.0, "name": "078fa31950a14bf7f22b2b1f2eddd163"}, {"lat": 38.88649683333333, "bike_id": "0ca9e90358e78c1bf271432a08f2d278", "is_reserved": 0, "is_disabled": 0, "rental_uris": {"android": "https://dc.lft.to/lastmile_qr_scan", "ios": "https://dc.lft.to/lastmile_qr_scan"}, "fusion_lon": 0.0, "lon": -76.99610733333333, "type": "electric_scooter", "fusion_lat": 0.0, "name": "0ca9e90358e78c1bf271432a08f2d278"}, {"lat": 38.952481, "bike_id": "15cdb8bbcaa304a97e7ae39f72b2f5ce", "is_reserved": 0, "is_disabled": 0, "rental_uris": {"android": "https://dc.lft.to/lastmile_qr_scan", "ios": "https://dc.lft.to/lastmile_qr_scan"}, "fusion_lon": 0.0, "lon": -76.97671133333333, "type": "electric_bike", "fusion_lat": 0.0, "name": "15cdb8bbcaa304a97e7ae39f72b2f5ce"}, {"lat": 38.932008333333336, "bike_id": "94e9c177824624e06f3c2b652de4e622", "is_reserved": 0, "is_disabled": 0, "rental_uris": {"android": "https://dc.lft.to/lastmile_qr_scan", "ios": "https://dc.lft.to/lastmile_qr_scan"}, "fusion_lon": 0.0, "lon": -77.03855983333334, "type": "electric_scooter", "fusion_lat": 0.0, "name": "94e9c177824624e06f3c2b652de4e622"}, {"lat": 38.836071, "bike_id": "f2ca1958a3286a951d5884620d7b6674", "is_reserved": 0, "is_disabled": 0, "rental_uris": {"android": "https://dc.lft.to/lastmile_qr_scan", "ios": "https://dc.lft.to/lastmile_qr_scan"}, "fusion_lon": 0.0, "lon": -77.00381666666667, "type": "electric_bike", "fusion_lat": 0.0, "name": "f2ca1958a3286a951d5884620d7b6674"}, {"lat": 38.90281216666666, "bike_id": "ff4cc57edc66409990230d1a8e685fb9", "is_reserved": 0, "is_disabled": 0, "rental_uris": {"android": "https://dc.lft.to/lastmile_qr_scan", "ios": "https://dc.lft.to/lastmile_qr_scan"}, "fusion_lon": 0.0, "lon": -76.98189566666667, "type": "electric_scooter", "fusion_lat": 0.0, "name": "ff4cc57edc66409990230d1a8e685fb9"}, {"lat": 38.9247815, "bike_id": "9c7690694924c603c3fd77752555d3ac", "is_reserved": 0, "is_disabled": 0, "rental_uris": {"android": "https://dc.lft.to/lastmile_qr_scan", "ios": "https://dc.lft.to/lastmile_qr_scan"}, "fusion_lon": 0.0, "lon": -77.02559233333334, "type": "electric_scooter", "fusion_lat": 0.0, "name": "9c7690694924c603c3fd77752555d3ac"}, {"lat": 38.9240375, "bike_id": "ceb7f62ec9ed35e4e1820cb0633a08e6", "is_reserved": 0, "is_disabled": 0, "rental_uris": {"android": "https://dc.lft.to/lastmile_qr_scan", "ios": "https://dc.lft.to/lastmile_qr_scan"}, "fusion_lon": 0.0, "lon": -77.02541833333333, "type": "electric_scooter", "fusion_lat": 0.0, "name": "ceb7f62ec9ed35e4e1820cb0633a08e6"}, {"lat": 38.90232816666666, "bike_id": "a3eb424476c59108bba97f94db5b520f", "is_reserved": 0, "is_disabled": 0, "rental_uris": {"android": "https://dc.lft.to/lastmile_qr_scan", "ios": "https://dc.lft.to/lastmile_qr_scan"}, "fusion_lon": 0.0, "lon": -77.05906033333333, "type": "electric_scooter", "fusion_lat": 0.0, "name": "a3eb424476c59108bba97f94db5b520f"}, {"lat": 38.929905166666664, "bike_id": "2794af84b3b946551b7ceae6be49aabb", "is_reserved": 0, "is_disabled": 0, "rental_uris": {"android": "https://dc.lft.to/lastmile_qr_scan", "ios": "https://dc.lft.to/lastmile_qr_scan"}, "fusion_lon": 0.0, "lon": -77.0322675, "type": "electric_scooter", "fusion_lat": 0.0, "name": "2794af84b3b946551b7ceae6be49aabb"}, {"lat": 38.939397666666665, "bike_id": "caba68fffbfd8265e91a4684abe71c00", "is_reserved": 0, "is_disabled": 0, "rental_uris": {"android": "https://dc.lft.to/lastmile_qr_scan", "ios": "https://dc.lft.to/lastmile_qr_scan"}, "fusion_lon": 0.0, "lon": -77.03600416666667, "type": "electric_scooter", "fusion_lat": 0.0, "name": "caba68fffbfd8265e91a4684abe71c00"}, {"lat": 38.9052215, "bike_id": "03de30aa41805e823cc6e7f3922d195c", "is_reserved": 0, "is_disabled": 0, "rental_uris": {"android": "https://dc.lft.to/lastmile_qr_scan", "ios": "https://dc.lft.to/lastmile_qr_scan"}, "fusion_lon": 0.0, "lon": -76.983026, "type": "electric_scooter", "fusion_lat": 0.0, "name": "03de30aa41805e823cc6e7f3922d195c"}, {"lat": 38.92328416666667, "bike_id": "6dd86e8f805ff2279605237b6c8caef5", "is_reserved": 0, "is_disabled": 0, "rental_uris": {"android": "https://dc.lft.to/lastmile_qr_scan", "ios": "https://dc.lft.to/lastmile_qr_scan"}, "fusion_lon": 0.0, "lon": -77.04314666666667, "type": "electric_scooter", "fusion_lat": 0.0, "name": "6dd86e8f805ff2279605237b6c8caef5"}, {"lat": 38.926831, "bike_id": "09c852e3d97923b8dc64ec8d89fc12d4", "is_reserved": 0, "is_disabled": 0, "rental_uris": {"android": "https://dc.lft.to/lastmile_qr_scan", "ios": "https://dc.lft.to/lastmile_qr_scan"}, "fusion_lon": 0.0, "lon": -77.02994766666667, "type": "electric_scooter", "fusion_lat": 0.0, "name": "09c852e3d97923b8dc64ec8d89fc12d4"}, {"lat": 38.92524066666667, "bike_id": "0d7911897f91f93661fd28b8571cdfe3", "is_reserved": 0, "is_disabled": 0, "rental_uris": {"android": "https://dc.lft.to/lastmile_qr_scan", "ios": "https://dc.lft.to/lastmile_qr_scan"}, "fusion_lon": 0.0, "lon": -77.03843133333334, "type": "electric_scooter", "fusion_lat": 0.0, "name": "0d7911897f91f93661fd28b8571cdfe3"}, {"lat": 38.885961, "bike_id": "bf70b4636d2c12a2bc1ff19f9551d0ec", "is_reserved": 0, "is_disabled": 0, "rental_uris": {"android": "https://dc.lft.to/lastmile_qr_scan", "ios": "https://dc.lft.to/lastmile_qr_scan"}, "fusion_lon": 0.0, "lon": -77.0175145, "type": "electric_scooter", "fusion_lat": 0.0, "name": "bf70b4636d2c12a2bc1ff19f9551d0ec"}, {"lat": 38.9192925, "bike_id": "2375ed1c2707b2706b5e866109f2dc3d", "is_reserved": 0, "is_disabled": 0, "rental_uris": {"android": "https://dc.lft.to/lastmile_qr_scan", "ios": "https://dc.lft.to/lastmile_qr_scan"}, "fusion_lon": 0.0, "lon": -77.03211266666666, "type": "electric_scooter", "fusion_lat": 0.0, "name": "2375ed1c2707b2706b5e866109f2dc3d"}, {"lat": 38.903845833333335, "bike_id": "11e2b1bddf67963bff31741d60d33812", "is_reserved": 0, "is_disabled": 0, "rental_uris": {"android": "https://dc.lft.to/lastmile_qr_scan", "ios": "https://dc.lft.to/lastmile_qr_scan"}, "fusion_lon": 0.0, "lon": -77.031195, "type": "electric_scooter", "fusion_lat": 0.0, "name": "11e2b1bddf67963bff31741d60d33812"}, {"lat": 38.903745666666666, "bike_id": "21ba721cd584705be0910dd2216184bc", "is_reserved": 0, "is_disabled": 0, "rental_uris": {"android": "https://dc.lft.to/lastmile_qr_scan", "ios": "https://dc.lft.to/lastmile_qr_scan"}, "fusion_lon": 0.0, "lon": -77.066035, "type": "electric_scooter", "fusion_lat": 0.0, "name": "21ba721cd584705be0910dd2216184bc"}, {"lat": 38.965316666666666, "bike_id": "5257ae88c64d09f0d38eed9b8c6b515e", "is_reserved": 0, "is_disabled": 0, "rental_uris": {"android": "https://dc.lft.to/lastmile_qr_scan", "ios": "https://dc.lft.to/lastmile_qr_scan"}, "fusion_lon": 0.0, "lon": -77.03434383333334, "type": "electric_bike", "fusion_lat": 0.0, "name": "5257ae88c64d09f0d38eed9b8c6b515e"}, {"lat": 38.9482585, "bike_id": "6cbdb8160830956f219c831e13c5f79f", "is_reserved": 0, "is_disabled": 0, "rental_uris": {"android": "https://dc.lft.to/lastmile_qr_scan", "ios": "https://dc.lft.to/lastmile_qr_scan"}, "fusion_lon": 0.0, "lon": -76.999044, "type": "electric_scooter", "fusion_lat": 0.0, "name": "6cbdb8160830956f219c831e13c5f79f"}, {"lat": 38.94806166666667, "bike_id": "e39d70e37f6d49d5f19f89efbf1f578d", "is_reserved": 0, "is_disabled": 0, "rental_uris": {"android": "https://dc.lft.to/lastmile_qr_scan", "ios": "https://dc.lft.to/lastmile_qr_scan"}, "fusion_lon": 0.0, "lon": -77.0790795, "type": "electric_scooter", "fusion_lat": 0.0, "name": "e39d70e37f6d49d5f19f89efbf1f578d"}, {"lat": 38.903855166666666, "bike_id": "4728d786644c4f8fe6a4fff0439b19fd", "is_reserved": 0, "is_disabled": 0, "rental_uris": {"android": "https://dc.lft.to/lastmile_qr_scan", "ios": "https://dc.lft.to/lastmile_qr_scan"}, "fusion_lon": 0.0, "lon": -77.034451, "type": "electric_scooter", "fusion_lat": 0.0, "name": "4728d786644c4f8fe6a4fff0439b19fd"}, {"lat": 38.95253666666667, "bike_id": "0b438217ea4e83511bd20a3fcc7d96da", "is_reserved": 0, "is_disabled": 0, "rental_uris": {"android": "https://dc.lft.to/lastmile_qr_scan", "ios": "https://dc.lft.to/lastmile_qr_scan"}, "fusion_lon": 0.0, "lon": -77.00701033333333, "type": "electric_scooter", "fusion_lat": 0.0, "name": "0b438217ea4e83511bd20a3fcc7d96da"}, {"lat": 38.91556416666667, "bike_id": "fc7ace49af1dd4d735222c5097639e99", "is_reserved": 0, "is_disabled": 0, "rental_uris": {"android": "https://dc.lft.to/lastmile_qr_scan", "ios": "https://dc.lft.to/lastmile_qr_scan"}, "fusion_lon": 0.0, "lon": -77.0217335, "type": "electric_scooter", "fusion_lat": 0.0, "name": "fc7ace49af1dd4d735222c5097639e99"}, {"lat": 38.901445333333335, "bike_id": "ae6060c912798a3f559491cb5166f793", "is_reserved": 0, "is_disabled": 0, "rental_uris": {"android": "https://dc.lft.to/lastmile_qr_scan", "ios": "https://dc.lft.to/lastmile_qr_scan"}, "fusion_lon": 0.0, "lon": -77.03316283333334, "type": "electric_scooter", "fusion_lat": 0.0, "name": "ae6060c912798a3f559491cb5166f793"}, {"lat": 38.9167035, "bike_id": "be1070bed888d2a400798cc3732e10e4", "is_reserved": 0, "is_disabled": 0, "rental_uris": {"android": "https://dc.lft.to/lastmile_qr_scan", "ios": "https://dc.lft.to/lastmile_qr_scan"}, "fusion_lon": 0.0, "lon": -77.03439916666666, "type": "electric_scooter", "fusion_lat": 0.0, "name": "be1070bed888d2a400798cc3732e10e4"}, {"lat": 38.92724033333333, "bike_id": "cc6a550cd313cfc9c487f2bf5ab3290d", "is_reserved": 0, "is_disabled": 0, "rental_uris": {"android": "https://dc.lft.to/lastmile_qr_scan", "ios": "https://dc.lft.to/lastmile_qr_scan"}, "fusion_lon": 0.0, "lon": -77.0366525, "type": "electric_scooter", "fusion_lat": 0.0, "name": "cc6a550cd313cfc9c487f2bf5ab3290d"}, {"lat": 38.92458416666667, "bike_id": "7ed4d98435fb8120c6b2a05d3913c01d", "is_reserved": 0, "is_disabled": 0, "rental_uris": {"android": "https://dc.lft.to/lastmile_qr_scan", "ios": "https://dc.lft.to/lastmile_qr_scan"}, "fusion_lon": 0.0, "lon": -77.02712266666667, "type": "electric_scooter", "fusion_lat": 0.0, "name": "7ed4d98435fb8120c6b2a05d3913c01d"}, {"lat": 38.89242216666667, "bike_id": "17d42e365d753f507d33ce4728202683", "is_reserved": 0, "is_disabled": 0, "rental_uris": {"android": "https://dc.lft.to/lastmile_qr_scan", "ios": "https://dc.lft.to/lastmile_qr_scan"}, "fusion_lon": 0.0, "lon": -77.01524433333333, "type": "electric_scooter", "fusion_lat": 0.0, "name": "17d42e365d753f507d33ce4728202683"}, {"lat": 38.928370666666666, "bike_id": "c7c7421f66cd8a2b5205af57a40706ed", "is_reserved": 0, "is_disabled": 0, "rental_uris": {"android": "https://dc.lft.to/lastmile_qr_scan", "ios": "https://dc.lft.to/lastmile_qr_scan"}, "fusion_lon": 0.0, "lon": -77.01414016666666, "type": "electric_scooter", "fusion_lat": 0.0, "name": "c7c7421f66cd8a2b5205af57a40706ed"}, {"lat": 38.84436766666666, "bike_id": "0cd56880757b5654a48d43fb61e1c93c", "is_reserved": 0, "is_disabled": 0, "rental_uris": {"android": "https://dc.lft.to/lastmile_qr_scan", "ios": "https://dc.lft.to/lastmile_qr_scan"}, "fusion_lon": 0.0, "lon": -76.99816533333333, "type": "electric_scooter", "fusion_lat": 0.0, "name": "0cd56880757b5654a48d43fb61e1c93c"}, {"lat": 38.922736, "bike_id": "8df46ef2f90bfb64f348b761c71b32c1", "is_reserved": 0, "is_disabled": 0, "rental_uris": {"android": "https://dc.lft.to/lastmile_qr_scan", "ios": "https://dc.lft.to/lastmile_qr_scan"}, "fusion_lon": 0.0, "lon": -77.01983166666666, "type": "electric_bike", "fusion_lat": 0.0, "name": "8df46ef2f90bfb64f348b761c71b32c1"}, {"lat": 38.898546833333334, "bike_id": "05d5e83a406f7168c6650d0d10cc6d58", "is_reserved": 0, "is_disabled": 0, "rental_uris": {"android": "https://dc.lft.to/lastmile_qr_scan", "ios": "https://dc.lft.to/lastmile_qr_scan"}, "fusion_lon": 0.0, "lon": -76.9902965, "type": "electric_scooter", "fusion_lat": 0.0, "name": "05d5e83a406f7168c6650d0d10cc6d58"}, {"lat": 38.895964666666664, "bike_id": "384c2b678ff4316b6602d34ac283a5cc", "is_reserved": 0, "is_disabled": 0, "rental_uris": {"android": "https://dc.lft.to/lastmile_qr_scan", "ios": "https://dc.lft.to/lastmile_qr_scan"}, "fusion_lon": 0.0, "lon": -76.90711166666667, "type": "electric_bike", "fusion_lat": 0.0, "name": "384c2b678ff4316b6602d34ac283a5cc"}, {"lat": 38.927919333333335, "bike_id": "4a4021d1789e7e7ec16506630ded1e12", "is_reserved": 0, "is_disabled": 0, "rental_uris": {"android": "https://dc.lft.to/lastmile_qr_scan", "ios": "https://dc.lft.to/lastmile_qr_scan"}, "fusion_lon": 0.0, "lon": -77.05409916666666, "type": "electric_scooter", "fusion_lat": 0.0, "name": "4a4021d1789e7e7ec16506630ded1e12"}, {"lat": 38.90783716666667, "bike_id": "cf0347df773c2e459a8062fe6c64f63d", "is_reserved": 0, "is_disabled": 0, "rental_uris": {"android": "https://dc.lft.to/lastmile_qr_scan", "ios": "https://dc.lft.to/lastmile_qr_scan"}, "fusion_lon": 0.0, "lon": -77.04347316666667, "type": "electric_scooter", "fusion_lat": 0.0, "name": "cf0347df773c2e459a8062fe6c64f63d"}, {"lat": 38.9069505, "bike_id": "88695ad2ec364ebb71b79a8b78d08939", "is_reserved": 0, "is_disabled": 0, "rental_uris": {"android": "https://dc.lft.to/lastmile_qr_scan", "ios": "https://dc.lft.to/lastmile_qr_scan"}, "fusion_lon": 0.0, "lon": -77.0099535, "type": "electric_scooter", "fusion_lat": 0.0, "name": "88695ad2ec364ebb71b79a8b78d08939"}, {"lat": 38.92321966666667, "bike_id": "be25f22a522b7d1819d16d5dcbba85f1", "is_reserved": 0, "is_disabled": 0, "rental_uris": {"android": "https://dc.lft.to/lastmile_qr_scan", "ios": "https://dc.lft.to/lastmile_qr_scan"}, "fusion_lon": 0.0, "lon": -77.04042166666666, "type": "electric_scooter", "fusion_lat": 0.0, "name": "be25f22a522b7d1819d16d5dcbba85f1"}, {"lat": 38.926291, "bike_id": "fbc9a4d582f82e98415c50eb3b102ab4", "is_reserved": 0, "is_disabled": 0, "rental_uris": {"android": "https://dc.lft.to/lastmile_qr_scan", "ios": "https://dc.lft.to/lastmile_qr_scan"}, "fusion_lon": 0.0, "lon": -77.022174, "type": "electric_scooter", "fusion_lat": 0.0, "name": "fbc9a4d582f82e98415c50eb3b102ab4"}, {"lat": 38.8968295, "bike_id": "75b876d3fa8464be154aff5adca211ff", "is_reserved": 0, "is_disabled": 0, "rental_uris": {"android": "https://dc.lft.to/lastmile_qr_scan", "ios": "https://dc.lft.to/lastmile_qr_scan"}, "fusion_lon": 0.0, "lon": -77.0049915, "type": "electric_scooter", "fusion_lat": 0.0, "name": "75b876d3fa8464be154aff5adca211ff"}, {"lat": 38.916835166666665, "bike_id": "dab8563eb0f54ff8a0fefd2293d90a13", "is_reserved": 0, "is_disabled": 0, "rental_uris": {"android": "https://dc.lft.to/lastmile_qr_scan", "ios": "https://dc.lft.to/lastmile_qr_scan"}, "fusion_lon": 0.0, "lon": -77.036668, "type": "electric_scooter", "fusion_lat": 0.0, "name": "dab8563eb0f54ff8a0fefd2293d90a13"}, {"lat": 38.8581555, "bike_id": "38c20615c623900a372072d4f3e4db96", "is_reserved": 0, "is_disabled": 0, "rental_uris": {"android": "https://dc.lft.to/lastmile_qr_scan", "ios": "https://dc.lft.to/lastmile_qr_scan"}, "fusion_lon": 0.0, "lon": -76.9892715, "type": "electric_scooter", "fusion_lat": 0.0, "name": "38c20615c623900a372072d4f3e4db96"}, {"lat": 38.91802783333333, "bike_id": "0532a3d8ff3fd5d70329072273a10f93", "is_reserved": 0, "is_disabled": 0, "rental_uris": {"android": "https://dc.lft.to/lastmile_qr_scan", "ios": "https://dc.lft.to/lastmile_qr_scan"}, "fusion_lon": 0.0, "lon": -77.03442366666667, "type": "electric_scooter", "fusion_lat": 0.0, "name": "0532a3d8ff3fd5d70329072273a10f93"}, {"lat": 38.908443, "bike_id": "1fcb522871be45847f20d4fadc10117f", "is_reserved": 0, "is_disabled": 0, "rental_uris": {"android": "https://dc.lft.to/lastmile_qr_scan", "ios": "https://dc.lft.to/lastmile_qr_scan"}, "fusion_lon": 0.0, "lon": -76.99749533333333, "type": "electric_scooter", "fusion_lat": 0.0, "name": "1fcb522871be45847f20d4fadc10117f"}, {"lat": 38.94087833333333, "bike_id": "6e7315b6ab8ea4fbcf063873a28a51db", "is_reserved": 0, "is_disabled": 0, "rental_uris": {"android": "https://dc.lft.to/lastmile_qr_scan", "ios": "https://dc.lft.to/lastmile_qr_scan"}, "fusion_lon": 0.0, "lon": -77.061319, "type": "electric_scooter", "fusion_lat": 0.0, "name": "6e7315b6ab8ea4fbcf063873a28a51db"}, {"lat": 38.90405466666667, "bike_id": "0c9b853cd52149b412eab744a4c77a59", "is_reserved": 0, "is_disabled": 0, "rental_uris": {"android": "https://dc.lft.to/lastmile_qr_scan", "ios": "https://dc.lft.to/lastmile_qr_scan"}, "fusion_lon": 0.0, "lon": -76.981104, "type": "electric_scooter", "fusion_lat": 0.0, "name": "0c9b853cd52149b412eab744a4c77a59"}, {"lat": 38.939106833333334, "bike_id": "22576609eb7229d3d65e61a3f9cbef5f", "is_reserved": 0, "is_disabled": 0, "rental_uris": {"android": "https://dc.lft.to/lastmile_qr_scan", "ios": "https://dc.lft.to/lastmile_qr_scan"}, "fusion_lon": 0.0, "lon": -77.060524, "type": "electric_scooter", "fusion_lat": 0.0, "name": "22576609eb7229d3d65e61a3f9cbef5f"}, {"lat": 38.908207833333336, "bike_id": "ef724df277d68ed41d6d5bd2b46cd1ed", "is_reserved": 0, "is_disabled": 0, "rental_uris": {"android": "https://dc.lft.to/lastmile_qr_scan", "ios": "https://dc.lft.to/lastmile_qr_scan"}, "fusion_lon": 0.0, "lon": -77.07033616666666, "type": "electric_scooter", "fusion_lat": 0.0, "name": "ef724df277d68ed41d6d5bd2b46cd1ed"}, {"lat": 38.896191333333334, "bike_id": "7bec2671c36521c4ba490f81431f6866", "is_reserved": 0, "is_disabled": 0, "rental_uris": {"android": "https://dc.lft.to/lastmile_qr_scan", "ios": "https://dc.lft.to/lastmile_qr_scan"}, "fusion_lon": 0.0, "lon": -77.02396316666666, "type": "electric_scooter", "fusion_lat": 0.0, "name": "7bec2671c36521c4ba490f81431f6866"}, {"lat": 38.93683516666667, "bike_id": "981829f5f7b46b6a571ed6020cd9bf37", "is_reserved": 0, "is_disabled": 0, "rental_uris": {"android": "https://dc.lft.to/lastmile_qr_scan", "ios": "https://dc.lft.to/lastmile_qr_scan"}, "fusion_lon": 0.0, "lon": -77.03261616666667, "type": "electric_scooter", "fusion_lat": 0.0, "name": "981829f5f7b46b6a571ed6020cd9bf37"}, {"lat": 38.8749965, "bike_id": "8a23d36daae77cacbedab107cba1f747", "is_reserved": 0, "is_disabled": 0, "rental_uris": {"android": "https://dc.lft.to/lastmile_qr_scan", "ios": "https://dc.lft.to/lastmile_qr_scan"}, "fusion_lon": 0.0, "lon": -77.01760366666667, "type": "electric_scooter", "fusion_lat": 0.0, "name": "8a23d36daae77cacbedab107cba1f747"}, {"lat": 38.9235425, "bike_id": "b2eddcb263a0dfbe0996c775d47f3d78", "is_reserved": 0, "is_disabled": 0, "rental_uris": {"android": "https://dc.lft.to/lastmile_qr_scan", "ios": "https://dc.lft.to/lastmile_qr_scan"}, "fusion_lon": 0.0, "lon": -77.051166, "type": "electric_scooter", "fusion_lat": 0.0, "name": "b2eddcb263a0dfbe0996c775d47f3d78"}, {"lat": 38.93255933333333, "bike_id": "096b4581666fa765d3a41e32d5246468", "is_reserved": 0, "is_disabled": 0, "rental_uris": {"android": "https://dc.lft.to/lastmile_qr_scan", "ios": "https://dc.lft.to/lastmile_qr_scan"}, "fusion_lon": 0.0, "lon": -77.03886566666667, "type": "electric_scooter", "fusion_lat": 0.0, "name": "096b4581666fa765d3a41e32d5246468"}, {"lat": 38.9181835, "bike_id": "fe6f1a9206ecfecef379c2c373bc0a3a", "is_reserved": 0, "is_disabled": 0, "rental_uris": {"android": "https://dc.lft.to/lastmile_qr_scan", "ios": "https://dc.lft.to/lastmile_qr_scan"}, "fusion_lon": 0.0, "lon": -77.03457316666666, "type": "electric_scooter", "fusion_lat": 0.0, "name": "fe6f1a9206ecfecef379c2c373bc0a3a"}, {"lat": 38.872728333333335, "bike_id": "d6577087874697d351a05fb9052152cf", "is_reserved": 0, "is_disabled": 0, "rental_uris": {"android": "https://dc.lft.to/lastmile_qr_scan", "ios": "https://dc.lft.to/lastmile_qr_scan"}, "fusion_lon": 0.0, "lon": -77.01731883333333, "type": "electric_scooter", "fusion_lat": 0.0, "name": "d6577087874697d351a05fb9052152cf"}, {"lat": 38.908453333333334, "bike_id": "46b748d81b5fbb120f8c5d5e45dd90b5", "is_reserved": 0, "is_disabled": 0, "rental_uris": {"android": "https://dc.lft.to/lastmile_qr_scan", "ios": "https://dc.lft.to/lastmile_qr_scan"}, "fusion_lon": 0.0, "lon": -77.03682716666667, "type": "electric_scooter", "fusion_lat": 0.0, "name": "46b748d81b5fbb120f8c5d5e45dd90b5"}, {"lat": 38.90973183333333, "bike_id": "dad54887e52411083035cc398688f25c", "is_reserved": 0, "is_disabled": 0, "rental_uris": {"android": "https://dc.lft.to/lastmile_qr_scan", "ios": "https://dc.lft.to/lastmile_qr_scan"}, "fusion_lon": 0.0, "lon": -77.0438975, "type": "electric_scooter", "fusion_lat": 0.0, "name": "dad54887e52411083035cc398688f25c"}, {"lat": 38.90959683333333, "bike_id": "0539f4d4c467cce1cb9a6868bc8dacc1", "is_reserved": 0, "is_disabled": 0, "rental_uris": {"android": "https://dc.lft.to/lastmile_qr_scan", "ios": "https://dc.lft.to/lastmile_qr_scan"}, "fusion_lon": 0.0, "lon": -77.02278216666667, "type": "electric_scooter", "fusion_lat": 0.0, "name": "0539f4d4c467cce1cb9a6868bc8dacc1"}, {"lat": 38.9060675, "bike_id": "4c93487129f53a389e757c100c93d783", "is_reserved": 0, "is_disabled": 0, "rental_uris": {"android": "https://dc.lft.to/lastmile_qr_scan", "ios": "https://dc.lft.to/lastmile_qr_scan"}, "fusion_lon": 0.0, "lon": -77.039829, "type": "electric_scooter", "fusion_lat": 0.0, "name": "4c93487129f53a389e757c100c93d783"}, {"lat": 38.88341283333333, "bike_id": "a1ae5e65b12786c131279918acf0207d", "is_reserved": 0, "is_disabled": 0, "rental_uris": {"android": "https://dc.lft.to/lastmile_qr_scan", "ios": "https://dc.lft.to/lastmile_qr_scan"}, "fusion_lon": 0.0, "lon": -77.016229, "type": "electric_scooter", "fusion_lat": 0.0, "name": "a1ae5e65b12786c131279918acf0207d"}, {"lat": 38.93662066666667, "bike_id": "3bef468c6a7445c33e659a09d932bddf", "is_reserved": 0, "is_disabled": 0, "rental_uris": {"android": "https://dc.lft.to/lastmile_qr_scan", "ios": "https://dc.lft.to/lastmile_qr_scan"}, "fusion_lon": 0.0, "lon": -77.03679066666666, "type": "electric_scooter", "fusion_lat": 0.0, "name": "3bef468c6a7445c33e659a09d932bddf"}, {"lat": 38.90463833333333, "bike_id": "c97863b18fb2b05fde0705f73052d3a7", "is_reserved": 0, "is_disabled": 0, "rental_uris": {"android": "https://dc.lft.to/lastmile_qr_scan", "ios": "https://dc.lft.to/lastmile_qr_scan"}, "fusion_lon": 0.0, "lon": -77.02716083333334, "type": "electric_scooter", "fusion_lat": 0.0, "name": "c97863b18fb2b05fde0705f73052d3a7"}, {"lat": 38.91632833333333, "bike_id": "4f4b74a7f5655ebee973f49b8f42de09", "is_reserved": 0, "is_disabled": 0, "rental_uris": {"android": "https://dc.lft.to/lastmile_qr_scan", "ios": "https://dc.lft.to/lastmile_qr_scan"}, "fusion_lon": 0.0, "lon": -77.03187183333333, "type": "electric_scooter", "fusion_lat": 0.0, "name": "4f4b74a7f5655ebee973f49b8f42de09"}, {"lat": 38.85311016666667, "bike_id": "fe599db151687df8d3cc7678c6806f84", "is_reserved": 0, "is_disabled": 0, "rental_uris": {"android": "https://dc.lft.to/lastmile_qr_scan", "ios": "https://dc.lft.to/lastmile_qr_scan"}, "fusion_lon": 0.0, "lon": -76.97998683333333, "type": "electric_scooter", "fusion_lat": 0.0, "name": "fe599db151687df8d3cc7678c6806f84"}, {"lat": 38.92471616666667, "bike_id": "79c8875a9c9c401e095f00c8201c245f", "is_reserved": 0, "is_disabled": 0, "rental_uris": {"android": "https://dc.lft.to/lastmile_qr_scan", "ios": "https://dc.lft.to/lastmile_qr_scan"}, "fusion_lon": 0.0, "lon": -77.00217083333334, "type": "electric_scooter", "fusion_lat": 0.0, "name": "79c8875a9c9c401e095f00c8201c245f"}, {"lat": 38.90351416666667, "bike_id": "6f46fa60a835fa26ae4b6060c37aa3d2", "is_reserved": 0, "is_disabled": 0, "rental_uris": {"android": "https://dc.lft.to/lastmile_qr_scan", "ios": "https://dc.lft.to/lastmile_qr_scan"}, "fusion_lon": 0.0, "lon": -77.02679033333334, "type": "electric_scooter", "fusion_lat": 0.0, "name": "6f46fa60a835fa26ae4b6060c37aa3d2"}, {"lat": 38.89404316666667, "bike_id": "ca810cdc17705eea88987c688f39cec5", "is_reserved": 0, "is_disabled": 0, "rental_uris": {"android": "https://dc.lft.to/lastmile_qr_scan", "ios": "https://dc.lft.to/lastmile_qr_scan"}, "fusion_lon": 0.0, "lon": -77.02199083333333, "type": "electric_scooter", "fusion_lat": 0.0, "name": "ca810cdc17705eea88987c688f39cec5"}, {"lat": 38.9035735, "bike_id": "61c35fcf14bbb42be7dcb93fee5e5d8c", "is_reserved": 0, "is_disabled": 0, "rental_uris": {"android": "https://dc.lft.to/lastmile_qr_scan", "ios": "https://dc.lft.to/lastmile_qr_scan"}, "fusion_lon": 0.0, "lon": -77.0355135, "type": "electric_scooter", "fusion_lat": 0.0, "name": "61c35fcf14bbb42be7dcb93fee5e5d8c"}, {"lat": 38.90961083333333, "bike_id": "4458dcc392fa7d1000a5ab7f123d7c73", "is_reserved": 0, "is_disabled": 0, "rental_uris": {"android": "https://dc.lft.to/lastmile_qr_scan", "ios": "https://dc.lft.to/lastmile_qr_scan"}, "fusion_lon": 0.0, "lon": -77.02287633333333, "type": "electric_scooter", "fusion_lat": 0.0, "name": "4458dcc392fa7d1000a5ab7f123d7c73"}, {"lat": 38.8317545, "bike_id": "c8b0bee23098265b1e5a6ddd42e85702", "is_reserved": 0, "is_disabled": 0, "rental_uris": {"android": "https://dc.lft.to/lastmile_qr_scan", "ios": "https://dc.lft.to/lastmile_qr_scan"}, "fusion_lon": 0.0, "lon": -77.0669295, "type": "electric_bike", "fusion_lat": 0.0, "name": "c8b0bee23098265b1e5a6ddd42e85702"}, {"lat": 38.921311333333335, "bike_id": "ddddfbb2825acbbe26c644f609644368", "is_reserved": 0, "is_disabled": 0, "rental_uris": {"android": "https://dc.lft.to/lastmile_qr_scan", "ios": "https://dc.lft.to/lastmile_qr_scan"}, "fusion_lon": 0.0, "lon": -77.02532083333334, "type": "electric_scooter", "fusion_lat": 0.0, "name": "ddddfbb2825acbbe26c644f609644368"}, {"lat": 38.924799666666665, "bike_id": "87586a3ecf33c344e1c39cb66ae8aaad", "is_reserved": 0, "is_disabled": 0, "rental_uris": {"android": "https://dc.lft.to/lastmile_qr_scan", "ios": "https://dc.lft.to/lastmile_qr_scan"}, "fusion_lon": 0.0, "lon": -77.03497133333333, "type": "electric_scooter", "fusion_lat": 0.0, "name": "87586a3ecf33c344e1c39cb66ae8aaad"}, {"lat": 38.890972833333336, "bike_id": "592f2d94a114b3b2ab68fbae0375f701", "is_reserved": 0, "is_disabled": 0, "rental_uris": {"android": "https://dc.lft.to/lastmile_qr_scan", "ios": "https://dc.lft.to/lastmile_qr_scan"}, "fusion_lon": 0.0, "lon": -76.91866216666666, "type": "electric_scooter", "fusion_lat": 0.0, "name": "592f2d94a114b3b2ab68fbae0375f701"}, {"lat": 38.886881833333334, "bike_id": "7a36bf1bb07f4c18778c8dc73899d725", "is_reserved": 0, "is_disabled": 0, "rental_uris": {"android": "https://dc.lft.to/lastmile_qr_scan", "ios": "https://dc.lft.to/lastmile_qr_scan"}, "fusion_lon": 0.0, "lon": -77.02349183333334, "type": "electric_scooter", "fusion_lat": 0.0, "name": "7a36bf1bb07f4c18778c8dc73899d725"}, {"lat": 38.949537166666666, "bike_id": "cf1c301b998783ad3c4523286a3ac748", "is_reserved": 0, "is_disabled": 0, "rental_uris": {"android": "https://dc.lft.to/lastmile_qr_scan", "ios": "https://dc.lft.to/lastmile_qr_scan"}, "fusion_lon": 0.0, "lon": -77.08037433333334, "type": "electric_scooter", "fusion_lat": 0.0, "name": "cf1c301b998783ad3c4523286a3ac748"}, {"lat": 38.93746466666666, "bike_id": "c69225fc08953d6824e0b2fa22dd6b3a", "is_reserved": 0, "is_disabled": 0, "rental_uris": {"android": "https://dc.lft.to/lastmile_qr_scan", "ios": "https://dc.lft.to/lastmile_qr_scan"}, "fusion_lon": 0.0, "lon": -76.94576333333333, "type": "electric_bike", "fusion_lat": 0.0, "name": "c69225fc08953d6824e0b2fa22dd6b3a"}, {"lat": 38.90013666666667, "bike_id": "050debfa1f6fb42475e650c33c7e64c4", "is_reserved": 0, "is_disabled": 0, "rental_uris": {"android": "https://dc.lft.to/lastmile_qr_scan", "ios": "https://dc.lft.to/lastmile_qr_scan"}, "fusion_lon": 0.0, "lon": -77.00671083333333, "type": "electric_scooter", "fusion_lat": 0.0, "name": "050debfa1f6fb42475e650c33c7e64c4"}, {"lat": 38.9365205, "bike_id": "68d07964443e957a747a90c890a2ab44", "is_reserved": 0, "is_disabled": 0, "rental_uris": {"android": "https://dc.lft.to/lastmile_qr_scan", "ios": "https://dc.lft.to/lastmile_qr_scan"}, "fusion_lon": 0.0, "lon": -77.036919, "type": "electric_scooter", "fusion_lat": 0.0, "name": "68d07964443e957a747a90c890a2ab44"}, {"lat": 38.92065066666667, "bike_id": "552d64eb1ed7e92c5d5354a2c8e9887b", "is_reserved": 0, "is_disabled": 0, "rental_uris": {"android": "https://dc.lft.to/lastmile_qr_scan", "ios": "https://dc.lft.to/lastmile_qr_scan"}, "fusion_lon": 0.0, "lon": -77.04548916666667, "type": "electric_scooter", "fusion_lat": 0.0, "name": "552d64eb1ed7e92c5d5354a2c8e9887b"}, {"lat": 38.92222433333333, "bike_id": "d0965a756ebf211d5784cfda5c70013f", "is_reserved": 0, "is_disabled": 0, "rental_uris": {"android": "https://dc.lft.to/lastmile_qr_scan", "ios": "https://dc.lft.to/lastmile_qr_scan"}, "fusion_lon": 0.0, "lon": -77.04243333333334, "type": "electric_scooter", "fusion_lat": 0.0, "name": "d0965a756ebf211d5784cfda5c70013f"}, {"lat": 38.90436366666667, "bike_id": "c4ff7a68c8225b5bf334f6b4cd119f22", "is_reserved": 0, "is_disabled": 0, "rental_uris": {"android": "https://dc.lft.to/lastmile_qr_scan", "ios": "https://dc.lft.to/lastmile_qr_scan"}, "fusion_lon": 0.0, "lon": -77.04342866666667, "type": "electric_scooter", "fusion_lat": 0.0, "name": "c4ff7a68c8225b5bf334f6b4cd119f22"}, {"lat": 38.904058, "bike_id": "ddfb3ad64601b006e349d5f991566dcc", "is_reserved": 0, "is_disabled": 0, "rental_uris": {"android": "https://dc.lft.to/lastmile_qr_scan", "ios": "https://dc.lft.to/lastmile_qr_scan"}, "fusion_lon": 0.0, "lon": -76.981115, "type": "electric_scooter", "fusion_lat": 0.0, "name": "ddfb3ad64601b006e349d5f991566dcc"}, {"lat": 38.9271815, "bike_id": "5418217569acf384972e1bd8e96a2f89", "is_reserved": 0, "is_disabled": 0, "rental_uris": {"android": "https://dc.lft.to/lastmile_qr_scan", "ios": "https://dc.lft.to/lastmile_qr_scan"}, "fusion_lon": 0.0, "lon": -77.0207525, "type": "electric_scooter", "fusion_lat": 0.0, "name": "5418217569acf384972e1bd8e96a2f89"}, {"lat": 38.915387, "bike_id": "a6c35c170513573538fe213b03188f8d", "is_reserved": 0, "is_disabled": 0, "rental_uris": {"android": "https://dc.lft.to/lastmile_qr_scan", "ios": "https://dc.lft.to/lastmile_qr_scan"}, "fusion_lon": 0.0, "lon": -76.9835965, "type": "electric_scooter", "fusion_lat": 0.0, "name": "a6c35c170513573538fe213b03188f8d"}, {"lat": 38.902736166666664, "bike_id": "6482614a2ddf2559503131ae0d00a665", "is_reserved": 0, "is_disabled": 0, "rental_uris": {"android": "https://dc.lft.to/lastmile_qr_scan", "ios": "https://dc.lft.to/lastmile_qr_scan"}, "fusion_lon": 0.0, "lon": -77.0179985, "type": "electric_scooter", "fusion_lat": 0.0, "name": "6482614a2ddf2559503131ae0d00a665"}, {"lat": 38.95405933333333, "bike_id": "96f281d2c9bb7646629cc4cf89ae549b", "is_reserved": 0, "is_disabled": 0, "rental_uris": {"android": "https://dc.lft.to/lastmile_qr_scan", "ios": "https://dc.lft.to/lastmile_qr_scan"}, "fusion_lon": 0.0, "lon": -77.0279445, "type": "electric_scooter", "fusion_lat": 0.0, "name": "96f281d2c9bb7646629cc4cf89ae549b"}, {"lat": 38.86253083333333, "bike_id": "440086af599cdb84682f5b0289b3028f", "is_reserved": 0, "is_disabled": 0, "rental_uris": {"android": "https://dc.lft.to/lastmile_qr_scan", "ios": "https://dc.lft.to/lastmile_qr_scan"}, "fusion_lon": 0.0, "lon": -76.98689483333334, "type": "electric_scooter", "fusion_lat": 0.0, "name": "440086af599cdb84682f5b0289b3028f"}, {"lat": 38.935815833333336, "bike_id": "360878301aced0fd4f5f2e21f9edc33f", "is_reserved": 0, "is_disabled": 0, "rental_uris": {"android": "https://dc.lft.to/lastmile_qr_scan", "ios": "https://dc.lft.to/lastmile_qr_scan"}, "fusion_lon": 0.0, "lon": -77.027544, "type": "electric_scooter", "fusion_lat": 0.0, "name": "360878301aced0fd4f5f2e21f9edc33f"}, {"lat": 38.90767983333333, "bike_id": "9f467bed0db47e2b3f4d5881030c11fc", "is_reserved": 0, "is_disabled": 0, "rental_uris": {"android": "https://dc.lft.to/lastmile_qr_scan", "ios": "https://dc.lft.to/lastmile_qr_scan"}, "fusion_lon": 0.0, "lon": -77.06339116666666, "type": "electric_scooter", "fusion_lat": 0.0, "name": "9f467bed0db47e2b3f4d5881030c11fc"}, {"lat": 38.902809166666664, "bike_id": "d6fcc4883009ac8ca3f44210fe2fe239", "is_reserved": 0, "is_disabled": 0, "rental_uris": {"android": "https://dc.lft.to/lastmile_qr_scan", "ios": "https://dc.lft.to/lastmile_qr_scan"}, "fusion_lon": 0.0, "lon": -76.98194366666667, "type": "electric_scooter", "fusion_lat": 0.0, "name": "d6fcc4883009ac8ca3f44210fe2fe239"}, {"lat": 38.92830683333333, "bike_id": "6f9812e0be52b8c4adec3d43ea55f580", "is_reserved": 0, "is_disabled": 0, "rental_uris": {"android": "https://dc.lft.to/lastmile_qr_scan", "ios": "https://dc.lft.to/lastmile_qr_scan"}, "fusion_lon": 0.0, "lon": -77.05443933333333, "type": "electric_scooter", "fusion_lat": 0.0, "name": "6f9812e0be52b8c4adec3d43ea55f580"}, {"lat": 38.921532166666665, "bike_id": "3cf8b609df0d7ae9c0c74905494b35ad", "is_reserved": 0, "is_disabled": 0, "rental_uris": {"android": "https://dc.lft.to/lastmile_qr_scan", "ios": "https://dc.lft.to/lastmile_qr_scan"}, "fusion_lon": 0.0, "lon": -77.03316816666667, "type": "electric_scooter", "fusion_lat": 0.0, "name": "3cf8b609df0d7ae9c0c74905494b35ad"}, {"lat": 38.95423666666667, "bike_id": "ce01c6aadebc3ec4eda64b570e58287d", "is_reserved": 0, "is_disabled": 0, "rental_uris": {"android": "https://dc.lft.to/lastmile_qr_scan", "ios": "https://dc.lft.to/lastmile_qr_scan"}, "fusion_lon": 0.0, "lon": -77.02771116666666, "type": "electric_scooter", "fusion_lat": 0.0, "name": "ce01c6aadebc3ec4eda64b570e58287d"}, {"lat": 38.916942, "bike_id": "3dee6da9d6727dee3d8aa9be0785eefe", "is_reserved": 0, "is_disabled": 0, "rental_uris": {"android": "https://dc.lft.to/lastmile_qr_scan", "ios": "https://dc.lft.to/lastmile_qr_scan"}, "fusion_lon": 0.0, "lon": -77.02957833333333, "type": "electric_scooter", "fusion_lat": 0.0, "name": "3dee6da9d6727dee3d8aa9be0785eefe"}, {"lat": 38.923506, "bike_id": "56498bfe9c09c207e0a66a996a663f61", "is_reserved": 0, "is_disabled": 0, "rental_uris": {"android": "https://dc.lft.to/lastmile_qr_scan", "ios": "https://dc.lft.to/lastmile_qr_scan"}, "fusion_lon": 0.0, "lon": -77.05349216666667, "type": "electric_scooter", "fusion_lat": 0.0, "name": "56498bfe9c09c207e0a66a996a663f61"}, {"lat": 38.89934933333333, "bike_id": "9bdca2cf8737af5fc07949906f425a25", "is_reserved": 0, "is_disabled": 0, "rental_uris": {"android": "https://dc.lft.to/lastmile_qr_scan", "ios": "https://dc.lft.to/lastmile_qr_scan"}, "fusion_lon": 0.0, "lon": -77.00887516666667, "type": "electric_bike", "fusion_lat": 0.0, "name": "9bdca2cf8737af5fc07949906f425a25"}, {"lat": 38.901307333333335, "bike_id": "031e8b12f99b6cab9f58be5cbfc693b9", "is_reserved": 0, "is_disabled": 0, "rental_uris": {"android": "https://dc.lft.to/lastmile_qr_scan", "ios": "https://dc.lft.to/lastmile_qr_scan"}, "fusion_lon": 0.0, "lon": -76.997333, "type": "electric_scooter", "fusion_lat": 0.0, "name": "031e8b12f99b6cab9f58be5cbfc693b9"}, {"lat": 38.936743666666665, "bike_id": "7e4d88c123c3885767dfbd6ac43b87c9", "is_reserved": 0, "is_disabled": 0, "rental_uris": {"android": "https://dc.lft.to/lastmile_qr_scan", "ios": "https://dc.lft.to/lastmile_qr_scan"}, "fusion_lon": 0.0, "lon": -77.03278666666667, "type": "electric_scooter", "fusion_lat": 0.0, "name": "7e4d88c123c3885767dfbd6ac43b87c9"}, {"lat": 38.90026366666667, "bike_id": "923a730455eb4cceee8d889464b95ba4", "is_reserved": 0, "is_disabled": 0, "rental_uris": {"android": "https://dc.lft.to/lastmile_qr_scan", "ios": "https://dc.lft.to/lastmile_qr_scan"}, "fusion_lon": 0.0, "lon": -77.01169933333334, "type": "electric_scooter", "fusion_lat": 0.0, "name": "923a730455eb4cceee8d889464b95ba4"}, {"lat": 38.92320733333333, "bike_id": "8dcb7dd34b7c0c7f1b92bbb86e5735b0", "is_reserved": 0, "is_disabled": 0, "rental_uris": {"android": "https://dc.lft.to/lastmile_qr_scan", "ios": "https://dc.lft.to/lastmile_qr_scan"}, "fusion_lon": 0.0, "lon": -77.02129966666666, "type": "electric_scooter", "fusion_lat": 0.0, "name": "8dcb7dd34b7c0c7f1b92bbb86e5735b0"}, {"lat": 38.88728166666667, "bike_id": "675f55c9298314c9a3a7950c298dc1b9", "is_reserved": 0, "is_disabled": 0, "rental_uris": {"android": "https://dc.lft.to/lastmile_qr_scan", "ios": "https://dc.lft.to/lastmile_qr_scan"}, "fusion_lon": 0.0, "lon": -77.0220185, "type": "electric_scooter", "fusion_lat": 0.0, "name": "675f55c9298314c9a3a7950c298dc1b9"}, {"lat": 38.9018825, "bike_id": "a4e178d931d019a23f5f8da37d10cb65", "is_reserved": 0, "is_disabled": 0, "rental_uris": {"android": "https://dc.lft.to/lastmile_qr_scan", "ios": "https://dc.lft.to/lastmile_qr_scan"}, "fusion_lon": 0.0, "lon": -77.01318416666666, "type": "electric_scooter", "fusion_lat": 0.0, "name": "a4e178d931d019a23f5f8da37d10cb65"}, {"lat": 38.8291245, "bike_id": "e6417ef4896e02e289b55ac027fd3c84", "is_reserved": 0, "is_disabled": 0, "rental_uris": {"android": "https://dc.lft.to/lastmile_qr_scan", "ios": "https://dc.lft.to/lastmile_qr_scan"}, "fusion_lon": 0.0, "lon": -77.0083465, "type": "electric_bike", "fusion_lat": 0.0, "name": "e6417ef4896e02e289b55ac027fd3c84"}, {"lat": 38.930935, "bike_id": "0706a64cc5a200d34211a93528f9a0d6", "is_reserved": 0, "is_disabled": 0, "rental_uris": {"android": "https://dc.lft.to/lastmile_qr_scan", "ios": "https://dc.lft.to/lastmile_qr_scan"}, "fusion_lon": 0.0, "lon": -77.03816133333333, "type": "electric_scooter", "fusion_lat": 0.0, "name": "0706a64cc5a200d34211a93528f9a0d6"}, {"lat": 38.948035833333336, "bike_id": "e00c25dd15b5e47729e0f3a3d5b86c94", "is_reserved": 0, "is_disabled": 0, "rental_uris": {"android": "https://dc.lft.to/lastmile_qr_scan", "ios": "https://dc.lft.to/lastmile_qr_scan"}, "fusion_lon": 0.0, "lon": -77.0788915, "type": "electric_scooter", "fusion_lat": 0.0, "name": "e00c25dd15b5e47729e0f3a3d5b86c94"}, {"lat": 38.9034785, "bike_id": "c73b40d088e25b47d2c489587119b138", "is_reserved": 0, "is_disabled": 0, "rental_uris": {"android": "https://dc.lft.to/lastmile_qr_scan", "ios": "https://dc.lft.to/lastmile_qr_scan"}, "fusion_lon": 0.0, "lon": -77.00902033333334, "type": "electric_scooter", "fusion_lat": 0.0, "name": "c73b40d088e25b47d2c489587119b138"}, {"lat": 38.88707016666667, "bike_id": "e7e0e43ed3b0f16d5ebaf69b828868ab", "is_reserved": 0, "is_disabled": 0, "rental_uris": {"android": "https://dc.lft.to/lastmile_qr_scan", "ios": "https://dc.lft.to/lastmile_qr_scan"}, "fusion_lon": 0.0, "lon": -77.0136985, "type": "electric_scooter", "fusion_lat": 0.0, "name": "e7e0e43ed3b0f16d5ebaf69b828868ab"}, {"lat": 38.856896166666665, "bike_id": "6e3891ee5940ac1ac056be719a7d1714", "is_reserved": 0, "is_disabled": 0, "rental_uris": {"android": "https://dc.lft.to/lastmile_qr_scan", "ios": "https://dc.lft.to/lastmile_qr_scan"}, "fusion_lon": 0.0, "lon": -76.99597783333333, "type": "electric_scooter", "fusion_lat": 0.0, "name": "6e3891ee5940ac1ac056be719a7d1714"}, {"lat": 38.9076385, "bike_id": "bea61ea589402942220863410a21d358", "is_reserved": 0, "is_disabled": 0, "rental_uris": {"android": "https://dc.lft.to/lastmile_qr_scan", "ios": "https://dc.lft.to/lastmile_qr_scan"}, "fusion_lon": 0.0, "lon": -77.0014895, "type": "electric_scooter", "fusion_lat": 0.0, "name": "bea61ea589402942220863410a21d358"}, {"lat": 38.919502666666666, "bike_id": "fd43311a768285690d9748743d41b191", "is_reserved": 0, "is_disabled": 0, "rental_uris": {"android": "https://dc.lft.to/lastmile_qr_scan", "ios": "https://dc.lft.to/lastmile_qr_scan"}, "fusion_lon": 0.0, "lon": -77.0797425, "type": "electric_scooter", "fusion_lat": 0.0, "name": "fd43311a768285690d9748743d41b191"}, {"lat": 38.8965285, "bike_id": "fd3d61f1b22e704725ce9743ece81012", "is_reserved": 0, "is_disabled": 0, "rental_uris": {"android": "https://dc.lft.to/lastmile_qr_scan", "ios": "https://dc.lft.to/lastmile_qr_scan"}, "fusion_lon": 0.0, "lon": -77.0092515, "type": "electric_scooter", "fusion_lat": 0.0, "name": "fd3d61f1b22e704725ce9743ece81012"}, {"lat": 38.918043833333336, "bike_id": "b7a3338a95fa10c1b2ca7e98ebed56ab", "is_reserved": 0, "is_disabled": 0, "rental_uris": {"android": "https://dc.lft.to/lastmile_qr_scan", "ios": "https://dc.lft.to/lastmile_qr_scan"}, "fusion_lon": 0.0, "lon": -77.03209933333333, "type": "electric_scooter", "fusion_lat": 0.0, "name": "b7a3338a95fa10c1b2ca7e98ebed56ab"}, {"lat": 38.9191685, "bike_id": "e6563d2e2675d6579ccdef55c06629c4", "is_reserved": 0, "is_disabled": 0, "rental_uris": {"android": "https://dc.lft.to/lastmile_qr_scan", "ios": "https://dc.lft.to/lastmile_qr_scan"}, "fusion_lon": 0.0, "lon": -77.02169633333334, "type": "electric_scooter", "fusion_lat": 0.0, "name": "e6563d2e2675d6579ccdef55c06629c4"}, {"lat": 38.86655566666667, "bike_id": "2273e3ee5c0a974cd98fab34e5fb2135", "is_reserved": 0, "is_disabled": 0, "rental_uris": {"android": "https://dc.lft.to/lastmile_qr_scan", "ios": "https://dc.lft.to/lastmile_qr_scan"}, "fusion_lon": 0.0, "lon": -76.9888385, "type": "electric_scooter", "fusion_lat": 0.0, "name": "2273e3ee5c0a974cd98fab34e5fb2135"}, {"lat": 38.9096965, "bike_id": "3bd3afd741ae97984e29e52a10534a5c", "is_reserved": 0, "is_disabled": 0, "rental_uris": {"android": "https://dc.lft.to/lastmile_qr_scan", "ios": "https://dc.lft.to/lastmile_qr_scan"}, "fusion_lon": 0.0, "lon": -77.02198133333333, "type": "electric_scooter", "fusion_lat": 0.0, "name": "3bd3afd741ae97984e29e52a10534a5c"}, {"lat": 38.899333166666665, "bike_id": "86ceecd498007455b9c685f32b160948", "is_reserved": 0, "is_disabled": 0, "rental_uris": {"android": "https://dc.lft.to/lastmile_qr_scan", "ios": "https://dc.lft.to/lastmile_qr_scan"}, "fusion_lon": 0.0, "lon": -77.02959483333333, "type": "electric_scooter", "fusion_lat": 0.0, "name": "86ceecd498007455b9c685f32b160948"}, {"lat": 38.890420166666665, "bike_id": "cf7e528a9a821ad3039574fd244a7806", "is_reserved": 0, "is_disabled": 0, "rental_uris": {"android": "https://dc.lft.to/lastmile_qr_scan", "ios": "https://dc.lft.to/lastmile_qr_scan"}, "fusion_lon": 0.0, "lon": -76.93755916666667, "type": "electric_scooter", "fusion_lat": 0.0, "name": "cf7e528a9a821ad3039574fd244a7806"}, {"lat": 38.914056333333335, "bike_id": "647feddbb5c2a3ab3b6694018afd467d", "is_reserved": 0, "is_disabled": 0, "rental_uris": {"android": "https://dc.lft.to/lastmile_qr_scan", "ios": "https://dc.lft.to/lastmile_qr_scan"}, "fusion_lon": 0.0, "lon": -77.0447765, "type": "electric_scooter", "fusion_lat": 0.0, "name": "647feddbb5c2a3ab3b6694018afd467d"}, {"lat": 38.926563, "bike_id": "3e7e4b5968dd66e29c5f0bbccf389420", "is_reserved": 0, "is_disabled": 0, "rental_uris": {"android": "https://dc.lft.to/lastmile_qr_scan", "ios": "https://dc.lft.to/lastmile_qr_scan"}, "fusion_lon": 0.0, "lon": -77.04316566666667, "type": "electric_scooter", "fusion_lat": 0.0, "name": "3e7e4b5968dd66e29c5f0bbccf389420"}, {"lat": 38.91037383333333, "bike_id": "d54605c2ddb4bf483f7edee7cb4ae793", "is_reserved": 0, "is_disabled": 0, "rental_uris": {"android": "https://dc.lft.to/lastmile_qr_scan", "ios": "https://dc.lft.to/lastmile_qr_scan"}, "fusion_lon": 0.0, "lon": -77.075555, "type": "electric_bike", "fusion_lat": 0.0, "name": "d54605c2ddb4bf483f7edee7cb4ae793"}, {"lat": 38.887397, "bike_id": "bd5b9619d7ff223b2f2b7861ca1058c1", "is_reserved": 0, "is_disabled": 0, "rental_uris": {"android": "https://dc.lft.to/lastmile_qr_scan", "ios": "https://dc.lft.to/lastmile_qr_scan"}, "fusion_lon": 0.0, "lon": -77.00199533333333, "type": "electric_scooter", "fusion_lat": 0.0, "name": "bd5b9619d7ff223b2f2b7861ca1058c1"}, {"lat": 38.923490666666666, "bike_id": "ff41feaa93828bc693f479855027d0ca", "is_reserved": 0, "is_disabled": 0, "rental_uris": {"android": "https://dc.lft.to/lastmile_qr_scan", "ios": "https://dc.lft.to/lastmile_qr_scan"}, "fusion_lon": 0.0, "lon": -77.05123766666667, "type": "electric_scooter", "fusion_lat": 0.0, "name": "ff41feaa93828bc693f479855027d0ca"}, {"lat": 38.896206, "bike_id": "58ae65fd2d1fee6cf778bb3ce1d95c4f", "is_reserved": 0, "is_disabled": 0, "rental_uris": {"android": "https://dc.lft.to/lastmile_qr_scan", "ios": "https://dc.lft.to/lastmile_qr_scan"}, "fusion_lon": 0.0, "lon": -77.0240095, "type": "electric_scooter", "fusion_lat": 0.0, "name": "58ae65fd2d1fee6cf778bb3ce1d95c4f"}, {"lat": 38.926557833333334, "bike_id": "e8a49e1c03fb36c9eb3a640b70bf665a", "is_reserved": 0, "is_disabled": 0, "rental_uris": {"android": "https://dc.lft.to/lastmile_qr_scan", "ios": "https://dc.lft.to/lastmile_qr_scan"}, "fusion_lon": 0.0, "lon": -77.03226633333334, "type": "electric_scooter", "fusion_lat": 0.0, "name": "e8a49e1c03fb36c9eb3a640b70bf665a"}, {"lat": 38.879089, "bike_id": "6c9d3bc3b4589b20d3e722a17207ede2", "is_reserved": 0, "is_disabled": 0, "rental_uris": {"android": "https://dc.lft.to/lastmile_qr_scan", "ios": "https://dc.lft.to/lastmile_qr_scan"}, "fusion_lon": 0.0, "lon": -77.007308, "type": "electric_scooter", "fusion_lat": 0.0, "name": "6c9d3bc3b4589b20d3e722a17207ede2"}, {"lat": 38.917799333333335, "bike_id": "975842c70e60c4e720b8439574b17321", "is_reserved": 0, "is_disabled": 0, "rental_uris": {"android": "https://dc.lft.to/lastmile_qr_scan", "ios": "https://dc.lft.to/lastmile_qr_scan"}, "fusion_lon": 0.0, "lon": -77.04099633333334, "type": "electric_scooter", "fusion_lat": 0.0, "name": "975842c70e60c4e720b8439574b17321"}, {"lat": 38.90560166666667, "bike_id": "5649c36806e95fb2773fe1cb412d10f5", "is_reserved": 0, "is_disabled": 0, "rental_uris": {"android": "https://dc.lft.to/lastmile_qr_scan", "ios": "https://dc.lft.to/lastmile_qr_scan"}, "fusion_lon": 0.0, "lon": -77.03317333333334, "type": "electric_scooter", "fusion_lat": 0.0, "name": "5649c36806e95fb2773fe1cb412d10f5"}, {"lat": 38.9827455, "bike_id": "9effefb2a98a6e3a4ccdfa2fe8b2d763", "is_reserved": 0, "is_disabled": 0, "rental_uris": {"android": "https://dc.lft.to/lastmile_qr_scan", "ios": "https://dc.lft.to/lastmile_qr_scan"}, "fusion_lon": 0.0, "lon": -77.017734, "type": "electric_bike", "fusion_lat": 0.0, "name": "9effefb2a98a6e3a4ccdfa2fe8b2d763"}, {"lat": 38.904537166666664, "bike_id": "461d1bde44a0338057f2f7ff12af5c91", "is_reserved": 0, "is_disabled": 0, "rental_uris": {"android": "https://dc.lft.to/lastmile_qr_scan", "ios": "https://dc.lft.to/lastmile_qr_scan"}, "fusion_lon": 0.0, "lon": -77.04039583333333, "type": "electric_scooter", "fusion_lat": 0.0, "name": "461d1bde44a0338057f2f7ff12af5c91"}, {"lat": 38.901314166666666, "bike_id": "471def7201eb0f10a275808cac51f6b4", "is_reserved": 0, "is_disabled": 0, "rental_uris": {"android": "https://dc.lft.to/lastmile_qr_scan", "ios": "https://dc.lft.to/lastmile_qr_scan"}, "fusion_lon": 0.0, "lon": -77.04447416666666, "type": "electric_scooter", "fusion_lat": 0.0, "name": "471def7201eb0f10a275808cac51f6b4"}, {"lat": 38.89374883333333, "bike_id": "c2840ff21ef7fbeea523245f55f69f86", "is_reserved": 0, "is_disabled": 0, "rental_uris": {"android": "https://dc.lft.to/lastmile_qr_scan", "ios": "https://dc.lft.to/lastmile_qr_scan"}, "fusion_lon": 0.0, "lon": -76.94198866666666, "type": "electric_scooter", "fusion_lat": 0.0, "name": "c2840ff21ef7fbeea523245f55f69f86"}, {"lat": 38.9168785, "bike_id": "6f2720bb833a0e1967a5212ade6b07a1", "is_reserved": 0, "is_disabled": 0, "rental_uris": {"android": "https://dc.lft.to/lastmile_qr_scan", "ios": "https://dc.lft.to/lastmile_qr_scan"}, "fusion_lon": 0.0, "lon": -77.0288965, "type": "electric_scooter", "fusion_lat": 0.0, "name": "6f2720bb833a0e1967a5212ade6b07a1"}, {"lat": 38.934289166666666, "bike_id": "f6d3215eaabdce824ebc8d82dcadae06", "is_reserved": 0, "is_disabled": 0, "rental_uris": {"android": "https://dc.lft.to/lastmile_qr_scan", "ios": "https://dc.lft.to/lastmile_qr_scan"}, "fusion_lon": 0.0, "lon": -77.03279933333333, "type": "electric_bike", "fusion_lat": 0.0, "name": "f6d3215eaabdce824ebc8d82dcadae06"}, {"lat": 38.91568683333333, "bike_id": "2584f392d8c2c6db7c0f4b862a608866", "is_reserved": 0, "is_disabled": 0, "rental_uris": {"android": "https://dc.lft.to/lastmile_qr_scan", "ios": "https://dc.lft.to/lastmile_qr_scan"}, "fusion_lon": 0.0, "lon": -77.032503, "type": "electric_scooter", "fusion_lat": 0.0, "name": "2584f392d8c2c6db7c0f4b862a608866"}, {"lat": 38.8766075, "bike_id": "751b244fa1914f0edc97cc32dac9891e", "is_reserved": 0, "is_disabled": 0, "rental_uris": {"android": "https://dc.lft.to/lastmile_qr_scan", "ios": "https://dc.lft.to/lastmile_qr_scan"}, "fusion_lon": 0.0, "lon": -77.00469083333333, "type": "electric_scooter", "fusion_lat": 0.0, "name": "751b244fa1914f0edc97cc32dac9891e"}, {"lat": 38.891804666666665, "bike_id": "32aa6199a2f63a64c6a3153f7c9d9d3b", "is_reserved": 0, "is_disabled": 0, "rental_uris": {"android": "https://dc.lft.to/lastmile_qr_scan", "ios": "https://dc.lft.to/lastmile_qr_scan"}, "fusion_lon": 0.0, "lon": -77.04191116666667, "type": "electric_scooter", "fusion_lat": 0.0, "name": "32aa6199a2f63a64c6a3153f7c9d9d3b"}, {"lat": 38.92347433333333, "bike_id": "ee24bbf02a9d1c67307eb8a24a31fa48", "is_reserved": 0, "is_disabled": 0, "rental_uris": {"android": "https://dc.lft.to/lastmile_qr_scan", "ios": "https://dc.lft.to/lastmile_qr_scan"}, "fusion_lon": 0.0, "lon": -77.01911766666667, "type": "electric_scooter", "fusion_lat": 0.0, "name": "ee24bbf02a9d1c67307eb8a24a31fa48"}, {"lat": 38.96386583333334, "bike_id": "868b474a49345d6288c3612cb98fd33a", "is_reserved": 0, "is_disabled": 0, "rental_uris": {"android": "https://dc.lft.to/lastmile_qr_scan", "ios": "https://dc.lft.to/lastmile_qr_scan"}, "fusion_lon": 0.0, "lon": -77.03498816666666, "type": "electric_scooter", "fusion_lat": 0.0, "name": "868b474a49345d6288c3612cb98fd33a"}, {"lat": 38.81261033333333, "bike_id": "a7d90540758440276ed44774865d909b", "is_reserved": 0, "is_disabled": 0, "rental_uris": {"android": "https://dc.lft.to/lastmile_qr_scan", "ios": "https://dc.lft.to/lastmile_qr_scan"}, "fusion_lon": 0.0, "lon": -77.11232816666667, "type": "electric_bike", "fusion_lat": 0.0, "name": "a7d90540758440276ed44774865d909b"}, {"lat": 38.887728333333335, "bike_id": "b7f436caed28bd2c5f2b52b9b7144a75", "is_reserved": 0, "is_disabled": 0, "rental_uris": {"android": "https://dc.lft.to/lastmile_qr_scan", "ios": "https://dc.lft.to/lastmile_qr_scan"}, "fusion_lon": 0.0, "lon": -76.99759833333333, "type": "electric_scooter", "fusion_lat": 0.0, "name": "b7f436caed28bd2c5f2b52b9b7144a75"}, {"lat": 38.92749633333333, "bike_id": "67e28d78f04703f67387971c8c08a35f", "is_reserved": 0, "is_disabled": 0, "rental_uris": {"android": "https://dc.lft.to/lastmile_qr_scan", "ios": "https://dc.lft.to/lastmile_qr_scan"}, "fusion_lon": 0.0, "lon": -77.03275733333334, "type": "electric_scooter", "fusion_lat": 0.0, "name": "67e28d78f04703f67387971c8c08a35f"}, {"lat": 38.90348266666667, "bike_id": "efa5432a0c6a05777cabb3f7c7a691f4", "is_reserved": 0, "is_disabled": 0, "rental_uris": {"android": "https://dc.lft.to/lastmile_qr_scan", "ios": "https://dc.lft.to/lastmile_qr_scan"}, "fusion_lon": 0.0, "lon": -77.00212033333334, "type": "electric_scooter", "fusion_lat": 0.0, "name": "efa5432a0c6a05777cabb3f7c7a691f4"}, {"lat": 38.88628116666667, "bike_id": "bdb0f092c7224c861f69759e840bc38e", "is_reserved": 0, "is_disabled": 0, "rental_uris": {"android": "https://dc.lft.to/lastmile_qr_scan", "ios": "https://dc.lft.to/lastmile_qr_scan"}, "fusion_lon": 0.0, "lon": -76.9468325, "type": "electric_scooter", "fusion_lat": 0.0, "name": "bdb0f092c7224c861f69759e840bc38e"}, {"lat": 38.91484583333333, "bike_id": "672cecb6666b4f0a99cad862c42eb3a5", "is_reserved": 0, "is_disabled": 0, "rental_uris": {"android": "https://dc.lft.to/lastmile_qr_scan", "ios": "https://dc.lft.to/lastmile_qr_scan"}, "fusion_lon": 0.0, "lon": -77.041623, "type": "electric_bike", "fusion_lat": 0.0, "name": "672cecb6666b4f0a99cad862c42eb3a5"}, {"lat": 38.924902, "bike_id": "0fc411c047c26e6c723c6f93e351417e", "is_reserved": 0, "is_disabled": 0, "rental_uris": {"android": "https://dc.lft.to/lastmile_qr_scan", "ios": "https://dc.lft.to/lastmile_qr_scan"}, "fusion_lon": 0.0, "lon": -77.03931133333333, "type": "electric_scooter", "fusion_lat": 0.0, "name": "0fc411c047c26e6c723c6f93e351417e"}, {"lat": 38.88744766666667, "bike_id": "0c2753cf52c8cc5e9459bc4ae371f019", "is_reserved": 0, "is_disabled": 0, "rental_uris": {"android": "https://dc.lft.to/lastmile_qr_scan", "ios": "https://dc.lft.to/lastmile_qr_scan"}, "fusion_lon": 0.0, "lon": -76.98362383333334, "type": "electric_scooter", "fusion_lat": 0.0, "name": "0c2753cf52c8cc5e9459bc4ae371f019"}, {"lat": 38.907607166666665, "bike_id": "2d7282463448b75a69f60b900860ef50", "is_reserved": 0, "is_disabled": 0, "rental_uris": {"android": "https://dc.lft.to/lastmile_qr_scan", "ios": "https://dc.lft.to/lastmile_qr_scan"}, "fusion_lon": 0.0, "lon": -77.0358405, "type": "electric_scooter", "fusion_lat": 0.0, "name": "2d7282463448b75a69f60b900860ef50"}, {"lat": 38.921249833333334, "bike_id": "63bfb78eed72f58230a4982496184b75", "is_reserved": 0, "is_disabled": 0, "rental_uris": {"android": "https://dc.lft.to/lastmile_qr_scan", "ios": "https://dc.lft.to/lastmile_qr_scan"}, "fusion_lon": 0.0, "lon": -76.99379516666667, "type": "electric_scooter", "fusion_lat": 0.0, "name": "63bfb78eed72f58230a4982496184b75"}, {"lat": 38.90396533333333, "bike_id": "46205776f61b94cccfed26486397d01f", "is_reserved": 0, "is_disabled": 0, "rental_uris": {"android": "https://dc.lft.to/lastmile_qr_scan", "ios": "https://dc.lft.to/lastmile_qr_scan"}, "fusion_lon": 0.0, "lon": -76.9810225, "type": "electric_scooter", "fusion_lat": 0.0, "name": "46205776f61b94cccfed26486397d01f"}, {"lat": 38.90671316666667, "bike_id": "c27d76fb4408c0655d49fcecee18cca1", "is_reserved": 0, "is_disabled": 0, "rental_uris": {"android": "https://dc.lft.to/lastmile_qr_scan", "ios": "https://dc.lft.to/lastmile_qr_scan"}, "fusion_lon": 0.0, "lon": -77.03757433333334, "type": "electric_scooter", "fusion_lat": 0.0, "name": "c27d76fb4408c0655d49fcecee18cca1"}, {"lat": 38.90677766666667, "bike_id": "c03c9c116b23103761b593535d17b4ce", "is_reserved": 0, "is_disabled": 0, "rental_uris": {"android": "https://dc.lft.to/lastmile_qr_scan", "ios": "https://dc.lft.to/lastmile_qr_scan"}, "fusion_lon": 0.0, "lon": -77.03659016666667, "type": "electric_scooter", "fusion_lat": 0.0, "name": "c03c9c116b23103761b593535d17b4ce"}, {"lat": 38.937085, "bike_id": "6d325ed1e0f5651aba4b7cd35929f8d1", "is_reserved": 0, "is_disabled": 0, "rental_uris": {"android": "https://dc.lft.to/lastmile_qr_scan", "ios": "https://dc.lft.to/lastmile_qr_scan"}, "fusion_lon": 0.0, "lon": -77.061017, "type": "electric_scooter", "fusion_lat": 0.0, "name": "6d325ed1e0f5651aba4b7cd35929f8d1"}, {"lat": 38.9254295, "bike_id": "f16c6d9d5a4853679f801c92b58ee152", "is_reserved": 0, "is_disabled": 0, "rental_uris": {"android": "https://dc.lft.to/lastmile_qr_scan", "ios": "https://dc.lft.to/lastmile_qr_scan"}, "fusion_lon": 0.0, "lon": -77.05287166666666, "type": "electric_scooter", "fusion_lat": 0.0, "name": "f16c6d9d5a4853679f801c92b58ee152"}, {"lat": 38.90232566666667, "bike_id": "95fd5af50e5fb7214f1fa6aeb5b72c79", "is_reserved": 0, "is_disabled": 0, "rental_uris": {"android": "https://dc.lft.to/lastmile_qr_scan", "ios": "https://dc.lft.to/lastmile_qr_scan"}, "fusion_lon": 0.0, "lon": -77.04699966666666, "type": "electric_scooter", "fusion_lat": 0.0, "name": "95fd5af50e5fb7214f1fa6aeb5b72c79"}, {"lat": 38.924139333333336, "bike_id": "64f50c8e0fb83e8d8090f7d4392d822a", "is_reserved": 0, "is_disabled": 0, "rental_uris": {"android": "https://dc.lft.to/lastmile_qr_scan", "ios": "https://dc.lft.to/lastmile_qr_scan"}, "fusion_lon": 0.0, "lon": -77.0245695, "type": "electric_scooter", "fusion_lat": 0.0, "name": "64f50c8e0fb83e8d8090f7d4392d822a"}, {"lat": 38.9225475, "bike_id": "c398b19342aee472c13b0099315848f2", "is_reserved": 0, "is_disabled": 0, "rental_uris": {"android": "https://dc.lft.to/lastmile_qr_scan", "ios": "https://dc.lft.to/lastmile_qr_scan"}, "fusion_lon": 0.0, "lon": -77.02105733333333, "type": "electric_scooter", "fusion_lat": 0.0, "name": "c398b19342aee472c13b0099315848f2"}, {"lat": 38.9109575, "bike_id": "c6acef9846aa035316ebaeedd65a6eed", "is_reserved": 0, "is_disabled": 0, "rental_uris": {"android": "https://dc.lft.to/lastmile_qr_scan", "ios": "https://dc.lft.to/lastmile_qr_scan"}, "fusion_lon": 0.0, "lon": -76.98475383333333, "type": "electric_bike", "fusion_lat": 0.0, "name": "c6acef9846aa035316ebaeedd65a6eed"}, {"lat": 38.885266666666666, "bike_id": "7eb0184ea757bf4ad377c95a5005abbe", "is_reserved": 0, "is_disabled": 0, "rental_uris": {"android": "https://dc.lft.to/lastmile_qr_scan", "ios": "https://dc.lft.to/lastmile_qr_scan"}, "fusion_lon": 0.0, "lon": -76.982686, "type": "electric_scooter", "fusion_lat": 0.0, "name": "7eb0184ea757bf4ad377c95a5005abbe"}, {"lat": 38.90081816666667, "bike_id": "d17c8b87285614198a6ace113123d86f", "is_reserved": 0, "is_disabled": 0, "rental_uris": {"android": "https://dc.lft.to/lastmile_qr_scan", "ios": "https://dc.lft.to/lastmile_qr_scan"}, "fusion_lon": 0.0, "lon": -77.04982016666666, "type": "electric_scooter", "fusion_lat": 0.0, "name": "d17c8b87285614198a6ace113123d86f"}, {"lat": 38.9135285, "bike_id": "72ea1b0773e59fe915c36bd09850c543", "is_reserved": 0, "is_disabled": 0, "rental_uris": {"android": "https://dc.lft.to/lastmile_qr_scan", "ios": "https://dc.lft.to/lastmile_qr_scan"}, "fusion_lon": 0.0, "lon": -77.03966833333334, "type": "electric_scooter", "fusion_lat": 0.0, "name": "72ea1b0773e59fe915c36bd09850c543"}, {"lat": 38.883132333333336, "bike_id": "b26b2d04746248dd72c637868d63f2a1", "is_reserved": 0, "is_disabled": 0, "rental_uris": {"android": "https://dc.lft.to/lastmile_qr_scan", "ios": "https://dc.lft.to/lastmile_qr_scan"}, "fusion_lon": 0.0, "lon": -77.017535, "type": "electric_scooter", "fusion_lat": 0.0, "name": "b26b2d04746248dd72c637868d63f2a1"}, {"lat": 38.89083466666666, "bike_id": "cc637bf0268b47ea0e75723b0e4149a9", "is_reserved": 0, "is_disabled": 0, "rental_uris": {"android": "https://dc.lft.to/lastmile_qr_scan", "ios": "https://dc.lft.to/lastmile_qr_scan"}, "fusion_lon": 0.0, "lon": -76.99839483333334, "type": "electric_scooter", "fusion_lat": 0.0, "name": "cc637bf0268b47ea0e75723b0e4149a9"}, {"lat": 38.900335166666665, "bike_id": "0e83b23585a221fc71275d4f21bb9cdd", "is_reserved": 0, "is_disabled": 0, "rental_uris": {"android": "https://dc.lft.to/lastmile_qr_scan", "ios": "https://dc.lft.to/lastmile_qr_scan"}, "fusion_lon": 0.0, "lon": -77.0465835, "type": "electric_scooter", "fusion_lat": 0.0, "name": "0e83b23585a221fc71275d4f21bb9cdd"}, {"lat": 38.905143333333335, "bike_id": "9b8e8e2b5140d8ebb2604c593507143b", "is_reserved": 0, "is_disabled": 0, "rental_uris": {"android": "https://dc.lft.to/lastmile_qr_scan", "ios": "https://dc.lft.to/lastmile_qr_scan"}, "fusion_lon": 0.0, "lon": -77.03447733333333, "type": "electric_scooter", "fusion_lat": 0.0, "name": "9b8e8e2b5140d8ebb2604c593507143b"}, {"lat": 38.905286, "bike_id": "f642ac32d63344560ae5803ece4628dc", "is_reserved": 0, "is_disabled": 0, "rental_uris": {"android": "https://dc.lft.to/lastmile_qr_scan", "ios": "https://dc.lft.to/lastmile_qr_scan"}, "fusion_lon": 0.0, "lon": -77.041693, "type": "electric_scooter", "fusion_lat": 0.0, "name": "f642ac32d63344560ae5803ece4628dc"}, {"lat": 38.903596666666665, "bike_id": "d06b2569747ef9a68880135f95320dfb", "is_reserved": 0, "is_disabled": 0, "rental_uris": {"android": "https://dc.lft.to/lastmile_qr_scan", "ios": "https://dc.lft.to/lastmile_qr_scan"}, "fusion_lon": 0.0, "lon": -77.011072, "type": "electric_scooter", "fusion_lat": 0.0, "name": "d06b2569747ef9a68880135f95320dfb"}, {"lat": 38.93535283333333, "bike_id": "5ae25406801b2667f1e225d18f8c92e6", "is_reserved": 0, "is_disabled": 0, "rental_uris": {"android": "https://dc.lft.to/lastmile_qr_scan", "ios": "https://dc.lft.to/lastmile_qr_scan"}, "fusion_lon": 0.0, "lon": -77.02345583333333, "type": "electric_scooter", "fusion_lat": 0.0, "name": "5ae25406801b2667f1e225d18f8c92e6"}, {"lat": 38.8402955, "bike_id": "9a536410f902225afe522f53833008a7", "is_reserved": 0, "is_disabled": 0, "rental_uris": {"android": "https://dc.lft.to/lastmile_qr_scan", "ios": "https://dc.lft.to/lastmile_qr_scan"}, "fusion_lon": 0.0, "lon": -76.97589233333333, "type": "electric_bike", "fusion_lat": 0.0, "name": "9a536410f902225afe522f53833008a7"}, {"lat": 38.9022565, "bike_id": "7b5f2f809c2cfa07c9ac474471eb84d7", "is_reserved": 0, "is_disabled": 0, "rental_uris": {"android": "https://dc.lft.to/lastmile_qr_scan", "ios": "https://dc.lft.to/lastmile_qr_scan"}, "fusion_lon": 0.0, "lon": -77.04594166666666, "type": "electric_scooter", "fusion_lat": 0.0, "name": "7b5f2f809c2cfa07c9ac474471eb84d7"}, {"lat": 38.901551, "bike_id": "896b419b15819662aded38df9a9b7993", "is_reserved": 0, "is_disabled": 0, "rental_uris": {"android": "https://dc.lft.to/lastmile_qr_scan", "ios": "https://dc.lft.to/lastmile_qr_scan"}, "fusion_lon": 0.0, "lon": -77.02949833333334, "type": "electric_scooter", "fusion_lat": 0.0, "name": "896b419b15819662aded38df9a9b7993"}, {"lat": 38.92467533333333, "bike_id": "a9a9082ed8de3f02effc05d578b8659c", "is_reserved": 0, "is_disabled": 0, "rental_uris": {"android": "https://dc.lft.to/lastmile_qr_scan", "ios": "https://dc.lft.to/lastmile_qr_scan"}, "fusion_lon": 0.0, "lon": -77.027144, "type": "electric_scooter", "fusion_lat": 0.0, "name": "a9a9082ed8de3f02effc05d578b8659c"}, {"lat": 38.9169045, "bike_id": "b4cefa00b4124ede296d09bdc5417dd8", "is_reserved": 0, "is_disabled": 0, "rental_uris": {"android": "https://dc.lft.to/lastmile_qr_scan", "ios": "https://dc.lft.to/lastmile_qr_scan"}, "fusion_lon": 0.0, "lon": -77.00504033333333, "type": "electric_scooter", "fusion_lat": 0.0, "name": "b4cefa00b4124ede296d09bdc5417dd8"}, {"lat": 38.9044385, "bike_id": "ca4a0ab5f8f97352b2b4f0d557a6fbf9", "is_reserved": 0, "is_disabled": 0, "rental_uris": {"android": "https://dc.lft.to/lastmile_qr_scan", "ios": "https://dc.lft.to/lastmile_qr_scan"}, "fusion_lon": 0.0, "lon": -77.06272066666666, "type": "electric_scooter", "fusion_lat": 0.0, "name": "ca4a0ab5f8f97352b2b4f0d557a6fbf9"}, {"lat": 38.921259166666665, "bike_id": "6c04d39924e2cf7bb063280fed4b7fa2", "is_reserved": 0, "is_disabled": 0, "rental_uris": {"android": "https://dc.lft.to/lastmile_qr_scan", "ios": "https://dc.lft.to/lastmile_qr_scan"}, "fusion_lon": 0.0, "lon": -76.993799, "type": "electric_scooter", "fusion_lat": 0.0, "name": "6c04d39924e2cf7bb063280fed4b7fa2"}, {"lat": 38.96640716666667, "bike_id": "be2fb729ae3d8417f5c5eb7bfa754fc3", "is_reserved": 0, "is_disabled": 0, "rental_uris": {"android": "https://dc.lft.to/lastmile_qr_scan", "ios": "https://dc.lft.to/lastmile_qr_scan"}, "fusion_lon": 0.0, "lon": -77.019963, "type": "electric_scooter", "fusion_lat": 0.0, "name": "be2fb729ae3d8417f5c5eb7bfa754fc3"}, {"lat": 38.91185266666667, "bike_id": "547658930214b763289051575b314d64", "is_reserved": 0, "is_disabled": 0, "rental_uris": {"android": "https://dc.lft.to/lastmile_qr_scan", "ios": "https://dc.lft.to/lastmile_qr_scan"}, "fusion_lon": 0.0, "lon": -77.03977416666666, "type": "electric_scooter", "fusion_lat": 0.0, "name": "547658930214b763289051575b314d64"}, {"lat": 38.90005283333333, "bike_id": "76155c8aab35156ed8cb6c9963e8d521", "is_reserved": 0, "is_disabled": 0, "rental_uris": {"android": "https://dc.lft.to/lastmile_qr_scan", "ios": "https://dc.lft.to/lastmile_qr_scan"}, "fusion_lon": 0.0, "lon": -77.02874083333333, "type": "electric_scooter", "fusion_lat": 0.0, "name": "76155c8aab35156ed8cb6c9963e8d521"}, {"lat": 38.93960966666667, "bike_id": "11fa5bbb822814c358fe8a38b8defa45", "is_reserved": 0, "is_disabled": 0, "rental_uris": {"android": "https://dc.lft.to/lastmile_qr_scan", "ios": "https://dc.lft.to/lastmile_qr_scan"}, "fusion_lon": 0.0, "lon": -77.36092133333334, "type": "electric_bike", "fusion_lat": 0.0, "name": "11fa5bbb822814c358fe8a38b8defa45"}, {"lat": 38.962174833333336, "bike_id": "797549def1f52a618a111d74a93f99ff", "is_reserved": 0, "is_disabled": 0, "rental_uris": {"android": "https://dc.lft.to/lastmile_qr_scan", "ios": "https://dc.lft.to/lastmile_qr_scan"}, "fusion_lon": 0.0, "lon": -77.02626833333333, "type": "electric_bike", "fusion_lat": 0.0, "name": "797549def1f52a618a111d74a93f99ff"}, {"lat": 38.92024816666667, "bike_id": "96585cc50dd0c2693c0d86ef8a3d2d90", "is_reserved": 0, "is_disabled": 0, "rental_uris": {"android": "https://dc.lft.to/lastmile_qr_scan", "ios": "https://dc.lft.to/lastmile_qr_scan"}, "fusion_lon": 0.0, "lon": -77.03975383333334, "type": "electric_scooter", "fusion_lat": 0.0, "name": "96585cc50dd0c2693c0d86ef8a3d2d90"}, {"lat": 38.88326966666666, "bike_id": "2029a77cb6628afb9f351052aaff6d8d", "is_reserved": 0, "is_disabled": 0, "rental_uris": {"android": "https://dc.lft.to/lastmile_qr_scan", "ios": "https://dc.lft.to/lastmile_qr_scan"}, "fusion_lon": 0.0, "lon": -77.017631, "type": "electric_scooter", "fusion_lat": 0.0, "name": "2029a77cb6628afb9f351052aaff6d8d"}, {"lat": 38.9268645, "bike_id": "0762c66a41f54e77a4ed6ea778b4dc50", "is_reserved": 0, "is_disabled": 0, "rental_uris": {"android": "https://dc.lft.to/lastmile_qr_scan", "ios": "https://dc.lft.to/lastmile_qr_scan"}, "fusion_lon": 0.0, "lon": -77.00745516666667, "type": "electric_scooter", "fusion_lat": 0.0, "name": "0762c66a41f54e77a4ed6ea778b4dc50"}, {"lat": 38.917067833333334, "bike_id": "1993883683d0e0405bab9b77c2f61a47", "is_reserved": 0, "is_disabled": 0, "rental_uris": {"android": "https://dc.lft.to/lastmile_qr_scan", "ios": "https://dc.lft.to/lastmile_qr_scan"}, "fusion_lon": 0.0, "lon": -77.0419025, "type": "electric_scooter", "fusion_lat": 0.0, "name": "1993883683d0e0405bab9b77c2f61a47"}, {"lat": 38.907217333333335, "bike_id": "3d93d576f1ca2fc09d49b2e31d050c7a", "is_reserved": 0, "is_disabled": 0, "rental_uris": {"android": "https://dc.lft.to/lastmile_qr_scan", "ios": "https://dc.lft.to/lastmile_qr_scan"}, "fusion_lon": 0.0, "lon": -77.043856, "type": "electric_scooter", "fusion_lat": 0.0, "name": "3d93d576f1ca2fc09d49b2e31d050c7a"}, {"lat": 38.899976833333334, "bike_id": "0ad9b26306d3e39fd9401a5583eb065d", "is_reserved": 0, "is_disabled": 0, "rental_uris": {"android": "https://dc.lft.to/lastmile_qr_scan", "ios": "https://dc.lft.to/lastmile_qr_scan"}, "fusion_lon": 0.0, "lon": -77.03269266666666, "type": "electric_scooter", "fusion_lat": 0.0, "name": "0ad9b26306d3e39fd9401a5583eb065d"}, {"lat": 38.94914633333333, "bike_id": "8b405ef47cd99ba9155ee8249e6fea71", "is_reserved": 0, "is_disabled": 0, "rental_uris": {"android": "https://dc.lft.to/lastmile_qr_scan", "ios": "https://dc.lft.to/lastmile_qr_scan"}, "fusion_lon": 0.0, "lon": -76.97702516666666, "type": "electric_bike", "fusion_lat": 0.0, "name": "8b405ef47cd99ba9155ee8249e6fea71"}, {"lat": 38.93202216666667, "bike_id": "b79650a29a70e7a6abd08708779d9331", "is_reserved": 0, "is_disabled": 0, "rental_uris": {"android": "https://dc.lft.to/lastmile_qr_scan", "ios": "https://dc.lft.to/lastmile_qr_scan"}, "fusion_lon": 0.0, "lon": -77.03855216666666, "type": "electric_scooter", "fusion_lat": 0.0, "name": "b79650a29a70e7a6abd08708779d9331"}, {"lat": 38.89041316666667, "bike_id": "533d7370f49458a9d5a56b9b9b024b42", "is_reserved": 0, "is_disabled": 0, "rental_uris": {"android": "https://dc.lft.to/lastmile_qr_scan", "ios": "https://dc.lft.to/lastmile_qr_scan"}, "fusion_lon": 0.0, "lon": -76.95145183333334, "type": "electric_scooter", "fusion_lat": 0.0, "name": "533d7370f49458a9d5a56b9b9b024b42"}, {"lat": 38.998341, "bike_id": "cf686a0710169b06ebfd4d9f5deb87aa", "is_reserved": 0, "is_disabled": 0, "rental_uris": {"android": "https://dc.lft.to/lastmile_qr_scan", "ios": "https://dc.lft.to/lastmile_qr_scan"}, "fusion_lon": 0.0, "lon": -76.883659, "type": "electric_bike", "fusion_lat": 0.0, "name": "cf686a0710169b06ebfd4d9f5deb87aa"}, {"lat": 38.928271333333335, "bike_id": "483620c5a7a7ebccb4b0bf9ad24bb893", "is_reserved": 0, "is_disabled": 0, "rental_uris": {"android": "https://dc.lft.to/lastmile_qr_scan", "ios": "https://dc.lft.to/lastmile_qr_scan"}, "fusion_lon": 0.0, "lon": -77.054426, "type": "electric_scooter", "fusion_lat": 0.0, "name": "483620c5a7a7ebccb4b0bf9ad24bb893"}, {"lat": 38.893917, "bike_id": "f22055f8b6ebaee2e83e81c279e0d661", "is_reserved": 0, "is_disabled": 0, "rental_uris": {"android": "https://dc.lft.to/lastmile_qr_scan", "ios": "https://dc.lft.to/lastmile_qr_scan"}, "fusion_lon": 0.0, "lon": -76.95018966666666, "type": "electric_scooter", "fusion_lat": 0.0, "name": "f22055f8b6ebaee2e83e81c279e0d661"}, {"lat": 38.86359016666667, "bike_id": "cc01f41c76c367d4686bce09c7a4043d", "is_reserved": 0, "is_disabled": 0, "rental_uris": {"android": "https://dc.lft.to/lastmile_qr_scan", "ios": "https://dc.lft.to/lastmile_qr_scan"}, "fusion_lon": 0.0, "lon": -76.99058933333333, "type": "electric_scooter", "fusion_lat": 0.0, "name": "cc01f41c76c367d4686bce09c7a4043d"}, {"lat": 38.945087666666666, "bike_id": "75459f06ce90319ac9d45151fa4a1b29", "is_reserved": 0, "is_disabled": 0, "rental_uris": {"android": "https://dc.lft.to/lastmile_qr_scan", "ios": "https://dc.lft.to/lastmile_qr_scan"}, "fusion_lon": 0.0, "lon": -77.03866783333334, "type": "electric_scooter", "fusion_lat": 0.0, "name": "75459f06ce90319ac9d45151fa4a1b29"}, {"lat": 38.89621266666666, "bike_id": "3306d3016eeca59ea6798d36bb5f26a5", "is_reserved": 0, "is_disabled": 0, "rental_uris": {"android": "https://dc.lft.to/lastmile_qr_scan", "ios": "https://dc.lft.to/lastmile_qr_scan"}, "fusion_lon": 0.0, "lon": -77.02215516666666, "type": "electric_scooter", "fusion_lat": 0.0, "name": "3306d3016eeca59ea6798d36bb5f26a5"}, {"lat": 38.9043125, "bike_id": "0616dcf586ba1abfdc8a2c71322bc583", "is_reserved": 0, "is_disabled": 0, "rental_uris": {"android": "https://dc.lft.to/lastmile_qr_scan", "ios": "https://dc.lft.to/lastmile_qr_scan"}, "fusion_lon": 0.0, "lon": -77.0346235, "type": "electric_scooter", "fusion_lat": 0.0, "name": "0616dcf586ba1abfdc8a2c71322bc583"}, {"lat": 38.895527666666666, "bike_id": "8b9a92ca3e192a444051301e1e6d926f", "is_reserved": 0, "is_disabled": 0, "rental_uris": {"android": "https://dc.lft.to/lastmile_qr_scan", "ios": "https://dc.lft.to/lastmile_qr_scan"}, "fusion_lon": 0.0, "lon": -76.94877716666667, "type": "electric_scooter", "fusion_lat": 0.0, "name": "8b9a92ca3e192a444051301e1e6d926f"}, {"lat": 38.86699466666666, "bike_id": "6d3557239e0c3dba283c72c3fe48955f", "is_reserved": 0, "is_disabled": 0, "rental_uris": {"android": "https://dc.lft.to/lastmile_qr_scan", "ios": "https://dc.lft.to/lastmile_qr_scan"}, "fusion_lon": 0.0, "lon": -76.98708933333333, "type": "electric_scooter", "fusion_lat": 0.0, "name": "6d3557239e0c3dba283c72c3fe48955f"}, {"lat": 38.928119833333334, "bike_id": "f973ad06db9a1dd942f4dc81f72cb853", "is_reserved": 0, "is_disabled": 0, "rental_uris": {"android": "https://dc.lft.to/lastmile_qr_scan", "ios": "https://dc.lft.to/lastmile_qr_scan"}, "fusion_lon": 0.0, "lon": -77.05399516666667, "type": "electric_scooter", "fusion_lat": 0.0, "name": "f973ad06db9a1dd942f4dc81f72cb853"}, {"lat": 38.90773633333333, "bike_id": "3336be8c9256bf8b00e1a63a81f3682e", "is_reserved": 0, "is_disabled": 0, "rental_uris": {"android": "https://dc.lft.to/lastmile_qr_scan", "ios": "https://dc.lft.to/lastmile_qr_scan"}, "fusion_lon": 0.0, "lon": -76.99707783333334, "type": "electric_scooter", "fusion_lat": 0.0, "name": "3336be8c9256bf8b00e1a63a81f3682e"}, {"lat": 38.886051333333334, "bike_id": "01723b792484d40bafb33f2c3a5f7d60", "is_reserved": 0, "is_disabled": 0, "rental_uris": {"android": "https://dc.lft.to/lastmile_qr_scan", "ios": "https://dc.lft.to/lastmile_qr_scan"}, "fusion_lon": 0.0, "lon": -77.01749, "type": "electric_scooter", "fusion_lat": 0.0, "name": "01723b792484d40bafb33f2c3a5f7d60"}, {"lat": 38.915516, "bike_id": "e1fdb5ef082f50f691ff2df4f4a7a8d4", "is_reserved": 0, "is_disabled": 0, "rental_uris": {"android": "https://dc.lft.to/lastmile_qr_scan", "ios": "https://dc.lft.to/lastmile_qr_scan"}, "fusion_lon": 0.0, "lon": -77.0119085, "type": "electric_scooter", "fusion_lat": 0.0, "name": "e1fdb5ef082f50f691ff2df4f4a7a8d4"}, {"lat": 38.89732716666666, "bike_id": "bb4ebb828203731b98d9ad438a83823f", "is_reserved": 0, "is_disabled": 0, "rental_uris": {"android": "https://dc.lft.to/lastmile_qr_scan", "ios": "https://dc.lft.to/lastmile_qr_scan"}, "fusion_lon": 0.0, "lon": -77.0268825, "type": "electric_scooter", "fusion_lat": 0.0, "name": "bb4ebb828203731b98d9ad438a83823f"}, {"lat": 38.9089965, "bike_id": "35b62ab67ddc2f4de18805b1d51d99cf", "is_reserved": 0, "is_disabled": 0, "rental_uris": {"android": "https://dc.lft.to/lastmile_qr_scan", "ios": "https://dc.lft.to/lastmile_qr_scan"}, "fusion_lon": 0.0, "lon": -76.99790916666667, "type": "electric_scooter", "fusion_lat": 0.0, "name": "35b62ab67ddc2f4de18805b1d51d99cf"}, {"lat": 38.896027333333336, "bike_id": "78388ec236651940aefbf7efd93bd9bc", "is_reserved": 0, "is_disabled": 0, "rental_uris": {"android": "https://dc.lft.to/lastmile_qr_scan", "ios": "https://dc.lft.to/lastmile_qr_scan"}, "fusion_lon": 0.0, "lon": -77.0302425, "type": "electric_scooter", "fusion_lat": 0.0, "name": "78388ec236651940aefbf7efd93bd9bc"}, {"lat": 38.92886133333333, "bike_id": "b7b749e7483930f0ea10f07a60b36961", "is_reserved": 0, "is_disabled": 0, "rental_uris": {"android": "https://dc.lft.to/lastmile_qr_scan", "ios": "https://dc.lft.to/lastmile_qr_scan"}, "fusion_lon": 0.0, "lon": -77.03334166666667, "type": "electric_scooter", "fusion_lat": 0.0, "name": "b7b749e7483930f0ea10f07a60b36961"}, {"lat": 38.949612, "bike_id": "cf9734bfb43f7ea927c8a4e7e6609333", "is_reserved": 0, "is_disabled": 0, "rental_uris": {"android": "https://dc.lft.to/lastmile_qr_scan", "ios": "https://dc.lft.to/lastmile_qr_scan"}, "fusion_lon": 0.0, "lon": -77.02723566666667, "type": "electric_scooter", "fusion_lat": 0.0, "name": "cf9734bfb43f7ea927c8a4e7e6609333"}, {"lat": 38.9026315, "bike_id": "6d72a4189067e15b4f937bc9c1fe0dd3", "is_reserved": 0, "is_disabled": 0, "rental_uris": {"android": "https://dc.lft.to/lastmile_qr_scan", "ios": "https://dc.lft.to/lastmile_qr_scan"}, "fusion_lon": 0.0, "lon": -77.0088705, "type": "electric_scooter", "fusion_lat": 0.0, "name": "6d72a4189067e15b4f937bc9c1fe0dd3"}, {"lat": 38.93798733333333, "bike_id": "65f0e8a084956e90bc1f4cdb77d59c6b", "is_reserved": 0, "is_disabled": 0, "rental_uris": {"android": "https://dc.lft.to/lastmile_qr_scan", "ios": "https://dc.lft.to/lastmile_qr_scan"}, "fusion_lon": 0.0, "lon": -77.024238, "type": "electric_scooter", "fusion_lat": 0.0, "name": "65f0e8a084956e90bc1f4cdb77d59c6b"}, {"lat": 38.886700166666664, "bike_id": "caff461824b72d62972201483585f70b", "is_reserved": 0, "is_disabled": 0, "rental_uris": {"android": "https://dc.lft.to/lastmile_qr_scan", "ios": "https://dc.lft.to/lastmile_qr_scan"}, "fusion_lon": 0.0, "lon": -76.93611483333333, "type": "electric_scooter", "fusion_lat": 0.0, "name": "caff461824b72d62972201483585f70b"}, {"lat": 38.927274833333335, "bike_id": "3ae39995e8c19e33940c0f9da7b4f2a5", "is_reserved": 0, "is_disabled": 0, "rental_uris": {"android": "https://dc.lft.to/lastmile_qr_scan", "ios": "https://dc.lft.to/lastmile_qr_scan"}, "fusion_lon": 0.0, "lon": -77.036714, "type": "electric_scooter", "fusion_lat": 0.0, "name": "3ae39995e8c19e33940c0f9da7b4f2a5"}, {"lat": 38.911837166666665, "bike_id": "0f3abdcc08c22650bf1a5a04430aedb8", "is_reserved": 0, "is_disabled": 0, "rental_uris": {"android": "https://dc.lft.to/lastmile_qr_scan", "ios": "https://dc.lft.to/lastmile_qr_scan"}, "fusion_lon": 0.0, "lon": -77.04450333333334, "type": "electric_scooter", "fusion_lat": 0.0, "name": "0f3abdcc08c22650bf1a5a04430aedb8"}, {"lat": 38.925069, "bike_id": "fca8b201ab95ef621ab5ccacbcb9411d", "is_reserved": 0, "is_disabled": 0, "rental_uris": {"android": "https://dc.lft.to/lastmile_qr_scan", "ios": "https://dc.lft.to/lastmile_qr_scan"}, "fusion_lon": 0.0, "lon": -77.03829866666666, "type": "electric_scooter", "fusion_lat": 0.0, "name": "fca8b201ab95ef621ab5ccacbcb9411d"}, {"lat": 38.9104255, "bike_id": "282daa6159b350cc106765c242ead040", "is_reserved": 0, "is_disabled": 0, "rental_uris": {"android": "https://dc.lft.to/lastmile_qr_scan", "ios": "https://dc.lft.to/lastmile_qr_scan"}, "fusion_lon": 0.0, "lon": -77.03124416666667, "type": "electric_scooter", "fusion_lat": 0.0, "name": "282daa6159b350cc106765c242ead040"}, {"lat": 38.91073933333333, "bike_id": "32259477e960d3b261abe04f0f8fed28", "is_reserved": 0, "is_disabled": 0, "rental_uris": {"android": "https://dc.lft.to/lastmile_qr_scan", "ios": "https://dc.lft.to/lastmile_qr_scan"}, "fusion_lon": 0.0, "lon": -77.022852, "type": "electric_scooter", "fusion_lat": 0.0, "name": "32259477e960d3b261abe04f0f8fed28"}, {"lat": 38.91386583333333, "bike_id": "29ddaba5096d0911b9f61a1e5e8a25b7", "is_reserved": 0, "is_disabled": 0, "rental_uris": {"android": "https://dc.lft.to/lastmile_qr_scan", "ios": "https://dc.lft.to/lastmile_qr_scan"}, "fusion_lon": 0.0, "lon": -77.00458716666667, "type": "electric_scooter", "fusion_lat": 0.0, "name": "29ddaba5096d0911b9f61a1e5e8a25b7"}, {"lat": 38.928851333333334, "bike_id": "cab46156134bc9bb9d3d8d8772047a1f", "is_reserved": 0, "is_disabled": 0, "rental_uris": {"android": "https://dc.lft.to/lastmile_qr_scan", "ios": "https://dc.lft.to/lastmile_qr_scan"}, "fusion_lon": 0.0, "lon": -77.033222, "type": "electric_scooter", "fusion_lat": 0.0, "name": "cab46156134bc9bb9d3d8d8772047a1f"}, {"lat": 38.89859766666667, "bike_id": "578e179814e08299c53bb4df892ee1e1", "is_reserved": 0, "is_disabled": 0, "rental_uris": {"android": "https://dc.lft.to/lastmile_qr_scan", "ios": "https://dc.lft.to/lastmile_qr_scan"}, "fusion_lon": 0.0, "lon": -77.03283033333334, "type": "electric_scooter", "fusion_lat": 0.0, "name": "578e179814e08299c53bb4df892ee1e1"}, {"lat": 38.999564166666666, "bike_id": "d0cf31d9de66e81324071f8710d11653", "is_reserved": 0, "is_disabled": 0, "rental_uris": {"android": "https://dc.lft.to/lastmile_qr_scan", "ios": "https://dc.lft.to/lastmile_qr_scan"}, "fusion_lon": 0.0, "lon": -77.031864, "type": "electric_bike", "fusion_lat": 0.0, "name": "d0cf31d9de66e81324071f8710d11653"}, {"lat": 38.89616566666667, "bike_id": "3f6ac0587b312a26aa3560eeec323637", "is_reserved": 0, "is_disabled": 0, "rental_uris": {"android": "https://dc.lft.to/lastmile_qr_scan", "ios": "https://dc.lft.to/lastmile_qr_scan"}, "fusion_lon": 0.0, "lon": -77.009283, "type": "electric_scooter", "fusion_lat": 0.0, "name": "3f6ac0587b312a26aa3560eeec323637"}, {"lat": 38.9183615, "bike_id": "04321496cae8bb266e7f5aa7c01f7bea", "is_reserved": 0, "is_disabled": 0, "rental_uris": {"android": "https://dc.lft.to/lastmile_qr_scan", "ios": "https://dc.lft.to/lastmile_qr_scan"}, "fusion_lon": 0.0, "lon": -77.04151283333333, "type": "electric_scooter", "fusion_lat": 0.0, "name": "04321496cae8bb266e7f5aa7c01f7bea"}, {"lat": 38.90136316666667, "bike_id": "d79f5a876c9ac1c69df3e41f5d7f6725", "is_reserved": 0, "is_disabled": 0, "rental_uris": {"android": "https://dc.lft.to/lastmile_qr_scan", "ios": "https://dc.lft.to/lastmile_qr_scan"}, "fusion_lon": 0.0, "lon": -77.02585516666667, "type": "electric_scooter", "fusion_lat": 0.0, "name": "d79f5a876c9ac1c69df3e41f5d7f6725"}, {"lat": 38.90589083333333, "bike_id": "eab30d4ae0dcf42bd8861abafd33522b", "is_reserved": 0, "is_disabled": 0, "rental_uris": {"android": "https://dc.lft.to/lastmile_qr_scan", "ios": "https://dc.lft.to/lastmile_qr_scan"}, "fusion_lon": 0.0, "lon": -77.04580933333334, "type": "electric_scooter", "fusion_lat": 0.0, "name": "eab30d4ae0dcf42bd8861abafd33522b"}, {"lat": 38.92819183333334, "bike_id": "eca6706b2f4bb09e97cf248d38ec96cc", "is_reserved": 0, "is_disabled": 0, "rental_uris": {"android": "https://dc.lft.to/lastmile_qr_scan", "ios": "https://dc.lft.to/lastmile_qr_scan"}, "fusion_lon": 0.0, "lon": -77.028756, "type": "electric_scooter", "fusion_lat": 0.0, "name": "eca6706b2f4bb09e97cf248d38ec96cc"}, {"lat": 38.90512716666667, "bike_id": "993263e04f84d814b8bb3aa5d6d68bd6", "is_reserved": 0, "is_disabled": 0, "rental_uris": {"android": "https://dc.lft.to/lastmile_qr_scan", "ios": "https://dc.lft.to/lastmile_qr_scan"}, "fusion_lon": 0.0, "lon": -77.063623, "type": "electric_scooter", "fusion_lat": 0.0, "name": "993263e04f84d814b8bb3aa5d6d68bd6"}, {"lat": 38.905256666666666, "bike_id": "6b79b0518dcc5552a4a961b7ce19216d", "is_reserved": 0, "is_disabled": 0, "rental_uris": {"android": "https://dc.lft.to/lastmile_qr_scan", "ios": "https://dc.lft.to/lastmile_qr_scan"}, "fusion_lon": 0.0, "lon": -77.05153283333334, "type": "electric_scooter", "fusion_lat": 0.0, "name": "6b79b0518dcc5552a4a961b7ce19216d"}, {"lat": 38.8904525, "bike_id": "e1c9bd812492025eaa7553844225e23b", "is_reserved": 0, "is_disabled": 0, "rental_uris": {"android": "https://dc.lft.to/lastmile_qr_scan", "ios": "https://dc.lft.to/lastmile_qr_scan"}, "fusion_lon": 0.0, "lon": -77.02571583333334, "type": "electric_bike", "fusion_lat": 0.0, "name": "e1c9bd812492025eaa7553844225e23b"}, {"lat": 38.9157495, "bike_id": "ed713c6412bc5ef5a0c11ba829d80f54", "is_reserved": 0, "is_disabled": 0, "rental_uris": {"android": "https://dc.lft.to/lastmile_qr_scan", "ios": "https://dc.lft.to/lastmile_qr_scan"}, "fusion_lon": 0.0, "lon": -77.03777916666667, "type": "electric_scooter", "fusion_lat": 0.0, "name": "ed713c6412bc5ef5a0c11ba829d80f54"}, {"lat": 38.89878433333333, "bike_id": "ea3c4a29c797546f9c19242a3bf8a4c9", "is_reserved": 0, "is_disabled": 0, "rental_uris": {"android": "https://dc.lft.to/lastmile_qr_scan", "ios": "https://dc.lft.to/lastmile_qr_scan"}, "fusion_lon": 0.0, "lon": -76.9319735, "type": "electric_scooter", "fusion_lat": 0.0, "name": "ea3c4a29c797546f9c19242a3bf8a4c9"}, {"lat": 38.89192033333333, "bike_id": "c620c7c9393b16677db58ae73fa78be4", "is_reserved": 0, "is_disabled": 0, "rental_uris": {"android": "https://dc.lft.to/lastmile_qr_scan", "ios": "https://dc.lft.to/lastmile_qr_scan"}, "fusion_lon": 0.0, "lon": -77.00197533333333, "type": "electric_bike", "fusion_lat": 0.0, "name": "c620c7c9393b16677db58ae73fa78be4"}, {"lat": 38.95549283333333, "bike_id": "388367d710c9c0ff8b530433faf94d69", "is_reserved": 0, "is_disabled": 0, "rental_uris": {"android": "https://dc.lft.to/lastmile_qr_scan", "ios": "https://dc.lft.to/lastmile_qr_scan"}, "fusion_lon": 0.0, "lon": -76.93542766666667, "type": "electric_bike", "fusion_lat": 0.0, "name": "388367d710c9c0ff8b530433faf94d69"}, {"lat": 38.910336, "bike_id": "d8f503d8688f4a944197d30e51198598", "is_reserved": 0, "is_disabled": 0, "rental_uris": {"android": "https://dc.lft.to/lastmile_qr_scan", "ios": "https://dc.lft.to/lastmile_qr_scan"}, "fusion_lon": 0.0, "lon": -76.985573, "type": "electric_scooter", "fusion_lat": 0.0, "name": "d8f503d8688f4a944197d30e51198598"}, {"lat": 38.902508166666664, "bike_id": "fcb79de37032752108728538bb404690", "is_reserved": 0, "is_disabled": 0, "rental_uris": {"android": "https://dc.lft.to/lastmile_qr_scan", "ios": "https://dc.lft.to/lastmile_qr_scan"}, "fusion_lon": 0.0, "lon": -77.03301266666666, "type": "electric_scooter", "fusion_lat": 0.0, "name": "fcb79de37032752108728538bb404690"}, {"lat": 38.86667516666667, "bike_id": "1a8c68499242b3afa8054328f168e817", "is_reserved": 0, "is_disabled": 0, "rental_uris": {"android": "https://dc.lft.to/lastmile_qr_scan", "ios": "https://dc.lft.to/lastmile_qr_scan"}, "fusion_lon": 0.0, "lon": -76.9851165, "type": "electric_scooter", "fusion_lat": 0.0, "name": "1a8c68499242b3afa8054328f168e817"}, {"lat": 38.9187025, "bike_id": "939e0564003160d46faa0fe6fa194b5c", "is_reserved": 0, "is_disabled": 0, "rental_uris": {"android": "https://dc.lft.to/lastmile_qr_scan", "ios": "https://dc.lft.to/lastmile_qr_scan"}, "fusion_lon": 0.0, "lon": -77.0448025, "type": "electric_scooter", "fusion_lat": 0.0, "name": "939e0564003160d46faa0fe6fa194b5c"}, {"lat": 38.9057315, "bike_id": "7c6ba2c67e489092749804c5a4da30e8", "is_reserved": 0, "is_disabled": 0, "rental_uris": {"android": "https://dc.lft.to/lastmile_qr_scan", "ios": "https://dc.lft.to/lastmile_qr_scan"}, "fusion_lon": 0.0, "lon": -77.03623583333334, "type": "electric_scooter", "fusion_lat": 0.0, "name": "7c6ba2c67e489092749804c5a4da30e8"}, {"lat": 38.906922, "bike_id": "497a2c6b142370365eebb78f8f0b27c1", "is_reserved": 0, "is_disabled": 0, "rental_uris": {"android": "https://dc.lft.to/lastmile_qr_scan", "ios": "https://dc.lft.to/lastmile_qr_scan"}, "fusion_lon": 0.0, "lon": -77.03840583333333, "type": "electric_scooter", "fusion_lat": 0.0, "name": "497a2c6b142370365eebb78f8f0b27c1"}, {"lat": 38.90377383333333, "bike_id": "f1a57903999fe966e2e3cd32638f9cdd", "is_reserved": 0, "is_disabled": 0, "rental_uris": {"android": "https://dc.lft.to/lastmile_qr_scan", "ios": "https://dc.lft.to/lastmile_qr_scan"}, "fusion_lon": 0.0, "lon": -77.03311933333333, "type": "electric_scooter", "fusion_lat": 0.0, "name": "f1a57903999fe966e2e3cd32638f9cdd"},