{"data": {"bikes": [{"fusion_lat": 0.0, "type": "electric_scooter", "name": "7d08f839be262486bb734182ba4b82e8", "fusion_lon": 0.0, "bike_id": "7d08f839be262486bb734182ba4b82e8", "is_reserved": 0, "rental_uris": {"android": "https://dc.lft.to/lastmile_qr_scan", "ios": "https://dc.lft.to/lastmile_qr_scan"}, "lat": 38.900344833333335, "is_disabled": 0, "lon": -77.0069345}, {"fusion_lat": 0.0, "type": "electric_scooter", "name": "0b03f39dab4fdb951211b5da8f0156ce", "fusion_lon": 0.0, "bike_id": "0b03f39dab4fdb951211b5da8f0156ce", "is_reserved": 0, "rental_uris": {"android": "https://dc.lft.to/lastmile_qr_scan", "ios": "https://dc.lft.to/lastmile_qr_scan"}, "lat": 38.905051, "is_disabled": 0, "lon": -77.046607}, {"fusion_lat": 0.0, "type": "electric_scooter", "name": "1232988767d4f8f0201a1c5317c08404", "fusion_lon": 0.0, "bike_id": "1232988767d4f8f0201a1c5317c08404", "is_reserved": 0, "rental_uris": {"android": "https://dc.lft.to/lastmile_qr_scan", "ios": "https://dc.lft.to/lastmile_qr_scan"}, "lat": 38.90145116666667, "is_disabled": 0, "lon": -77.0293385}, {"fusion_lat": 0.0, "type": "electric_bike", "name": "ee49aeb3f18ee2bec90ea6b5a8b25017", "fusion_lon": 0.0, "bike_id": "ee49aeb3f18ee2bec90ea6b5a8b25017", "is_reserved": 0, "rental_uris": {"android": "https://dc.lft.to/lastmile_qr_scan", "ios": "https://dc.lft.to/lastmile_qr_scan"}, "lat": 38.978533666666664, "is_disabled": 0, "lon": -77.08982433333334}, {"fusion_lat": 0.0, "type": "electric_scooter", "name": "a4e2e74ce27f2e47cee90d31e383e8ec", "fusion_lon": 0.0, "bike_id": "a4e2e74ce27f2e47cee90d31e383e8ec", "is_reserved": 0, "rental_uris": {"android": "https://dc.lft.to/lastmile_qr_scan", "ios": "https://dc.lft.to/lastmile_qr_scan"}, "lat": 38.93882933333333, "is_disabled": 0, "lon": -77.02459566666667}, {"fusion_lat": 0.0, "type": "electric_bike", "name": "1299068d09b4daa3300585359c5d1316", "fusion_lon": 0.0, "bike_id": "1299068d09b4daa3300585359c5d1316", "is_reserved": 0, "rental_uris": {"android": "https://dc.lft.to/lastmile_qr_scan", "ios": "https://dc.lft.to/lastmile_qr_scan"}, "lat": 38.969612, "is_disabled": 0, "lon": -76.9574925}, {"fusion_lat": 0.0, "type": "electric_scooter", "name": "e89abcfef48870ba0d4367efe934106d", "fusion_lon": 0.0, "bike_id": "e89abcfef48870ba0d4367efe934106d", "is_reserved": 0, "rental_uris": {"android": "https://dc.lft.to/lastmile_qr_scan", "ios": "https://dc.lft.to/lastmile_qr_scan"}, "lat": 38.9051735, "is_disabled": 0, "lon": -77.04824966666666}, {"fusion_lat": 0.0, "type": "electric_scooter", "name": "115b382b3e314996f90a9159807e69a7", "fusion_lon": 0.0, "bike_id": "115b382b3e314996f90a9159807e69a7", "is_reserved": 0, "rental_uris": {"android": "https://dc.lft.to/lastmile_qr_scan", "ios": "https://dc.lft.to/lastmile_qr_scan"}, "lat": 38.89843366666667, "is_disabled": 0, "lon": -77.03353216666666}, {"fusion_lat": 0.0, "type": "electric_scooter", "name": "0dc9a1ca155901177f74e6e7dc1b96c8", "fusion_lon": 0.0, "bike_id": "0dc9a1ca155901177f74e6e7dc1b96c8", "is_reserved": 0, "rental_uris": {"android": "https://dc.lft.to/lastmile_qr_scan", "ios": "https://dc.lft.to/lastmile_qr_scan"}, "lat": 38.902694833333335, "is_disabled": 0, "lon": -77.028282}, {"fusion_lat": 0.0, "type": "electric_scooter", "name": "5127c304bc7dd6344c0e478a51086919", "fusion_lon": 0.0, "bike_id": "5127c304bc7dd6344c0e478a51086919", "is_reserved": 0, "rental_uris": {"android": "https://dc.lft.to/lastmile_qr_scan", "ios": "https://dc.lft.to/lastmile_qr_scan"}, "lat": 38.86014383333333, "is_disabled": 0, "lon": -76.98512933333333}, {"fusion_lat": 0.0, "type": "electric_scooter", "name": "14511e019ed34bff306bdffdaaedca74", "fusion_lon": 0.0, "bike_id": "14511e019ed34bff306bdffdaaedca74", "is_reserved": 0, "rental_uris": {"android": "https://dc.lft.to/lastmile_qr_scan", "ios": "https://dc.lft.to/lastmile_qr_scan"}, "lat": 38.900278, "is_disabled": 0, "lon": -77.03194416666666}, {"fusion_lat": 0.0, "type": "electric_scooter", "name": "f3f2a7b1f07ded7c84ff49d570decdbf", "fusion_lon": 0.0, "bike_id": "f3f2a7b1f07ded7c84ff49d570decdbf", "is_reserved": 0, "rental_uris": {"android": "https://dc.lft.to/lastmile_qr_scan", "ios": "https://dc.lft.to/lastmile_qr_scan"}, "lat": 38.864134, "is_disabled": 0, "lon": -76.97446483333333}, {"fusion_lat": 0.0, "type": "electric_scooter", "name": "519b2e85eb1ca797c226662e255da6a9", "fusion_lon": 0.0, "bike_id": "519b2e85eb1ca797c226662e255da6a9", "is_reserved": 0, "rental_uris": {"android": "https://dc.lft.to/lastmile_qr_scan", "ios": "https://dc.lft.to/lastmile_qr_scan"}, "lat": 38.88323366666667, "is_disabled": 0, "lon": -77.01739733333334}, {"fusion_lat": 0.0, "type": "electric_scooter", "name": "ee35d13744ee14aa413066cc6cfd1003", "fusion_lon": 0.0, "bike_id": "ee35d13744ee14aa413066cc6cfd1003", "is_reserved": 0, "rental_uris": {"android": "https://dc.lft.to/lastmile_qr_scan", "ios": "https://dc.lft.to/lastmile_qr_scan"}, "lat": 38.91050666666667, "is_disabled": 0, "lon": -77.04352416666667}, {"fusion_lat": 0.0, "type": "electric_scooter", "name": "89eca042ddf576ff270ae0e4c84b0db2", "fusion_lon": 0.0, "bike_id": "89eca042ddf576ff270ae0e4c84b0db2", "is_reserved": 0, "rental_uris": {"android": "https://dc.lft.to/lastmile_qr_scan", "ios": "https://dc.lft.to/lastmile_qr_scan"}, "lat": 38.922343833333336, "is_disabled": 0, "lon": -77.02335033333334}, {"fusion_lat": 0.0, "type": "electric_scooter", "name": "a93dbedcc0dc2ee6167911df88fd6fb5", "fusion_lon": 0.0, "bike_id": "a93dbedcc0dc2ee6167911df88fd6fb5", "is_reserved": 0, "rental_uris": {"android": "https://dc.lft.to/lastmile_qr_scan", "ios": "https://dc.lft.to/lastmile_qr_scan"}, "lat": 38.86238216666667, "is_disabled": 0, "lon": -76.99486116666667}, {"fusion_lat": 0.0, "type": "electric_scooter", "name": "6388401e335cf7410b7a6b75668d2d3a", "fusion_lon": 0.0, "bike_id": "6388401e335cf7410b7a6b75668d2d3a", "is_reserved": 0, "rental_uris": {"android": "https://dc.lft.to/lastmile_qr_scan", "ios": "https://dc.lft.to/lastmile_qr_scan"}, "lat": 38.911873166666666, "is_disabled": 0, "lon": -77.03813566666666}, {"fusion_lat": 0.0, "type": "electric_scooter", "name": "2e71287cb77e89b2c068e356594b47ec", "fusion_lon": 0.0, "bike_id": "2e71287cb77e89b2c068e356594b47ec", "is_reserved": 0, "rental_uris": {"android": "https://dc.lft.to/lastmile_qr_scan", "ios": "https://dc.lft.to/lastmile_qr_scan"}, "lat": 38.93598133333333, "is_disabled": 0, "lon": -77.05850233333334}, {"fusion_lat": 0.0, "type": "electric_scooter", "name": "cd5aa8f27309ff703c7cbe32853f8628", "fusion_lon": 0.0, "bike_id": "cd5aa8f27309ff703c7cbe32853f8628", "is_reserved": 0, "rental_uris": {"android": "https://dc.lft.to/lastmile_qr_scan", "ios": "https://dc.lft.to/lastmile_qr_scan"}, "lat": 38.9212135, "is_disabled": 0, "lon": -77.03225966666666}, {"fusion_lat": 0.0, "type": "electric_bike", "name": "de329e1943d3412a95c48a3de00ce2e1", "fusion_lon": 0.0, "bike_id": "de329e1943d3412a95c48a3de00ce2e1", "is_reserved": 0, "rental_uris": {"android": "https://dc.lft.to/lastmile_qr_scan", "ios": "https://dc.lft.to/lastmile_qr_scan"}, "lat": 38.94784966666667, "is_disabled": 0, "lon": -76.97210683333333}, {"fusion_lat": 0.0, "type": "electric_scooter", "name": "8dea8bbf1aac821f1b9782b74837394b", "fusion_lon": 0.0, "bike_id": "8dea8bbf1aac821f1b9782b74837394b", "is_reserved": 0, "rental_uris": {"android": "https://dc.lft.to/lastmile_qr_scan", "ios": "https://dc.lft.to/lastmile_qr_scan"}, "lat": 38.88708116666667, "is_disabled": 0, "lon": -77.01364383333333}, {"fusion_lat": 0.0, "type": "electric_bike", "name": "55b3cdd708d70edfc572da08c80e9c0d", "fusion_lon": 0.0, "bike_id": "55b3cdd708d70edfc572da08c80e9c0d", "is_reserved": 0, "rental_uris": {"android": "https://dc.lft.to/lastmile_qr_scan", "ios": "https://dc.lft.to/lastmile_qr_scan"}, "lat": 39.02436483333334, "is_disabled": 0, "lon": -77.13098633333334}, {"fusion_lat": 0.0, "type": "electric_scooter", "name": "ff9ea29ab4808c703b30505b0bcff189", "fusion_lon": 0.0, "bike_id": "ff9ea29ab4808c703b30505b0bcff189", "is_reserved": 0, "rental_uris": {"android": "https://dc.lft.to/lastmile_qr_scan", "ios": "https://dc.lft.to/lastmile_qr_scan"}, "lat": 38.90367583333333, "is_disabled": 0, "lon": -77.04484233333334}, {"fusion_lat": 0.0, "type": "electric_scooter", "name": "d396ba82130b030f31a9e52a7187b051", "fusion_lon": 0.0, "bike_id": "d396ba82130b030f31a9e52a7187b051", "is_reserved": 0, "rental_uris": {"android": "https://dc.lft.to/lastmile_qr_scan", "ios": "https://dc.lft.to/lastmile_qr_scan"}, "lat": 38.923077166666666, "is_disabled": 0, "lon": -77.03641216666666}, {"fusion_lat": 0.0, "type": "electric_scooter", "name": "02c7270168576a5ed524e2b3e9c4b611", "fusion_lon": 0.0, "bike_id": "02c7270168576a5ed524e2b3e9c4b611", "is_reserved": 0, "rental_uris": {"android": "https://dc.lft.to/lastmile_qr_scan", "ios": "https://dc.lft.to/lastmile_qr_scan"}, "lat": 38.89146683333333, "is_disabled": 0, "lon": -76.98383416666667}, {"fusion_lat": 0.0, "type": "electric_scooter", "name": "7ece96f42dbba7fa460347739ab2e2e3", "fusion_lon": 0.0, "bike_id": "7ece96f42dbba7fa460347739ab2e2e3", "is_reserved": 0, "rental_uris": {"android": "https://dc.lft.to/lastmile_qr_scan", "ios": "https://dc.lft.to/lastmile_qr_scan"}, "lat": 38.92359366666667, "is_disabled": 0, "lon": -77.035324}, {"fusion_lat": 0.0, "type": "electric_scooter", "name": "f6ed6f7b97dccaca2dbeacb3d7149278", "fusion_lon": 0.0, "bike_id": "f6ed6f7b97dccaca2dbeacb3d7149278", "is_reserved": 0, "rental_uris": {"android": "https://dc.lft.to/lastmile_qr_scan", "ios": "https://dc.lft.to/lastmile_qr_scan"}, "lat": 38.90768516666667, "is_disabled": 0, "lon": -77.0349605}, {"fusion_lat": 0.0, "type": "electric_scooter", "name": "cc4da9d5131598d5e70808c0d19ea738", "fusion_lon": 0.0, "bike_id": "cc4da9d5131598d5e70808c0d19ea738", "is_reserved": 0, "rental_uris": {"android": "https://dc.lft.to/lastmile_qr_scan", "ios": "https://dc.lft.to/lastmile_qr_scan"}, "lat": 38.921757166666666, "is_disabled": 0, "lon": -77.02107183333334}, {"fusion_lat": 0.0, "type": "electric_scooter", "name": "41f29a76956676e2e1a4ac10c898d1b1", "fusion_lon": 0.0, "bike_id": "41f29a76956676e2e1a4ac10c898d1b1", "is_reserved": 0, "rental_uris": {"android": "https://dc.lft.to/lastmile_qr_scan", "ios": "https://dc.lft.to/lastmile_qr_scan"}, "lat": 38.92418883333333, "is_disabled": 0, "lon": -77.02277716666667}, {"fusion_lat": 0.0, "type": "electric_scooter", "name": "6e272746b7ebea1e1a06ffe9dea10509", "fusion_lon": 0.0, "bike_id": "6e272746b7ebea1e1a06ffe9dea10509", "is_reserved": 0, "rental_uris": {"android": "https://dc.lft.to/lastmile_qr_scan", "ios": "https://dc.lft.to/lastmile_qr_scan"}, "lat": 38.891723, "is_disabled": 0, "lon": -76.9119105}, {"fusion_lat": 0.0, "type": "electric_scooter", "name": "f8f204c6a95d0bdb97162a33ae048e95", "fusion_lon": 0.0, "bike_id": "f8f204c6a95d0bdb97162a33ae048e95", "is_reserved": 0, "rental_uris": {"android": "https://dc.lft.to/lastmile_qr_scan", "ios": "https://dc.lft.to/lastmile_qr_scan"}, "lat": 38.89220133333333, "is_disabled": 0, "lon": -77.0322295}, {"fusion_lat": 0.0, "type": "electric_scooter", "name": "3d01b2cbba805de9d8003ec1b1e919a7", "fusion_lon": 0.0, "bike_id": "3d01b2cbba805de9d8003ec1b1e919a7", "is_reserved": 0, "rental_uris": {"android": "https://dc.lft.to/lastmile_qr_scan", "ios": "https://dc.lft.to/lastmile_qr_scan"}, "lat": 38.9002195, "is_disabled": 0, "lon": -77.04138166666667}, {"fusion_lat": 0.0, "type": "electric_scooter", "name": "1cca25179cea74b9bc1bd1d37b0d9fe5", "fusion_lon": 0.0, "bike_id": "1cca25179cea74b9bc1bd1d37b0d9fe5", "is_reserved": 0, "rental_uris": {"android": "https://dc.lft.to/lastmile_qr_scan", "ios": "https://dc.lft.to/lastmile_qr_scan"}, "lat": 38.862081833333335, "is_disabled": 0, "lon": -76.99472233333333}, {"fusion_lat": 0.0, "type": "electric_scooter", "name": "267cb69998317ab48f6f9f4f72d66bf0", "fusion_lon": 0.0, "bike_id": "267cb69998317ab48f6f9f4f72d66bf0", "is_reserved": 0, "rental_uris": {"android": "https://dc.lft.to/lastmile_qr_scan", "ios": "https://dc.lft.to/lastmile_qr_scan"}, "lat": 38.935685666666664, "is_disabled": 0, "lon": -77.02121}, {"fusion_lat": 0.0, "type": "electric_bike", "name": "69908fde953f2866a5fa69b988ab4706", "fusion_lon": 0.0, "bike_id": "69908fde953f2866a5fa69b988ab4706", "is_reserved": 0, "rental_uris": {"android": "https://dc.lft.to/lastmile_qr_scan", "ios": "https://dc.lft.to/lastmile_qr_scan"}, "lat": 38.9383175, "is_disabled": 0, "lon": -76.99479633333333}, {"fusion_lat": 0.0, "type": "electric_scooter", "name": "3c8f855e3f74899d4ccd8d9b1311783a", "fusion_lon": 0.0, "bike_id": "3c8f855e3f74899d4ccd8d9b1311783a", "is_reserved": 0, "rental_uris": {"android": "https://dc.lft.to/lastmile_qr_scan", "ios": "https://dc.lft.to/lastmile_qr_scan"}, "lat": 38.89610116666667, "is_disabled": 0, "lon": -76.99970483333334}, {"fusion_lat": 0.0, "type": "electric_scooter", "name": "018cb20b1b6a7910636c77035e6128b9", "fusion_lon": 0.0, "bike_id": "018cb20b1b6a7910636c77035e6128b9", "is_reserved": 0, "rental_uris": {"android": "https://dc.lft.to/lastmile_qr_scan", "ios": "https://dc.lft.to/lastmile_qr_scan"}, "lat": 38.899150166666665, "is_disabled": 0, "lon": -77.03302783333334}, {"fusion_lat": 0.0, "type": "electric_scooter", "name": "efc723aef98b37d3b4e12f5b956644cb", "fusion_lon": 0.0, "bike_id": "efc723aef98b37d3b4e12f5b956644cb", "is_reserved": 0, "rental_uris": {"android": "https://dc.lft.to/lastmile_qr_scan", "ios": "https://dc.lft.to/lastmile_qr_scan"}, "lat": 38.907307333333335, "is_disabled": 0, "lon": -76.98694216666667}, {"fusion_lat": 0.0, "type": "electric_scooter", "name": "2005b31c4e846fceda5b388f3c84e6fb", "fusion_lon": 0.0, "bike_id": "2005b31c4e846fceda5b388f3c84e6fb", "is_reserved": 0, "rental_uris": {"android": "https://dc.lft.to/lastmile_qr_scan", "ios": "https://dc.lft.to/lastmile_qr_scan"}, "lat": 38.91938016666667, "is_disabled": 0, "lon": -77.02512633333333}, {"fusion_lat": 0.0, "type": "electric_scooter", "name": "16cce33ead47f82538f9a2a49c300a07", "fusion_lon": 0.0, "bike_id": "16cce33ead47f82538f9a2a49c300a07", "is_reserved": 0, "rental_uris": {"android": "https://dc.lft.to/lastmile_qr_scan", "ios": "https://dc.lft.to/lastmile_qr_scan"}, "lat": 38.892479, "is_disabled": 0, "lon": -77.0220445}, {"fusion_lat": 0.0, "type": "electric_scooter", "name": "53fd777e9819624ec1b4b15b56536c55", "fusion_lon": 0.0, "bike_id": "53fd777e9819624ec1b4b15b56536c55", "is_reserved": 0, "rental_uris": {"android": "https://dc.lft.to/lastmile_qr_scan", "ios": "https://dc.lft.to/lastmile_qr_scan"}, "lat": 38.91695883333333, "is_disabled": 0, "lon": -77.02890216666667}, {"fusion_lat": 0.0, "type": "electric_scooter", "name": "0e752439a91219156ea324302d5da8c2", "fusion_lon": 0.0, "bike_id": "0e752439a91219156ea324302d5da8c2", "is_reserved": 0, "rental_uris": {"android": "https://dc.lft.to/lastmile_qr_scan", "ios": "https://dc.lft.to/lastmile_qr_scan"}, "lat": 38.8623715, "is_disabled": 0, "lon": -76.99484866666667}, {"fusion_lat": 0.0, "type": "electric_scooter", "name": "f42bf177a2f35b41fb635dafdabbd965", "fusion_lon": 0.0, "bike_id": "f42bf177a2f35b41fb635dafdabbd965", "is_reserved": 0, "rental_uris": {"android": "https://dc.lft.to/lastmile_qr_scan", "ios": "https://dc.lft.to/lastmile_qr_scan"}, "lat": 38.897933, "is_disabled": 0, "lon": -77.05019416666667}, {"fusion_lat": 0.0, "type": "electric_scooter", "name": "1184068d6ec3b5b1da16c69ec13977ba", "fusion_lon": 0.0, "bike_id": "1184068d6ec3b5b1da16c69ec13977ba", "is_reserved": 0, "rental_uris": {"android": "https://dc.lft.to/lastmile_qr_scan", "ios": "https://dc.lft.to/lastmile_qr_scan"}, "lat": 38.9329865, "is_disabled": 0, "lon": -77.02060266666666}, {"fusion_lat": 0.0, "type": "electric_scooter", "name": "369af431cf7f91d35f7b49c6ed638a6a", "fusion_lon": 0.0, "bike_id": "369af431cf7f91d35f7b49c6ed638a6a", "is_reserved": 0, "rental_uris": {"android": "https://dc.lft.to/lastmile_qr_scan", "ios": "https://dc.lft.to/lastmile_qr_scan"}, "lat": 38.90033566666666, "is_disabled": 0, "lon": -77.032041}, {"fusion_lat": 0.0, "type": "electric_scooter", "name": "534d99edf4482fce359f5014b508e99c", "fusion_lon": 0.0, "bike_id": "534d99edf4482fce359f5014b508e99c", "is_reserved": 0, "rental_uris": {"android": "https://dc.lft.to/lastmile_qr_scan", "ios": "https://dc.lft.to/lastmile_qr_scan"}, "lat": 38.900513333333336, "is_disabled": 0, "lon": -76.998498}, {"fusion_lat": 0.0, "type": "electric_scooter", "name": "bdcc41d57e21e0f389d363b666acce37", "fusion_lon": 0.0, "bike_id": "bdcc41d57e21e0f389d363b666acce37", "is_reserved": 0, "rental_uris": {"android": "https://dc.lft.to/lastmile_qr_scan", "ios": "https://dc.lft.to/lastmile_qr_scan"}, "lat": 38.923699666666664, "is_disabled": 0, "lon": -77.01921466666667}, {"fusion_lat": 0.0, "type": "electric_scooter", "name": "b647d8dbab268e892669a97a268a47d4", "fusion_lon": 0.0, "bike_id": "b647d8dbab268e892669a97a268a47d4", "is_reserved": 0, "rental_uris": {"android": "https://dc.lft.to/lastmile_qr_scan", "ios": "https://dc.lft.to/lastmile_qr_scan"}, "lat": 38.9266145, "is_disabled": 0, "lon": -77.0242805}, {"fusion_lat": 0.0, "type": "electric_scooter", "name": "cbf60a21472a82e623ff549020eb3e54", "fusion_lon": 0.0, "bike_id": "cbf60a21472a82e623ff549020eb3e54", "is_reserved": 0, "rental_uris": {"android": "https://dc.lft.to/lastmile_qr_scan", "ios": "https://dc.lft.to/lastmile_qr_scan"}, "lat": 38.902416, "is_disabled": 0, "lon": -77.02692283333333}, {"fusion_lat": 0.0, "type": "electric_scooter", "name": "80a0fa432cab11df87af5a71098cdb94", "fusion_lon": 0.0, "bike_id": "80a0fa432cab11df87af5a71098cdb94", "is_reserved": 0, "rental_uris": {"android": "https://dc.lft.to/lastmile_qr_scan", "ios": "https://dc.lft.to/lastmile_qr_scan"}, "lat": 38.90506233333333, "is_disabled": 0, "lon": -76.99611433333334}, {"fusion_lat": 0.0, "type": "electric_bike", "name": "a7b68e6347763bd7c37dc43003b18781", "fusion_lon": 0.0, "bike_id": "a7b68e6347763bd7c37dc43003b18781", "is_reserved": 0, "rental_uris": {"android": "https://dc.lft.to/lastmile_qr_scan", "ios": "https://dc.lft.to/lastmile_qr_scan"}, "lat": 39.043121166666666, "is_disabled": 0, "lon": -77.051614}, {"fusion_lat": 0.0, "type": "electric_scooter", "name": "d842923b65cb4cef25fecc45ff794bcf", "fusion_lon": 0.0, "bike_id": "d842923b65cb4cef25fecc45ff794bcf", "is_reserved": 0, "rental_uris": {"android": "https://dc.lft.to/lastmile_qr_scan", "ios": "https://dc.lft.to/lastmile_qr_scan"}, "lat": 38.899081, "is_disabled": 0, "lon": -77.0396625}, {"fusion_lat": 0.0, "type": "electric_scooter", "name": "d9940ffc985d747e9f3943462df914f9", "fusion_lon": 0.0, "bike_id": "d9940ffc985d747e9f3943462df914f9", "is_reserved": 0, "rental_uris": {"android": "https://dc.lft.to/lastmile_qr_scan", "ios": "https://dc.lft.to/lastmile_qr_scan"}, "lat": 38.92476716666667, "is_disabled": 0, "lon": -77.03909783333333}, {"fusion_lat": 0.0, "type": "electric_scooter", "name": "61cd3663de78e8a17f4a1ed897571d20", "fusion_lon": 0.0, "bike_id": "61cd3663de78e8a17f4a1ed897571d20", "is_reserved": 0, "rental_uris": {"android": "https://dc.lft.to/lastmile_qr_scan", "ios": "https://dc.lft.to/lastmile_qr_scan"}, "lat": 38.911865, "is_disabled": 0, "lon": -77.0349635}, {"fusion_lat": 0.0, "type": "electric_scooter", "name": "93be9e6099c52b2517ec2bb670ac802a", "fusion_lon": 0.0, "bike_id": "93be9e6099c52b2517ec2bb670ac802a", "is_reserved": 0, "rental_uris": {"android": "https://dc.lft.to/lastmile_qr_scan", "ios": "https://dc.lft.to/lastmile_qr_scan"}, "lat": 38.920413333333336, "is_disabled": 0, "lon": -76.99734633333334}, {"fusion_lat": 0.0, "type": "electric_scooter", "name": "2d83ef4f4a6208d16932652c5bf9c33b", "fusion_lon": 0.0, "bike_id": "2d83ef4f4a6208d16932652c5bf9c33b", "is_reserved": 0, "rental_uris": {"android": "https://dc.lft.to/lastmile_qr_scan", "ios": "https://dc.lft.to/lastmile_qr_scan"}, "lat": 38.90162433333333, "is_disabled": 0, "lon": -77.03177983333333}, {"fusion_lat": 0.0, "type": "electric_scooter", "name": "5a9f1f67fb5469a29b93c337cce20176", "fusion_lon": 0.0, "bike_id": "5a9f1f67fb5469a29b93c337cce20176", "is_reserved": 0, "rental_uris": {"android": "https://dc.lft.to/lastmile_qr_scan", "ios": "https://dc.lft.to/lastmile_qr_scan"}, "lat": 38.921519333333336, "is_disabled": 0, "lon": -77.01802466666666}, {"fusion_lat": 0.0, "type": "electric_scooter", "name": "551f84602edde3cf02d8f82179036cbc", "fusion_lon": 0.0, "bike_id": "551f84602edde3cf02d8f82179036cbc", "is_reserved": 0, "rental_uris": {"android": "https://dc.lft.to/lastmile_qr_scan", "ios": "https://dc.lft.to/lastmile_qr_scan"}, "lat": 38.892352833333334, "is_disabled": 0, "lon": -77.05001433333334}, {"fusion_lat": 0.0, "type": "electric_scooter", "name": "25d84b0176c4b810465df10232504f39", "fusion_lon": 0.0, "bike_id": "25d84b0176c4b810465df10232504f39", "is_reserved": 0, "rental_uris": {"android": "https://dc.lft.to/lastmile_qr_scan", "ios": "https://dc.lft.to/lastmile_qr_scan"}, "lat": 38.892388833333335, "is_disabled": 0, "lon": -77.04159433333334}, {"fusion_lat": 0.0, "type": "electric_bike", "name": "1406c1df95b7a8a8e0a5599835f38077", "fusion_lon": 0.0, "bike_id": "1406c1df95b7a8a8e0a5599835f38077", "is_reserved": 0, "rental_uris": {"android": "https://dc.lft.to/lastmile_qr_scan", "ios": "https://dc.lft.to/lastmile_qr_scan"}, "lat": 38.853760333333334, "is_disabled": 0, "lon": -77.124644}, {"fusion_lat": 0.0, "type": "electric_bike", "name": "acb92a5d6e183a1e1eb9d2bf3edbfa88", "fusion_lon": 0.0, "bike_id": "acb92a5d6e183a1e1eb9d2bf3edbfa88", "is_reserved": 0, "rental_uris": {"android": "https://dc.lft.to/lastmile_qr_scan", "ios": "https://dc.lft.to/lastmile_qr_scan"}, "lat": 38.873012, "is_disabled": 0, "lon": -77.1392365}, {"fusion_lat": 0.0, "type": "electric_scooter", "name": "75dab2006b3e31368cb60a62565ca607", "fusion_lon": 0.0, "bike_id": "75dab2006b3e31368cb60a62565ca607", "is_reserved": 0, "rental_uris": {"android": "https://dc.lft.to/lastmile_qr_scan", "ios": "https://dc.lft.to/lastmile_qr_scan"}, "lat": 38.9168625, "is_disabled": 0, "lon": -77.02972416666667}, {"fusion_lat": 0.0, "type": "electric_scooter", "name": "75de1f5ea9cf0e6753587837ce7a33df", "fusion_lon": 0.0, "bike_id": "75de1f5ea9cf0e6753587837ce7a33df", "is_reserved": 0, "rental_uris": {"android": "https://dc.lft.to/lastmile_qr_scan", "ios": "https://dc.lft.to/lastmile_qr_scan"}, "lat": 38.89728483333333, "is_disabled": 0, "lon": -77.02726766666666}, {"fusion_lat": 0.0, "type": "electric_scooter", "name": "c295cae2b5006edf5c83025ff97614af", "fusion_lon": 0.0, "bike_id": "c295cae2b5006edf5c83025ff97614af", "is_reserved": 0, "rental_uris": {"android": "https://dc.lft.to/lastmile_qr_scan", "ios": "https://dc.lft.to/lastmile_qr_scan"}, "lat": 38.95020133333333, "is_disabled": 0, "lon": -77.0674595}, {"fusion_lat": 0.0, "type": "electric_scooter", "name": "171c0540a7edb1f343ec63d3ca70234e", "fusion_lon": 0.0, "bike_id": "171c0540a7edb1f343ec63d3ca70234e", "is_reserved": 0, "rental_uris": {"android": "https://dc.lft.to/lastmile_qr_scan", "ios": "https://dc.lft.to/lastmile_qr_scan"}, "lat": 38.9258355, "is_disabled": 0, "lon": -77.036358}, {"fusion_lat": 0.0, "type": "electric_scooter", "name": "6203da21255c6dfaa8b730b9018b02db", "fusion_lon": 0.0, "bike_id": "6203da21255c6dfaa8b730b9018b02db", "is_reserved": 0, "rental_uris": {"android": "https://dc.lft.to/lastmile_qr_scan", "ios": "https://dc.lft.to/lastmile_qr_scan"}, "lat": 38.90667283333333, "is_disabled": 0, "lon": -77.03880916666667}, {"fusion_lat": 0.0, "type": "electric_scooter", "name": "9dc5cead4aed7b79e0cf303336118de1", "fusion_lon": 0.0, "bike_id": "9dc5cead4aed7b79e0cf303336118de1", "is_reserved": 0, "rental_uris": {"android": "https://dc.lft.to/lastmile_qr_scan", "ios": "https://dc.lft.to/lastmile_qr_scan"}, "lat": 38.90470966666667, "is_disabled": 0, "lon": -77.03558766666667}, {"fusion_lat": 0.0, "type": "electric_scooter", "name": "dc1f19347d5d545f259f51205d1a86ce", "fusion_lon": 0.0, "bike_id": "dc1f19347d5d545f259f51205d1a86ce", "is_reserved": 0, "rental_uris": {"android": "https://dc.lft.to/lastmile_qr_scan", "ios": "https://dc.lft.to/lastmile_qr_scan"}, "lat": 38.90619366666667, "is_disabled": 0, "lon": -77.04144883333333}, {"fusion_lat": 0.0, "type": "electric_scooter", "name": "bc868ad62065532e5419b8ca678669b5", "fusion_lon": 0.0, "bike_id": "bc868ad62065532e5419b8ca678669b5", "is_reserved": 0, "rental_uris": {"android": "https://dc.lft.to/lastmile_qr_scan", "ios": "https://dc.lft.to/lastmile_qr_scan"}, "lat": 38.905596833333334, "is_disabled": 0, "lon": -77.04707383333333}, {"fusion_lat": 0.0, "type": "electric_scooter", "name": "78e966651537199b8719caf57ca01aa4", "fusion_lon": 0.0, "bike_id": "78e966651537199b8719caf57ca01aa4", "is_reserved": 0, "rental_uris": {"android": "https://dc.lft.to/lastmile_qr_scan", "ios": "https://dc.lft.to/lastmile_qr_scan"}, "lat": 38.90864033333333, "is_disabled": 0, "lon": -77.04268433333333}, {"fusion_lat": 0.0, "type": "electric_scooter", "name": "4d5d22beb9ca40a5b883296c59f759d2", "fusion_lon": 0.0, "bike_id": "4d5d22beb9ca40a5b883296c59f759d2", "is_reserved": 0, "rental_uris": {"android": "https://dc.lft.to/lastmile_qr_scan", "ios": "https://dc.lft.to/lastmile_qr_scan"}, "lat": 38.9247345, "is_disabled": 0, "lon": -77.022158}, {"fusion_lat": 0.0, "type": "electric_bike", "name": "5939ae2c820aaad91fdec1de9cd20b3a", "fusion_lon": 0.0, "bike_id": "5939ae2c820aaad91fdec1de9cd20b3a", "is_reserved": 0, "rental_uris": {"android": "https://dc.lft.to/lastmile_qr_scan", "ios": "https://dc.lft.to/lastmile_qr_scan"}, "lat": 38.896552, "is_disabled": 0, "lon": -76.93014633333334}, {"fusion_lat": 0.0, "type": "electric_scooter", "name": "a7f1999120c89e9da9de2dfcd0152e9a", "fusion_lon": 0.0, "bike_id": "a7f1999120c89e9da9de2dfcd0152e9a", "is_reserved": 0, "rental_uris": {"android": "https://dc.lft.to/lastmile_qr_scan", "ios": "https://dc.lft.to/lastmile_qr_scan"}, "lat": 38.886081, "is_disabled": 0, "lon": -76.99511066666666}, {"fusion_lat": 0.0, "type": "electric_scooter", "name": "d4f907d66e20870d3d41169e56e3e867", "fusion_lon": 0.0, "bike_id": "d4f907d66e20870d3d41169e56e3e867", "is_reserved": 0, "rental_uris": {"android": "https://dc.lft.to/lastmile_qr_scan", "ios": "https://dc.lft.to/lastmile_qr_scan"}, "lat": 38.92442716666667, "is_disabled": 0, "lon": -77.0399525}, {"fusion_lat": 0.0, "type": "electric_scooter", "name": "7aea1b16d0be2dc5610492e62dd7f9c1", "fusion_lon": 0.0, "bike_id": "7aea1b16d0be2dc5610492e62dd7f9c1", "is_reserved": 0, "rental_uris": {"android": "https://dc.lft.to/lastmile_qr_scan", "ios": "https://dc.lft.to/lastmile_qr_scan"}, "lat": 38.918449333333335, "is_disabled": 0, "lon": -76.96551133333334}, {"fusion_lat": 0.0, "type": "electric_scooter", "name": "879d8e7e62e4efc33fe2303eb6421a06", "fusion_lon": 0.0, "bike_id": "879d8e7e62e4efc33fe2303eb6421a06", "is_reserved": 0, "rental_uris": {"android": "https://dc.lft.to/lastmile_qr_scan", "ios": "https://dc.lft.to/lastmile_qr_scan"}, "lat": 38.908248, "is_disabled": 0, "lon": -77.03961283333334}, {"fusion_lat": 0.0, "type": "electric_scooter", "name": "59f18994c5ec503dfe7c59e1c3bb7ebd", "fusion_lon": 0.0, "bike_id": "59f18994c5ec503dfe7c59e1c3bb7ebd", "is_reserved": 0, "rental_uris": {"android": "https://dc.lft.to/lastmile_qr_scan", "ios": "https://dc.lft.to/lastmile_qr_scan"}, "lat": 38.93523966666667, "is_disabled": 0, "lon": -77.07277233333333}, {"fusion_lat": 0.0, "type": "electric_scooter", "name": "215cee157bd3128c833c735274b91235", "fusion_lon": 0.0, "bike_id": "215cee157bd3128c833c735274b91235", "is_reserved": 0, "rental_uris": {"android": "https://dc.lft.to/lastmile_qr_scan", "ios": "https://dc.lft.to/lastmile_qr_scan"}, "lat": 38.9149635, "is_disabled": 0, "lon": -77.043974}, {"fusion_lat": 0.0, "type": "electric_scooter", "name": "1eb020a79798c699791609d6487a09dd", "fusion_lon": 0.0, "bike_id": "1eb020a79798c699791609d6487a09dd", "is_reserved": 0, "rental_uris": {"android": "https://dc.lft.to/lastmile_qr_scan", "ios": "https://dc.lft.to/lastmile_qr_scan"}, "lat": 38.91953616666667, "is_disabled": 0, "lon": -76.9807975}, {"fusion_lat": 0.0, "type": "electric_scooter", "name": "179d8ff66c1e484301cbedfbd3264962", "fusion_lon": 0.0, "bike_id": "179d8ff66c1e484301cbedfbd3264962", "is_reserved": 0, "rental_uris": {"android": "https://dc.lft.to/lastmile_qr_scan", "ios": "https://dc.lft.to/lastmile_qr_scan"}, "lat": 38.89249, "is_disabled": 0, "lon": -77.04660066666666}, {"fusion_lat": 0.0, "type": "electric_scooter", "name": "9316dd47a076f546fa8d7df9f889e52e", "fusion_lon": 0.0, "bike_id": "9316dd47a076f546fa8d7df9f889e52e", "is_reserved": 0, "rental_uris": {"android": "https://dc.lft.to/lastmile_qr_scan", "ios": "https://dc.lft.to/lastmile_qr_scan"}, "lat": 38.902566, "is_disabled": 0, "lon": -77.017409}, {"fusion_lat": 0.0, "type": "electric_scooter", "name": "a1d3045490eec82e8a15a359b2e25d7b", "fusion_lon": 0.0, "bike_id": "a1d3045490eec82e8a15a359b2e25d7b", "is_reserved": 0, "rental_uris": {"android": "https://dc.lft.to/lastmile_qr_scan", "ios": "https://dc.lft.to/lastmile_qr_scan"}, "lat": 38.9240925, "is_disabled": 0, "lon": -77.05169666666667}, {"fusion_lat": 0.0, "type": "electric_scooter", "name": "60a865b5f76cf4c0c2b935412066bee9", "fusion_lon": 0.0, "bike_id": "60a865b5f76cf4c0c2b935412066bee9", "is_reserved": 0, "rental_uris": {"android": "https://dc.lft.to/lastmile_qr_scan", "ios": "https://dc.lft.to/lastmile_qr_scan"}, "lat": 38.903642166666664, "is_disabled": 0, "lon": -77.0281225}, {"fusion_lat": 0.0, "type": "electric_scooter", "name": "0638cca9923a8d4d53b27e914a83c830", "fusion_lon": 0.0, "bike_id": "0638cca9923a8d4d53b27e914a83c830", "is_reserved": 0, "rental_uris": {"android": "https://dc.lft.to/lastmile_qr_scan", "ios": "https://dc.lft.to/lastmile_qr_scan"}, "lat": 38.89976683333333, "is_disabled": 0, "lon": -77.04995983333333}, {"fusion_lat": 0.0, "type": "electric_scooter", "name": "27afa481381eaa00f06c26619e3ea4d6", "fusion_lon": 0.0, "bike_id": "27afa481381eaa00f06c26619e3ea4d6", "is_reserved": 0, "rental_uris": {"android": "https://dc.lft.to/lastmile_qr_scan", "ios": "https://dc.lft.to/lastmile_qr_scan"}, "lat": 38.924527499999996, "is_disabled": 0, "lon": -77.041144}, {"fusion_lat": 0.0, "type": "electric_scooter", "name": "dc75e23db6e71f872388c2d9dee5ae8c", "fusion_lon": 0.0, "bike_id": "dc75e23db6e71f872388c2d9dee5ae8c", "is_reserved": 0, "rental_uris": {"android": "https://dc.lft.to/lastmile_qr_scan", "ios": "https://dc.lft.to/lastmile_qr_scan"}, "lat": 38.88308, "is_disabled": 0, "lon": -76.97865583333333}, {"fusion_lat": 0.0, "type": "electric_scooter", "name": "b32dba3d796da1a61d1fc36cbd5eab39", "fusion_lon": 0.0, "bike_id": "b32dba3d796da1a61d1fc36cbd5eab39", "is_reserved": 0, "rental_uris": {"android": "https://dc.lft.to/lastmile_qr_scan", "ios": "https://dc.lft.to/lastmile_qr_scan"}, "lat": 38.906359333333334, "is_disabled": 0, "lon": -77.04803683333333}, {"fusion_lat": 0.0, "type": "electric_scooter", "name": "a02727a091fda9d3c713722438d79169", "fusion_lon": 0.0, "bike_id": "a02727a091fda9d3c713722438d79169", "is_reserved": 0, "rental_uris": {"android": "https://dc.lft.to/lastmile_qr_scan", "ios": "https://dc.lft.to/lastmile_qr_scan"}, "lat": 38.8991805, "is_disabled": 0, "lon": -76.9338345}, {"fusion_lat": 0.0, "type": "electric_scooter", "name": "414dac56a03c4c950be0fcf5e7b4ae87", "fusion_lon": 0.0, "bike_id": "414dac56a03c4c950be0fcf5e7b4ae87", "is_reserved": 0, "rental_uris": {"android": "https://dc.lft.to/lastmile_qr_scan", "ios": "https://dc.lft.to/lastmile_qr_scan"}, "lat": 38.91559, "is_disabled": 0, "lon": -77.031274}, {"fusion_lat": 0.0, "type": "electric_scooter", "name": "c9ec9a73234680628056965a99cb9045", "fusion_lon": 0.0, "bike_id": "c9ec9a73234680628056965a99cb9045", "is_reserved": 0, "rental_uris": {"android": "https://dc.lft.to/lastmile_qr_scan", "ios": "https://dc.lft.to/lastmile_qr_scan"}, "lat": 38.92172933333333, "is_disabled": 0, "lon": -77.03832733333333}, {"fusion_lat": 0.0, "type": "electric_scooter", "name": "4d26de162f81245af89e17eb050fe590", "fusion_lon": 0.0, "bike_id": "4d26de162f81245af89e17eb050fe590", "is_reserved": 0, "rental_uris": {"android": "https://dc.lft.to/lastmile_qr_scan", "ios": "https://dc.lft.to/lastmile_qr_scan"}, "lat": 38.939848, "is_disabled": 0, "lon": -77.0297965}, {"fusion_lat": 0.0, "type": "electric_scooter", "name": "1fb6d49081a4f48f40f2ae270b2893da", "fusion_lon": 0.0, "bike_id": "1fb6d49081a4f48f40f2ae270b2893da", "is_reserved": 0, "rental_uris": {"android": "https://dc.lft.to/lastmile_qr_scan", "ios": "https://dc.lft.to/lastmile_qr_scan"}, "lat": 38.89918733333333, "is_disabled": 0, "lon": -76.9337635}, {"fusion_lat": 0.0, "type": "electric_scooter", "name": "2a1cbe18d4447f13490798e5c9ea8a20", "fusion_lon": 0.0, "bike_id": "2a1cbe18d4447f13490798e5c9ea8a20", "is_reserved": 0, "rental_uris": {"android": "https://dc.lft.to/lastmile_qr_scan", "ios": "https://dc.lft.to/lastmile_qr_scan"}, "lat": 38.89220816666667, "is_disabled": 0, "lon": -77.0235115}, {"fusion_lat": 0.0, "type": "electric_bike", "name": "2d1e427893ab2cb89ef32ef29523fe43", "fusion_lon": 0.0, "bike_id": "2d1e427893ab2cb89ef32ef29523fe43", "is_reserved": 0, "rental_uris": {"android": "https://dc.lft.to/lastmile_qr_scan", "ios": "https://dc.lft.to/lastmile_qr_scan"}, "lat": 39.062948666666664, "is_disabled": 0, "lon": -77.049794}, {"fusion_lat": 0.0, "type": "electric_bike", "name": "4d9562a3a68fddda4b4fd8b67e5f68cb", "fusion_lon": 0.0, "bike_id": "4d9562a3a68fddda4b4fd8b67e5f68cb", "is_reserved": 0, "rental_uris": {"android": "https://dc.lft.to/lastmile_qr_scan", "ios": "https://dc.lft.to/lastmile_qr_scan"}, "lat": 39.0528575, "is_disabled": 0, "lon": -77.08066983333333}, {"fusion_lat": 0.0, "type": "electric_scooter", "name": "3c43cfe136813f03792e4c3ebae5266c", "fusion_lon": 0.0, "bike_id": "3c43cfe136813f03792e4c3ebae5266c", "is_reserved": 0, "rental_uris": {"android": "https://dc.lft.to/lastmile_qr_scan", "ios": "https://dc.lft.to/lastmile_qr_scan"}, "lat": 38.87697383333333, "is_disabled": 0, "lon": -77.00403966666667}, {"fusion_lat": 0.0, "type": "electric_scooter", "name": "fa8a8875a8a6a3f846c6e8a0241b50c6", "fusion_lon": 0.0, "bike_id": "fa8a8875a8a6a3f846c6e8a0241b50c6", "is_reserved": 0, "rental_uris": {"android": "https://dc.lft.to/lastmile_qr_scan", "ios": "https://dc.lft.to/lastmile_qr_scan"}, "lat": 38.872, "is_disabled": 0, "lon": -77.0107305}, {"fusion_lat": 0.0, "type": "electric_scooter", "name": "654816ed8425b30c381de12fa321a290", "fusion_lon": 0.0, "bike_id": "654816ed8425b30c381de12fa321a290", "is_reserved": 0, "rental_uris": {"android": "https://dc.lft.to/lastmile_qr_scan", "ios": "https://dc.lft.to/lastmile_qr_scan"}, "lat": 38.8973055, "is_disabled": 0, "lon": -77.043649}, {"fusion_lat": 0.0, "type": "electric_scooter", "name": "f2be5b42c9fa34fdd804b42a6e97131f", "fusion_lon": 0.0, "bike_id": "f2be5b42c9fa34fdd804b42a6e97131f", "is_reserved": 0, "rental_uris": {"android": "https://dc.lft.to/lastmile_qr_scan", "ios": "https://dc.lft.to/lastmile_qr_scan"}, "lat": 38.87832933333333, "is_disabled": 0, "lon": -76.96305416666667}, {"fusion_lat": 0.0, "type": "electric_scooter", "name": "b38a9605dc11f781f2d2182debf5bb31", "fusion_lon": 0.0, "bike_id": "b38a9605dc11f781f2d2182debf5bb31", "is_reserved": 0, "rental_uris": {"android": "https://dc.lft.to/lastmile_qr_scan", "ios": "https://dc.lft.to/lastmile_qr_scan"}, "lat": 38.9111255, "is_disabled": 0, "lon": -77.04479033333334}, {"fusion_lat": 0.0, "type": "electric_scooter", "name": "4986eb80af629e496f9a155577bd84dc", "fusion_lon": 0.0, "bike_id": "4986eb80af629e496f9a155577bd84dc", "is_reserved": 0, "rental_uris": {"android": "https://dc.lft.to/lastmile_qr_scan", "ios": "https://dc.lft.to/lastmile_qr_scan"}, "lat": 38.98460333333333, "is_disabled": 0, "lon": -77.02640183333334}, {"fusion_lat": 0.0, "type": "electric_scooter", "name": "6484695b9e8f099509e4cbfb6ad4ebd7", "fusion_lon": 0.0, "bike_id": "6484695b9e8f099509e4cbfb6ad4ebd7", "is_reserved": 0, "rental_uris": {"android": "https://dc.lft.to/lastmile_qr_scan", "ios": "https://dc.lft.to/lastmile_qr_scan"}, "lat": 38.90855833333333, "is_disabled": 0, "lon": -77.04563666666667}, {"fusion_lat": 0.0, "type": "electric_bike", "name": "8ed9b37903997374a3ed943b15e06033", "fusion_lon": 0.0, "bike_id": "8ed9b37903997374a3ed943b15e06033", "is_reserved": 0, "rental_uris": {"android": "https://dc.lft.to/lastmile_qr_scan", "ios": "https://dc.lft.to/lastmile_qr_scan"}, "lat": 38.961056666666664, "is_disabled": 0, "lon": -76.92812233333333}, {"fusion_lat": 0.0, "type": "electric_scooter", "name": "a1f96d081804806590359da87706e319", "fusion_lon": 0.0, "bike_id": "a1f96d081804806590359da87706e319", "is_reserved": 0, "rental_uris": {"android": "https://dc.lft.to/lastmile_qr_scan", "ios": "https://dc.lft.to/lastmile_qr_scan"}, "lat": 38.887246, "is_disabled": 0, "lon": -77.02838233333334}, {"fusion_lat": 0.0, "type": "electric_scooter", "name": "bc1e599aa8d40805c770f2e165d9c334", "fusion_lon": 0.0, "bike_id": "bc1e599aa8d40805c770f2e165d9c334", "is_reserved": 0, "rental_uris": {"android": "https://dc.lft.to/lastmile_qr_scan", "ios": "https://dc.lft.to/lastmile_qr_scan"}, "lat": 38.92324933333333, "is_disabled": 0, "lon": -77.021407}, {"fusion_lat": 0.0, "type": "electric_scooter", "name": "5988a96a7da529d556b36ebc1d795051", "fusion_lon": 0.0, "bike_id": "5988a96a7da529d556b36ebc1d795051", "is_reserved": 0, "rental_uris": {"android": "https://dc.lft.to/lastmile_qr_scan", "ios": "https://dc.lft.to/lastmile_qr_scan"}, "lat": 38.86991366666667, "is_disabled": 0, "lon": -76.97592566666667}, {"fusion_lat": 0.0, "type": "electric_scooter", "name": "8c3eebfa07b3946f88c50583609339b2", "fusion_lon": 0.0, "bike_id": "8c3eebfa07b3946f88c50583609339b2", "is_reserved": 0, "rental_uris": {"android": "https://dc.lft.to/lastmile_qr_scan", "ios": "https://dc.lft.to/lastmile_qr_scan"}, "lat": 38.91919016666667, "is_disabled": 0, "lon": -77.03179966666667}, {"fusion_lat": 0.0, "type": "electric_scooter", "name": "3b70b3d05e0eb2859efb0b57b30cb0db", "fusion_lon": 0.0, "bike_id": "3b70b3d05e0eb2859efb0b57b30cb0db", "is_reserved": 0, "rental_uris": {"android": "https://dc.lft.to/lastmile_qr_scan", "ios": "https://dc.lft.to/lastmile_qr_scan"}, "lat": 38.9025495, "is_disabled": 0, "lon": -76.99554583333334}, {"fusion_lat": 0.0, "type": "electric_scooter", "name": "7baa359a63b13e361b77683ae15d8a34", "fusion_lon": 0.0, "bike_id": "7baa359a63b13e361b77683ae15d8a34", "is_reserved": 0, "rental_uris": {"android": "https://dc.lft.to/lastmile_qr_scan", "ios": "https://dc.lft.to/lastmile_qr_scan"}, "lat": 38.90785866666667, "is_disabled": 0, "lon": -77.03856916666666}, {"fusion_lat": 0.0, "type": "electric_scooter", "name": "76fcb1e36ed650156a38734d08798fb6", "fusion_lon": 0.0, "bike_id": "76fcb1e36ed650156a38734d08798fb6", "is_reserved": 0, "rental_uris": {"android": "https://dc.lft.to/lastmile_qr_scan", "ios": "https://dc.lft.to/lastmile_qr_scan"}, "lat": 38.92253916666667, "is_disabled": 0, "lon": -77.0351995}, {"fusion_lat": 0.0, "type": "electric_scooter", "name": "7dc0ffb6646aabbd64753ffd54efaef9", "fusion_lon": 0.0, "bike_id": "7dc0ffb6646aabbd64753ffd54efaef9", "is_reserved": 0, "rental_uris": {"android": "https://dc.lft.to/lastmile_qr_scan", "ios": "https://dc.lft.to/lastmile_qr_scan"}, "lat": 38.949171, "is_disabled": 0, "lon": -77.0787905}, {"fusion_lat": 0.0, "type": "electric_scooter", "name": "ee73ccca2086abff94b8bebc78038c32", "fusion_lon": 0.0, "bike_id": "ee73ccca2086abff94b8bebc78038c32", "is_reserved": 0, "rental_uris": {"android": "https://dc.lft.to/lastmile_qr_scan", "ios": "https://dc.lft.to/lastmile_qr_scan"}, "lat": 38.896073333333334, "is_disabled": 0, "lon": -77.05034933333333}, {"fusion_lat": 0.0, "type": "electric_bike", "name": "1c4a06e107b7b3d1ec439bc06662722f", "fusion_lon": 0.0, "bike_id": "1c4a06e107b7b3d1ec439bc06662722f", "is_reserved": 0, "rental_uris": {"android": "https://dc.lft.to/lastmile_qr_scan", "ios": "https://dc.lft.to/lastmile_qr_scan"}, "lat": 38.9186465, "is_disabled": 0, "lon": -76.960929}, {"fusion_lat": 0.0, "type": "electric_bike", "name": "a9c644c5b4d8a7d4768faaede1c08740", "fusion_lon": 0.0, "bike_id": "a9c644c5b4d8a7d4768faaede1c08740", "is_reserved": 0, "rental_uris": {"android": "https://dc.lft.to/lastmile_qr_scan", "ios": "https://dc.lft.to/lastmile_qr_scan"}, "lat": 38.9451415, "is_disabled": 0, "lon": -77.00675366666667}, {"fusion_lat": 0.0, "type": "electric_scooter", "name": "a5fc56c3439a350bf611dca1948da077", "fusion_lon": 0.0, "bike_id": "a5fc56c3439a350bf611dca1948da077", "is_reserved": 0, "rental_uris": {"android": "https://dc.lft.to/lastmile_qr_scan", "ios": "https://dc.lft.to/lastmile_qr_scan"}, "lat": 38.90045716666667, "is_disabled": 0, "lon": -77.033593}, {"fusion_lat": 0.0, "type": "electric_scooter", "name": "f7c06365a1dfb80a5f5ff0229818ac98", "fusion_lon": 0.0, "bike_id": "f7c06365a1dfb80a5f5ff0229818ac98", "is_reserved": 0, "rental_uris": {"android": "https://dc.lft.to/lastmile_qr_scan", "ios": "https://dc.lft.to/lastmile_qr_scan"}, "lat": 38.92226933333333, "is_disabled": 0, "lon": -77.04238566666666}, {"fusion_lat": 0.0, "type": "electric_scooter", "name": "8db06d16dd13ca69e7f1beffbe62a2f7", "fusion_lon": 0.0, "bike_id": "8db06d16dd13ca69e7f1beffbe62a2f7", "is_reserved": 0, "rental_uris": {"android": "https://dc.lft.to/lastmile_qr_scan", "ios": "https://dc.lft.to/lastmile_qr_scan"}, "lat": 38.90698616666667, "is_disabled": 0, "lon": -77.03595883333334}, {"fusion_lat": 0.0, "type": "electric_scooter", "name": "8bf66c9ea682d4f13db1e8b6472a7276", "fusion_lon": 0.0, "bike_id": "8bf66c9ea682d4f13db1e8b6472a7276", "is_reserved": 0, "rental_uris": {"android": "https://dc.lft.to/lastmile_qr_scan", "ios": "https://dc.lft.to/lastmile_qr_scan"}, "lat": 38.9145475, "is_disabled": 0, "lon": -77.01889016666667}, {"fusion_lat": 0.0, "type": "electric_scooter", "name": "1c54585e5732952f4e3e0e01a3750d66", "fusion_lon": 0.0, "bike_id": "1c54585e5732952f4e3e0e01a3750d66", "is_reserved": 0, "rental_uris": {"android": "https://dc.lft.to/lastmile_qr_scan", "ios": "https://dc.lft.to/lastmile_qr_scan"}, "lat": 38.928647833333336, "is_disabled": 0, "lon": -77.0360635}, {"fusion_lat": 0.0, "type": "electric_bike", "name": "a3e3f3a62565c568d1a407a775380c40", "fusion_lon": 0.0, "bike_id": "a3e3f3a62565c568d1a407a775380c40", "is_reserved": 0, "rental_uris": {"android": "https://dc.lft.to/lastmile_qr_scan", "ios": "https://dc.lft.to/lastmile_qr_scan"}, "lat": 38.968168666666664, "is_disabled": 0, "lon": -77.07224783333334}, {"fusion_lat": 0.0, "type": "electric_scooter", "name": "1a0d65a709bbdd63fefcca956ee0a6fc", "fusion_lon": 0.0, "bike_id": "1a0d65a709bbdd63fefcca956ee0a6fc", "is_reserved": 0, "rental_uris": {"android": "https://dc.lft.to/lastmile_qr_scan", "ios": "https://dc.lft.to/lastmile_qr_scan"}, "lat": 38.92510433333333, "is_disabled": 0, "lon": -77.03657566666666}, {"fusion_lat": 0.0, "type": "electric_scooter", "name": "4832edbae3dab09c5ee9c12bf115a68b", "fusion_lon": 0.0, "bike_id": "4832edbae3dab09c5ee9c12bf115a68b", "is_reserved": 0, "rental_uris": {"android": "https://dc.lft.to/lastmile_qr_scan", "ios": "https://dc.lft.to/lastmile_qr_scan"}, "lat": 38.9044205, "is_disabled": 0, "lon": -76.98491283333334}, {"fusion_lat": 0.0, "type": "electric_scooter", "name": "cfffbd6405f1f9c943490a643840e683", "fusion_lon": 0.0, "bike_id": "cfffbd6405f1f9c943490a643840e683", "is_reserved": 0, "rental_uris": {"android": "https://dc.lft.to/lastmile_qr_scan", "ios": "https://dc.lft.to/lastmile_qr_scan"}, "lat": 38.887448166666665, "is_disabled": 0, "lon": -77.03160833333334}, {"fusion_lat": 0.0, "type": "electric_scooter", "name": "2be80d802be49bb18100087f7d755f16", "fusion_lon": 0.0, "bike_id": "2be80d802be49bb18100087f7d755f16", "is_reserved": 0, "rental_uris": {"android": "https://dc.lft.to/lastmile_qr_scan", "ios": "https://dc.lft.to/lastmile_qr_scan"}, "lat": 38.892259333333335, "is_disabled": 0, "lon": -77.02772633333333}, {"fusion_lat": 0.0, "type": "electric_bike", "name": "2d854713bec03c62517298d3017cf6ac", "fusion_lon": 0.0, "bike_id": "2d854713bec03c62517298d3017cf6ac", "is_reserved": 0, "rental_uris": {"android": "https://dc.lft.to/lastmile_qr_scan", "ios": "https://dc.lft.to/lastmile_qr_scan"}, "lat": 38.79515466666667, "is_disabled": 0, "lon": -77.006968}, {"fusion_lat": 0.0, "type": "electric_scooter", "name": "faf4c43dc7b90ec953ff2a4ac6dee967", "fusion_lon": 0.0, "bike_id": "faf4c43dc7b90ec953ff2a4ac6dee967", "is_reserved": 0, "rental_uris": {"android": "https://dc.lft.to/lastmile_qr_scan", "ios": "https://dc.lft.to/lastmile_qr_scan"}, "lat": 38.89231916666667, "is_disabled": 0, "lon": -77.03168516666666}, {"fusion_lat": 0.0, "type": "electric_bike", "name": "c73f1833fa5ea8d0255a83a02f90d530", "fusion_lon": 0.0, "bike_id": "c73f1833fa5ea8d0255a83a02f90d530", "is_reserved": 0, "rental_uris": {"android": "https://dc.lft.to/lastmile_qr_scan", "ios": "https://dc.lft.to/lastmile_qr_scan"}, "lat": 38.9564405, "is_disabled": 0, "lon": -77.02255833333334}, {"fusion_lat": 0.0, "type": "electric_scooter", "name": "bde7f49e7fee87ddd141bfc29e689755", "fusion_lon": 0.0, "bike_id": "bde7f49e7fee87ddd141bfc29e689755", "is_reserved": 0, "rental_uris": {"android": "https://dc.lft.to/lastmile_qr_scan", "ios": "https://dc.lft.to/lastmile_qr_scan"}, "lat": 38.917341, "is_disabled": 0, "lon": -77.03207433333333}, {"fusion_lat": 0.0, "type": "electric_scooter", "name": "3068c9f2f93fb3edfcc1c3b0bcad6e31", "fusion_lon": 0.0, "bike_id": "3068c9f2f93fb3edfcc1c3b0bcad6e31", "is_reserved": 0, "rental_uris": {"android": "https://dc.lft.to/lastmile_qr_scan", "ios": "https://dc.lft.to/lastmile_qr_scan"}, "lat": 38.90112583333333, "is_disabled": 0, "lon": -77.044783}, {"fusion_lat": 0.0, "type": "electric_scooter", "name": "8f09c77a46491b1867fe1da75bce404c", "fusion_lon": 0.0, "bike_id": "8f09c77a46491b1867fe1da75bce404c", "is_reserved": 0, "rental_uris": {"android": "https://dc.lft.to/lastmile_qr_scan", "ios": "https://dc.lft.to/lastmile_qr_scan"}, "lat": 38.897891, "is_disabled": 0, "lon": -77.0396795}, {"fusion_lat": 0.0, "type": "electric_scooter", "name": "50a7f60a6d32be9ee5be77224b288a74", "fusion_lon": 0.0, "bike_id": "50a7f60a6d32be9ee5be77224b288a74", "is_reserved": 0, "rental_uris": {"android": "https://dc.lft.to/lastmile_qr_scan", "ios": "https://dc.lft.to/lastmile_qr_scan"}, "lat": 38.893205, "is_disabled": 0, "lon": -77.01788333333333}, {"fusion_lat": 0.0, "type": "electric_scooter", "name": "3ccd2fda17fef04d430c048c2a72114e", "fusion_lon": 0.0, "bike_id": "3ccd2fda17fef04d430c048c2a72114e", "is_reserved": 0, "rental_uris": {"android": "https://dc.lft.to/lastmile_qr_scan", "ios": "https://dc.lft.to/lastmile_qr_scan"}, "lat": 38.90776783333333, "is_disabled": 0, "lon": -77.0350395}, {"fusion_lat": 0.0, "type": "electric_scooter", "name": "e7b72cfc3149603420a0b35292cc44a5", "fusion_lon": 0.0, "bike_id": "e7b72cfc3149603420a0b35292cc44a5", "is_reserved": 0, "rental_uris": {"android": "https://dc.lft.to/lastmile_qr_scan", "ios": "https://dc.lft.to/lastmile_qr_scan"}, "lat": 38.966307666666665, "is_disabled": 0, "lon": -77.01997666666666}, {"fusion_lat": 0.0, "type": "electric_scooter", "name": "8d2d6bdbe3522e56e34318452048a144", "fusion_lon": 0.0, "bike_id": "8d2d6bdbe3522e56e34318452048a144", "is_reserved": 0, "rental_uris": {"android": "https://dc.lft.to/lastmile_qr_scan", "ios": "https://dc.lft.to/lastmile_qr_scan"}, "lat": 38.89170083333333, "is_disabled": 0, "lon": -76.9518315}, {"fusion_lat": 0.0, "type": "electric_scooter", "name": "0623504ae3b868e4a3f75ccb0d70fb69", "fusion_lon": 0.0, "bike_id": "0623504ae3b868e4a3f75ccb0d70fb69", "is_reserved": 0, "rental_uris": {"android": "https://dc.lft.to/lastmile_qr_scan", "ios": "https://dc.lft.to/lastmile_qr_scan"}, "lat": 38.957321666666665, "is_disabled": 0, "lon": -77.02401416666666}, {"fusion_lat": 0.0, "type": "electric_scooter", "name": "bf11d82da6f6b5311ccc8ffc1518ec5f", "fusion_lon": 0.0, "bike_id": "bf11d82da6f6b5311ccc8ffc1518ec5f", "is_reserved": 0, "rental_uris": {"android": "https://dc.lft.to/lastmile_qr_scan", "ios": "https://dc.lft.to/lastmile_qr_scan"}, "lat": 38.90329066666666, "is_disabled": 0, "lon": -77.03851533333334}, {"fusion_lat": 0.0, "type": "electric_bike", "name": "9fbc95504500f69e4f955429ac8f3a9d", "fusion_lon": 0.0, "bike_id": "9fbc95504500f69e4f955429ac8f3a9d", "is_reserved": 0, "rental_uris": {"android": "https://dc.lft.to/lastmile_qr_scan", "ios": "https://dc.lft.to/lastmile_qr_scan"}, "lat": 38.900903, "is_disabled": 0, "lon": -77.03934133333334}, {"fusion_lat": 0.0, "type": "electric_scooter", "name": "01c88b27fc48dbd1e85f639d9741fb51", "fusion_lon": 0.0, "bike_id": "01c88b27fc48dbd1e85f639d9741fb51", "is_reserved": 0, "rental_uris": {"android": "https://dc.lft.to/lastmile_qr_scan", "ios": "https://dc.lft.to/lastmile_qr_scan"}, "lat": 38.9227405, "is_disabled": 0, "lon": -77.03405316666667}, {"fusion_lat": 0.0, "type": "electric_scooter", "name": "c0baf400f882f2d6e6337d44b25328be", "fusion_lon": 0.0, "bike_id": "c0baf400f882f2d6e6337d44b25328be", "is_reserved": 0, "rental_uris": {"android": "https://dc.lft.to/lastmile_qr_scan", "ios": "https://dc.lft.to/lastmile_qr_scan"}, "lat": 38.93187, "is_disabled": 0, "lon": -77.03655616666667}, {"fusion_lat": 0.0, "type": "electric_scooter", "name": "0659f3e1a381516971c9cb0c0e0e4a2c", "fusion_lon": 0.0, "bike_id": "0659f3e1a381516971c9cb0c0e0e4a2c", "is_reserved": 0, "rental_uris": {"android": "https://dc.lft.to/lastmile_qr_scan", "ios": "https://dc.lft.to/lastmile_qr_scan"}, "lat": 38.92947216666666, "is_disabled": 0, "lon": -77.016462}, {"fusion_lat": 0.0, "type": "electric_scooter", "name": "07a902d458e901da0ec371a3cd8c2af7", "fusion_lon": 0.0, "bike_id": "07a902d458e901da0ec371a3cd8c2af7", "is_reserved": 0, "rental_uris": {"android": "https://dc.lft.to/lastmile_qr_scan", "ios": "https://dc.lft.to/lastmile_qr_scan"}, "lat": 38.879446333333334, "is_disabled": 0, "lon": -77.00901366666666}, {"fusion_lat": 0.0, "type": "electric_scooter", "name": "fff1dc62a9ea00560027560453c7a6fe", "fusion_lon": 0.0, "bike_id": "fff1dc62a9ea00560027560453c7a6fe", "is_reserved": 0, "rental_uris": {"android": "https://dc.lft.to/lastmile_qr_scan", "ios": "https://dc.lft.to/lastmile_qr_scan"}, "lat": 38.893578, "is_disabled": 0, "lon": -77.003389}, {"fusion_lat": 0.0, "type": "electric_scooter", "name": "1f6d7b733a8c8e7f597d4e2a82ff2f6d", "fusion_lon": 0.0, "bike_id": "1f6d7b733a8c8e7f597d4e2a82ff2f6d", "is_reserved": 0, "rental_uris": {"android": "https://dc.lft.to/lastmile_qr_scan", "ios": "https://dc.lft.to/lastmile_qr_scan"}, "lat": 38.895059833333335, "is_disabled": 0, "lon": -77.04655816666667}, {"fusion_lat": 0.0, "type": "electric_bike", "name": "4bd0a91b3be10d428406c8aa2942b11a", "fusion_lon": 0.0, "bike_id": "4bd0a91b3be10d428406c8aa2942b11a", "is_reserved": 0, "rental_uris": {"android": "https://dc.lft.to/lastmile_qr_scan", "ios": "https://dc.lft.to/lastmile_qr_scan"}, "lat": 38.953316, "is_disabled": 0, "lon": -76.9543315}, {"fusion_lat": 0.0, "type": "electric_scooter", "name": "ea1dcf0679c57c5907da33f81a75e739", "fusion_lon": 0.0, "bike_id": "ea1dcf0679c57c5907da33f81a75e739", "is_reserved": 0, "rental_uris": {"android": "https://dc.lft.to/lastmile_qr_scan", "ios": "https://dc.lft.to/lastmile_qr_scan"}, "lat": 38.9068725, "is_disabled": 0, "lon": -77.03645783333333}, {"fusion_lat": 0.0, "type": "electric_scooter", "name": "eacef6156f2733f5e511a0ffcf1770b1", "fusion_lon": 0.0, "bike_id": "eacef6156f2733f5e511a0ffcf1770b1", "is_reserved": 0, "rental_uris": {"android": "https://dc.lft.to/lastmile_qr_scan", "ios": "https://dc.lft.to/lastmile_qr_scan"}, "lat": 38.90257716666667, "is_disabled": 0, "lon": -77.00738366666667}, {"fusion_lat": 0.0, "type": "electric_scooter", "name": "33f4c56777118ba7370236106a104820", "fusion_lon": 0.0, "bike_id": "33f4c56777118ba7370236106a104820", "is_reserved": 0, "rental_uris": {"android": "https://dc.lft.to/lastmile_qr_scan", "ios": "https://dc.lft.to/lastmile_qr_scan"}, "lat": 38.89227566666667, "is_disabled": 0, "lon": -77.03221033333334}, {"fusion_lat": 0.0, "type": "electric_scooter", "name": "f25104c9ac5b961e790ab068a61bc936", "fusion_lon": 0.0, "bike_id": "f25104c9ac5b961e790ab068a61bc936", "is_reserved": 0, "rental_uris": {"android": "https://dc.lft.to/lastmile_qr_scan", "ios": "https://dc.lft.to/lastmile_qr_scan"}, "lat": 38.920548, "is_disabled": 0, "lon": -77.02201283333333}, {"fusion_lat": 0.0, "type": "electric_scooter", "name": "d67cf5f41717e44414dc02ee699765d8", "fusion_lon": 0.0, "bike_id": "d67cf5f41717e44414dc02ee699765d8", "is_reserved": 0, "rental_uris": {"android": "https://dc.lft.to/lastmile_qr_scan", "ios": "https://dc.lft.to/lastmile_qr_scan"}, "lat": 38.903951166666666, "is_disabled": 0, "lon": -77.04467716666667}, {"fusion_lat": 0.0, "type": "electric_scooter", "name": "6c2ba49bfb893ba4ec24c358f9ce00c1", "fusion_lon": 0.0, "bike_id": "6c2ba49bfb893ba4ec24c358f9ce00c1", "is_reserved": 0, "rental_uris": {"android": "https://dc.lft.to/lastmile_qr_scan", "ios": "https://dc.lft.to/lastmile_qr_scan"}, "lat": 38.91335183333333, "is_disabled": 0, "lon": -77.0456705}, {"fusion_lat": 0.0, "type": "electric_scooter", "name": "0726e0cf8d94e04680011f348a6fa04d", "fusion_lon": 0.0, "bike_id": "0726e0cf8d94e04680011f348a6fa04d", "is_reserved": 0, "rental_uris": {"android": "https://dc.lft.to/lastmile_qr_scan", "ios": "https://dc.lft.to/lastmile_qr_scan"}, "lat": 38.892406666666666, "is_disabled": 0, "lon": -77.03209983333333}, {"fusion_lat": 0.0, "type": "electric_scooter", "name": "9d8cf62504f44b04f971512fbee2f77c", "fusion_lon": 0.0, "bike_id": "9d8cf62504f44b04f971512fbee2f77c", "is_reserved": 0, "rental_uris": {"android": "https://dc.lft.to/lastmile_qr_scan", "ios": "https://dc.lft.to/lastmile_qr_scan"}, "lat": 38.967829333333334, "is_disabled": 0, "lon": -77.01512266666667}, {"fusion_lat": 0.0, "type": "electric_scooter", "name": "856983aeed1628e624949f9e3f6aca0f", "fusion_lon": 0.0, "bike_id": "856983aeed1628e624949f9e3f6aca0f", "is_reserved": 0, "rental_uris": {"android": "https://dc.lft.to/lastmile_qr_scan", "ios": "https://dc.lft.to/lastmile_qr_scan"}, "lat": 38.8635735, "is_disabled": 0, "lon": -76.9906515}, {"fusion_lat": 0.0, "type": "electric_bike", "name": "3f2b6408c5bb6c626c2ff8db73d2721b", "fusion_lon": 0.0, "bike_id": "3f2b6408c5bb6c626c2ff8db73d2721b", "is_reserved": 0, "rental_uris": {"android": "https://dc.lft.to/lastmile_qr_scan", "ios": "https://dc.lft.to/lastmile_qr_scan"}, "lat": 38.855175, "is_disabled": 0, "lon": -76.98444983333333}, {"fusion_lat": 0.0, "type": "electric_scooter", "name": "28eff9009b8bbbe86195742c909e8c35", "fusion_lon": 0.0, "bike_id": "28eff9009b8bbbe86195742c909e8c35", "is_reserved": 0, "rental_uris": {"android": "https://dc.lft.to/lastmile_qr_scan", "ios": "https://dc.lft.to/lastmile_qr_scan"}, "lat": 38.91114483333333, "is_disabled": 0, "lon": -77.04261483333333}, {"fusion_lat": 0.0, "type": "electric_scooter", "name": "ab1beb292c327c8e8671c600061d3479", "fusion_lon": 0.0, "bike_id": "ab1beb292c327c8e8671c600061d3479", "is_reserved": 0, "rental_uris": {"android": "https://dc.lft.to/lastmile_qr_scan", "ios": "https://dc.lft.to/lastmile_qr_scan"}, "lat": 38.906519333333335, "is_disabled": 0, "lon": -77.03887033333334}, {"fusion_lat": 0.0, "type": "electric_scooter", "name": "93f32de755ad9f5e5d27aa708de46721", "fusion_lon": 0.0, "bike_id": "93f32de755ad9f5e5d27aa708de46721", "is_reserved": 0, "rental_uris": {"android": "https://dc.lft.to/lastmile_qr_scan", "ios": "https://dc.lft.to/lastmile_qr_scan"}, "lat": 38.903694, "is_disabled": 0, "lon": -77.03326833333334}, {"fusion_lat": 0.0, "type": "electric_scooter", "name": "afb86c297d87134f3cd2e52ffb7f8f03", "fusion_lon": 0.0, "bike_id": "afb86c297d87134f3cd2e52ffb7f8f03", "is_reserved": 0, "rental_uris": {"android": "https://dc.lft.to/lastmile_qr_scan", "ios": "https://dc.lft.to/lastmile_qr_scan"}, "lat": 38.89894366666667, "is_disabled": 0, "lon": -77.02592816666667}, {"fusion_lat": 0.0, "type": "electric_scooter", "name": "57629298b10df77bd0e5cde35a2fd373", "fusion_lon": 0.0, "bike_id": "57629298b10df77bd0e5cde35a2fd373", "is_reserved": 0, "rental_uris": {"android": "https://dc.lft.to/lastmile_qr_scan", "ios": "https://dc.lft.to/lastmile_qr_scan"}, "lat": 38.931027666666665, "is_disabled": 0, "lon": -77.03640083333333}, {"fusion_lat": 0.0, "type": "electric_scooter", "name": "34216808d9c2ac7e70898ae29c4df8c1", "fusion_lon": 0.0, "bike_id": "34216808d9c2ac7e70898ae29c4df8c1", "is_reserved": 0, "rental_uris": {"android": "https://dc.lft.to/lastmile_qr_scan", "ios": "https://dc.lft.to/lastmile_qr_scan"}, "lat": 38.892223, "is_disabled": 0, "lon": -77.02219083333334}, {"fusion_lat": 0.0, "type": "electric_scooter", "name": "974a845acfa75284d0f8a9e410b3bf86", "fusion_lon": 0.0, "bike_id": "974a845acfa75284d0f8a9e410b3bf86", "is_reserved": 0, "rental_uris": {"android": "https://dc.lft.to/lastmile_qr_scan", "ios": "https://dc.lft.to/lastmile_qr_scan"}, "lat": 38.8747285, "is_disabled": 0, "lon": -77.0051905}, {"fusion_lat": 0.0, "type": "electric_scooter", "name": "f21c3fe3ec16dc3cbbba54cd1a74c60c", "fusion_lon": 0.0, "bike_id": "f21c3fe3ec16dc3cbbba54cd1a74c60c", "is_reserved": 0, "rental_uris": {"android": "https://dc.lft.to/lastmile_qr_scan", "ios": "https://dc.lft.to/lastmile_qr_scan"}, "lat": 38.9015875, "is_disabled": 0, "lon": -77.04178066666667}, {"fusion_lat": 0.0, "type": "electric_scooter", "name": "7c8786d75e783598b86bf0755492acb9", "fusion_lon": 0.0, "bike_id": "7c8786d75e783598b86bf0755492acb9", "is_reserved": 0, "rental_uris": {"android": "https://dc.lft.to/lastmile_qr_scan", "ios": "https://dc.lft.to/lastmile_qr_scan"}, "lat": 38.903222, "is_disabled": 0, "lon": -77.04180683333334}, {"fusion_lat": 0.0, "type": "electric_scooter", "name": "4e8fc9a1229d090e1f8d864ba946a8b1", "fusion_lon": 0.0, "bike_id": "4e8fc9a1229d090e1f8d864ba946a8b1", "is_reserved": 0, "rental_uris": {"android": "https://dc.lft.to/lastmile_qr_scan", "ios": "https://dc.lft.to/lastmile_qr_scan"}, "lat": 38.90049916666667, "is_disabled": 0, "lon": -77.01685433333333}, {"fusion_lat": 0.0, "type": "electric_scooter", "name": "6d13cddca7d26a5a24dac1cda2a31444", "fusion_lon": 0.0, "bike_id": "6d13cddca7d26a5a24dac1cda2a31444", "is_reserved": 0, "rental_uris": {"android": "https://dc.lft.to/lastmile_qr_scan", "ios": "https://dc.lft.to/lastmile_qr_scan"}, "lat": 38.9057865, "is_disabled": 0, "lon": -77.0252825}, {"fusion_lat": 0.0, "type": "electric_scooter", "name": "9da4d26df17fd16c6e4a12f863edaa27", "fusion_lon": 0.0, "bike_id": "9da4d26df17fd16c6e4a12f863edaa27", "is_reserved": 0, "rental_uris": {"android": "https://dc.lft.to/lastmile_qr_scan", "ios": "https://dc.lft.to/lastmile_qr_scan"}, "lat": 38.92173433333333, "is_disabled": 0, "lon": -77.04222683333333}, {"fusion_lat": 0.0, "type": "electric_scooter", "name": "00ce6e0dbe4e93c26fd91724c59bbfec", "fusion_lon": 0.0, "bike_id": "00ce6e0dbe4e93c26fd91724c59bbfec", "is_reserved": 0, "rental_uris": {"android": "https://dc.lft.to/lastmile_qr_scan", "ios": "https://dc.lft.to/lastmile_qr_scan"}, "lat": 38.897245833333336, "is_disabled": 0, "lon": -77.01374766666666}, {"fusion_lat": 0.0, "type": "electric_scooter", "name": "5a6d0bece1cb660abe2385f3ce123e96", "fusion_lon": 0.0, "bike_id": "5a6d0bece1cb660abe2385f3ce123e96", "is_reserved": 0, "rental_uris": {"android": "https://dc.lft.to/lastmile_qr_scan", "ios": "https://dc.lft.to/lastmile_qr_scan"}, "lat": 38.875484, "is_disabled": 0, "lon": -77.0060315}, {"fusion_lat": 0.0, "type": "electric_bike", "name": "31d205c6ffee92bab061edc5360c8c61", "fusion_lon": 0.0, "bike_id": "31d205c6ffee92bab061edc5360c8c61", "is_reserved": 0, "rental_uris": {"android": "https://dc.lft.to/lastmile_qr_scan", "ios": "https://dc.lft.to/lastmile_qr_scan"}, "lat": 38.9234115, "is_disabled": 0, "lon": -76.97145983333333}, {"fusion_lat": 0.0, "type": "electric_scooter", "name": "45b44fba21d6c64820c1dff4bb8ae207", "fusion_lon": 0.0, "bike_id": "45b44fba21d6c64820c1dff4bb8ae207", "is_reserved": 0, "rental_uris": {"android": "https://dc.lft.to/lastmile_qr_scan", "ios": "https://dc.lft.to/lastmile_qr_scan"}, "lat": 38.92375283333333, "is_disabled": 0, "lon": -77.03022483333334}, {"fusion_lat": 0.0, "type": "electric_bike", "name": "51643038f304b560674fbe77045359f2", "fusion_lon": 0.0, "bike_id": "51643038f304b560674fbe77045359f2", "is_reserved": 0, "rental_uris": {"android": "https://dc.lft.to/lastmile_qr_scan", "ios": "https://dc.lft.to/lastmile_qr_scan"}, "lat": 38.983673833333334, "is_disabled": 0, "lon": -76.97217883333333}, {"fusion_lat": 0.0, "type": "electric_scooter", "name": "fe0b6522d15dd18bc6a55ce7d8f6f9dc", "fusion_lon": 0.0, "bike_id": "fe0b6522d15dd18bc6a55ce7d8f6f9dc", "is_reserved": 0, "rental_uris": {"android": "https://dc.lft.to/lastmile_qr_scan", "ios": "https://dc.lft.to/lastmile_qr_scan"}, "lat": 38.892259, "is_disabled": 0, "lon": -77.028052}, {"fusion_lat": 0.0, "type": "electric_scooter", "name": "efd00c65b00cca397982d7ce8ae4931b", "fusion_lon": 0.0, "bike_id": "efd00c65b00cca397982d7ce8ae4931b", "is_reserved": 0, "rental_uris": {"android": "https://dc.lft.to/lastmile_qr_scan", "ios": "https://dc.lft.to/lastmile_qr_scan"}, "lat": 38.9149305, "is_disabled": 0, "lon": -77.0185825}, {"fusion_lat": 0.0, "type": "electric_scooter", "name": "d3fc2c8ebc6114d0b82b910c20aadc8b", "fusion_lon": 0.0, "bike_id": "d3fc2c8ebc6114d0b82b910c20aadc8b", "is_reserved": 0, "rental_uris": {"android": "https://dc.lft.to/lastmile_qr_scan", "ios": "https://dc.lft.to/lastmile_qr_scan"}, "lat": 38.89962883333333, "is_disabled": 0, "lon": -76.97531783333334}, {"fusion_lat": 0.0, "type": "electric_scooter", "name": "59859e0f6a3d6a593ff38e1a3e23e6cb", "fusion_lon": 0.0, "bike_id": "59859e0f6a3d6a593ff38e1a3e23e6cb", "is_reserved": 0, "rental_uris": {"android": "https://dc.lft.to/lastmile_qr_scan", "ios": "https://dc.lft.to/lastmile_qr_scan"}, "lat": 38.866606833333336, "is_disabled": 0, "lon": -76.988817}, {"fusion_lat": 0.0, "type": "electric_scooter", "name": "ea76f999a69e7f7151f22d811e90fc27", "fusion_lon": 0.0, "bike_id": "ea76f999a69e7f7151f22d811e90fc27", "is_reserved": 0, "rental_uris": {"android": "https://dc.lft.to/lastmile_qr_scan", "ios": "https://dc.lft.to/lastmile_qr_scan"}, "lat": 38.891935833333335, "is_disabled": 0, "lon": -76.98859216666666}, {"fusion_lat": 0.0, "type": "electric_scooter", "name": "805085b01b03b4233c48e0c9b27e6241", "fusion_lon": 0.0, "bike_id": "805085b01b03b4233c48e0c9b27e6241", "is_reserved": 0, "rental_uris": {"android": "https://dc.lft.to/lastmile_qr_scan", "ios": "https://dc.lft.to/lastmile_qr_scan"}, "lat": 38.95747516666667, "is_disabled": 0, "lon": -77.020672}, {"fusion_lat": 0.0, "type": "electric_scooter", "name": "26f544f885968e9b0cb918052778144b", "fusion_lon": 0.0, "bike_id": "26f544f885968e9b0cb918052778144b", "is_reserved": 0, "rental_uris": {"android": "https://dc.lft.to/lastmile_qr_scan", "ios": "https://dc.lft.to/lastmile_qr_scan"}, "lat": 38.8745095, "is_disabled": 0, "lon": -77.00069633333334}, {"fusion_lat": 0.0, "type": "electric_scooter", "name": "0e7c2ff26e1fadd897dc3bae8c8f138e", "fusion_lon": 0.0, "bike_id": "0e7c2ff26e1fadd897dc3bae8c8f138e", "is_reserved": 0, "rental_uris": {"android": "https://dc.lft.to/lastmile_qr_scan", "ios": "https://dc.lft.to/lastmile_qr_scan"}, "lat": 38.92445716666667, "is_disabled": 0, "lon": -77.03330633333333}, {"fusion_lat": 0.0, "type": "electric_scooter", "name": "70d1526b948b9dcb10f5436185ff722c", "fusion_lon": 0.0, "bike_id": "70d1526b948b9dcb10f5436185ff722c", "is_reserved": 0, "rental_uris": {"android": "https://dc.lft.to/lastmile_qr_scan", "ios": "https://dc.lft.to/lastmile_qr_scan"}, "lat": 38.870746833333335, "is_disabled": 0, "lon": -76.98908133333333}, {"fusion_lat": 0.0, "type": "electric_scooter", "name": "a2c88eb2fb2e51473894fe9d332dbca3", "fusion_lon": 0.0, "bike_id": "a2c88eb2fb2e51473894fe9d332dbca3", "is_reserved": 0, "rental_uris": {"android": "https://dc.lft.to/lastmile_qr_scan", "ios": "https://dc.lft.to/lastmile_qr_scan"}, "lat": 38.914809166666664, "is_disabled": 0, "lon": -77.02584616666667}, {"fusion_lat": 0.0, "type": "electric_scooter", "name": "579b97ac7c100549d365f8bb2e6eea32", "fusion_lon": 0.0, "bike_id": "579b97ac7c100549d365f8bb2e6eea32", "is_reserved": 0, "rental_uris": {"android": "https://dc.lft.to/lastmile_qr_scan", "ios": "https://dc.lft.to/lastmile_qr_scan"}, "lat": 38.935896, "is_disabled": 0, "lon": -77.0585215}, {"fusion_lat": 0.0, "type": "electric_scooter", "name": "89a9db1437eb2fcdb8ad3e10277e265d", "fusion_lon": 0.0, "bike_id": "89a9db1437eb2fcdb8ad3e10277e265d", "is_reserved": 0, "rental_uris": {"android": "https://dc.lft.to/lastmile_qr_scan", "ios": "https://dc.lft.to/lastmile_qr_scan"}, "lat": 38.97367783333333, "is_disabled": 0, "lon": -77.01864133333333}, {"fusion_lat": 0.0, "type": "electric_scooter", "name": "d71b4f9fb335b2761722ecb3a9009fe3", "fusion_lon": 0.0, "bike_id": "d71b4f9fb335b2761722ecb3a9009fe3", "is_reserved": 0, "rental_uris": {"android": "https://dc.lft.to/lastmile_qr_scan", "ios": "https://dc.lft.to/lastmile_qr_scan"}, "lat": 38.892286666666664, "is_disabled": 0, "lon": -77.02804716666667}, {"fusion_lat": 0.0, "type": "electric_scooter", "name": "fbf741b8764e5f2c19a93f34107aee40", "fusion_lon": 0.0, "bike_id": "fbf741b8764e5f2c19a93f34107aee40", "is_reserved": 0, "rental_uris": {"android": "https://dc.lft.to/lastmile_qr_scan", "ios": "https://dc.lft.to/lastmile_qr_scan"}, "lat": 38.9040095, "is_disabled": 0, "lon": -77.04350466666666}, {"fusion_lat": 0.0, "type": "electric_scooter", "name": "9afd8cd80fd7d75e80555c75b85ea60e", "fusion_lon": 0.0, "bike_id": "9afd8cd80fd7d75e80555c75b85ea60e", "is_reserved": 0, "rental_uris": {"android": "https://dc.lft.to/lastmile_qr_scan", "ios": "https://dc.lft.to/lastmile_qr_scan"}, "lat": 38.907888166666666, "is_disabled": 0, "lon": -76.99983883333333}, {"fusion_lat": 0.0, "type": "electric_scooter", "name": "dbbf1f3c5b5580a9ca29b8c0076a9e32", "fusion_lon": 0.0, "bike_id": "dbbf1f3c5b5580a9ca29b8c0076a9e32", "is_reserved": 0, "rental_uris": {"android": "https://dc.lft.to/lastmile_qr_scan", "ios": "https://dc.lft.to/lastmile_qr_scan"}, "lat": 38.9081305, "is_disabled": 0, "lon": -77.03854666666666}, {"fusion_lat": 0.0, "type": "electric_scooter", "name": "aa49cbd767adbd0cb9b1f92a67cad8af", "fusion_lon": 0.0, "bike_id": "aa49cbd767adbd0cb9b1f92a67cad8af", "is_reserved": 0, "rental_uris": {"android": "https://dc.lft.to/lastmile_qr_scan", "ios": "https://dc.lft.to/lastmile_qr_scan"}, "lat": 38.89870483333333, "is_disabled": 0, "lon": -77.01382633333333}, {"fusion_lat": 0.0, "type": "electric_scooter", "name": "fe6f217dcbd55eee1ff9f7ee3723741d", "fusion_lon": 0.0, "bike_id": "fe6f217dcbd55eee1ff9f7ee3723741d", "is_reserved": 0, "rental_uris": {"android": "https://dc.lft.to/lastmile_qr_scan", "ios": "https://dc.lft.to/lastmile_qr_scan"}, "lat": 38.89976983333333, "is_disabled": 0, "lon": -77.01947516666667}, {"fusion_lat": 0.0, "type": "electric_scooter", "name": "75781d85a67ce20cb8068f4eab3025aa", "fusion_lon": 0.0, "bike_id": "75781d85a67ce20cb8068f4eab3025aa", "is_reserved": 0, "rental_uris": {"android": "https://dc.lft.to/lastmile_qr_scan", "ios": "https://dc.lft.to/lastmile_qr_scan"}, "lat": 38.9290775, "is_disabled": 0, "lon": -77.06263066666666}, {"fusion_lat": 0.0, "type": "electric_scooter", "name": "e2450ccd321db0fde8f4519527380c1e", "fusion_lon": 0.0, "bike_id": "e2450ccd321db0fde8f4519527380c1e", "is_reserved": 0, "rental_uris": {"android": "https://dc.lft.to/lastmile_qr_scan", "ios": "https://dc.lft.to/lastmile_qr_scan"}, "lat": 38.920314, "is_disabled": 0, "lon": -77.0111845}, {"fusion_lat": 0.0, "type": "electric_scooter", "name": "bc0ef684682e1e15684d8dedd91813f1", "fusion_lon": 0.0, "bike_id": "bc0ef684682e1e15684d8dedd91813f1", "is_reserved": 0, "rental_uris": {"android": "https://dc.lft.to/lastmile_qr_scan", "ios": "https://dc.lft.to/lastmile_qr_scan"}, "lat": 38.9083445, "is_disabled": 0, "lon": -77.04356483333333}, {"fusion_lat": 0.0, "type": "electric_scooter", "name": "6deed7c720d9d914331111d1eb106b56", "fusion_lon": 0.0, "bike_id": "6deed7c720d9d914331111d1eb106b56", "is_reserved": 0, "rental_uris": {"android": "https://dc.lft.to/lastmile_qr_scan", "ios": "https://dc.lft.to/lastmile_qr_scan"}, "lat": 38.91688216666667, "is_disabled": 0, "lon": -77.032334}, {"fusion_lat": 0.0, "type": "electric_scooter", "name": "c8febcb733738f02cba53a4d3ee83160", "fusion_lon": 0.0, "bike_id": "c8febcb733738f02cba53a4d3ee83160", "is_reserved": 0, "rental_uris": {"android": "https://dc.lft.to/lastmile_qr_scan", "ios": "https://dc.lft.to/lastmile_qr_scan"}, "lat": 38.928012, "is_disabled": 0, "lon": -77.02477833333333}, {"fusion_lat": 0.0, "type": "electric_scooter", "name": "e754296ec396db42e57c8597f11eee7f", "fusion_lon": 0.0, "bike_id": "e754296ec396db42e57c8597f11eee7f", "is_reserved": 0, "rental_uris": {"android": "https://dc.lft.to/lastmile_qr_scan", "ios": "https://dc.lft.to/lastmile_qr_scan"}, "lat": 38.89355883333333, "is_disabled": 0, "lon": -77.0033215}, {"fusion_lat": 0.0, "type": "electric_scooter", "name": "be283fec24a3b2e32729774d7c6efb22", "fusion_lon": 0.0, "bike_id": "be283fec24a3b2e32729774d7c6efb22", "is_reserved": 0, "rental_uris": {"android": "https://dc.lft.to/lastmile_qr_scan", "ios": "https://dc.lft.to/lastmile_qr_scan"}, "lat": 38.89607783333334, "is_disabled": 0, "lon": -77.0460005}, {"fusion_lat": 0.0, "type": "electric_scooter", "name": "88fbcf7a6ccbbe8a1b15167881016f5b", "fusion_lon": 0.0, "bike_id": "88fbcf7a6ccbbe8a1b15167881016f5b", "is_reserved": 0, "rental_uris": {"android": "https://dc.lft.to/lastmile_qr_scan", "ios": "https://dc.lft.to/lastmile_qr_scan"}, "lat": 38.919141833333335, "is_disabled": 0, "lon": -77.048015}, {"fusion_lat": 0.0, "type": "electric_scooter", "name": "96af08a02bd755f96793fd8aefb66bc7", "fusion_lon": 0.0, "bike_id": "96af08a02bd755f96793fd8aefb66bc7", "is_reserved": 0, "rental_uris": {"android": "https://dc.lft.to/lastmile_qr_scan", "ios": "https://dc.lft.to/lastmile_qr_scan"}, "lat": 38.8811825, "is_disabled": 0, "lon": -77.01671666666667}, {"fusion_lat": 0.0, "type": "electric_scooter", "name": "267fccccbe6ee5ecaf3a19123eb6bbda", "fusion_lon": 0.0, "bike_id": "267fccccbe6ee5ecaf3a19123eb6bbda", "is_reserved": 0, "rental_uris": {"android": "https://dc.lft.to/lastmile_qr_scan", "ios": "https://dc.lft.to/lastmile_qr_scan"}, "lat": 38.89549066666667, "is_disabled": 0, "lon": -77.05661633333334}, {"fusion_lat": 0.0, "type": "electric_scooter", "name": "eea0c3b964c9368409c1950950edc0c8", "fusion_lon": 0.0, "bike_id": "eea0c3b964c9368409c1950950edc0c8", "is_reserved": 0, "rental_uris": {"android": "https://dc.lft.to/lastmile_qr_scan", "ios": "https://dc.lft.to/lastmile_qr_scan"}, "lat": 38.9028555, "is_disabled": 0, "lon": -77.03442616666666}, {"fusion_lat": 0.0, "type": "electric_scooter", "name": "5ed2bada46a939b0710fdf64c5350b84", "fusion_lon": 0.0, "bike_id": "5ed2bada46a939b0710fdf64c5350b84", "is_reserved": 0, "rental_uris": {"android": "https://dc.lft.to/lastmile_qr_scan", "ios": "https://dc.lft.to/lastmile_qr_scan"}, "lat": 38.9274875, "is_disabled": 0, "lon": -77.03631583333333}, {"fusion_lat": 0.0, "type": "electric_scooter", "name": "293b1258c5baf023b79e3abf8d038e54", "fusion_lon": 0.0, "bike_id": "293b1258c5baf023b79e3abf8d038e54", "is_reserved": 0, "rental_uris": {"android": "https://dc.lft.to/lastmile_qr_scan", "ios": "https://dc.lft.to/lastmile_qr_scan"}, "lat": 38.915191666666665, "is_disabled": 0, "lon": -77.04336416666666}, {"fusion_lat": 0.0, "type": "electric_bike", "name": "077648b2325913a8807d45e531fe7d70", "fusion_lon": 0.0, "bike_id": "077648b2325913a8807d45e531fe7d70", "is_reserved": 0, "rental_uris": {"android": "https://dc.lft.to/lastmile_qr_scan", "ios": "https://dc.lft.to/lastmile_qr_scan"}, "lat": 38.82380166666667, "is_disabled": 0, "lon": -77.0022695}, {"fusion_lat": 0.0, "type": "electric_bike", "name": "cecadf02178f6856a35dfe21d7bcb69c", "fusion_lon": 0.0, "bike_id": "cecadf02178f6856a35dfe21d7bcb69c", "is_reserved": 0, "rental_uris": {"android": "https://dc.lft.to/lastmile_qr_scan", "ios": "https://dc.lft.to/lastmile_qr_scan"}, "lat": 38.85274166666667, "is_disabled": 0, "lon": -76.995805}, {"fusion_lat": 0.0, "type": "electric_scooter", "name": "7d0aa5421c874fb0f97b26b6563386e5", "fusion_lon": 0.0, "bike_id": "7d0aa5421c874fb0f97b26b6563386e5", "is_reserved": 0, "rental_uris": {"android": "https://dc.lft.to/lastmile_qr_scan", "ios": "https://dc.lft.to/lastmile_qr_scan"}, "lat": 38.896087, "is_disabled": 0, "lon": -77.04976566666667}, {"fusion_lat": 0.0, "type": "electric_scooter", "name": "864d67aaadf1c7a11f29e4a33b2f9816", "fusion_lon": 0.0, "bike_id": "864d67aaadf1c7a11f29e4a33b2f9816", "is_reserved": 0, "rental_uris": {"android": "https://dc.lft.to/lastmile_qr_scan", "ios": "https://dc.lft.to/lastmile_qr_scan"}, "lat": 38.90732466666667, "is_disabled": 0, "lon": -77.04512283333334}, {"fusion_lat": 0.0, "type": "electric_bike", "name": "1c7017addd32098fdcfe12dcaf4924b4", "fusion_lon": 0.0, "bike_id": "1c7017addd32098fdcfe12dcaf4924b4", "is_reserved": 0, "rental_uris": {"android": "https://dc.lft.to/lastmile_qr_scan", "ios": "https://dc.lft.to/lastmile_qr_scan"}, "lat": 38.962142166666666, "is_disabled": 0, "lon": -76.993802}, {"fusion_lat": 0.0, "type": "electric_scooter", "name": "85b67732f3c1832d8f160531eab988d5", "fusion_lon": 0.0, "bike_id": "85b67732f3c1832d8f160531eab988d5", "is_reserved": 0, "rental_uris": {"android": "https://dc.lft.to/lastmile_qr_scan", "ios": "https://dc.lft.to/lastmile_qr_scan"}, "lat": 38.950706833333335, "is_disabled": 0, "lon": -76.995637}, {"fusion_lat": 0.0, "type": "electric_scooter", "name": "076982ca810342d0664f4c78b5ed2153", "fusion_lon": 0.0, "bike_id": "076982ca810342d0664f4c78b5ed2153", "is_reserved": 0, "rental_uris": {"android": "https://dc.lft.to/lastmile_qr_scan", "ios": "https://dc.lft.to/lastmile_qr_scan"}, "lat": 38.908294166666664, "is_disabled": 0, "lon": -77.07433216666666}, {"fusion_lat": 0.0, "type": "electric_scooter", "name": "4e62a29c0176cf8263fd9accc6114834", "fusion_lon": 0.0, "bike_id": "4e62a29c0176cf8263fd9accc6114834", "is_reserved": 0, "rental_uris": {"android": "https://dc.lft.to/lastmile_qr_scan", "ios": "https://dc.lft.to/lastmile_qr_scan"}, "lat": 38.91851116666667, "is_disabled": 0, "lon": -76.96551516666666}, {"fusion_lat": 0.0, "type": "electric_scooter", "name": "cf124880457e1fbd6cecf2063fe1ab8e", "fusion_lon": 0.0, "bike_id": "cf124880457e1fbd6cecf2063fe1ab8e", "is_reserved": 0, "rental_uris": {"android": "https://dc.lft.to/lastmile_qr_scan", "ios": "https://dc.lft.to/lastmile_qr_scan"}, "lat": 38.919852166666665, "is_disabled": 0, "lon": -77.02193483333333}, {"fusion_lat": 0.0, "type": "electric_scooter", "name": "80846ba3377cc4772cf8510ed6f4f653", "fusion_lon": 0.0, "bike_id": "80846ba3377cc4772cf8510ed6f4f653", "is_reserved": 0, "rental_uris": {"android": "https://dc.lft.to/lastmile_qr_scan", "ios": "https://dc.lft.to/lastmile_qr_scan"}, "lat": 38.873176, "is_disabled": 0, "lon": -77.00576816666667}, {"fusion_lat": 0.0, "type": "electric_scooter", "name": "002f3763cc3577abc45535a1351bca21", "fusion_lon": 0.0, "bike_id": "002f3763cc3577abc45535a1351bca21", "is_reserved": 0, "rental_uris": {"android": "https://dc.lft.to/lastmile_qr_scan", "ios": "https://dc.lft.to/lastmile_qr_scan"}, "lat": 38.86268166666667, "is_disabled": 0, "lon": -76.99467433333334}, {"fusion_lat": 0.0, "type": "electric_scooter", "name": "42ec3c48d8368187dd1eab4f520accc6", "fusion_lon": 0.0, "bike_id": "42ec3c48d8368187dd1eab4f520accc6", "is_reserved": 0, "rental_uris": {"android": "https://dc.lft.to/lastmile_qr_scan", "ios": "https://dc.lft.to/lastmile_qr_scan"}, "lat": 38.888157, "is_disabled": 0, "lon": -76.9334565}, {"fusion_lat": 0.0, "type": "electric_scooter", "name": "87d6d14d66b58cdd88fc7299cc6c186c", "fusion_lon": 0.0, "bike_id": "87d6d14d66b58cdd88fc7299cc6c186c", "is_reserved": 0, "rental_uris": {"android": "https://dc.lft.to/lastmile_qr_scan", "ios": "https://dc.lft.to/lastmile_qr_scan"}, "lat": 38.893364, "is_disabled": 0, "lon": -77.0120775}, {"fusion_lat": 0.0, "type": "electric_scooter", "name": "7c51ea1e2f077aabe3cb3121232342f8", "fusion_lon": 0.0, "bike_id": "7c51ea1e2f077aabe3cb3121232342f8", "is_reserved": 0, "rental_uris": {"android": "https://dc.lft.to/lastmile_qr_scan", "ios": "https://dc.lft.to/lastmile_qr_scan"}, "lat": 38.8924075, "is_disabled": 0, "lon": -77.03181933333333}, {"fusion_lat": 0.0, "type": "electric_scooter", "name": "85c5cb7419e9342bbc59c2f88a2150f4", "fusion_lon": 0.0, "bike_id": "85c5cb7419e9342bbc59c2f88a2150f4", "is_reserved": 0, "rental_uris": {"android": "https://dc.lft.to/lastmile_qr_scan", "ios": "https://dc.lft.to/lastmile_qr_scan"}, "lat": 38.897654333333335, "is_disabled": 0, "lon": -77.02658266666667}, {"fusion_lat": 0.0, "type": "electric_scooter", "name": "4abe8db3402388525b46168c4f7f4020", "fusion_lon": 0.0, "bike_id": "4abe8db3402388525b46168c4f7f4020", "is_reserved": 0, "rental_uris": {"android": "https://dc.lft.to/lastmile_qr_scan", "ios": "https://dc.lft.to/lastmile_qr_scan"}, "lat": 38.88732866666667, "is_disabled": 0, "lon": -77.02829683333333}, {"fusion_lat": 0.0, "type": "electric_scooter", "name": "588558231534de33d93a9f6455d330ec", "fusion_lon": 0.0, "bike_id": "588558231534de33d93a9f6455d330ec", "is_reserved": 0, "rental_uris": {"android": "https://dc.lft.to/lastmile_qr_scan", "ios": "https://dc.lft.to/lastmile_qr_scan"}, "lat": 38.91512183333333, "is_disabled": 0, "lon": -77.02174483333333}, {"fusion_lat": 0.0, "type": "electric_scooter", "name": "d4408cda2fd143cd96b6d162fa98f20c", "fusion_lon": 0.0, "bike_id": "d4408cda2fd143cd96b6d162fa98f20c", "is_reserved": 0, "rental_uris": {"android": "https://dc.lft.to/lastmile_qr_scan", "ios": "https://dc.lft.to/lastmile_qr_scan"}, "lat": 38.9026505, "is_disabled": 0, "lon": -77.02809783333333}, {"fusion_lat": 0.0, "type": "electric_scooter", "name": "7762b8111dd8872b075d5137b43159b3", "fusion_lon": 0.0, "bike_id": "7762b8111dd8872b075d5137b43159b3", "is_reserved": 0, "rental_uris": {"android": "https://dc.lft.to/lastmile_qr_scan", "ios": "https://dc.lft.to/lastmile_qr_scan"}, "lat": 38.90291083333334, "is_disabled": 0, "lon": -77.02205066666667}, {"fusion_lat": 0.0, "type": "electric_scooter", "name": "0fa11a7e239f7ef7e8fdab943617085d", "fusion_lon": 0.0, "bike_id": "0fa11a7e239f7ef7e8fdab943617085d", "is_reserved": 0, "rental_uris": {"android": "https://dc.lft.to/lastmile_qr_scan", "ios": "https://dc.lft.to/lastmile_qr_scan"}, "lat": 38.917109833333335, "is_disabled": 0, "lon": -77.03515066666667}, {"fusion_lat": 0.0, "type": "electric_scooter", "name": "ad139003bbcab0862b51101635056ca6", "fusion_lon": 0.0, "bike_id": "ad139003bbcab0862b51101635056ca6", "is_reserved": 0, "rental_uris": {"android": "https://dc.lft.to/lastmile_qr_scan", "ios": "https://dc.lft.to/lastmile_qr_scan"}, "lat": 38.88023966666667, "is_disabled": 0, "lon": -77.02653333333333}, {"fusion_lat": 0.0, "type": "electric_scooter", "name": "0b59f3778b44f1fb143651f4618f57e7", "fusion_lon": 0.0, "bike_id": "0b59f3778b44f1fb143651f4618f57e7", "is_reserved": 0, "rental_uris": {"android": "https://dc.lft.to/lastmile_qr_scan", "ios": "https://dc.lft.to/lastmile_qr_scan"}, "lat": 38.910440333333334, "is_disabled": 0, "lon": -77.03683033333333}, {"fusion_lat": 0.0, "type": "electric_scooter", "name": "924d46501dfeb3aa7b8f7baa3d473212", "fusion_lon": 0.0, "bike_id": "924d46501dfeb3aa7b8f7baa3d473212", "is_reserved": 0, "rental_uris": {"android": "https://dc.lft.to/lastmile_qr_scan", "ios": "https://dc.lft.to/lastmile_qr_scan"}, "lat": 38.89235466666667, "is_disabled": 0, "lon": -77.03186716666667}, {"fusion_lat": 0.0, "type": "electric_scooter", "name": "d58566e6be640ada4da2c3018b218686", "fusion_lon": 0.0, "bike_id": "d58566e6be640ada4da2c3018b218686", "is_reserved": 0, "rental_uris": {"android": "https://dc.lft.to/lastmile_qr_scan", "ios": "https://dc.lft.to/lastmile_qr_scan"}, "lat": 38.905118, "is_disabled": 0, "lon": -77.04336116666667}, {"fusion_lat": 0.0, "type": "electric_scooter", "name": "5eda71b63bc18eeef8dc8216fff1b401", "fusion_lon": 0.0, "bike_id": "5eda71b63bc18eeef8dc8216fff1b401", "is_reserved": 0, "rental_uris": {"android": "https://dc.lft.to/lastmile_qr_scan", "ios": "https://dc.lft.to/lastmile_qr_scan"}, "lat": 38.929088666666665, "is_disabled": 0, "lon": -77.03756133333333}, {"fusion_lat": 0.0, "type": "electric_scooter", "name": "6c87531045e286495ead2b60f4114760", "fusion_lon": 0.0, "bike_id": "6c87531045e286495ead2b60f4114760", "is_reserved": 0, "rental_uris": {"android": "https://dc.lft.to/lastmile_qr_scan", "ios": "https://dc.lft.to/lastmile_qr_scan"}, "lat": 38.892293, "is_disabled": 0, "lon": -77.02615433333334}, {"fusion_lat": 0.0, "type": "electric_scooter", "name": "cb00e3e09be3f65636c1b35974ab666c", "fusion_lon": 0.0, "bike_id": "cb00e3e09be3f65636c1b35974ab666c", "is_reserved": 0, "rental_uris": {"android": "https://dc.lft.to/lastmile_qr_scan", "ios": "https://dc.lft.to/lastmile_qr_scan"}, "lat": 38.9003905, "is_disabled": 0, "lon": -77.00200916666667}, {"fusion_lat": 0.0, "type": "electric_scooter", "name": "a1044ef74857a442ee6783fbe86b528a", "fusion_lon": 0.0, "bike_id": "a1044ef74857a442ee6783fbe86b528a", "is_reserved": 0, "rental_uris": {"android": "https://dc.lft.to/lastmile_qr_scan", "ios": "https://dc.lft.to/lastmile_qr_scan"}, "lat": 38.923405, "is_disabled": 0, "lon": -77.02150133333333}, {"fusion_lat": 0.0, "type": "electric_scooter", "name": "03097a561b700fcc9d56be34536e8936", "fusion_lon": 0.0, "bike_id": "03097a561b700fcc9d56be34536e8936", "is_reserved": 0, "rental_uris": {"android": "https://dc.lft.to/lastmile_qr_scan", "ios": "https://dc.lft.to/lastmile_qr_scan"}, "lat": 38.93766133333333, "is_disabled": 0, "lon": -77.02197033333333}, {"fusion_lat": 0.0, "type": "electric_scooter", "name": "0de148f70fa83026705f394f959a5d7c", "fusion_lon": 0.0, "bike_id": "0de148f70fa83026705f394f959a5d7c", "is_reserved": 0, "rental_uris": {"android": "https://dc.lft.to/lastmile_qr_scan", "ios": "https://dc.lft.to/lastmile_qr_scan"}, "lat": 38.923202333333336, "is_disabled": 0, "lon": -77.03415183333334}, {"fusion_lat": 0.0, "type": "electric_scooter", "name": "f54d1886ff2aa62a76111c83aa56eaac", "fusion_lon": 0.0, "bike_id": "f54d1886ff2aa62a76111c83aa56eaac", "is_reserved": 0, "rental_uris": {"android": "https://dc.lft.to/lastmile_qr_scan", "ios": "https://dc.lft.to/lastmile_qr_scan"}, "lat": 38.912701, "is_disabled": 0, "lon": -77.03821833333333}, {"fusion_lat": 0.0, "type": "electric_bike", "name": "8bbeea0b9b46aa637833379ee806bccf", "fusion_lon": 0.0, "bike_id": "8bbeea0b9b46aa637833379ee806bccf", "is_reserved": 0, "rental_uris": {"android": "https://dc.lft.to/lastmile_qr_scan", "ios": "https://dc.lft.to/lastmile_qr_scan"}, "lat": 38.887201833333336, "is_disabled": 0, "lon": -77.13305283333334}, {"fusion_lat": 0.0, "type": "electric_scooter", "name": "dbcf3eae8d11271b12b4009fed2a679a", "fusion_lon": 0.0, "bike_id": "dbcf3eae8d11271b12b4009fed2a679a", "is_reserved": 0, "rental_uris": {"android": "https://dc.lft.to/lastmile_qr_scan", "ios": "https://dc.lft.to/lastmile_qr_scan"}, "lat": 38.9008455, "is_disabled": 0, "lon": -77.02543816666666}, {"fusion_lat": 0.0, "type": "electric_scooter", "name": "2a8a4fc95c44de918417ad07d60a9193", "fusion_lon": 0.0, "bike_id": "2a8a4fc95c44de918417ad07d60a9193", "is_reserved": 0, "rental_uris": {"android": "https://dc.lft.to/lastmile_qr_scan", "ios": "https://dc.lft.to/lastmile_qr_scan"}, "lat": 38.910227, "is_disabled": 0, "lon": -77.06490983333333}, {"fusion_lat": 0.0, "type": "electric_scooter", "name": "2bd0622d0dda9115095bc8cc5181f94a", "fusion_lon": 0.0, "bike_id": "2bd0622d0dda9115095bc8cc5181f94a", "is_reserved": 0, "rental_uris": {"android": "https://dc.lft.to/lastmile_qr_scan", "ios": "https://dc.lft.to/lastmile_qr_scan"}, "lat": 38.8877825, "is_disabled": 0, "lon": -76.9552565}, {"fusion_lat": 0.0, "type": "electric_scooter", "name": "7d1186a0d8d4732f209a7f665faaeb4a", "fusion_lon": 0.0, "bike_id": "7d1186a0d8d4732f209a7f665faaeb4a", "is_reserved": 0, "rental_uris": {"android": "https://dc.lft.to/lastmile_qr_scan", "ios": "https://dc.lft.to/lastmile_qr_scan"}, "lat": 38.93114816666667, "is_disabled": 0, "lon": -77.03807566666667}, {"fusion_lat": 0.0, "type": "electric_scooter", "name": "bb64dd46f4280c38f5198eca48ee0921", "fusion_lon": 0.0, "bike_id": "bb64dd46f4280c38f5198eca48ee0921", "is_reserved": 0, "rental_uris": {"android": "https://dc.lft.to/lastmile_qr_scan", "ios": "https://dc.lft.to/lastmile_qr_scan"}, "lat": 38.92674, "is_disabled": 0, "lon": -77.0147365}, {"fusion_lat": 0.0, "type": "electric_scooter", "name": "1667aa7e80c289d6d375bf4b5258d4a9", "fusion_lon": 0.0, "bike_id": "1667aa7e80c289d6d375bf4b5258d4a9", "is_reserved": 0, "rental_uris": {"android": "https://dc.lft.to/lastmile_qr_scan", "ios": "https://dc.lft.to/lastmile_qr_scan"}, "lat": 38.843159166666666, "is_disabled": 0, "lon": -76.999332}, {"fusion_lat": 0.0, "type": "electric_scooter", "name": "cca70f7cd11d97f49aee224665381605", "fusion_lon": 0.0, "bike_id": "cca70f7cd11d97f49aee224665381605", "is_reserved": 0, "rental_uris": {"android": "https://dc.lft.to/lastmile_qr_scan", "ios": "https://dc.lft.to/lastmile_qr_scan"}, "lat": 38.91052, "is_disabled": 0, "lon": -77.043469}, {"fusion_lat": 0.0, "type": "electric_bike", "name": "c879eb3047e2e511155fce4c5cada23a", "fusion_lon": 0.0, "bike_id": "c879eb3047e2e511155fce4c5cada23a", "is_reserved": 0, "rental_uris": {"android": "https://dc.lft.to/lastmile_qr_scan", "ios": "https://dc.lft.to/lastmile_qr_scan"}, "lat": 38.97841366666667, "is_disabled": 0, "lon": -76.92887466666667}, {"fusion_lat": 0.0, "type": "electric_scooter", "name": "21ef820d36a97b09a57b25f3fab88859", "fusion_lon": 0.0, "bike_id": "21ef820d36a97b09a57b25f3fab88859", "is_reserved": 0, "rental_uris": {"android": "https://dc.lft.to/lastmile_qr_scan", "ios": "https://dc.lft.to/lastmile_qr_scan"}, "lat": 38.868766, "is_disabled": 0, "lon": -76.98235466666667}, {"fusion_lat": 0.0, "type": "electric_scooter", "name": "ec64ce13868a3915e4d2086f4dc12458", "fusion_lon": 0.0, "bike_id": "ec64ce13868a3915e4d2086f4dc12458", "is_reserved": 0, "rental_uris": {"android": "https://dc.lft.to/lastmile_qr_scan", "ios": "https://dc.lft.to/lastmile_qr_scan"}, "lat": 38.8670275, "is_disabled": 0, "lon": -76.98711466666667}, {"fusion_lat": 0.0, "type": "electric_scooter", "name": "461e86bd38f7d27702f2f9ab3ade561c", "fusion_lon": 0.0, "bike_id": "461e86bd38f7d27702f2f9ab3ade561c", "is_reserved": 0, "rental_uris": {"android": "https://dc.lft.to/lastmile_qr_scan", "ios": "https://dc.lft.to/lastmile_qr_scan"}, "lat": 38.910140166666665, "is_disabled": 0, "lon": -77.00547983333334}, {"fusion_lat": 0.0, "type": "electric_scooter", "name": "79df6fc415414097002680516e44f97b", "fusion_lon": 0.0, "bike_id": "79df6fc415414097002680516e44f97b", "is_reserved": 0, "rental_uris": {"android": "https://dc.lft.to/lastmile_qr_scan", "ios": "https://dc.lft.to/lastmile_qr_scan"}, "lat": 38.89958033333333, "is_disabled": 0, "lon": -77.01844216666667}, {"fusion_lat": 0.0, "type": "electric_scooter", "name": "97b33b1308f593501ca8fe27f0b5d0d3", "fusion_lon": 0.0, "bike_id": "97b33b1308f593501ca8fe27f0b5d0d3", "is_reserved": 0, "rental_uris": {"android": "https://dc.lft.to/lastmile_qr_scan", "ios": "https://dc.lft.to/lastmile_qr_scan"}, "lat": 38.884199, "is_disabled": 0, "lon": -77.00785933333333}, {"fusion_lat": 0.0, "type": "electric_scooter", "name": "6eb86c41a5d8313473ba45620b6687bc", "fusion_lon": 0.0, "bike_id": "6eb86c41a5d8313473ba45620b6687bc", "is_reserved": 0, "rental_uris": {"android": "https://dc.lft.to/lastmile_qr_scan", "ios": "https://dc.lft.to/lastmile_qr_scan"}, "lat": 38.89230333333333, "is_disabled": 0, "lon": -77.04334183333333}, {"fusion_lat": 0.0, "type": "electric_scooter", "name": "75338b6a4331ca622e5f74a6b0166745", "fusion_lon": 0.0, "bike_id": "75338b6a4331ca622e5f74a6b0166745", "is_reserved": 0, "rental_uris": {"android": "https://dc.lft.to/lastmile_qr_scan", "ios": "https://dc.lft.to/lastmile_qr_scan"}, "lat": 38.89223916666667, "is_disabled": 0, "lon": -77.02259183333334}, {"fusion_lat": 0.0, "type": "electric_scooter", "name": "223fc79ac4fddf9250772cbe2e918b88", "fusion_lon": 0.0, "bike_id": "223fc79ac4fddf9250772cbe2e918b88", "is_reserved": 0, "rental_uris": {"android": "https://dc.lft.to/lastmile_qr_scan", "ios": "https://dc.lft.to/lastmile_qr_scan"}, "lat": 38.923956, "is_disabled": 0, "lon": -77.03543683333334}, {"fusion_lat": 0.0, "type": "electric_scooter", "name": "9a437d57cbf7dde49e6eee687731d535", "fusion_lon": 0.0, "bike_id": "9a437d57cbf7dde49e6eee687731d535", "is_reserved": 0, "rental_uris": {"android": "https://dc.lft.to/lastmile_qr_scan", "ios": "https://dc.lft.to/lastmile_qr_scan"}, "lat": 38.870411833333335, "is_disabled": 0, "lon": -77.0096805}, {"fusion_lat": 0.0, "type": "electric_bike", "name": "c3883b73d970d39732027d30a70047ba", "fusion_lon": 0.0, "bike_id": "c3883b73d970d39732027d30a70047ba", "is_reserved": 0, "rental_uris": {"android": "https://dc.lft.to/lastmile_qr_scan", "ios": "https://dc.lft.to/lastmile_qr_scan"}, "lat": 38.88166583333334, "is_disabled": 0, "lon": -77.11466533333333}, {"fusion_lat": 0.0, "type": "electric_scooter", "name": "729d39367fe6303c12bf1bf128dd73c1", "fusion_lon": 0.0, "bike_id": "729d39367fe6303c12bf1bf128dd73c1", "is_reserved": 0, "rental_uris": {"android": "https://dc.lft.to/lastmile_qr_scan", "ios": "https://dc.lft.to/lastmile_qr_scan"}, "lat": 38.90357633333333, "is_disabled": 0, "lon": -77.05338433333333}, {"fusion_lat": 0.0, "type": "electric_scooter", "name": "aa0d6a1ecc9150e8b93e48a3f889569e", "fusion_lon": 0.0, "bike_id": "aa0d6a1ecc9150e8b93e48a3f889569e", "is_reserved": 0, "rental_uris": {"android": "https://dc.lft.to/lastmile_qr_scan", "ios": "https://dc.lft.to/lastmile_qr_scan"}, "lat": 38.93083583333333, "is_disabled": 0, "lon": -77.0347705}, {"fusion_lat": 0.0, "type": "electric_bike", "name": "a1b9a8ade13b363d53c6497b7692bf6c", "fusion_lon": 0.0, "bike_id": "a1b9a8ade13b363d53c6497b7692bf6c", "is_reserved": 0, "rental_uris": {"android": "https://dc.lft.to/lastmile_qr_scan", "ios": "https://dc.lft.to/lastmile_qr_scan"}, "lat": 38.90795216666667, "is_disabled": 0, "lon": -77.07167066666666}, {"fusion_lat": 0.0, "type": "electric_scooter", "name": "2f10ee4da148e877e61428e7748cb021", "fusion_lon": 0.0, "bike_id": "2f10ee4da148e877e61428e7748cb021", "is_reserved": 0, "rental_uris": {"android": "https://dc.lft.to/lastmile_qr_scan", "ios": "https://dc.lft.to/lastmile_qr_scan"}, "lat": 38.91403316666667, "is_disabled": 0, "lon": -77.04551733333334}, {"fusion_lat": 0.0, "type": "electric_scooter", "name": "07ebca53f5e7a5bf553ceee965a4360e", "fusion_lon": 0.0, "bike_id": "07ebca53f5e7a5bf553ceee965a4360e", "is_reserved": 0, "rental_uris": {"android": "https://dc.lft.to/lastmile_qr_scan", "ios": "https://dc.lft.to/lastmile_qr_scan"}, "lat": 38.93626116666667, "is_disabled": 0, "lon": -77.08179166666666}, {"fusion_lat": 0.0, "type": "electric_bike", "name": "349f7be7de151c89c9901527183e568a", "fusion_lon": 0.0, "bike_id": "349f7be7de151c89c9901527183e568a", "is_reserved": 0, "rental_uris": {"android": "https://dc.lft.to/lastmile_qr_scan", "ios": "https://dc.lft.to/lastmile_qr_scan"}, "lat": 38.99628416666667, "is_disabled": 0, "lon": -77.04005}, {"fusion_lat": 0.0, "type": "electric_scooter", "name": "e4788d3490b28c4fecc39e8c80fdf702", "fusion_lon": 0.0, "bike_id": "e4788d3490b28c4fecc39e8c80fdf702", "is_reserved": 0, "rental_uris": {"android": "https://dc.lft.to/lastmile_qr_scan", "ios": "https://dc.lft.to/lastmile_qr_scan"}, "lat": 38.9004645, "is_disabled": 0, "lon": -76.98836783333333}, {"fusion_lat": 0.0, "type": "electric_scooter", "name": "1ed6dfa8badef94d51245c0f078fcf03", "fusion_lon": 0.0, "bike_id": "1ed6dfa8badef94d51245c0f078fcf03", "is_reserved": 0, "rental_uris": {"android": "https://dc.lft.to/lastmile_qr_scan", "ios": "https://dc.lft.to/lastmile_qr_scan"}, "lat": 38.921932, "is_disabled": 0, "lon": -76.9887165}, {"fusion_lat": 0.0, "type": "electric_scooter", "name": "e7cf0dee82c1b0302e4caadef04e6866", "fusion_lon": 0.0, "bike_id": "e7cf0dee82c1b0302e4caadef04e6866", "is_reserved": 0, "rental_uris": {"android": "https://dc.lft.to/lastmile_qr_scan", "ios": "https://dc.lft.to/lastmile_qr_scan"}, "lat": 38.924494333333335, "is_disabled": 0, "lon": -77.02132266666666}, {"fusion_lat": 0.0, "type": "electric_scooter", "name": "62646d20a5182c4707d3723d22edc8f4", "fusion_lon": 0.0, "bike_id": "62646d20a5182c4707d3723d22edc8f4", "is_reserved": 0, "rental_uris": {"android": "https://dc.lft.to/lastmile_qr_scan", "ios": "https://dc.lft.to/lastmile_qr_scan"}, "lat": 38.897423833333335, "is_disabled": 0, "lon": -77.03081066666667}, {"fusion_lat": 0.0, "type": "electric_scooter", "name": "90e7ee1125072f7bca0e7b43aef462c8", "fusion_lon": 0.0, "bike_id": "90e7ee1125072f7bca0e7b43aef462c8", "is_reserved": 0, "rental_uris": {"android": "https://dc.lft.to/lastmile_qr_scan", "ios": "https://dc.lft.to/lastmile_qr_scan"}, "lat": 38.890103333333336, "is_disabled": 0, "lon": -77.03322633333333}, {"fusion_lat": 0.0, "type": "electric_scooter", "name": "0ff183ff2d679725de9e33e26a179ef4", "fusion_lon": 0.0, "bike_id": "0ff183ff2d679725de9e33e26a179ef4", "is_reserved": 0, "rental_uris": {"android": "https://dc.lft.to/lastmile_qr_scan", "ios": "https://dc.lft.to/lastmile_qr_scan"}, "lat": 38.9181455, "is_disabled": 0, "lon": -77.033793}, {"fusion_lat": 0.0, "type": "electric_scooter", "name": "22ef2c5bb3f6669e1619234acd5ac0a6", "fusion_lon": 0.0, "bike_id": "22ef2c5bb3f6669e1619234acd5ac0a6", "is_reserved": 0, "rental_uris": {"android": "https://dc.lft.to/lastmile_qr_scan", "ios": "https://dc.lft.to/lastmile_qr_scan"}, "lat": 38.90090566666667, "is_disabled": 0, "lon": -76.938753}, {"fusion_lat": 0.0, "type": "electric_scooter", "name": "05451d3c924e3d5e88cbd11e3951b437", "fusion_lon": 0.0, "bike_id": "05451d3c924e3d5e88cbd11e3951b437", "is_reserved": 0, "rental_uris": {"android": "https://dc.lft.to/lastmile_qr_scan", "ios": "https://dc.lft.to/lastmile_qr_scan"}, "lat": 38.90505983333333, "is_disabled": 0, "lon": -77.04656183333333}, {"fusion_lat": 0.0, "type": "electric_scooter", "name": "8e3684d08baf7e0ce03b9fe1281b706d", "fusion_lon": 0.0, "bike_id": "8e3684d08baf7e0ce03b9fe1281b706d", "is_reserved": 0, "rental_uris": {"android": "https://dc.lft.to/lastmile_qr_scan", "ios": "https://dc.lft.to/lastmile_qr_scan"}, "lat": 38.872881, "is_disabled": 0, "lon": -76.977349}, {"fusion_lat": 0.0, "type": "electric_scooter", "name": "8d2146a8f3cdb93028df18a0ac74f33f", "fusion_lon": 0.0, "bike_id": "8d2146a8f3cdb93028df18a0ac74f33f", "is_reserved": 0, "rental_uris": {"android": "https://dc.lft.to/lastmile_qr_scan", "ios": "https://dc.lft.to/lastmile_qr_scan"}, "lat": 38.892214, "is_disabled": 0, "lon": -77.0333585}, {"fusion_lat": 0.0, "type": "electric_scooter", "name": "34f9dcebf10401c27837036630bfff65", "fusion_lon": 0.0, "bike_id": "34f9dcebf10401c27837036630bfff65", "is_reserved": 0, "rental_uris": {"android": "https://dc.lft.to/lastmile_qr_scan", "ios": "https://dc.lft.to/lastmile_qr_scan"}, "lat": 38.908622666666666, "is_disabled": 0, "lon": -77.04858733333333}, {"fusion_lat": 0.0, "type": "electric_scooter", "name": "9d9b489f630744977e9a194bab0e5ed8", "fusion_lon": 0.0, "bike_id": "9d9b489f630744977e9a194bab0e5ed8", "is_reserved": 0, "rental_uris": {"android": "https://dc.lft.to/lastmile_qr_scan", "ios": "https://dc.lft.to/lastmile_qr_scan"}, "lat": 38.9225845, "is_disabled": 0, "lon": -77.070334}, {"fusion_lat": 0.0, "type": "electric_scooter", "name": "2b097e98500491f4eeb60307091836ba", "fusion_lon": 0.0, "bike_id": "2b097e98500491f4eeb60307091836ba", "is_reserved": 0, "rental_uris": {"android": "https://dc.lft.to/lastmile_qr_scan", "ios": "https://dc.lft.to/lastmile_qr_scan"}, "lat": 38.88768433333333, "is_disabled": 0, "lon": -77.017736}, {"fusion_lat": 0.0, "type": "electric_scooter", "name": "967dfd066ad0d2eb9454dafd7080a5e6", "fusion_lon": 0.0, "bike_id": "967dfd066ad0d2eb9454dafd7080a5e6", "is_reserved": 0, "rental_uris": {"android": "https://dc.lft.to/lastmile_qr_scan", "ios": "https://dc.lft.to/lastmile_qr_scan"}, "lat": 38.89221166666667, "is_disabled": 0, "lon": -77.045023}, {"fusion_lat": 0.0, "type": "electric_scooter", "name": "03271b882553adbfc3a729bb4b872212", "fusion_lon": 0.0, "bike_id": "03271b882553adbfc3a729bb4b872212", "is_reserved": 0, "rental_uris": {"android": "https://dc.lft.to/lastmile_qr_scan", "ios": "https://dc.lft.to/lastmile_qr_scan"}, "lat": 38.90665516666667, "is_disabled": 0, "lon": -77.04178683333333}, {"fusion_lat": 0.0, "type": "electric_scooter", "name": "82e401eb4a5f4651da08f5c74ab97eb5", "fusion_lon": 0.0, "bike_id": "82e401eb4a5f4651da08f5c74ab97eb5", "is_reserved": 0, "rental_uris": {"android": "https://dc.lft.to/lastmile_qr_scan", "ios": "https://dc.lft.to/lastmile_qr_scan"}, "lat": 38.91785566666667, "is_disabled": 0, "lon": -77.02319116666666}, {"fusion_lat": 0.0, "type": "electric_scooter", "name": "5e3a663a9befd4413979a9125e405a56", "fusion_lon": 0.0, "bike_id": "5e3a663a9befd4413979a9125e405a56", "is_reserved": 0, "rental_uris": {"android": "https://dc.lft.to/lastmile_qr_scan", "ios": "https://dc.lft.to/lastmile_qr_scan"}, "lat": 38.900136, "is_disabled": 0, "lon": -77.01853416666667}, {"fusion_lat": 0.0, "type": "electric_scooter", "name": "0dd459468dddc448c62a2b4e30e6db23", "fusion_lon": 0.0, "bike_id": "0dd459468dddc448c62a2b4e30e6db23", "is_reserved": 0, "rental_uris": {"android": "https://dc.lft.to/lastmile_qr_scan", "ios": "https://dc.lft.to/lastmile_qr_scan"}, "lat": 38.898301833333335, "is_disabled": 0, "lon": -77.03317733333333}, {"fusion_lat": 0.0, "type": "electric_scooter", "name": "5d2d395e5d8e71a76224c025439944bd", "fusion_lon": 0.0, "bike_id": "5d2d395e5d8e71a76224c025439944bd", "is_reserved": 0, "rental_uris": {"android": "https://dc.lft.to/lastmile_qr_scan", "ios": "https://dc.lft.to/lastmile_qr_scan"}, "lat": 38.904936, "is_disabled": 0, "lon": -77.04349683333334}, {"fusion_lat": 0.0, "type": "electric_scooter", "name": "82936e8024d11fd7c0f9ac759ec47e32", "fusion_lon": 0.0, "bike_id": "82936e8024d11fd7c0f9ac759ec47e32", "is_reserved": 0, "rental_uris": {"android": "https://dc.lft.to/lastmile_qr_scan", "ios": "https://dc.lft.to/lastmile_qr_scan"}, "lat": 38.87233533333333, "is_disabled": 0, "lon": -77.01160666666667}, {"fusion_lat": 0.0, "type": "electric_scooter", "name": "4af392ebc2ed7a051a346042d6e86f44", "fusion_lon": 0.0, "bike_id": "4af392ebc2ed7a051a346042d6e86f44", "is_reserved": 0, "rental_uris": {"android": "https://dc.lft.to/lastmile_qr_scan", "ios": "https://dc.lft.to/lastmile_qr_scan"}, "lat": 38.89247866666667, "is_disabled": 0, "lon": -77.01726966666666}, {"fusion_lat": 0.0, "type": "electric_scooter", "name": "a6d3989f752831130b8e7340925f29e6", "fusion_lon": 0.0, "bike_id": "a6d3989f752831130b8e7340925f29e6", "is_reserved": 0, "rental_uris": {"android": "https://dc.lft.to/lastmile_qr_scan", "ios": "https://dc.lft.to/lastmile_qr_scan"}, "lat": 38.8768965, "is_disabled": 0, "lon": -77.01754083333333}, {"fusion_lat": 0.0, "type": "electric_scooter", "name": "600dcb3cef8b30facfa02a42d24243f2", "fusion_lon": 0.0, "bike_id": "600dcb3cef8b30facfa02a42d24243f2", "is_reserved": 0, "rental_uris": {"android": "https://dc.lft.to/lastmile_qr_scan", "ios": "https://dc.lft.to/lastmile_qr_scan"}, "lat": 38.918801, "is_disabled": 0, "lon": -77.03768266666667}, {"fusion_lat": 0.0, "type": "electric_scooter", "name": "18ed6bd7ca6af282521ba4f773c200ed", "fusion_lon": 0.0, "bike_id": "18ed6bd7ca6af282521ba4f773c200ed", "is_reserved": 0, "rental_uris": {"android": "https://dc.lft.to/lastmile_qr_scan", "ios": "https://dc.lft.to/lastmile_qr_scan"}, "lat": 38.903668, "is_disabled": 0, "lon": -77.04328966666667},