{"data": {"bikes": [{"lon": -77.013847, "lat": 38.919513333333335, "name": "35c9c1c25e761fa7342632eb3b27a265", "fusion_lat": 0.0, "fusion_lon": 0.0, "rental_uris": {"android": "https://dc.lft.to/lastmile_qr_scan", "ios": "https://dc.lft.to/lastmile_qr_scan"}, "is_reserved": 0, "is_disabled": 0, "type": "electric_scooter", "bike_id": "35c9c1c25e761fa7342632eb3b27a265"}, {"lon": -77.01967466666666, "lat": 38.90127966666667, "name": "1fae2abf064af9cd144d29d33565a761", "fusion_lat": 0.0, "fusion_lon": 0.0, "rental_uris": {"android": "https://dc.lft.to/lastmile_qr_scan", "ios": "https://dc.lft.to/lastmile_qr_scan"}, "is_reserved": 0, "is_disabled": 0, "type": "electric_scooter", "bike_id": "1fae2abf064af9cd144d29d33565a761"}, {"lon": -77.024735, "lat": 38.938551333333336, "name": "d16a29b4aa829e9a0f626b0ef7decd26", "fusion_lat": 0.0, "fusion_lon": 0.0, "rental_uris": {"android": "https://dc.lft.to/lastmile_qr_scan", "ios": "https://dc.lft.to/lastmile_qr_scan"}, "is_reserved": 0, "is_disabled": 0, "type": "electric_scooter", "bike_id": "d16a29b4aa829e9a0f626b0ef7decd26"}, {"lon": -76.99449983333334, "lat": 38.9002395, "name": "8cb4d9c7d80a84e46d78f2993c732714", "fusion_lat": 0.0, "fusion_lon": 0.0, "rental_uris": {"android": "https://dc.lft.to/lastmile_qr_scan", "ios": "https://dc.lft.to/lastmile_qr_scan"}, "is_reserved": 0, "is_disabled": 0, "type": "electric_scooter", "bike_id": "8cb4d9c7d80a84e46d78f2993c732714"}, {"lon": -77.03086466666667, "lat": 38.92247533333333, "name": "d70dad8d2ee2844470d5620e24f4014f", "fusion_lat": 0.0, "fusion_lon": 0.0, "rental_uris": {"android": "https://dc.lft.to/lastmile_qr_scan", "ios": "https://dc.lft.to/lastmile_qr_scan"}, "is_reserved": 0, "is_disabled": 0, "type": "electric_scooter", "bike_id": "d70dad8d2ee2844470d5620e24f4014f"}, {"lon": -76.99017933333333, "lat": 38.861070166666664, "name": "d87c0250d303578f6d5acfe99224b556", "fusion_lat": 0.0, "fusion_lon": 0.0, "rental_uris": {"android": "https://dc.lft.to/lastmile_qr_scan", "ios": "https://dc.lft.to/lastmile_qr_scan"}, "is_reserved": 0, "is_disabled": 0, "type": "electric_scooter", "bike_id": "d87c0250d303578f6d5acfe99224b556"}, {"lon": -77.017634, "lat": 38.902658333333335, "name": "0da458d56b4f4ecda83935becaf607ef", "fusion_lat": 0.0, "fusion_lon": 0.0, "rental_uris": {"android": "https://dc.lft.to/lastmile_qr_scan", "ios": "https://dc.lft.to/lastmile_qr_scan"}, "is_reserved": 0, "is_disabled": 0, "type": "electric_scooter", "bike_id": "0da458d56b4f4ecda83935becaf607ef"}, {"lon": -77.0238635, "lat": 38.907408333333336, "name": "e31930b101cb3450ebe2aaf853001ef6", "fusion_lat": 0.0, "fusion_lon": 0.0, "rental_uris": {"android": "https://dc.lft.to/lastmile_qr_scan", "ios": "https://dc.lft.to/lastmile_qr_scan"}, "is_reserved": 0, "is_disabled": 0, "type": "electric_scooter", "bike_id": "e31930b101cb3450ebe2aaf853001ef6"}, {"lon": -77.04533216666667, "lat": 38.90786966666667, "name": "265d2a7e96770f612cc0c8c25a153782", "fusion_lat": 0.0, "fusion_lon": 0.0, "rental_uris": {"android": "https://dc.lft.to/lastmile_qr_scan", "ios": "https://dc.lft.to/lastmile_qr_scan"}, "is_reserved": 0, "is_disabled": 0, "type": "electric_scooter", "bike_id": "265d2a7e96770f612cc0c8c25a153782"}, {"lon": -77.021695, "lat": 38.88745183333333, "name": "c02287298324a32c1f82dbabb97676a0", "fusion_lat": 0.0, "fusion_lon": 0.0, "rental_uris": {"android": "https://dc.lft.to/lastmile_qr_scan", "ios": "https://dc.lft.to/lastmile_qr_scan"}, "is_reserved": 0, "is_disabled": 0, "type": "electric_scooter", "bike_id": "c02287298324a32c1f82dbabb97676a0"}, {"lon": -76.99631033333333, "lat": 38.8462155, "name": "ab5c618e329a1df50c0d99f35a10ba6e", "fusion_lat": 0.0, "fusion_lon": 0.0, "rental_uris": {"android": "https://dc.lft.to/lastmile_qr_scan", "ios": "https://dc.lft.to/lastmile_qr_scan"}, "is_reserved": 0, "is_disabled": 0, "type": "electric_scooter", "bike_id": "ab5c618e329a1df50c0d99f35a10ba6e"}, {"lon": -76.94753116666666, "lat": 38.900512166666665, "name": "2732fc5a86c0bae43b54bcdcd4b5206a", "fusion_lat": 0.0, "fusion_lon": 0.0, "rental_uris": {"android": "https://dc.lft.to/lastmile_qr_scan", "ios": "https://dc.lft.to/lastmile_qr_scan"}, "is_reserved": 0, "is_disabled": 0, "type": "electric_scooter", "bike_id": "2732fc5a86c0bae43b54bcdcd4b5206a"}, {"lon": -77.02297233333333, "lat": 38.965529, "name": "297e5afa2e624045e98fc5641f4d7fc1", "fusion_lat": 0.0, "fusion_lon": 0.0, "rental_uris": {"android": "https://dc.lft.to/lastmile_qr_scan", "ios": "https://dc.lft.to/lastmile_qr_scan"}, "is_reserved": 0, "is_disabled": 0, "type": "electric_bike", "bike_id": "297e5afa2e624045e98fc5641f4d7fc1"}, {"lon": -77.04155416666667, "lat": 38.91542233333333, "name": "7d6f80af3fd46fa5bc7e0516b2e47b19", "fusion_lat": 0.0, "fusion_lon": 0.0, "rental_uris": {"android": "https://dc.lft.to/lastmile_qr_scan", "ios": "https://dc.lft.to/lastmile_qr_scan"}, "is_reserved": 0, "is_disabled": 0, "type": "electric_scooter", "bike_id": "7d6f80af3fd46fa5bc7e0516b2e47b19"}, {"lon": -77.05119133333334, "lat": 38.999596333333336, "name": "a56db28a8627b0c5dd343c22f9aecfdf", "fusion_lat": 0.0, "fusion_lon": 0.0, "rental_uris": {"android": "https://dc.lft.to/lastmile_qr_scan", "ios": "https://dc.lft.to/lastmile_qr_scan"}, "is_reserved": 0, "is_disabled": 0, "type": "electric_bike", "bike_id": "a56db28a8627b0c5dd343c22f9aecfdf"}, {"lon": -77.02720766666667, "lat": 38.89661733333333, "name": "851e70086f7723129ce4ce6e06116952", "fusion_lat": 0.0, "fusion_lon": 0.0, "rental_uris": {"android": "https://dc.lft.to/lastmile_qr_scan", "ios": "https://dc.lft.to/lastmile_qr_scan"}, "is_reserved": 0, "is_disabled": 0, "type": "electric_scooter", "bike_id": "851e70086f7723129ce4ce6e06116952"}, {"lon": -77.02493033333333, "lat": 38.91804233333333, "name": "a57c6633c898a15e9b0c49ea0288d81f", "fusion_lat": 0.0, "fusion_lon": 0.0, "rental_uris": {"android": "https://dc.lft.to/lastmile_qr_scan", "ios": "https://dc.lft.to/lastmile_qr_scan"}, "is_reserved": 0, "is_disabled": 0, "type": "electric_scooter", "bike_id": "a57c6633c898a15e9b0c49ea0288d81f"}, {"lon": -77.20258283333334, "lat": 39.09367066666667, "name": "6074263ee46e01f6200ba47d6d58d0f7", "fusion_lat": 0.0, "fusion_lon": 0.0, "rental_uris": {"android": "https://dc.lft.to/lastmile_qr_scan", "ios": "https://dc.lft.to/lastmile_qr_scan"}, "is_reserved": 0, "is_disabled": 0, "type": "electric_bike", "bike_id": "6074263ee46e01f6200ba47d6d58d0f7"}, {"lon": -76.96881083333334, "lat": 38.92439866666667, "name": "3ff0b5c739962117bbefa3b0b81340c7", "fusion_lat": 0.0, "fusion_lon": 0.0, "rental_uris": {"android": "https://dc.lft.to/lastmile_qr_scan", "ios": "https://dc.lft.to/lastmile_qr_scan"}, "is_reserved": 0, "is_disabled": 0, "type": "electric_scooter", "bike_id": "3ff0b5c739962117bbefa3b0b81340c7"}, {"lon": -77.04372166666667, "lat": 38.8921795, "name": "141b88f30170c93646bdc1421a355bfa", "fusion_lat": 0.0, "fusion_lon": 0.0, "rental_uris": {"android": "https://dc.lft.to/lastmile_qr_scan", "ios": "https://dc.lft.to/lastmile_qr_scan"}, "is_reserved": 0, "is_disabled": 0, "type": "electric_scooter", "bike_id": "141b88f30170c93646bdc1421a355bfa"}, {"lon": -77.02842033333333, "lat": 38.89386433333333, "name": "e98fe01676c9db25879b31e58c9c9865", "fusion_lat": 0.0, "fusion_lon": 0.0, "rental_uris": {"android": "https://dc.lft.to/lastmile_qr_scan", "ios": "https://dc.lft.to/lastmile_qr_scan"}, "is_reserved": 0, "is_disabled": 0, "type": "electric_scooter", "bike_id": "e98fe01676c9db25879b31e58c9c9865"}, {"lon": -77.07564483333333, "lat": 38.92088316666667, "name": "d286610e8ed6e83438b56a24c8ba0724", "fusion_lat": 0.0, "fusion_lon": 0.0, "rental_uris": {"android": "https://dc.lft.to/lastmile_qr_scan", "ios": "https://dc.lft.to/lastmile_qr_scan"}, "is_reserved": 0, "is_disabled": 0, "type": "electric_scooter", "bike_id": "d286610e8ed6e83438b56a24c8ba0724"}, {"lon": -76.95818783333333, "lat": 38.89055416666667, "name": "01ee466afe24567c18415dab00efc068", "fusion_lat": 0.0, "fusion_lon": 0.0, "rental_uris": {"android": "https://dc.lft.to/lastmile_qr_scan", "ios": "https://dc.lft.to/lastmile_qr_scan"}, "is_reserved": 0, "is_disabled": 0, "type": "electric_scooter", "bike_id": "01ee466afe24567c18415dab00efc068"}, {"lon": -77.03192616666666, "lat": 38.91899333333333, "name": "611b4e185c26a07ee588af262e66abf7", "fusion_lat": 0.0, "fusion_lon": 0.0, "rental_uris": {"android": "https://dc.lft.to/lastmile_qr_scan", "ios": "https://dc.lft.to/lastmile_qr_scan"}, "is_reserved": 0, "is_disabled": 0, "type": "electric_scooter", "bike_id": "611b4e185c26a07ee588af262e66abf7"}, {"lon": -77.03346733333333, "lat": 38.8850215, "name": "62c8dfd3a3aad0e9b89641e2d546f2c8", "fusion_lat": 0.0, "fusion_lon": 0.0, "rental_uris": {"android": "https://dc.lft.to/lastmile_qr_scan", "ios": "https://dc.lft.to/lastmile_qr_scan"}, "is_reserved": 0, "is_disabled": 0, "type": "electric_scooter", "bike_id": "62c8dfd3a3aad0e9b89641e2d546f2c8"}, {"lon": -77.09526433333333, "lat": 38.83808716666667, "name": "a75f1e6a182dc152053d1fdc7dbf9652", "fusion_lat": 0.0, "fusion_lon": 0.0, "rental_uris": {"android": "https://dc.lft.to/lastmile_qr_scan", "ios": "https://dc.lft.to/lastmile_qr_scan"}, "is_reserved": 0, "is_disabled": 0, "type": "electric_bike", "bike_id": "a75f1e6a182dc152053d1fdc7dbf9652"}, {"lon": -77.03835933333333, "lat": 38.91092583333333, "name": "c39e9f9b7ad195c7c526d2d88f93ed55", "fusion_lat": 0.0, "fusion_lon": 0.0, "rental_uris": {"android": "https://dc.lft.to/lastmile_qr_scan", "ios": "https://dc.lft.to/lastmile_qr_scan"}, "is_reserved": 0, "is_disabled": 0, "type": "electric_scooter", "bike_id": "c39e9f9b7ad195c7c526d2d88f93ed55"}, {"lon": -77.03830283333333, "lat": 38.920594333333334, "name": "502fbfdefa4269ef46f82d2f3e72513d", "fusion_lat": 0.0, "fusion_lon": 0.0, "rental_uris": {"android": "https://dc.lft.to/lastmile_qr_scan", "ios": "https://dc.lft.to/lastmile_qr_scan"}, "is_reserved": 0, "is_disabled": 0, "type": "electric_scooter", "bike_id": "502fbfdefa4269ef46f82d2f3e72513d"}, {"lon": -77.04456883333333, "lat": 38.918752833333336, "name": "03bd1d32a791096a1512243fe4459c56", "fusion_lat": 0.0, "fusion_lon": 0.0, "rental_uris": {"android": "https://dc.lft.to/lastmile_qr_scan", "ios": "https://dc.lft.to/lastmile_qr_scan"}, "is_reserved": 0, "is_disabled": 0, "type": "electric_scooter", "bike_id": "03bd1d32a791096a1512243fe4459c56"}, {"lon": -77.03084316666667, "lat": 38.92242566666667, "name": "468bc5e228ce25b02f09418eb4104468", "fusion_lat": 0.0, "fusion_lon": 0.0, "rental_uris": {"android": "https://dc.lft.to/lastmile_qr_scan", "ios": "https://dc.lft.to/lastmile_qr_scan"}, "is_reserved": 0, "is_disabled": 0, "type": "electric_scooter", "bike_id": "468bc5e228ce25b02f09418eb4104468"}, {"lon": -77.05588366666667, "lat": 38.927756333333335, "name": "ccb0a8c52c4dbcedcf002e7972973ca6", "fusion_lat": 0.0, "fusion_lon": 0.0, "rental_uris": {"android": "https://dc.lft.to/lastmile_qr_scan", "ios": "https://dc.lft.to/lastmile_qr_scan"}, "is_reserved": 0, "is_disabled": 0, "type": "electric_scooter", "bike_id": "ccb0a8c52c4dbcedcf002e7972973ca6"}, {"lon": -77.0452835, "lat": 38.90970316666667, "name": "e9aa8649ceed51a2c05e2a9e9a5ba6cd", "fusion_lat": 0.0, "fusion_lon": 0.0, "rental_uris": {"android": "https://dc.lft.to/lastmile_qr_scan", "ios": "https://dc.lft.to/lastmile_qr_scan"}, "is_reserved": 0, "is_disabled": 0, "type": "electric_scooter", "bike_id": "e9aa8649ceed51a2c05e2a9e9a5ba6cd"}, {"lon": -76.99033766666666, "lat": 38.85871783333333, "name": "34fb296da28ecc1ddd78d65905a6d1b1", "fusion_lat": 0.0, "fusion_lon": 0.0, "rental_uris": {"android": "https://dc.lft.to/lastmile_qr_scan", "ios": "https://dc.lft.to/lastmile_qr_scan"}, "is_reserved": 0, "is_disabled": 0, "type": "electric_scooter", "bike_id": "34fb296da28ecc1ddd78d65905a6d1b1"}, {"lon": -77.04390266666667, "lat": 38.92268283333333, "name": "ae9db0f646104e6aabde10b87c5e3ce8", "fusion_lat": 0.0, "fusion_lon": 0.0, "rental_uris": {"android": "https://dc.lft.to/lastmile_qr_scan", "ios": "https://dc.lft.to/lastmile_qr_scan"}, "is_reserved": 0, "is_disabled": 0, "type": "electric_scooter", "bike_id": "ae9db0f646104e6aabde10b87c5e3ce8"}, {"lon": -77.024038, "lat": 38.88742466666667, "name": "6cf00b25c55aa5d4fcfe5e0fdf52ec39", "fusion_lat": 0.0, "fusion_lon": 0.0, "rental_uris": {"android": "https://dc.lft.to/lastmile_qr_scan", "ios": "https://dc.lft.to/lastmile_qr_scan"}, "is_reserved": 0, "is_disabled": 0, "type": "electric_scooter", "bike_id": "6cf00b25c55aa5d4fcfe5e0fdf52ec39"}, {"lon": -77.10920616666667, "lat": 39.052021, "name": "98131cee802d19ad7b18adfcb65e8545", "fusion_lat": 0.0, "fusion_lon": 0.0, "rental_uris": {"android": "https://dc.lft.to/lastmile_qr_scan", "ios": "https://dc.lft.to/lastmile_qr_scan"}, "is_reserved": 0, "is_disabled": 0, "type": "electric_bike", "bike_id": "98131cee802d19ad7b18adfcb65e8545"}, {"lon": -77.01070916666667, "lat": 38.87108583333333, "name": "1251b3c3af302316eb30c56cbc2a7bfe", "fusion_lat": 0.0, "fusion_lon": 0.0, "rental_uris": {"android": "https://dc.lft.to/lastmile_qr_scan", "ios": "https://dc.lft.to/lastmile_qr_scan"}, "is_reserved": 0, "is_disabled": 0, "type": "electric_scooter", "bike_id": "1251b3c3af302316eb30c56cbc2a7bfe"}, {"lon": -77.0181745, "lat": 38.90813083333333, "name": "821e73195299f92cfab9158ca2490732", "fusion_lat": 0.0, "fusion_lon": 0.0, "rental_uris": {"android": "https://dc.lft.to/lastmile_qr_scan", "ios": "https://dc.lft.to/lastmile_qr_scan"}, "is_reserved": 0, "is_disabled": 0, "type": "electric_scooter", "bike_id": "821e73195299f92cfab9158ca2490732"}, {"lon": -77.02227166666667, "lat": 38.8862635, "name": "cfd1853db2ff6bef49708c0a4ddd5f8b", "fusion_lat": 0.0, "fusion_lon": 0.0, "rental_uris": {"android": "https://dc.lft.to/lastmile_qr_scan", "ios": "https://dc.lft.to/lastmile_qr_scan"}, "is_reserved": 0, "is_disabled": 0, "type": "electric_bike", "bike_id": "cfd1853db2ff6bef49708c0a4ddd5f8b"}, {"lon": -77.02317733333334, "lat": 38.887252833333335, "name": "2cbe81d0156789ebff8e65e162db4ddf", "fusion_lat": 0.0, "fusion_lon": 0.0, "rental_uris": {"android": "https://dc.lft.to/lastmile_qr_scan", "ios": "https://dc.lft.to/lastmile_qr_scan"}, "is_reserved": 0, "is_disabled": 0, "type": "electric_scooter", "bike_id": "2cbe81d0156789ebff8e65e162db4ddf"}, {"lon": -77.00088883333333, "lat": 38.87376066666667, "name": "aea9b87eebd45f301441af95fe1ccc29", "fusion_lat": 0.0, "fusion_lon": 0.0, "rental_uris": {"android": "https://dc.lft.to/lastmile_qr_scan", "ios": "https://dc.lft.to/lastmile_qr_scan"}, "is_reserved": 0, "is_disabled": 0, "type": "electric_scooter", "bike_id": "aea9b87eebd45f301441af95fe1ccc29"}, {"lon": -76.97611733333333, "lat": 38.913076333333336, "name": "75e6df8cb9c29e80e760cd92b9b5f6e3", "fusion_lat": 0.0, "fusion_lon": 0.0, "rental_uris": {"android": "https://dc.lft.to/lastmile_qr_scan", "ios": "https://dc.lft.to/lastmile_qr_scan"}, "is_reserved": 0, "is_disabled": 0, "type": "electric_bike", "bike_id": "75e6df8cb9c29e80e760cd92b9b5f6e3"}, {"lon": -76.97189366666667, "lat": 38.91264416666667, "name": "dac5b0ad322be545af3a5fb0a76bc12c", "fusion_lat": 0.0, "fusion_lon": 0.0, "rental_uris": {"android": "https://dc.lft.to/lastmile_qr_scan", "ios": "https://dc.lft.to/lastmile_qr_scan"}, "is_reserved": 0, "is_disabled": 0, "type": "electric_scooter", "bike_id": "dac5b0ad322be545af3a5fb0a76bc12c"}, {"lon": -77.0322125, "lat": 38.900367833333334, "name": "2e34c635ae69fd3a73ea770c93947ff8", "fusion_lat": 0.0, "fusion_lon": 0.0, "rental_uris": {"android": "https://dc.lft.to/lastmile_qr_scan", "ios": "https://dc.lft.to/lastmile_qr_scan"}, "is_reserved": 0, "is_disabled": 0, "type": "electric_scooter", "bike_id": "2e34c635ae69fd3a73ea770c93947ff8"}, {"lon": -77.04143716666667, "lat": 38.90615433333333, "name": "8a3bee37f3458a178ca38ea328e228e9", "fusion_lat": 0.0, "fusion_lon": 0.0, "rental_uris": {"android": "https://dc.lft.to/lastmile_qr_scan", "ios": "https://dc.lft.to/lastmile_qr_scan"}, "is_reserved": 0, "is_disabled": 0, "type": "electric_scooter", "bike_id": "8a3bee37f3458a178ca38ea328e228e9"}, {"lon": -77.10734733333334, "lat": 38.8555085, "name": "23720dc62224d87ce54eeffbaaa9ba09", "fusion_lat": 0.0, "fusion_lon": 0.0, "rental_uris": {"android": "https://dc.lft.to/lastmile_qr_scan", "ios": "https://dc.lft.to/lastmile_qr_scan"}, "is_reserved": 0, "is_disabled": 0, "type": "electric_bike", "bike_id": "23720dc62224d87ce54eeffbaaa9ba09"}, {"lon": -76.99273033333333, "lat": 38.89690066666667, "name": "b2e40dc758221f3cbca6fb832f6a7919", "fusion_lat": 0.0, "fusion_lon": 0.0, "rental_uris": {"android": "https://dc.lft.to/lastmile_qr_scan", "ios": "https://dc.lft.to/lastmile_qr_scan"}, "is_reserved": 0, "is_disabled": 0, "type": "electric_scooter", "bike_id": "b2e40dc758221f3cbca6fb832f6a7919"}, {"lon": -76.99476316666667, "lat": 38.86211083333333, "name": "27c6c4bdee98475df41ce65b079df769", "fusion_lat": 0.0, "fusion_lon": 0.0, "rental_uris": {"android": "https://dc.lft.to/lastmile_qr_scan", "ios": "https://dc.lft.to/lastmile_qr_scan"}, "is_reserved": 0, "is_disabled": 0, "type": "electric_scooter", "bike_id": "27c6c4bdee98475df41ce65b079df769"}, {"lon": -76.94847733333333, "lat": 38.89482733333333, "name": "105573f10f1a6338b87c2ef469513665", "fusion_lat": 0.0, "fusion_lon": 0.0, "rental_uris": {"android": "https://dc.lft.to/lastmile_qr_scan", "ios": "https://dc.lft.to/lastmile_qr_scan"}, "is_reserved": 0, "is_disabled": 0, "type": "electric_scooter", "bike_id": "105573f10f1a6338b87c2ef469513665"}, {"lon": -77.04160633333333, "lat": 38.90730666666666, "name": "71058d7a49eeed026784a1a6f20ef937", "fusion_lat": 0.0, "fusion_lon": 0.0, "rental_uris": {"android": "https://dc.lft.to/lastmile_qr_scan", "ios": "https://dc.lft.to/lastmile_qr_scan"}, "is_reserved": 0, "is_disabled": 0, "type": "electric_scooter", "bike_id": "71058d7a49eeed026784a1a6f20ef937"}, {"lon": -77.06531333333334, "lat": 38.911263166666664, "name": "9e91a77cd757c9aa003abcaed7a60db2", "fusion_lat": 0.0, "fusion_lon": 0.0, "rental_uris": {"android": "https://dc.lft.to/lastmile_qr_scan", "ios": "https://dc.lft.to/lastmile_qr_scan"}, "is_reserved": 0, "is_disabled": 0, "type": "electric_scooter", "bike_id": "9e91a77cd757c9aa003abcaed7a60db2"}, {"lon": -76.9951655, "lat": 38.89486, "name": "4ce9175988b999e2b6e3f4dc0929643f", "fusion_lat": 0.0, "fusion_lon": 0.0, "rental_uris": {"android": "https://dc.lft.to/lastmile_qr_scan", "ios": "https://dc.lft.to/lastmile_qr_scan"}, "is_reserved": 0, "is_disabled": 0, "type": "electric_scooter", "bike_id": "4ce9175988b999e2b6e3f4dc0929643f"}, {"lon": -77.03230383333333, "lat": 38.9387385, "name": "b634ba8f961c439947a195dd8cf5ba69", "fusion_lat": 0.0, "fusion_lon": 0.0, "rental_uris": {"android": "https://dc.lft.to/lastmile_qr_scan", "ios": "https://dc.lft.to/lastmile_qr_scan"}, "is_reserved": 0, "is_disabled": 0, "type": "electric_scooter", "bike_id": "b634ba8f961c439947a195dd8cf5ba69"}, {"lon": -77.03211066666667, "lat": 38.911591666666666, "name": "deff68791e5f66be90a43ade2b074c17", "fusion_lat": 0.0, "fusion_lon": 0.0, "rental_uris": {"android": "https://dc.lft.to/lastmile_qr_scan", "ios": "https://dc.lft.to/lastmile_qr_scan"}, "is_reserved": 0, "is_disabled": 0, "type": "electric_scooter", "bike_id": "deff68791e5f66be90a43ade2b074c17"}, {"lon": -76.94855533333333, "lat": 38.88296366666667, "name": "e3f3609ed484810a53b16d690b538645", "fusion_lat": 0.0, "fusion_lon": 0.0, "rental_uris": {"android": "https://dc.lft.to/lastmile_qr_scan", "ios": "https://dc.lft.to/lastmile_qr_scan"}, "is_reserved": 0, "is_disabled": 0, "type": "electric_scooter", "bike_id": "e3f3609ed484810a53b16d690b538645"}, {"lon": -77.0593255, "lat": 38.901555333333334, "name": "59ef4fcaffc419aaa9c3ec003804ef1c", "fusion_lat": 0.0, "fusion_lon": 0.0, "rental_uris": {"android": "https://dc.lft.to/lastmile_qr_scan", "ios": "https://dc.lft.to/lastmile_qr_scan"}, "is_reserved": 0, "is_disabled": 0, "type": "electric_scooter", "bike_id": "59ef4fcaffc419aaa9c3ec003804ef1c"}, {"lon": -77.039933, "lat": 38.92429716666667, "name": "7fd11e3a8225bc6212c5140cf5e87c03", "fusion_lat": 0.0, "fusion_lon": 0.0, "rental_uris": {"android": "https://dc.lft.to/lastmile_qr_scan", "ios": "https://dc.lft.to/lastmile_qr_scan"}, "is_reserved": 0, "is_disabled": 0, "type": "electric_scooter", "bike_id": "7fd11e3a8225bc6212c5140cf5e87c03"}, {"lon": -76.93177416666667, "lat": 38.89881166666667, "name": "d4952da3ca71512903eaf3e9666671db", "fusion_lat": 0.0, "fusion_lon": 0.0, "rental_uris": {"android": "https://dc.lft.to/lastmile_qr_scan", "ios": "https://dc.lft.to/lastmile_qr_scan"}, "is_reserved": 0, "is_disabled": 0, "type": "electric_scooter", "bike_id": "d4952da3ca71512903eaf3e9666671db"}, {"lon": -76.98162616666667, "lat": 38.845817833333335, "name": "9faa30dd9d7df7466dd8993253455fcf", "fusion_lat": 0.0, "fusion_lon": 0.0, "rental_uris": {"android": "https://dc.lft.to/lastmile_qr_scan", "ios": "https://dc.lft.to/lastmile_qr_scan"}, "is_reserved": 0, "is_disabled": 0, "type": "electric_bike", "bike_id": "9faa30dd9d7df7466dd8993253455fcf"}, {"lon": -77.03356333333333, "lat": 38.885098, "name": "ba9dd8cff581bb8cdb0b2023f65e5706", "fusion_lat": 0.0, "fusion_lon": 0.0, "rental_uris": {"android": "https://dc.lft.to/lastmile_qr_scan", "ios": "https://dc.lft.to/lastmile_qr_scan"}, "is_reserved": 0, "is_disabled": 0, "type": "electric_scooter", "bike_id": "ba9dd8cff581bb8cdb0b2023f65e5706"}, {"lon": -77.03865833333333, "lat": 38.91250133333333, "name": "99c0b81841056f01a24f2a4abfdd1d6d", "fusion_lat": 0.0, "fusion_lon": 0.0, "rental_uris": {"android": "https://dc.lft.to/lastmile_qr_scan", "ios": "https://dc.lft.to/lastmile_qr_scan"}, "is_reserved": 0, "is_disabled": 0, "type": "electric_scooter", "bike_id": "99c0b81841056f01a24f2a4abfdd1d6d"}, {"lon": -77.00506216666666, "lat": 38.875327166666665, "name": "998c8056e3b34bef668813e4c48809ec", "fusion_lat": 0.0, "fusion_lon": 0.0, "rental_uris": {"android": "https://dc.lft.to/lastmile_qr_scan", "ios": "https://dc.lft.to/lastmile_qr_scan"}, "is_reserved": 0, "is_disabled": 0, "type": "electric_scooter", "bike_id": "998c8056e3b34bef668813e4c48809ec"}, {"lon": -77.00046016666667, "lat": 38.9070265, "name": "cdbad7f101310f8000b769b1b6e202c0", "fusion_lat": 0.0, "fusion_lon": 0.0, "rental_uris": {"android": "https://dc.lft.to/lastmile_qr_scan", "ios": "https://dc.lft.to/lastmile_qr_scan"}, "is_reserved": 0, "is_disabled": 0, "type": "electric_scooter", "bike_id": "cdbad7f101310f8000b769b1b6e202c0"}, {"lon": -77.0316655, "lat": 38.91414666666667, "name": "a04baf96ac53728d837a401d8f273cec", "fusion_lat": 0.0, "fusion_lon": 0.0, "rental_uris": {"android": "https://dc.lft.to/lastmile_qr_scan", "ios": "https://dc.lft.to/lastmile_qr_scan"}, "is_reserved": 0, "is_disabled": 0, "type": "electric_scooter", "bike_id": "a04baf96ac53728d837a401d8f273cec"}, {"lon": -77.028234, "lat": 38.89246933333333, "name": "ec80ab9a3400919820daa4d4e7759377", "fusion_lat": 0.0, "fusion_lon": 0.0, "rental_uris": {"android": "https://dc.lft.to/lastmile_qr_scan", "ios": "https://dc.lft.to/lastmile_qr_scan"}, "is_reserved": 0, "is_disabled": 0, "type": "electric_scooter", "bike_id": "ec80ab9a3400919820daa4d4e7759377"}, {"lon": -77.00224133333333, "lat": 38.905126, "name": "609442b12fcb7d36bcfbe69210993fb3", "fusion_lat": 0.0, "fusion_lon": 0.0, "rental_uris": {"android": "https://dc.lft.to/lastmile_qr_scan", "ios": "https://dc.lft.to/lastmile_qr_scan"}, "is_reserved": 0, "is_disabled": 0, "type": "electric_scooter", "bike_id": "609442b12fcb7d36bcfbe69210993fb3"}, {"lon": -76.9917065, "lat": 38.879205166666665, "name": "b829268a90d72adadcfa4aec3e15f1a8", "fusion_lat": 0.0, "fusion_lon": 0.0, "rental_uris": {"android": "https://dc.lft.to/lastmile_qr_scan", "ios": "https://dc.lft.to/lastmile_qr_scan"}, "is_reserved": 0, "is_disabled": 0, "type": "electric_scooter", "bike_id": "b829268a90d72adadcfa4aec3e15f1a8"}, {"lon": -77.0419565, "lat": 38.934188, "name": "a8994ec643327e802ef7d7a56b1e3d08", "fusion_lat": 0.0, "fusion_lon": 0.0, "rental_uris": {"android": "https://dc.lft.to/lastmile_qr_scan", "ios": "https://dc.lft.to/lastmile_qr_scan"}, "is_reserved": 0, "is_disabled": 0, "type": "electric_bike", "bike_id": "a8994ec643327e802ef7d7a56b1e3d08"}, {"lon": -77.03386533333334, "lat": 38.92147933333333, "name": "e2f88e1d052eabb56536cb3a7cc046a3", "fusion_lat": 0.0, "fusion_lon": 0.0, "rental_uris": {"android": "https://dc.lft.to/lastmile_qr_scan", "ios": "https://dc.lft.to/lastmile_qr_scan"}, "is_reserved": 0, "is_disabled": 0, "type": "electric_scooter", "bike_id": "e2f88e1d052eabb56536cb3a7cc046a3"}, {"lon": -77.06477983333333, "lat": 38.973811, "name": "e8511ce39b7a73b47df6e84ff4b596f9", "fusion_lat": 0.0, "fusion_lon": 0.0, "rental_uris": {"android": "https://dc.lft.to/lastmile_qr_scan", "ios": "https://dc.lft.to/lastmile_qr_scan"}, "is_reserved": 0, "is_disabled": 0, "type": "electric_bike", "bike_id": "e8511ce39b7a73b47df6e84ff4b596f9"}, {"lon": -77.03810283333334, "lat": 38.925692, "name": "ca9ea751ee854c33887a01eee6e926b0", "fusion_lat": 0.0, "fusion_lon": 0.0, "rental_uris": {"android": "https://dc.lft.to/lastmile_qr_scan", "ios": "https://dc.lft.to/lastmile_qr_scan"}, "is_reserved": 0, "is_disabled": 0, "type": "electric_scooter", "bike_id": "ca9ea751ee854c33887a01eee6e926b0"}, {"lon": -77.0206655, "lat": 38.920115, "name": "d62d0f0982568e4dba76dca136031388", "fusion_lat": 0.0, "fusion_lon": 0.0, "rental_uris": {"android": "https://dc.lft.to/lastmile_qr_scan", "ios": "https://dc.lft.to/lastmile_qr_scan"}, "is_reserved": 0, "is_disabled": 0, "type": "electric_scooter", "bike_id": "d62d0f0982568e4dba76dca136031388"}, {"lon": -77.02817316666666, "lat": 38.89533866666667, "name": "ed777754a2a4613c11b6b9a0eced83f5", "fusion_lat": 0.0, "fusion_lon": 0.0, "rental_uris": {"android": "https://dc.lft.to/lastmile_qr_scan", "ios": "https://dc.lft.to/lastmile_qr_scan"}, "is_reserved": 0, "is_disabled": 0, "type": "electric_scooter", "bike_id": "ed777754a2a4613c11b6b9a0eced83f5"}, {"lon": -77.03284683333334, "lat": 38.93731733333333, "name": "295d1ba027e7b87e3280e2fd97308c5f", "fusion_lat": 0.0, "fusion_lon": 0.0, "rental_uris": {"android": "https://dc.lft.to/lastmile_qr_scan", "ios": "https://dc.lft.to/lastmile_qr_scan"}, "is_reserved": 0, "is_disabled": 0, "type": "electric_scooter", "bike_id": "295d1ba027e7b87e3280e2fd97308c5f"}, {"lon": -77.015087, "lat": 38.913456333333336, "name": "d6b6afc86b25d3efd3b8411b02be747e", "fusion_lat": 0.0, "fusion_lon": 0.0, "rental_uris": {"android": "https://dc.lft.to/lastmile_qr_scan", "ios": "https://dc.lft.to/lastmile_qr_scan"}, "is_reserved": 0, "is_disabled": 0, "type": "electric_scooter", "bike_id": "d6b6afc86b25d3efd3b8411b02be747e"}, {"lon": -76.99882066666666, "lat": 38.907501833333335, "name": "a3572234759e7247082474a40acf184a", "fusion_lat": 0.0, "fusion_lon": 0.0, "rental_uris": {"android": "https://dc.lft.to/lastmile_qr_scan", "ios": "https://dc.lft.to/lastmile_qr_scan"}, "is_reserved": 0, "is_disabled": 0, "type": "electric_scooter", "bike_id": "a3572234759e7247082474a40acf184a"}, {"lon": -77.00509, "lat": 38.875292, "name": "f1b50c09fd86c88e4e9979346b8b1c40", "fusion_lat": 0.0, "fusion_lon": 0.0, "rental_uris": {"android": "https://dc.lft.to/lastmile_qr_scan", "ios": "https://dc.lft.to/lastmile_qr_scan"}, "is_reserved": 0, "is_disabled": 0, "type": "electric_scooter", "bike_id": "f1b50c09fd86c88e4e9979346b8b1c40"}, {"lon": -77.03212166666667, "lat": 38.916512166666664, "name": "0ff7d1304a4f07f1c2cfb794e12c2cb2", "fusion_lat": 0.0, "fusion_lon": 0.0, "rental_uris": {"android": "https://dc.lft.to/lastmile_qr_scan", "ios": "https://dc.lft.to/lastmile_qr_scan"}, "is_reserved": 0, "is_disabled": 0, "type": "electric_scooter", "bike_id": "0ff7d1304a4f07f1c2cfb794e12c2cb2"}, {"lon": -77.03007016666666, "lat": 38.934491333333334, "name": "609420b8941f148b1321292a7b532932", "fusion_lat": 0.0, "fusion_lon": 0.0, "rental_uris": {"android": "https://dc.lft.to/lastmile_qr_scan", "ios": "https://dc.lft.to/lastmile_qr_scan"}, "is_reserved": 0, "is_disabled": 0, "type": "electric_scooter", "bike_id": "609420b8941f148b1321292a7b532932"}, {"lon": -77.01077866666667, "lat": 38.96256833333333, "name": "d6cb655aa78eeacda84a4dcdd0254d8e", "fusion_lat": 0.0, "fusion_lon": 0.0, "rental_uris": {"android": "https://dc.lft.to/lastmile_qr_scan", "ios": "https://dc.lft.to/lastmile_qr_scan"}, "is_reserved": 0, "is_disabled": 0, "type": "electric_bike", "bike_id": "d6cb655aa78eeacda84a4dcdd0254d8e"}, {"lon": -77.037323, "lat": 38.93352183333333, "name": "c613f9be2a625839eef3a715510bc9cc", "fusion_lat": 0.0, "fusion_lon": 0.0, "rental_uris": {"android": "https://dc.lft.to/lastmile_qr_scan", "ios": "https://dc.lft.to/lastmile_qr_scan"}, "is_reserved": 0, "is_disabled": 0, "type": "electric_scooter", "bike_id": "c613f9be2a625839eef3a715510bc9cc"}, {"lon": -77.03361633333333, "lat": 38.892917, "name": "cfbfe8088d0d3abefac4fb3002becc30", "fusion_lat": 0.0, "fusion_lon": 0.0, "rental_uris": {"android": "https://dc.lft.to/lastmile_qr_scan", "ios": "https://dc.lft.to/lastmile_qr_scan"}, "is_reserved": 0, "is_disabled": 0, "type": "electric_scooter", "bike_id": "cfbfe8088d0d3abefac4fb3002becc30"}, {"lon": -77.00031733333333, "lat": 38.90680866666667, "name": "c0020799d0e2a5e9490a63f9361b5ae2", "fusion_lat": 0.0, "fusion_lon": 0.0, "rental_uris": {"android": "https://dc.lft.to/lastmile_qr_scan", "ios": "https://dc.lft.to/lastmile_qr_scan"}, "is_reserved": 0, "is_disabled": 0, "type": "electric_scooter", "bike_id": "c0020799d0e2a5e9490a63f9361b5ae2"}, {"lon": -76.9861575, "lat": 38.854624333333334, "name": "7920261c93e80c505198bbfdc38e9516", "fusion_lat": 0.0, "fusion_lon": 0.0, "rental_uris": {"android": "https://dc.lft.to/lastmile_qr_scan", "ios": "https://dc.lft.to/lastmile_qr_scan"}, "is_reserved": 0, "is_disabled": 0, "type": "electric_scooter", "bike_id": "7920261c93e80c505198bbfdc38e9516"}, {"lon": -77.00927683333333, "lat": 38.91053, "name": "89a43126f5f87b814aecc5a48b56554c", "fusion_lat": 0.0, "fusion_lon": 0.0, "rental_uris": {"android": "https://dc.lft.to/lastmile_qr_scan", "ios": "https://dc.lft.to/lastmile_qr_scan"}, "is_reserved": 0, "is_disabled": 0, "type": "electric_scooter", "bike_id": "89a43126f5f87b814aecc5a48b56554c"}, {"lon": -77.040624, "lat": 38.917654666666664, "name": "2b89af9e189ca74009c58c7ccab17972", "fusion_lat": 0.0, "fusion_lon": 0.0, "rental_uris": {"android": "https://dc.lft.to/lastmile_qr_scan", "ios": "https://dc.lft.to/lastmile_qr_scan"}, "is_reserved": 0, "is_disabled": 0, "type": "electric_scooter", "bike_id": "2b89af9e189ca74009c58c7ccab17972"}, {"lon": -77.04782733333333, "lat": 38.90514816666666, "name": "769e7b6242d66f27e3ec9536b9615b8f", "fusion_lat": 0.0, "fusion_lon": 0.0, "rental_uris": {"android": "https://dc.lft.to/lastmile_qr_scan", "ios": "https://dc.lft.to/lastmile_qr_scan"}, "is_reserved": 0, "is_disabled": 0, "type": "electric_bike", "bike_id": "769e7b6242d66f27e3ec9536b9615b8f"}, {"lon": -77.02826766666666, "lat": 38.914171333333336, "name": "5cccd19a6710694bbace1acca1afb614", "fusion_lat": 0.0, "fusion_lon": 0.0, "rental_uris": {"android": "https://dc.lft.to/lastmile_qr_scan", "ios": "https://dc.lft.to/lastmile_qr_scan"}, "is_reserved": 0, "is_disabled": 0, "type": "electric_scooter", "bike_id": "5cccd19a6710694bbace1acca1afb614"}, {"lon": -76.998428, "lat": 38.8391875, "name": "ea7a8d3a7c2f8db03b739d47e10546ee", "fusion_lat": 0.0, "fusion_lon": 0.0, "rental_uris": {"android": "https://dc.lft.to/lastmile_qr_scan", "ios": "https://dc.lft.to/lastmile_qr_scan"}, "is_reserved": 0, "is_disabled": 0, "type": "electric_bike", "bike_id": "ea7a8d3a7c2f8db03b739d47e10546ee"}, {"lon": -77.02567466666666, "lat": 38.88745516666667, "name": "abf87e74af9d32f184a6dac968b1b108", "fusion_lat": 0.0, "fusion_lon": 0.0, "rental_uris": {"android": "https://dc.lft.to/lastmile_qr_scan", "ios": "https://dc.lft.to/lastmile_qr_scan"}, "is_reserved": 0, "is_disabled": 0, "type": "electric_scooter", "bike_id": "abf87e74af9d32f184a6dac968b1b108"}, {"lon": -76.98020183333334, "lat": 38.903803, "name": "9d6e087b5ee046f8cfa033c150f7b572", "fusion_lat": 0.0, "fusion_lon": 0.0, "rental_uris": {"android": "https://dc.lft.to/lastmile_qr_scan", "ios": "https://dc.lft.to/lastmile_qr_scan"}, "is_reserved": 0, "is_disabled": 0, "type": "electric_scooter", "bike_id": "9d6e087b5ee046f8cfa033c150f7b572"}, {"lon": -77.01779466666666, "lat": 38.97437383333333, "name": "57c59443eeb10c5d3f72e6a4552891a8", "fusion_lat": 0.0, "fusion_lon": 0.0, "rental_uris": {"android": "https://dc.lft.to/lastmile_qr_scan", "ios": "https://dc.lft.to/lastmile_qr_scan"}, "is_reserved": 0, "is_disabled": 0, "type": "electric_bike", "bike_id": "57c59443eeb10c5d3f72e6a4552891a8"}, {"lon": -77.03473066666666, "lat": 38.917084333333335, "name": "a24a7188d9b6c403eeaff88a6fb8cba7", "fusion_lat": 0.0, "fusion_lon": 0.0, "rental_uris": {"android": "https://dc.lft.to/lastmile_qr_scan", "ios": "https://dc.lft.to/lastmile_qr_scan"}, "is_reserved": 0, "is_disabled": 0, "type": "electric_scooter", "bike_id": "a24a7188d9b6c403eeaff88a6fb8cba7"}, {"lon": -76.9357215, "lat": 38.885309, "name": "d27b3084ad2acad5e9cfd97180dbfac5", "fusion_lat": 0.0, "fusion_lon": 0.0, "rental_uris": {"android": "https://dc.lft.to/lastmile_qr_scan", "ios": "https://dc.lft.to/lastmile_qr_scan"}, "is_reserved": 0, "is_disabled": 0, "type": "electric_bike", "bike_id": "d27b3084ad2acad5e9cfd97180dbfac5"}, {"lon": -77.04223433333334, "lat": 38.91101883333333, "name": "653963f69e58730cc65aeee3d7c62753", "fusion_lat": 0.0, "fusion_lon": 0.0, "rental_uris": {"android": "https://dc.lft.to/lastmile_qr_scan", "ios": "https://dc.lft.to/lastmile_qr_scan"}, "is_reserved": 0, "is_disabled": 0, "type": "electric_scooter", "bike_id": "653963f69e58730cc65aeee3d7c62753"}, {"lon": -76.98827383333334, "lat": 38.880258, "name": "70098b43f66830ca5f1778d2efeff196", "fusion_lat": 0.0, "fusion_lon": 0.0, "rental_uris": {"android": "https://dc.lft.to/lastmile_qr_scan", "ios": "https://dc.lft.to/lastmile_qr_scan"}, "is_reserved": 0, "is_disabled": 0, "type": "electric_scooter", "bike_id": "70098b43f66830ca5f1778d2efeff196"}, {"lon": -77.032016, "lat": 38.8870295, "name": "3067c66b3abf75db26815e7fe2912c25", "fusion_lat": 0.0, "fusion_lon": 0.0, "rental_uris": {"android": "https://dc.lft.to/lastmile_qr_scan", "ios": "https://dc.lft.to/lastmile_qr_scan"}, "is_reserved": 0, "is_disabled": 0, "type": "electric_scooter", "bike_id": "3067c66b3abf75db26815e7fe2912c25"}, {"lon": -77.0270885, "lat": 38.93121683333333, "name": "58ec4403af6579ccdd0833d087faa0f2", "fusion_lat": 0.0, "fusion_lon": 0.0, "rental_uris": {"android": "https://dc.lft.to/lastmile_qr_scan", "ios": "https://dc.lft.to/lastmile_qr_scan"}, "is_reserved": 0, "is_disabled": 0, "type": "electric_bike", "bike_id": "58ec4403af6579ccdd0833d087faa0f2"}, {"lon": -77.03211983333334, "lat": 38.91648633333333, "name": "3b9746a60cbde8158c3f23cc34456cfb", "fusion_lat": 0.0, "fusion_lon": 0.0, "rental_uris": {"android": "https://dc.lft.to/lastmile_qr_scan", "ios": "https://dc.lft.to/lastmile_qr_scan"}, "is_reserved": 0, "is_disabled": 0, "type": "electric_scooter", "bike_id": "3b9746a60cbde8158c3f23cc34456cfb"}, {"lon": -77.01088533333333, "lat": 38.89396583333333, "name": "59a9eec72a78460bfdd7315b8ca2682c", "fusion_lat": 0.0, "fusion_lon": 0.0, "rental_uris": {"android": "https://dc.lft.to/lastmile_qr_scan", "ios": "https://dc.lft.to/lastmile_qr_scan"}, "is_reserved": 0, "is_disabled": 0, "type": "electric_scooter", "bike_id": "59a9eec72a78460bfdd7315b8ca2682c"}, {"lon": -77.0334355, "lat": 38.8994575, "name": "cc829c6c37599cd85b3780d89a0a6ebb", "fusion_lat": 0.0, "fusion_lon": 0.0, "rental_uris": {"android": "https://dc.lft.to/lastmile_qr_scan", "ios": "https://dc.lft.to/lastmile_qr_scan"}, "is_reserved": 0, "is_disabled": 0, "type": "electric_scooter", "bike_id": "cc829c6c37599cd85b3780d89a0a6ebb"}, {"lon": -76.98360433333333, "lat": 38.91528983333333, "name": "9b0c27532e89131d3dbd05f26fc9065a", "fusion_lat": 0.0, "fusion_lon": 0.0, "rental_uris": {"android": "https://dc.lft.to/lastmile_qr_scan", "ios": "https://dc.lft.to/lastmile_qr_scan"}, "is_reserved": 0, "is_disabled": 0, "type": "electric_scooter", "bike_id": "9b0c27532e89131d3dbd05f26fc9065a"}, {"lon": -77.051231, "lat": 38.905434666666665, "name": "b24ab3351f92c4444971321787b0773b", "fusion_lat": 0.0, "fusion_lon": 0.0, "rental_uris": {"android": "https://dc.lft.to/lastmile_qr_scan", "ios": "https://dc.lft.to/lastmile_qr_scan"}, "is_reserved": 0, "is_disabled": 0, "type": "electric_scooter", "bike_id": "b24ab3351f92c4444971321787b0773b"}, {"lon": -77.03320933333333, "lat": 38.89818483333333, "name": "558253cdc7d57eb2ca5706e8f9f28344", "fusion_lat": 0.0, "fusion_lon": 0.0, "rental_uris": {"android": "https://dc.lft.to/lastmile_qr_scan", "ios": "https://dc.lft.to/lastmile_qr_scan"}, "is_reserved": 0, "is_disabled": 0, "type": "electric_scooter", "bike_id": "558253cdc7d57eb2ca5706e8f9f28344"}, {"lon": -77.01760083333333, "lat": 38.876868333333334, "name": "2f4cba018c88d828e03f2d6fa005a69f", "fusion_lat": 0.0, "fusion_lon": 0.0, "rental_uris": {"android": "https://dc.lft.to/lastmile_qr_scan", "ios": "https://dc.lft.to/lastmile_qr_scan"}, "is_reserved": 0, "is_disabled": 0, "type": "electric_scooter", "bike_id": "2f4cba018c88d828e03f2d6fa005a69f"}, {"lon": -77.032757, "lat": 38.9307255, "name": "c560b2cb8c89ed4e485963339c09c7a3", "fusion_lat": 0.0, "fusion_lon": 0.0, "rental_uris": {"android": "https://dc.lft.to/lastmile_qr_scan", "ios": "https://dc.lft.to/lastmile_qr_scan"}, "is_reserved": 0, "is_disabled": 0, "type": "electric_scooter", "bike_id": "c560b2cb8c89ed4e485963339c09c7a3"}, {"lon": -77.04485766666667, "lat": 38.9106595, "name": "5199c9b2c4e472bc3771639d19f95c01", "fusion_lat": 0.0, "fusion_lon": 0.0, "rental_uris": {"android": "https://dc.lft.to/lastmile_qr_scan", "ios": "https://dc.lft.to/lastmile_qr_scan"}, "is_reserved": 0, "is_disabled": 0, "type": "electric_scooter", "bike_id": "5199c9b2c4e472bc3771639d19f95c01"}, {"lon": -77.026931, "lat": 38.908422333333334, "name": "8c8b1709174aaf51999e2a313f3224d6", "fusion_lat": 0.0, "fusion_lon": 0.0, "rental_uris": {"android": "https://dc.lft.to/lastmile_qr_scan", "ios": "https://dc.lft.to/lastmile_qr_scan"}, "is_reserved": 0, "is_disabled": 0, "type": "electric_scooter", "bike_id": "8c8b1709174aaf51999e2a313f3224d6"}, {"lon": -77.0381445, "lat": 38.92059483333333, "name": "4647a523a12852421a7f76c4717dfe38", "fusion_lat": 0.0, "fusion_lon": 0.0, "rental_uris": {"android": "https://dc.lft.to/lastmile_qr_scan", "ios": "https://dc.lft.to/lastmile_qr_scan"}, "is_reserved": 0, "is_disabled": 0, "type": "electric_scooter", "bike_id": "4647a523a12852421a7f76c4717dfe38"}, {"lon": -77.03788783333333, "lat": 38.91208966666667, "name": "dbeccc101e77ac6e3fe4b51d03006473", "fusion_lat": 0.0, "fusion_lon": 0.0, "rental_uris": {"android": "https://dc.lft.to/lastmile_qr_scan", "ios": "https://dc.lft.to/lastmile_qr_scan"}, "is_reserved": 0, "is_disabled": 0, "type": "electric_scooter", "bike_id": "dbeccc101e77ac6e3fe4b51d03006473"}, {"lon": -77.04497, "lat": 38.9037485, "name": "7926fe23bc7d41146247ec873b7a38b0", "fusion_lat": 0.0, "fusion_lon": 0.0, "rental_uris": {"android": "https://dc.lft.to/lastmile_qr_scan", "ios": "https://dc.lft.to/lastmile_qr_scan"}, "is_reserved": 0, "is_disabled": 0, "type": "electric_scooter", "bike_id": "7926fe23bc7d41146247ec873b7a38b0"}, {"lon": -77.043842, "lat": 38.925641, "name": "6bf127f821b3ef49d7139f51080806af", "fusion_lat": 0.0, "fusion_lon": 0.0, "rental_uris": {"android": "https://dc.lft.to/lastmile_qr_scan", "ios": "https://dc.lft.to/lastmile_qr_scan"}, "is_reserved": 0, "is_disabled": 0, "type": "electric_scooter", "bike_id": "6bf127f821b3ef49d7139f51080806af"}, {"lon": -77.0271465, "lat": 38.918151, "name": "8449aeb7242217ff4757bf92109b05e4", "fusion_lat": 0.0, "fusion_lon": 0.0, "rental_uris": {"android": "https://dc.lft.to/lastmile_qr_scan", "ios": "https://dc.lft.to/lastmile_qr_scan"}, "is_reserved": 0, "is_disabled": 0, "type": "electric_scooter", "bike_id": "8449aeb7242217ff4757bf92109b05e4"}, {"lon": -76.99948016666667, "lat": 38.842887, "name": "25dfb7727567fa80e66fa0b19a75d045", "fusion_lat": 0.0, "fusion_lon": 0.0, "rental_uris": {"android": "https://dc.lft.to/lastmile_qr_scan", "ios": "https://dc.lft.to/lastmile_qr_scan"}, "is_reserved": 0, "is_disabled": 0, "type": "electric_scooter", "bike_id": "25dfb7727567fa80e66fa0b19a75d045"}, {"lon": -77.000184, "lat": 38.919776166666665, "name": "44193d3dccf11a972c3620e6dbe1416a", "fusion_lat": 0.0, "fusion_lon": 0.0, "rental_uris": {"android": "https://dc.lft.to/lastmile_qr_scan", "ios": "https://dc.lft.to/lastmile_qr_scan"}, "is_reserved": 0, "is_disabled": 0, "type": "electric_scooter", "bike_id": "44193d3dccf11a972c3620e6dbe1416a"}, {"lon": -77.019385, "lat": 38.94924983333333, "name": "775637866f791aec81048e0c10447ea1", "fusion_lat": 0.0, "fusion_lon": 0.0, "rental_uris": {"android": "https://dc.lft.to/lastmile_qr_scan", "ios": "https://dc.lft.to/lastmile_qr_scan"}, "is_reserved": 0, "is_disabled": 0, "type": "electric_scooter", "bike_id": "775637866f791aec81048e0c10447ea1"}, {"lon": -77.03213933333333, "lat": 38.91639383333333, "name": "ec68d0560639b5c2c6a2dc3dfd4b8cb1", "fusion_lat": 0.0, "fusion_lon": 0.0, "rental_uris": {"android": "https://dc.lft.to/lastmile_qr_scan", "ios": "https://dc.lft.to/lastmile_qr_scan"}, "is_reserved": 0, "is_disabled": 0, "type": "electric_scooter", "bike_id": "ec68d0560639b5c2c6a2dc3dfd4b8cb1"}, {"lon": -77.0217455, "lat": 38.9187585, "name": "3bca1aa20f2f7737dccfd11cec378944", "fusion_lat": 0.0, "fusion_lon": 0.0, "rental_uris": {"android": "https://dc.lft.to/lastmile_qr_scan", "ios": "https://dc.lft.to/lastmile_qr_scan"}, "is_reserved": 0, "is_disabled": 0, "type": "electric_scooter", "bike_id": "3bca1aa20f2f7737dccfd11cec378944"}, {"lon": -77.03700966666666, "lat": 38.91661, "name": "adccdec1611b8e7636fe5d8b24417377", "fusion_lat": 0.0, "fusion_lon": 0.0, "rental_uris": {"android": "https://dc.lft.to/lastmile_qr_scan", "ios": "https://dc.lft.to/lastmile_qr_scan"}, "is_reserved": 0, "is_disabled": 0, "type": "electric_scooter", "bike_id": "adccdec1611b8e7636fe5d8b24417377"}, {"lon": -77.0289945, "lat": 38.88421983333333, "name": "a6480487204c60db1e97f17746323219", "fusion_lat": 0.0, "fusion_lon": 0.0, "rental_uris": {"android": "https://dc.lft.to/lastmile_qr_scan", "ios": "https://dc.lft.to/lastmile_qr_scan"}, "is_reserved": 0, "is_disabled": 0, "type": "electric_scooter", "bike_id": "a6480487204c60db1e97f17746323219"}, {"lon": -77.00096383333333, "lat": 38.873586, "name": "52c20af6e05a7f022ee9255c9c6050ca", "fusion_lat": 0.0, "fusion_lon": 0.0, "rental_uris": {"android": "https://dc.lft.to/lastmile_qr_scan", "ios": "https://dc.lft.to/lastmile_qr_scan"}, "is_reserved": 0, "is_disabled": 0, "type": "electric_scooter", "bike_id": "52c20af6e05a7f022ee9255c9c6050ca"}, {"lon": -77.07904783333333, "lat": 38.83929766666667, "name": "b090ae5af3d00cdad04a89983a38758f", "fusion_lat": 0.0, "fusion_lon": 0.0, "rental_uris": {"android": "https://dc.lft.to/lastmile_qr_scan", "ios": "https://dc.lft.to/lastmile_qr_scan"}, "is_reserved": 0, "is_disabled": 0, "type": "electric_bike", "bike_id": "b090ae5af3d00cdad04a89983a38758f"}, {"lon": -77.01533883333333, "lat": 38.887353, "name": "d8b0d465152b18a1384de236d039c18c", "fusion_lat": 0.0, "fusion_lon": 0.0, "rental_uris": {"android": "https://dc.lft.to/lastmile_qr_scan", "ios": "https://dc.lft.to/lastmile_qr_scan"}, "is_reserved": 0, "is_disabled": 0, "type": "electric_scooter", "bike_id": "d8b0d465152b18a1384de236d039c18c"}, {"lon": -77.02782066666667, "lat": 38.9181735, "name": "3bf10ac899de8afba5cd1d6a944ebfb1", "fusion_lat": 0.0, "fusion_lon": 0.0, "rental_uris": {"android": "https://dc.lft.to/lastmile_qr_scan", "ios": "https://dc.lft.to/lastmile_qr_scan"}, "is_reserved": 0, "is_disabled": 0, "type": "electric_scooter", "bike_id": "3bf10ac899de8afba5cd1d6a944ebfb1"}, {"lon": -77.02982666666666, "lat": 38.895653333333335, "name": "ceaae40cdd3df9b423fe44feb2b6443c", "fusion_lat": 0.0, "fusion_lon": 0.0, "rental_uris": {"android": "https://dc.lft.to/lastmile_qr_scan", "ios": "https://dc.lft.to/lastmile_qr_scan"}, "is_reserved": 0, "is_disabled": 0, "type": "electric_scooter", "bike_id": "ceaae40cdd3df9b423fe44feb2b6443c"}, {"lon": -77.11421616666667, "lat": 38.84283766666667, "name": "c092e44b0afbacfd4a4cb29a78b949bd", "fusion_lat": 0.0, "fusion_lon": 0.0, "rental_uris": {"android": "https://dc.lft.to/lastmile_qr_scan", "ios": "https://dc.lft.to/lastmile_qr_scan"}, "is_reserved": 0, "is_disabled": 0, "type": "electric_bike", "bike_id": "c092e44b0afbacfd4a4cb29a78b949bd"}, {"lon": -77.05094083333333, "lat": 38.81326466666667, "name": "8380682f0faf2ab234c3e9233ef8b947", "fusion_lat": 0.0, "fusion_lon": 0.0, "rental_uris": {"android": "https://dc.lft.to/lastmile_qr_scan", "ios": "https://dc.lft.to/lastmile_qr_scan"}, "is_reserved": 0, "is_disabled": 0, "type": "electric_bike", "bike_id": "8380682f0faf2ab234c3e9233ef8b947"}, {"lon": -77.013575, "lat": 38.914072, "name": "4b52bc2296552d1ce147373031598cea", "fusion_lat": 0.0, "fusion_lon": 0.0, "rental_uris": {"android": "https://dc.lft.to/lastmile_qr_scan", "ios": "https://dc.lft.to/lastmile_qr_scan"}, "is_reserved": 0, "is_disabled": 0, "type": "electric_scooter", "bike_id": "4b52bc2296552d1ce147373031598cea"}, {"lon": -77.02718816666666, "lat": 38.909550833333334, "name": "52f41cb1729ffe481dcd82ff99a3f6d7", "fusion_lat": 0.0, "fusion_lon": 0.0, "rental_uris": {"android": "https://dc.lft.to/lastmile_qr_scan", "ios": "https://dc.lft.to/lastmile_qr_scan"}, "is_reserved": 0, "is_disabled": 0, "type": "electric_scooter", "bike_id": "52f41cb1729ffe481dcd82ff99a3f6d7"}, {"lon": -77.03957766666667, "lat": 38.899031666666666, "name": "1635ac6961ea90267b796a0c8002fedd", "fusion_lat": 0.0, "fusion_lon": 0.0, "rental_uris": {"android": "https://dc.lft.to/lastmile_qr_scan", "ios": "https://dc.lft.to/lastmile_qr_scan"}, "is_reserved": 0, "is_disabled": 0, "type": "electric_scooter", "bike_id": "1635ac6961ea90267b796a0c8002fedd"}, {"lon": -77.03306166666667, "lat": 38.908347166666665, "name": "0dac3358348ce86c0d16ed9bcbc54fc1", "fusion_lat": 0.0, "fusion_lon": 0.0, "rental_uris": {"android": "https://dc.lft.to/lastmile_qr_scan", "ios": "https://dc.lft.to/lastmile_qr_scan"}, "is_reserved": 0, "is_disabled": 0, "type": "electric_scooter", "bike_id": "0dac3358348ce86c0d16ed9bcbc54fc1"}, {"lon": -77.01379483333334, "lat": 38.898253833333335, "name": "992f5251e5c74c8557ee1f526edc5082", "fusion_lat": 0.0, "fusion_lon": 0.0, "rental_uris": {"android": "https://dc.lft.to/lastmile_qr_scan", "ios": "https://dc.lft.to/lastmile_qr_scan"}, "is_reserved": 0, "is_disabled": 0, "type": "electric_scooter", "bike_id": "992f5251e5c74c8557ee1f526edc5082"}, {"lon": -76.99839483333334, "lat": 38.8880935, "name": "ede5922668e834127c4725bdd77072c8", "fusion_lat": 0.0, "fusion_lon": 0.0, "rental_uris": {"android": "https://dc.lft.to/lastmile_qr_scan", "ios": "https://dc.lft.to/lastmile_qr_scan"}, "is_reserved": 0, "is_disabled": 0, "type": "electric_scooter", "bike_id": "ede5922668e834127c4725bdd77072c8"}, {"lon": -76.98554516666667, "lat": 38.899485166666665, "name": "16d48d5902e0dc343cc2a0c47294638f", "fusion_lat": 0.0, "fusion_lon": 0.0, "rental_uris": {"android": "https://dc.lft.to/lastmile_qr_scan", "ios": "https://dc.lft.to/lastmile_qr_scan"}, "is_reserved": 0, "is_disabled": 0, "type": "electric_scooter", "bike_id": "16d48d5902e0dc343cc2a0c47294638f"}, {"lon": -76.97925983333333, "lat": 38.8660615, "name": "4b401ebc8a1abf7870133ecf3df45256", "fusion_lat": 0.0, "fusion_lon": 0.0, "rental_uris": {"android": "https://dc.lft.to/lastmile_qr_scan", "ios": "https://dc.lft.to/lastmile_qr_scan"}, "is_reserved": 0, "is_disabled": 0, "type": "electric_scooter", "bike_id": "4b401ebc8a1abf7870133ecf3df45256"}, {"lon": -77.02430683333333, "lat": 38.902085, "name": "0c8c42ad8ca50900bbd1e3caf053792e", "fusion_lat": 0.0, "fusion_lon": 0.0, "rental_uris": {"android": "https://dc.lft.to/lastmile_qr_scan", "ios": "https://dc.lft.to/lastmile_qr_scan"}, "is_reserved": 0, "is_disabled": 0, "type": "electric_scooter", "bike_id": "0c8c42ad8ca50900bbd1e3caf053792e"}, {"lon": -77.04141833333334, "lat": 38.922956666666664, "name": "f50821ac0663728c601784d60b7eac67", "fusion_lat": 0.0, "fusion_lon": 0.0, "rental_uris": {"android": "https://dc.lft.to/lastmile_qr_scan", "ios": "https://dc.lft.to/lastmile_qr_scan"}, "is_reserved": 0, "is_disabled": 0, "type": "electric_scooter", "bike_id": "f50821ac0663728c601784d60b7eac67"}, {"lon": -77.01984683333333, "lat": 38.88378133333333, "name": "4a25ba5a01fcd426465603b642423e19", "fusion_lat": 0.0, "fusion_lon": 0.0, "rental_uris": {"android": "https://dc.lft.to/lastmile_qr_scan", "ios": "https://dc.lft.to/lastmile_qr_scan"}, "is_reserved": 0, "is_disabled": 0, "type": "electric_scooter", "bike_id": "4a25ba5a01fcd426465603b642423e19"}, {"lon": -77.0408805, "lat": 38.920153666666664, "name": "cee317391ea8a2aed7ba37020a0b62bf", "fusion_lat": 0.0, "fusion_lon": 0.0, "rental_uris": {"android": "https://dc.lft.to/lastmile_qr_scan", "ios": "https://dc.lft.to/lastmile_qr_scan"}, "is_reserved": 0, "is_disabled": 0, "type": "electric_scooter", "bike_id": "cee317391ea8a2aed7ba37020a0b62bf"}, {"lon": -76.98369683333334, "lat": 38.861119, "name": "99a3224c60c98666c763e80e2f35eafd", "fusion_lat": 0.0, "fusion_lon": 0.0, "rental_uris": {"android": "https://dc.lft.to/lastmile_qr_scan", "ios": "https://dc.lft.to/lastmile_qr_scan"}, "is_reserved": 0, "is_disabled": 0, "type": "electric_scooter", "bike_id": "99a3224c60c98666c763e80e2f35eafd"}, {"lon": -77.0020755, "lat": 38.822608, "name": "ddb09cbffe8241584491599c06622555", "fusion_lat": 0.0, "fusion_lon": 0.0, "rental_uris": {"android": "https://dc.lft.to/lastmile_qr_scan", "ios": "https://dc.lft.to/lastmile_qr_scan"}, "is_reserved": 0, "is_disabled": 0, "type": "electric_scooter", "bike_id": "ddb09cbffe8241584491599c06622555"}, {"lon": -77.0115535, "lat": 38.95666333333333, "name": "0afd88007e5fa49cb3ec067880c83b03", "fusion_lat": 0.0, "fusion_lon": 0.0, "rental_uris": {"android": "https://dc.lft.to/lastmile_qr_scan", "ios": "https://dc.lft.to/lastmile_qr_scan"}, "is_reserved": 0, "is_disabled": 0, "type": "electric_scooter", "bike_id": "0afd88007e5fa49cb3ec067880c83b03"}, {"lon": -77.00351833333333, "lat": 38.896648, "name": "0200b22fa9ddafd49fed9984426c9f5c", "fusion_lat": 0.0, "fusion_lon": 0.0, "rental_uris": {"android": "https://dc.lft.to/lastmile_qr_scan", "ios": "https://dc.lft.to/lastmile_qr_scan"}, "is_reserved": 0, "is_disabled": 0, "type": "electric_scooter", "bike_id": "0200b22fa9ddafd49fed9984426c9f5c"}, {"lon": -77.01865666666667, "lat": 38.94887583333333, "name": "344c5f0d2c5d30dd7026b63fc58f7095", "fusion_lat": 0.0, "fusion_lon": 0.0, "rental_uris": {"android": "https://dc.lft.to/lastmile_qr_scan", "ios": "https://dc.lft.to/lastmile_qr_scan"}, "is_reserved": 0, "is_disabled": 0, "type": "electric_scooter", "bike_id": "344c5f0d2c5d30dd7026b63fc58f7095"}, {"lon": -77.02927416666667, "lat": 38.882126666666665, "name": "c8f7c40185ae29986d9393ef00dde458", "fusion_lat": 0.0, "fusion_lon": 0.0, "rental_uris": {"android": "https://dc.lft.to/lastmile_qr_scan", "ios": "https://dc.lft.to/lastmile_qr_scan"}, "is_reserved": 0, "is_disabled": 0, "type": "electric_scooter", "bike_id": "c8f7c40185ae29986d9393ef00dde458"}, {"lon": -77.02493833333334, "lat": 38.919228, "name": "7c77df2532968734e4b8273b58fb6593", "fusion_lat": 0.0, "fusion_lon": 0.0, "rental_uris": {"android": "https://dc.lft.to/lastmile_qr_scan", "ios": "https://dc.lft.to/lastmile_qr_scan"}, "is_reserved": 0, "is_disabled": 0, "type": "electric_scooter", "bike_id": "7c77df2532968734e4b8273b58fb6593"}, {"lon": -77.05559516666666, "lat": 38.89958816666667, "name": "8ec8aaf03b79f1ae0705f3c5c1660424", "fusion_lat": 0.0, "fusion_lon": 0.0, "rental_uris": {"android": "https://dc.lft.to/lastmile_qr_scan", "ios": "https://dc.lft.to/lastmile_qr_scan"}, "is_reserved": 0, "is_disabled": 0, "type": "electric_scooter", "bike_id": "8ec8aaf03b79f1ae0705f3c5c1660424"}, {"lon": -77.03318233333333, "lat": 38.898701333333335, "name": "a4df7b846e44d45b59607e3f5993afa1", "fusion_lat": 0.0, "fusion_lon": 0.0, "rental_uris": {"android": "https://dc.lft.to/lastmile_qr_scan", "ios": "https://dc.lft.to/lastmile_qr_scan"}, "is_reserved": 0, "is_disabled": 0, "type": "electric_scooter", "bike_id": "a4df7b846e44d45b59607e3f5993afa1"}, {"lon": -76.96526166666666, "lat": 38.8762855, "name": "641dfa60e48b23377102585e5fcff31e", "fusion_lat": 0.0, "fusion_lon": 0.0, "rental_uris": {"android": "https://dc.lft.to/lastmile_qr_scan", "ios": "https://dc.lft.to/lastmile_qr_scan"}, "is_reserved": 0, "is_disabled": 0, "type": "electric_scooter", "bike_id": "641dfa60e48b23377102585e5fcff31e"}, {"lon": -77.04611366666667, "lat": 38.902322833333336, "name": "0e13f12d38c7ec7932157a7fac2d0af1", "fusion_lat": 0.0, "fusion_lon": 0.0, "rental_uris": {"android": "https://dc.lft.to/lastmile_qr_scan", "ios": "https://dc.lft.to/lastmile_qr_scan"}, "is_reserved": 0, "is_disabled": 0, "type": "electric_scooter", "bike_id": "0e13f12d38c7ec7932157a7fac2d0af1"}, {"lon": -77.04894333333333, "lat": 38.8923475, "name": "8bfc94a85349f60de5989d3429cca43d", "fusion_lat": 0.0, "fusion_lon": 0.0, "rental_uris": {"android": "https://dc.lft.to/lastmile_qr_scan", "ios": "https://dc.lft.to/lastmile_qr_scan"}, "is_reserved": 0, "is_disabled": 0, "type": "electric_scooter", "bike_id": "8bfc94a85349f60de5989d3429cca43d"}, {"lon": -76.99339433333333, "lat": 38.961907333333336, "name": "0d3d8ee060de3d4d32df0a61ac3d23c7", "fusion_lat": 0.0, "fusion_lon": 0.0, "rental_uris": {"android": "https://dc.lft.to/lastmile_qr_scan", "ios": "https://dc.lft.to/lastmile_qr_scan"}, "is_reserved": 0, "is_disabled": 0, "type": "electric_bike", "bike_id": "0d3d8ee060de3d4d32df0a61ac3d23c7"}, {"lon": -77.04213616666667, "lat": 38.92317933333333, "name": "579b0a690073ca406eb78d3b1fa25c32", "fusion_lat": 0.0, "fusion_lon": 0.0, "rental_uris": {"android": "https://dc.lft.to/lastmile_qr_scan", "ios": "https://dc.lft.to/lastmile_qr_scan"}, "is_reserved": 0, "is_disabled": 0, "type": "electric_scooter", "bike_id": "579b0a690073ca406eb78d3b1fa25c32"}, {"lon": -77.011121, "lat": 38.963052833333336, "name": "f76b650f57a9dae61d44ecaa589ae1cd", "fusion_lat": 0.0, "fusion_lon": 0.0, "rental_uris": {"android": "https://dc.lft.to/lastmile_qr_scan", "ios": "https://dc.lft.to/lastmile_qr_scan"}, "is_reserved": 0, "is_disabled": 0, "type": "electric_bike", "bike_id": "f76b650f57a9dae61d44ecaa589ae1cd"}, {"lon": -77.03880816666667, "lat": 38.911821833333335, "name": "c5f286da18dfd3fde74a5bb4db74776f", "fusion_lat": 0.0, "fusion_lon": 0.0, "rental_uris": {"android": "https://dc.lft.to/lastmile_qr_scan", "ios": "https://dc.lft.to/lastmile_qr_scan"}, "is_reserved": 0, "is_disabled": 0, "type": "electric_scooter", "bike_id": "c5f286da18dfd3fde74a5bb4db74776f"}, {"lon": -76.97327983333334, "lat": 38.904763833333334, "name": "943f3fae680e3c87c59d4f7e91eb547d", "fusion_lat": 0.0, "fusion_lon": 0.0, "rental_uris": {"android": "https://dc.lft.to/lastmile_qr_scan", "ios": "https://dc.lft.to/lastmile_qr_scan"}, "is_reserved": 0, "is_disabled": 0, "type": "electric_scooter", "bike_id": "943f3fae680e3c87c59d4f7e91eb547d"}, {"lon": -77.03222816666667, "lat": 38.897749833333336, "name": "910dce0da7221e23855978889212b806", "fusion_lat": 0.0, "fusion_lon": 0.0, "rental_uris": {"android": "https://dc.lft.to/lastmile_qr_scan", "ios": "https://dc.lft.to/lastmile_qr_scan"}, "is_reserved": 0, "is_disabled": 0, "type": "electric_scooter", "bike_id": "910dce0da7221e23855978889212b806"}, {"lon": -77.10898983333334, "lat": 38.830389833333335, "name": "f597422188e4a7a7c99bdf1e1391dca2", "fusion_lat": 0.0, "fusion_lon": 0.0, "rental_uris": {"android": "https://dc.lft.to/lastmile_qr_scan", "ios": "https://dc.lft.to/lastmile_qr_scan"}, "is_reserved": 0, "is_disabled": 0, "type": "electric_bike", "bike_id": "f597422188e4a7a7c99bdf1e1391dca2"}, {"lon": -77.02585333333333, "lat": 38.898446166666666, "name": "f14f70f6fff5100b3036731f2fa4c228", "fusion_lat": 0.0, "fusion_lon": 0.0, "rental_uris": {"android": "https://dc.lft.to/lastmile_qr_scan", "ios": "https://dc.lft.to/lastmile_qr_scan"}, "is_reserved": 0, "is_disabled": 0, "type": "electric_scooter", "bike_id": "f14f70f6fff5100b3036731f2fa4c228"}, {"lon": -76.9914835, "lat": 38.88236066666666, "name": "d81fab41223534386c16d375a6ef7cc9", "fusion_lat": 0.0, "fusion_lon": 0.0, "rental_uris": {"android": "https://dc.lft.to/lastmile_qr_scan", "ios": "https://dc.lft.to/lastmile_qr_scan"}, "is_reserved": 0, "is_disabled": 0, "type": "electric_scooter", "bike_id": "d81fab41223534386c16d375a6ef7cc9"}, {"lon": -77.01984866666666, "lat": 38.9151935, "name": "4e06a515687c923640fa3f997283cfc0", "fusion_lat": 0.0, "fusion_lon": 0.0, "rental_uris": {"android": "https://dc.lft.to/lastmile_qr_scan", "ios": "https://dc.lft.to/lastmile_qr_scan"}, "is_reserved": 0, "is_disabled": 0, "type": "electric_scooter", "bike_id": "4e06a515687c923640fa3f997283cfc0"}, {"lon": -77.00139433333334, "lat": 38.904045833333335, "name": "8007195aa84a46ec925e6d0babea6dd2", "fusion_lat": 0.0, "fusion_lon": 0.0, "rental_uris": {"android": "https://dc.lft.to/lastmile_qr_scan", "ios": "https://dc.lft.to/lastmile_qr_scan"}, "is_reserved": 0, "is_disabled": 0, "type": "electric_scooter", "bike_id": "8007195aa84a46ec925e6d0babea6dd2"}, {"lon": -76.9317785, "lat": 38.898816333333336, "name": "3494cfbf776ef4930be9be08671fca85", "fusion_lat": 0.0, "fusion_lon": 0.0, "rental_uris": {"android": "https://dc.lft.to/lastmile_qr_scan", "ios": "https://dc.lft.to/lastmile_qr_scan"}, "is_reserved": 0, "is_disabled": 0, "type": "electric_scooter", "bike_id": "3494cfbf776ef4930be9be08671fca85"}, {"lon": -77.02725883333333, "lat": 38.951271, "name": "f2ed2f4e1f959094098e1a9fd04701a9", "fusion_lat": 0.0, "fusion_lon": 0.0, "rental_uris": {"android": "https://dc.lft.to/lastmile_qr_scan", "ios": "https://dc.lft.to/lastmile_qr_scan"}, "is_reserved": 0, "is_disabled": 0, "type": "electric_scooter", "bike_id": "f2ed2f4e1f959094098e1a9fd04701a9"}, {"lon": -77.00727633333334, "lat": 38.88491883333333, "name": "1117a99148b5470dcdc2c9ed2f0a294d", "fusion_lat": 0.0, "fusion_lon": 0.0, "rental_uris": {"android": "https://dc.lft.to/lastmile_qr_scan", "ios": "https://dc.lft.to/lastmile_qr_scan"}, "is_reserved": 0, "is_disabled": 0, "type": "electric_scooter", "bike_id": "1117a99148b5470dcdc2c9ed2f0a294d"}, {"lon": -76.9886335, "lat": 38.90021216666667, "name": "53e62d6aebb07c6b3e2b61bebbb42a0b", "fusion_lat": 0.0, "fusion_lon": 0.0, "rental_uris": {"android": "https://dc.lft.to/lastmile_qr_scan", "ios": "https://dc.lft.to/lastmile_qr_scan"}, "is_reserved": 0, "is_disabled": 0, "type": "electric_scooter", "bike_id": "53e62d6aebb07c6b3e2b61bebbb42a0b"}, {"lon": -77.02125433333333, "lat": 38.902922333333336, "name": "e60b261125866d959c7cbd61adfa390c", "fusion_lat": 0.0, "fusion_lon": 0.0, "rental_uris": {"android": "https://dc.lft.to/lastmile_qr_scan", "ios": "https://dc.lft.to/lastmile_qr_scan"}, "is_reserved": 0, "is_disabled": 0, "type": "electric_scooter", "bike_id": "e60b261125866d959c7cbd61adfa390c"}, {"lon": -77.00753616666667, "lat": 38.8711095, "name": "5f211d02781682e86e78192aa690f67a", "fusion_lat": 0.0, "fusion_lon": 0.0, "rental_uris": {"android": "https://dc.lft.to/lastmile_qr_scan", "ios": "https://dc.lft.to/lastmile_qr_scan"}, "is_reserved": 0, "is_disabled": 0, "type": "electric_scooter", "bike_id": "5f211d02781682e86e78192aa690f67a"}, {"lon": -77.35310666666666, "lat": 38.950027, "name": "37644fddcd69b0c82791e4fd930993f1", "fusion_lat": 0.0, "fusion_lon": 0.0, "rental_uris": {"android": "https://dc.lft.to/lastmile_qr_scan", "ios": "https://dc.lft.to/lastmile_qr_scan"}, "is_reserved": 0, "is_disabled": 0, "type": "electric_bike", "bike_id": "37644fddcd69b0c82791e4fd930993f1"}, {"lon": -77.03839416666666, "lat": 38.931270166666664, "name": "26bf6a803c2072cf39f950ca61e1e7b3", "fusion_lat": 0.0, "fusion_lon": 0.0, "rental_uris": {"android": "https://dc.lft.to/lastmile_qr_scan", "ios": "https://dc.lft.to/lastmile_qr_scan"}, "is_reserved": 0, "is_disabled": 0, "type": "electric_scooter", "bike_id": "26bf6a803c2072cf39f950ca61e1e7b3"}, {"lon": -77.03371516666667, "lat": 38.9320985, "name": "a67b2082eaac4c19b82f7d241ab00340", "fusion_lat": 0.0, "fusion_lon": 0.0, "rental_uris": {"android": "https://dc.lft.to/lastmile_qr_scan", "ios": "https://dc.lft.to/lastmile_qr_scan"}, "is_reserved": 0, "is_disabled": 0, "type": "electric_scooter", "bike_id": "a67b2082eaac4c19b82f7d241ab00340"}, {"lon": -77.03761483333334, "lat": 38.9396105, "name": "368d9fb18cc5bb986cd76b6f5bd314c1", "fusion_lat": 0.0, "fusion_lon": 0.0, "rental_uris": {"android": "https://dc.lft.to/lastmile_qr_scan", "ios": "https://dc.lft.to/lastmile_qr_scan"}, "is_reserved": 0, "is_disabled": 0, "type": "electric_bike", "bike_id": "368d9fb18cc5bb986cd76b6f5bd314c1"}, {"lon": -76.9730615, "lat": 38.91989783333333, "name": "cfed61717b6fbaba65452dd59cad1459", "fusion_lat": 0.0, "fusion_lon": 0.0, "rental_uris": {"android": "https://dc.lft.to/lastmile_qr_scan", "ios": "https://dc.lft.to/lastmile_qr_scan"}, "is_reserved": 0, "is_disabled": 0, "type": "electric_scooter", "bike_id": "cfed61717b6fbaba65452dd59cad1459"}, {"lon": -77.006028, "lat": 38.88491916666667, "name": "621a715769c4f6e5ce7f5f26f3c2e927", "fusion_lat": 0.0, "fusion_lon": 0.0, "rental_uris": {"android": "https://dc.lft.to/lastmile_qr_scan", "ios": "https://dc.lft.to/lastmile_qr_scan"}, "is_reserved": 0, "is_disabled": 0, "type": "electric_scooter", "bike_id": "621a715769c4f6e5ce7f5f26f3c2e927"}, {"lon": -77.03266216666667, "lat": 38.93445716666667, "name": "f08cd7ea6efbd7ed3c029593583437d3", "fusion_lat": 0.0, "fusion_lon": 0.0, "rental_uris": {"android": "https://dc.lft.to/lastmile_qr_scan", "ios": "https://dc.lft.to/lastmile_qr_scan"}, "is_reserved": 0, "is_disabled": 0, "type": "electric_scooter", "bike_id": "f08cd7ea6efbd7ed3c029593583437d3"}, {"lon": -77.02279883333334, "lat": 38.9254965, "name": "02d9195f1efb1bbbe6430ceb2d17c8a4", "fusion_lat": 0.0, "fusion_lon": 0.0, "rental_uris": {"android": "https://dc.lft.to/lastmile_qr_scan", "ios": "https://dc.lft.to/lastmile_qr_scan"}, "is_reserved": 0, "is_disabled": 0, "type": "electric_scooter", "bike_id": "02d9195f1efb1bbbe6430ceb2d17c8a4"}, {"lon": -77.02490333333333, "lat": 38.938627, "name": "8727dcee80c7879bd02e3ce7a101dd17", "fusion_lat": 0.0, "fusion_lon": 0.0, "rental_uris": {"android": "https://dc.lft.to/lastmile_qr_scan", "ios": "https://dc.lft.to/lastmile_qr_scan"}, "is_reserved": 0, "is_disabled": 0, "type": "electric_scooter", "bike_id": "8727dcee80c7879bd02e3ce7a101dd17"}, {"lon": -77.0322305, "lat": 38.8921865, "name": "43012ac33695a455289d17b9ef279419", "fusion_lat": 0.0, "fusion_lon": 0.0, "rental_uris": {"android": "https://dc.lft.to/lastmile_qr_scan", "ios": "https://dc.lft.to/lastmile_qr_scan"}, "is_reserved": 0, "is_disabled": 0, "type": "electric_scooter", "bike_id": "43012ac33695a455289d17b9ef279419"}, {"lon": -77.07725783333333, "lat": 38.947037333333334, "name": "c785293a34e5c342438f0a9a60b07487", "fusion_lat": 0.0, "fusion_lon": 0.0, "rental_uris": {"android": "https://dc.lft.to/lastmile_qr_scan", "ios": "https://dc.lft.to/lastmile_qr_scan"}, "is_reserved": 0, "is_disabled": 0, "type": "electric_scooter", "bike_id": "c785293a34e5c342438f0a9a60b07487"}, {"lon": -77.014164, "lat": 38.890923, "name": "15b245f5cfcd77bd37fee0defd559274", "fusion_lat": 0.0, "fusion_lon": 0.0, "rental_uris": {"android": "https://dc.lft.to/lastmile_qr_scan", "ios": "https://dc.lft.to/lastmile_qr_scan"}, "is_reserved": 0, "is_disabled": 0, "type": "electric_scooter", "bike_id": "15b245f5cfcd77bd37fee0defd559274"}, {"lon": -77.00444333333333, "lat": 38.876455666666665, "name": "d4acd79287f49a18eb9b2c989bf1f057", "fusion_lat": 0.0, "fusion_lon": 0.0, "rental_uris": {"android": "https://dc.lft.to/lastmile_qr_scan", "ios": "https://dc.lft.to/lastmile_qr_scan"}, "is_reserved": 0, "is_disabled": 0, "type": "electric_scooter", "bike_id": "d4acd79287f49a18eb9b2c989bf1f057"}, {"lon": -77.0438675, "lat": 38.92938783333334, "name": "4d6f858ef7cbc48dfba4c9033d8e8827", "fusion_lat": 0.0, "fusion_lon": 0.0, "rental_uris": {"android": "https://dc.lft.to/lastmile_qr_scan", "ios": "https://dc.lft.to/lastmile_qr_scan"}, "is_reserved": 0, "is_disabled": 0, "type": "electric_scooter", "bike_id": "4d6f858ef7cbc48dfba4c9033d8e8827"}, {"lon": -77.04295783333333, "lat": 38.916201666666666, "name": "e6f880ad78825f42377f65bd434b12e9", "fusion_lat": 0.0, "fusion_lon": 0.0, "rental_uris": {"android": "https://dc.lft.to/lastmile_qr_scan", "ios": "https://dc.lft.to/lastmile_qr_scan"}, "is_reserved": 0, "is_disabled": 0, "type": "electric_scooter", "bike_id": "e6f880ad78825f42377f65bd434b12e9"}, {"lon": -77.12506766666667, "lat": 39.024209, "name": "9b2906b31bfcc5f5f9e413fdcc1ff231", "fusion_lat": 0.0, "fusion_lon": 0.0, "rental_uris": {"android": "https://dc.lft.to/lastmile_qr_scan", "ios": "https://dc.lft.to/lastmile_qr_scan"}, "is_reserved": 0, "is_disabled": 0, "type": "electric_bike", "bike_id": "9b2906b31bfcc5f5f9e413fdcc1ff231"}, {"lon": -77.22571083333334, "lat": 38.929600666666666, "name": "657c5ad7a4e028da700ce6322e013085", "fusion_lat": 0.0, "fusion_lon": 0.0, "rental_uris": {"android": "https://dc.lft.to/lastmile_qr_scan", "ios": "https://dc.lft.to/lastmile_qr_scan"}, "is_reserved": 0, "is_disabled": 0, "type": "electric_bike", "bike_id": "657c5ad7a4e028da700ce6322e013085"}, {"lon": -77.02491116666667, "lat": 38.905615833333336, "name": "ccaad9e42ffb4ea21570b7405e9235c3", "fusion_lat": 0.0, "fusion_lon": 0.0, "rental_uris": {"android": "https://dc.lft.to/lastmile_qr_scan", "ios": "https://dc.lft.to/lastmile_qr_scan"}, "is_reserved": 0, "is_disabled": 0, "type": "electric_scooter", "bike_id": "ccaad9e42ffb4ea21570b7405e9235c3"}, {"lon": -77.00593, "lat": 38.91564183333333, "name": "c6ce3f38603dcd1c3f313f06ed8ef684", "fusion_lat": 0.0, "fusion_lon": 0.0, "rental_uris": {"android": "https://dc.lft.to/lastmile_qr_scan", "ios": "https://dc.lft.to/lastmile_qr_scan"}, "is_reserved": 0, "is_disabled": 0, "type": "electric_scooter", "bike_id": "c6ce3f38603dcd1c3f313f06ed8ef684"}, {"lon": -77.036612, "lat": 38.9306735, "name": "71e2d603154dfda823eeff31e5b1912b", "fusion_lat": 0.0, "fusion_lon": 0.0, "rental_uris": {"android": "https://dc.lft.to/lastmile_qr_scan", "ios": "https://dc.lft.to/lastmile_qr_scan"}, "is_reserved": 0, "is_disabled": 0, "type": "electric_scooter", "bike_id": "71e2d603154dfda823eeff31e5b1912b"}, {"lon": -77.02351833333333, "lat": 38.962069666666665, "name": "ed5e2fdf9ac569f4be155ec6ee5db3be", "fusion_lat": 0.0, "fusion_lon": 0.0, "rental_uris": {"android": "https://dc.lft.to/lastmile_qr_scan", "ios": "https://dc.lft.to/lastmile_qr_scan"}, "is_reserved": 0, "is_disabled": 0, "type": "electric_scooter", "bike_id": "ed5e2fdf9ac569f4be155ec6ee5db3be"}, {"lon": -77.04236916666666, "lat": 38.90747283333333, "name": "f729ca1c75137851d32fad463375c574", "fusion_lat": 0.0, "fusion_lon": 0.0, "rental_uris": {"android": "https://dc.lft.to/lastmile_qr_scan", "ios": "https://dc.lft.to/lastmile_qr_scan"}, "is_reserved": 0, "is_disabled": 0, "type": "electric_scooter", "bike_id": "f729ca1c75137851d32fad463375c574"}, {"lon": -77.03859516666667, "lat": 38.912856833333336, "name": "e45e726607d9292ee832d3ae6439822b", "fusion_lat": 0.0, "fusion_lon": 0.0, "rental_uris": {"android": "https://dc.lft.to/lastmile_qr_scan", "ios": "https://dc.lft.to/lastmile_qr_scan"}, "is_reserved": 0, "is_disabled": 0, "type": "electric_scooter", "bike_id": "e45e726607d9292ee832d3ae6439822b"}, {"lon": -77.043339, "lat": 38.9222095, "name": "2ecee4a77531b4d88039120add517358", "fusion_lat": 0.0, "fusion_lon": 0.0, "rental_uris": {"android": "https://dc.lft.to/lastmile_qr_scan", "ios": "https://dc.lft.to/lastmile_qr_scan"}, "is_reserved": 0, "is_disabled": 0, "type": "electric_scooter", "bike_id": "2ecee4a77531b4d88039120add517358"}, {"lon": -77.04365333333334, "lat": 38.903808833333336, "name": "9c39423ba422416e05d75ee0b0a666c2", "fusion_lat": 0.0, "fusion_lon": 0.0, "rental_uris": {"android": "https://dc.lft.to/lastmile_qr_scan", "ios": "https://dc.lft.to/lastmile_qr_scan"}, "is_reserved": 0, "is_disabled": 0, "type": "electric_scooter", "bike_id": "9c39423ba422416e05d75ee0b0a666c2"}, {"lon": -76.99482366666666, "lat": 38.8955495, "name": "d9df7d2d2b774948568863877c5f30f5", "fusion_lat": 0.0, "fusion_lon": 0.0, "rental_uris": {"android": "https://dc.lft.to/lastmile_qr_scan", "ios": "https://dc.lft.to/lastmile_qr_scan"}, "is_reserved": 0, "is_disabled": 0, "type": "electric_scooter", "bike_id": "d9df7d2d2b774948568863877c5f30f5"}, {"lon": -76.98864766666667, "lat": 38.90026183333333, "name": "efed12d7fb49d2074f66a93b7703820d", "fusion_lat": 0.0, "fusion_lon": 0.0, "rental_uris": {"android": "https://dc.lft.to/lastmile_qr_scan", "ios": "https://dc.lft.to/lastmile_qr_scan"}, "is_reserved": 0, "is_disabled": 0, "type": "electric_scooter", "bike_id": "efed12d7fb49d2074f66a93b7703820d"}, {"lon": -77.02529433333333, "lat": 38.932775166666666, "name": "4dda517d8f65c646da49b50bb5e8c223", "fusion_lat": 0.0, "fusion_lon": 0.0, "rental_uris": {"android": "https://dc.lft.to/lastmile_qr_scan", "ios": "https://dc.lft.to/lastmile_qr_scan"}, "is_reserved": 0, "is_disabled": 0, "type": "electric_scooter", "bike_id": "4dda517d8f65c646da49b50bb5e8c223"}, {"lon": -77.04672883333333, "lat": 38.907405, "name": "0bebfc59ef94003012b3256c4e5e59a2", "fusion_lat": 0.0, "fusion_lon": 0.0, "rental_uris": {"android": "https://dc.lft.to/lastmile_qr_scan", "ios": "https://dc.lft.to/lastmile_qr_scan"}, "is_reserved": 0, "is_disabled": 0, "type": "electric_scooter", "bike_id": "0bebfc59ef94003012b3256c4e5e59a2"}, {"lon": -77.036175, "lat": 38.9562515, "name": "74c04bef812db4957454498624eaa6e7", "fusion_lat": 0.0, "fusion_lon": 0.0, "rental_uris": {"android": "https://dc.lft.to/lastmile_qr_scan", "ios": "https://dc.lft.to/lastmile_qr_scan"}, "is_reserved": 0, "is_disabled": 0, "type": "electric_scooter", "bike_id": "74c04bef812db4957454498624eaa6e7"}, {"lon": -77.04360366666667, "lat": 38.92065516666667, "name": "5db90a194ba030d4abead690c5e44bba", "fusion_lat": 0.0, "fusion_lon": 0.0, "rental_uris": {"android": "https://dc.lft.to/lastmile_qr_scan", "ios": "https://dc.lft.to/lastmile_qr_scan"}, "is_reserved": 0, "is_disabled": 0, "type": "electric_scooter", "bike_id": "5db90a194ba030d4abead690c5e44bba"}, {"lon": -77.01192833333333, "lat": 38.90009516666667, "name": "e7101214385f2210f5888ad6194b2a92", "fusion_lat": 0.0, "fusion_lon": 0.0, "rental_uris": {"android": "https://dc.lft.to/lastmile_qr_scan", "ios": "https://dc.lft.to/lastmile_qr_scan"}, "is_reserved": 0, "is_disabled": 0, "type": "electric_scooter", "bike_id": "e7101214385f2210f5888ad6194b2a92"}, {"lon": -77.00194466666666, "lat": 38.8987645, "name": "2dd160f46cab747d2ba1d66cae09d112", "fusion_lat": 0.0, "fusion_lon": 0.0, "rental_uris": {"android": "https://dc.lft.to/lastmile_qr_scan", "ios": "https://dc.lft.to/lastmile_qr_scan"}, "is_reserved": 0, "is_disabled": 0, "type": "electric_scooter", "bike_id": "2dd160f46cab747d2ba1d66cae09d112"}, {"lon": -77.04008966666666, "lat": 38.92178933333334, "name": "26843476f921557094ab7ab25e7714de", "fusion_lat": 0.0, "fusion_lon": 0.0, "rental_uris": {"android": "https://dc.lft.to/lastmile_qr_scan", "ios": "https://dc.lft.to/lastmile_qr_scan"}, "is_reserved": 0, "is_disabled": 0, "type": "electric_scooter", "bike_id": "26843476f921557094ab7ab25e7714de"}, {"lon": -77.0282705, "lat": 38.9159655, "name": "8ecfee58ac05d692f7850ef0df8c1944", "fusion_lat": 0.0, "fusion_lon": 0.0, "rental_uris": {"android": "https://dc.lft.to/lastmile_qr_scan", "ios": "https://dc.lft.to/lastmile_qr_scan"}, "is_reserved": 0, "is_disabled": 0, "type": "electric_scooter", "bike_id": "8ecfee58ac05d692f7850ef0df8c1944"}, {"lon": -77.032542, "lat": 38.93043633333333, "name": "4eb8bf5effdf8a5c6abe09fa4d5455e6", "fusion_lat": 0.0, "fusion_lon": 0.0, "rental_uris": {"android": "https://dc.lft.to/lastmile_qr_scan", "ios": "https://dc.lft.to/lastmile_qr_scan"}, "is_reserved": 0, "is_disabled": 0, "type": "electric_bike", "bike_id": "4eb8bf5effdf8a5c6abe09fa4d5455e6"}, {"lon": -77.01107366666666, "lat": 38.90357083333333, "name": "2b4004c4bc5332db3a8e8f13a9b28f28", "fusion_lat": 0.0, "fusion_lon": 0.0, "rental_uris": {"android": "https://dc.lft.to/lastmile_qr_scan", "ios": "https://dc.lft.to/lastmile_qr_scan"}, "is_reserved": 0, "is_disabled": 0, "type": "electric_scooter", "bike_id": "2b4004c4bc5332db3a8e8f13a9b28f28"}, {"lon": -77.02718966666667, "lat": 38.8922315, "name": "cf89b0877f0f4cf401850e1520c8c6d1", "fusion_lat": 0.0, "fusion_lon": 0.0, "rental_uris": {"android": "https://dc.lft.to/lastmile_qr_scan", "ios": "https://dc.lft.to/lastmile_qr_scan"}, "is_reserved": 0, "is_disabled": 0, "type": "electric_scooter", "bike_id": "cf89b0877f0f4cf401850e1520c8c6d1"}, {"lon": -76.9652865, "lat": 38.876266, "name": "7ea71340e5db43689d8de41d691e0a77", "fusion_lat": 0.0, "fusion_lon": 0.0, "rental_uris": {"android": "https://dc.lft.to/lastmile_qr_scan", "ios": "https://dc.lft.to/lastmile_qr_scan"}, "is_reserved": 0, "is_disabled": 0, "type": "electric_scooter", "bike_id": "7ea71340e5db43689d8de41d691e0a77"}, {"lon": -77.02692216666667, "lat": 38.909428, "name": "dc73bdd0634d10c1417042cbf9cfb2c8", "fusion_lat": 0.0, "fusion_lon": 0.0, "rental_uris": {"android": "https://dc.lft.to/lastmile_qr_scan", "ios": "https://dc.lft.to/lastmile_qr_scan"}, "is_reserved": 0, "is_disabled": 0, "type": "electric_scooter", "bike_id": "dc73bdd0634d10c1417042cbf9cfb2c8"}, {"lon": -77.03772333333333, "lat": 38.92552033333333, "name": "ee82fd6a8d0392f81e42494aed4572da", "fusion_lat": 0.0, "fusion_lon": 0.0, "rental_uris": {"android": "https://dc.lft.to/lastmile_qr_scan", "ios": "https://dc.lft.to/lastmile_qr_scan"}, "is_reserved": 0, "is_disabled": 0, "type": "electric_scooter", "bike_id": "ee82fd6a8d0392f81e42494aed4572da"}, {"lon": -77.02344933333333, "lat": 38.962098, "name": "b4b0c69a7d3f9439fa58a6a8911b748f", "fusion_lat": 0.0, "fusion_lon": 0.0, "rental_uris": {"android": "https://dc.lft.to/lastmile_qr_scan", "ios": "https://dc.lft.to/lastmile_qr_scan"}, "is_reserved": 0, "is_disabled": 0, "type": "electric_scooter", "bike_id": "b4b0c69a7d3f9439fa58a6a8911b748f"}, {"lon": -77.025998, "lat": 38.8873135, "name": "7a4418212e52fc375cce9c20245f9409", "fusion_lat": 0.0, "fusion_lon": 0.0, "rental_uris": {"android": "https://dc.lft.to/lastmile_qr_scan", "ios": "https://dc.lft.to/lastmile_qr_scan"}, "is_reserved": 0, "is_disabled": 0, "type": "electric_scooter", "bike_id": "7a4418212e52fc375cce9c20245f9409"}, {"lon": -76.99548316666667, "lat": 38.88420333333333, "name": "21258feb004c83b55c6efb9f48fb1b89", "fusion_lat": 0.0, "fusion_lon": 0.0, "rental_uris": {"android": "https://dc.lft.to/lastmile_qr_scan", "ios": "https://dc.lft.to/lastmile_qr_scan"}, "is_reserved": 0, "is_disabled": 0, "type": "electric_scooter", "bike_id": "21258feb004c83b55c6efb9f48fb1b89"}, {"lon": -77.0228935, "lat": 38.9156835, "name": "d26b70c7cf06c9228dd1a0f502941df4", "fusion_lat": 0.0, "fusion_lon": 0.0, "rental_uris": {"android": "https://dc.lft.to/lastmile_qr_scan", "ios": "https://dc.lft.to/lastmile_qr_scan"}, "is_reserved": 0, "is_disabled": 0, "type": "electric_scooter", "bike_id": "d26b70c7cf06c9228dd1a0f502941df4"}, {"lon": -77.0572915, "lat": 38.9336975, "name": "7c71b241c18d38df3137e16fcabe1c58", "fusion_lat": 0.0, "fusion_lon": 0.0, "rental_uris": {"android": "https://dc.lft.to/lastmile_qr_scan", "ios": "https://dc.lft.to/lastmile_qr_scan"}, "is_reserved": 0, "is_disabled": 0, "type": "electric_scooter", "bike_id": "7c71b241c18d38df3137e16fcabe1c58"}, {"lon": -77.00047366666666, "lat": 38.9071965, "name": "8203b975f8636fdbd4d8c3dac7b30441", "fusion_lat": 0.0, "fusion_lon": 0.0, "rental_uris": {"android": "https://dc.lft.to/lastmile_qr_scan", "ios": "https://dc.lft.to/lastmile_qr_scan"}, "is_reserved": 0, "is_disabled": 0, "type": "electric_scooter", "bike_id": "8203b975f8636fdbd4d8c3dac7b30441"}, {"lon": -77.0052915, "lat": 38.928863666666665, "name": "1e768865726f6f74cd6a0ce097c49ea9", "fusion_lat": 0.0, "fusion_lon": 0.0, "rental_uris": {"android": "https://dc.lft.to/lastmile_qr_scan", "ios": "https://dc.lft.to/lastmile_qr_scan"}, "is_reserved": 0, "is_disabled": 0, "type": "electric_scooter", "bike_id": "1e768865726f6f74cd6a0ce097c49ea9"}, {"lon": -77.038743, "lat": 38.908091666666664, "name": "2eca39a5895c2ded4ece6ce6e3695997", "fusion_lat": 0.0, "fusion_lon": 0.0, "rental_uris": {"android": "https://dc.lft.to/lastmile_qr_scan", "ios": "https://dc.lft.to/lastmile_qr_scan"}, "is_reserved": 0, "is_disabled": 0, "type": "electric_scooter", "bike_id": "2eca39a5895c2ded4ece6ce6e3695997"}, {"lon": -77.0139465, "lat": 38.91935333333333, "name": "fd00915823044084f03b609a64e44add", "fusion_lat": 0.0, "fusion_lon": 0.0, "rental_uris": {"android": "https://dc.lft.to/lastmile_qr_scan", "ios": "https://dc.lft.to/lastmile_qr_scan"}, "is_reserved": 0, "is_disabled": 0, "type": "electric_scooter", "bike_id": "fd00915823044084f03b609a64e44add"}, {"lon": -77.0076375, "lat": 38.926728, "name": "93d11af8abf8a64f72316edc961f269e", "fusion_lat": 0.0, "fusion_lon": 0.0, "rental_uris": {"android": "https://dc.lft.to/lastmile_qr_scan", "ios": "https://dc.lft.to/lastmile_qr_scan"}, "is_reserved": 0, "is_disabled": 0, "type": "electric_scooter", "bike_id": "93d11af8abf8a64f72316edc961f269e"}, {"lon": -77.02405216666666, "lat": 38.909825166666664, "name": "0219807613bb342c14e00353f878f09a", "fusion_lat": 0.0, "fusion_lon": 0.0, "rental_uris": {"android": "https://dc.lft.to/lastmile_qr_scan", "ios": "https://dc.lft.to/lastmile_qr_scan"}, "is_reserved": 0, "is_disabled": 0, "type": "electric_scooter", "bike_id": "0219807613bb342c14e00353f878f09a"}, {"lon": -77.19908283333334, "lat": 38.87531283333333, "name": "d326fcad8e0df64676b13b5194760f79", "fusion_lat": 0.0, "fusion_lon": 0.0, "rental_uris": {"android": "https://dc.lft.to/lastmile_qr_scan", "ios": "https://dc.lft.to/lastmile_qr_scan"}, "is_reserved": 0, "is_disabled": 0, "type": "electric_bike", "bike_id": "d326fcad8e0df64676b13b5194760f79"}, {"lon": -77.0765745, "lat": 38.910822333333336, "name": "cffc86d41a49a631c324d8ae434dd48b", "fusion_lat": 0.0, "fusion_lon": 0.0, "rental_uris": {"android": "https://dc.lft.to/lastmile_qr_scan", "ios": "https://dc.lft.to/lastmile_qr_scan"}, "is_reserved": 0, "is_disabled": 0, "type": "electric_scooter", "bike_id": "cffc86d41a49a631c324d8ae434dd48b"}, {"lon": -77.0065305, "lat": 38.908619333333334, "name": "e14822e6c6171d69c4815d5eb359d180", "fusion_lat": 0.0, "fusion_lon": 0.0, "rental_uris": {"android": "https://dc.lft.to/lastmile_qr_scan", "ios": "https://dc.lft.to/lastmile_qr_scan"}, "is_reserved": 0, "is_disabled": 0, "type": "electric_scooter", "bike_id": "e14822e6c6171d69c4815d5eb359d180"}, {"lon": -77.03645383333334, "lat": 38.94916383333333, "name": "1e42ebdd2aef7ecaa4b196f7e1ba3daf", "fusion_lat": 0.0, "fusion_lon": 0.0, "rental_uris": {"android": "https://dc.lft.to/lastmile_qr_scan", "ios": "https://dc.lft.to/lastmile_qr_scan"}, "is_reserved": 0, "is_disabled": 0, "type": "electric_scooter", "bike_id": "1e42ebdd2aef7ecaa4b196f7e1ba3daf"}, {"lon": -77.06826966666667, "lat": 38.911625, "name": "fe587d9d4dc02e31bdb2f33a9d486aec", "fusion_lat": 0.0, "fusion_lon": 0.0, "rental_uris": {"android": "https://dc.lft.to/lastmile_qr_scan", "ios": "https://dc.lft.to/lastmile_qr_scan"}, "is_reserved": 0, "is_disabled": 0, "type": "electric_scooter", "bike_id": "fe587d9d4dc02e31bdb2f33a9d486aec"}, {"lon": -77.05375083333334, "lat": 38.923342, "name": "a435f67faa4eebc9b975b33b733f17eb", "fusion_lat": 0.0, "fusion_lon": 0.0, "rental_uris": {"android": "https://dc.lft.to/lastmile_qr_scan", "ios": "https://dc.lft.to/lastmile_qr_scan"}, "is_reserved": 0, "is_disabled": 0, "type": "electric_scooter", "bike_id": "a435f67faa4eebc9b975b33b733f17eb"}, {"lon": -77.14989733333333, "lat": 39.0945915, "name": "e2d94217061335f0562e7d8373a9ae90", "fusion_lat": 0.0, "fusion_lon": 0.0, "rental_uris": {"android": "https://dc.lft.to/lastmile_qr_scan", "ios": "https://dc.lft.to/lastmile_qr_scan"}, "is_reserved": 0, "is_disabled": 0, "type": "electric_bike", "bike_id": "e2d94217061335f0562e7d8373a9ae90"}, {"lon": -77.09028633333334, "lat": 38.84124466666667, "name": "2c088945b963e19cfda5527c7de430d5", "fusion_lat": 0.0, "fusion_lon": 0.0, "rental_uris": {"android": "https://dc.lft.to/lastmile_qr_scan", "ios": "https://dc.lft.to/lastmile_qr_scan"}, "is_reserved": 0, "is_disabled": 0, "type": "electric_bike", "bike_id": "2c088945b963e19cfda5527c7de430d5"}, {"lon": -77.0386355, "lat": 38.932125166666665, "name": "46b9f097f0efbb30554f68da095e74f8", "fusion_lat": 0.0, "fusion_lon": 0.0, "rental_uris": {"android": "https://dc.lft.to/lastmile_qr_scan", "ios": "https://dc.lft.to/lastmile_qr_scan"}, "is_reserved": 0, "is_disabled": 0, "type": "electric_scooter", "bike_id": "46b9f097f0efbb30554f68da095e74f8"}, {"lon": -77.00352066666666, "lat": 38.89157616666667, "name": "05ba66eeae7abe40b918448bc9374529", "fusion_lat": 0.0, "fusion_lon": 0.0, "rental_uris": {"android": "https://dc.lft.to/lastmile_qr_scan", "ios": "https://dc.lft.to/lastmile_qr_scan"}, "is_reserved": 0, "is_disabled": 0, "type": "electric_scooter", "bike_id": "05ba66eeae7abe40b918448bc9374529"}, {"lon": -77.02740366666667, "lat": 38.928483166666666, "name": "5973e97e7056d01ebb244e5ae8b9c01e", "fusion_lat": 0.0, "fusion_lon": 0.0, "rental_uris": {"android": "https://dc.lft.to/lastmile_qr_scan", "ios": "https://dc.lft.to/lastmile_qr_scan"}, "is_reserved": 0, "is_disabled": 0, "type": "electric_scooter", "bike_id": "5973e97e7056d01ebb244e5ae8b9c01e"}, {"lon": -77.03297866666666, "lat": 38.92219333333333, "name": "e74277a403d49e64452ef6bf19a99735", "fusion_lat": 0.0, "fusion_lon": 0.0, "rental_uris": {"android": "https://dc.lft.to/lastmile_qr_scan", "ios": "https://dc.lft.to/lastmile_qr_scan"}, "is_reserved": 0, "is_disabled": 0, "type": "electric_scooter", "bike_id": "e74277a403d49e64452ef6bf19a99735"}, {"lon": -77.03792416666667, "lat": 38.905724666666664, "name": "d31bf3139c8a4f3b65715c3b26683109", "fusion_lat": 0.0, "fusion_lon": 0.0, "rental_uris": {"android": "https://dc.lft.to/lastmile_qr_scan", "ios": "https://dc.lft.to/lastmile_qr_scan"}, "is_reserved": 0, "is_disabled": 0, "type": "electric_scooter", "bike_id": "d31bf3139c8a4f3b65715c3b26683109"}, {"lon": -77.02821133333333, "lat": 38.9327335, "name": "afed5c1a9ba2c97b8f31cf5a5f137d16", "fusion_lat": 0.0, "fusion_lon": 0.0, "rental_uris": {"android": "https://dc.lft.to/lastmile_qr_scan", "ios": "https://dc.lft.to/lastmile_qr_scan"}, "is_reserved": 0, "is_disabled": 0, "type": "electric_scooter", "bike_id": "afed5c1a9ba2c97b8f31cf5a5f137d16"}, {"lon": -77.02709383333334, "lat": 38.898318833333335, "name": "af91ffaedba396a150c5af3b656645aa", "fusion_lat": 0.0, "fusion_lon": 0.0, "rental_uris": {"android": "https://dc.lft.to/lastmile_qr_scan", "ios": "https://dc.lft.to/lastmile_qr_scan"}, "is_reserved": 0, "is_disabled": 0, "type": "electric_scooter", "bike_id": "af91ffaedba396a150c5af3b656645aa"}, {"lon": -77.0313295, "lat": 38.91559766666666, "name": "20c64202ee22d953910e4887ac285784", "fusion_lat": 0.0, "fusion_lon": 0.0, "rental_uris": {"android": "https://dc.lft.to/lastmile_qr_scan", "ios": "https://dc.lft.to/lastmile_qr_scan"}, "is_reserved": 0, "is_disabled": 0, "type": "electric_scooter", "bike_id": "20c64202ee22d953910e4887ac285784"}, {"lon": -76.947822, "lat": 38.894381333333335, "name": "4c63bb170f7b3e4c736754c3f7c2a3b0", "fusion_lat": 0.0, "fusion_lon": 0.0, "rental_uris": {"android": "https://dc.lft.to/lastmile_qr_scan", "ios": "https://dc.lft.to/lastmile_qr_scan"}, "is_reserved": 0, "is_disabled": 0, "type": "electric_bike", "bike_id": "4c63bb170f7b3e4c736754c3f7c2a3b0"}, {"lon": -77.01236366666667, "lat": 38.915488333333336, "name": "a8d54d23f31e100769959ed225cc701f", "fusion_lat": 0.0, "fusion_lon": 0.0, "rental_uris": {"android": "https://dc.lft.to/lastmile_qr_scan", "ios": "https://dc.lft.to/lastmile_qr_scan"}, "is_reserved": 0, "is_disabled": 0, "type": "electric_scooter", "bike_id": "a8d54d23f31e100769959ed225cc701f"}, {"lon": -77.3609305, "lat": 38.93954766666667, "name": "865d9eef686f078f23c94df4c2e30254", "fusion_lat": 0.0, "fusion_lon": 0.0, "rental_uris": {"android": "https://dc.lft.to/lastmile_qr_scan", "ios": "https://dc.lft.to/lastmile_qr_scan"}, "is_reserved": 0, "is_disabled": 0, "type": "electric_bike", "bike_id": "865d9eef686f078f23c94df4c2e30254"}, {"lon": -77.0091, "lat": 38.90991416666667, "name": "733b98520ec1ef231a7cb13ebaf069eb", "fusion_lat": 0.0, "fusion_lon": 0.0, "rental_uris": {"android": "https://dc.lft.to/lastmile_qr_scan", "ios": "https://dc.lft.to/lastmile_qr_scan"}, "is_reserved": 0, "is_disabled": 0, "type": "electric_scooter", "bike_id": "733b98520ec1ef231a7cb13ebaf069eb"}, {"lon": -76.97992683333334, "lat": 38.877484, "name": "1b54c48025e2c23310e672b249e77c49", "fusion_lat": 0.0, "fusion_lon": 0.0, "rental_uris": {"android": "https://dc.lft.to/lastmile_qr_scan", "ios": "https://dc.lft.to/lastmile_qr_scan"}, "is_reserved": 0, "is_disabled": 0, "type": "electric_bike", "bike_id": "1b54c48025e2c23310e672b249e77c49"}, {"lon": -77.035882, "lat": 38.90703283333333, "name": "6c6265ed73037b4701fdb66a2654a074", "fusion_lat": 0.0, "fusion_lon": 0.0, "rental_uris": {"android": "https://dc.lft.to/lastmile_qr_scan", "ios": "https://dc.lft.to/lastmile_qr_scan"}, "is_reserved": 0, "is_disabled": 0, "type": "electric_scooter", "bike_id": "6c6265ed73037b4701fdb66a2654a074"}, {"lon": -77.00104716666667, "lat": 38.89427833333333, "name": "572501739d995f6dc6d1b757fc7415a2", "fusion_lat": 0.0, "fusion_lon": 0.0, "rental_uris": {"android": "https://dc.lft.to/lastmile_qr_scan", "ios": "https://dc.lft.to/lastmile_qr_scan"}, "is_reserved": 0, "is_disabled": 0, "type": "electric_scooter", "bike_id": "572501739d995f6dc6d1b757fc7415a2"}, {"lon": -77.02540516666667, "lat": 38.94095933333333, "name": "0d3c0bd13cb591176927c1e80c8fa119", "fusion_lat": 0.0, "fusion_lon": 0.0, "rental_uris": {"android": "https://dc.lft.to/lastmile_qr_scan", "ios": "https://dc.lft.to/lastmile_qr_scan"}, "is_reserved": 0, "is_disabled": 0, "type": "electric_scooter", "bike_id": "0d3c0bd13cb591176927c1e80c8fa119"}, {"lon": -77.018792, "lat": 38.9096855, "name": "d400dcbf547903fae1668e4f8d00b7a8", "fusion_lat": 0.0, "fusion_lon": 0.0, "rental_uris": {"android": "https://dc.lft.to/lastmile_qr_scan", "ios": "https://dc.lft.to/lastmile_qr_scan"}, "is_reserved": 0, "is_disabled": 0, "type": "electric_scooter", "bike_id": "d400dcbf547903fae1668e4f8d00b7a8"}, {"lon": -77.0463085, "lat": 38.902531833333335, "name": "43e1efbcae24955fd0f348ac39081b37", "fusion_lat": 0.0, "fusion_lon": 0.0, "rental_uris": {"android": "https://dc.lft.to/lastmile_qr_scan", "ios": "https://dc.lft.to/lastmile_qr_scan"}, "is_reserved": 0, "is_disabled": 0, "type": "electric_scooter", "bike_id": "43e1efbcae24955fd0f348ac39081b37"}, {"lon": -77.08194116666667, "lat": 38.855518333333336, "name": "e7c2d0b99dc3f01d3a915dda175143a8", "fusion_lat": 0.0, "fusion_lon": 0.0, "rental_uris": {"android": "https://dc.lft.to/lastmile_qr_scan", "ios": "https://dc.lft.to/lastmile_qr_scan"}, "is_reserved": 0, "is_disabled": 0, "type": "electric_bike", "bike_id": "e7c2d0b99dc3f01d3a915dda175143a8"}, {"lon": -77.01592516666666, "lat": 38.896194, "name": "c1e97f73ea5d9395123070422406bb4c", "fusion_lat": 0.0, "fusion_lon": 0.0, "rental_uris": {"android": "https://dc.lft.to/lastmile_qr_scan", "ios": "https://dc.lft.to/lastmile_qr_scan"}, "is_reserved": 0, "is_disabled": 0, "type": "electric_scooter", "bike_id": "c1e97f73ea5d9395123070422406bb4c"}, {"lon": -77.07931083333334, "lat": 38.9487135, "name": "890c19c819ae1ec42bf07d076f16f35c", "fusion_lat": 0.0, "fusion_lon": 0.0, "rental_uris": {"android": "https://dc.lft.to/lastmile_qr_scan", "ios": "https://dc.lft.to/lastmile_qr_scan"}, "is_reserved": 0, "is_disabled": 0, "type": "electric_scooter", "bike_id": "890c19c819ae1ec42bf07d076f16f35c"}, {"lon": -77.01377916666667, "lat": 38.875873666666664, "name": "00c1fa8ea66d8986a9f26aee1cf95c7c", "fusion_lat": 0.0, "fusion_lon": 0.0, "rental_uris": {"android": "https://dc.lft.to/lastmile_qr_scan", "ios": "https://dc.lft.to/lastmile_qr_scan"}, "is_reserved": 0, "is_disabled": 0, "type": "electric_scooter", "bike_id": "00c1fa8ea66d8986a9f26aee1cf95c7c"}, {"lon": -77.052609, "lat": 38.910112, "name": "4ef08a18d3a5a2443ae2edd91966af63", "fusion_lat": 0.0, "fusion_lon": 0.0, "rental_uris": {"android": "https://dc.lft.to/lastmile_qr_scan", "ios": "https://dc.lft.to/lastmile_qr_scan"}, "is_reserved": 0, "is_disabled": 0, "type": "electric_scooter", "bike_id": "4ef08a18d3a5a2443ae2edd91966af63"}, {"lon": -77.00724466666667, "lat": 38.91338366666667, "name": "42e8147ff0e3414fadd37c5b360848fb", "fusion_lat": 0.0, "fusion_lon": 0.0, "rental_uris": {"android": "https://dc.lft.to/lastmile_qr_scan", "ios": "https://dc.lft.to/lastmile_qr_scan"}, "is_reserved": 0, "is_disabled": 0, "type": "electric_scooter", "bike_id": "42e8147ff0e3414fadd37c5b360848fb"}, {"lon": -76.92998233333333, "lat": 38.887934, "name": "24e66aa5f6389368db78433fa0e3d940", "fusion_lat": 0.0, "fusion_lon": 0.0, "rental_uris": {"android": "https://dc.lft.to/lastmile_qr_scan", "ios": "https://dc.lft.to/lastmile_qr_scan"}, "is_reserved": 0, "is_disabled": 0, "type": "electric_bike", "bike_id": "24e66aa5f6389368db78433fa0e3d940"}, {"lon": -77.027889, "lat": 38.95680483333334, "name": "0214598222ce6c18a1511b9d71604ddb", "fusion_lat": 0.0, "fusion_lon": 0.0, "rental_uris": {"android": "https://dc.lft.to/lastmile_qr_scan", "ios": "https://dc.lft.to/lastmile_qr_scan"}, "is_reserved": 0, "is_disabled": 0, "type": "electric_scooter", "bike_id": "0214598222ce6c18a1511b9d71604ddb"}, {"lon": -77.0396655, "lat": 38.91992066666667, "name": "e838a1fb6fd8fef20b18ad9a3fa99f9f", "fusion_lat": 0.0, "fusion_lon": 0.0, "rental_uris": {"android": "https://dc.lft.to/lastmile_qr_scan", "ios": "https://dc.lft.to/lastmile_qr_scan"}, "is_reserved": 0, "is_disabled": 0, "type": "electric_scooter", "bike_id": "e838a1fb6fd8fef20b18ad9a3fa99f9f"}, {"lon": -77.02381516666667, "lat": 38.89231233333334, "name": "22009e8ac63835192b5c2d603462c89d", "fusion_lat": 0.0, "fusion_lon": 0.0, "rental_uris": {"android": "https://dc.lft.to/lastmile_qr_scan", "ios": "https://dc.lft.to/lastmile_qr_scan"}, "is_reserved": 0, "is_disabled": 0, "type": "electric_scooter", "bike_id": "22009e8ac63835192b5c2d603462c89d"}, {"lon": -76.97745616666667, "lat": 38.900029833333335, "name": "35ad7c35afe5a848d39111e0ea33f6d6", "fusion_lat": 0.0, "fusion_lon": 0.0, "rental_uris": {"android": "https://dc.lft.to/lastmile_qr_scan", "ios": "https://dc.lft.to/lastmile_qr_scan"}, "is_reserved": 0, "is_disabled": 0, "type": "electric_scooter", "bike_id": "35ad7c35afe5a848d39111e0ea33f6d6"}, {"lon": -77.055276, "lat": 38.8993505, "name": "d2c6ac6b34be3132c314d88b2b15a82b", "fusion_lat": 0.0, "fusion_lon": 0.0, "rental_uris": {"android": "https://dc.lft.to/lastmile_qr_scan", "ios": "https://dc.lft.to/lastmile_qr_scan"}, "is_reserved": 0, "is_disabled": 0, "type": "electric_scooter", "bike_id": "d2c6ac6b34be3132c314d88b2b15a82b"}, {"lon": -77.0378985, "lat": 38.92634016666667, "name": "fcfe7e32439c87392b6c72eb1888e0c1", "fusion_lat": 0.0, "fusion_lon": 0.0, "rental_uris": {"android": "https://dc.lft.to/lastmile_qr_scan", "ios": "https://dc.lft.to/lastmile_qr_scan"}, "is_reserved": 0, "is_disabled": 0, "type": "electric_scooter", "bike_id": "fcfe7e32439c87392b6c72eb1888e0c1"}, {"lon": -77.10691833333334, "lat": 38.855514166666666, "name": "804c7d338895396a1c9247fec8be23e2", "fusion_lat": 0.0, "fusion_lon": 0.0, "rental_uris": {"android": "https://dc.lft.to/lastmile_qr_scan", "ios": "https://dc.lft.to/lastmile_qr_scan"}, "is_reserved": 0, "is_disabled": 0, "type": "electric_bike", "bike_id": "804c7d338895396a1c9247fec8be23e2"}, {"lon": -76.948784, "lat": 38.88952166666667, "name": "d26ded35d2fd013c982a1f3b7675a60f", "fusion_lat": 0.0, "fusion_lon": 0.0, "rental_uris": {"android": "https://dc.lft.to/lastmile_qr_scan", "ios": "https://dc.lft.to/lastmile_qr_scan"}, "is_reserved": 0, "is_disabled": 0, "type": "electric_bike", "bike_id": "d26ded35d2fd013c982a1f3b7675a60f"}, {"lon": -76.98230666666667, "lat": 38.9250395, "name": "6ceb58aeaf3d24a89142580b27b000e4", "fusion_lat": 0.0, "fusion_lon": 0.0, "rental_uris": {"android": "https://dc.lft.to/lastmile_qr_scan", "ios": "https://dc.lft.to/lastmile_qr_scan"}, "is_reserved": 0, "is_disabled": 0, "type": "electric_bike", "bike_id": "6ceb58aeaf3d24a89142580b27b000e4"}, {"lon": -77.03312983333333, "lat": 38.91414483333333, "name": "fb994de669d2abc4d8edf60f43038479", "fusion_lat": 0.0, "fusion_lon": 0.0, "rental_uris": {"android": "https://dc.lft.to/lastmile_qr_scan", "ios": "https://dc.lft.to/lastmile_qr_scan"}, "is_reserved": 0, "is_disabled": 0, "type": "electric_scooter", "bike_id": "fb994de669d2abc4d8edf60f43038479"}, {"lon": -76.981768, "lat": 38.900448833333336, "name": "ccc13c30f90ebe354595bd80feebad70", "fusion_lat": 0.0, "fusion_lon": 0.0, "rental_uris": {"android": "https://dc.lft.to/lastmile_qr_scan", "ios": "https://dc.lft.to/lastmile_qr_scan"}, "is_reserved": 0, "is_disabled": 0, "type": "electric_scooter", "bike_id": "ccc13c30f90ebe354595bd80feebad70"}, {"lon": -76.87824283333333, "lat": 38.99231783333333, "name": "404cc2ce4e0bb54ca5167b270c652f99", "fusion_lat": 0.0, "fusion_lon": 0.0, "rental_uris": {"android": "https://dc.lft.to/lastmile_qr_scan", "ios": "https://dc.lft.to/lastmile_qr_scan"}, "is_reserved": 0, "is_disabled": 0, "type": "electric_bike", "bike_id": "404cc2ce4e0bb54ca5167b270c652f99"}, {"lon": -76.995605, "lat": 38.8860165, "name": "d4e9b23255ad3709b948c3a03243177d", "fusion_lat": 0.0, "fusion_lon": 0.0, "rental_uris": {"android": "https://dc.lft.to/lastmile_qr_scan", "ios": "https://dc.lft.to/lastmile_qr_scan"}, "is_reserved": 0, "is_disabled": 0, "type": "electric_scooter", "bike_id": "d4e9b23255ad3709b948c3a03243177d"}, {"lon": -77.03078966666666, "lat": 38.91256766666667, "name": "ea9f988bd9a82b64c43e146ea568d40b", "fusion_lat": 0.0, "fusion_lon": 0.0, "rental_uris": {"android": "https://dc.lft.to/lastmile_qr_scan", "ios": "https://dc.lft.to/lastmile_qr_scan"}, "is_reserved": 0, "is_disabled": 0, "type": "electric_scooter", "bike_id": "ea9f988bd9a82b64c43e146ea568d40b"}, {"lon": -77.08537466666667, "lat": 38.85614733333333, "name": "b30523180ba9a81152596f8cf8ba5ddf", "fusion_lat": 0.0, "fusion_lon": 0.0, "rental_uris": {"android": "https://dc.lft.to/lastmile_qr_scan", "ios": "https://dc.lft.to/lastmile_qr_scan"}, "is_reserved": 0, "is_disabled": 0, "type": "electric_bike", "bike_id": "b30523180ba9a81152596f8cf8ba5ddf"}, {"lon": -77.17850083333333, "lat": 39.088997166666665, "name": "e89ecac8dc897074d167cd46dcb317dc", "fusion_lat": 0.0, "fusion_lon": 0.0, "rental_uris": {"android": "https://dc.lft.to/lastmile_qr_scan", "ios": "https://dc.lft.to/lastmile_qr_scan"}, "is_reserved": 0, "is_disabled": 0, "type": "electric_bike", "bike_id": "e89ecac8dc897074d167cd46dcb317dc"}, {"lon": -77.04423033333333, "lat": 38.89188433333333, "name": "7ba67cb9340e978b85991451ea4ef1e0", "fusion_lat": 0.0, "fusion_lon": 0.0, "rental_uris": {"android": "https://dc.lft.to/lastmile_qr_scan", "ios": "https://dc.lft.to/lastmile_qr_scan"}, "is_reserved": 0, "is_disabled": 0, "type": "electric_scooter", "bike_id": "7ba67cb9340e978b85991451ea4ef1e0"}, {"lon": -77.04038433333334, "lat": 38.918804, "name": "1efdbe59a8e0c069077313e38aba574f", "fusion_lat": 0.0, "fusion_lon": 0.0, "rental_uris": {"android": "https://dc.lft.to/lastmile_qr_scan", "ios": "https://dc.lft.to/lastmile_qr_scan"}, "is_reserved": 0, "is_disabled": 0, "type": "electric_scooter", "bike_id": "1efdbe59a8e0c069077313e38aba574f"}, {"lon": -77.02628733333333, "lat": 38.9622155, "name": "af1c8c6c4301706f7d1a1a11b1761ba9", "fusion_lat": 0.0, "fusion_lon": 0.0, "rental_uris": {"android": "https://dc.lft.to/lastmile_qr_scan", "ios": "https://dc.lft.to/lastmile_qr_scan"}, "is_reserved": 0, "is_disabled": 0, "type": "electric_bike", "bike_id": "af1c8c6c4301706f7d1a1a11b1761ba9"}, {"lon": -77.03460566666666, "lat": 38.945730833333336, "name": "c1b876e3a79adf6693d627d379af9c4e", "fusion_lat": 0.0, "fusion_lon": 0.0, "rental_uris": {"android": "https://dc.lft.to/lastmile_qr_scan", "ios": "https://dc.lft.to/lastmile_qr_scan"}, "is_reserved": 0, "is_disabled": 0, "type": "electric_scooter", "bike_id": "c1b876e3a79adf6693d627d379af9c4e"}, {"lon": -77.021829, "lat": 38.8982695, "name": "ccf87221ca2549097b89b4c10dde14ef", "fusion_lat": 0.0, "fusion_lon": 0.0, "rental_uris": {"android": "https://dc.lft.to/lastmile_qr_scan", "ios": "https://dc.lft.to/lastmile_qr_scan"}, "is_reserved": 0, "is_disabled": 0, "type": "electric_scooter", "bike_id": "ccf87221ca2549097b89b4c10dde14ef"}, {"lon": -76.99501216666667, "lat": 38.862426166666665, "name": "94bde9d0a3744f3a64a1727e88f5827e", "fusion_lat": 0.0, "fusion_lon": 0.0, "rental_uris": {"android": "https://dc.lft.to/lastmile_qr_scan", "ios": "https://dc.lft.to/lastmile_qr_scan"}, "is_reserved": 0, "is_disabled": 0, "type": "electric_scooter", "bike_id": "94bde9d0a3744f3a64a1727e88f5827e"}, {"lon": -77.0072435, "lat": 38.8849215, "name": "2cdca17d3343ece0c0b488a00f3abefe", "fusion_lat": 0.0, "fusion_lon": 0.0, "rental_uris": {"android": "https://dc.lft.to/lastmile_qr_scan", "ios": "https://dc.lft.to/lastmile_qr_scan"}, "is_reserved": 0, "is_disabled": 0, "type": "electric_scooter", "bike_id": "2cdca17d3343ece0c0b488a00f3abefe"}, {"lon": -77.03205716666666, "lat": 38.9158265, "name": "47e85ba65aae94abe980d0d293e938d0", "fusion_lat": 0.0, "fusion_lon": 0.0, "rental_uris": {"android": "https://dc.lft.to/lastmile_qr_scan", "ios": "https://dc.lft.to/lastmile_qr_scan"}, "is_reserved": 0, "is_disabled": 0, "type": "electric_scooter", "bike_id": "47e85ba65aae94abe980d0d293e938d0"}, {"lon": -77.0335545, "lat": 38.8850365, "name": "15cc67479e1a85744e8428bd7466c453", "fusion_lat": 0.0, "fusion_lon": 0.0, "rental_uris": {"android": "https://dc.lft.to/lastmile_qr_scan", "ios": "https://dc.lft.to/lastmile_qr_scan"}, "is_reserved": 0, "is_disabled": 0, "type": "electric_scooter", "bike_id": "15cc67479e1a85744e8428bd7466c453"}, {"lon": -77.0383095, "lat": 38.9110885, "name": "7236bb5cfeb5dd27e91ca13e9d81bb85", "fusion_lat": 0.0, "fusion_lon": 0.0, "rental_uris": {"android": "https://dc.lft.to/lastmile_qr_scan", "ios": "https://dc.lft.to/lastmile_qr_scan"}, "is_reserved": 0, "is_disabled": 0, "type": "electric_scooter", "bike_id": "7236bb5cfeb5dd27e91ca13e9d81bb85"}, {"lon": -76.94120483333333, "lat": 38.90788033333333, "name": "705790575541ff72cd26b5b10b0d8b0d", "fusion_lat": 0.0, "fusion_lon": 0.0, "rental_uris": {"android": "https://dc.lft.to/lastmile_qr_scan", "ios": "https://dc.lft.to/lastmile_qr_scan"}, "is_reserved": 0, "is_disabled": 0, "type": "electric_scooter", "bike_id": "705790575541ff72cd26b5b10b0d8b0d"}, {"lon": -76.93814083333334, "lat": 38.913053833333336, "name": "52824459b9986f83fdfa14413c0798e9", "fusion_lat": 0.0, "fusion_lon": 0.0, "rental_uris": {"android": "https://dc.lft.to/lastmile_qr_scan", "ios": "https://dc.lft.to/lastmile_qr_scan"}, "is_reserved": 0, "is_disabled": 0, "type": "electric_scooter", "bike_id": "52824459b9986f83fdfa14413c0798e9"}, {"lon": -76.93158816666667, "lat": 38.898752, "name": "ae1228523874c7151e7b47d98537a433", "fusion_lat": 0.0, "fusion_lon": 0.0, "rental_uris": {"android": "https://dc.lft.to/lastmile_qr_scan", "ios": "https://dc.lft.to/lastmile_qr_scan"}, "is_reserved": 0, "is_disabled": 0, "type": "electric_scooter", "bike_id": "ae1228523874c7151e7b47d98537a433"},