{"data": {"bikes": [{"lat": 38.9184355, "is_disabled": 0, "type": "electric_scooter", "lon": -77.03535933333333, "bike_id": "d88081d760b7c39ce3d94f3f841ca2cc", "fusion_lat": 0.0, "name": "d88081d760b7c39ce3d94f3f841ca2cc", "is_reserved": 0, "rental_uris": {"android": "https://dc.lft.to/lastmile_qr_scan", "ios": "https://dc.lft.to/lastmile_qr_scan"}, "fusion_lon": 0.0}, {"lat": 38.9429765, "is_disabled": 0, "type": "electric_scooter", "lon": -77.07709283333334, "bike_id": "9afe1094013c561ee32edac2bf44b0c2", "fusion_lat": 0.0, "name": "9afe1094013c561ee32edac2bf44b0c2", "is_reserved": 0, "rental_uris": {"android": "https://dc.lft.to/lastmile_qr_scan", "ios": "https://dc.lft.to/lastmile_qr_scan"}, "fusion_lon": 0.0}, {"lat": 38.9051315, "is_disabled": 0, "type": "electric_scooter", "lon": -77.06771366666666, "bike_id": "6e2118f1d07ca4c476f94aeb5fda604a", "fusion_lat": 0.0, "name": "6e2118f1d07ca4c476f94aeb5fda604a", "is_reserved": 0, "rental_uris": {"android": "https://dc.lft.to/lastmile_qr_scan", "ios": "https://dc.lft.to/lastmile_qr_scan"}, "fusion_lon": 0.0}, {"lat": 38.906607666666666, "is_disabled": 0, "type": "electric_scooter", "lon": -77.0419105, "bike_id": "aa8cbd40d1743213344d131dece96565", "fusion_lat": 0.0, "name": "aa8cbd40d1743213344d131dece96565", "is_reserved": 0, "rental_uris": {"android": "https://dc.lft.to/lastmile_qr_scan", "ios": "https://dc.lft.to/lastmile_qr_scan"}, "fusion_lon": 0.0}, {"lat": 38.918795, "is_disabled": 0, "type": "electric_scooter", "lon": -77.03508533333333, "bike_id": "acefc357de0b7992c2b66f0ca72af886", "fusion_lat": 0.0, "name": "acefc357de0b7992c2b66f0ca72af886", "is_reserved": 0, "rental_uris": {"android": "https://dc.lft.to/lastmile_qr_scan", "ios": "https://dc.lft.to/lastmile_qr_scan"}, "fusion_lon": 0.0}, {"lat": 38.9999485, "is_disabled": 0, "type": "electric_bike", "lon": -76.924946, "bike_id": "d6b0ba3479780c836a014fcda42c42f2", "fusion_lat": 0.0, "name": "d6b0ba3479780c836a014fcda42c42f2", "is_reserved": 0, "rental_uris": {"android": "https://dc.lft.to/lastmile_qr_scan", "ios": "https://dc.lft.to/lastmile_qr_scan"}, "fusion_lon": 0.0}, {"lat": 38.89667716666666, "is_disabled": 0, "type": "electric_bike", "lon": -77.04481633333333, "bike_id": "bb528424963c86b9c49a0b763f5bfd1e", "fusion_lat": 0.0, "name": "bb528424963c86b9c49a0b763f5bfd1e", "is_reserved": 0, "rental_uris": {"android": "https://dc.lft.to/lastmile_qr_scan", "ios": "https://dc.lft.to/lastmile_qr_scan"}, "fusion_lon": 0.0}, {"lat": 38.922666166666666, "is_disabled": 0, "type": "electric_scooter", "lon": -77.04241866666666, "bike_id": "7c05f074e8906c98a005fb25585778ab", "fusion_lat": 0.0, "name": "7c05f074e8906c98a005fb25585778ab", "is_reserved": 0, "rental_uris": {"android": "https://dc.lft.to/lastmile_qr_scan", "ios": "https://dc.lft.to/lastmile_qr_scan"}, "fusion_lon": 0.0}, {"lat": 38.89087033333333, "is_disabled": 0, "type": "electric_scooter", "lon": -76.95261666666667, "bike_id": "c55b52a8690e551dc233bb85823e4e0e", "fusion_lat": 0.0, "name": "c55b52a8690e551dc233bb85823e4e0e", "is_reserved": 0, "rental_uris": {"android": "https://dc.lft.to/lastmile_qr_scan", "ios": "https://dc.lft.to/lastmile_qr_scan"}, "fusion_lon": 0.0}, {"lat": 38.936537, "is_disabled": 0, "type": "electric_scooter", "lon": -77.02392533333334, "bike_id": "da402a034d9f14e98129a9ae00e26fc2", "fusion_lat": 0.0, "name": "da402a034d9f14e98129a9ae00e26fc2", "is_reserved": 0, "rental_uris": {"android": "https://dc.lft.to/lastmile_qr_scan", "ios": "https://dc.lft.to/lastmile_qr_scan"}, "fusion_lon": 0.0}, {"lat": 38.93429483333333, "is_disabled": 0, "type": "electric_scooter", "lon": -76.96510133333334, "bike_id": "8932baaa0737f3b73db55f61f5dcbf8f", "fusion_lat": 0.0, "name": "8932baaa0737f3b73db55f61f5dcbf8f", "is_reserved": 0, "rental_uris": {"android": "https://dc.lft.to/lastmile_qr_scan", "ios": "https://dc.lft.to/lastmile_qr_scan"}, "fusion_lon": 0.0}, {"lat": 38.933802166666666, "is_disabled": 0, "type": "electric_scooter", "lon": -77.03559733333333, "bike_id": "be3400fee15450b4cf3b91ee48eed894", "fusion_lat": 0.0, "name": "be3400fee15450b4cf3b91ee48eed894", "is_reserved": 0, "rental_uris": {"android": "https://dc.lft.to/lastmile_qr_scan", "ios": "https://dc.lft.to/lastmile_qr_scan"}, "fusion_lon": 0.0}, {"lat": 38.87543483333334, "is_disabled": 0, "type": "electric_scooter", "lon": -77.00536216666667, "bike_id": "81bcc42bfcc5d2833bbd1705fd21b4ba", "fusion_lat": 0.0, "name": "81bcc42bfcc5d2833bbd1705fd21b4ba", "is_reserved": 0, "rental_uris": {"android": "https://dc.lft.to/lastmile_qr_scan", "ios": "https://dc.lft.to/lastmile_qr_scan"}, "fusion_lon": 0.0}, {"lat": 38.90032216666667, "is_disabled": 0, "type": "electric_scooter", "lon": -77.00226283333333, "bike_id": "e7cb3628c33ae719ac5415ef2278643b", "fusion_lat": 0.0, "name": "e7cb3628c33ae719ac5415ef2278643b", "is_reserved": 0, "rental_uris": {"android": "https://dc.lft.to/lastmile_qr_scan", "ios": "https://dc.lft.to/lastmile_qr_scan"}, "fusion_lon": 0.0}, {"lat": 38.927848166666664, "is_disabled": 0, "type": "electric_scooter", "lon": -77.02739366666667, "bike_id": "3c5cb20a6c206691b47db24704032ac8", "fusion_lat": 0.0, "name": "3c5cb20a6c206691b47db24704032ac8", "is_reserved": 0, "rental_uris": {"android": "https://dc.lft.to/lastmile_qr_scan", "ios": "https://dc.lft.to/lastmile_qr_scan"}, "fusion_lon": 0.0}, {"lat": 38.9317495, "is_disabled": 0, "type": "electric_scooter", "lon": -77.02368483333333, "bike_id": "b35cdde9360a369488f47c191ffe6ee2", "fusion_lat": 0.0, "name": "b35cdde9360a369488f47c191ffe6ee2", "is_reserved": 0, "rental_uris": {"android": "https://dc.lft.to/lastmile_qr_scan", "ios": "https://dc.lft.to/lastmile_qr_scan"}, "fusion_lon": 0.0}, {"lat": 38.88547966666667, "is_disabled": 0, "type": "electric_bike", "lon": -77.11787766666667, "bike_id": "b6b993d41183120ff691cdef988db166", "fusion_lat": 0.0, "name": "b6b993d41183120ff691cdef988db166", "is_reserved": 0, "rental_uris": {"android": "https://dc.lft.to/lastmile_qr_scan", "ios": "https://dc.lft.to/lastmile_qr_scan"}, "fusion_lon": 0.0}, {"lat": 38.8845635, "is_disabled": 0, "type": "electric_scooter", "lon": -76.9295615, "bike_id": "b88ee9d447448391d445a826281937ed", "fusion_lat": 0.0, "name": "b88ee9d447448391d445a826281937ed", "is_reserved": 0, "rental_uris": {"android": "https://dc.lft.to/lastmile_qr_scan", "ios": "https://dc.lft.to/lastmile_qr_scan"}, "fusion_lon": 0.0}, {"lat": 38.886163833333335, "is_disabled": 0, "type": "electric_scooter", "lon": -77.01892216666667, "bike_id": "3cb9a4ed91e7e726ff707c4af11e338d", "fusion_lat": 0.0, "name": "3cb9a4ed91e7e726ff707c4af11e338d", "is_reserved": 0, "rental_uris": {"android": "https://dc.lft.to/lastmile_qr_scan", "ios": "https://dc.lft.to/lastmile_qr_scan"}, "fusion_lon": 0.0}, {"lat": 38.9196265, "is_disabled": 0, "type": "electric_scooter", "lon": -77.01438316666666, "bike_id": "bca43f35913b2f43861430ec32a1ae19", "fusion_lat": 0.0, "name": "bca43f35913b2f43861430ec32a1ae19", "is_reserved": 0, "rental_uris": {"android": "https://dc.lft.to/lastmile_qr_scan", "ios": "https://dc.lft.to/lastmile_qr_scan"}, "fusion_lon": 0.0}, {"lat": 38.909213666666666, "is_disabled": 0, "type": "electric_scooter", "lon": -77.04321033333333, "bike_id": "14af440322d5904e16212c0df500251e", "fusion_lat": 0.0, "name": "14af440322d5904e16212c0df500251e", "is_reserved": 0, "rental_uris": {"android": "https://dc.lft.to/lastmile_qr_scan", "ios": "https://dc.lft.to/lastmile_qr_scan"}, "fusion_lon": 0.0}, {"lat": 38.8867945, "is_disabled": 0, "type": "electric_bike", "lon": -77.1623765, "bike_id": "9f88e222ea43b79e307506c8d8dd716d", "fusion_lat": 0.0, "name": "9f88e222ea43b79e307506c8d8dd716d", "is_reserved": 0, "rental_uris": {"android": "https://dc.lft.to/lastmile_qr_scan", "ios": "https://dc.lft.to/lastmile_qr_scan"}, "fusion_lon": 0.0}, {"lat": 38.898928166666664, "is_disabled": 0, "type": "electric_scooter", "lon": -77.03926133333333, "bike_id": "d66501125143754f0b79894e8aeb89bc", "fusion_lat": 0.0, "name": "d66501125143754f0b79894e8aeb89bc", "is_reserved": 0, "rental_uris": {"android": "https://dc.lft.to/lastmile_qr_scan", "ios": "https://dc.lft.to/lastmile_qr_scan"}, "fusion_lon": 0.0}, {"lat": 38.95707616666667, "is_disabled": 0, "type": "electric_scooter", "lon": -77.02400916666667, "bike_id": "a957c66963644ccc36f8739f8de29f65", "fusion_lat": 0.0, "name": "a957c66963644ccc36f8739f8de29f65", "is_reserved": 0, "rental_uris": {"android": "https://dc.lft.to/lastmile_qr_scan", "ios": "https://dc.lft.to/lastmile_qr_scan"}, "fusion_lon": 0.0}, {"lat": 38.93535133333334, "is_disabled": 0, "type": "electric_scooter", "lon": -77.02353666666667, "bike_id": "c974d6edd1f3a5fbb860c6986cdb2f2b", "fusion_lat": 0.0, "name": "c974d6edd1f3a5fbb860c6986cdb2f2b", "is_reserved": 0, "rental_uris": {"android": "https://dc.lft.to/lastmile_qr_scan", "ios": "https://dc.lft.to/lastmile_qr_scan"}, "fusion_lon": 0.0}, {"lat": 38.8709115, "is_disabled": 0, "type": "electric_scooter", "lon": -77.01213066666666, "bike_id": "5c541027c78473ccefc5f9d03bf79aa3", "fusion_lat": 0.0, "name": "5c541027c78473ccefc5f9d03bf79aa3", "is_reserved": 0, "rental_uris": {"android": "https://dc.lft.to/lastmile_qr_scan", "ios": "https://dc.lft.to/lastmile_qr_scan"}, "fusion_lon": 0.0}, {"lat": 38.92271366666667, "is_disabled": 0, "type": "electric_scooter", "lon": -77.03899716666666, "bike_id": "76d7dc9cf045410a52d208160a7a7d59", "fusion_lat": 0.0, "name": "76d7dc9cf045410a52d208160a7a7d59", "is_reserved": 0, "rental_uris": {"android": "https://dc.lft.to/lastmile_qr_scan", "ios": "https://dc.lft.to/lastmile_qr_scan"}, "fusion_lon": 0.0}, {"lat": 38.9012315, "is_disabled": 0, "type": "electric_scooter", "lon": -77.05895283333334, "bike_id": "5224b12ea07ddb2335c634c59860a1de", "fusion_lat": 0.0, "name": "5224b12ea07ddb2335c634c59860a1de", "is_reserved": 0, "rental_uris": {"android": "https://dc.lft.to/lastmile_qr_scan", "ios": "https://dc.lft.to/lastmile_qr_scan"}, "fusion_lon": 0.0}, {"lat": 38.93697383333333, "is_disabled": 0, "type": "electric_scooter", "lon": -77.02402733333334, "bike_id": "39aaedbb59c9087bfcfba1e7bafe159a", "fusion_lat": 0.0, "name": "39aaedbb59c9087bfcfba1e7bafe159a", "is_reserved": 0, "rental_uris": {"android": "https://dc.lft.to/lastmile_qr_scan", "ios": "https://dc.lft.to/lastmile_qr_scan"}, "fusion_lon": 0.0}, {"lat": 38.957329666666666, "is_disabled": 0, "type": "electric_scooter", "lon": -77.0240415, "bike_id": "7cd10f4db9e0e960c3992f6246fd25f5", "fusion_lat": 0.0, "name": "7cd10f4db9e0e960c3992f6246fd25f5", "is_reserved": 0, "rental_uris": {"android": "https://dc.lft.to/lastmile_qr_scan", "ios": "https://dc.lft.to/lastmile_qr_scan"}, "fusion_lon": 0.0}, {"lat": 38.89403183333334, "is_disabled": 0, "type": "electric_scooter", "lon": -77.02327, "bike_id": "10add484053387fdcb60a4ba56e26573", "fusion_lat": 0.0, "name": "10add484053387fdcb60a4ba56e26573", "is_reserved": 0, "rental_uris": {"android": "https://dc.lft.to/lastmile_qr_scan", "ios": "https://dc.lft.to/lastmile_qr_scan"}, "fusion_lon": 0.0}, {"lat": 38.924705, "is_disabled": 0, "type": "electric_scooter", "lon": -77.03973266666667, "bike_id": "28de3f9f3e2037a5b058573e477f6f32", "fusion_lat": 0.0, "name": "28de3f9f3e2037a5b058573e477f6f32", "is_reserved": 0, "rental_uris": {"android": "https://dc.lft.to/lastmile_qr_scan", "ios": "https://dc.lft.to/lastmile_qr_scan"}, "fusion_lon": 0.0}, {"lat": 38.92064116666667, "is_disabled": 0, "type": "electric_scooter", "lon": -77.04263966666667, "bike_id": "dddeb3e3e75899f5b84276fee4aba434", "fusion_lat": 0.0, "name": "dddeb3e3e75899f5b84276fee4aba434", "is_reserved": 0, "rental_uris": {"android": "https://dc.lft.to/lastmile_qr_scan", "ios": "https://dc.lft.to/lastmile_qr_scan"}, "fusion_lon": 0.0}, {"lat": 38.908404166666664, "is_disabled": 0, "type": "electric_scooter", "lon": -77.04492533333334, "bike_id": "0a32da603ce096b08a6585ea73fb323f", "fusion_lat": 0.0, "name": "0a32da603ce096b08a6585ea73fb323f", "is_reserved": 0, "rental_uris": {"android": "https://dc.lft.to/lastmile_qr_scan", "ios": "https://dc.lft.to/lastmile_qr_scan"}, "fusion_lon": 0.0}, {"lat": 38.94635616666667, "is_disabled": 0, "type": "electric_scooter", "lon": -77.025186, "bike_id": "a3c21aa0a68dde9667a097a121122a5c", "fusion_lat": 0.0, "name": "a3c21aa0a68dde9667a097a121122a5c", "is_reserved": 0, "rental_uris": {"android": "https://dc.lft.to/lastmile_qr_scan", "ios": "https://dc.lft.to/lastmile_qr_scan"}, "fusion_lon": 0.0}, {"lat": 38.89261183333333, "is_disabled": 0, "type": "electric_scooter", "lon": -77.031954, "bike_id": "e1ec9cdb48ebf04dc2f03258ae529513", "fusion_lat": 0.0, "name": "e1ec9cdb48ebf04dc2f03258ae529513", "is_reserved": 0, "rental_uris": {"android": "https://dc.lft.to/lastmile_qr_scan", "ios": "https://dc.lft.to/lastmile_qr_scan"}, "fusion_lon": 0.0}, {"lat": 38.9240925, "is_disabled": 0, "type": "electric_scooter", "lon": -77.050455, "bike_id": "0baaef57355d7bc016aae5143b52adc3", "fusion_lat": 0.0, "name": "0baaef57355d7bc016aae5143b52adc3", "is_reserved": 0, "rental_uris": {"android": "https://dc.lft.to/lastmile_qr_scan", "ios": "https://dc.lft.to/lastmile_qr_scan"}, "fusion_lon": 0.0}, {"lat": 38.900182666666666, "is_disabled": 0, "type": "electric_scooter", "lon": -77.00025, "bike_id": "dc9631677a546404223f98325a4c726f", "fusion_lat": 0.0, "name": "dc9631677a546404223f98325a4c726f", "is_reserved": 0, "rental_uris": {"android": "https://dc.lft.to/lastmile_qr_scan", "ios": "https://dc.lft.to/lastmile_qr_scan"}, "fusion_lon": 0.0}, {"lat": 38.9732895, "is_disabled": 0, "type": "electric_bike", "lon": -77.02149466666667, "bike_id": "c938bb62dab8f03b7d68a330bb5aa0da", "fusion_lat": 0.0, "name": "c938bb62dab8f03b7d68a330bb5aa0da", "is_reserved": 0, "rental_uris": {"android": "https://dc.lft.to/lastmile_qr_scan", "ios": "https://dc.lft.to/lastmile_qr_scan"}, "fusion_lon": 0.0}, {"lat": 38.90032266666667, "is_disabled": 0, "type": "electric_scooter", "lon": -76.996321, "bike_id": "242173324e1785e725805acbb6c2a659", "fusion_lat": 0.0, "name": "242173324e1785e725805acbb6c2a659", "is_reserved": 0, "rental_uris": {"android": "https://dc.lft.to/lastmile_qr_scan", "ios": "https://dc.lft.to/lastmile_qr_scan"}, "fusion_lon": 0.0}, {"lat": 38.91407433333333, "is_disabled": 0, "type": "electric_scooter", "lon": -77.00805016666666, "bike_id": "1d5f7355f05dd8bc7d10dc3ca6541195", "fusion_lat": 0.0, "name": "1d5f7355f05dd8bc7d10dc3ca6541195", "is_reserved": 0, "rental_uris": {"android": "https://dc.lft.to/lastmile_qr_scan", "ios": "https://dc.lft.to/lastmile_qr_scan"}, "fusion_lon": 0.0}, {"lat": 38.919025, "is_disabled": 0, "type": "electric_scooter", "lon": -77.03925583333333, "bike_id": "3348f7bbb9584a78a29e3f33394276b2", "fusion_lat": 0.0, "name": "3348f7bbb9584a78a29e3f33394276b2", "is_reserved": 0, "rental_uris": {"android": "https://dc.lft.to/lastmile_qr_scan", "ios": "https://dc.lft.to/lastmile_qr_scan"}, "fusion_lon": 0.0}, {"lat": 38.91689366666667, "is_disabled": 0, "type": "electric_scooter", "lon": -77.02516966666667, "bike_id": "efd9d92fad925bf55894b7a7eee466ec", "fusion_lat": 0.0, "name": "efd9d92fad925bf55894b7a7eee466ec", "is_reserved": 0, "rental_uris": {"android": "https://dc.lft.to/lastmile_qr_scan", "ios": "https://dc.lft.to/lastmile_qr_scan"}, "fusion_lon": 0.0}, {"lat": 38.916504, "is_disabled": 0, "type": "electric_scooter", "lon": -76.98224783333333, "bike_id": "ca6cc93c59c77776b8bd140d9de78cfe", "fusion_lat": 0.0, "name": "ca6cc93c59c77776b8bd140d9de78cfe", "is_reserved": 0, "rental_uris": {"android": "https://dc.lft.to/lastmile_qr_scan", "ios": "https://dc.lft.to/lastmile_qr_scan"}, "fusion_lon": 0.0}, {"lat": 39.03425933333333, "is_disabled": 0, "type": "electric_bike", "lon": -77.0430385, "bike_id": "1fedfd36c29016eaf730618a56640f86", "fusion_lat": 0.0, "name": "1fedfd36c29016eaf730618a56640f86", "is_reserved": 0, "rental_uris": {"android": "https://dc.lft.to/lastmile_qr_scan", "ios": "https://dc.lft.to/lastmile_qr_scan"}, "fusion_lon": 0.0}, {"lat": 38.85188316666667, "is_disabled": 0, "type": "electric_scooter", "lon": -76.97620633333334, "bike_id": "8ee36972fda3f4b31cceb3bf3742388a", "fusion_lat": 0.0, "name": "8ee36972fda3f4b31cceb3bf3742388a", "is_reserved": 0, "rental_uris": {"android": "https://dc.lft.to/lastmile_qr_scan", "ios": "https://dc.lft.to/lastmile_qr_scan"}, "fusion_lon": 0.0}, {"lat": 38.9365705, "is_disabled": 0, "type": "electric_bike", "lon": -76.95222266666667, "bike_id": "3aaf00b84b0dea4498452099efac5cf7", "fusion_lat": 0.0, "name": "3aaf00b84b0dea4498452099efac5cf7", "is_reserved": 0, "rental_uris": {"android": "https://dc.lft.to/lastmile_qr_scan", "ios": "https://dc.lft.to/lastmile_qr_scan"}, "fusion_lon": 0.0}, {"lat": 38.8925315, "is_disabled": 0, "type": "electric_scooter", "lon": -77.01793833333333, "bike_id": "e3cb95bc1bb3df82adf8356e24c25c2e", "fusion_lat": 0.0, "name": "e3cb95bc1bb3df82adf8356e24c25c2e", "is_reserved": 0, "rental_uris": {"android": "https://dc.lft.to/lastmile_qr_scan", "ios": "https://dc.lft.to/lastmile_qr_scan"}, "fusion_lon": 0.0}, {"lat": 38.9197875, "is_disabled": 0, "type": "electric_scooter", "lon": -77.02394416666667, "bike_id": "4899ccc12623d92d8615477b5695a887", "fusion_lat": 0.0, "name": "4899ccc12623d92d8615477b5695a887", "is_reserved": 0, "rental_uris": {"android": "https://dc.lft.to/lastmile_qr_scan", "ios": "https://dc.lft.to/lastmile_qr_scan"}, "fusion_lon": 0.0}, {"lat": 38.91342383333333, "is_disabled": 0, "type": "electric_scooter", "lon": -77.03015766666667, "bike_id": "cbe23eeaf488dc78e3a99674c8604acf", "fusion_lat": 0.0, "name": "cbe23eeaf488dc78e3a99674c8604acf", "is_reserved": 0, "rental_uris": {"android": "https://dc.lft.to/lastmile_qr_scan", "ios": "https://dc.lft.to/lastmile_qr_scan"}, "fusion_lon": 0.0}, {"lat": 38.873908666666665, "is_disabled": 0, "type": "electric_scooter", "lon": -77.00028483333334, "bike_id": "676b9a98dba04e5f6fe9513fa0dba391", "fusion_lat": 0.0, "name": "676b9a98dba04e5f6fe9513fa0dba391", "is_reserved": 0, "rental_uris": {"android": "https://dc.lft.to/lastmile_qr_scan", "ios": "https://dc.lft.to/lastmile_qr_scan"}, "fusion_lon": 0.0}, {"lat": 38.84425316666667, "is_disabled": 0, "type": "electric_scooter", "lon": -76.99781216666666, "bike_id": "703012f078bfcf7baa61ba3c948162c7", "fusion_lat": 0.0, "name": "703012f078bfcf7baa61ba3c948162c7", "is_reserved": 0, "rental_uris": {"android": "https://dc.lft.to/lastmile_qr_scan", "ios": "https://dc.lft.to/lastmile_qr_scan"}, "fusion_lon": 0.0}, {"lat": 38.8735785, "is_disabled": 0, "type": "electric_scooter", "lon": -77.009031, "bike_id": "b2cec4bf22d4035cb08aa233e27652a9", "fusion_lat": 0.0, "name": "b2cec4bf22d4035cb08aa233e27652a9", "is_reserved": 0, "rental_uris": {"android": "https://dc.lft.to/lastmile_qr_scan", "ios": "https://dc.lft.to/lastmile_qr_scan"}, "fusion_lon": 0.0}, {"lat": 38.89840616666667, "is_disabled": 0, "type": "electric_scooter", "lon": -77.02322833333334, "bike_id": "23190b4ec315ecea86dc3484b99620cf", "fusion_lat": 0.0, "name": "23190b4ec315ecea86dc3484b99620cf", "is_reserved": 0, "rental_uris": {"android": "https://dc.lft.to/lastmile_qr_scan", "ios": "https://dc.lft.to/lastmile_qr_scan"}, "fusion_lon": 0.0}, {"lat": 38.912548, "is_disabled": 0, "type": "electric_scooter", "lon": -77.0323575, "bike_id": "226fcab33b7f4571dcfee87df5075af7", "fusion_lat": 0.0, "name": "226fcab33b7f4571dcfee87df5075af7", "is_reserved": 0, "rental_uris": {"android": "https://dc.lft.to/lastmile_qr_scan", "ios": "https://dc.lft.to/lastmile_qr_scan"}, "fusion_lon": 0.0}, {"lat": 38.9375275, "is_disabled": 0, "type": "electric_scooter", "lon": -77.0363645, "bike_id": "4bfe07d64d51077b7ff69b798bb3b550", "fusion_lat": 0.0, "name": "4bfe07d64d51077b7ff69b798bb3b550", "is_reserved": 0, "rental_uris": {"android": "https://dc.lft.to/lastmile_qr_scan", "ios": "https://dc.lft.to/lastmile_qr_scan"}, "fusion_lon": 0.0}, {"lat": 38.90683716666667, "is_disabled": 0, "type": "electric_scooter", "lon": -77.02695466666667, "bike_id": "1df9cce5535ef3fca5ebb4fce194a14d", "fusion_lat": 0.0, "name": "1df9cce5535ef3fca5ebb4fce194a14d", "is_reserved": 0, "rental_uris": {"android": "https://dc.lft.to/lastmile_qr_scan", "ios": "https://dc.lft.to/lastmile_qr_scan"}, "fusion_lon": 0.0}, {"lat": 38.93894266666667, "is_disabled": 0, "type": "electric_scooter", "lon": -77.08491783333334, "bike_id": "49f697bdd53c24424bab363c765d451a", "fusion_lat": 0.0, "name": "49f697bdd53c24424bab363c765d451a", "is_reserved": 0, "rental_uris": {"android": "https://dc.lft.to/lastmile_qr_scan", "ios": "https://dc.lft.to/lastmile_qr_scan"}, "fusion_lon": 0.0}, {"lat": 38.916629666666665, "is_disabled": 0, "type": "electric_scooter", "lon": -77.02388466666666, "bike_id": "17573cbcd270ecbb71162cc27a85c07a", "fusion_lat": 0.0, "name": "17573cbcd270ecbb71162cc27a85c07a", "is_reserved": 0, "rental_uris": {"android": "https://dc.lft.to/lastmile_qr_scan", "ios": "https://dc.lft.to/lastmile_qr_scan"}, "fusion_lon": 0.0}, {"lat": 38.920101333333335, "is_disabled": 0, "type": "electric_scooter", "lon": -77.017264, "bike_id": "78e8da0197abfedff8dbdccd692fa9cc", "fusion_lat": 0.0, "name": "78e8da0197abfedff8dbdccd692fa9cc", "is_reserved": 0, "rental_uris": {"android": "https://dc.lft.to/lastmile_qr_scan", "ios": "https://dc.lft.to/lastmile_qr_scan"}, "fusion_lon": 0.0}, {"lat": 38.897725666666666, "is_disabled": 0, "type": "electric_scooter", "lon": -77.00913033333333, "bike_id": "eaa3b1e532ae889bd0feecab2e8b28b3", "fusion_lat": 0.0, "name": "eaa3b1e532ae889bd0feecab2e8b28b3", "is_reserved": 0, "rental_uris": {"android": "https://dc.lft.to/lastmile_qr_scan", "ios": "https://dc.lft.to/lastmile_qr_scan"}, "fusion_lon": 0.0}, {"lat": 38.887661, "is_disabled": 0, "type": "electric_scooter", "lon": -76.95597366666667, "bike_id": "9087fc086cc648faf52fbf0766adf8d7", "fusion_lat": 0.0, "name": "9087fc086cc648faf52fbf0766adf8d7", "is_reserved": 0, "rental_uris": {"android": "https://dc.lft.to/lastmile_qr_scan", "ios": "https://dc.lft.to/lastmile_qr_scan"}, "fusion_lon": 0.0}, {"lat": 38.95265333333333, "is_disabled": 0, "type": "electric_bike", "lon": -77.0698445, "bike_id": "a477bf2450b40a05b16821dcd3b5e13a", "fusion_lat": 0.0, "name": "a477bf2450b40a05b16821dcd3b5e13a", "is_reserved": 0, "rental_uris": {"android": "https://dc.lft.to/lastmile_qr_scan", "ios": "https://dc.lft.to/lastmile_qr_scan"}, "fusion_lon": 0.0}, {"lat": 38.924231666666664, "is_disabled": 0, "type": "electric_scooter", "lon": -77.05181083333333, "bike_id": "ff721d46642aa24c90654284b71f51d7", "fusion_lat": 0.0, "name": "ff721d46642aa24c90654284b71f51d7", "is_reserved": 0, "rental_uris": {"android": "https://dc.lft.to/lastmile_qr_scan", "ios": "https://dc.lft.to/lastmile_qr_scan"}, "fusion_lon": 0.0}, {"lat": 38.90107833333333, "is_disabled": 0, "type": "electric_scooter", "lon": -77.05903033333334, "bike_id": "dedff9593fb486a762520ca0569711d0", "fusion_lat": 0.0, "name": "dedff9593fb486a762520ca0569711d0", "is_reserved": 0, "rental_uris": {"android": "https://dc.lft.to/lastmile_qr_scan", "ios": "https://dc.lft.to/lastmile_qr_scan"}, "fusion_lon": 0.0}, {"lat": 38.905632, "is_disabled": 0, "type": "electric_scooter", "lon": -77.0340535, "bike_id": "0ab7c56b393b35dd8e2200db91c83d8a", "fusion_lat": 0.0, "name": "0ab7c56b393b35dd8e2200db91c83d8a", "is_reserved": 0, "rental_uris": {"android": "https://dc.lft.to/lastmile_qr_scan", "ios": "https://dc.lft.to/lastmile_qr_scan"}, "fusion_lon": 0.0}, {"lat": 38.909801333333334, "is_disabled": 0, "type": "electric_bike", "lon": -76.985232, "bike_id": "2e30afcddfbbe068d8f6dfd5f07730a2", "fusion_lat": 0.0, "name": "2e30afcddfbbe068d8f6dfd5f07730a2", "is_reserved": 0, "rental_uris": {"android": "https://dc.lft.to/lastmile_qr_scan", "ios": "https://dc.lft.to/lastmile_qr_scan"}, "fusion_lon": 0.0}, {"lat": 38.908662, "is_disabled": 0, "type": "electric_scooter", "lon": -77.02409366666667, "bike_id": "73aba414b28458a1d08db3bc387fbe31", "fusion_lat": 0.0, "name": "73aba414b28458a1d08db3bc387fbe31", "is_reserved": 0, "rental_uris": {"android": "https://dc.lft.to/lastmile_qr_scan", "ios": "https://dc.lft.to/lastmile_qr_scan"}, "fusion_lon": 0.0}, {"lat": 38.893457833333336, "is_disabled": 0, "type": "electric_scooter", "lon": -76.94933366666666, "bike_id": "0c2d001677869441efb75c8690b5f86b", "fusion_lat": 0.0, "name": "0c2d001677869441efb75c8690b5f86b", "is_reserved": 0, "rental_uris": {"android": "https://dc.lft.to/lastmile_qr_scan", "ios": "https://dc.lft.to/lastmile_qr_scan"}, "fusion_lon": 0.0}, {"lat": 38.886155, "is_disabled": 0, "type": "electric_scooter", "lon": -77.02171066666666, "bike_id": "c4c974c835f63e8a0e627367741277a6", "fusion_lat": 0.0, "name": "c4c974c835f63e8a0e627367741277a6", "is_reserved": 0, "rental_uris": {"android": "https://dc.lft.to/lastmile_qr_scan", "ios": "https://dc.lft.to/lastmile_qr_scan"}, "fusion_lon": 0.0}, {"lat": 38.90972516666667, "is_disabled": 0, "type": "electric_scooter", "lon": -77.00922366666667, "bike_id": "d1dcfe80e3b1736ead6db2e0735fe299", "fusion_lat": 0.0, "name": "d1dcfe80e3b1736ead6db2e0735fe299", "is_reserved": 0, "rental_uris": {"android": "https://dc.lft.to/lastmile_qr_scan", "ios": "https://dc.lft.to/lastmile_qr_scan"}, "fusion_lon": 0.0}, {"lat": 38.9719415, "is_disabled": 0, "type": "electric_bike", "lon": -77.02718616666667, "bike_id": "d6e22bf6f33731adf2de4c35b99c81ef", "fusion_lat": 0.0, "name": "d6e22bf6f33731adf2de4c35b99c81ef", "is_reserved": 0, "rental_uris": {"android": "https://dc.lft.to/lastmile_qr_scan", "ios": "https://dc.lft.to/lastmile_qr_scan"}, "fusion_lon": 0.0}, {"lat": 38.9160985, "is_disabled": 0, "type": "electric_scooter", "lon": -77.0329185, "bike_id": "4baad5c15a8382b8c67a41aaa0b0f31c", "fusion_lat": 0.0, "name": "4baad5c15a8382b8c67a41aaa0b0f31c", "is_reserved": 0, "rental_uris": {"android": "https://dc.lft.to/lastmile_qr_scan", "ios": "https://dc.lft.to/lastmile_qr_scan"}, "fusion_lon": 0.0}, {"lat": 38.871389666666666, "is_disabled": 0, "type": "electric_bike", "lon": -76.937057, "bike_id": "2d31e08ebc799186cacb2ae77681bf74", "fusion_lat": 0.0, "name": "2d31e08ebc799186cacb2ae77681bf74", "is_reserved": 0, "rental_uris": {"android": "https://dc.lft.to/lastmile_qr_scan", "ios": "https://dc.lft.to/lastmile_qr_scan"}, "fusion_lon": 0.0}, {"lat": 38.90567733333334, "is_disabled": 0, "type": "electric_scooter", "lon": -77.043541, "bike_id": "25c7f0840a62caa8dc75ace552ff8a9f", "fusion_lat": 0.0, "name": "25c7f0840a62caa8dc75ace552ff8a9f", "is_reserved": 0, "rental_uris": {"android": "https://dc.lft.to/lastmile_qr_scan", "ios": "https://dc.lft.to/lastmile_qr_scan"}, "fusion_lon": 0.0}, {"lat": 38.86716766666667, "is_disabled": 0, "type": "electric_scooter", "lon": -76.98726466666666, "bike_id": "8b80aa4da3a0aa2d669231b8efb3789a", "fusion_lat": 0.0, "name": "8b80aa4da3a0aa2d669231b8efb3789a", "is_reserved": 0, "rental_uris": {"android": "https://dc.lft.to/lastmile_qr_scan", "ios": "https://dc.lft.to/lastmile_qr_scan"}, "fusion_lon": 0.0}, {"lat": 38.930925333333334, "is_disabled": 0, "type": "electric_scooter", "lon": -77.025102, "bike_id": "19ec7357a94cdc6cf876ff0473b27b94", "fusion_lat": 0.0, "name": "19ec7357a94cdc6cf876ff0473b27b94", "is_reserved": 0, "rental_uris": {"android": "https://dc.lft.to/lastmile_qr_scan", "ios": "https://dc.lft.to/lastmile_qr_scan"}, "fusion_lon": 0.0}, {"lat": 38.927118, "is_disabled": 0, "type": "electric_scooter", "lon": -77.02085616666666, "bike_id": "5bb9869acbb91f008d5b8907f00f4e7c", "fusion_lat": 0.0, "name": "5bb9869acbb91f008d5b8907f00f4e7c", "is_reserved": 0, "rental_uris": {"android": "https://dc.lft.to/lastmile_qr_scan", "ios": "https://dc.lft.to/lastmile_qr_scan"}, "fusion_lon": 0.0}, {"lat": 38.911107333333334, "is_disabled": 0, "type": "electric_scooter", "lon": -77.0215905, "bike_id": "8a5fcf32954b9b4470cedc11e705bc2f", "fusion_lat": 0.0, "name": "8a5fcf32954b9b4470cedc11e705bc2f", "is_reserved": 0, "rental_uris": {"android": "https://dc.lft.to/lastmile_qr_scan", "ios": "https://dc.lft.to/lastmile_qr_scan"}, "fusion_lon": 0.0}, {"lat": 38.875446333333336, "is_disabled": 0, "type": "electric_scooter", "lon": -77.00536766666667, "bike_id": "c6cb7ccade67e0d0127e42290bc4d417", "fusion_lat": 0.0, "name": "c6cb7ccade67e0d0127e42290bc4d417", "is_reserved": 0, "rental_uris": {"android": "https://dc.lft.to/lastmile_qr_scan", "ios": "https://dc.lft.to/lastmile_qr_scan"}, "fusion_lon": 0.0}, {"lat": 38.8993375, "is_disabled": 0, "type": "electric_scooter", "lon": -77.04009983333333, "bike_id": "3ffcc75ea4101eddc6b15373cc8a3d30", "fusion_lat": 0.0, "name": "3ffcc75ea4101eddc6b15373cc8a3d30", "is_reserved": 0, "rental_uris": {"android": "https://dc.lft.to/lastmile_qr_scan", "ios": "https://dc.lft.to/lastmile_qr_scan"}, "fusion_lon": 0.0}, {"lat": 38.84565716666667, "is_disabled": 0, "type": "electric_bike", "lon": -77.096243, "bike_id": "9ba68c11b017fdfbbaf5efb2f690b33e", "fusion_lat": 0.0, "name": "9ba68c11b017fdfbbaf5efb2f690b33e", "is_reserved": 0, "rental_uris": {"android": "https://dc.lft.to/lastmile_qr_scan", "ios": "https://dc.lft.to/lastmile_qr_scan"}, "fusion_lon": 0.0}, {"lat": 38.881150166666664, "is_disabled": 0, "type": "electric_scooter", "lon": -76.983345, "bike_id": "f6dff2725f8421efffa48d04837b859d", "fusion_lat": 0.0, "name": "f6dff2725f8421efffa48d04837b859d", "is_reserved": 0, "rental_uris": {"android": "https://dc.lft.to/lastmile_qr_scan", "ios": "https://dc.lft.to/lastmile_qr_scan"}, "fusion_lon": 0.0}, {"lat": 38.8622985, "is_disabled": 0, "type": "electric_scooter", "lon": -76.9954995, "bike_id": "36c1bc3e32a3b2d37f035edbe7032ed2", "fusion_lat": 0.0, "name": "36c1bc3e32a3b2d37f035edbe7032ed2", "is_reserved": 0, "rental_uris": {"android": "https://dc.lft.to/lastmile_qr_scan", "ios": "https://dc.lft.to/lastmile_qr_scan"}, "fusion_lon": 0.0}, {"lat": 38.91374733333333, "is_disabled": 0, "type": "electric_scooter", "lon": -77.02693333333333, "bike_id": "28d7465c5fc1734c78f280cdc7974c8b", "fusion_lat": 0.0, "name": "28d7465c5fc1734c78f280cdc7974c8b", "is_reserved": 0, "rental_uris": {"android": "https://dc.lft.to/lastmile_qr_scan", "ios": "https://dc.lft.to/lastmile_qr_scan"}, "fusion_lon": 0.0}, {"lat": 38.92754716666666, "is_disabled": 0, "type": "electric_scooter", "lon": -77.032357, "bike_id": "9d5f627a3231f8abfc3175d8c064e933", "fusion_lat": 0.0, "name": "9d5f627a3231f8abfc3175d8c064e933", "is_reserved": 0, "rental_uris": {"android": "https://dc.lft.to/lastmile_qr_scan", "ios": "https://dc.lft.to/lastmile_qr_scan"}, "fusion_lon": 0.0}, {"lat": 38.88638316666667, "is_disabled": 0, "type": "electric_bike", "lon": -76.9547315, "bike_id": "2acb2050020d7ba349c67f1e69c97da3", "fusion_lat": 0.0, "name": "2acb2050020d7ba349c67f1e69c97da3", "is_reserved": 0, "rental_uris": {"android": "https://dc.lft.to/lastmile_qr_scan", "ios": "https://dc.lft.to/lastmile_qr_scan"}, "fusion_lon": 0.0}, {"lat": 38.961459166666664, "is_disabled": 0, "type": "electric_scooter", "lon": -77.02794533333334, "bike_id": "85c46ff0436bbb045eeb29b9e390e848", "fusion_lat": 0.0, "name": "85c46ff0436bbb045eeb29b9e390e848", "is_reserved": 0, "rental_uris": {"android": "https://dc.lft.to/lastmile_qr_scan", "ios": "https://dc.lft.to/lastmile_qr_scan"}, "fusion_lon": 0.0}, {"lat": 38.9170825, "is_disabled": 0, "type": "electric_scooter", "lon": -77.02712133333333, "bike_id": "0fac61928187b877a65b926086909b8a", "fusion_lat": 0.0, "name": "0fac61928187b877a65b926086909b8a", "is_reserved": 0, "rental_uris": {"android": "https://dc.lft.to/lastmile_qr_scan", "ios": "https://dc.lft.to/lastmile_qr_scan"}, "fusion_lon": 0.0}, {"lat": 38.9066975, "is_disabled": 0, "type": "electric_scooter", "lon": -77.03770933333334, "bike_id": "0d98524a3a4fba3bd8ea62f699b67861", "fusion_lat": 0.0, "name": "0d98524a3a4fba3bd8ea62f699b67861", "is_reserved": 0, "rental_uris": {"android": "https://dc.lft.to/lastmile_qr_scan", "ios": "https://dc.lft.to/lastmile_qr_scan"}, "fusion_lon": 0.0}, {"lat": 39.056328666666666, "is_disabled": 0, "type": "electric_bike", "lon": -77.1252885, "bike_id": "a085dc26e870efda81262e316f8a470a", "fusion_lat": 0.0, "name": "a085dc26e870efda81262e316f8a470a", "is_reserved": 0, "rental_uris": {"android": "https://dc.lft.to/lastmile_qr_scan", "ios": "https://dc.lft.to/lastmile_qr_scan"}, "fusion_lon": 0.0}, {"lat": 38.92479816666667, "is_disabled": 0, "type": "electric_scooter", "lon": -77.02845633333334, "bike_id": "a58ad0c0431eb5e3ba7b30ba1c2394e2", "fusion_lat": 0.0, "name": "a58ad0c0431eb5e3ba7b30ba1c2394e2", "is_reserved": 0, "rental_uris": {"android": "https://dc.lft.to/lastmile_qr_scan", "ios": "https://dc.lft.to/lastmile_qr_scan"}, "fusion_lon": 0.0}, {"lat": 38.917406166666666, "is_disabled": 0, "type": "electric_scooter", "lon": -77.03197833333333, "bike_id": "990685321ae5e9761fb89540e4977a5b", "fusion_lat": 0.0, "name": "990685321ae5e9761fb89540e4977a5b", "is_reserved": 0, "rental_uris": {"android": "https://dc.lft.to/lastmile_qr_scan", "ios": "https://dc.lft.to/lastmile_qr_scan"}, "fusion_lon": 0.0}, {"lat": 38.885778, "is_disabled": 0, "type": "electric_scooter", "lon": -76.919139, "bike_id": "a1ab4eec4e251cd8b44a0a563c244b55", "fusion_lat": 0.0, "name": "a1ab4eec4e251cd8b44a0a563c244b55", "is_reserved": 0, "rental_uris": {"android": "https://dc.lft.to/lastmile_qr_scan", "ios": "https://dc.lft.to/lastmile_qr_scan"}, "fusion_lon": 0.0}, {"lat": 38.91116916666667, "is_disabled": 0, "type": "electric_scooter", "lon": -77.0324985, "bike_id": "2c8bfb623909df7199f35e0a7604be9e", "fusion_lat": 0.0, "name": "2c8bfb623909df7199f35e0a7604be9e", "is_reserved": 0, "rental_uris": {"android": "https://dc.lft.to/lastmile_qr_scan", "ios": "https://dc.lft.to/lastmile_qr_scan"}, "fusion_lon": 0.0}, {"lat": 38.898194, "is_disabled": 0, "type": "electric_scooter", "lon": -76.99696283333333, "bike_id": "0c053b10f6c681d76f5ac8abf4366528", "fusion_lat": 0.0, "name": "0c053b10f6c681d76f5ac8abf4366528", "is_reserved": 0, "rental_uris": {"android": "https://dc.lft.to/lastmile_qr_scan", "ios": "https://dc.lft.to/lastmile_qr_scan"}, "fusion_lon": 0.0}, {"lat": 38.89972, "is_disabled": 0, "type": "electric_scooter", "lon": -76.98540733333333, "bike_id": "0fbd6866df8e85281cae1aef5cb83bed", "fusion_lat": 0.0, "name": "0fbd6866df8e85281cae1aef5cb83bed", "is_reserved": 0, "rental_uris": {"android": "https://dc.lft.to/lastmile_qr_scan", "ios": "https://dc.lft.to/lastmile_qr_scan"}, "fusion_lon": 0.0}, {"lat": 38.870657333333334, "is_disabled": 0, "type": "electric_scooter", "lon": -77.00842233333333, "bike_id": "4e47f6994108eb594eeb9c745a8b0991", "fusion_lat": 0.0, "name": "4e47f6994108eb594eeb9c745a8b0991", "is_reserved": 0, "rental_uris": {"android": "https://dc.lft.to/lastmile_qr_scan", "ios": "https://dc.lft.to/lastmile_qr_scan"}, "fusion_lon": 0.0}, {"lat": 38.907473, "is_disabled": 0, "type": "electric_scooter", "lon": -77.04160333333333, "bike_id": "5db4e7f7ce2e66cee73f8939bb7e85ba", "fusion_lat": 0.0, "name": "5db4e7f7ce2e66cee73f8939bb7e85ba", "is_reserved": 0, "rental_uris": {"android": "https://dc.lft.to/lastmile_qr_scan", "ios": "https://dc.lft.to/lastmile_qr_scan"}, "fusion_lon": 0.0}, {"lat": 38.9095975, "is_disabled": 0, "type": "electric_scooter", "lon": -77.02281766666667, "bike_id": "7c95374c48b6a4bd9e0fa2b9d55061dc", "fusion_lat": 0.0, "name": "7c95374c48b6a4bd9e0fa2b9d55061dc", "is_reserved": 0, "rental_uris": {"android": "https://dc.lft.to/lastmile_qr_scan", "ios": "https://dc.lft.to/lastmile_qr_scan"}, "fusion_lon": 0.0}, {"lat": 38.899651, "is_disabled": 0, "type": "electric_scooter", "lon": -77.02401616666667, "bike_id": "84990eb2f370c75f4bfe0768b902030a", "fusion_lat": 0.0, "name": "84990eb2f370c75f4bfe0768b902030a", "is_reserved": 0, "rental_uris": {"android": "https://dc.lft.to/lastmile_qr_scan", "ios": "https://dc.lft.to/lastmile_qr_scan"}, "fusion_lon": 0.0}, {"lat": 38.91731983333333, "is_disabled": 0, "type": "electric_scooter", "lon": -77.03659966666666, "bike_id": "35f8bf6c4f805f5423890951a3e69d6a", "fusion_lat": 0.0, "name": "35f8bf6c4f805f5423890951a3e69d6a", "is_reserved": 0, "rental_uris": {"android": "https://dc.lft.to/lastmile_qr_scan", "ios": "https://dc.lft.to/lastmile_qr_scan"}, "fusion_lon": 0.0}, {"lat": 38.911296, "is_disabled": 0, "type": "electric_scooter", "lon": -77.02197116666666, "bike_id": "20d204e36dd97ade2597f3c19935675e", "fusion_lat": 0.0, "name": "20d204e36dd97ade2597f3c19935675e", "is_reserved": 0, "rental_uris": {"android": "https://dc.lft.to/lastmile_qr_scan", "ios": "https://dc.lft.to/lastmile_qr_scan"}, "fusion_lon": 0.0}, {"lat": 38.91981283333333, "is_disabled": 0, "type": "electric_scooter", "lon": -77.02373033333333, "bike_id": "e1422553ece90d846ce2ce47ff27d620", "fusion_lat": 0.0, "name": "e1422553ece90d846ce2ce47ff27d620", "is_reserved": 0, "rental_uris": {"android": "https://dc.lft.to/lastmile_qr_scan", "ios": "https://dc.lft.to/lastmile_qr_scan"}, "fusion_lon": 0.0}, {"lat": 38.884685, "is_disabled": 0, "type": "electric_scooter", "lon": -77.01755266666666, "bike_id": "988eaabf0b38856944f79710e4d86b18", "fusion_lat": 0.0, "name": "988eaabf0b38856944f79710e4d86b18", "is_reserved": 0, "rental_uris": {"android": "https://dc.lft.to/lastmile_qr_scan", "ios": "https://dc.lft.to/lastmile_qr_scan"}, "fusion_lon": 0.0}, {"lat": 38.9177545, "is_disabled": 0, "type": "electric_scooter", "lon": -77.02265583333333, "bike_id": "38333f24dd7cd34ac759460da9d5f619", "fusion_lat": 0.0, "name": "38333f24dd7cd34ac759460da9d5f619", "is_reserved": 0, "rental_uris": {"android": "https://dc.lft.to/lastmile_qr_scan", "ios": "https://dc.lft.to/lastmile_qr_scan"}, "fusion_lon": 0.0}, {"lat": 38.9188745, "is_disabled": 0, "type": "electric_scooter", "lon": -77.04125766666667, "bike_id": "21741d00ee7e63d82a92e9c0b6c13c65", "fusion_lat": 0.0, "name": "21741d00ee7e63d82a92e9c0b6c13c65", "is_reserved": 0, "rental_uris": {"android": "https://dc.lft.to/lastmile_qr_scan", "ios": "https://dc.lft.to/lastmile_qr_scan"}, "fusion_lon": 0.0}, {"lat": 38.876384, "is_disabled": 0, "type": "electric_scooter", "lon": -76.99324516666667, "bike_id": "950b1cbc6814f35b02e7306a0fd7e5ca", "fusion_lat": 0.0, "name": "950b1cbc6814f35b02e7306a0fd7e5ca", "is_reserved": 0, "rental_uris": {"android": "https://dc.lft.to/lastmile_qr_scan", "ios": "https://dc.lft.to/lastmile_qr_scan"}, "fusion_lon": 0.0}, {"lat": 38.923792166666665, "is_disabled": 0, "type": "electric_bike", "lon": -77.02780583333333, "bike_id": "96c964ae8b39011e53170d06a818d0de", "fusion_lat": 0.0, "name": "96c964ae8b39011e53170d06a818d0de", "is_reserved": 0, "rental_uris": {"android": "https://dc.lft.to/lastmile_qr_scan", "ios": "https://dc.lft.to/lastmile_qr_scan"}, "fusion_lon": 0.0}, {"lat": 38.9260425, "is_disabled": 0, "type": "electric_scooter", "lon": -77.02437483333334, "bike_id": "c599c39852fc8767150513fffa736d8d", "fusion_lat": 0.0, "name": "c599c39852fc8767150513fffa736d8d", "is_reserved": 0, "rental_uris": {"android": "https://dc.lft.to/lastmile_qr_scan", "ios": "https://dc.lft.to/lastmile_qr_scan"}, "fusion_lon": 0.0}, {"lat": 38.90225733333333, "is_disabled": 0, "type": "electric_scooter", "lon": -77.0435955, "bike_id": "333983c448873cb259546606ca3807eb", "fusion_lat": 0.0, "name": "333983c448873cb259546606ca3807eb", "is_reserved": 0, "rental_uris": {"android": "https://dc.lft.to/lastmile_qr_scan", "ios": "https://dc.lft.to/lastmile_qr_scan"}, "fusion_lon": 0.0}, {"lat": 38.90863083333333, "is_disabled": 0, "type": "electric_scooter", "lon": -77.024076, "bike_id": "c4f19ca65e9a427e5f6dfe5c7677ad5d", "fusion_lat": 0.0, "name": "c4f19ca65e9a427e5f6dfe5c7677ad5d", "is_reserved": 0, "rental_uris": {"android": "https://dc.lft.to/lastmile_qr_scan", "ios": "https://dc.lft.to/lastmile_qr_scan"}, "fusion_lon": 0.0}, {"lat": 38.87322283333334, "is_disabled": 0, "type": "electric_bike", "lon": -77.1062575, "bike_id": "8fb23185baa8393279f64207fa08e440", "fusion_lat": 0.0, "name": "8fb23185baa8393279f64207fa08e440", "is_reserved": 0, "rental_uris": {"android": "https://dc.lft.to/lastmile_qr_scan", "ios": "https://dc.lft.to/lastmile_qr_scan"}, "fusion_lon": 0.0}, {"lat": 38.90317866666667, "is_disabled": 0, "type": "electric_scooter", "lon": -77.0288765, "bike_id": "e570705d4e6331080f159e83f81c11de", "fusion_lat": 0.0, "name": "e570705d4e6331080f159e83f81c11de", "is_reserved": 0, "rental_uris": {"android": "https://dc.lft.to/lastmile_qr_scan", "ios": "https://dc.lft.to/lastmile_qr_scan"}, "fusion_lon": 0.0}, {"lat": 38.916354, "is_disabled": 0, "type": "electric_scooter", "lon": -77.04628966666667, "bike_id": "8446b93f4e02c78db5985d94a36d2ced", "fusion_lat": 0.0, "name": "8446b93f4e02c78db5985d94a36d2ced", "is_reserved": 0, "rental_uris": {"android": "https://dc.lft.to/lastmile_qr_scan", "ios": "https://dc.lft.to/lastmile_qr_scan"}, "fusion_lon": 0.0}, {"lat": 39.08856983333333, "is_disabled": 0, "type": "electric_bike", "lon": -77.17847383333333, "bike_id": "e8bf0ba80164630a7c29bbdb78eb1ccf", "fusion_lat": 0.0, "name": "e8bf0ba80164630a7c29bbdb78eb1ccf", "is_reserved": 0, "rental_uris": {"android": "https://dc.lft.to/lastmile_qr_scan", "ios": "https://dc.lft.to/lastmile_qr_scan"}, "fusion_lon": 0.0}, {"lat": 38.928520666666664, "is_disabled": 0, "type": "electric_bike", "lon": -77.22221916666666, "bike_id": "7a0eb02da5619aa74f166900a8508056", "fusion_lat": 0.0, "name": "7a0eb02da5619aa74f166900a8508056", "is_reserved": 0, "rental_uris": {"android": "https://dc.lft.to/lastmile_qr_scan", "ios": "https://dc.lft.to/lastmile_qr_scan"}, "fusion_lon": 0.0}, {"lat": 38.9176935, "is_disabled": 0, "type": "electric_scooter", "lon": -77.0288875, "bike_id": "37669230f2024432cc885ede9a38ed7b", "fusion_lat": 0.0, "name": "37669230f2024432cc885ede9a38ed7b", "is_reserved": 0, "rental_uris": {"android": "https://dc.lft.to/lastmile_qr_scan", "ios": "https://dc.lft.to/lastmile_qr_scan"}, "fusion_lon": 0.0}, {"lat": 38.900198333333336, "is_disabled": 0, "type": "electric_scooter", "lon": -76.99871166666667, "bike_id": "fc34dceb2df0d28bf9182cc8bfbafe73", "fusion_lat": 0.0, "name": "fc34dceb2df0d28bf9182cc8bfbafe73", "is_reserved": 0, "rental_uris": {"android": "https://dc.lft.to/lastmile_qr_scan", "ios": "https://dc.lft.to/lastmile_qr_scan"}, "fusion_lon": 0.0}, {"lat": 38.930854333333336, "is_disabled": 0, "type": "electric_scooter", "lon": -77.0279325, "bike_id": "85d4f850dc32f7c60373617417d45d48", "fusion_lat": 0.0, "name": "85d4f850dc32f7c60373617417d45d48", "is_reserved": 0, "rental_uris": {"android": "https://dc.lft.to/lastmile_qr_scan", "ios": "https://dc.lft.to/lastmile_qr_scan"}, "fusion_lon": 0.0}, {"lat": 38.91257216666666, "is_disabled": 0, "type": "electric_scooter", "lon": -76.98354383333333, "bike_id": "48d9b0b53ded55066734c674c912baf4", "fusion_lat": 0.0, "name": "48d9b0b53ded55066734c674c912baf4", "is_reserved": 0, "rental_uris": {"android": "https://dc.lft.to/lastmile_qr_scan", "ios": "https://dc.lft.to/lastmile_qr_scan"}, "fusion_lon": 0.0}, {"lat": 38.926680833333336, "is_disabled": 0, "type": "electric_scooter", "lon": -77.02785133333333, "bike_id": "e72a03d0b32a5719c05859e3357bd45f", "fusion_lat": 0.0, "name": "e72a03d0b32a5719c05859e3357bd45f", "is_reserved": 0, "rental_uris": {"android": "https://dc.lft.to/lastmile_qr_scan", "ios": "https://dc.lft.to/lastmile_qr_scan"}, "fusion_lon": 0.0}, {"lat": 38.93477333333333, "is_disabled": 0, "type": "electric_scooter", "lon": -77.05791433333333, "bike_id": "19a53ab07ca1b98e56f88e794005d270", "fusion_lat": 0.0, "name": "19a53ab07ca1b98e56f88e794005d270", "is_reserved": 0, "rental_uris": {"android": "https://dc.lft.to/lastmile_qr_scan", "ios": "https://dc.lft.to/lastmile_qr_scan"}, "fusion_lon": 0.0}, {"lat": 38.85805033333333, "is_disabled": 0, "type": "electric_scooter", "lon": -76.98652483333333, "bike_id": "c4eae913cb6d12350f0f59b5897559c7", "fusion_lat": 0.0, "name": "c4eae913cb6d12350f0f59b5897559c7", "is_reserved": 0, "rental_uris": {"android": "https://dc.lft.to/lastmile_qr_scan", "ios": "https://dc.lft.to/lastmile_qr_scan"}, "fusion_lon": 0.0}, {"lat": 38.925392, "is_disabled": 0, "type": "electric_scooter", "lon": -77.034558, "bike_id": "6099f52469158f89b0a0c95e4e2a3a83", "fusion_lat": 0.0, "name": "6099f52469158f89b0a0c95e4e2a3a83", "is_reserved": 0, "rental_uris": {"android": "https://dc.lft.to/lastmile_qr_scan", "ios": "https://dc.lft.to/lastmile_qr_scan"}, "fusion_lon": 0.0}, {"lat": 38.96614133333333, "is_disabled": 0, "type": "electric_scooter", "lon": -77.02060266666666, "bike_id": "1a55f252fcc44f5327e435e14853301e", "fusion_lat": 0.0, "name": "1a55f252fcc44f5327e435e14853301e", "is_reserved": 0, "rental_uris": {"android": "https://dc.lft.to/lastmile_qr_scan", "ios": "https://dc.lft.to/lastmile_qr_scan"}, "fusion_lon": 0.0}, {"lat": 38.906586, "is_disabled": 0, "type": "electric_bike", "lon": -77.02705283333333, "bike_id": "ecde4d20fe13211163a19daab3797455", "fusion_lat": 0.0, "name": "ecde4d20fe13211163a19daab3797455", "is_reserved": 0, "rental_uris": {"android": "https://dc.lft.to/lastmile_qr_scan", "ios": "https://dc.lft.to/lastmile_qr_scan"}, "fusion_lon": 0.0}, {"lat": 38.9341935, "is_disabled": 0, "type": "electric_scooter", "lon": -77.04138683333333, "bike_id": "8113391dd219967f67c16bc3564508e0", "fusion_lat": 0.0, "name": "8113391dd219967f67c16bc3564508e0", "is_reserved": 0, "rental_uris": {"android": "https://dc.lft.to/lastmile_qr_scan", "ios": "https://dc.lft.to/lastmile_qr_scan"}, "fusion_lon": 0.0}, {"lat": 38.982282, "is_disabled": 0, "type": "electric_bike", "lon": -77.02599283333333, "bike_id": "8368aea1bf7ed8f38b57089f7921e9a9", "fusion_lat": 0.0, "name": "8368aea1bf7ed8f38b57089f7921e9a9", "is_reserved": 0, "rental_uris": {"android": "https://dc.lft.to/lastmile_qr_scan", "ios": "https://dc.lft.to/lastmile_qr_scan"}, "fusion_lon": 0.0}, {"lat": 38.92860316666667, "is_disabled": 0, "type": "electric_scooter", "lon": -77.0332125, "bike_id": "90e81c87b58c256e02b6081244a40711", "fusion_lat": 0.0, "name": "90e81c87b58c256e02b6081244a40711", "is_reserved": 0, "rental_uris": {"android": "https://dc.lft.to/lastmile_qr_scan", "ios": "https://dc.lft.to/lastmile_qr_scan"}, "fusion_lon": 0.0}, {"lat": 38.902416333333335, "is_disabled": 0, "type": "electric_scooter", "lon": -77.002056, "bike_id": "714b209f4ef60376516b9f89fa8722f2", "fusion_lat": 0.0, "name": "714b209f4ef60376516b9f89fa8722f2", "is_reserved": 0, "rental_uris": {"android": "https://dc.lft.to/lastmile_qr_scan", "ios": "https://dc.lft.to/lastmile_qr_scan"}, "fusion_lon": 0.0}, {"lat": 38.8996275, "is_disabled": 0, "type": "electric_scooter", "lon": -77.02491416666666, "bike_id": "09b27ab0458335231be4670dd18e9b2d", "fusion_lat": 0.0, "name": "09b27ab0458335231be4670dd18e9b2d", "is_reserved": 0, "rental_uris": {"android": "https://dc.lft.to/lastmile_qr_scan", "ios": "https://dc.lft.to/lastmile_qr_scan"}, "fusion_lon": 0.0}, {"lat": 38.837236, "is_disabled": 0, "type": "electric_bike", "lon": -76.99764966666666, "bike_id": "eb3e40a2c1004ab1ba52919cc8b8a790", "fusion_lat": 0.0, "name": "eb3e40a2c1004ab1ba52919cc8b8a790", "is_reserved": 0, "rental_uris": {"android": "https://dc.lft.to/lastmile_qr_scan", "ios": "https://dc.lft.to/lastmile_qr_scan"}, "fusion_lon": 0.0}, {"lat": 38.9111395, "is_disabled": 0, "type": "electric_scooter", "lon": -77.0450495, "bike_id": "0f0b69bd9a5b88c7dff504e028b89dd6", "fusion_lat": 0.0, "name": "0f0b69bd9a5b88c7dff504e028b89dd6", "is_reserved": 0, "rental_uris": {"android": "https://dc.lft.to/lastmile_qr_scan", "ios": "https://dc.lft.to/lastmile_qr_scan"}, "fusion_lon": 0.0}, {"lat": 38.93681466666666, "is_disabled": 0, "type": "electric_scooter", "lon": -77.03625766666667, "bike_id": "8c8738126ed72ded6b5cac6f4cf6ea54", "fusion_lat": 0.0, "name": "8c8738126ed72ded6b5cac6f4cf6ea54", "is_reserved": 0, "rental_uris": {"android": "https://dc.lft.to/lastmile_qr_scan", "ios": "https://dc.lft.to/lastmile_qr_scan"}, "fusion_lon": 0.0}, {"lat": 38.84270683333333, "is_disabled": 0, "type": "electric_bike", "lon": -76.98840566666667, "bike_id": "2817d1f7d9c49589b4e9f50a9e51cf2a", "fusion_lat": 0.0, "name": "2817d1f7d9c49589b4e9f50a9e51cf2a", "is_reserved": 0, "rental_uris": {"android": "https://dc.lft.to/lastmile_qr_scan", "ios": "https://dc.lft.to/lastmile_qr_scan"}, "fusion_lon": 0.0}, {"lat": 38.919998166666666, "is_disabled": 0, "type": "electric_scooter", "lon": -76.992957, "bike_id": "aedb3dc4cb8f9ef62c6aed48fe05bcf4", "fusion_lat": 0.0, "name": "aedb3dc4cb8f9ef62c6aed48fe05bcf4", "is_reserved": 0, "rental_uris": {"android": "https://dc.lft.to/lastmile_qr_scan", "ios": "https://dc.lft.to/lastmile_qr_scan"}, "fusion_lon": 0.0}, {"lat": 38.856878, "is_disabled": 0, "type": "electric_scooter", "lon": -76.9816125, "bike_id": "d6ae7f041e80c630b05bd3aa27f5c6e2", "fusion_lat": 0.0, "name": "d6ae7f041e80c630b05bd3aa27f5c6e2", "is_reserved": 0, "rental_uris": {"android": "https://dc.lft.to/lastmile_qr_scan", "ios": "https://dc.lft.to/lastmile_qr_scan"}, "fusion_lon": 0.0}, {"lat": 38.88995416666667, "is_disabled": 0, "type": "electric_scooter", "lon": -76.95568316666666, "bike_id": "22ef7ca1d3a3121e11ec287e8b797c97", "fusion_lat": 0.0, "name": "22ef7ca1d3a3121e11ec287e8b797c97", "is_reserved": 0, "rental_uris": {"android": "https://dc.lft.to/lastmile_qr_scan", "ios": "https://dc.lft.to/lastmile_qr_scan"}, "fusion_lon": 0.0}, {"lat": 38.896037166666666, "is_disabled": 0, "type": "electric_scooter", "lon": -76.95521133333334, "bike_id": "d97d8f19a3346b1744d7f4e80f26d3fb", "fusion_lat": 0.0, "name": "d97d8f19a3346b1744d7f4e80f26d3fb", "is_reserved": 0, "rental_uris": {"android": "https://dc.lft.to/lastmile_qr_scan", "ios": "https://dc.lft.to/lastmile_qr_scan"}, "fusion_lon": 0.0}, {"lat": 38.925688666666666, "is_disabled": 0, "type": "electric_scooter", "lon": -77.02841116666667, "bike_id": "644dc3461b7da96408bf35e378d5a7a4", "fusion_lat": 0.0, "name": "644dc3461b7da96408bf35e378d5a7a4", "is_reserved": 0, "rental_uris": {"android": "https://dc.lft.to/lastmile_qr_scan", "ios": "https://dc.lft.to/lastmile_qr_scan"}, "fusion_lon": 0.0}, {"lat": 38.90540566666667, "is_disabled": 0, "type": "electric_scooter", "lon": -77.005783, "bike_id": "36d4f890be796727c8fd88ce63c59a5c", "fusion_lat": 0.0, "name": "36d4f890be796727c8fd88ce63c59a5c", "is_reserved": 0, "rental_uris": {"android": "https://dc.lft.to/lastmile_qr_scan", "ios": "https://dc.lft.to/lastmile_qr_scan"}, "fusion_lon": 0.0}, {"lat": 38.88481916666667, "is_disabled": 0, "type": "electric_scooter", "lon": -76.94533883333334, "bike_id": "e772d566e0a7b83389b1d0808de592a2", "fusion_lat": 0.0, "name": "e772d566e0a7b83389b1d0808de592a2", "is_reserved": 0, "rental_uris": {"android": "https://dc.lft.to/lastmile_qr_scan", "ios": "https://dc.lft.to/lastmile_qr_scan"}, "fusion_lon": 0.0}, {"lat": 38.91756133333333, "is_disabled": 0, "type": "electric_scooter", "lon": -77.03883883333333, "bike_id": "25ff24be3a8c5a1fdd1d85e8fab38b8d", "fusion_lat": 0.0, "name": "25ff24be3a8c5a1fdd1d85e8fab38b8d", "is_reserved": 0, "rental_uris": {"android": "https://dc.lft.to/lastmile_qr_scan", "ios": "https://dc.lft.to/lastmile_qr_scan"}, "fusion_lon": 0.0}, {"lat": 38.9192285, "is_disabled": 0, "type": "electric_scooter", "lon": -77.0339465, "bike_id": "17c8409f532c0415b579412aaa04632d", "fusion_lat": 0.0, "name": "17c8409f532c0415b579412aaa04632d", "is_reserved": 0, "rental_uris": {"android": "https://dc.lft.to/lastmile_qr_scan", "ios": "https://dc.lft.to/lastmile_qr_scan"}, "fusion_lon": 0.0}, {"lat": 38.922883, "is_disabled": 0, "type": "electric_scooter", "lon": -77.03201533333333, "bike_id": "0b1ac8279027b371cc5642c78763f59c", "fusion_lat": 0.0, "name": "0b1ac8279027b371cc5642c78763f59c", "is_reserved": 0, "rental_uris": {"android": "https://dc.lft.to/lastmile_qr_scan", "ios": "https://dc.lft.to/lastmile_qr_scan"}, "fusion_lon": 0.0}, {"lat": 38.895642333333335, "is_disabled": 0, "type": "electric_scooter", "lon": -77.02167383333334, "bike_id": "fa9852a47e6c5c88f502118f13057214", "fusion_lat": 0.0, "name": "fa9852a47e6c5c88f502118f13057214", "is_reserved": 0, "rental_uris": {"android": "https://dc.lft.to/lastmile_qr_scan", "ios": "https://dc.lft.to/lastmile_qr_scan"}, "fusion_lon": 0.0}, {"lat": 38.9002645, "is_disabled": 0, "type": "electric_scooter", "lon": -77.03209716666667, "bike_id": "cd30c8d7eee4937809a4a552b1798f2b", "fusion_lat": 0.0, "name": "cd30c8d7eee4937809a4a552b1798f2b", "is_reserved": 0, "rental_uris": {"android": "https://dc.lft.to/lastmile_qr_scan", "ios": "https://dc.lft.to/lastmile_qr_scan"}, "fusion_lon": 0.0}, {"lat": 38.92469833333333, "is_disabled": 0, "type": "electric_scooter", "lon": -77.0338785, "bike_id": "7afa0a061de34fabd92e0de2c388366b", "fusion_lat": 0.0, "name": "7afa0a061de34fabd92e0de2c388366b", "is_reserved": 0, "rental_uris": {"android": "https://dc.lft.to/lastmile_qr_scan", "ios": "https://dc.lft.to/lastmile_qr_scan"}, "fusion_lon": 0.0}, {"lat": 38.920005833333335, "is_disabled": 0, "type": "electric_scooter", "lon": -77.038905, "bike_id": "9351f1b296f0919e2cc2954c98f3c1af", "fusion_lat": 0.0, "name": "9351f1b296f0919e2cc2954c98f3c1af", "is_reserved": 0, "rental_uris": {"android": "https://dc.lft.to/lastmile_qr_scan", "ios": "https://dc.lft.to/lastmile_qr_scan"}, "fusion_lon": 0.0}, {"lat": 38.927581, "is_disabled": 0, "type": "electric_scooter", "lon": -77.03213866666667, "bike_id": "279a6f9bba74d259054fbd8d50f3468f", "fusion_lat": 0.0, "name": "279a6f9bba74d259054fbd8d50f3468f", "is_reserved": 0, "rental_uris": {"android": "https://dc.lft.to/lastmile_qr_scan", "ios": "https://dc.lft.to/lastmile_qr_scan"}, "fusion_lon": 0.0}, {"lat": 38.91733, "is_disabled": 0, "type": "electric_scooter", "lon": -77.02396583333334, "bike_id": "ebb140dac178fe692cb99859d18946b4", "fusion_lat": 0.0, "name": "ebb140dac178fe692cb99859d18946b4", "is_reserved": 0, "rental_uris": {"android": "https://dc.lft.to/lastmile_qr_scan", "ios": "https://dc.lft.to/lastmile_qr_scan"}, "fusion_lon": 0.0}, {"lat": 38.884921166666665, "is_disabled": 0, "type": "electric_scooter", "lon": -77.00730533333333, "bike_id": "96888f6efe9e6701c6f44cebc9e8caeb", "fusion_lat": 0.0, "name": "96888f6efe9e6701c6f44cebc9e8caeb", "is_reserved": 0, "rental_uris": {"android": "https://dc.lft.to/lastmile_qr_scan", "ios": "https://dc.lft.to/lastmile_qr_scan"}, "fusion_lon": 0.0}, {"lat": 38.908947833333336, "is_disabled": 0, "type": "electric_scooter", "lon": -77.04302333333334, "bike_id": "7a9d22b1453852b85d3c79cd883f7972", "fusion_lat": 0.0, "name": "7a9d22b1453852b85d3c79cd883f7972", "is_reserved": 0, "rental_uris": {"android": "https://dc.lft.to/lastmile_qr_scan", "ios": "https://dc.lft.to/lastmile_qr_scan"}, "fusion_lon": 0.0}, {"lat": 38.939504, "is_disabled": 0, "type": "electric_bike", "lon": -77.360969, "bike_id": "83ef9f5bac2509e8fe0d3124baaed4c0", "fusion_lat": 0.0, "name": "83ef9f5bac2509e8fe0d3124baaed4c0", "is_reserved": 0, "rental_uris": {"android": "https://dc.lft.to/lastmile_qr_scan", "ios": "https://dc.lft.to/lastmile_qr_scan"}, "fusion_lon": 0.0}, {"lat": 38.917061833333335, "is_disabled": 0, "type": "electric_scooter", "lon": -77.001162, "bike_id": "7ea3b5ac27c2cdc426d7feaf67a20b78", "fusion_lat": 0.0, "name": "7ea3b5ac27c2cdc426d7feaf67a20b78", "is_reserved": 0, "rental_uris": {"android": "https://dc.lft.to/lastmile_qr_scan", "ios": "https://dc.lft.to/lastmile_qr_scan"}, "fusion_lon": 0.0}, {"lat": 38.931153333333334, "is_disabled": 0, "type": "electric_scooter", "lon": -77.03009783333333, "bike_id": "f1e44a7420d7c24007267831c98bfff4", "fusion_lat": 0.0, "name": "f1e44a7420d7c24007267831c98bfff4", "is_reserved": 0, "rental_uris": {"android": "https://dc.lft.to/lastmile_qr_scan", "ios": "https://dc.lft.to/lastmile_qr_scan"}, "fusion_lon": 0.0}, {"lat": 38.895563833333334, "is_disabled": 0, "type": "electric_scooter", "lon": -76.93079583333333, "bike_id": "949c47315fb53c4c5df2381f1dabc30b", "fusion_lat": 0.0, "name": "949c47315fb53c4c5df2381f1dabc30b", "is_reserved": 0, "rental_uris": {"android": "https://dc.lft.to/lastmile_qr_scan", "ios": "https://dc.lft.to/lastmile_qr_scan"}, "fusion_lon": 0.0}, {"lat": 38.952899, "is_disabled": 0, "type": "electric_bike", "lon": -76.94601733333333, "bike_id": "020c1d8cae64f3755043348356fb384e", "fusion_lat": 0.0, "name": "020c1d8cae64f3755043348356fb384e", "is_reserved": 0, "rental_uris": {"android": "https://dc.lft.to/lastmile_qr_scan", "ios": "https://dc.lft.to/lastmile_qr_scan"}, "fusion_lon": 0.0}, {"lat": 38.956296333333334, "is_disabled": 0, "type": "electric_bike", "lon": -77.0229755, "bike_id": "019b6bdec463bde671a47dbf9c0235af", "fusion_lat": 0.0, "name": "019b6bdec463bde671a47dbf9c0235af", "is_reserved": 0, "rental_uris": {"android": "https://dc.lft.to/lastmile_qr_scan", "ios": "https://dc.lft.to/lastmile_qr_scan"}, "fusion_lon": 0.0}, {"lat": 38.90588566666667, "is_disabled": 0, "type": "electric_scooter", "lon": -77.04680683333333, "bike_id": "c514b66689031aa6b4be9aafcae57f51", "fusion_lat": 0.0, "name": "c514b66689031aa6b4be9aafcae57f51", "is_reserved": 0, "rental_uris": {"android": "https://dc.lft.to/lastmile_qr_scan", "ios": "https://dc.lft.to/lastmile_qr_scan"}, "fusion_lon": 0.0}, {"lat": 38.841064333333335, "is_disabled": 0, "type": "electric_bike", "lon": -77.0893955, "bike_id": "afcab42811ddb2bf85999892a90bdf0e", "fusion_lat": 0.0, "name": "afcab42811ddb2bf85999892a90bdf0e", "is_reserved": 0, "rental_uris": {"android": "https://dc.lft.to/lastmile_qr_scan", "ios": "https://dc.lft.to/lastmile_qr_scan"}, "fusion_lon": 0.0}, {"lat": 38.898956166666665, "is_disabled": 0, "type": "electric_scooter", "lon": -77.07232266666666, "bike_id": "a46bb172b01e66520b55c99d4e98af7c", "fusion_lat": 0.0, "name": "a46bb172b01e66520b55c99d4e98af7c", "is_reserved": 0, "rental_uris": {"android": "https://dc.lft.to/lastmile_qr_scan", "ios": "https://dc.lft.to/lastmile_qr_scan"}, "fusion_lon": 0.0}, {"lat": 38.91704633333333, "is_disabled": 0, "type": "electric_scooter", "lon": -77.0110855, "bike_id": "3de9ed7a9d864a459c542f1b1a42ad09", "fusion_lat": 0.0, "name": "3de9ed7a9d864a459c542f1b1a42ad09", "is_reserved": 0, "rental_uris": {"android": "https://dc.lft.to/lastmile_qr_scan", "ios": "https://dc.lft.to/lastmile_qr_scan"}, "fusion_lon": 0.0}, {"lat": 38.92299916666666, "is_disabled": 0, "type": "electric_scooter", "lon": -77.02331816666667, "bike_id": "ba03b6f427f289bc1976bb20216ac6c5", "fusion_lat": 0.0, "name": "ba03b6f427f289bc1976bb20216ac6c5", "is_reserved": 0, "rental_uris": {"android": "https://dc.lft.to/lastmile_qr_scan", "ios": "https://dc.lft.to/lastmile_qr_scan"}, "fusion_lon": 0.0}, {"lat": 38.91259516666667, "is_disabled": 0, "type": "electric_scooter", "lon": -77.04660483333333, "bike_id": "1f134cf7aea6df03d32dccad47e37a6e", "fusion_lat": 0.0, "name": "1f134cf7aea6df03d32dccad47e37a6e", "is_reserved": 0, "rental_uris": {"android": "https://dc.lft.to/lastmile_qr_scan", "ios": "https://dc.lft.to/lastmile_qr_scan"}, "fusion_lon": 0.0}, {"lat": 38.876394, "is_disabled": 0, "type": "electric_scooter", "lon": -77.0091895, "bike_id": "ac59d09adbb00dffb7e6448042bbb3d0", "fusion_lat": 0.0, "name": "ac59d09adbb00dffb7e6448042bbb3d0", "is_reserved": 0, "rental_uris": {"android": "https://dc.lft.to/lastmile_qr_scan", "ios": "https://dc.lft.to/lastmile_qr_scan"}, "fusion_lon": 0.0}, {"lat": 38.9169215, "is_disabled": 0, "type": "electric_scooter", "lon": -77.04597783333334, "bike_id": "6198580adb0e97f9241dae92aebc4713", "fusion_lat": 0.0, "name": "6198580adb0e97f9241dae92aebc4713", "is_reserved": 0, "rental_uris": {"android": "https://dc.lft.to/lastmile_qr_scan", "ios": "https://dc.lft.to/lastmile_qr_scan"}, "fusion_lon": 0.0}, {"lat": 38.90105966666667, "is_disabled": 0, "type": "electric_scooter", "lon": -77.0590325, "bike_id": "4c61dba9d8d377f3ddc492275f8eb2ab", "fusion_lat": 0.0, "name": "4c61dba9d8d377f3ddc492275f8eb2ab", "is_reserved": 0, "rental_uris": {"android": "https://dc.lft.to/lastmile_qr_scan", "ios": "https://dc.lft.to/lastmile_qr_scan"}, "fusion_lon": 0.0}, {"lat": 38.91559266666667, "is_disabled": 0, "type": "electric_scooter", "lon": -77.03148966666667, "bike_id": "6e4917825a17afdcb9597c8f713f38ee", "fusion_lat": 0.0, "name": "6e4917825a17afdcb9597c8f713f38ee", "is_reserved": 0, "rental_uris": {"android": "https://dc.lft.to/lastmile_qr_scan", "ios": "https://dc.lft.to/lastmile_qr_scan"}, "fusion_lon": 0.0}, {"lat": 38.8955465, "is_disabled": 0, "type": "electric_scooter", "lon": -77.00367033333333, "bike_id": "cc7df0df3284e88a3f781870fe06f1e8", "fusion_lat": 0.0, "name": "cc7df0df3284e88a3f781870fe06f1e8", "is_reserved": 0, "rental_uris": {"android": "https://dc.lft.to/lastmile_qr_scan", "ios": "https://dc.lft.to/lastmile_qr_scan"}, "fusion_lon": 0.0}, {"lat": 38.9001385, "is_disabled": 0, "type": "electric_scooter", "lon": -77.03313266666666, "bike_id": "b87bdacbfb4bdb87c156cd5ac5871604", "fusion_lat": 0.0, "name": "b87bdacbfb4bdb87c156cd5ac5871604", "is_reserved": 0, "rental_uris": {"android": "https://dc.lft.to/lastmile_qr_scan", "ios": "https://dc.lft.to/lastmile_qr_scan"}, "fusion_lon": 0.0}, {"lat": 38.87243683333333, "is_disabled": 0, "type": "electric_scooter", "lon": -77.012079, "bike_id": "8c63b87cb2a56699d059a5401c257b99", "fusion_lat": 0.0, "name": "8c63b87cb2a56699d059a5401c257b99", "is_reserved": 0, "rental_uris": {"android": "https://dc.lft.to/lastmile_qr_scan", "ios": "https://dc.lft.to/lastmile_qr_scan"}, "fusion_lon": 0.0}, {"lat": 38.91817733333333, "is_disabled": 0, "type": "electric_scooter", "lon": -77.0318185, "bike_id": "0af335ee848eddb8dc2df305b37ff355", "fusion_lat": 0.0, "name": "0af335ee848eddb8dc2df305b37ff355", "is_reserved": 0, "rental_uris": {"android": "https://dc.lft.to/lastmile_qr_scan", "ios": "https://dc.lft.to/lastmile_qr_scan"}, "fusion_lon": 0.0}, {"lat": 38.9620115, "is_disabled": 0, "type": "electric_bike", "lon": -77.03512533333334, "bike_id": "ec662489d7c55c649d6e346d61c8b456", "fusion_lat": 0.0, "name": "ec662489d7c55c649d6e346d61c8b456", "is_reserved": 0, "rental_uris": {"android": "https://dc.lft.to/lastmile_qr_scan", "ios": "https://dc.lft.to/lastmile_qr_scan"}, "fusion_lon": 0.0}, {"lat": 38.93862266666667, "is_disabled": 0, "type": "electric_scooter", "lon": -77.03205333333334, "bike_id": "ce6a1452c393d9842669e0b295a21fa7", "fusion_lat": 0.0, "name": "ce6a1452c393d9842669e0b295a21fa7", "is_reserved": 0, "rental_uris": {"android": "https://dc.lft.to/lastmile_qr_scan", "ios": "https://dc.lft.to/lastmile_qr_scan"}, "fusion_lon": 0.0}, {"lat": 38.922933, "is_disabled": 0, "type": "electric_scooter", "lon": -77.04265483333333, "bike_id": "768836229bb53816ff17d5a7348ff5c2", "fusion_lat": 0.0, "name": "768836229bb53816ff17d5a7348ff5c2", "is_reserved": 0, "rental_uris": {"android": "https://dc.lft.to/lastmile_qr_scan", "ios": "https://dc.lft.to/lastmile_qr_scan"}, "fusion_lon": 0.0}, {"lat": 38.901307833333334, "is_disabled": 0, "type": "electric_scooter", "lon": -77.003261, "bike_id": "0a111be98d6fea4ea46f9455c380ad17", "fusion_lat": 0.0, "name": "0a111be98d6fea4ea46f9455c380ad17", "is_reserved": 0, "rental_uris": {"android": "https://dc.lft.to/lastmile_qr_scan", "ios": "https://dc.lft.to/lastmile_qr_scan"}, "fusion_lon": 0.0}, {"lat": 38.89612616666667, "is_disabled": 0, "type": "electric_scooter", "lon": -76.9565965, "bike_id": "f358a05f2edf45a7eb8e7bff33e3bddd", "fusion_lat": 0.0, "name": "f358a05f2edf45a7eb8e7bff33e3bddd", "is_reserved": 0, "rental_uris": {"android": "https://dc.lft.to/lastmile_qr_scan", "ios": "https://dc.lft.to/lastmile_qr_scan"}, "fusion_lon": 0.0}, {"lat": 38.87401066666666, "is_disabled": 0, "type": "electric_scooter", "lon": -77.01454616666666, "bike_id": "3940305c5b8b6d8c06b60cb25f342c1f", "fusion_lat": 0.0, "name": "3940305c5b8b6d8c06b60cb25f342c1f", "is_reserved": 0, "rental_uris": {"android": "https://dc.lft.to/lastmile_qr_scan", "ios": "https://dc.lft.to/lastmile_qr_scan"}, "fusion_lon": 0.0}, {"lat": 38.91370716666667, "is_disabled": 0, "type": "electric_scooter", "lon": -77.032085, "bike_id": "5ce1b3151221f27e724cda05c4a4b0b6", "fusion_lat": 0.0, "name": "5ce1b3151221f27e724cda05c4a4b0b6", "is_reserved": 0, "rental_uris": {"android": "https://dc.lft.to/lastmile_qr_scan", "ios": "https://dc.lft.to/lastmile_qr_scan"}, "fusion_lon": 0.0}, {"lat": 38.878988166666666, "is_disabled": 0, "type": "electric_scooter", "lon": -77.02306933333334, "bike_id": "5fa7f757bf83720fe72d02557a522634", "fusion_lat": 0.0, "name": "5fa7f757bf83720fe72d02557a522634", "is_reserved": 0, "rental_uris": {"android": "https://dc.lft.to/lastmile_qr_scan", "ios": "https://dc.lft.to/lastmile_qr_scan"}, "fusion_lon": 0.0}, {"lat": 38.94911, "is_disabled": 0, "type": "electric_scooter", "lon": -77.06623566666667, "bike_id": "fc4eec988ddef42440af9fe99d3d5383", "fusion_lat": 0.0, "name": "fc4eec988ddef42440af9fe99d3d5383", "is_reserved": 0, "rental_uris": {"android": "https://dc.lft.to/lastmile_qr_scan", "ios": "https://dc.lft.to/lastmile_qr_scan"}, "fusion_lon": 0.0}, {"lat": 38.886467333333336, "is_disabled": 0, "type": "electric_scooter", "lon": -77.02306583333333, "bike_id": "76f7203c92c046d74e2cc719b5459013", "fusion_lat": 0.0, "name": "76f7203c92c046d74e2cc719b5459013", "is_reserved": 0, "rental_uris": {"android": "https://dc.lft.to/lastmile_qr_scan", "ios": "https://dc.lft.to/lastmile_qr_scan"}, "fusion_lon": 0.0}, {"lat": 38.899144, "is_disabled": 0, "type": "electric_scooter", "lon": -76.98562633333333, "bike_id": "b3e986f4591e0973c6d11734de4af7dd", "fusion_lat": 0.0, "name": "b3e986f4591e0973c6d11734de4af7dd", "is_reserved": 0, "rental_uris": {"android": "https://dc.lft.to/lastmile_qr_scan", "ios": "https://dc.lft.to/lastmile_qr_scan"}, "fusion_lon": 0.0}, {"lat": 38.91107433333333, "is_disabled": 0, "type": "electric_scooter", "lon": -77.02175783333334, "bike_id": "13f37e05c1434bafc68984bd0265bc84", "fusion_lat": 0.0, "name": "13f37e05c1434bafc68984bd0265bc84", "is_reserved": 0, "rental_uris": {"android": "https://dc.lft.to/lastmile_qr_scan", "ios": "https://dc.lft.to/lastmile_qr_scan"}, "fusion_lon": 0.0}, {"lat": 38.921016333333334, "is_disabled": 0, "type": "electric_scooter", "lon": -77.03173516666666, "bike_id": "14ff506dce1f6c6ad5cbba4c7b31104b", "fusion_lat": 0.0, "name": "14ff506dce1f6c6ad5cbba4c7b31104b", "is_reserved": 0, "rental_uris": {"android": "https://dc.lft.to/lastmile_qr_scan", "ios": "https://dc.lft.to/lastmile_qr_scan"}, "fusion_lon": 0.0}, {"lat": 38.853184666666664, "is_disabled": 0, "type": "electric_scooter", "lon": -76.98025883333334, "bike_id": "8c421591007e8d2b3f7420bb2b7dbc02", "fusion_lat": 0.0, "name": "8c421591007e8d2b3f7420bb2b7dbc02", "is_reserved": 0, "rental_uris": {"android": "https://dc.lft.to/lastmile_qr_scan", "ios": "https://dc.lft.to/lastmile_qr_scan"}, "fusion_lon": 0.0}, {"lat": 38.883795166666665, "is_disabled": 0, "type": "electric_scooter", "lon": -77.0460855, "bike_id": "1acf6feaec39d63202ecd38dbec03671", "fusion_lat": 0.0, "name": "1acf6feaec39d63202ecd38dbec03671", "is_reserved": 0, "rental_uris": {"android": "https://dc.lft.to/lastmile_qr_scan", "ios": "https://dc.lft.to/lastmile_qr_scan"}, "fusion_lon": 0.0}, {"lat": 38.901035666666665, "is_disabled": 0, "type": "electric_scooter", "lon": -77.0251395, "bike_id": "525ae0e3cce74b4261b5f35d6533ce66", "fusion_lat": 0.0, "name": "525ae0e3cce74b4261b5f35d6533ce66", "is_reserved": 0, "rental_uris": {"android": "https://dc.lft.to/lastmile_qr_scan", "ios": "https://dc.lft.to/lastmile_qr_scan"}, "fusion_lon": 0.0}, {"lat": 38.917241833333335, "is_disabled": 0, "type": "electric_scooter", "lon": -77.02508133333333, "bike_id": "8e64f8f8b2786f8e9cea4d047642ffcf", "fusion_lat": 0.0, "name": "8e64f8f8b2786f8e9cea4d047642ffcf", "is_reserved": 0, "rental_uris": {"android": "https://dc.lft.to/lastmile_qr_scan", "ios": "https://dc.lft.to/lastmile_qr_scan"}, "fusion_lon": 0.0}, {"lat": 38.89842, "is_disabled": 0, "type": "electric_scooter", "lon": -77.02259233333334, "bike_id": "905df560af6266a9debcad5af6d38c71", "fusion_lat": 0.0, "name": "905df560af6266a9debcad5af6d38c71", "is_reserved": 0, "rental_uris": {"android": "https://dc.lft.to/lastmile_qr_scan", "ios": "https://dc.lft.to/lastmile_qr_scan"}, "fusion_lon": 0.0}, {"lat": 38.90959483333334, "is_disabled": 0, "type": "electric_scooter", "lon": -77.02389316666667, "bike_id": "d009c97a494d828eb1b5b18e9af0d58e", "fusion_lat": 0.0, "name": "d009c97a494d828eb1b5b18e9af0d58e", "is_reserved": 0, "rental_uris": {"android": "https://dc.lft.to/lastmile_qr_scan", "ios": "https://dc.lft.to/lastmile_qr_scan"}, "fusion_lon": 0.0}, {"lat": 38.85515733333333, "is_disabled": 0, "type": "electric_bike", "lon": -77.12025216666666, "bike_id": "535616f2f5b98bfdd8e176852e38ec63", "fusion_lat": 0.0, "name": "535616f2f5b98bfdd8e176852e38ec63", "is_reserved": 0, "rental_uris": {"android": "https://dc.lft.to/lastmile_qr_scan", "ios": "https://dc.lft.to/lastmile_qr_scan"}, "fusion_lon": 0.0}, {"lat": 38.9229005, "is_disabled": 0, "type": "electric_scooter", "lon": -77.031971, "bike_id": "000c6f0b08c6146866297c1df1c162b8", "fusion_lat": 0.0, "name": "000c6f0b08c6146866297c1df1c162b8", "is_reserved": 0, "rental_uris": {"android": "https://dc.lft.to/lastmile_qr_scan", "ios": "https://dc.lft.to/lastmile_qr_scan"}, "fusion_lon": 0.0}, {"lat": 38.908723333333334, "is_disabled": 0, "type": "electric_scooter", "lon": -77.06675883333334, "bike_id": "18ccb42bf0ee2d4262f0172cf8cd09ca", "fusion_lat": 0.0, "name": "18ccb42bf0ee2d4262f0172cf8cd09ca", "is_reserved": 0, "rental_uris": {"android": "https://dc.lft.to/lastmile_qr_scan", "ios": "https://dc.lft.to/lastmile_qr_scan"}, "fusion_lon": 0.0}, {"lat": 38.8022845, "is_disabled": 0, "type": "electric_bike", "lon": -77.07918933333333, "bike_id": "fe5c5572e54e37e81a34c5cfcd6f8ddd", "fusion_lat": 0.0, "name": "fe5c5572e54e37e81a34c5cfcd6f8ddd", "is_reserved": 0, "rental_uris": {"android": "https://dc.lft.to/lastmile_qr_scan", "ios": "https://dc.lft.to/lastmile_qr_scan"}, "fusion_lon": 0.0}, {"lat": 38.92101, "is_disabled": 0, "type": "electric_scooter", "lon": -77.046903, "bike_id": "8f9d5ad335c1c840bfdc33334bfe9812", "fusion_lat": 0.0, "name": "8f9d5ad335c1c840bfdc33334bfe9812", "is_reserved": 0, "rental_uris": {"android": "https://dc.lft.to/lastmile_qr_scan", "ios": "https://dc.lft.to/lastmile_qr_scan"}, "fusion_lon": 0.0}, {"lat": 38.89951833333333, "is_disabled": 0, "type": "electric_scooter", "lon": -77.052023, "bike_id": "2db8d5c069dcd9f99e62f541bb1091d8", "fusion_lat": 0.0, "name": "2db8d5c069dcd9f99e62f541bb1091d8", "is_reserved": 0, "rental_uris": {"android": "https://dc.lft.to/lastmile_qr_scan", "ios": "https://dc.lft.to/lastmile_qr_scan"}, "fusion_lon": 0.0}, {"lat": 38.918195833333336, "is_disabled": 0, "type": "electric_scooter", "lon": -77.02558366666666, "bike_id": "87d02b58c8bf1be3db92cbeb97937fcc", "fusion_lat": 0.0, "name": "87d02b58c8bf1be3db92cbeb97937fcc", "is_reserved": 0, "rental_uris": {"android": "https://dc.lft.to/lastmile_qr_scan", "ios": "https://dc.lft.to/lastmile_qr_scan"}, "fusion_lon": 0.0}, {"lat": 38.9002035, "is_disabled": 0, "type": "electric_scooter", "lon": -77.02174, "bike_id": "36cc77a97eb16230ca4db55f5888962b", "fusion_lat": 0.0, "name": "36cc77a97eb16230ca4db55f5888962b", "is_reserved": 0, "rental_uris": {"android": "https://dc.lft.to/lastmile_qr_scan", "ios": "https://dc.lft.to/lastmile_qr_scan"}, "fusion_lon": 0.0}, {"lat": 38.91763983333333, "is_disabled": 0, "type": "electric_scooter", "lon": -77.039984, "bike_id": "ad23b1d63c1c310e32e2d15a0535ff86", "fusion_lat": 0.0, "name": "ad23b1d63c1c310e32e2d15a0535ff86", "is_reserved": 0, "rental_uris": {"android": "https://dc.lft.to/lastmile_qr_scan", "ios": "https://dc.lft.to/lastmile_qr_scan"}, "fusion_lon": 0.0}, {"lat": 38.933172, "is_disabled": 0, "type": "electric_scooter", "lon": -77.04400966666667, "bike_id": "89b572ec8a675899d386645936d32a96", "fusion_lat": 0.0, "name": "89b572ec8a675899d386645936d32a96", "is_reserved": 0, "rental_uris": {"android": "https://dc.lft.to/lastmile_qr_scan", "ios": "https://dc.lft.to/lastmile_qr_scan"}, "fusion_lon": 0.0}, {"lat": 38.93199466666667, "is_disabled": 0, "type": "electric_scooter", "lon": -77.03859116666666, "bike_id": "5d528f9c36b5b5e3c59c3e73f6df6e50", "fusion_lat": 0.0, "name": "5d528f9c36b5b5e3c59c3e73f6df6e50", "is_reserved": 0, "rental_uris": {"android": "https://dc.lft.to/lastmile_qr_scan", "ios": "https://dc.lft.to/lastmile_qr_scan"}, "fusion_lon": 0.0}, {"lat": 38.910468, "is_disabled": 0, "type": "electric_scooter", "lon": -77.03365966666667, "bike_id": "6b34c3f9df9bddc64651a4103b3332f2", "fusion_lat": 0.0, "name": "6b34c3f9df9bddc64651a4103b3332f2", "is_reserved": 0, "rental_uris": {"android": "https://dc.lft.to/lastmile_qr_scan", "ios": "https://dc.lft.to/lastmile_qr_scan"}, "fusion_lon": 0.0}, {"lat": 38.886975, "is_disabled": 0, "type": "electric_scooter", "lon": -77.03201816666666, "bike_id": "9cd0d0b18bba6cf1daa754588ce4d37e", "fusion_lat": 0.0, "name": "9cd0d0b18bba6cf1daa754588ce4d37e", "is_reserved": 0, "rental_uris": {"android": "https://dc.lft.to/lastmile_qr_scan", "ios": "https://dc.lft.to/lastmile_qr_scan"}, "fusion_lon": 0.0}, {"lat": 38.893569166666666, "is_disabled": 0, "type": "electric_scooter", "lon": -77.04157583333334, "bike_id": "db18c269aceee6f661765fd2eebac0f9", "fusion_lat": 0.0, "name": "db18c269aceee6f661765fd2eebac0f9", "is_reserved": 0, "rental_uris": {"android": "https://dc.lft.to/lastmile_qr_scan", "ios": "https://dc.lft.to/lastmile_qr_scan"}, "fusion_lon": 0.0}, {"lat": 38.8984365, "is_disabled": 0, "type": "electric_scooter", "lon": -76.9446325, "bike_id": "ecee64f4df77fa115777eda34cdbb30c", "fusion_lat": 0.0, "name": "ecee64f4df77fa115777eda34cdbb30c", "is_reserved": 0, "rental_uris": {"android": "https://dc.lft.to/lastmile_qr_scan", "ios": "https://dc.lft.to/lastmile_qr_scan"}, "fusion_lon": 0.0}, {"lat": 38.9132235, "is_disabled": 0, "type": "electric_scooter", "lon": -77.04561733333334, "bike_id": "9fecfa7e679903edc761ae76f9238393", "fusion_lat": 0.0, "name": "9fecfa7e679903edc761ae76f9238393", "is_reserved": 0, "rental_uris": {"android": "https://dc.lft.to/lastmile_qr_scan", "ios": "https://dc.lft.to/lastmile_qr_scan"}, "fusion_lon": 0.0}, {"lat": 38.862941166666666, "is_disabled": 0, "type": "electric_scooter", "lon": -76.99234883333334, "bike_id": "f9d99ddf4decb5d0db823a45010edbdf", "fusion_lat": 0.0, "name": "f9d99ddf4decb5d0db823a45010edbdf", "is_reserved": 0, "rental_uris": {"android": "https://dc.lft.to/lastmile_qr_scan", "ios": "https://dc.lft.to/lastmile_qr_scan"}, "fusion_lon": 0.0}, {"lat": 38.935198, "is_disabled": 0, "type": "electric_bike", "lon": -76.98347966666667, "bike_id": "da511d9b219d5faaf3bcb3712d23cdf0", "fusion_lat": 0.0, "name": "da511d9b219d5faaf3bcb3712d23cdf0", "is_reserved": 0, "rental_uris": {"android": "https://dc.lft.to/lastmile_qr_scan", "ios": "https://dc.lft.to/lastmile_qr_scan"}, "fusion_lon": 0.0}, {"lat": 39.094350666666664, "is_disabled": 0, "type": "electric_bike", "lon": -77.13460583333334, "bike_id": "ea1a1e0db2234a48b2d898f10cd19815", "fusion_lat": 0.0, "name": "ea1a1e0db2234a48b2d898f10cd19815", "is_reserved": 0, "rental_uris": {"android": "https://dc.lft.to/lastmile_qr_scan", "ios": "https://dc.lft.to/lastmile_qr_scan"}, "fusion_lon": 0.0}, {"lat": 38.92857733333334, "is_disabled": 0, "type": "electric_scooter", "lon": -77.03099183333333, "bike_id": "47a04609c85634d497971c537a8f9e0f", "fusion_lat": 0.0, "name": "47a04609c85634d497971c537a8f9e0f", "is_reserved": 0, "rental_uris": {"android": "https://dc.lft.to/lastmile_qr_scan", "ios": "https://dc.lft.to/lastmile_qr_scan"}, "fusion_lon": 0.0}, {"lat": 38.9083655, "is_disabled": 0, "type": "electric_scooter", "lon": -77.063531, "bike_id": "14753e50cdee020b517cf2d190e35553", "fusion_lat": 0.0, "name": "14753e50cdee020b517cf2d190e35553", "is_reserved": 0, "rental_uris": {"android": "https://dc.lft.to/lastmile_qr_scan", "ios": "https://dc.lft.to/lastmile_qr_scan"}, "fusion_lon": 0.0}, {"lat": 38.9066665, "is_disabled": 0, "type": "electric_scooter", "lon": -77.02471933333334, "bike_id": "881be64886589f2c2c8cdc80d6fde8c6", "fusion_lat": 0.0, "name": "881be64886589f2c2c8cdc80d6fde8c6", "is_reserved": 0, "rental_uris": {"android": "https://dc.lft.to/lastmile_qr_scan", "ios": "https://dc.lft.to/lastmile_qr_scan"}, "fusion_lon": 0.0}, {"lat": 38.920669833333335, "is_disabled": 0, "type": "electric_scooter", "lon": -77.0250345, "bike_id": "3897dfb9e7ae808e14242d7b50162486", "fusion_lat": 0.0, "name": "3897dfb9e7ae808e14242d7b50162486", "is_reserved": 0, "rental_uris": {"android": "https://dc.lft.to/lastmile_qr_scan", "ios": "https://dc.lft.to/lastmile_qr_scan"}, "fusion_lon": 0.0}, {"lat": 38.890439, "is_disabled": 0, "type": "electric_scooter", "lon": -76.94076916666667, "bike_id": "fa8da5aed546fc36d7cf0e85e8bc3a72", "fusion_lat": 0.0, "name": "fa8da5aed546fc36d7cf0e85e8bc3a72", "is_reserved": 0, "rental_uris": {"android": "https://dc.lft.to/lastmile_qr_scan", "ios": "https://dc.lft.to/lastmile_qr_scan"}, "fusion_lon": 0.0}, {"lat": 38.92911, "is_disabled": 0, "type": "electric_scooter", "lon": -77.031857, "bike_id": "485a0206b7954e4a6bbf053b63a69767", "fusion_lat": 0.0, "name": "485a0206b7954e4a6bbf053b63a69767", "is_reserved": 0, "rental_uris": {"android": "https://dc.lft.to/lastmile_qr_scan", "ios": "https://dc.lft.to/lastmile_qr_scan"}, "fusion_lon": 0.0}, {"lat": 38.921135666666665, "is_disabled": 0, "type": "electric_bike", "lon": -76.98577766666666, "bike_id": "1701aae9eef24877389c7da8487e1fd7", "fusion_lat": 0.0, "name": "1701aae9eef24877389c7da8487e1fd7", "is_reserved": 0, "rental_uris": {"android": "https://dc.lft.to/lastmile_qr_scan", "ios": "https://dc.lft.to/lastmile_qr_scan"}, "fusion_lon": 0.0}, {"lat": 38.917305999999996, "is_disabled": 0, "type": "electric_scooter", "lon": -77.02303183333333, "bike_id": "8a80eb94534d16ed965b9171c7ef2f3f", "fusion_lat": 0.0, "name": "8a80eb94534d16ed965b9171c7ef2f3f", "is_reserved": 0, "rental_uris": {"android": "https://dc.lft.to/lastmile_qr_scan", "ios": "https://dc.lft.to/lastmile_qr_scan"}, "fusion_lon": 0.0}, {"lat": 38.858549833333335, "is_disabled": 0, "type": "electric_bike", "lon": -77.0975225, "bike_id": "4e2e5435b4ef99a71792aa0cc6f10079", "fusion_lat": 0.0, "name": "4e2e5435b4ef99a71792aa0cc6f10079", "is_reserved": 0, "rental_uris": {"android": "https://dc.lft.to/lastmile_qr_scan", "ios": "https://dc.lft.to/lastmile_qr_scan"}, "fusion_lon": 0.0}, {"lat": 38.9442005, "is_disabled": 0, "type": "electric_scooter", "lon": -77.03195716666667, "bike_id": "41c3f3f65fc58a959f16e31a1a5b70b9", "fusion_lat": 0.0, "name": "41c3f3f65fc58a959f16e31a1a5b70b9", "is_reserved": 0, "rental_uris": {"android": "https://dc.lft.to/lastmile_qr_scan", "ios": "https://dc.lft.to/lastmile_qr_scan"}, "fusion_lon": 0.0}, {"lat": 38.89002083333333, "is_disabled": 0, "type": "electric_scooter", "lon": -77.0490065, "bike_id": "3a95909c3489c6ae1b4c80d4e9038b12", "fusion_lat": 0.0, "name": "3a95909c3489c6ae1b4c80d4e9038b12", "is_reserved": 0, "rental_uris": {"android": "https://dc.lft.to/lastmile_qr_scan", "ios": "https://dc.lft.to/lastmile_qr_scan"}, "fusion_lon": 0.0}, {"lat": 38.958934666666664, "is_disabled": 0, "type": "electric_bike", "lon": -76.92499616666667, "bike_id": "e1f34aca718e4a22a6275a129e7d1f64", "fusion_lat": 0.0, "name": "e1f34aca718e4a22a6275a129e7d1f64", "is_reserved": 0, "rental_uris": {"android": "https://dc.lft.to/lastmile_qr_scan", "ios": "https://dc.lft.to/lastmile_qr_scan"}, "fusion_lon": 0.0}, {"lat": 38.925911, "is_disabled": 0, "type": "electric_scooter", "lon": -77.02266266666666, "bike_id": "9340f3f4df9cfd95161b5978a9fb2be0", "fusion_lat": 0.0, "name": "9340f3f4df9cfd95161b5978a9fb2be0", "is_reserved": 0, "rental_uris": {"android": "https://dc.lft.to/lastmile_qr_scan", "ios": "https://dc.lft.to/lastmile_qr_scan"}, "fusion_lon": 0.0}, {"lat": 38.92867833333333, "is_disabled": 0, "type": "electric_scooter", "lon": -77.03329283333333, "bike_id": "6d624ab91f88fe5b3994fd24d222b3de", "fusion_lat": 0.0, "name": "6d624ab91f88fe5b3994fd24d222b3de", "is_reserved": 0, "rental_uris": {"android": "https://dc.lft.to/lastmile_qr_scan", "ios": "https://dc.lft.to/lastmile_qr_scan"}, "fusion_lon": 0.0}, {"lat": 38.91709916666667, "is_disabled": 0, "type": "electric_scooter", "lon": -77.034727, "bike_id": "726f62806a9299c09f67fb9e775f8ef6", "fusion_lat": 0.0, "name": "726f62806a9299c09f67fb9e775f8ef6", "is_reserved": 0, "rental_uris": {"android": "https://dc.lft.to/lastmile_qr_scan", "ios": "https://dc.lft.to/lastmile_qr_scan"}, "fusion_lon": 0.0}, {"lat": 38.862472333333336, "is_disabled": 0, "type": "electric_scooter", "lon": -76.992606, "bike_id": "0fdeb415f59195b29e86202a5e83ca33", "fusion_lat": 0.0, "name": "0fdeb415f59195b29e86202a5e83ca33", "is_reserved": 0, "rental_uris": {"android": "https://dc.lft.to/lastmile_qr_scan", "ios": "https://dc.lft.to/lastmile_qr_scan"}, "fusion_lon": 0.0}, {"lat": 38.88722633333333, "is_disabled": 0, "type": "electric_scooter", "lon": -77.01381233333333, "bike_id": "efa417e17c566bc0c96bc7b7b54188f7", "fusion_lat": 0.0, "name": "efa417e17c566bc0c96bc7b7b54188f7", "is_reserved": 0, "rental_uris": {"android": "https://dc.lft.to/lastmile_qr_scan", "ios": "https://dc.lft.to/lastmile_qr_scan"}, "fusion_lon": 0.0}, {"lat": 38.957709666666666, "is_disabled": 0, "type": "electric_scooter", "lon": -77.02756716666667, "bike_id": "269aac629d7e6bc60cee288d9073653a", "fusion_lat": 0.0, "name": "269aac629d7e6bc60cee288d9073653a", "is_reserved": 0, "rental_uris": {"android": "https://dc.lft.to/lastmile_qr_scan", "ios": "https://dc.lft.to/lastmile_qr_scan"}, "fusion_lon": 0.0}, {"lat": 38.939720333333334, "is_disabled": 0, "type": "electric_scooter", "lon": -77.03593283333333, "bike_id": "1e8be2987a9d62a7afd89dbf008e99f5", "fusion_lat": 0.0, "name": "1e8be2987a9d62a7afd89dbf008e99f5", "is_reserved": 0, "rental_uris": {"android": "https://dc.lft.to/lastmile_qr_scan", "ios": "https://dc.lft.to/lastmile_qr_scan"}, "fusion_lon": 0.0}, {"lat": 38.90874383333333, "is_disabled": 0, "type": "electric_scooter", "lon": -77.03676083333333, "bike_id": "c52797392aca145cbc7bbd7c216786c1", "fusion_lat": 0.0, "name": "c52797392aca145cbc7bbd7c216786c1", "is_reserved": 0, "rental_uris": {"android": "https://dc.lft.to/lastmile_qr_scan", "ios": "https://dc.lft.to/lastmile_qr_scan"}, "fusion_lon": 0.0}, {"lat": 38.92061233333333, "is_disabled": 0, "type": "electric_scooter", "lon": -77.03291083333333, "bike_id": "e2fdaaf8220dd44027907a795bab7f26", "fusion_lat": 0.0, "name": "e2fdaaf8220dd44027907a795bab7f26", "is_reserved": 0, "rental_uris": {"android": "https://dc.lft.to/lastmile_qr_scan", "ios": "https://dc.lft.to/lastmile_qr_scan"}, "fusion_lon": 0.0}, {"lat": 38.909571666666665, "is_disabled": 0, "type": "electric_scooter", "lon": -77.04063716666667, "bike_id": "87d0106c9eed071210c615364baca8e1", "fusion_lat": 0.0, "name": "87d0106c9eed071210c615364baca8e1", "is_reserved": 0, "rental_uris": {"android": "https://dc.lft.to/lastmile_qr_scan", "ios": "https://dc.lft.to/lastmile_qr_scan"}, "fusion_lon": 0.0}, {"lat": 38.928719, "is_disabled": 0, "type": "electric_scooter", "lon": -77.03223816666667, "bike_id": "77ce8ad1622f4cb7708da5223e1cb219", "fusion_lat": 0.0, "name": "77ce8ad1622f4cb7708da5223e1cb219", "is_reserved": 0, "rental_uris": {"android": "https://dc.lft.to/lastmile_qr_scan", "ios": "https://dc.lft.to/lastmile_qr_scan"}, "fusion_lon": 0.0}, {"lat": 38.8026815, "is_disabled": 0, "type": "electric_bike", "lon": -77.08113933333334, "bike_id": "45bfd5a68b6d0d07a9873d5a0d2c1eb9", "fusion_lat": 0.0, "name": "45bfd5a68b6d0d07a9873d5a0d2c1eb9", "is_reserved": 0, "rental_uris": {"android": "https://dc.lft.to/lastmile_qr_scan", "ios": "https://dc.lft.to/lastmile_qr_scan"}, "fusion_lon": 0.0}, {"lat": 38.89614566666667, "is_disabled": 0, "type": "electric_scooter", "lon": -77.022936, "bike_id": "22b28a9d25c4f228b54f917b7bcfb151", "fusion_lat": 0.0, "name": "22b28a9d25c4f228b54f917b7bcfb151", "is_reserved": 0, "rental_uris": {"android": "https://dc.lft.to/lastmile_qr_scan", "ios": "https://dc.lft.to/lastmile_qr_scan"}, "fusion_lon": 0.0}, {"lat": 38.93038383333333, "is_disabled": 0, "type": "electric_scooter", "lon": -77.02637816666666, "bike_id": "db2169347996d71e22188947bd374875", "fusion_lat": 0.0, "name": "db2169347996d71e22188947bd374875", "is_reserved": 0, "rental_uris": {"android": "https://dc.lft.to/lastmile_qr_scan", "ios": "https://dc.lft.to/lastmile_qr_scan"}, "fusion_lon": 0.0}, {"lat": 38.900250666666665, "is_disabled": 0, "type": "electric_scooter", "lon": -77.03208283333333, "bike_id": "d8c0d07b17a7f1264313699262451980", "fusion_lat": 0.0, "name": "d8c0d07b17a7f1264313699262451980", "is_reserved": 0, "rental_uris": {"android": "https://dc.lft.to/lastmile_qr_scan", "ios": "https://dc.lft.to/lastmile_qr_scan"}, "fusion_lon": 0.0}, {"lat": 38.9319825, "is_disabled": 0, "type": "electric_scooter", "lon": -77.02352333333333, "bike_id": "aea11a6da90c2ccd95b1056e0dcefa32", "fusion_lat": 0.0, "name": "aea11a6da90c2ccd95b1056e0dcefa32", "is_reserved": 0, "rental_uris": {"android": "https://dc.lft.to/lastmile_qr_scan", "ios": "https://dc.lft.to/lastmile_qr_scan"}, "fusion_lon": 0.0}, {"lat": 38.95402966666666, "is_disabled": 0, "type": "electric_scooter", "lon": -77.027496, "bike_id": "e7b962a01c745f7c3b3ce47e6d46576c", "fusion_lat": 0.0, "name": "e7b962a01c745f7c3b3ce47e6d46576c", "is_reserved": 0, "rental_uris": {"android": "https://dc.lft.to/lastmile_qr_scan", "ios": "https://dc.lft.to/lastmile_qr_scan"}, "fusion_lon": 0.0}, {"lat": 38.90779883333333, "is_disabled": 0, "type": "electric_scooter", "lon": -77.06404566666667, "bike_id": "6c51d2b17c84c2db6e07545f13c659e7", "fusion_lat": 0.0, "name": "6c51d2b17c84c2db6e07545f13c659e7", "is_reserved": 0, "rental_uris": {"android": "https://dc.lft.to/lastmile_qr_scan", "ios": "https://dc.lft.to/lastmile_qr_scan"}, "fusion_lon": 0.0}, {"lat": 38.9034405, "is_disabled": 0, "type": "electric_scooter", "lon": -77.025376, "bike_id": "d8ad9a964aa0da92a719b70e9cdd52d9", "fusion_lat": 0.0, "name": "d8ad9a964aa0da92a719b70e9cdd52d9", "is_reserved": 0, "rental_uris": {"android": "https://dc.lft.to/lastmile_qr_scan", "ios": "https://dc.lft.to/lastmile_qr_scan"}, "fusion_lon": 0.0}, {"lat": 38.917105166666666, "is_disabled": 0, "type": "electric_scooter", "lon": -77.03499033333334, "bike_id": "dbbbee4ab959002da504d5166533e390", "fusion_lat": 0.0, "name": "dbbbee4ab959002da504d5166533e390", "is_reserved": 0, "rental_uris": {"android": "https://dc.lft.to/lastmile_qr_scan", "ios": "https://dc.lft.to/lastmile_qr_scan"}, "fusion_lon": 0.0}, {"lat": 38.9096695, "is_disabled": 0, "type": "electric_scooter", "lon": -77.045123, "bike_id": "7a02013c86103da45e606a273cbf32a8", "fusion_lat": 0.0, "name": "7a02013c86103da45e606a273cbf32a8", "is_reserved": 0, "rental_uris": {"android": "https://dc.lft.to/lastmile_qr_scan", "ios": "https://dc.lft.to/lastmile_qr_scan"}, "fusion_lon": 0.0}, {"lat": 38.9270665, "is_disabled": 0, "type": "electric_scooter", "lon": -77.023262, "bike_id": "5f9f7e6aefbc9a372c98d8a452bb61d1", "fusion_lat": 0.0, "name": "5f9f7e6aefbc9a372c98d8a452bb61d1", "is_reserved": 0, "rental_uris": {"android": "https://dc.lft.to/lastmile_qr_scan", "ios": "https://dc.lft.to/lastmile_qr_scan"}, "fusion_lon": 0.0}, {"lat": 39.030455, "is_disabled": 0, "type": "electric_bike", "lon": -77.09478433333334, "bike_id": "382eabdda7f688182a7074b8957ca8df", "fusion_lat": 0.0, "name": "382eabdda7f688182a7074b8957ca8df", "is_reserved": 0, "rental_uris": {"android": "https://dc.lft.to/lastmile_qr_scan", "ios": "https://dc.lft.to/lastmile_qr_scan"}, "fusion_lon": 0.0}, {"lat": 38.918046333333336, "is_disabled": 0, "type": "electric_scooter", "lon": -77.02865083333333, "bike_id": "d90290a9c2b57b879415b302e198f04c", "fusion_lat": 0.0, "name": "d90290a9c2b57b879415b302e198f04c", "is_reserved": 0, "rental_uris": {"android": "https://dc.lft.to/lastmile_qr_scan", "ios": "https://dc.lft.to/lastmile_qr_scan"}, "fusion_lon": 0.0}, {"lat": 38.895176666666664, "is_disabled": 0, "type": "electric_scooter", "lon": -77.04360233333334, "bike_id": "eabf97740868e1232e670759c2b64a31", "fusion_lat": 0.0, "name": "eabf97740868e1232e670759c2b64a31", "is_reserved": 0, "rental_uris": {"android": "https://dc.lft.to/lastmile_qr_scan", "ios": "https://dc.lft.to/lastmile_qr_scan"}, "fusion_lon": 0.0}, {"lat": 38.9118955, "is_disabled": 0, "type": "electric_scooter", "lon": -77.03835533333333, "bike_id": "9cf257013d09c7069b103c5c87312b9d", "fusion_lat": 0.0, "name": "9cf257013d09c7069b103c5c87312b9d", "is_reserved": 0, "rental_uris": {"android": "https://dc.lft.to/lastmile_qr_scan", "ios": "https://dc.lft.to/lastmile_qr_scan"}, "fusion_lon": 0.0}, {"lat": 38.88512166666667, "is_disabled": 0, "type": "electric_scooter", "lon": -77.00680466666667, "bike_id": "72360aaa818bdaa82be4b0995ce37c9a", "fusion_lat": 0.0, "name": "72360aaa818bdaa82be4b0995ce37c9a", "is_reserved": 0, "rental_uris": {"android": "https://dc.lft.to/lastmile_qr_scan", "ios": "https://dc.lft.to/lastmile_qr_scan"}, "fusion_lon": 0.0}, {"lat": 38.92331883333333, "is_disabled": 0, "type": "electric_scooter", "lon": -77.03898716666667, "bike_id": "be437d1720128c4d2e293eeb187babd9", "fusion_lat": 0.0, "name": "be437d1720128c4d2e293eeb187babd9", "is_reserved": 0, "rental_uris": {"android": "https://dc.lft.to/lastmile_qr_scan", "ios": "https://dc.lft.to/lastmile_qr_scan"}, "fusion_lon": 0.0}, {"lat": 38.91945666666667, "is_disabled": 0, "type": "electric_scooter", "lon": -77.024937, "bike_id": "d3a3185ff71a441c65a528f939b5d78a", "fusion_lat": 0.0, "name": "d3a3185ff71a441c65a528f939b5d78a", "is_reserved": 0, "rental_uris": {"android": "https://dc.lft.to/lastmile_qr_scan", "ios": "https://dc.lft.to/lastmile_qr_scan"}, "fusion_lon": 0.0}, {"lat": 38.92902383333333, "is_disabled": 0, "type": "electric_scooter", "lon": -77.03276783333334, "bike_id": "d4403d5f61c6afeb73d38a1fae6914c6", "fusion_lat": 0.0, "name": "d4403d5f61c6afeb73d38a1fae6914c6", "is_reserved": 0, "rental_uris": {"android": "https://dc.lft.to/lastmile_qr_scan", "ios": "https://dc.lft.to/lastmile_qr_scan"}, "fusion_lon": 0.0}, {"lat": 38.90722266666667, "is_disabled": 0, "type": "electric_scooter", "lon": -77.04834666666666, "bike_id": "62536793a18ec1bcac1d99550e5491f1", "fusion_lat": 0.0, "name": "62536793a18ec1bcac1d99550e5491f1", "is_reserved": 0, "rental_uris": {"android": "https://dc.lft.to/lastmile_qr_scan", "ios": "https://dc.lft.to/lastmile_qr_scan"}, "fusion_lon": 0.0}, {"lat": 38.909832333333334, "is_disabled": 0, "type": "electric_scooter", "lon": -77.033813, "bike_id": "1d276ff3fb76a3d148eed445d1c654c8", "fusion_lat": 0.0, "name": "1d276ff3fb76a3d148eed445d1c654c8", "is_reserved": 0, "rental_uris": {"android": "https://dc.lft.to/lastmile_qr_scan", "ios": "https://dc.lft.to/lastmile_qr_scan"}, "fusion_lon": 0.0}, {"lat": 38.9111415, "is_disabled": 0, "type": "electric_scooter", "lon": -77.02218533333334, "bike_id": "b2e2b75901856402276fa65fff691087", "fusion_lat": 0.0, "name": "b2e2b75901856402276fa65fff691087", "is_reserved": 0, "rental_uris": {"android": "https://dc.lft.to/lastmile_qr_scan", "ios": "https://dc.lft.to/lastmile_qr_scan"}, "fusion_lon": 0.0}, {"lat": 38.917694833333336, "is_disabled": 0, "type": "electric_bike", "lon": -77.010699, "bike_id": "d05aad2cc917881d2167bc3b5bdb9506", "fusion_lat": 0.0, "name": "d05aad2cc917881d2167bc3b5bdb9506", "is_reserved": 0, "rental_uris": {"android": "https://dc.lft.to/lastmile_qr_scan", "ios": "https://dc.lft.to/lastmile_qr_scan"}, "fusion_lon": 0.0}, {"lat": 38.88768133333333, "is_disabled": 0, "type": "electric_scooter", "lon": -76.95576133333333, "bike_id": "31edd9fcf50e6221d91034b9aea3bd94", "fusion_lat": 0.0, "name": "31edd9fcf50e6221d91034b9aea3bd94", "is_reserved": 0, "rental_uris": {"android": "https://dc.lft.to/lastmile_qr_scan", "ios": "https://dc.lft.to/lastmile_qr_scan"}, "fusion_lon": 0.0}, {"lat": 38.87791766666667, "is_disabled": 0, "type": "electric_bike", "lon": -77.02325833333333, "bike_id": "37ffc1d4f30466c03a9801a3ea1e306b", "fusion_lat": 0.0, "name": "37ffc1d4f30466c03a9801a3ea1e306b", "is_reserved": 0, "rental_uris": {"android": "https://dc.lft.to/lastmile_qr_scan", "ios": "https://dc.lft.to/lastmile_qr_scan"}, "fusion_lon": 0.0}, {"lat": 38.89754766666667, "is_disabled": 0, "type": "electric_scooter", "lon": -77.02697283333333, "bike_id": "307098fbc6057b5a9def7076131ee263", "fusion_lat": 0.0, "name": "307098fbc6057b5a9def7076131ee263", "is_reserved": 0, "rental_uris": {"android": "https://dc.lft.to/lastmile_qr_scan", "ios": "https://dc.lft.to/lastmile_qr_scan"}, "fusion_lon": 0.0}, {"lat": 38.920755166666666, "is_disabled": 0, "type": "electric_scooter", "lon": -77.02418516666667, "bike_id": "3c402a5dc2ded17187097abc201ac207", "fusion_lat": 0.0, "name": "3c402a5dc2ded17187097abc201ac207", "is_reserved": 0, "rental_uris": {"android": "https://dc.lft.to/lastmile_qr_scan", "ios": "https://dc.lft.to/lastmile_qr_scan"}, "fusion_lon": 0.0}, {"lat": 38.860512166666666, "is_disabled": 0, "type": "electric_scooter", "lon": -77.05752633333333, "bike_id": "257a3457ef5b88311d9a9949122143af", "fusion_lat": 0.0, "name": "257a3457ef5b88311d9a9949122143af", "is_reserved": 0, "rental_uris": {"android": "https://dc.lft.to/lastmile_qr_scan", "ios": "https://dc.lft.to/lastmile_qr_scan"}, "fusion_lon": 0.0}, {"lat": 38.97226083333334, "is_disabled": 0, "type": "electric_bike", "lon": -76.99345466666666, "bike_id": "fa886f7f8097209d00544e580c45e5e0", "fusion_lat": 0.0, "name": "fa886f7f8097209d00544e580c45e5e0", "is_reserved": 0, "rental_uris": {"android": "https://dc.lft.to/lastmile_qr_scan", "ios": "https://dc.lft.to/lastmile_qr_scan"}, "fusion_lon": 0.0}, {"lat": 38.92236166666667, "is_disabled": 0, "type": "electric_scooter", "lon": -77.04575283333334, "bike_id": "528674c39df04923f6409cca1b62da4a", "fusion_lat": 0.0, "name": "528674c39df04923f6409cca1b62da4a", "is_reserved": 0, "rental_uris": {"android": "https://dc.lft.to/lastmile_qr_scan", "ios": "https://dc.lft.to/lastmile_qr_scan"}, "fusion_lon": 0.0}, {"lat": 38.91574883333333, "is_disabled": 0, "type": "electric_scooter", "lon": -77.032181, "bike_id": "2d1347c1af0509b8bb8eaaa564dd2590", "fusion_lat": 0.0, "name": "2d1347c1af0509b8bb8eaaa564dd2590", "is_reserved": 0, "rental_uris": {"android": "https://dc.lft.to/lastmile_qr_scan", "ios": "https://dc.lft.to/lastmile_qr_scan"}, "fusion_lon": 0.0}, {"lat": 38.919501, "is_disabled": 0, "type": "electric_scooter", "lon": -76.98084016666667, "bike_id": "4953beab0595b88d6ae155d3e0aaefc7", "fusion_lat": 0.0, "name": "4953beab0595b88d6ae155d3e0aaefc7", "is_reserved": 0, "rental_uris": {"android": "https://dc.lft.to/lastmile_qr_scan", "ios": "https://dc.lft.to/lastmile_qr_scan"}, "fusion_lon": 0.0}, {"lat": 38.911591666666666, "is_disabled": 0, "type": "electric_scooter", "lon": -77.04489866666667, "bike_id": "80af9a6a276f2e077cb9328c757d1cd3", "fusion_lat": 0.0, "name": "80af9a6a276f2e077cb9328c757d1cd3", "is_reserved": 0, "rental_uris": {"android": "https://dc.lft.to/lastmile_qr_scan", "ios": "https://dc.lft.to/lastmile_qr_scan"}, "fusion_lon": 0.0}, {"lat": 38.90343383333333, "is_disabled": 0, "type": "electric_scooter", "lon": -77.037716, "bike_id": "8ca6133dc67a77220dd43f5009a54ff2", "fusion_lat": 0.0, "name": "8ca6133dc67a77220dd43f5009a54ff2", "is_reserved": 0, "rental_uris": {"android": "https://dc.lft.to/lastmile_qr_scan", "ios": "https://dc.lft.to/lastmile_qr_scan"}, "fusion_lon": 0.0}, {"lat": 38.91749766666667, "is_disabled": 0, "type": "electric_scooter", "lon": -77.02298416666666, "bike_id": "a2312ca9e83c0252d2a4d82b151236cc", "fusion_lat": 0.0, "name": "a2312ca9e83c0252d2a4d82b151236cc", "is_reserved": 0, "rental_uris": {"android": "https://dc.lft.to/lastmile_qr_scan", "ios": "https://dc.lft.to/lastmile_qr_scan"}, "fusion_lon": 0.0}, {"lat": 38.90380416666667, "is_disabled": 0, "type": "electric_scooter", "lon": -77.02822766666667, "bike_id": "786eb160af1baf80f6ced6551edca6a1", "fusion_lat": 0.0, "name": "786eb160af1baf80f6ced6551edca6a1", "is_reserved": 0, "rental_uris": {"android": "https://dc.lft.to/lastmile_qr_scan", "ios": "https://dc.lft.to/lastmile_qr_scan"}, "fusion_lon": 0.0}, {"lat": 38.930868333333336, "is_disabled": 0, "type": "electric_scooter", "lon": -77.02796066666667, "bike_id": "9f06e0a92d4674e687c9595fd740ef72", "fusion_lat": 0.0, "name": "9f06e0a92d4674e687c9595fd740ef72", "is_reserved": 0, "rental_uris": {"android": "https://dc.lft.to/lastmile_qr_scan", "ios": "https://dc.lft.to/lastmile_qr_scan"}, "fusion_lon": 0.0}, {"lat": 38.89602166666667, "is_disabled": 0, "type": "electric_scooter", "lon": -77.01333466666667, "bike_id": "8428a3a5be9ab872011bf8b8207cc034", "fusion_lat": 0.0, "name": "8428a3a5be9ab872011bf8b8207cc034", "is_reserved": 0, "rental_uris": {"android": "https://dc.lft.to/lastmile_qr_scan", "ios": "https://dc.lft.to/lastmile_qr_scan"}, "fusion_lon": 0.0}, {"lat": 38.93108683333333, "is_disabled": 0, "type": "electric_scooter", "lon": -77.0382275, "bike_id": "2c98f0f3eb06a6509558fbf41a359dfd", "fusion_lat": 0.0, "name": "2c98f0f3eb06a6509558fbf41a359dfd", "is_reserved": 0, "rental_uris": {"android": "https://dc.lft.to/lastmile_qr_scan", "ios": "https://dc.lft.to/lastmile_qr_scan"}, "fusion_lon": 0.0}, {"lat": 38.91865, "is_disabled": 0, "type": "electric_scooter", "lon": -77.04028833333334, "bike_id": "67b9cac41a7fc034b82d1e15f44d5b28", "fusion_lat": 0.0, "name": "67b9cac41a7fc034b82d1e15f44d5b28", "is_reserved": 0, "rental_uris": {"android": "https://dc.lft.to/lastmile_qr_scan", "ios": "https://dc.lft.to/lastmile_qr_scan"}, "fusion_lon": 0.0}, {"lat": 38.96115266666666, "is_disabled": 0, "type": "electric_scooter", "lon": -77.02815016666666, "bike_id": "b8110115d78502d05476d94c3370215c", "fusion_lat": 0.0, "name": "b8110115d78502d05476d94c3370215c", "is_reserved": 0, "rental_uris": {"android": "https://dc.lft.to/lastmile_qr_scan", "ios": "https://dc.lft.to/lastmile_qr_scan"}, "fusion_lon": 0.0}, {"lat": 38.9277945, "is_disabled": 0, "type": "electric_scooter", "lon": -77.02737866666666, "bike_id": "f7f73a929379fd271d2704285ec8940e", "fusion_lat": 0.0, "name": "f7f73a929379fd271d2704285ec8940e", "is_reserved": 0, "rental_uris": {"android": "https://dc.lft.to/lastmile_qr_scan", "ios": "https://dc.lft.to/lastmile_qr_scan"}, "fusion_lon": 0.0}, {"lat": 38.897512666666664, "is_disabled": 0, "type": "electric_scooter", "lon": -77.02633, "bike_id": "43e0c36b6ce322e022c1d671ab0e5ada", "fusion_lat": 0.0, "name": "43e0c36b6ce322e022c1d671ab0e5ada", "is_reserved": 0, "rental_uris": {"android": "https://dc.lft.to/lastmile_qr_scan", "ios": "https://dc.lft.to/lastmile_qr_scan"}, "fusion_lon": 0.0}, {"lat": 38.92908216666667, "is_disabled": 0, "type": "electric_scooter", "lon": -77.0745205, "bike_id": "ad1b137ef87ea7d867fa87621b0dc914", "fusion_lat": 0.0, "name": "ad1b137ef87ea7d867fa87621b0dc914", "is_reserved": 0, "rental_uris": {"android": "https://dc.lft.to/lastmile_qr_scan", "ios": "https://dc.lft.to/lastmile_qr_scan"}, "fusion_lon": 0.0}, {"lat": 38.925796166666665, "is_disabled": 0, "type": "electric_scooter", "lon": -77.05767466666667, "bike_id": "06bef63c7243ea1a7975e71100b03244", "fusion_lat": 0.0, "name": "06bef63c7243ea1a7975e71100b03244", "is_reserved": 0, "rental_uris": {"android": "https://dc.lft.to/lastmile_qr_scan", "ios": "https://dc.lft.to/lastmile_qr_scan"}, "fusion_lon": 0.0}, {"lat": 38.92594416666667, "is_disabled": 0, "type": "electric_scooter", "lon": -77.02254116666667, "bike_id": "937eac3f0c89043c4e84a1407e2716dd", "fusion_lat": 0.0, "name": "937eac3f0c89043c4e84a1407e2716dd", "is_reserved": 0, "rental_uris": {"android": "https://dc.lft.to/lastmile_qr_scan", "ios": "https://dc.lft.to/lastmile_qr_scan"}, "fusion_lon": 0.0}, {"lat": 38.91415583333333, "is_disabled": 0, "type": "electric_scooter", "lon": -77.04504016666667, "bike_id": "d14947c6a98ab1ef11d3a6e22cc3ad5b", "fusion_lat": 0.0, "name": "d14947c6a98ab1ef11d3a6e22cc3ad5b", "is_reserved": 0, "rental_uris": {"android": "https://dc.lft.to/lastmile_qr_scan", "ios": "https://dc.lft.to/lastmile_qr_scan"}, "fusion_lon": 0.0},