{"data": {"bikes": [{"rental_uris": {"ios": "https://dc.lft.to/lastmile_qr_scan", "android": "https://dc.lft.to/lastmile_qr_scan"}, "type": "electric_scooter", "name": "6e7cacb5ee9937861b0f8a0cf5eb170c", "is_reserved": 0, "lon": -77.01997666666666, "is_disabled": 0, "fusion_lat": 0.0, "lat": 38.901589333333334, "bike_id": "6e7cacb5ee9937861b0f8a0cf5eb170c", "fusion_lon": 0.0}, {"rental_uris": {"ios": "https://dc.lft.to/lastmile_qr_scan", "android": "https://dc.lft.to/lastmile_qr_scan"}, "type": "electric_scooter", "name": "1e1a43481e3597c7d0cb5e31ff992f07", "is_reserved": 0, "lon": -77.02587033333333, "is_disabled": 0, "fusion_lat": 0.0, "lat": 38.920398166666665, "bike_id": "1e1a43481e3597c7d0cb5e31ff992f07", "fusion_lon": 0.0}, {"rental_uris": {"ios": "https://dc.lft.to/lastmile_qr_scan", "android": "https://dc.lft.to/lastmile_qr_scan"}, "type": "electric_scooter", "name": "2e80040878790a2a568e766e31bf612b", "is_reserved": 0, "lon": -77.037367, "is_disabled": 0, "fusion_lat": 0.0, "lat": 38.92877133333333, "bike_id": "2e80040878790a2a568e766e31bf612b", "fusion_lon": 0.0}, {"rental_uris": {"ios": "https://dc.lft.to/lastmile_qr_scan", "android": "https://dc.lft.to/lastmile_qr_scan"}, "type": "electric_scooter", "name": "761498d4c8e9224fe212731082b5fe48", "is_reserved": 0, "lon": -77.06551633333333, "is_disabled": 0, "fusion_lat": 0.0, "lat": 38.905167, "bike_id": "761498d4c8e9224fe212731082b5fe48", "fusion_lon": 0.0}, {"rental_uris": {"ios": "https://dc.lft.to/lastmile_qr_scan", "android": "https://dc.lft.to/lastmile_qr_scan"}, "type": "electric_scooter", "name": "7a973448d9eb05f74283dc0947f17c64", "is_reserved": 0, "lon": -77.0501975, "is_disabled": 0, "fusion_lat": 0.0, "lat": 38.91055383333333, "bike_id": "7a973448d9eb05f74283dc0947f17c64", "fusion_lon": 0.0}, {"rental_uris": {"ios": "https://dc.lft.to/lastmile_qr_scan", "android": "https://dc.lft.to/lastmile_qr_scan"}, "type": "electric_scooter", "name": "18d7682d5e2bd968e38678fa7266bd7a", "is_reserved": 0, "lon": -77.01741233333334, "is_disabled": 0, "fusion_lat": 0.0, "lat": 38.8833825, "bike_id": "18d7682d5e2bd968e38678fa7266bd7a", "fusion_lon": 0.0}, {"rental_uris": {"ios": "https://dc.lft.to/lastmile_qr_scan", "android": "https://dc.lft.to/lastmile_qr_scan"}, "type": "electric_scooter", "name": "917c098a627b1f6e491f07b110023917", "is_reserved": 0, "lon": -77.01975116666667, "is_disabled": 0, "fusion_lat": 0.0, "lat": 38.95212466666667, "bike_id": "917c098a627b1f6e491f07b110023917", "fusion_lon": 0.0}, {"rental_uris": {"ios": "https://dc.lft.to/lastmile_qr_scan", "android": "https://dc.lft.to/lastmile_qr_scan"}, "type": "electric_scooter", "name": "a009181cea7285b5bbf7af40f951beca", "is_reserved": 0, "lon": -77.04675766666666, "is_disabled": 0, "fusion_lat": 0.0, "lat": 38.8923675, "bike_id": "a009181cea7285b5bbf7af40f951beca", "fusion_lon": 0.0}, {"rental_uris": {"ios": "https://dc.lft.to/lastmile_qr_scan", "android": "https://dc.lft.to/lastmile_qr_scan"}, "type": "electric_scooter", "name": "c6dadfd1677a9bbfd5ab5c20b5461a2c", "is_reserved": 0, "lon": -76.994759, "is_disabled": 0, "fusion_lat": 0.0, "lat": 38.90551033333333, "bike_id": "c6dadfd1677a9bbfd5ab5c20b5461a2c", "fusion_lon": 0.0}, {"rental_uris": {"ios": "https://dc.lft.to/lastmile_qr_scan", "android": "https://dc.lft.to/lastmile_qr_scan"}, "type": "electric_scooter", "name": "77dceee8bcc4c666bad9360cca625733", "is_reserved": 0, "lon": -77.01772766666667, "is_disabled": 0, "fusion_lat": 0.0, "lat": 38.9007295, "bike_id": "77dceee8bcc4c666bad9360cca625733", "fusion_lon": 0.0}, {"rental_uris": {"ios": "https://dc.lft.to/lastmile_qr_scan", "android": "https://dc.lft.to/lastmile_qr_scan"}, "type": "electric_scooter", "name": "001c3dc89195c43ba1f62931fae106bc", "is_reserved": 0, "lon": -77.00395983333334, "is_disabled": 0, "fusion_lat": 0.0, "lat": 38.905625, "bike_id": "001c3dc89195c43ba1f62931fae106bc", "fusion_lon": 0.0}, {"rental_uris": {"ios": "https://dc.lft.to/lastmile_qr_scan", "android": "https://dc.lft.to/lastmile_qr_scan"}, "type": "electric_scooter", "name": "c3d7b880c58084034bb14d0f76b19dd2", "is_reserved": 0, "lon": -76.94195833333333, "is_disabled": 0, "fusion_lat": 0.0, "lat": 38.90225916666667, "bike_id": "c3d7b880c58084034bb14d0f76b19dd2", "fusion_lon": 0.0}, {"rental_uris": {"ios": "https://dc.lft.to/lastmile_qr_scan", "android": "https://dc.lft.to/lastmile_qr_scan"}, "type": "electric_scooter", "name": "5f9184840aecdcef633d6b970b6286e8", "is_reserved": 0, "lon": -77.075582, "is_disabled": 0, "fusion_lat": 0.0, "lat": 38.920858333333335, "bike_id": "5f9184840aecdcef633d6b970b6286e8", "fusion_lon": 0.0}, {"rental_uris": {"ios": "https://dc.lft.to/lastmile_qr_scan", "android": "https://dc.lft.to/lastmile_qr_scan"}, "type": "electric_scooter", "name": "5e32b2bd0bcf3fc1d6c9a99bccf43b6d", "is_reserved": 0, "lon": -77.02301883333334, "is_disabled": 0, "fusion_lat": 0.0, "lat": 38.92867366666667, "bike_id": "5e32b2bd0bcf3fc1d6c9a99bccf43b6d", "fusion_lon": 0.0}, {"rental_uris": {"ios": "https://dc.lft.to/lastmile_qr_scan", "android": "https://dc.lft.to/lastmile_qr_scan"}, "type": "electric_scooter", "name": "acbb344e2a766866e844dac17e3ba45e", "is_reserved": 0, "lon": -77.03747383333334, "is_disabled": 0, "fusion_lat": 0.0, "lat": 38.932001666666665, "bike_id": "acbb344e2a766866e844dac17e3ba45e", "fusion_lon": 0.0}, {"rental_uris": {"ios": "https://dc.lft.to/lastmile_qr_scan", "android": "https://dc.lft.to/lastmile_qr_scan"}, "type": "electric_scooter", "name": "8d5173d027ccad05103d1cd420169d67", "is_reserved": 0, "lon": -77.0384515, "is_disabled": 0, "fusion_lat": 0.0, "lat": 38.916407666666665, "bike_id": "8d5173d027ccad05103d1cd420169d67", "fusion_lon": 0.0}, {"rental_uris": {"ios": "https://dc.lft.to/lastmile_qr_scan", "android": "https://dc.lft.to/lastmile_qr_scan"}, "type": "electric_scooter", "name": "270012eb5b43b5d3d47684152c8187c3", "is_reserved": 0, "lon": -77.02205733333334, "is_disabled": 0, "fusion_lat": 0.0, "lat": 38.92041666666667, "bike_id": "270012eb5b43b5d3d47684152c8187c3", "fusion_lon": 0.0}, {"rental_uris": {"ios": "https://dc.lft.to/lastmile_qr_scan", "android": "https://dc.lft.to/lastmile_qr_scan"}, "type": "electric_bike", "name": "f0dd1ea001185f485b3d8fdfec03aa3f", "is_reserved": 0, "lon": -76.93332616666666, "is_disabled": 0, "fusion_lat": 0.0, "lat": 38.9515465, "bike_id": "f0dd1ea001185f485b3d8fdfec03aa3f", "fusion_lon": 0.0}, {"rental_uris": {"ios": "https://dc.lft.to/lastmile_qr_scan", "android": "https://dc.lft.to/lastmile_qr_scan"}, "type": "electric_scooter", "name": "3feab96288cfc99837f16bdec3276b21", "is_reserved": 0, "lon": -77.03212533333334, "is_disabled": 0, "fusion_lat": 0.0, "lat": 38.909586833333336, "bike_id": "3feab96288cfc99837f16bdec3276b21", "fusion_lon": 0.0}, {"rental_uris": {"ios": "https://dc.lft.to/lastmile_qr_scan", "android": "https://dc.lft.to/lastmile_qr_scan"}, "type": "electric_scooter", "name": "f9def3af8b1061ade22828068827242b", "is_reserved": 0, "lon": -77.0413905, "is_disabled": 0, "fusion_lat": 0.0, "lat": 38.92303833333333, "bike_id": "f9def3af8b1061ade22828068827242b", "fusion_lon": 0.0}, {"rental_uris": {"ios": "https://dc.lft.to/lastmile_qr_scan", "android": "https://dc.lft.to/lastmile_qr_scan"}, "type": "electric_bike", "name": "d8ed7f4340076e73b8925f1a081b5fcf", "is_reserved": 0, "lon": -77.02625266666666, "is_disabled": 0, "fusion_lat": 0.0, "lat": 38.90058616666666, "bike_id": "d8ed7f4340076e73b8925f1a081b5fcf", "fusion_lon": 0.0}, {"rental_uris": {"ios": "https://dc.lft.to/lastmile_qr_scan", "android": "https://dc.lft.to/lastmile_qr_scan"}, "type": "electric_scooter", "name": "a03df5940aba0d8509e3fabaa6b4007b", "is_reserved": 0, "lon": -77.004494, "is_disabled": 0, "fusion_lat": 0.0, "lat": 38.83797116666667, "bike_id": "a03df5940aba0d8509e3fabaa6b4007b", "fusion_lon": 0.0}, {"rental_uris": {"ios": "https://dc.lft.to/lastmile_qr_scan", "android": "https://dc.lft.to/lastmile_qr_scan"}, "type": "electric_scooter", "name": "43df8c2d86ee31f2b27aebfc86fdc155", "is_reserved": 0, "lon": -77.02981766666667, "is_disabled": 0, "fusion_lat": 0.0, "lat": 38.9231815, "bike_id": "43df8c2d86ee31f2b27aebfc86fdc155", "fusion_lon": 0.0}, {"rental_uris": {"ios": "https://dc.lft.to/lastmile_qr_scan", "android": "https://dc.lft.to/lastmile_qr_scan"}, "type": "electric_scooter", "name": "f3c0ce77b2654a58180eb50681520e1c", "is_reserved": 0, "lon": -76.99626133333334, "is_disabled": 0, "fusion_lat": 0.0, "lat": 38.87739066666666, "bike_id": "f3c0ce77b2654a58180eb50681520e1c", "fusion_lon": 0.0}, {"rental_uris": {"ios": "https://dc.lft.to/lastmile_qr_scan", "android": "https://dc.lft.to/lastmile_qr_scan"}, "type": "electric_scooter", "name": "b99d9c1d6aa72edd9339742007ee52d9", "is_reserved": 0, "lon": -77.0400715, "is_disabled": 0, "fusion_lat": 0.0, "lat": 38.92241883333333, "bike_id": "b99d9c1d6aa72edd9339742007ee52d9", "fusion_lon": 0.0}, {"rental_uris": {"ios": "https://dc.lft.to/lastmile_qr_scan", "android": "https://dc.lft.to/lastmile_qr_scan"}, "type": "electric_scooter", "name": "034e8bde746c022c63eb9c281cb10df2", "is_reserved": 0, "lon": -76.96562866666666, "is_disabled": 0, "fusion_lat": 0.0, "lat": 38.876099833333335, "bike_id": "034e8bde746c022c63eb9c281cb10df2", "fusion_lon": 0.0}, {"rental_uris": {"ios": "https://dc.lft.to/lastmile_qr_scan", "android": "https://dc.lft.to/lastmile_qr_scan"}, "type": "electric_scooter", "name": "5c654be803a5b861af4e1a7dac0dcc85", "is_reserved": 0, "lon": -77.04405816666667, "is_disabled": 0, "fusion_lat": 0.0, "lat": 38.929544, "bike_id": "5c654be803a5b861af4e1a7dac0dcc85", "fusion_lon": 0.0}, {"rental_uris": {"ios": "https://dc.lft.to/lastmile_qr_scan", "android": "https://dc.lft.to/lastmile_qr_scan"}, "type": "electric_scooter", "name": "6ab635ec774b9683606326c02727bac7", "is_reserved": 0, "lon": -76.94389733333334, "is_disabled": 0, "fusion_lat": 0.0, "lat": 38.89119933333333, "bike_id": "6ab635ec774b9683606326c02727bac7", "fusion_lon": 0.0}, {"rental_uris": {"ios": "https://dc.lft.to/lastmile_qr_scan", "android": "https://dc.lft.to/lastmile_qr_scan"}, "type": "electric_scooter", "name": "2177ba2d89795018a476431ca667dc00", "is_reserved": 0, "lon": -77.01450933333334, "is_disabled": 0, "fusion_lat": 0.0, "lat": 38.9031135, "bike_id": "2177ba2d89795018a476431ca667dc00", "fusion_lon": 0.0}, {"rental_uris": {"ios": "https://dc.lft.to/lastmile_qr_scan", "android": "https://dc.lft.to/lastmile_qr_scan"}, "type": "electric_scooter", "name": "9ee5e6da5209e8ff004eff8f5ab3f62d", "is_reserved": 0, "lon": -76.96505533333334, "is_disabled": 0, "fusion_lat": 0.0, "lat": 38.87648733333333, "bike_id": "9ee5e6da5209e8ff004eff8f5ab3f62d", "fusion_lon": 0.0}, {"rental_uris": {"ios": "https://dc.lft.to/lastmile_qr_scan", "android": "https://dc.lft.to/lastmile_qr_scan"}, "type": "electric_bike", "name": "77283be9b686ac0ddc2cc2b37f74e085", "is_reserved": 0, "lon": -77.07014416666667, "is_disabled": 0, "fusion_lat": 0.0, "lat": 38.841144166666666, "bike_id": "77283be9b686ac0ddc2cc2b37f74e085", "fusion_lon": 0.0}, {"rental_uris": {"ios": "https://dc.lft.to/lastmile_qr_scan", "android": "https://dc.lft.to/lastmile_qr_scan"}, "type": "electric_scooter", "name": "2cad325ad4e23fcd0c0fe8040052be72", "is_reserved": 0, "lon": -77.03812, "is_disabled": 0, "fusion_lat": 0.0, "lat": 38.915549666666664, "bike_id": "2cad325ad4e23fcd0c0fe8040052be72", "fusion_lon": 0.0}, {"rental_uris": {"ios": "https://dc.lft.to/lastmile_qr_scan", "android": "https://dc.lft.to/lastmile_qr_scan"}, "type": "electric_scooter", "name": "7b190960c71781d15eb1963261982a8c", "is_reserved": 0, "lon": -77.07121883333333, "is_disabled": 0, "fusion_lat": 0.0, "lat": 38.89743283333333, "bike_id": "7b190960c71781d15eb1963261982a8c", "fusion_lon": 0.0}, {"rental_uris": {"ios": "https://dc.lft.to/lastmile_qr_scan", "android": "https://dc.lft.to/lastmile_qr_scan"}, "type": "electric_scooter", "name": "7ad80c8b013faa6d9190ffad352b58bb", "is_reserved": 0, "lon": -77.00770583333333, "is_disabled": 0, "fusion_lat": 0.0, "lat": 38.95247233333333, "bike_id": "7ad80c8b013faa6d9190ffad352b58bb", "fusion_lon": 0.0}, {"rental_uris": {"ios": "https://dc.lft.to/lastmile_qr_scan", "android": "https://dc.lft.to/lastmile_qr_scan"}, "type": "electric_scooter", "name": "59d288480c1806c32210200b5e3779fd", "is_reserved": 0, "lon": -76.94828, "is_disabled": 0, "fusion_lat": 0.0, "lat": 38.885184333333335, "bike_id": "59d288480c1806c32210200b5e3779fd", "fusion_lon": 0.0}, {"rental_uris": {"ios": "https://dc.lft.to/lastmile_qr_scan", "android": "https://dc.lft.to/lastmile_qr_scan"}, "type": "electric_scooter", "name": "1e2343b630ba3b2d147c17c2b6646e24", "is_reserved": 0, "lon": -77.02837116666667, "is_disabled": 0, "fusion_lat": 0.0, "lat": 38.9140465, "bike_id": "1e2343b630ba3b2d147c17c2b6646e24", "fusion_lon": 0.0}, {"rental_uris": {"ios": "https://dc.lft.to/lastmile_qr_scan", "android": "https://dc.lft.to/lastmile_qr_scan"}, "type": "electric_bike", "name": "260d088fd4a3bcc5fb68ccb006840e1f", "is_reserved": 0, "lon": -76.975595, "is_disabled": 0, "fusion_lat": 0.0, "lat": 38.904415, "bike_id": "260d088fd4a3bcc5fb68ccb006840e1f", "fusion_lon": 0.0}, {"rental_uris": {"ios": "https://dc.lft.to/lastmile_qr_scan", "android": "https://dc.lft.to/lastmile_qr_scan"}, "type": "electric_scooter", "name": "01aecded499f2616fece304071ac64cc", "is_reserved": 0, "lon": -77.03570666666667, "is_disabled": 0, "fusion_lat": 0.0, "lat": 38.90471933333333, "bike_id": "01aecded499f2616fece304071ac64cc", "fusion_lon": 0.0}, {"rental_uris": {"ios": "https://dc.lft.to/lastmile_qr_scan", "android": "https://dc.lft.to/lastmile_qr_scan"}, "type": "electric_bike", "name": "33502f038e8d0e6df6468ed37110fd3e", "is_reserved": 0, "lon": -76.951568, "is_disabled": 0, "fusion_lat": 0.0, "lat": 39.08434166666667, "bike_id": "33502f038e8d0e6df6468ed37110fd3e", "fusion_lon": 0.0}, {"rental_uris": {"ios": "https://dc.lft.to/lastmile_qr_scan", "android": "https://dc.lft.to/lastmile_qr_scan"}, "type": "electric_bike", "name": "fa3efa55b3c9a9f3d84e0aeaf7559820", "is_reserved": 0, "lon": -77.01436733333334, "is_disabled": 0, "fusion_lat": 0.0, "lat": 38.87681116666667, "bike_id": "fa3efa55b3c9a9f3d84e0aeaf7559820", "fusion_lon": 0.0}, {"rental_uris": {"ios": "https://dc.lft.to/lastmile_qr_scan", "android": "https://dc.lft.to/lastmile_qr_scan"}, "type": "electric_scooter", "name": "f6c7bed858486e27f64b6fe6f140a86e", "is_reserved": 0, "lon": -77.01825883333333, "is_disabled": 0, "fusion_lat": 0.0, "lat": 38.900887, "bike_id": "f6c7bed858486e27f64b6fe6f140a86e", "fusion_lon": 0.0}, {"rental_uris": {"ios": "https://dc.lft.to/lastmile_qr_scan", "android": "https://dc.lft.to/lastmile_qr_scan"}, "type": "electric_scooter", "name": "c7461f5adf23d0abc71f38c958a503f2", "is_reserved": 0, "lon": -77.04950016666666, "is_disabled": 0, "fusion_lat": 0.0, "lat": 38.920196, "bike_id": "c7461f5adf23d0abc71f38c958a503f2", "fusion_lon": 0.0}, {"rental_uris": {"ios": "https://dc.lft.to/lastmile_qr_scan", "android": "https://dc.lft.to/lastmile_qr_scan"}, "type": "electric_scooter", "name": "9e9a71c19af9c5bd943d6b9529307054", "is_reserved": 0, "lon": -77.00155733333334, "is_disabled": 0, "fusion_lat": 0.0, "lat": 38.821355, "bike_id": "9e9a71c19af9c5bd943d6b9529307054", "fusion_lon": 0.0}, {"rental_uris": {"ios": "https://dc.lft.to/lastmile_qr_scan", "android": "https://dc.lft.to/lastmile_qr_scan"}, "type": "electric_scooter", "name": "0eba35ea1b4c8d25aa5189387bb376b3", "is_reserved": 0, "lon": -76.93045916666667, "is_disabled": 0, "fusion_lat": 0.0, "lat": 38.88397233333333, "bike_id": "0eba35ea1b4c8d25aa5189387bb376b3", "fusion_lon": 0.0}, {"rental_uris": {"ios": "https://dc.lft.to/lastmile_qr_scan", "android": "https://dc.lft.to/lastmile_qr_scan"}, "type": "electric_scooter", "name": "405359b8c5c1a777ccfb955be037909e", "is_reserved": 0, "lon": -77.01342583333333, "is_disabled": 0, "fusion_lat": 0.0, "lat": 38.91915483333333, "bike_id": "405359b8c5c1a777ccfb955be037909e", "fusion_lon": 0.0}, {"rental_uris": {"ios": "https://dc.lft.to/lastmile_qr_scan", "android": "https://dc.lft.to/lastmile_qr_scan"}, "type": "electric_bike", "name": "158ea1a139fb2cc77e7b5509da84d876", "is_reserved": 0, "lon": -77.22824316666667, "is_disabled": 0, "fusion_lat": 0.0, "lat": 38.88268016666667, "bike_id": "158ea1a139fb2cc77e7b5509da84d876", "fusion_lon": 0.0}, {"rental_uris": {"ios": "https://dc.lft.to/lastmile_qr_scan", "android": "https://dc.lft.to/lastmile_qr_scan"}, "type": "electric_scooter", "name": "bc7fa149ed60b20155b77ee96aa607e3", "is_reserved": 0, "lon": -77.03863933333334, "is_disabled": 0, "fusion_lat": 0.0, "lat": 38.906619166666665, "bike_id": "bc7fa149ed60b20155b77ee96aa607e3", "fusion_lon": 0.0}, {"rental_uris": {"ios": "https://dc.lft.to/lastmile_qr_scan", "android": "https://dc.lft.to/lastmile_qr_scan"}, "type": "electric_scooter", "name": "72715e5a60bd27b3a8c86e3dbd1504cc", "is_reserved": 0, "lon": -77.01944133333333, "is_disabled": 0, "fusion_lat": 0.0, "lat": 38.947004166666666, "bike_id": "72715e5a60bd27b3a8c86e3dbd1504cc", "fusion_lon": 0.0}, {"rental_uris": {"ios": "https://dc.lft.to/lastmile_qr_scan", "android": "https://dc.lft.to/lastmile_qr_scan"}, "type": "electric_scooter", "name": "321860b1b1b883b0d2f8b617b787da6a", "is_reserved": 0, "lon": -77.01813116666666, "is_disabled": 0, "fusion_lat": 0.0, "lat": 38.901181333333334, "bike_id": "321860b1b1b883b0d2f8b617b787da6a", "fusion_lon": 0.0}, {"rental_uris": {"ios": "https://dc.lft.to/lastmile_qr_scan", "android": "https://dc.lft.to/lastmile_qr_scan"}, "type": "electric_scooter", "name": "1efa4bec8ff6696638f2daf3d83b45fa", "is_reserved": 0, "lon": -77.0433515, "is_disabled": 0, "fusion_lat": 0.0, "lat": 38.89224033333333, "bike_id": "1efa4bec8ff6696638f2daf3d83b45fa", "fusion_lon": 0.0}, {"rental_uris": {"ios": "https://dc.lft.to/lastmile_qr_scan", "android": "https://dc.lft.to/lastmile_qr_scan"}, "type": "electric_scooter", "name": "618ce6d03bc46f5d596fbf03b8f6773f", "is_reserved": 0, "lon": -77.02589083333334, "is_disabled": 0, "fusion_lat": 0.0, "lat": 38.90527616666667, "bike_id": "618ce6d03bc46f5d596fbf03b8f6773f", "fusion_lon": 0.0}, {"rental_uris": {"ios": "https://dc.lft.to/lastmile_qr_scan", "android": "https://dc.lft.to/lastmile_qr_scan"}, "type": "electric_scooter", "name": "2a7623060ce5b79ba8a7c53271b67592", "is_reserved": 0, "lon": -77.03084533333333, "is_disabled": 0, "fusion_lat": 0.0, "lat": 38.93307883333333, "bike_id": "2a7623060ce5b79ba8a7c53271b67592", "fusion_lon": 0.0}, {"rental_uris": {"ios": "https://dc.lft.to/lastmile_qr_scan", "android": "https://dc.lft.to/lastmile_qr_scan"}, "type": "electric_scooter", "name": "f98045341a4be04b00e30e5a280c9854", "is_reserved": 0, "lon": -76.983108, "is_disabled": 0, "fusion_lat": 0.0, "lat": 38.9258775, "bike_id": "f98045341a4be04b00e30e5a280c9854", "fusion_lon": 0.0}, {"rental_uris": {"ios": "https://dc.lft.to/lastmile_qr_scan", "android": "https://dc.lft.to/lastmile_qr_scan"}, "type": "electric_scooter", "name": "a19025a3568176a4a57287572a925914", "is_reserved": 0, "lon": -77.02308983333333, "is_disabled": 0, "fusion_lat": 0.0, "lat": 38.917729, "bike_id": "a19025a3568176a4a57287572a925914", "fusion_lon": 0.0}, {"rental_uris": {"ios": "https://dc.lft.to/lastmile_qr_scan", "android": "https://dc.lft.to/lastmile_qr_scan"}, "type": "electric_scooter", "name": "8c004ace95ed5e91aa052ce4dc6ff05d", "is_reserved": 0, "lon": -77.03661133333334, "is_disabled": 0, "fusion_lat": 0.0, "lat": 38.91725, "bike_id": "8c004ace95ed5e91aa052ce4dc6ff05d", "fusion_lon": 0.0}, {"rental_uris": {"ios": "https://dc.lft.to/lastmile_qr_scan", "android": "https://dc.lft.to/lastmile_qr_scan"}, "type": "electric_scooter", "name": "5ed32302bf875dfc5fcdeea26e446828", "is_reserved": 0, "lon": -77.026129, "is_disabled": 0, "fusion_lat": 0.0, "lat": 38.951863333333336, "bike_id": "5ed32302bf875dfc5fcdeea26e446828", "fusion_lon": 0.0}, {"rental_uris": {"ios": "https://dc.lft.to/lastmile_qr_scan", "android": "https://dc.lft.to/lastmile_qr_scan"}, "type": "electric_scooter", "name": "477f61ff3428ab748f34e76e3c32f86f", "is_reserved": 0, "lon": -77.02570716666666, "is_disabled": 0, "fusion_lat": 0.0, "lat": 38.887424833333334, "bike_id": "477f61ff3428ab748f34e76e3c32f86f", "fusion_lon": 0.0}, {"rental_uris": {"ios": "https://dc.lft.to/lastmile_qr_scan", "android": "https://dc.lft.to/lastmile_qr_scan"}, "type": "electric_scooter", "name": "afedc56fca2367eed4d61ee0d8db71f2", "is_reserved": 0, "lon": -77.02502716666666, "is_disabled": 0, "fusion_lat": 0.0, "lat": 38.94212366666667, "bike_id": "afedc56fca2367eed4d61ee0d8db71f2", "fusion_lon": 0.0}, {"rental_uris": {"ios": "https://dc.lft.to/lastmile_qr_scan", "android": "https://dc.lft.to/lastmile_qr_scan"}, "type": "electric_bike", "name": "64ab79136a42188770c9e9239e4627a2", "is_reserved": 0, "lon": -77.00725416666667, "is_disabled": 0, "fusion_lat": 0.0, "lat": 38.83246483333333, "bike_id": "64ab79136a42188770c9e9239e4627a2", "fusion_lon": 0.0}, {"rental_uris": {"ios": "https://dc.lft.to/lastmile_qr_scan", "android": "https://dc.lft.to/lastmile_qr_scan"}, "type": "electric_scooter", "name": "0a69f15b96d19a5e62ce13bd6fa1ded4", "is_reserved": 0, "lon": -77.04338166666666, "is_disabled": 0, "fusion_lat": 0.0, "lat": 38.90127616666667, "bike_id": "0a69f15b96d19a5e62ce13bd6fa1ded4", "fusion_lon": 0.0}, {"rental_uris": {"ios": "https://dc.lft.to/lastmile_qr_scan", "android": "https://dc.lft.to/lastmile_qr_scan"}, "type": "electric_scooter", "name": "00dadbcd68bca1c69180b741c44e356e", "is_reserved": 0, "lon": -77.01769316666666, "is_disabled": 0, "fusion_lat": 0.0, "lat": 38.877142666666664, "bike_id": "00dadbcd68bca1c69180b741c44e356e", "fusion_lon": 0.0}, {"rental_uris": {"ios": "https://dc.lft.to/lastmile_qr_scan", "android": "https://dc.lft.to/lastmile_qr_scan"}, "type": "electric_scooter", "name": "244488cd1f4662eb937e3e757ceb210d", "is_reserved": 0, "lon": -77.01758033333333, "is_disabled": 0, "fusion_lat": 0.0, "lat": 38.92119816666667, "bike_id": "244488cd1f4662eb937e3e757ceb210d", "fusion_lon": 0.0}, {"rental_uris": {"ios": "https://dc.lft.to/lastmile_qr_scan", "android": "https://dc.lft.to/lastmile_qr_scan"}, "type": "electric_scooter", "name": "0938c0e68698c3b552bd44bc1aa19356", "is_reserved": 0, "lon": -77.009272, "is_disabled": 0, "fusion_lat": 0.0, "lat": 38.912551, "bike_id": "0938c0e68698c3b552bd44bc1aa19356", "fusion_lon": 0.0}, {"rental_uris": {"ios": "https://dc.lft.to/lastmile_qr_scan", "android": "https://dc.lft.to/lastmile_qr_scan"}, "type": "electric_scooter", "name": "03363eb1a349e65424049a5af6d29870", "is_reserved": 0, "lon": -77.00404333333333, "is_disabled": 0, "fusion_lat": 0.0, "lat": 38.87456683333333, "bike_id": "03363eb1a349e65424049a5af6d29870", "fusion_lon": 0.0}, {"rental_uris": {"ios": "https://dc.lft.to/lastmile_qr_scan", "android": "https://dc.lft.to/lastmile_qr_scan"}, "type": "electric_scooter", "name": "3daba007000c7da2a4ce5605d061f243", "is_reserved": 0, "lon": -77.04545883333333, "is_disabled": 0, "fusion_lat": 0.0, "lat": 38.932884, "bike_id": "3daba007000c7da2a4ce5605d061f243", "fusion_lon": 0.0}, {"rental_uris": {"ios": "https://dc.lft.to/lastmile_qr_scan", "android": "https://dc.lft.to/lastmile_qr_scan"}, "type": "electric_scooter", "name": "61cfb62c5bd23683f516029120a6168a", "is_reserved": 0, "lon": -77.03816, "is_disabled": 0, "fusion_lat": 0.0, "lat": 38.91552466666667, "bike_id": "61cfb62c5bd23683f516029120a6168a", "fusion_lon": 0.0}, {"rental_uris": {"ios": "https://dc.lft.to/lastmile_qr_scan", "android": "https://dc.lft.to/lastmile_qr_scan"}, "type": "electric_scooter", "name": "09dadc2adb17b7ad7ca8e45a50b859d1", "is_reserved": 0, "lon": -76.98505283333333, "is_disabled": 0, "fusion_lat": 0.0, "lat": 38.906942666666666, "bike_id": "09dadc2adb17b7ad7ca8e45a50b859d1", "fusion_lon": 0.0}, {"rental_uris": {"ios": "https://dc.lft.to/lastmile_qr_scan", "android": "https://dc.lft.to/lastmile_qr_scan"}, "type": "electric_scooter", "name": "28b882217323f425e7f6601738758b83", "is_reserved": 0, "lon": -77.01914966666666, "is_disabled": 0, "fusion_lat": 0.0, "lat": 38.923405333333335, "bike_id": "28b882217323f425e7f6601738758b83", "fusion_lon": 0.0}, {"rental_uris": {"ios": "https://dc.lft.to/lastmile_qr_scan", "android": "https://dc.lft.to/lastmile_qr_scan"}, "type": "electric_scooter", "name": "b577d7c6ab8d2b5e856f61982f951816", "is_reserved": 0, "lon": -77.0056995, "is_disabled": 0, "fusion_lat": 0.0, "lat": 38.87460266666667, "bike_id": "b577d7c6ab8d2b5e856f61982f951816", "fusion_lon": 0.0}, {"rental_uris": {"ios": "https://dc.lft.to/lastmile_qr_scan", "android": "https://dc.lft.to/lastmile_qr_scan"}, "type": "electric_bike", "name": "3632305c3a1faa5206f7f720052cffa1", "is_reserved": 0, "lon": -76.97532533333333, "is_disabled": 0, "fusion_lat": 0.0, "lat": 38.90328516666667, "bike_id": "3632305c3a1faa5206f7f720052cffa1", "fusion_lon": 0.0}, {"rental_uris": {"ios": "https://dc.lft.to/lastmile_qr_scan", "android": "https://dc.lft.to/lastmile_qr_scan"}, "type": "electric_scooter", "name": "ac93663cce817b9aabab22706461f22a", "is_reserved": 0, "lon": -76.95694066666667, "is_disabled": 0, "fusion_lat": 0.0, "lat": 38.8921055, "bike_id": "ac93663cce817b9aabab22706461f22a", "fusion_lon": 0.0}, {"rental_uris": {"ios": "https://dc.lft.to/lastmile_qr_scan", "android": "https://dc.lft.to/lastmile_qr_scan"}, "type": "electric_scooter", "name": "aef0a3ef41afa4f86bf8ba4416f48a0a", "is_reserved": 0, "lon": -76.9903345, "is_disabled": 0, "fusion_lat": 0.0, "lat": 38.8887505, "bike_id": "aef0a3ef41afa4f86bf8ba4416f48a0a", "fusion_lon": 0.0}, {"rental_uris": {"ios": "https://dc.lft.to/lastmile_qr_scan", "android": "https://dc.lft.to/lastmile_qr_scan"}, "type": "electric_scooter", "name": "592285a5c531599bc298a6787e754446", "is_reserved": 0, "lon": -77.01141816666667, "is_disabled": 0, "fusion_lat": 0.0, "lat": 38.914626166666665, "bike_id": "592285a5c531599bc298a6787e754446", "fusion_lon": 0.0}, {"rental_uris": {"ios": "https://dc.lft.to/lastmile_qr_scan", "android": "https://dc.lft.to/lastmile_qr_scan"}, "type": "electric_bike", "name": "88f8690f8c61373dca409f26cf9db2a8", "is_reserved": 0, "lon": -77.02202183333333, "is_disabled": 0, "fusion_lat": 0.0, "lat": 38.95152233333334, "bike_id": "88f8690f8c61373dca409f26cf9db2a8", "fusion_lon": 0.0}, {"rental_uris": {"ios": "https://dc.lft.to/lastmile_qr_scan", "android": "https://dc.lft.to/lastmile_qr_scan"}, "type": "electric_scooter", "name": "491cfd865065df0c754553509630dc51", "is_reserved": 0, "lon": -77.0077515, "is_disabled": 0, "fusion_lat": 0.0, "lat": 38.897338500000004, "bike_id": "491cfd865065df0c754553509630dc51", "fusion_lon": 0.0}, {"rental_uris": {"ios": "https://dc.lft.to/lastmile_qr_scan", "android": "https://dc.lft.to/lastmile_qr_scan"}, "type": "electric_scooter", "name": "58f4e2394eb837c33769557491fddd08", "is_reserved": 0, "lon": -77.0365725, "is_disabled": 0, "fusion_lat": 0.0, "lat": 38.936326, "bike_id": "58f4e2394eb837c33769557491fddd08", "fusion_lon": 0.0}, {"rental_uris": {"ios": "https://dc.lft.to/lastmile_qr_scan", "android": "https://dc.lft.to/lastmile_qr_scan"}, "type": "electric_scooter", "name": "c3ed9953845a4c544f1fed49a1ef2856", "is_reserved": 0, "lon": -77.032253, "is_disabled": 0, "fusion_lat": 0.0, "lat": 38.92055466666667, "bike_id": "c3ed9953845a4c544f1fed49a1ef2856", "fusion_lon": 0.0}, {"rental_uris": {"ios": "https://dc.lft.to/lastmile_qr_scan", "android": "https://dc.lft.to/lastmile_qr_scan"}, "type": "electric_scooter", "name": "4d8c87f08d28b437e8f64ab56160898e", "is_reserved": 0, "lon": -77.01361216666666, "is_disabled": 0, "fusion_lat": 0.0, "lat": 38.895869, "bike_id": "4d8c87f08d28b437e8f64ab56160898e", "fusion_lon": 0.0}, {"rental_uris": {"ios": "https://dc.lft.to/lastmile_qr_scan", "android": "https://dc.lft.to/lastmile_qr_scan"}, "type": "electric_scooter", "name": "b178eea4636c3b98d5883a4fd951cd6f", "is_reserved": 0, "lon": -77.04239616666666, "is_disabled": 0, "fusion_lat": 0.0, "lat": 38.904415, "bike_id": "b178eea4636c3b98d5883a4fd951cd6f", "fusion_lon": 0.0}, {"rental_uris": {"ios": "https://dc.lft.to/lastmile_qr_scan", "android": "https://dc.lft.to/lastmile_qr_scan"}, "type": "electric_bike", "name": "729757795bd9c3b1e1821f6eeb2da41e", "is_reserved": 0, "lon": -76.93749666666666, "is_disabled": 0, "fusion_lat": 0.0, "lat": 38.87147016666667, "bike_id": "729757795bd9c3b1e1821f6eeb2da41e", "fusion_lon": 0.0}, {"rental_uris": {"ios": "https://dc.lft.to/lastmile_qr_scan", "android": "https://dc.lft.to/lastmile_qr_scan"}, "type": "electric_scooter", "name": "0ba5c47bd90700a5884d33381c407f9a", "is_reserved": 0, "lon": -77.03053133333333, "is_disabled": 0, "fusion_lat": 0.0, "lat": 38.92472216666667, "bike_id": "0ba5c47bd90700a5884d33381c407f9a", "fusion_lon": 0.0}, {"rental_uris": {"ios": "https://dc.lft.to/lastmile_qr_scan", "android": "https://dc.lft.to/lastmile_qr_scan"}, "type": "electric_scooter", "name": "08a730d8a1cbf51882e2f5e9867d331e", "is_reserved": 0, "lon": -77.01785516666666, "is_disabled": 0, "fusion_lat": 0.0, "lat": 38.91993433333333, "bike_id": "08a730d8a1cbf51882e2f5e9867d331e", "fusion_lon": 0.0}, {"rental_uris": {"ios": "https://dc.lft.to/lastmile_qr_scan", "android": "https://dc.lft.to/lastmile_qr_scan"}, "type": "electric_scooter", "name": "910b00f5a963f45a756d65f8983afb22", "is_reserved": 0, "lon": -77.05553866666666, "is_disabled": 0, "fusion_lat": 0.0, "lat": 38.89980666666666, "bike_id": "910b00f5a963f45a756d65f8983afb22", "fusion_lon": 0.0}, {"rental_uris": {"ios": "https://dc.lft.to/lastmile_qr_scan", "android": "https://dc.lft.to/lastmile_qr_scan"}, "type": "electric_scooter", "name": "483f8145481cbc5460ed30b2987cb3e3", "is_reserved": 0, "lon": -77.0464535, "is_disabled": 0, "fusion_lat": 0.0, "lat": 38.91188533333333, "bike_id": "483f8145481cbc5460ed30b2987cb3e3", "fusion_lon": 0.0}, {"rental_uris": {"ios": "https://dc.lft.to/lastmile_qr_scan", "android": "https://dc.lft.to/lastmile_qr_scan"}, "type": "electric_scooter", "name": "da75dc03b2750e9bec51873969f717eb", "is_reserved": 0, "lon": -76.95201133333333, "is_disabled": 0, "fusion_lat": 0.0, "lat": 38.905137833333335, "bike_id": "da75dc03b2750e9bec51873969f717eb", "fusion_lon": 0.0}, {"rental_uris": {"ios": "https://dc.lft.to/lastmile_qr_scan", "android": "https://dc.lft.to/lastmile_qr_scan"}, "type": "electric_scooter", "name": "15db5f4103d8ee514565674379d0cef3", "is_reserved": 0, "lon": -76.99928366666667, "is_disabled": 0, "fusion_lat": 0.0, "lat": 38.95763133333333, "bike_id": "15db5f4103d8ee514565674379d0cef3", "fusion_lon": 0.0}, {"rental_uris": {"ios": "https://dc.lft.to/lastmile_qr_scan", "android": "https://dc.lft.to/lastmile_qr_scan"}, "type": "electric_scooter", "name": "e7408f2e64247cd38cf39debd89d3834", "is_reserved": 0, "lon": -77.03277866666667, "is_disabled": 0, "fusion_lat": 0.0, "lat": 38.904323, "bike_id": "e7408f2e64247cd38cf39debd89d3834", "fusion_lon": 0.0}, {"rental_uris": {"ios": "https://dc.lft.to/lastmile_qr_scan", "android": "https://dc.lft.to/lastmile_qr_scan"}, "type": "electric_scooter", "name": "8e0903492b5963e19f8383d9fd8c1c6d", "is_reserved": 0, "lon": -77.03750883333333, "is_disabled": 0, "fusion_lat": 0.0, "lat": 38.931984666666665, "bike_id": "8e0903492b5963e19f8383d9fd8c1c6d", "fusion_lon": 0.0}, {"rental_uris": {"ios": "https://dc.lft.to/lastmile_qr_scan", "android": "https://dc.lft.to/lastmile_qr_scan"}, "type": "electric_scooter", "name": "3b33b3608284565f14ea2cc0bf065743", "is_reserved": 0, "lon": -77.06777583333333, "is_disabled": 0, "fusion_lat": 0.0, "lat": 38.90883183333333, "bike_id": "3b33b3608284565f14ea2cc0bf065743", "fusion_lon": 0.0}, {"rental_uris": {"ios": "https://dc.lft.to/lastmile_qr_scan", "android": "https://dc.lft.to/lastmile_qr_scan"}, "type": "electric_scooter", "name": "a4ab22dfd2e61aa8fa1ee055303ba04d", "is_reserved": 0, "lon": -77.04383283333334, "is_disabled": 0, "fusion_lat": 0.0, "lat": 38.91708216666667, "bike_id": "a4ab22dfd2e61aa8fa1ee055303ba04d", "fusion_lon": 0.0}, {"rental_uris": {"ios": "https://dc.lft.to/lastmile_qr_scan", "android": "https://dc.lft.to/lastmile_qr_scan"}, "type": "electric_scooter", "name": "abc634b5e51efbc8a43de303f4a05f61", "is_reserved": 0, "lon": -77.0278195, "is_disabled": 0, "fusion_lat": 0.0, "lat": 38.927803833333336, "bike_id": "abc634b5e51efbc8a43de303f4a05f61", "fusion_lon": 0.0}, {"rental_uris": {"ios": "https://dc.lft.to/lastmile_qr_scan", "android": "https://dc.lft.to/lastmile_qr_scan"}, "type": "electric_scooter", "name": "205d8831c936ec2a4be1e5234fa19db9", "is_reserved": 0, "lon": -77.03369866666667, "is_disabled": 0, "fusion_lat": 0.0, "lat": 38.897388, "bike_id": "205d8831c936ec2a4be1e5234fa19db9", "fusion_lon": 0.0}, {"rental_uris": {"ios": "https://dc.lft.to/lastmile_qr_scan", "android": "https://dc.lft.to/lastmile_qr_scan"}, "type": "electric_scooter", "name": "034cf412d18ceb849f6cdda46503d9fc", "is_reserved": 0, "lon": -77.03865666666667, "is_disabled": 0, "fusion_lat": 0.0, "lat": 38.911141, "bike_id": "034cf412d18ceb849f6cdda46503d9fc", "fusion_lon": 0.0}, {"rental_uris": {"ios": "https://dc.lft.to/lastmile_qr_scan", "android": "https://dc.lft.to/lastmile_qr_scan"}, "type": "electric_bike", "name": "c77fde26ac23f64086274697a9e97e18", "is_reserved": 0, "lon": -76.95744083333334, "is_disabled": 0, "fusion_lat": 0.0, "lat": 38.888596166666666, "bike_id": "c77fde26ac23f64086274697a9e97e18", "fusion_lon": 0.0}, {"rental_uris": {"ios": "https://dc.lft.to/lastmile_qr_scan", "android": "https://dc.lft.to/lastmile_qr_scan"}, "type": "electric_scooter", "name": "cf05dec6a1ea57d0991f1d5bd1f07e76", "is_reserved": 0, "lon": -77.03135033333334, "is_disabled": 0, "fusion_lat": 0.0, "lat": 38.918310166666664, "bike_id": "cf05dec6a1ea57d0991f1d5bd1f07e76", "fusion_lon": 0.0}, {"rental_uris": {"ios": "https://dc.lft.to/lastmile_qr_scan", "android": "https://dc.lft.to/lastmile_qr_scan"}, "type": "electric_scooter", "name": "7a947ddbd4ddf17b31d1f663c6397458", "is_reserved": 0, "lon": -77.04551616666667, "is_disabled": 0, "fusion_lat": 0.0, "lat": 38.90972416666666, "bike_id": "7a947ddbd4ddf17b31d1f663c6397458", "fusion_lon": 0.0}, {"rental_uris": {"ios": "https://dc.lft.to/lastmile_qr_scan", "android": "https://dc.lft.to/lastmile_qr_scan"}, "type": "electric_scooter", "name": "5c7b89b78d62fcafe99bc91e2bedbacb", "is_reserved": 0, "lon": -77.03951566666667, "is_disabled": 0, "fusion_lat": 0.0, "lat": 38.892505166666666, "bike_id": "5c7b89b78d62fcafe99bc91e2bedbacb", "fusion_lon": 0.0}, {"rental_uris": {"ios": "https://dc.lft.to/lastmile_qr_scan", "android": "https://dc.lft.to/lastmile_qr_scan"}, "type": "electric_scooter", "name": "6fe1fae88b66185df6b529345aa91b3d", "is_reserved": 0, "lon": -76.94720416666667, "is_disabled": 0, "fusion_lat": 0.0, "lat": 38.890829833333335, "bike_id": "6fe1fae88b66185df6b529345aa91b3d", "fusion_lon": 0.0}, {"rental_uris": {"ios": "https://dc.lft.to/lastmile_qr_scan", "android": "https://dc.lft.to/lastmile_qr_scan"}, "type": "electric_scooter", "name": "1f716e05602ac9aa71fddb8f36268c4d", "is_reserved": 0, "lon": -76.98925516666667, "is_disabled": 0, "fusion_lat": 0.0, "lat": 38.878624, "bike_id": "1f716e05602ac9aa71fddb8f36268c4d", "fusion_lon": 0.0}, {"rental_uris": {"ios": "https://dc.lft.to/lastmile_qr_scan", "android": "https://dc.lft.to/lastmile_qr_scan"}, "type": "electric_scooter", "name": "66ecc394001ca394339573b2648c297d", "is_reserved": 0, "lon": -77.04128983333334, "is_disabled": 0, "fusion_lat": 0.0, "lat": 38.932767, "bike_id": "66ecc394001ca394339573b2648c297d", "fusion_lon": 0.0}, {"rental_uris": {"ios": "https://dc.lft.to/lastmile_qr_scan", "android": "https://dc.lft.to/lastmile_qr_scan"}, "type": "electric_scooter", "name": "4a8619207711146f9e4310db2c868dc8", "is_reserved": 0, "lon": -77.00825466666667, "is_disabled": 0, "fusion_lat": 0.0, "lat": 38.8795125, "bike_id": "4a8619207711146f9e4310db2c868dc8", "fusion_lon": 0.0}, {"rental_uris": {"ios": "https://dc.lft.to/lastmile_qr_scan", "android": "https://dc.lft.to/lastmile_qr_scan"}, "type": "electric_scooter", "name": "f5c0b910bf9573c971bfde57a8a872d2", "is_reserved": 0, "lon": -77.03127016666667, "is_disabled": 0, "fusion_lat": 0.0, "lat": 38.9156205, "bike_id": "f5c0b910bf9573c971bfde57a8a872d2", "fusion_lon": 0.0}, {"rental_uris": {"ios": "https://dc.lft.to/lastmile_qr_scan", "android": "https://dc.lft.to/lastmile_qr_scan"}, "type": "electric_scooter", "name": "50da7ae26624871ef1f86ca53e4fd080", "is_reserved": 0, "lon": -77.05622416666667, "is_disabled": 0, "fusion_lat": 0.0, "lat": 38.906794, "bike_id": "50da7ae26624871ef1f86ca53e4fd080", "fusion_lon": 0.0}, {"rental_uris": {"ios": "https://dc.lft.to/lastmile_qr_scan", "android": "https://dc.lft.to/lastmile_qr_scan"}, "type": "electric_scooter", "name": "129eda557ea5ef72dda8bc915bfa7b3c", "is_reserved": 0, "lon": -77.02714233333333, "is_disabled": 0, "fusion_lat": 0.0, "lat": 38.9122055, "bike_id": "129eda557ea5ef72dda8bc915bfa7b3c", "fusion_lon": 0.0}, {"rental_uris": {"ios": "https://dc.lft.to/lastmile_qr_scan", "android": "https://dc.lft.to/lastmile_qr_scan"}, "type": "electric_scooter", "name": "db536fc95fbe736b04b8f0c29bf084a0", "is_reserved": 0, "lon": -76.98110033333333, "is_disabled": 0, "fusion_lat": 0.0, "lat": 38.90250433333333, "bike_id": "db536fc95fbe736b04b8f0c29bf084a0", "fusion_lon": 0.0}, {"rental_uris": {"ios": "https://dc.lft.to/lastmile_qr_scan", "android": "https://dc.lft.to/lastmile_qr_scan"}, "type": "electric_bike", "name": "1caab0e1202b5968fa51bb5868382567", "is_reserved": 0, "lon": -77.113578, "is_disabled": 0, "fusion_lat": 0.0, "lat": 38.8419045, "bike_id": "1caab0e1202b5968fa51bb5868382567", "fusion_lon": 0.0}, {"rental_uris": {"ios": "https://dc.lft.to/lastmile_qr_scan", "android": "https://dc.lft.to/lastmile_qr_scan"}, "type": "electric_scooter", "name": "79b98796b7329dc53ddbed4560944af3", "is_reserved": 0, "lon": -77.003272, "is_disabled": 0, "fusion_lat": 0.0, "lat": 38.91895783333333, "bike_id": "79b98796b7329dc53ddbed4560944af3", "fusion_lon": 0.0}, {"rental_uris": {"ios": "https://dc.lft.to/lastmile_qr_scan", "android": "https://dc.lft.to/lastmile_qr_scan"}, "type": "electric_scooter", "name": "55d26977bfec94dfb3889b600f68c1c2", "is_reserved": 0, "lon": -77.04641316666667, "is_disabled": 0, "fusion_lat": 0.0, "lat": 38.897315166666665, "bike_id": "55d26977bfec94dfb3889b600f68c1c2", "fusion_lon": 0.0}, {"rental_uris": {"ios": "https://dc.lft.to/lastmile_qr_scan", "android": "https://dc.lft.to/lastmile_qr_scan"}, "type": "electric_scooter", "name": "d53937ba2aaa5390c9f8cf94b808c6e0", "is_reserved": 0, "lon": -77.01757933333333, "is_disabled": 0, "fusion_lat": 0.0, "lat": 38.90270066666667, "bike_id": "d53937ba2aaa5390c9f8cf94b808c6e0", "fusion_lon": 0.0}, {"rental_uris": {"ios": "https://dc.lft.to/lastmile_qr_scan", "android": "https://dc.lft.to/lastmile_qr_scan"}, "type": "electric_scooter", "name": "fe9f109a58a0b22a4b449f3b2bfe8861", "is_reserved": 0, "lon": -76.99348983333333, "is_disabled": 0, "fusion_lat": 0.0, "lat": 38.87693766666666, "bike_id": "fe9f109a58a0b22a4b449f3b2bfe8861", "fusion_lon": 0.0}, {"rental_uris": {"ios": "https://dc.lft.to/lastmile_qr_scan", "android": "https://dc.lft.to/lastmile_qr_scan"}, "type": "electric_scooter", "name": "22059f875807c28c0c8b372e7d95c96c", "is_reserved": 0, "lon": -77.031959, "is_disabled": 0, "fusion_lat": 0.0, "lat": 38.912067, "bike_id": "22059f875807c28c0c8b372e7d95c96c", "fusion_lon": 0.0}, {"rental_uris": {"ios": "https://dc.lft.to/lastmile_qr_scan", "android": "https://dc.lft.to/lastmile_qr_scan"}, "type": "electric_scooter", "name": "369a6c35a3e5c8d03d96ce02d7ca6429", "is_reserved": 0, "lon": -77.0176055, "is_disabled": 0, "fusion_lat": 0.0, "lat": 38.900295666666665, "bike_id": "369a6c35a3e5c8d03d96ce02d7ca6429", "fusion_lon": 0.0}, {"rental_uris": {"ios": "https://dc.lft.to/lastmile_qr_scan", "android": "https://dc.lft.to/lastmile_qr_scan"}, "type": "electric_scooter", "name": "19eb5e4e9489ce32790c37d63c540ee3", "is_reserved": 0, "lon": -77.04256866666667, "is_disabled": 0, "fusion_lat": 0.0, "lat": 38.907250833333336, "bike_id": "19eb5e4e9489ce32790c37d63c540ee3", "fusion_lon": 0.0}, {"rental_uris": {"ios": "https://dc.lft.to/lastmile_qr_scan", "android": "https://dc.lft.to/lastmile_qr_scan"}, "type": "electric_scooter", "name": "d9f754c9da893d5fc6c22262cb280c4e", "is_reserved": 0, "lon": -77.031737, "is_disabled": 0, "fusion_lat": 0.0, "lat": 38.887096166666666, "bike_id": "d9f754c9da893d5fc6c22262cb280c4e", "fusion_lon": 0.0}, {"rental_uris": {"ios": "https://dc.lft.to/lastmile_qr_scan", "android": "https://dc.lft.to/lastmile_qr_scan"}, "type": "electric_bike", "name": "960b8dc05a8639cd6012494ec61471f4", "is_reserved": 0, "lon": -77.043107, "is_disabled": 0, "fusion_lat": 0.0, "lat": 39.034227666666666, "bike_id": "960b8dc05a8639cd6012494ec61471f4", "fusion_lon": 0.0}, {"rental_uris": {"ios": "https://dc.lft.to/lastmile_qr_scan", "android": "https://dc.lft.to/lastmile_qr_scan"}, "type": "electric_scooter", "name": "26cc2a75321b575fa9dce996828f6037", "is_reserved": 0, "lon": -77.03067016666667, "is_disabled": 0, "fusion_lat": 0.0, "lat": 38.922493333333335, "bike_id": "26cc2a75321b575fa9dce996828f6037", "fusion_lon": 0.0}, {"rental_uris": {"ios": "https://dc.lft.to/lastmile_qr_scan", "android": "https://dc.lft.to/lastmile_qr_scan"}, "type": "electric_scooter", "name": "d76ee2a6648e36fb8fda1680c9c54318", "is_reserved": 0, "lon": -76.985193, "is_disabled": 0, "fusion_lat": 0.0, "lat": 38.860104166666666, "bike_id": "d76ee2a6648e36fb8fda1680c9c54318", "fusion_lon": 0.0}, {"rental_uris": {"ios": "https://dc.lft.to/lastmile_qr_scan", "android": "https://dc.lft.to/lastmile_qr_scan"}, "type": "electric_scooter", "name": "3ea806fd22057222bc288d8cadd14f8b", "is_reserved": 0, "lon": -77.02742783333333, "is_disabled": 0, "fusion_lat": 0.0, "lat": 38.96610966666667, "bike_id": "3ea806fd22057222bc288d8cadd14f8b", "fusion_lon": 0.0}, {"rental_uris": {"ios": "https://dc.lft.to/lastmile_qr_scan", "android": "https://dc.lft.to/lastmile_qr_scan"}, "type": "electric_scooter", "name": "5e077dbf76cb5d1636cb142ce895a9c5", "is_reserved": 0, "lon": -77.07522333333333, "is_disabled": 0, "fusion_lat": 0.0, "lat": 38.939512, "bike_id": "5e077dbf76cb5d1636cb142ce895a9c5", "fusion_lon": 0.0}, {"rental_uris": {"ios": "https://dc.lft.to/lastmile_qr_scan", "android": "https://dc.lft.to/lastmile_qr_scan"}, "type": "electric_scooter", "name": "57839d4d35aae7b7847108fffd1c9e24", "is_reserved": 0, "lon": -77.027927, "is_disabled": 0, "fusion_lat": 0.0, "lat": 38.9231985, "bike_id": "57839d4d35aae7b7847108fffd1c9e24", "fusion_lon": 0.0}, {"rental_uris": {"ios": "https://dc.lft.to/lastmile_qr_scan", "android": "https://dc.lft.to/lastmile_qr_scan"}, "type": "electric_scooter", "name": "f935cc521739d2ddb52fd5a086554f0d", "is_reserved": 0, "lon": -77.04528683333334, "is_disabled": 0, "fusion_lat": 0.0, "lat": 38.89954816666667, "bike_id": "f935cc521739d2ddb52fd5a086554f0d", "fusion_lon": 0.0}, {"rental_uris": {"ios": "https://dc.lft.to/lastmile_qr_scan", "android": "https://dc.lft.to/lastmile_qr_scan"}, "type": "electric_scooter", "name": "c0898dad48b1b21a0234acad9d9dbfd3", "is_reserved": 0, "lon": -77.00577966666667, "is_disabled": 0, "fusion_lat": 0.0, "lat": 38.87544366666667, "bike_id": "c0898dad48b1b21a0234acad9d9dbfd3", "fusion_lon": 0.0}, {"rental_uris": {"ios": "https://dc.lft.to/lastmile_qr_scan", "android": "https://dc.lft.to/lastmile_qr_scan"}, "type": "electric_scooter", "name": "1b34fe3b2434b27deef16fca5c698170", "is_reserved": 0, "lon": -77.03616066666666, "is_disabled": 0, "fusion_lat": 0.0, "lat": 38.92846683333333, "bike_id": "1b34fe3b2434b27deef16fca5c698170", "fusion_lon": 0.0}, {"rental_uris": {"ios": "https://dc.lft.to/lastmile_qr_scan", "android": "https://dc.lft.to/lastmile_qr_scan"}, "type": "electric_scooter", "name": "c44ecdd96c62fe8d0b1a55c828e00d6b", "is_reserved": 0, "lon": -76.99529183333334, "is_disabled": 0, "fusion_lat": 0.0, "lat": 38.86270583333334, "bike_id": "c44ecdd96c62fe8d0b1a55c828e00d6b", "fusion_lon": 0.0}, {"rental_uris": {"ios": "https://dc.lft.to/lastmile_qr_scan", "android": "https://dc.lft.to/lastmile_qr_scan"}, "type": "electric_scooter", "name": "5f212d591f795fb537aecb9ca7f7f26a", "is_reserved": 0, "lon": -77.0347445, "is_disabled": 0, "fusion_lat": 0.0, "lat": 38.907319, "bike_id": "5f212d591f795fb537aecb9ca7f7f26a", "fusion_lon": 0.0}, {"rental_uris": {"ios": "https://dc.lft.to/lastmile_qr_scan", "android": "https://dc.lft.to/lastmile_qr_scan"}, "type": "electric_scooter", "name": "529b1556ad133f6b92a64d0192fb611d", "is_reserved": 0, "lon": -77.0323335, "is_disabled": 0, "fusion_lat": 0.0, "lat": 38.89924516666667, "bike_id": "529b1556ad133f6b92a64d0192fb611d", "fusion_lon": 0.0}, {"rental_uris": {"ios": "https://dc.lft.to/lastmile_qr_scan", "android": "https://dc.lft.to/lastmile_qr_scan"}, "type": "electric_scooter", "name": "a05545ff295b62517c4a6d536951a68d", "is_reserved": 0, "lon": -77.04567883333333, "is_disabled": 0, "fusion_lat": 0.0, "lat": 38.914087333333335, "bike_id": "a05545ff295b62517c4a6d536951a68d", "fusion_lon": 0.0}, {"rental_uris": {"ios": "https://dc.lft.to/lastmile_qr_scan", "android": "https://dc.lft.to/lastmile_qr_scan"}, "type": "electric_scooter", "name": "0cbd6f89399f7725d58b10c4d2e96144", "is_reserved": 0, "lon": -77.0271035, "is_disabled": 0, "fusion_lat": 0.0, "lat": 38.935756833333336, "bike_id": "0cbd6f89399f7725d58b10c4d2e96144", "fusion_lon": 0.0}, {"rental_uris": {"ios": "https://dc.lft.to/lastmile_qr_scan", "android": "https://dc.lft.to/lastmile_qr_scan"}, "type": "electric_scooter", "name": "327866f1a38144dc25973c28f2d31e23", "is_reserved": 0, "lon": -77.05794266666666, "is_disabled": 0, "fusion_lat": 0.0, "lat": 38.934780333333336, "bike_id": "327866f1a38144dc25973c28f2d31e23", "fusion_lon": 0.0}, {"rental_uris": {"ios": "https://dc.lft.to/lastmile_qr_scan", "android": "https://dc.lft.to/lastmile_qr_scan"}, "type": "electric_bike", "name": "d84ff796a5a82f8952d4861cfd344617", "is_reserved": 0, "lon": -76.99494383333334, "is_disabled": 0, "fusion_lat": 0.0, "lat": 38.8622125, "bike_id": "d84ff796a5a82f8952d4861cfd344617", "fusion_lon": 0.0}, {"rental_uris": {"ios": "https://dc.lft.to/lastmile_qr_scan", "android": "https://dc.lft.to/lastmile_qr_scan"}, "type": "electric_scooter", "name": "2cf72943feebcedc6c2ae93e9a5c4b6e", "is_reserved": 0, "lon": -77.02276633333334, "is_disabled": 0, "fusion_lat": 0.0, "lat": 38.924192833333336, "bike_id": "2cf72943feebcedc6c2ae93e9a5c4b6e", "fusion_lon": 0.0}, {"rental_uris": {"ios": "https://dc.lft.to/lastmile_qr_scan", "android": "https://dc.lft.to/lastmile_qr_scan"}, "type": "electric_scooter", "name": "af78ab253e171a3f397a448b573d8e61", "is_reserved": 0, "lon": -77.01624933333333, "is_disabled": 0, "fusion_lat": 0.0, "lat": 38.90660033333333, "bike_id": "af78ab253e171a3f397a448b573d8e61", "fusion_lon": 0.0}, {"rental_uris": {"ios": "https://dc.lft.to/lastmile_qr_scan", "android": "https://dc.lft.to/lastmile_qr_scan"}, "type": "electric_scooter", "name": "9603432f1d9a9eac16070ef17fc780df", "is_reserved": 0, "lon": -77.043371, "is_disabled": 0, "fusion_lat": 0.0, "lat": 38.892223, "bike_id": "9603432f1d9a9eac16070ef17fc780df", "fusion_lon": 0.0}, {"rental_uris": {"ios": "https://dc.lft.to/lastmile_qr_scan", "android": "https://dc.lft.to/lastmile_qr_scan"}, "type": "electric_scooter", "name": "cadbef4b2771f46008c1ed051184971a", "is_reserved": 0, "lon": -77.024267, "is_disabled": 0, "fusion_lat": 0.0, "lat": 38.923259, "bike_id": "cadbef4b2771f46008c1ed051184971a", "fusion_lon": 0.0}, {"rental_uris": {"ios": "https://dc.lft.to/lastmile_qr_scan", "android": "https://dc.lft.to/lastmile_qr_scan"}, "type": "electric_scooter", "name": "247dcf7bd8f7b7bdb871b7d913985116", "is_reserved": 0, "lon": -77.03180433333333, "is_disabled": 0, "fusion_lat": 0.0, "lat": 38.90948266666667, "bike_id": "247dcf7bd8f7b7bdb871b7d913985116", "fusion_lon": 0.0}, {"rental_uris": {"ios": "https://dc.lft.to/lastmile_qr_scan", "android": "https://dc.lft.to/lastmile_qr_scan"}, "type": "electric_scooter", "name": "77682eb0f6edc8b59ef5abfada210175", "is_reserved": 0, "lon": -76.97981416666667, "is_disabled": 0, "fusion_lat": 0.0, "lat": 38.89734166666667, "bike_id": "77682eb0f6edc8b59ef5abfada210175", "fusion_lon": 0.0}, {"rental_uris": {"ios": "https://dc.lft.to/lastmile_qr_scan", "android": "https://dc.lft.to/lastmile_qr_scan"}, "type": "electric_scooter", "name": "2c6edc5db797e3d1e9efe6aecd49afbd", "is_reserved": 0, "lon": -77.036555, "is_disabled": 0, "fusion_lat": 0.0, "lat": 38.91331316666667, "bike_id": "2c6edc5db797e3d1e9efe6aecd49afbd", "fusion_lon": 0.0}, {"rental_uris": {"ios": "https://dc.lft.to/lastmile_qr_scan", "android": "https://dc.lft.to/lastmile_qr_scan"}, "type": "electric_bike", "name": "4ad0e2961bf67873da15acdad2d15252", "is_reserved": 0, "lon": -76.90740416666667, "is_disabled": 0, "fusion_lat": 0.0, "lat": 38.896202333333335, "bike_id": "4ad0e2961bf67873da15acdad2d15252", "fusion_lon": 0.0}, {"rental_uris": {"ios": "https://dc.lft.to/lastmile_qr_scan", "android": "https://dc.lft.to/lastmile_qr_scan"}, "type": "electric_scooter", "name": "6c0872050db0634f3da9034a9891e91c", "is_reserved": 0, "lon": -77.00716233333333, "is_disabled": 0, "fusion_lat": 0.0, "lat": 38.90641183333334, "bike_id": "6c0872050db0634f3da9034a9891e91c", "fusion_lon": 0.0}, {"rental_uris": {"ios": "https://dc.lft.to/lastmile_qr_scan", "android": "https://dc.lft.to/lastmile_qr_scan"}, "type": "electric_scooter", "name": "d915be3b43b4c66fb2b82618b52ccb55", "is_reserved": 0, "lon": -77.020995, "is_disabled": 0, "fusion_lat": 0.0, "lat": 38.92702333333333, "bike_id": "d915be3b43b4c66fb2b82618b52ccb55", "fusion_lon": 0.0}, {"rental_uris": {"ios": "https://dc.lft.to/lastmile_qr_scan", "android": "https://dc.lft.to/lastmile_qr_scan"}, "type": "electric_scooter", "name": "00dd988ef05aa489d270044f7324c29e", "is_reserved": 0, "lon": -76.98068216666667, "is_disabled": 0, "fusion_lat": 0.0, "lat": 38.90174616666667, "bike_id": "00dd988ef05aa489d270044f7324c29e", "fusion_lon": 0.0}, {"rental_uris": {"ios": "https://dc.lft.to/lastmile_qr_scan", "android": "https://dc.lft.to/lastmile_qr_scan"}, "type": "electric_scooter", "name": "e98b7db5babfbb469cb2aa99ebf2aba8", "is_reserved": 0, "lon": -77.03248683333334, "is_disabled": 0, "fusion_lat": 0.0, "lat": 38.91990666666667, "bike_id": "e98b7db5babfbb469cb2aa99ebf2aba8", "fusion_lon": 0.0}, {"rental_uris": {"ios": "https://dc.lft.to/lastmile_qr_scan", "android": "https://dc.lft.to/lastmile_qr_scan"}, "type": "electric_scooter", "name": "4dbf28d54cf342d5bce609109f18d56f", "is_reserved": 0, "lon": -77.0412535, "is_disabled": 0, "fusion_lat": 0.0, "lat": 38.933605166666666, "bike_id": "4dbf28d54cf342d5bce609109f18d56f", "fusion_lon": 0.0}, {"rental_uris": {"ios": "https://dc.lft.to/lastmile_qr_scan", "android": "https://dc.lft.to/lastmile_qr_scan"}, "type": "electric_scooter", "name": "526ba4ecd979e8159446c9c67b47ff38", "is_reserved": 0, "lon": -77.03869966666667, "is_disabled": 0, "fusion_lat": 0.0, "lat": 38.911864333333334, "bike_id": "526ba4ecd979e8159446c9c67b47ff38", "fusion_lon": 0.0}, {"rental_uris": {"ios": "https://dc.lft.to/lastmile_qr_scan", "android": "https://dc.lft.to/lastmile_qr_scan"}, "type": "electric_bike", "name": "af0dfa18ff7ad9ca647c6508b60ceea5", "is_reserved": 0, "lon": -76.917206, "is_disabled": 0, "fusion_lat": 0.0, "lat": 38.880300166666665, "bike_id": "af0dfa18ff7ad9ca647c6508b60ceea5", "fusion_lon": 0.0}, {"rental_uris": {"ios": "https://dc.lft.to/lastmile_qr_scan", "android": "https://dc.lft.to/lastmile_qr_scan"}, "type": "electric_scooter", "name": "0f935faef23bfa44c2ffe5774df361ad", "is_reserved": 0, "lon": -77.0436165, "is_disabled": 0, "fusion_lat": 0.0, "lat": 38.92676066666667, "bike_id": "0f935faef23bfa44c2ffe5774df361ad", "fusion_lon": 0.0}, {"rental_uris": {"ios": "https://dc.lft.to/lastmile_qr_scan", "android": "https://dc.lft.to/lastmile_qr_scan"}, "type": "electric_scooter", "name": "efc483b89fee23909b2d3a3dfe4de6a4", "is_reserved": 0, "lon": -77.01858383333334, "is_disabled": 0, "fusion_lat": 0.0, "lat": 38.948910833333336, "bike_id": "efc483b89fee23909b2d3a3dfe4de6a4", "fusion_lon": 0.0}, {"rental_uris": {"ios": "https://dc.lft.to/lastmile_qr_scan", "android": "https://dc.lft.to/lastmile_qr_scan"}, "type": "electric_scooter", "name": "28b2cfd2f8e84381c56d11eafef7536d", "is_reserved": 0, "lon": -77.02333716666666, "is_disabled": 0, "fusion_lat": 0.0, "lat": 38.92302466666667, "bike_id": "28b2cfd2f8e84381c56d11eafef7536d", "fusion_lon": 0.0}, {"rental_uris": {"ios": "https://dc.lft.to/lastmile_qr_scan", "android": "https://dc.lft.to/lastmile_qr_scan"}, "type": "electric_scooter", "name": "8b564b1e7588ca783a1e88dfb80a6f2c", "is_reserved": 0, "lon": -77.03048233333334, "is_disabled": 0, "fusion_lat": 0.0, "lat": 38.88407483333334, "bike_id": "8b564b1e7588ca783a1e88dfb80a6f2c", "fusion_lon": 0.0}, {"rental_uris": {"ios": "https://dc.lft.to/lastmile_qr_scan", "android": "https://dc.lft.to/lastmile_qr_scan"}, "type": "electric_bike", "name": "06e86004dbfa968697a42f4958777e1f", "is_reserved": 0, "lon": -77.079434, "is_disabled": 0, "fusion_lat": 0.0, "lat": 38.849086, "bike_id": "06e86004dbfa968697a42f4958777e1f", "fusion_lon": 0.0}, {"rental_uris": {"ios": "https://dc.lft.to/lastmile_qr_scan", "android": "https://dc.lft.to/lastmile_qr_scan"}, "type": "electric_scooter", "name": "a366ff1d0011bee0cd7416fc4cc08006", "is_reserved": 0, "lon": -76.98261216666667, "is_disabled": 0, "fusion_lat": 0.0, "lat": 38.86624916666667, "bike_id": "a366ff1d0011bee0cd7416fc4cc08006", "fusion_lon": 0.0}, {"rental_uris": {"ios": "https://dc.lft.to/lastmile_qr_scan", "android": "https://dc.lft.to/lastmile_qr_scan"}, "type": "electric_scooter", "name": "5f6975fe2ac33e1666e2ce7dd649af55", "is_reserved": 0, "lon": -77.04215466666666, "is_disabled": 0, "fusion_lat": 0.0, "lat": 38.92138533333333, "bike_id": "5f6975fe2ac33e1666e2ce7dd649af55", "fusion_lon": 0.0}, {"rental_uris": {"ios": "https://dc.lft.to/lastmile_qr_scan", "android": "https://dc.lft.to/lastmile_qr_scan"}, "type": "electric_bike", "name": "f5ba9aa8d05f81619e843b489424fdac", "is_reserved": 0, "lon": -77.020068, "is_disabled": 0, "fusion_lat": 0.0, "lat": 38.96439766666667, "bike_id": "f5ba9aa8d05f81619e843b489424fdac", "fusion_lon": 0.0}, {"rental_uris": {"ios": "https://dc.lft.to/lastmile_qr_scan", "android": "https://dc.lft.to/lastmile_qr_scan"}, "type": "electric_scooter", "name": "52680ec9be491d61768b0c498396e321", "is_reserved": 0, "lon": -77.03667316666667, "is_disabled": 0, "fusion_lat": 0.0, "lat": 38.92287016666667, "bike_id": "52680ec9be491d61768b0c498396e321", "fusion_lon": 0.0}, {"rental_uris": {"ios": "https://dc.lft.to/lastmile_qr_scan", "android": "https://dc.lft.to/lastmile_qr_scan"}, "type": "electric_scooter", "name": "f16fb24dc28ffd47c911b991b7f7cb3e", "is_reserved": 0, "lon": -77.02043133333333, "is_disabled": 0, "fusion_lat": 0.0, "lat": 38.922473333333336, "bike_id": "f16fb24dc28ffd47c911b991b7f7cb3e", "fusion_lon": 0.0}, {"rental_uris": {"ios": "https://dc.lft.to/lastmile_qr_scan", "android": "https://dc.lft.to/lastmile_qr_scan"}, "type": "electric_scooter", "name": "151b2d2210e3eafbe75e9de3e5b2f384", "is_reserved": 0, "lon": -77.00098983333334, "is_disabled": 0, "fusion_lat": 0.0, "lat": 38.881243833333336, "bike_id": "151b2d2210e3eafbe75e9de3e5b2f384", "fusion_lon": 0.0}, {"rental_uris": {"ios": "https://dc.lft.to/lastmile_qr_scan", "android": "https://dc.lft.to/lastmile_qr_scan"}, "type": "electric_scooter", "name": "4cf9036aa70f5a87ce7fc0c615034919", "is_reserved": 0, "lon": -77.01970166666666, "is_disabled": 0, "fusion_lat": 0.0, "lat": 38.8993255, "bike_id": "4cf9036aa70f5a87ce7fc0c615034919", "fusion_lon": 0.0}, {"rental_uris": {"ios": "https://dc.lft.to/lastmile_qr_scan", "android": "https://dc.lft.to/lastmile_qr_scan"}, "type": "electric_scooter", "name": "aa5e472178e8b5cbd3b0b3fb73544d9a", "is_reserved": 0, "lon": -77.00916183333334, "is_disabled": 0, "fusion_lat": 0.0, "lat": 38.92341166666667, "bike_id": "aa5e472178e8b5cbd3b0b3fb73544d9a", "fusion_lon": 0.0}, {"rental_uris": {"ios": "https://dc.lft.to/lastmile_qr_scan", "android": "https://dc.lft.to/lastmile_qr_scan"}, "type": "electric_scooter", "name": "978c1dd6f95ea8bcd2b930484cc55a94", "is_reserved": 0, "lon": -77.02894266666667, "is_disabled": 0, "fusion_lat": 0.0, "lat": 38.90454016666666, "bike_id": "978c1dd6f95ea8bcd2b930484cc55a94", "fusion_lon": 0.0}, {"rental_uris": {"ios": "https://dc.lft.to/lastmile_qr_scan", "android": "https://dc.lft.to/lastmile_qr_scan"}, "type": "electric_scooter", "name": "b17ab8325b76a804250d549319615d58", "is_reserved": 0, "lon": -77.05326933333333, "is_disabled": 0, "fusion_lat": 0.0, "lat": 38.906421, "bike_id": "b17ab8325b76a804250d549319615d58", "fusion_lon": 0.0}, {"rental_uris": {"ios": "https://dc.lft.to/lastmile_qr_scan", "android": "https://dc.lft.to/lastmile_qr_scan"}, "type": "electric_scooter", "name": "329aa183f0bf3f32f2006daaaed6fb78", "is_reserved": 0, "lon": -77.00598983333333, "is_disabled": 0, "fusion_lat": 0.0, "lat": 38.9056055, "bike_id": "329aa183f0bf3f32f2006daaaed6fb78", "fusion_lon": 0.0}, {"rental_uris": {"ios": "https://dc.lft.to/lastmile_qr_scan", "android": "https://dc.lft.to/lastmile_qr_scan"}, "type": "electric_scooter", "name": "b2c505077bd9618bc7dbe3fd039339f3", "is_reserved": 0, "lon": -77.050242, "is_disabled": 0, "fusion_lat": 0.0, "lat": 38.900692666666664, "bike_id": "b2c505077bd9618bc7dbe3fd039339f3", "fusion_lon": 0.0}, {"rental_uris": {"ios": "https://dc.lft.to/lastmile_qr_scan", "android": "https://dc.lft.to/lastmile_qr_scan"}, "type": "electric_scooter", "name": "435b29f60847a2e5068c0e1f140e404c", "is_reserved": 0, "lon": -77.03384433333333, "is_disabled": 0, "fusion_lat": 0.0, "lat": 38.90267433333333, "bike_id": "435b29f60847a2e5068c0e1f140e404c", "fusion_lon": 0.0}, {"rental_uris": {"ios": "https://dc.lft.to/lastmile_qr_scan", "android": "https://dc.lft.to/lastmile_qr_scan"}, "type": "electric_scooter", "name": "54e8a10aedb4dfea8d49058f76befdf3", "is_reserved": 0, "lon": -77.02958483333333, "is_disabled": 0, "fusion_lat": 0.0, "lat": 38.905480833333336, "bike_id": "54e8a10aedb4dfea8d49058f76befdf3", "fusion_lon": 0.0}, {"rental_uris": {"ios": "https://dc.lft.to/lastmile_qr_scan", "android": "https://dc.lft.to/lastmile_qr_scan"}, "type": "electric_scooter", "name": "65f28e94e17780c4d420085a3b81e86b", "is_reserved": 0, "lon": -77.029574, "is_disabled": 0, "fusion_lat": 0.0, "lat": 38.88408116666667, "bike_id": "65f28e94e17780c4d420085a3b81e86b", "fusion_lon": 0.0}, {"rental_uris": {"ios": "https://dc.lft.to/lastmile_qr_scan", "android": "https://dc.lft.to/lastmile_qr_scan"}, "type": "electric_scooter", "name": "8bceedc05620ffd500e3300b147f411c", "is_reserved": 0, "lon": -77.04627283333333, "is_disabled": 0, "fusion_lat": 0.0, "lat": 38.91937883333333, "bike_id": "8bceedc05620ffd500e3300b147f411c", "fusion_lon": 0.0}, {"rental_uris": {"ios": "https://dc.lft.to/lastmile_qr_scan", "android": "https://dc.lft.to/lastmile_qr_scan"}, "type": "electric_scooter", "name": "4e71b3bae18fa490e17f0730492bb517", "is_reserved": 0, "lon": -77.002145, "is_disabled": 0, "fusion_lat": 0.0, "lat": 38.91103016666667, "bike_id": "4e71b3bae18fa490e17f0730492bb517", "fusion_lon": 0.0}, {"rental_uris": {"ios": "https://dc.lft.to/lastmile_qr_scan", "android": "https://dc.lft.to/lastmile_qr_scan"}, "type": "electric_scooter", "name": "e36338ce8d453d227feb244b1170a2f7", "is_reserved": 0, "lon": -77.03559366666667, "is_disabled": 0, "fusion_lat": 0.0, "lat": 38.90640116666667, "bike_id": "e36338ce8d453d227feb244b1170a2f7", "fusion_lon": 0.0}, {"rental_uris": {"ios": "https://dc.lft.to/lastmile_qr_scan", "android": "https://dc.lft.to/lastmile_qr_scan"}, "type": "electric_scooter", "name": "3df8cfeba7a271f964a243ac8c2a9b05", "is_reserved": 0, "lon": -77.02177783333333, "is_disabled": 0, "fusion_lat": 0.0, "lat": 38.902325833333336, "bike_id": "3df8cfeba7a271f964a243ac8c2a9b05", "fusion_lon": 0.0}, {"rental_uris": {"ios": "https://dc.lft.to/lastmile_qr_scan", "android": "https://dc.lft.to/lastmile_qr_scan"}, "type": "electric_scooter", "name": "09a100f7306359b03e286ebd2468f413", "is_reserved": 0, "lon": -77.005248, "is_disabled": 0, "fusion_lat": 0.0, "lat": 38.88513016666667, "bike_id": "09a100f7306359b03e286ebd2468f413", "fusion_lon": 0.0}, {"rental_uris": {"ios": "https://dc.lft.to/lastmile_qr_scan", "android": "https://dc.lft.to/lastmile_qr_scan"}, "type": "electric_bike", "name": "8b5dbcd28dd8fc45efd2e8d0c36413be", "is_reserved": 0, "lon": -76.96104133333333, "is_disabled": 0, "fusion_lat": 0.0, "lat": 38.949670833333336, "bike_id": "8b5dbcd28dd8fc45efd2e8d0c36413be", "fusion_lon": 0.0}, {"rental_uris": {"ios": "https://dc.lft.to/lastmile_qr_scan", "android": "https://dc.lft.to/lastmile_qr_scan"}, "type": "electric_scooter", "name": "c0b3c9d802fd4bd16afcb002ff76684f", "is_reserved": 0, "lon": -77.009158, "is_disabled": 0, "fusion_lat": 0.0, "lat": 38.91835366666667, "bike_id": "c0b3c9d802fd4bd16afcb002ff76684f", "fusion_lon": 0.0}, {"rental_uris": {"ios": "https://dc.lft.to/lastmile_qr_scan", "android": "https://dc.lft.to/lastmile_qr_scan"}, "type": "electric_scooter", "name": "c69ec65ab6b39616bd40f5fdeac7ef83", "is_reserved": 0, "lon": -77.0121715, "is_disabled": 0, "fusion_lat": 0.0, "lat": 38.920377333333334, "bike_id": "c69ec65ab6b39616bd40f5fdeac7ef83", "fusion_lon": 0.0}, {"rental_uris": {"ios": "https://dc.lft.to/lastmile_qr_scan", "android": "https://dc.lft.to/lastmile_qr_scan"}, "type": "electric_scooter", "name": "6af40b7095efd037673c9f68be48dd1e", "is_reserved": 0, "lon": -77.03905866666666, "is_disabled": 0, "fusion_lat": 0.0, "lat": 38.908261, "bike_id": "6af40b7095efd037673c9f68be48dd1e", "fusion_lon": 0.0}, {"rental_uris": {"ios": "https://dc.lft.to/lastmile_qr_scan", "android": "https://dc.lft.to/lastmile_qr_scan"}, "type": "electric_scooter", "name": "9542c08c4719508f2722991b46240d76", "is_reserved": 0, "lon": -77.010993, "is_disabled": 0, "fusion_lat": 0.0, "lat": 38.8853645, "bike_id": "9542c08c4719508f2722991b46240d76", "fusion_lon": 0.0}, {"rental_uris": {"ios": "https://dc.lft.to/lastmile_qr_scan", "android": "https://dc.lft.to/lastmile_qr_scan"}, "type": "electric_scooter", "name": "59018fe656de8c34beba006a3d724ad1", "is_reserved": 0, "lon": -77.02232466666666, "is_disabled": 0, "fusion_lat": 0.0, "lat": 38.892224666666664, "bike_id": "59018fe656de8c34beba006a3d724ad1", "fusion_lon": 0.0}, {"rental_uris": {"ios": "https://dc.lft.to/lastmile_qr_scan", "android": "https://dc.lft.to/lastmile_qr_scan"}, "type": "electric_scooter", "name": "dc398672d9291782da9db83eb73ff506", "is_reserved": 0, "lon": -77.0317205, "is_disabled": 0, "fusion_lat": 0.0, "lat": 38.8873935, "bike_id": "dc398672d9291782da9db83eb73ff506", "fusion_lon": 0.0}, {"rental_uris": {"ios": "https://dc.lft.to/lastmile_qr_scan", "android": "https://dc.lft.to/lastmile_qr_scan"}, "type": "electric_scooter", "name": "811e1e36878f8a2f9aa0bdd2d2f333fc", "is_reserved": 0, "lon": -77.02463683333333, "is_disabled": 0, "fusion_lat": 0.0, "lat": 38.939575833333336, "bike_id": "811e1e36878f8a2f9aa0bdd2d2f333fc", "fusion_lon": 0.0}, {"rental_uris": {"ios": "https://dc.lft.to/lastmile_qr_scan", "android": "https://dc.lft.to/lastmile_qr_scan"}, "type": "electric_scooter", "name": "e4c62dc93e94597474575e9d917eef19", "is_reserved": 0, "lon": -76.97958233333334, "is_disabled": 0, "fusion_lat": 0.0, "lat": 38.896184166666664, "bike_id": "e4c62dc93e94597474575e9d917eef19", "fusion_lon": 0.0}, {"rental_uris": {"ios": "https://dc.lft.to/lastmile_qr_scan", "android": "https://dc.lft.to/lastmile_qr_scan"}, "type": "electric_scooter", "name": "44634e20376c8e0ef26f8fb51614923d", "is_reserved": 0, "lon": -77.007725, "is_disabled": 0, "fusion_lat": 0.0, "lat": 38.907330333333334, "bike_id": "44634e20376c8e0ef26f8fb51614923d", "fusion_lon": 0.0}, {"rental_uris": {"ios": "https://dc.lft.to/lastmile_qr_scan", "android": "https://dc.lft.to/lastmile_qr_scan"}, "type": "electric_scooter", "name": "9dc20e8b818aba0edcd345db3ac92f99", "is_reserved": 0, "lon": -76.99839533333333, "is_disabled": 0, "fusion_lat": 0.0, "lat": 38.89190266666667, "bike_id": "9dc20e8b818aba0edcd345db3ac92f99", "fusion_lon": 0.0}, {"rental_uris": {"ios": "https://dc.lft.to/lastmile_qr_scan", "android": "https://dc.lft.to/lastmile_qr_scan"}, "type": "electric_scooter", "name": "416e623e5df3eb7f3db8c59cc354056b", "is_reserved": 0, "lon": -77.05616433333333, "is_disabled": 0, "fusion_lat": 0.0, "lat": 38.906855166666666, "bike_id": "416e623e5df3eb7f3db8c59cc354056b", "fusion_lon": 0.0}, {"rental_uris": {"ios": "https://dc.lft.to/lastmile_qr_scan", "android": "https://dc.lft.to/lastmile_qr_scan"}, "type": "electric_scooter", "name": "95754659d036323d5cc278836720a887", "is_reserved": 0, "lon": -77.03501533333333, "is_disabled": 0, "fusion_lat": 0.0, "lat": 38.934598333333334, "bike_id": "95754659d036323d5cc278836720a887", "fusion_lon": 0.0}, {"rental_uris": {"ios": "https://dc.lft.to/lastmile_qr_scan", "android": "https://dc.lft.to/lastmile_qr_scan"}, "type": "electric_bike", "name": "e1c8553d717ad21d857244ad35cef606", "is_reserved": 0, "lon": -76.90735566666666, "is_disabled": 0, "fusion_lat": 0.0, "lat": 38.896172, "bike_id": "e1c8553d717ad21d857244ad35cef606", "fusion_lon": 0.0}, {"rental_uris": {"ios": "https://dc.lft.to/lastmile_qr_scan", "android": "https://dc.lft.to/lastmile_qr_scan"}, "type": "electric_scooter", "name": "960591ca0f1a01cd8387892dfb4750df", "is_reserved": 0, "lon": -77.0395935, "is_disabled": 0, "fusion_lat": 0.0, "lat": 38.89242733333333, "bike_id": "960591ca0f1a01cd8387892dfb4750df", "fusion_lon": 0.0}, {"rental_uris": {"ios": "https://dc.lft.to/lastmile_qr_scan", "android": "https://dc.lft.to/lastmile_qr_scan"}, "type": "electric_scooter", "name": "9aa9abfee0b6a36cd6c633c40880d137", "is_reserved": 0, "lon": -77.01759516666667, "is_disabled": 0, "fusion_lat": 0.0, "lat": 38.90268233333333, "bike_id": "9aa9abfee0b6a36cd6c633c40880d137", "fusion_lon": 0.0}, {"rental_uris": {"ios": "https://dc.lft.to/lastmile_qr_scan", "android": "https://dc.lft.to/lastmile_qr_scan"}, "type": "electric_scooter", "name": "8103eb1150ec87caa77504ff0f022f6b", "is_reserved": 0, "lon": -77.039674, "is_disabled": 0, "fusion_lat": 0.0, "lat": 38.903111833333334, "bike_id": "8103eb1150ec87caa77504ff0f022f6b", "fusion_lon": 0.0}, {"rental_uris": {"ios": "https://dc.lft.to/lastmile_qr_scan", "android": "https://dc.lft.to/lastmile_qr_scan"}, "type": "electric_scooter", "name": "764b6482cccf67d74715b8361a561649", "is_reserved": 0, "lon": -76.9923315, "is_disabled": 0, "fusion_lat": 0.0, "lat": 38.8875385, "bike_id": "764b6482cccf67d74715b8361a561649", "fusion_lon": 0.0}, {"rental_uris": {"ios": "https://dc.lft.to/lastmile_qr_scan", "android": "https://dc.lft.to/lastmile_qr_scan"}, "type": "electric_scooter", "name": "c01a2a4459126bf8d7b4620556ade06c", "is_reserved": 0, "lon": -77.02175833333334, "is_disabled": 0, "fusion_lat": 0.0, "lat": 38.910078166666665, "bike_id": "c01a2a4459126bf8d7b4620556ade06c", "fusion_lon": 0.0}, {"rental_uris": {"ios": "https://dc.lft.to/lastmile_qr_scan", "android": "https://dc.lft.to/lastmile_qr_scan"}, "type": "electric_scooter", "name": "6c7010ff7d5168724f911ca07c5c2eac", "is_reserved": 0, "lon": -77.0334605, "is_disabled": 0, "fusion_lat": 0.0, "lat": 38.92884816666667, "bike_id": "6c7010ff7d5168724f911ca07c5c2eac", "fusion_lon": 0.0}, {"rental_uris": {"ios": "https://dc.lft.to/lastmile_qr_scan", "android": "https://dc.lft.to/lastmile_qr_scan"}, "type": "electric_scooter", "name": "ce168a27a32c33fe9c5554d542a1ac25", "is_reserved": 0, "lon": -77.00829633333333, "is_disabled": 0, "fusion_lat": 0.0, "lat": 38.913695, "bike_id": "ce168a27a32c33fe9c5554d542a1ac25", "fusion_lon": 0.0}, {"rental_uris": {"ios": "https://dc.lft.to/lastmile_qr_scan", "android": "https://dc.lft.to/lastmile_qr_scan"}, "type": "electric_scooter", "name": "d877c2dbb809da50ea703eb074059b73", "is_reserved": 0, "lon": -77.04544733333333, "is_disabled": 0, "fusion_lat": 0.0, "lat": 38.89738883333333, "bike_id": "d877c2dbb809da50ea703eb074059b73", "fusion_lon": 0.0}, {"rental_uris": {"ios": "https://dc.lft.to/lastmile_qr_scan", "android": "https://dc.lft.to/lastmile_qr_scan"}, "type": "electric_scooter", "name": "2ade7a3f9277fbf17bb78c9f00d12c18", "is_reserved": 0, "lon": -77.01957366666667, "is_disabled": 0, "fusion_lat": 0.0, "lat": 38.9338495, "bike_id": "2ade7a3f9277fbf17bb78c9f00d12c18", "fusion_lon": 0.0}, {"rental_uris": {"ios": "https://dc.lft.to/lastmile_qr_scan", "android": "https://dc.lft.to/lastmile_qr_scan"}, "type": "electric_scooter", "name": "f563e9a27c95204cfc0e4a66b9f3da30", "is_reserved": 0, "lon": -77.0258795, "is_disabled": 0, "fusion_lat": 0.0, "lat": 38.920376833333336, "bike_id": "f563e9a27c95204cfc0e4a66b9f3da30", "fusion_lon": 0.0}, {"rental_uris": {"ios": "https://dc.lft.to/lastmile_qr_scan", "android": "https://dc.lft.to/lastmile_qr_scan"}, "type": "electric_scooter", "name": "00edd01e797c50f9b6973d7a5540fdc7", "is_reserved": 0, "lon": -77.06524383333333, "is_disabled": 0, "fusion_lat": 0.0, "lat": 38.94988033333333, "bike_id": "00edd01e797c50f9b6973d7a5540fdc7", "fusion_lon": 0.0}, {"rental_uris": {"ios": "https://dc.lft.to/lastmile_qr_scan", "android": "https://dc.lft.to/lastmile_qr_scan"}, "type": "electric_scooter", "name": "39de15bef91188679e0423a51cc4d5df", "is_reserved": 0, "lon": -77.03280633333334, "is_disabled": 0, "fusion_lat": 0.0, "lat": 38.92745566666667, "bike_id": "39de15bef91188679e0423a51cc4d5df", "fusion_lon": 0.0}, {"rental_uris": {"ios": "https://dc.lft.to/lastmile_qr_scan", "android": "https://dc.lft.to/lastmile_qr_scan"}, "type": "electric_scooter", "name": "ce98f804ed9d55a695882daf24ab5f6c", "is_reserved": 0, "lon": -76.9898485, "is_disabled": 0, "fusion_lat": 0.0, "lat": 38.86503616666667, "bike_id": "ce98f804ed9d55a695882daf24ab5f6c", "fusion_lon": 0.0}, {"rental_uris": {"ios": "https://dc.lft.to/lastmile_qr_scan", "android": "https://dc.lft.to/lastmile_qr_scan"}, "type": "electric_scooter", "name": "cf8137da11e408504cfb0bed1ced0633", "is_reserved": 0, "lon": -77.04033416666667, "is_disabled": 0, "fusion_lat": 0.0, "lat": 38.904798, "bike_id": "cf8137da11e408504cfb0bed1ced0633", "fusion_lon": 0.0}, {"rental_uris": {"ios": "https://dc.lft.to/lastmile_qr_scan", "android": "https://dc.lft.to/lastmile_qr_scan"}, "type": "electric_scooter", "name": "e1be9d055bdbeb76709f12673a6f4ed3", "is_reserved": 0, "lon": -77.04676916666666, "is_disabled": 0, "fusion_lat": 0.0, "lat": 38.918084666666665, "bike_id": "e1be9d055bdbeb76709f12673a6f4ed3", "fusion_lon": 0.0}, {"rental_uris": {"ios": "https://dc.lft.to/lastmile_qr_scan", "android": "https://dc.lft.to/lastmile_qr_scan"}, "type": "electric_scooter", "name": "a3b342cef00d8e1c8f8d66cd8763f2dc", "is_reserved": 0, "lon": -77.04110933333334, "is_disabled": 0, "fusion_lat": 0.0, "lat": 38.921211166666666, "bike_id": "a3b342cef00d8e1c8f8d66cd8763f2dc", "fusion_lon": 0.0}, {"rental_uris": {"ios": "https://dc.lft.to/lastmile_qr_scan", "android": "https://dc.lft.to/lastmile_qr_scan"}, "type": "electric_scooter", "name": "fca8a9ed054db79738cce67b6eff27ae", "is_reserved": 0, "lon": -77.0371955, "is_disabled": 0, "fusion_lat": 0.0, "lat": 38.911837166666665, "bike_id": "fca8a9ed054db79738cce67b6eff27ae", "fusion_lon": 0.0}, {"rental_uris": {"ios": "https://dc.lft.to/lastmile_qr_scan", "android": "https://dc.lft.to/lastmile_qr_scan"}, "type": "electric_scooter", "name": "d01a36ca9e10cd851c122b825d46bb8c", "is_reserved": 0, "lon": -77.03661816666667, "is_disabled": 0, "fusion_lat": 0.0, "lat": 38.923859666666665, "bike_id": "d01a36ca9e10cd851c122b825d46bb8c", "fusion_lon": 0.0}, {"rental_uris": {"ios": "https://dc.lft.to/lastmile_qr_scan", "android": "https://dc.lft.to/lastmile_qr_scan"}, "type": "electric_scooter", "name": "206982a5e16879e8af32a12c8dd4980e", "is_reserved": 0, "lon": -77.007984, "is_disabled": 0, "fusion_lat": 0.0, "lat": 38.9127, "bike_id": "206982a5e16879e8af32a12c8dd4980e", "fusion_lon": 0.0}, {"rental_uris": {"ios": "https://dc.lft.to/lastmile_qr_scan", "android": "https://dc.lft.to/lastmile_qr_scan"}, "type": "electric_scooter", "name": "5968343b0960724d084da01b26caa7f8", "is_reserved": 0, "lon": -77.0318665, "is_disabled": 0, "fusion_lat": 0.0, "lat": 38.8870465, "bike_id": "5968343b0960724d084da01b26caa7f8", "fusion_lon": 0.0}, {"rental_uris": {"ios": "https://dc.lft.to/lastmile_qr_scan", "android": "https://dc.lft.to/lastmile_qr_scan"}, "type": "electric_scooter", "name": "6d4efa07321a450afcc70bfdf043a7c5", "is_reserved": 0, "lon": -76.9821335, "is_disabled": 0, "fusion_lat": 0.0, "lat": 38.88643033333334, "bike_id": "6d4efa07321a450afcc70bfdf043a7c5", "fusion_lon": 0.0}, {"rental_uris": {"ios": "https://dc.lft.to/lastmile_qr_scan", "android": "https://dc.lft.to/lastmile_qr_scan"}, "type": "electric_scooter", "name": "f4490c6ced7d0c32bcd1a5021a9565ce", "is_reserved": 0, "lon": -77.02198333333334, "is_disabled": 0, "fusion_lat": 0.0, "lat": 38.8871645, "bike_id": "f4490c6ced7d0c32bcd1a5021a9565ce", "fusion_lon": 0.0}, {"rental_uris": {"ios": "https://dc.lft.to/lastmile_qr_scan", "android": "https://dc.lft.to/lastmile_qr_scan"}, "type": "electric_scooter", "name": "cc98b9fe0bc68534d72180a5f0073097", "is_reserved": 0, "lon": -77.03266333333333, "is_disabled": 0, "fusion_lat": 0.0, "lat": 38.90972983333333, "bike_id": "cc98b9fe0bc68534d72180a5f0073097", "fusion_lon": 0.0}, {"rental_uris": {"ios": "https://dc.lft.to/lastmile_qr_scan", "android": "https://dc.lft.to/lastmile_qr_scan"}, "type": "electric_scooter", "name": "01402ddcedc262791f5a498254adbef1", "is_reserved": 0, "lon": -77.036613, "is_disabled": 0, "fusion_lat": 0.0, "lat": 38.91857233333333, "bike_id": "01402ddcedc262791f5a498254adbef1", "fusion_lon": 0.0}, {"rental_uris": {"ios": "https://dc.lft.to/lastmile_qr_scan", "android": "https://dc.lft.to/lastmile_qr_scan"}, "type": "electric_scooter", "name": "e2e93184c9335beaab13fa75e49f0570", "is_reserved": 0, "lon": -77.00920383333333, "is_disabled": 0, "fusion_lat": 0.0, "lat": 38.897437, "bike_id": "e2e93184c9335beaab13fa75e49f0570", "fusion_lon": 0.0}, {"rental_uris": {"ios": "https://dc.lft.to/lastmile_qr_scan", "android": "https://dc.lft.to/lastmile_qr_scan"}, "type": "electric_scooter", "name": "f2254a637ff4e5966dea1b63e0a25f29", "is_reserved": 0, "lon": -77.015308, "is_disabled": 0, "fusion_lat": 0.0, "lat": 38.87955133333333, "bike_id": "f2254a637ff4e5966dea1b63e0a25f29", "fusion_lon": 0.0}, {"rental_uris": {"ios": "https://dc.lft.to/lastmile_qr_scan", "android": "https://dc.lft.to/lastmile_qr_scan"}, "type": "electric_scooter", "name": "67918bc976194e31d17770c72078e961", "is_reserved": 0, "lon": -77.03192333333334, "is_disabled": 0, "fusion_lat": 0.0, "lat": 38.90699766666667, "bike_id": "67918bc976194e31d17770c72078e961", "fusion_lon": 0.0}, {"rental_uris": {"ios": "https://dc.lft.to/lastmile_qr_scan", "android": "https://dc.lft.to/lastmile_qr_scan"}, "type": "electric_scooter", "name": "dc748174f55103f6a8cb32e950267c5d", "is_reserved": 0, "lon": -77.04997733333333, "is_disabled": 0, "fusion_lat": 0.0, "lat": 38.904849166666665, "bike_id": "dc748174f55103f6a8cb32e950267c5d", "fusion_lon": 0.0}, {"rental_uris": {"ios": "https://dc.lft.to/lastmile_qr_scan", "android": "https://dc.lft.to/lastmile_qr_scan"}, "type": "electric_scooter", "name": "991c0f30d1a1ed70f7e2688f0ccb73f1", "is_reserved": 0, "lon": -77.02285383333333, "is_disabled": 0, "fusion_lat": 0.0, "lat": 38.920872833333334, "bike_id": "991c0f30d1a1ed70f7e2688f0ccb73f1", "fusion_lon": 0.0}, {"rental_uris": {"ios": "https://dc.lft.to/lastmile_qr_scan", "android": "https://dc.lft.to/lastmile_qr_scan"}, "type": "electric_scooter", "name": "1d3015841f314a920a714d49fb42363b", "is_reserved": 0, "lon": -77.03559133333333, "is_disabled": 0, "fusion_lat": 0.0, "lat": 38.9046555, "bike_id": "1d3015841f314a920a714d49fb42363b", "fusion_lon": 0.0}, {"rental_uris": {"ios": "https://dc.lft.to/lastmile_qr_scan", "android": "https://dc.lft.to/lastmile_qr_scan"}, "type": "electric_scooter", "name": "2a4f0bb74ba807111b0460d79f0f21df", "is_reserved": 0, "lon": -77.047859, "is_disabled": 0, "fusion_lat": 0.0, "lat": 38.897787, "bike_id": "2a4f0bb74ba807111b0460d79f0f21df", "fusion_lon": 0.0}, {"rental_uris": {"ios": "https://dc.lft.to/lastmile_qr_scan", "android": "https://dc.lft.to/lastmile_qr_scan"}, "type": "electric_scooter", "name": "a727f794b3643a6e07e25b4fbabf21a2", "is_reserved": 0, "lon": -76.98375233333333, "is_disabled": 0, "fusion_lat": 0.0, "lat": 38.86034266666667, "bike_id": "a727f794b3643a6e07e25b4fbabf21a2", "fusion_lon": 0.0}, {"rental_uris": {"ios": "https://dc.lft.to/lastmile_qr_scan", "android": "https://dc.lft.to/lastmile_qr_scan"}, "type": "electric_scooter", "name": "7a5ca17bf1a0d018a6cf8b1213c8aa38", "is_reserved": 0, "lon": -77.02242183333334, "is_disabled": 0, "fusion_lat": 0.0, "lat": 38.92671266666667, "bike_id": "7a5ca17bf1a0d018a6cf8b1213c8aa38", "fusion_lon": 0.0}, {"rental_uris": {"ios": "https://dc.lft.to/lastmile_qr_scan", "android": "https://dc.lft.to/lastmile_qr_scan"}, "type": "electric_scooter", "name": "fcd01fe526fcb34132f2018c406e7700", "is_reserved": 0, "lon": -77.03130733333333, "is_disabled": 0, "fusion_lat": 0.0, "lat": 38.923746333333334, "bike_id": "fcd01fe526fcb34132f2018c406e7700", "fusion_lon": 0.0}, {"rental_uris": {"ios": "https://dc.lft.to/lastmile_qr_scan", "android": "https://dc.lft.to/lastmile_qr_scan"}, "type": "electric_scooter", "name": "d7afe10f08fe060acc4b46ec4c8a95e7", "is_reserved": 0, "lon": -77.04450333333334, "is_disabled": 0, "fusion_lat": 0.0, "lat": 38.901366833333334, "bike_id": "d7afe10f08fe060acc4b46ec4c8a95e7", "fusion_lon": 0.0}, {"rental_uris": {"ios": "https://dc.lft.to/lastmile_qr_scan", "android": "https://dc.lft.to/lastmile_qr_scan"}, "type": "electric_scooter", "name": "81fe92c10a17ae825e008d1d7fea26b7", "is_reserved": 0, "lon": -77.01920516666667, "is_disabled": 0, "fusion_lat": 0.0, "lat": 38.9023545, "bike_id": "81fe92c10a17ae825e008d1d7fea26b7", "fusion_lon": 0.0}, {"rental_uris": {"ios": "https://dc.lft.to/lastmile_qr_scan", "android": "https://dc.lft.to/lastmile_qr_scan"}, "type": "electric_scooter", "name": "8196eb2f9d30d6efd6900b3297e75d9a", "is_reserved": 0, "lon": -77.01278766666667, "is_disabled": 0, "fusion_lat": 0.0, "lat": 38.90050216666667, "bike_id": "8196eb2f9d30d6efd6900b3297e75d9a", "fusion_lon": 0.0}, {"rental_uris": {"ios": "https://dc.lft.to/lastmile_qr_scan", "android": "https://dc.lft.to/lastmile_qr_scan"}, "type": "electric_scooter", "name": "0d2a3f4f283ce973c3e693d2abcd1dcb", "is_reserved": 0, "lon": -77.0378025, "is_disabled": 0, "fusion_lat": 0.0, "lat": 38.93973966666667, "bike_id": "0d2a3f4f283ce973c3e693d2abcd1dcb", "fusion_lon": 0.0}, {"rental_uris": {"ios": "https://dc.lft.to/lastmile_qr_scan", "android": "https://dc.lft.to/lastmile_qr_scan"}, "type": "electric_scooter", "name": "1a08dbbde003986cb1e0832d612baee5", "is_reserved": 0, "lon": -77.02192466666666, "is_disabled": 0, "fusion_lat": 0.0, "lat": 38.88721183333333, "bike_id": "1a08dbbde003986cb1e0832d612baee5", "fusion_lon": 0.0}, {"rental_uris": {"ios": "https://dc.lft.to/lastmile_qr_scan", "android": "https://dc.lft.to/lastmile_qr_scan"}, "type": "electric_bike", "name": "bb02c541ff2126e6fbb7b4ad58e30bf0", "is_reserved": 0, "lon": -76.98473033333333, "is_disabled": 0, "fusion_lat": 0.0, "lat": 38.90973866666667, "bike_id": "bb02c541ff2126e6fbb7b4ad58e30bf0", "fusion_lon": 0.0}, {"rental_uris": {"ios": "https://dc.lft.to/lastmile_qr_scan", "android": "https://dc.lft.to/lastmile_qr_scan"}, "type": "electric_scooter", "name": "69350535a185521396c3aa915bbbb279", "is_reserved": 0, "lon": -77.04690616666667, "is_disabled": 0, "fusion_lat": 0.0, "lat": 38.92163333333333, "bike_id": "69350535a185521396c3aa915bbbb279", "fusion_lon": 0.0}, {"rental_uris": {"ios": "https://dc.lft.to/lastmile_qr_scan", "android": "https://dc.lft.to/lastmile_qr_scan"}, "type": "electric_bike", "name": "d98e30d61a40f00070b5ac603009ac0e", "is_reserved": 0, "lon": -76.95756516666667, "is_disabled": 0, "fusion_lat": 0.0, "lat": 38.8848825, "bike_id": "d98e30d61a40f00070b5ac603009ac0e", "fusion_lon": 0.0}, {"rental_uris": {"ios": "https://dc.lft.to/lastmile_qr_scan", "android": "https://dc.lft.to/lastmile_qr_scan"}, "type": "electric_scooter", "name": "5f5492c9949cece009a51de1e2bcb1aa", "is_reserved": 0, "lon": -77.0260035, "is_disabled": 0, "fusion_lat": 0.0, "lat": 38.9289265, "bike_id": "5f5492c9949cece009a51de1e2bcb1aa", "fusion_lon": 0.0}, {"rental_uris": {"ios": "https://dc.lft.to/lastmile_qr_scan", "android": "https://dc.lft.to/lastmile_qr_scan"}, "type": "electric_scooter", "name": "33bb56056761645435058edc0bf158fa", "is_reserved": 0, "lon": -77.02519133333334, "is_disabled": 0, "fusion_lat": 0.0, "lat": 38.94010733333333, "bike_id": "33bb56056761645435058edc0bf158fa", "fusion_lon": 0.0}, {"rental_uris": {"ios": "https://dc.lft.to/lastmile_qr_scan", "android": "https://dc.lft.to/lastmile_qr_scan"}, "type": "electric_scooter", "name": "e6bc3be9777309adbddaa96f0dc2233e", "is_reserved": 0, "lon": -77.0036505, "is_disabled": 0, "fusion_lat": 0.0, "lat": 38.89890716666667, "bike_id": "e6bc3be9777309adbddaa96f0dc2233e", "fusion_lon": 0.0}, {"rental_uris": {"ios": "https://dc.lft.to/lastmile_qr_scan", "android": "https://dc.lft.to/lastmile_qr_scan"}, "type": "electric_scooter", "name": "6528a116a086dfb848cd10534ddb2e24", "is_reserved": 0, "lon": -77.01910066666667, "is_disabled": 0, "fusion_lat": 0.0, "lat": 38.89487333333334, "bike_id": "6528a116a086dfb848cd10534ddb2e24", "fusion_lon": 0.0}, {"rental_uris": {"ios": "https://dc.lft.to/lastmile_qr_scan", "android": "https://dc.lft.to/lastmile_qr_scan"}, "type": "electric_scooter", "name": "aa2a785441f53d6c97edc49d183b3ca6", "is_reserved": 0, "lon": -76.9798195, "is_disabled": 0, "fusion_lat": 0.0, "lat": 38.907332333333336, "bike_id": "aa2a785441f53d6c97edc49d183b3ca6", "fusion_lon": 0.0}, {"rental_uris": {"ios": "https://dc.lft.to/lastmile_qr_scan", "android": "https://dc.lft.to/lastmile_qr_scan"}, "type": "electric_scooter", "name": "7e614563045b9f964e11ca1081cd8735", "is_reserved": 0, "lon": -77.04700233333334, "is_disabled": 0, "fusion_lat": 0.0, "lat": 38.921026166666664, "bike_id": "7e614563045b9f964e11ca1081cd8735", "fusion_lon": 0.0}, {"rental_uris": {"ios": "https://dc.lft.to/lastmile_qr_scan", "android": "https://dc.lft.to/lastmile_qr_scan"}, "type": "electric_scooter", "name": "7f43daef6f530c6700675fe56dbb0723", "is_reserved": 0, "lon": -77.021206, "is_disabled": 0, "fusion_lat": 0.0, "lat": 38.9234955, "bike_id": "7f43daef6f530c6700675fe56dbb0723", "fusion_lon": 0.0}, {"rental_uris": {"ios": "https://dc.lft.to/lastmile_qr_scan", "android": "https://dc.lft.to/lastmile_qr_scan"}, "type": "electric_scooter", "name": "4ef8aca0c950deb11bfa59f580d699c5", "is_reserved": 0, "lon": -77.02127033333333, "is_disabled": 0, "fusion_lat": 0.0, "lat": 38.92412183333333, "bike_id": "4ef8aca0c950deb11bfa59f580d699c5", "fusion_lon": 0.0}, {"rental_uris": {"ios": "https://dc.lft.to/lastmile_qr_scan", "android": "https://dc.lft.to/lastmile_qr_scan"}, "type": "electric_bike", "name": "93a5035403376aab599c7b2478bf89a6", "is_reserved": 0, "lon": -76.95821016666666, "is_disabled": 0, "fusion_lat": 0.0, "lat": 38.92003066666667, "bike_id": "93a5035403376aab599c7b2478bf89a6", "fusion_lon": 0.0}, {"rental_uris": {"ios": "https://dc.lft.to/lastmile_qr_scan", "android": "https://dc.lft.to/lastmile_qr_scan"}, "type": "electric_scooter", "name": "7c5717c84eab712d00dad0ea8d242848", "is_reserved": 0, "lon": -76.982094, "is_disabled": 0, "fusion_lat": 0.0, "lat": 38.9019685, "bike_id": "7c5717c84eab712d00dad0ea8d242848", "fusion_lon": 0.0}, {"rental_uris": {"ios": "https://dc.lft.to/lastmile_qr_scan", "android": "https://dc.lft.to/lastmile_qr_scan"}, "type": "electric_scooter", "name": "c3a06bc529c6201127132c2cc1fa087d", "is_reserved": 0, "lon": -77.03431916666666, "is_disabled": 0, "fusion_lat": 0.0, "lat": 38.92860966666667, "bike_id": "c3a06bc529c6201127132c2cc1fa087d", "fusion_lon": 0.0}, {"rental_uris": {"ios": "https://dc.lft.to/lastmile_qr_scan", "android": "https://dc.lft.to/lastmile_qr_scan"}, "type": "electric_scooter", "name": "55a03c2668d977364174afb3df509472", "is_reserved": 0, "lon": -77.00354133333333, "is_disabled": 0, "fusion_lat": 0.0, "lat": 38.892655166666664, "bike_id": "55a03c2668d977364174afb3df509472", "fusion_lon": 0.0}, {"rental_uris": {"ios": "https://dc.lft.to/lastmile_qr_scan", "android": "https://dc.lft.to/lastmile_qr_scan"}, "type": "electric_scooter", "name": "c1260d9ac96342e47712e3dd7d030951", "is_reserved": 0, "lon": -76.9485435, "is_disabled": 0, "fusion_lat": 0.0, "lat": 38.883013, "bike_id": "c1260d9ac96342e47712e3dd7d030951", "fusion_lon": 0.0}, {"rental_uris": {"ios": "https://dc.lft.to/lastmile_qr_scan", "android": "https://dc.lft.to/lastmile_qr_scan"}, "type": "electric_scooter", "name": "42c662d13ddeaec015223bf829b6c6a2", "is_reserved": 0, "lon": -77.03028733333333, "is_disabled": 0, "fusion_lat": 0.0, "lat": 38.922489666666664, "bike_id": "42c662d13ddeaec015223bf829b6c6a2", "fusion_lon": 0.0}, {"rental_uris": {"ios": "https://dc.lft.to/lastmile_qr_scan", "android": "https://dc.lft.to/lastmile_qr_scan"}, "type": "electric_scooter", "name": "f6cd441fa502ab254f64366d63240d55", "is_reserved": 0, "lon": -77.0022065, "is_disabled": 0, "fusion_lat": 0.0, "lat": 38.9001335, "bike_id": "f6cd441fa502ab254f64366d63240d55", "fusion_lon": 0.0}, {"rental_uris": {"ios": "https://dc.lft.to/lastmile_qr_scan", "android": "https://dc.lft.to/lastmile_qr_scan"}, "type": "electric_scooter", "name": "e091a653e95386e6fe475e074b209642", "is_reserved": 0, "lon": -77.02624166666666, "is_disabled": 0, "fusion_lat": 0.0, "lat": 38.892237, "bike_id": "e091a653e95386e6fe475e074b209642", "fusion_lon": 0.0}, {"rental_uris": {"ios": "https://dc.lft.to/lastmile_qr_scan", "android": "https://dc.lft.to/lastmile_qr_scan"}, "type": "electric_bike", "name": "78c9fef94cd3229a14d6cce5b4482e37", "is_reserved": 0, "lon": -77.06699566666667, "is_disabled": 0, "fusion_lat": 0.0, "lat": 38.831712, "bike_id": "78c9fef94cd3229a14d6cce5b4482e37", "fusion_lon": 0.0}, {"rental_uris": {"ios": "https://dc.lft.to/lastmile_qr_scan", "android": "https://dc.lft.to/lastmile_qr_scan"}, "type": "electric_scooter", "name": "ba2898c2e1a3c836acf30e008dd818d4", "is_reserved": 0, "lon": -76.97053833333334, "is_disabled": 0, "fusion_lat": 0.0, "lat": 38.8732585, "bike_id": "ba2898c2e1a3c836acf30e008dd818d4", "fusion_lon": 0.0}, {"rental_uris": {"ios": "https://dc.lft.to/lastmile_qr_scan", "android": "https://dc.lft.to/lastmile_qr_scan"}, "type": "electric_scooter", "name": "2a1db64f1dabb297f6bc9584d42bd078", "is_reserved": 0, "lon": -77.03957683333333, "is_disabled": 0, "fusion_lat": 0.0, "lat": 38.89242933333333, "bike_id": "2a1db64f1dabb297f6bc9584d42bd078", "fusion_lon": 0.0}, {"rental_uris": {"ios": "https://dc.lft.to/lastmile_qr_scan", "android": "https://dc.lft.to/lastmile_qr_scan"}, "type": "electric_scooter", "name": "1bd6d3ffe32cf46889b5a986177b0131", "is_reserved": 0, "lon": -77.02906783333333, "is_disabled": 0, "fusion_lat": 0.0, "lat": 38.940387, "bike_id": "1bd6d3ffe32cf46889b5a986177b0131", "fusion_lon": 0.0}, {"rental_uris": {"ios": "https://dc.lft.to/lastmile_qr_scan", "android": "https://dc.lft.to/lastmile_qr_scan"}, "type": "electric_scooter", "name": "b4c123d76a7169c190c98096a1045619", "is_reserved": 0, "lon": -76.98601433333333, "is_disabled": 0, "fusion_lat": 0.0, "lat": 38.878363, "bike_id": "b4c123d76a7169c190c98096a1045619", "fusion_lon": 0.0}, {"rental_uris": {"ios": "https://dc.lft.to/lastmile_qr_scan", "android": "https://dc.lft.to/lastmile_qr_scan"}, "type": "electric_scooter", "name": "c0fe1ac8e943bfa21b639cc19ac9494b", "is_reserved": 0, "lon": -77.0190445, "is_disabled": 0, "fusion_lat": 0.0, "lat": 38.8980175, "bike_id": "c0fe1ac8e943bfa21b639cc19ac9494b", "fusion_lon": 0.0}, {"rental_uris": {"ios": "https://dc.lft.to/lastmile_qr_scan", "android": "https://dc.lft.to/lastmile_qr_scan"}, "type": "electric_scooter", "name": "494ca7600032572a271b9cd6a3a844a6", "is_reserved": 0, "lon": -77.05221333333333, "is_disabled": 0, "fusion_lat": 0.0, "lat": 38.92435283333333, "bike_id": "494ca7600032572a271b9cd6a3a844a6", "fusion_lon": 0.0}, {"rental_uris": {"ios": "https://dc.lft.to/lastmile_qr_scan", "android": "https://dc.lft.to/lastmile_qr_scan"}, "type": "electric_scooter", "name": "4db5864d9fb8fba9d92c5883dabe2981", "is_reserved": 0, "lon": -76.98868133333333, "is_disabled": 0, "fusion_lat": 0.0, "lat": 38.90026733333333, "bike_id": "4db5864d9fb8fba9d92c5883dabe2981", "fusion_lon": 0.0}, {"rental_uris": {"ios": "https://dc.lft.to/lastmile_qr_scan", "android": "https://dc.lft.to/lastmile_qr_scan"}, "type": "electric_scooter", "name": "a5ffa17c99933cf707e00aa49cc5e49e", "is_reserved": 0, "lon": -77.0349665, "is_disabled": 0, "fusion_lat": 0.0, "lat": 38.93269866666667, "bike_id": "a5ffa17c99933cf707e00aa49cc5e49e", "fusion_lon": 0.0}, {"rental_uris": {"ios": "https://dc.lft.to/lastmile_qr_scan", "android": "https://dc.lft.to/lastmile_qr_scan"}, "type": "electric_scooter", "name": "fe1d79367f52b7d166cc869d9be6845e", "is_reserved": 0, "lon": -76.9901205, "is_disabled": 0, "fusion_lat": 0.0, "lat": 38.898896, "bike_id": "fe1d79367f52b7d166cc869d9be6845e", "fusion_lon": 0.0}, {"rental_uris": {"ios": "https://dc.lft.to/lastmile_qr_scan", "android": "https://dc.lft.to/lastmile_qr_scan"}, "type": "electric_bike", "name": "9e8a0baab216380d9ef45510b51c2eb3", "is_reserved": 0, "lon": -77.10624066666666, "is_disabled": 0, "fusion_lat": 0.0, "lat": 38.873269, "bike_id": "9e8a0baab216380d9ef45510b51c2eb3", "fusion_lon": 0.0}, {"rental_uris": {"ios": "https://dc.lft.to/lastmile_qr_scan", "android": "https://dc.lft.to/lastmile_qr_scan"}, "type": "electric_scooter", "name": "4537b5c1e1ac3beef68289b8bf364339", "is_reserved": 0, "lon": -77.0245995, "is_disabled": 0, "fusion_lat": 0.0, "lat": 38.89981783333333, "bike_id": "4537b5c1e1ac3beef68289b8bf364339", "fusion_lon": 0.0}, {"rental_uris": {"ios": "https://dc.lft.to/lastmile_qr_scan", "android": "https://dc.lft.to/lastmile_qr_scan"}, "type": "electric_scooter", "name": "8c7697aecb651f4c3b196c837c54493a", "is_reserved": 0, "lon": -76.98649216666666, "is_disabled": 0, "fusion_lat": 0.0, "lat": 38.905407833333335, "bike_id": "8c7697aecb651f4c3b196c837c54493a", "fusion_lon": 0.0}, {"rental_uris": {"ios": "https://dc.lft.to/lastmile_qr_scan", "android": "https://dc.lft.to/lastmile_qr_scan"}, "type": "electric_scooter", "name": "70329fb375ecc2a4b7dadac7bf16d05e", "is_reserved": 0, "lon": -77.02505533333333, "is_disabled": 0, "fusion_lat": 0.0, "lat": 38.904003, "bike_id": "70329fb375ecc2a4b7dadac7bf16d05e", "fusion_lon": 0.0}, {"rental_uris": {"ios": "https://dc.lft.to/lastmile_qr_scan", "android": "https://dc.lft.to/lastmile_qr_scan"}, "type": "electric_scooter", "name": "3c401c9127d32ec6e7b3e467499321e0", "is_reserved": 0, "lon": -77.02371133333334, "is_disabled": 0, "fusion_lat": 0.0, "lat": 38.93389066666667, "bike_id": "3c401c9127d32ec6e7b3e467499321e0", "fusion_lon": 0.0}, {"rental_uris": {"ios": "https://dc.lft.to/lastmile_qr_scan", "android": "https://dc.lft.to/lastmile_qr_scan"}, "type": "electric_scooter", "name": "03baa0e8e8078f85b853b2d682fe22e9", "is_reserved": 0, "lon": -77.03842716666666, "is_disabled": 0, "fusion_lat": 0.0, "lat": 38.910391833333335, "bike_id": "03baa0e8e8078f85b853b2d682fe22e9", "fusion_lon": 0.0}, {"rental_uris": {"ios": "https://dc.lft.to/lastmile_qr_scan", "android": "https://dc.lft.to/lastmile_qr_scan"}, "type": "electric_scooter", "name": "0c6505faf0055d43e3e76beddcc82c6a", "is_reserved": 0, "lon": -77.0474285, "is_disabled": 0, "fusion_lat": 0.0, "lat": 38.900963, "bike_id": "0c6505faf0055d43e3e76beddcc82c6a", "fusion_lon": 0.0}, {"rental_uris": {"ios": "https://dc.lft.to/lastmile_qr_scan", "android": "https://dc.lft.to/lastmile_qr_scan"}, "type": "electric_bike", "name": "b362d226dcc829e9ea5f437bfa490c8a", "is_reserved": 0, "lon": -77.07386616666666, "is_disabled": 0, "fusion_lat": 0.0, "lat": 38.91438933333333, "bike_id": "b362d226dcc829e9ea5f437bfa490c8a", "fusion_lon": 0.0}, {"rental_uris": {"ios": "https://dc.lft.to/lastmile_qr_scan", "android": "https://dc.lft.to/lastmile_qr_scan"}, "type": "electric_scooter", "name": "1d5333abfe992b414aaf4274bc579b91", "is_reserved": 0, "lon": -77.0270635, "is_disabled": 0, "fusion_lat": 0.0, "lat": 38.905219833333334, "bike_id": "1d5333abfe992b414aaf4274bc579b91", "fusion_lon": 0.0}, {"rental_uris": {"ios": "https://dc.lft.to/lastmile_qr_scan", "android": "https://dc.lft.to/lastmile_qr_scan"}, "type": "electric_scooter", "name": "7a6370920a67277a4a3390675db66530", "is_reserved": 0, "lon": -77.00404833333333, "is_disabled": 0, "fusion_lat": 0.0, "lat": 38.879351666666665, "bike_id": "7a6370920a67277a4a3390675db66530", "fusion_lon": 0.0}, {"rental_uris": {"ios": "https://dc.lft.to/lastmile_qr_scan", "android": "https://dc.lft.to/lastmile_qr_scan"}, "type": "electric_scooter", "name": "452a41753c5b10166c74671eae7dd7b9", "is_reserved": 0, "lon": -76.9230435, "is_disabled": 0, "fusion_lat": 0.0, "lat": 38.89387966666666, "bike_id": "452a41753c5b10166c74671eae7dd7b9", "fusion_lon": 0.0}, {"rental_uris": {"ios": "https://dc.lft.to/lastmile_qr_scan", "android": "https://dc.lft.to/lastmile_qr_scan"}, "type": "electric_bike", "name": "7dfc007f3fb91d5e3404829d0c9d7661", "is_reserved": 0, "lon": -77.076417, "is_disabled": 0, "fusion_lat": 0.0, "lat": 38.84538766666667, "bike_id": "7dfc007f3fb91d5e3404829d0c9d7661", "fusion_lon": 0.0}, {"rental_uris": {"ios": "https://dc.lft.to/lastmile_qr_scan", "android": "https://dc.lft.to/lastmile_qr_scan"}, "type": "electric_scooter", "name": "ee54615fba051e940ef860543b633079", "is_reserved": 0, "lon": -77.02469916666666, "is_disabled": 0, "fusion_lat": 0.0, "lat": 38.957826833333336, "bike_id": "ee54615fba051e940ef860543b633079", "fusion_lon": 0.0}, {"rental_uris": {"ios": "https://dc.lft.to/lastmile_qr_scan", "android": "https://dc.lft.to/lastmile_qr_scan"}, "type": "electric_scooter", "name": "f87fb2a731ba3a89f4f8a335d6339c3a", "is_reserved": 0, "lon": -77.07414733333333, "is_disabled": 0, "fusion_lat": 0.0, "lat": 38.897266333333334, "bike_id": "f87fb2a731ba3a89f4f8a335d6339c3a", "fusion_lon": 0.0}, {"rental_uris": {"ios": "https://dc.lft.to/lastmile_qr_scan", "android": "https://dc.lft.to/lastmile_qr_scan"}, "type": "electric_bike", "name": "5ce4d29a01163ebd76b7f960d7ff2492", "is_reserved": 0, "lon": -77.06573466666667, "is_disabled": 0, "fusion_lat": 0.0, "lat": 38.911386666666665, "bike_id": "5ce4d29a01163ebd76b7f960d7ff2492", "fusion_lon": 0.0}, {"rental_uris": {"ios": "https://dc.lft.to/lastmile_qr_scan", "android": "https://dc.lft.to/lastmile_qr_scan"}, "type": "electric_scooter", "name": "205fd7725aacd6bf9c5d236262e9b15a", "is_reserved": 0, "lon": -77.02663516666667, "is_disabled": 0, "fusion_lat": 0.0, "lat": 38.938606666666665, "bike_id": "205fd7725aacd6bf9c5d236262e9b15a", "fusion_lon": 0.0}, {"rental_uris": {"ios": "https://dc.lft.to/lastmile_qr_scan", "android": "https://dc.lft.to/lastmile_qr_scan"}, "type": "electric_scooter", "name": "dd89a5e3e1410a4f669bd8996ecfb424", "is_reserved": 0, "lon": -77.024463, "is_disabled": 0, "fusion_lat": 0.0, "lat": 38.9497925, "bike_id": "dd89a5e3e1410a4f669bd8996ecfb424", "fusion_lon": 0.0}, {"rental_uris": {"ios": "https://dc.lft.to/lastmile_qr_scan", "android": "https://dc.lft.to/lastmile_qr_scan"}, "type": "electric_scooter", "name": "9fb539967e53c6015d95a0c1424ee903", "is_reserved": 0, "lon": -77.02036816666667, "is_disabled": 0, "fusion_lat": 0.0, "lat": 38.9243745, "bike_id": "9fb539967e53c6015d95a0c1424ee903", "fusion_lon": 0.0}, {"rental_uris": {"ios": "https://dc.lft.to/lastmile_qr_scan", "android": "https://dc.lft.to/lastmile_qr_scan"}, "type": "electric_scooter", "name": "9d4f7fb137aef35daf429b15bffbd3b9", "is_reserved": 0, "lon": -77.03972133333333, "is_disabled": 0, "fusion_lat": 0.0, "lat": 38.90142433333333, "bike_id": "9d4f7fb137aef35daf429b15bffbd3b9", "fusion_lon": 0.0}, {"rental_uris": {"ios": "https://dc.lft.to/lastmile_qr_scan", "android": "https://dc.lft.to/lastmile_qr_scan"}, "type": "electric_scooter", "name": "9ac85a896a5bce9f2d48a5205a3b84a2", "is_reserved": 0, "lon": -77.026972, "is_disabled": 0, "fusion_lat": 0.0, "lat": 38.9240095, "bike_id": "9ac85a896a5bce9f2d48a5205a3b84a2", "fusion_lon": 0.0}, {"rental_uris": {"ios": "https://dc.lft.to/lastmile_qr_scan", "android": "https://dc.lft.to/lastmile_qr_scan"}, "type": "electric_bike", "name": "97be04bd83820fdb32cc7d6b24bcd68b", "is_reserved": 0, "lon": -76.98059066666667, "is_disabled": 0, "fusion_lat": 0.0, "lat": 38.97254566666667, "bike_id": "97be04bd83820fdb32cc7d6b24bcd68b", "fusion_lon": 0.0}, {"rental_uris": {"ios": "https://dc.lft.to/lastmile_qr_scan", "android": "https://dc.lft.to/lastmile_qr_scan"}, "type": "electric_scooter", "name": "7f7ecf63ffab109601be5166a8cfdc98", "is_reserved": 0, "lon": -77.024086, "is_disabled": 0, "fusion_lat": 0.0, "lat": 38.945068166666665, "bike_id": "7f7ecf63ffab109601be5166a8cfdc98", "fusion_lon": 0.0}, {"rental_uris": {"ios": "https://dc.lft.to/lastmile_qr_scan", "android": "https://dc.lft.to/lastmile_qr_scan"}, "type": "electric_scooter", "name": "67addff876374f32c594a8023c7c76d5", "is_reserved": 0, "lon": -77.0174575, "is_disabled": 0, "fusion_lat": 0.0, "lat": 38.88028766666667, "bike_id": "67addff876374f32c594a8023c7c76d5", "fusion_lon": 0.0}, {"rental_uris": {"ios": "https://dc.lft.to/lastmile_qr_scan", "android": "https://dc.lft.to/lastmile_qr_scan"}, "type": "electric_scooter", "name": "6863cabbd1997ad51e5e127e219b8d5f", "is_reserved": 0, "lon": -77.03634266666667, "is_disabled": 0, "fusion_lat": 0.0, "lat": 38.9306085, "bike_id": "6863cabbd1997ad51e5e127e219b8d5f", "fusion_lon": 0.0}, {"rental_uris": {"ios": "https://dc.lft.to/lastmile_qr_scan", "android": "https://dc.lft.to/lastmile_qr_scan"}, "type": "electric_scooter", "name": "599ec4ddaa407deeab7832bb9eef540f", "is_reserved": 0, "lon": -77.04945716666667, "is_disabled": 0, "fusion_lat": 0.0, "lat": 38.9202085, "bike_id": "599ec4ddaa407deeab7832bb9eef540f", "fusion_lon": 0.0}, {"rental_uris": {"ios": "https://dc.lft.to/lastmile_qr_scan", "android": "https://dc.lft.to/lastmile_qr_scan"}, "type": "electric_scooter", "name": "d6edc4fa9e6b761c90c74c4e7e4060ab", "is_reserved": 0, "lon": -77.02963266666667, "is_disabled": 0, "fusion_lat": 0.0, "lat": 38.92259716666667, "bike_id": "d6edc4fa9e6b761c90c74c4e7e4060ab", "fusion_lon": 0.0}, {"rental_uris": {"ios": "https://dc.lft.to/lastmile_qr_scan", "android": "https://dc.lft.to/lastmile_qr_scan"}, "type": "electric_scooter", "name": "c659fc75e2c65eb0af3bcd9a1e640471", "is_reserved": 0, "lon": -76.98943716666666, "is_disabled": 0, "fusion_lat": 0.0, "lat": 38.903937666666664, "bike_id": "c659fc75e2c65eb0af3bcd9a1e640471", "fusion_lon": 0.0}, {"rental_uris": {"ios": "https://dc.lft.to/lastmile_qr_scan", "android": "https://dc.lft.to/lastmile_qr_scan"}, "type": "electric_scooter", "name": "670087f09e37df3d60063f1e25a2d71a", "is_reserved": 0, "lon": -77.04167783333334, "is_disabled": 0, "fusion_lat": 0.0, "lat": 38.90384666666667, "bike_id": "670087f09e37df3d60063f1e25a2d71a", "fusion_lon": 0.0}, {"rental_uris": {"ios": "https://dc.lft.to/lastmile_qr_scan", "android": "https://dc.lft.to/lastmile_qr_scan"}, "type": "electric_scooter", "name": "e99b0dd36f81cb1f86eaefe91b8fa937", "is_reserved": 0, "lon": -77.0486575, "is_disabled": 0, "fusion_lat": 0.0, "lat": 38.90474316666667, "bike_id": "e99b0dd36f81cb1f86eaefe91b8fa937", "fusion_lon": 0.0}, {"rental_uris": {"ios": "https://dc.lft.to/lastmile_qr_scan", "android": "https://dc.lft.to/lastmile_qr_scan"}, "type": "electric_scooter", "name": "010231d8a8eb5c744a33636f76e21c24", "is_reserved": 0, "lon": -77.039879, "is_disabled": 0, "fusion_lat": 0.0, "lat": 38.924667166666666, "bike_id": "010231d8a8eb5c744a33636f76e21c24", "fusion_lon": 0.0},