{"data": {"bikes": [{"fusion_lat": 0.0, "lon": -77.0424205, "is_reserved": 0, "bike_id": "eed450da290e921ee3d6aa2634859b8a", "fusion_lon": 0.0, "rental_uris": {"android": "https://dc.lft.to/lastmile_qr_scan", "ios": "https://dc.lft.to/lastmile_qr_scan"}, "name": "eed450da290e921ee3d6aa2634859b8a", "type": "electric_scooter", "lat": 38.913388, "is_disabled": 0}, {"fusion_lat": 0.0, "lon": -77.03546283333333, "is_reserved": 0, "bike_id": "79558c4711c088a74d931e362b1b0ef3", "fusion_lon": 0.0, "rental_uris": {"android": "https://dc.lft.to/lastmile_qr_scan", "ios": "https://dc.lft.to/lastmile_qr_scan"}, "name": "79558c4711c088a74d931e362b1b0ef3", "type": "electric_scooter", "lat": 38.923212166666666, "is_disabled": 0}, {"fusion_lat": 0.0, "lon": -77.03298616666666, "is_reserved": 0, "bike_id": "9d30b1d34c15e67c702ccd421ae2d5fa", "fusion_lon": 0.0, "rental_uris": {"android": "https://dc.lft.to/lastmile_qr_scan", "ios": "https://dc.lft.to/lastmile_qr_scan"}, "name": "9d30b1d34c15e67c702ccd421ae2d5fa", "type": "electric_scooter", "lat": 38.91116616666667, "is_disabled": 0}, {"fusion_lat": 0.0, "lon": -77.03412383333334, "is_reserved": 0, "bike_id": "3d12130afc420f7c558c277c5cb7fa71", "fusion_lon": 0.0, "rental_uris": {"android": "https://dc.lft.to/lastmile_qr_scan", "ios": "https://dc.lft.to/lastmile_qr_scan"}, "name": "3d12130afc420f7c558c277c5cb7fa71", "type": "electric_scooter", "lat": 38.90623, "is_disabled": 0}, {"fusion_lat": 0.0, "lon": -77.02934783333333, "is_reserved": 0, "bike_id": "bd50f64a580fb40fdd71708a8889f63c", "fusion_lon": 0.0, "rental_uris": {"android": "https://dc.lft.to/lastmile_qr_scan", "ios": "https://dc.lft.to/lastmile_qr_scan"}, "name": "bd50f64a580fb40fdd71708a8889f63c", "type": "electric_scooter", "lat": 38.8981365, "is_disabled": 0}, {"fusion_lat": 0.0, "lon": -77.0449485, "is_reserved": 0, "bike_id": "02d0dededcdeed22e6394d06d06849f3", "fusion_lon": 0.0, "rental_uris": {"android": "https://dc.lft.to/lastmile_qr_scan", "ios": "https://dc.lft.to/lastmile_qr_scan"}, "name": "02d0dededcdeed22e6394d06d06849f3", "type": "electric_scooter", "lat": 38.903721, "is_disabled": 0}, {"fusion_lat": 0.0, "lon": -76.9888425, "is_reserved": 0, "bike_id": "43916700d163780f5f5a64ceb5a59653", "fusion_lon": 0.0, "rental_uris": {"android": "https://dc.lft.to/lastmile_qr_scan", "ios": "https://dc.lft.to/lastmile_qr_scan"}, "name": "43916700d163780f5f5a64ceb5a59653", "type": "electric_scooter", "lat": 38.866569166666665, "is_disabled": 0}, {"fusion_lat": 0.0, "lon": -77.04575183333333, "is_reserved": 0, "bike_id": "4339fbbe8370d84e8698ccdc3f8b8a02", "fusion_lon": 0.0, "rental_uris": {"android": "https://dc.lft.to/lastmile_qr_scan", "ios": "https://dc.lft.to/lastmile_qr_scan"}, "name": "4339fbbe8370d84e8698ccdc3f8b8a02", "type": "electric_scooter", "lat": 38.902545, "is_disabled": 0}, {"fusion_lat": 0.0, "lon": -77.02286266666667, "is_reserved": 0, "bike_id": "0804740702938a129aeb2bae8a00a99b", "fusion_lon": 0.0, "rental_uris": {"android": "https://dc.lft.to/lastmile_qr_scan", "ios": "https://dc.lft.to/lastmile_qr_scan"}, "name": "0804740702938a129aeb2bae8a00a99b", "type": "electric_scooter", "lat": 38.917465, "is_disabled": 0}, {"fusion_lat": 0.0, "lon": -77.02421416666667, "is_reserved": 0, "bike_id": "3e30b854e30dc6659673ec659b2b23ce", "fusion_lon": 0.0, "rental_uris": {"android": "https://dc.lft.to/lastmile_qr_scan", "ios": "https://dc.lft.to/lastmile_qr_scan"}, "name": "3e30b854e30dc6659673ec659b2b23ce", "type": "electric_scooter", "lat": 38.927606, "is_disabled": 0}, {"fusion_lat": 0.0, "lon": -77.02813216666667, "is_reserved": 0, "bike_id": "b805dd6e50c9fb286d8ffafde1eff4e8", "fusion_lon": 0.0, "rental_uris": {"android": "https://dc.lft.to/lastmile_qr_scan", "ios": "https://dc.lft.to/lastmile_qr_scan"}, "name": "b805dd6e50c9fb286d8ffafde1eff4e8", "type": "electric_scooter", "lat": 38.90618666666667, "is_disabled": 0}, {"fusion_lat": 0.0, "lon": -76.99780233333334, "is_reserved": 0, "bike_id": "195f38dd1e288c3d461149f8f751f1b9", "fusion_lon": 0.0, "rental_uris": {"android": "https://dc.lft.to/lastmile_qr_scan", "ios": "https://dc.lft.to/lastmile_qr_scan"}, "name": "195f38dd1e288c3d461149f8f751f1b9", "type": "electric_scooter", "lat": 38.84428283333333, "is_disabled": 0}, {"fusion_lat": 0.0, "lon": -77.03453333333333, "is_reserved": 0, "bike_id": "1322683efaa6e40a39f344b43a5d3557", "fusion_lon": 0.0, "rental_uris": {"android": "https://dc.lft.to/lastmile_qr_scan", "ios": "https://dc.lft.to/lastmile_qr_scan"}, "name": "1322683efaa6e40a39f344b43a5d3557", "type": "electric_scooter", "lat": 38.908075833333335, "is_disabled": 0}, {"fusion_lat": 0.0, "lon": -77.02855683333334, "is_reserved": 0, "bike_id": "91b4dd28d4a7ca926df964cb9ea8d4da", "fusion_lon": 0.0, "rental_uris": {"android": "https://dc.lft.to/lastmile_qr_scan", "ios": "https://dc.lft.to/lastmile_qr_scan"}, "name": "91b4dd28d4a7ca926df964cb9ea8d4da", "type": "electric_scooter", "lat": 38.887484, "is_disabled": 0}, {"fusion_lat": 0.0, "lon": -77.066527, "is_reserved": 0, "bike_id": "aad2819d89aa78d2676649d25956d644", "fusion_lon": 0.0, "rental_uris": {"android": "https://dc.lft.to/lastmile_qr_scan", "ios": "https://dc.lft.to/lastmile_qr_scan"}, "name": "aad2819d89aa78d2676649d25956d644", "type": "electric_scooter", "lat": 38.94952683333333, "is_disabled": 0}, {"fusion_lat": 0.0, "lon": -77.041458, "is_reserved": 0, "bike_id": "2622bf3827657670a6cfbdd01471a6d2", "fusion_lon": 0.0, "rental_uris": {"android": "https://dc.lft.to/lastmile_qr_scan", "ios": "https://dc.lft.to/lastmile_qr_scan"}, "name": "2622bf3827657670a6cfbdd01471a6d2", "type": "electric_scooter", "lat": 38.892221166666666, "is_disabled": 0}, {"fusion_lat": 0.0, "lon": -77.0095855, "is_reserved": 0, "bike_id": "e2bacab2a623b5d7fe3389cd01bbd063", "fusion_lon": 0.0, "rental_uris": {"android": "https://dc.lft.to/lastmile_qr_scan", "ios": "https://dc.lft.to/lastmile_qr_scan"}, "name": "e2bacab2a623b5d7fe3389cd01bbd063", "type": "electric_scooter", "lat": 38.897461166666666, "is_disabled": 0}, {"fusion_lat": 0.0, "lon": -76.99879216666666, "is_reserved": 0, "bike_id": "c898fd0243d523b6dd9a6a4bfd855144", "fusion_lon": 0.0, "rental_uris": {"android": "https://dc.lft.to/lastmile_qr_scan", "ios": "https://dc.lft.to/lastmile_qr_scan"}, "name": "c898fd0243d523b6dd9a6a4bfd855144", "type": "electric_scooter", "lat": 38.920557, "is_disabled": 0}, {"fusion_lat": 0.0, "lon": -76.93759533333333, "is_reserved": 0, "bike_id": "238b8771651d8363f650c9dacb73e49f", "fusion_lon": 0.0, "rental_uris": {"android": "https://dc.lft.to/lastmile_qr_scan", "ios": "https://dc.lft.to/lastmile_qr_scan"}, "name": "238b8771651d8363f650c9dacb73e49f", "type": "electric_scooter", "lat": 38.90376083333334, "is_disabled": 0}, {"fusion_lat": 0.0, "lon": -77.03427716666667, "is_reserved": 0, "bike_id": "0efc616c990dd051e46a1a2d5c741b7d", "fusion_lon": 0.0, "rental_uris": {"android": "https://dc.lft.to/lastmile_qr_scan", "ios": "https://dc.lft.to/lastmile_qr_scan"}, "name": "0efc616c990dd051e46a1a2d5c741b7d", "type": "electric_scooter", "lat": 38.919448333333335, "is_disabled": 0}, {"fusion_lat": 0.0, "lon": -77.0363715, "is_reserved": 0, "bike_id": "fdac207e75637a1a46ccb789a36fdd69", "fusion_lon": 0.0, "rental_uris": {"android": "https://dc.lft.to/lastmile_qr_scan", "ios": "https://dc.lft.to/lastmile_qr_scan"}, "name": "fdac207e75637a1a46ccb789a36fdd69", "type": "electric_scooter", "lat": 38.936736833333335, "is_disabled": 0}, {"fusion_lat": 0.0, "lon": -77.20833933333333, "is_reserved": 0, "bike_id": "88ffa59d9c7dfc21d42e896fe1127fde", "fusion_lon": 0.0, "rental_uris": {"android": "https://dc.lft.to/lastmile_qr_scan", "ios": "https://dc.lft.to/lastmile_qr_scan"}, "name": "88ffa59d9c7dfc21d42e896fe1127fde", "type": "electric_bike", "lat": 38.92462066666667, "is_disabled": 0}, {"fusion_lat": 0.0, "lon": -77.0227305, "is_reserved": 0, "bike_id": "8850dc2e804d590f15003a9b08ea8f18", "fusion_lon": 0.0, "rental_uris": {"android": "https://dc.lft.to/lastmile_qr_scan", "ios": "https://dc.lft.to/lastmile_qr_scan"}, "name": "8850dc2e804d590f15003a9b08ea8f18", "type": "electric_scooter", "lat": 38.91230616666667, "is_disabled": 0}, {"fusion_lat": 0.0, "lon": -77.0564975, "is_reserved": 0, "bike_id": "d8f82359ad91503953f22ba9693bd15f", "fusion_lon": 0.0, "rental_uris": {"android": "https://dc.lft.to/lastmile_qr_scan", "ios": "https://dc.lft.to/lastmile_qr_scan"}, "name": "d8f82359ad91503953f22ba9693bd15f", "type": "electric_scooter", "lat": 38.9076785, "is_disabled": 0}, {"fusion_lat": 0.0, "lon": -76.97022183333333, "is_reserved": 0, "bike_id": "fd65cca058615698b3e2509e5af9c943", "fusion_lon": 0.0, "rental_uris": {"android": "https://dc.lft.to/lastmile_qr_scan", "ios": "https://dc.lft.to/lastmile_qr_scan"}, "name": "fd65cca058615698b3e2509e5af9c943", "type": "electric_scooter", "lat": 38.925347333333335, "is_disabled": 0}, {"fusion_lat": 0.0, "lon": -76.98763966666667, "is_reserved": 0, "bike_id": "263496f3b9d7c7a89c12142633d41183", "fusion_lon": 0.0, "rental_uris": {"android": "https://dc.lft.to/lastmile_qr_scan", "ios": "https://dc.lft.to/lastmile_qr_scan"}, "name": "263496f3b9d7c7a89c12142633d41183", "type": "electric_scooter", "lat": 38.900281, "is_disabled": 0}, {"fusion_lat": 0.0, "lon": -77.01765533333334, "is_reserved": 0, "bike_id": "63b7f2c2db62d57fe9942058a0343fb8", "fusion_lon": 0.0, "rental_uris": {"android": "https://dc.lft.to/lastmile_qr_scan", "ios": "https://dc.lft.to/lastmile_qr_scan"}, "name": "63b7f2c2db62d57fe9942058a0343fb8", "type": "electric_scooter", "lat": 38.876867, "is_disabled": 0}, {"fusion_lat": 0.0, "lon": -77.03218, "is_reserved": 0, "bike_id": "cec3cd613df13d65a446fc7d72df9329", "fusion_lon": 0.0, "rental_uris": {"android": "https://dc.lft.to/lastmile_qr_scan", "ios": "https://dc.lft.to/lastmile_qr_scan"}, "name": "cec3cd613df13d65a446fc7d72df9329", "type": "electric_scooter", "lat": 38.91551166666667, "is_disabled": 0}, {"fusion_lat": 0.0, "lon": -77.0083165, "is_reserved": 0, "bike_id": "b30872454390e17754e9fe6de031dfc0", "fusion_lon": 0.0, "rental_uris": {"android": "https://dc.lft.to/lastmile_qr_scan", "ios": "https://dc.lft.to/lastmile_qr_scan"}, "name": "b30872454390e17754e9fe6de031dfc0", "type": "electric_scooter", "lat": 38.92243166666667, "is_disabled": 0}, {"fusion_lat": 0.0, "lon": -76.99782183333333, "is_reserved": 0, "bike_id": "13c990d9481c4834a55b412d7913c359", "fusion_lon": 0.0, "rental_uris": {"android": "https://dc.lft.to/lastmile_qr_scan", "ios": "https://dc.lft.to/lastmile_qr_scan"}, "name": "13c990d9481c4834a55b412d7913c359", "type": "electric_scooter", "lat": 38.8443165, "is_disabled": 0}, {"fusion_lat": 0.0, "lon": -77.03194966666666, "is_reserved": 0, "bike_id": "4d99d195f3a4e4a5022e50264fbe8bc1", "fusion_lon": 0.0, "rental_uris": {"android": "https://dc.lft.to/lastmile_qr_scan", "ios": "https://dc.lft.to/lastmile_qr_scan"}, "name": "4d99d195f3a4e4a5022e50264fbe8bc1", "type": "electric_scooter", "lat": 38.8966555, "is_disabled": 0}, {"fusion_lat": 0.0, "lon": -77.0906715, "is_reserved": 0, "bike_id": "d2e3a112e996972cdfe1e3ee03ed46d4", "fusion_lon": 0.0, "rental_uris": {"android": "https://dc.lft.to/lastmile_qr_scan", "ios": "https://dc.lft.to/lastmile_qr_scan"}, "name": "d2e3a112e996972cdfe1e3ee03ed46d4", "type": "electric_bike", "lat": 38.8626035, "is_disabled": 0}, {"fusion_lat": 0.0, "lon": -76.97829366666667, "is_reserved": 0, "bike_id": "e6cf4dfb17a395c7e5617d9451da24c3", "fusion_lon": 0.0, "rental_uris": {"android": "https://dc.lft.to/lastmile_qr_scan", "ios": "https://dc.lft.to/lastmile_qr_scan"}, "name": "e6cf4dfb17a395c7e5617d9451da24c3", "type": "electric_bike", "lat": 38.84371683333333, "is_disabled": 0}, {"fusion_lat": 0.0, "lon": -77.02589266666666, "is_reserved": 0, "bike_id": "c8c339867cd6549f380f861bc3bd70b1", "fusion_lon": 0.0, "rental_uris": {"android": "https://dc.lft.to/lastmile_qr_scan", "ios": "https://dc.lft.to/lastmile_qr_scan"}, "name": "c8c339867cd6549f380f861bc3bd70b1", "type": "electric_scooter", "lat": 38.963939, "is_disabled": 0}, {"fusion_lat": 0.0, "lon": -77.03566716666667, "is_reserved": 0, "bike_id": "42a85125936702533ae8198323dff841", "fusion_lon": 0.0, "rental_uris": {"android": "https://dc.lft.to/lastmile_qr_scan", "ios": "https://dc.lft.to/lastmile_qr_scan"}, "name": "42a85125936702533ae8198323dff841", "type": "electric_bike", "lat": 38.9319015, "is_disabled": 0}, {"fusion_lat": 0.0, "lon": -76.974311, "is_reserved": 0, "bike_id": "3f807f759afe3cf91de2fd6bf340ae20", "fusion_lon": 0.0, "rental_uris": {"android": "https://dc.lft.to/lastmile_qr_scan", "ios": "https://dc.lft.to/lastmile_qr_scan"}, "name": "3f807f759afe3cf91de2fd6bf340ae20", "type": "electric_scooter", "lat": 38.90403466666667, "is_disabled": 0}, {"fusion_lat": 0.0, "lon": -76.9438245, "is_reserved": 0, "bike_id": "ce8141a654889622081e1d644bbbb1c0", "fusion_lon": 0.0, "rental_uris": {"android": "https://dc.lft.to/lastmile_qr_scan", "ios": "https://dc.lft.to/lastmile_qr_scan"}, "name": "ce8141a654889622081e1d644bbbb1c0", "type": "electric_scooter", "lat": 38.89327516666667, "is_disabled": 0}, {"fusion_lat": 0.0, "lon": -77.01904066666667, "is_reserved": 0, "bike_id": "dd24b003765f7f78f7be8eb1e79d6115", "fusion_lon": 0.0, "rental_uris": {"android": "https://dc.lft.to/lastmile_qr_scan", "ios": "https://dc.lft.to/lastmile_qr_scan"}, "name": "dd24b003765f7f78f7be8eb1e79d6115", "type": "electric_scooter", "lat": 38.9193355, "is_disabled": 0}, {"fusion_lat": 0.0, "lon": -76.937496, "is_reserved": 0, "bike_id": "4275016646fe3c34a3c86e69cd31fc82", "fusion_lon": 0.0, "rental_uris": {"android": "https://dc.lft.to/lastmile_qr_scan", "ios": "https://dc.lft.to/lastmile_qr_scan"}, "name": "4275016646fe3c34a3c86e69cd31fc82", "type": "electric_scooter", "lat": 38.89044, "is_disabled": 0}, {"fusion_lat": 0.0, "lon": -77.0433775, "is_reserved": 0, "bike_id": "d65e4b525427575c553db73fd66a6fa0", "fusion_lon": 0.0, "rental_uris": {"android": "https://dc.lft.to/lastmile_qr_scan", "ios": "https://dc.lft.to/lastmile_qr_scan"}, "name": "d65e4b525427575c553db73fd66a6fa0", "type": "electric_scooter", "lat": 38.90720783333333, "is_disabled": 0}, {"fusion_lat": 0.0, "lon": -77.000079, "is_reserved": 0, "bike_id": "cd146767dd549427f42758dae14db0c8", "fusion_lon": 0.0, "rental_uris": {"android": "https://dc.lft.to/lastmile_qr_scan", "ios": "https://dc.lft.to/lastmile_qr_scan"}, "name": "cd146767dd549427f42758dae14db0c8", "type": "electric_scooter", "lat": 38.89301116666667, "is_disabled": 0}, {"fusion_lat": 0.0, "lon": -77.03371133333333, "is_reserved": 0, "bike_id": "6a32675f5393da9e6e011df7f8aad235", "fusion_lon": 0.0, "rental_uris": {"android": "https://dc.lft.to/lastmile_qr_scan", "ios": "https://dc.lft.to/lastmile_qr_scan"}, "name": "6a32675f5393da9e6e011df7f8aad235", "type": "electric_scooter", "lat": 38.899209166666665, "is_disabled": 0}, {"fusion_lat": 0.0, "lon": -76.986271, "is_reserved": 0, "bike_id": "dfa15a74fb14fe5bcd7a4345dce14c1b", "fusion_lon": 0.0, "rental_uris": {"android": "https://dc.lft.to/lastmile_qr_scan", "ios": "https://dc.lft.to/lastmile_qr_scan"}, "name": "dfa15a74fb14fe5bcd7a4345dce14c1b", "type": "electric_scooter", "lat": 38.90116066666667, "is_disabled": 0}, {"fusion_lat": 0.0, "lon": -77.012713, "is_reserved": 0, "bike_id": "8d0358c96e042015cdbf92fa959e81d6", "fusion_lon": 0.0, "rental_uris": {"android": "https://dc.lft.to/lastmile_qr_scan", "ios": "https://dc.lft.to/lastmile_qr_scan"}, "name": "8d0358c96e042015cdbf92fa959e81d6", "type": "electric_scooter", "lat": 38.91413266666667, "is_disabled": 0}, {"fusion_lat": 0.0, "lon": -76.95098633333333, "is_reserved": 0, "bike_id": "c7a0d6ff69c0f09c85509dddfe070902", "fusion_lon": 0.0, "rental_uris": {"android": "https://dc.lft.to/lastmile_qr_scan", "ios": "https://dc.lft.to/lastmile_qr_scan"}, "name": "c7a0d6ff69c0f09c85509dddfe070902", "type": "electric_scooter", "lat": 38.8844855, "is_disabled": 0}, {"fusion_lat": 0.0, "lon": -76.93367083333334, "is_reserved": 0, "bike_id": "302b8b7258f7b4b7de05d2575c2f4324", "fusion_lon": 0.0, "rental_uris": {"android": "https://dc.lft.to/lastmile_qr_scan", "ios": "https://dc.lft.to/lastmile_qr_scan"}, "name": "302b8b7258f7b4b7de05d2575c2f4324", "type": "electric_scooter", "lat": 38.89916366666667, "is_disabled": 0}, {"fusion_lat": 0.0, "lon": -76.996043, "is_reserved": 0, "bike_id": "b5882cff5447da5b740a508e8d403192", "fusion_lon": 0.0, "rental_uris": {"android": "https://dc.lft.to/lastmile_qr_scan", "ios": "https://dc.lft.to/lastmile_qr_scan"}, "name": "b5882cff5447da5b740a508e8d403192", "type": "electric_scooter", "lat": 38.89225, "is_disabled": 0}, {"fusion_lat": 0.0, "lon": -77.03498933333333, "is_reserved": 0, "bike_id": "1544a95974657d2081a2a43b26feab54", "fusion_lon": 0.0, "rental_uris": {"android": "https://dc.lft.to/lastmile_qr_scan", "ios": "https://dc.lft.to/lastmile_qr_scan"}, "name": "1544a95974657d2081a2a43b26feab54", "type": "electric_scooter", "lat": 38.92332433333333, "is_disabled": 0}, {"fusion_lat": 0.0, "lon": -77.08938783333333, "is_reserved": 0, "bike_id": "bacba2f7c9896535247d4d4270400e64", "fusion_lon": 0.0, "rental_uris": {"android": "https://dc.lft.to/lastmile_qr_scan", "ios": "https://dc.lft.to/lastmile_qr_scan"}, "name": "bacba2f7c9896535247d4d4270400e64", "type": "electric_bike", "lat": 38.84105383333333, "is_disabled": 0}, {"fusion_lat": 0.0, "lon": -77.012178, "is_reserved": 0, "bike_id": "fc1c7c5b0a12177fc2fdfeb64fd8e72a", "fusion_lon": 0.0, "rental_uris": {"android": "https://dc.lft.to/lastmile_qr_scan", "ios": "https://dc.lft.to/lastmile_qr_scan"}, "name": "fc1c7c5b0a12177fc2fdfeb64fd8e72a", "type": "electric_bike", "lat": 38.870839833333335, "is_disabled": 0}, {"fusion_lat": 0.0, "lon": -77.02397483333333, "is_reserved": 0, "bike_id": "b1cc0f8a7ffbc206c1dbae733d5c2561", "fusion_lon": 0.0, "rental_uris": {"android": "https://dc.lft.to/lastmile_qr_scan", "ios": "https://dc.lft.to/lastmile_qr_scan"}, "name": "b1cc0f8a7ffbc206c1dbae733d5c2561", "type": "electric_scooter", "lat": 38.919942666666664, "is_disabled": 0}, {"fusion_lat": 0.0, "lon": -77.04225283333334, "is_reserved": 0, "bike_id": "6296d46871e93fca190b458261e165a0", "fusion_lon": 0.0, "rental_uris": {"android": "https://dc.lft.to/lastmile_qr_scan", "ios": "https://dc.lft.to/lastmile_qr_scan"}, "name": "6296d46871e93fca190b458261e165a0", "type": "electric_scooter", "lat": 38.921777666666664, "is_disabled": 0}, {"fusion_lat": 0.0, "lon": -76.9950945, "is_reserved": 0, "bike_id": "690498530d32487ac446c9fc9a207b3b", "fusion_lon": 0.0, "rental_uris": {"android": "https://dc.lft.to/lastmile_qr_scan", "ios": "https://dc.lft.to/lastmile_qr_scan"}, "name": "690498530d32487ac446c9fc9a207b3b", "type": "electric_scooter", "lat": 38.90979466666667, "is_disabled": 0}, {"fusion_lat": 0.0, "lon": -77.02287166666666, "is_reserved": 0, "bike_id": "5ba8f869d595cc5914f5592b0f91ad24", "fusion_lon": 0.0, "rental_uris": {"android": "https://dc.lft.to/lastmile_qr_scan", "ios": "https://dc.lft.to/lastmile_qr_scan"}, "name": "5ba8f869d595cc5914f5592b0f91ad24", "type": "electric_scooter", "lat": 38.927183, "is_disabled": 0}, {"fusion_lat": 0.0, "lon": -77.02557216666666, "is_reserved": 0, "bike_id": "692ef2b5b4021e494f23c42f1f7ef40d", "fusion_lon": 0.0, "rental_uris": {"android": "https://dc.lft.to/lastmile_qr_scan", "ios": "https://dc.lft.to/lastmile_qr_scan"}, "name": "692ef2b5b4021e494f23c42f1f7ef40d", "type": "electric_scooter", "lat": 38.924707, "is_disabled": 0}, {"fusion_lat": 0.0, "lon": -77.00621966666667, "is_reserved": 0, "bike_id": "46bc63089d8387be539bc78d4fcb0ae5", "fusion_lon": 0.0, "rental_uris": {"android": "https://dc.lft.to/lastmile_qr_scan", "ios": "https://dc.lft.to/lastmile_qr_scan"}, "name": "46bc63089d8387be539bc78d4fcb0ae5", "type": "electric_scooter", "lat": 38.871740333333335, "is_disabled": 0}, {"fusion_lat": 0.0, "lon": -77.02329883333333, "is_reserved": 0, "bike_id": "88f67dba99237834377d19ca2eccfd5b", "fusion_lon": 0.0, "rental_uris": {"android": "https://dc.lft.to/lastmile_qr_scan", "ios": "https://dc.lft.to/lastmile_qr_scan"}, "name": "88f67dba99237834377d19ca2eccfd5b", "type": "electric_scooter", "lat": 38.9270185, "is_disabled": 0}, {"fusion_lat": 0.0, "lon": -76.93734016666667, "is_reserved": 0, "bike_id": "87e12439030ca5417afbd3cd1b4867e8", "fusion_lon": 0.0, "rental_uris": {"android": "https://dc.lft.to/lastmile_qr_scan", "ios": "https://dc.lft.to/lastmile_qr_scan"}, "name": "87e12439030ca5417afbd3cd1b4867e8", "type": "electric_scooter", "lat": 38.890178166666665, "is_disabled": 0}, {"fusion_lat": 0.0, "lon": -77.015105, "is_reserved": 0, "bike_id": "e63d82074199cad6fb243f5514592eaf", "fusion_lon": 0.0, "rental_uris": {"android": "https://dc.lft.to/lastmile_qr_scan", "ios": "https://dc.lft.to/lastmile_qr_scan"}, "name": "e63d82074199cad6fb243f5514592eaf", "type": "electric_scooter", "lat": 38.8924975, "is_disabled": 0}, {"fusion_lat": 0.0, "lon": -77.02658716666667, "is_reserved": 0, "bike_id": "c500ace192c61af94b6154c07c4f6122", "fusion_lon": 0.0, "rental_uris": {"android": "https://dc.lft.to/lastmile_qr_scan", "ios": "https://dc.lft.to/lastmile_qr_scan"}, "name": "c500ace192c61af94b6154c07c4f6122", "type": "electric_scooter", "lat": 38.9022905, "is_disabled": 0}, {"fusion_lat": 0.0, "lon": -77.02280633333334, "is_reserved": 0, "bike_id": "2ab3d6e884df3885818d00df4e8493b9", "fusion_lon": 0.0, "rental_uris": {"android": "https://dc.lft.to/lastmile_qr_scan", "ios": "https://dc.lft.to/lastmile_qr_scan"}, "name": "2ab3d6e884df3885818d00df4e8493b9", "type": "electric_scooter", "lat": 38.9142475, "is_disabled": 0}, {"fusion_lat": 0.0, "lon": -77.00598983333333, "is_reserved": 0, "bike_id": "410bfc009c3d96c8554c10f9c4dd1f46", "fusion_lon": 0.0, "rental_uris": {"android": "https://dc.lft.to/lastmile_qr_scan", "ios": "https://dc.lft.to/lastmile_qr_scan"}, "name": "410bfc009c3d96c8554c10f9c4dd1f46", "type": "electric_scooter", "lat": 38.885165, "is_disabled": 0}, {"fusion_lat": 0.0, "lon": -77.00724183333334, "is_reserved": 0, "bike_id": "5900881fe88cf9b3b883b46bdb547939", "fusion_lon": 0.0, "rental_uris": {"android": "https://dc.lft.to/lastmile_qr_scan", "ios": "https://dc.lft.to/lastmile_qr_scan"}, "name": "5900881fe88cf9b3b883b46bdb547939", "type": "electric_scooter", "lat": 38.897823833333334, "is_disabled": 0}, {"fusion_lat": 0.0, "lon": -77.04458083333333, "is_reserved": 0, "bike_id": "995841d07abd49c5cbf101b3a8a7ba16", "fusion_lon": 0.0, "rental_uris": {"android": "https://dc.lft.to/lastmile_qr_scan", "ios": "https://dc.lft.to/lastmile_qr_scan"}, "name": "995841d07abd49c5cbf101b3a8a7ba16", "type": "electric_scooter", "lat": 38.909562333333334, "is_disabled": 0}, {"fusion_lat": 0.0, "lon": -76.9744865, "is_reserved": 0, "bike_id": "814f1537b8fdf8ebcf4918c856157486", "fusion_lon": 0.0, "rental_uris": {"android": "https://dc.lft.to/lastmile_qr_scan", "ios": "https://dc.lft.to/lastmile_qr_scan"}, "name": "814f1537b8fdf8ebcf4918c856157486", "type": "electric_bike", "lat": 38.86404783333333, "is_disabled": 0}, {"fusion_lat": 0.0, "lon": -77.01366433333334, "is_reserved": 0, "bike_id": "cd26575819f4d6efe24155fbaec9e576", "fusion_lon": 0.0, "rental_uris": {"android": "https://dc.lft.to/lastmile_qr_scan", "ios": "https://dc.lft.to/lastmile_qr_scan"}, "name": "cd26575819f4d6efe24155fbaec9e576", "type": "electric_scooter", "lat": 38.9286865, "is_disabled": 0}, {"fusion_lat": 0.0, "lon": -76.895373, "is_reserved": 0, "bike_id": "96c9868254fbb3073ff7c2103fad1cec", "fusion_lon": 0.0, "rental_uris": {"android": "https://dc.lft.to/lastmile_qr_scan", "ios": "https://dc.lft.to/lastmile_qr_scan"}, "name": "96c9868254fbb3073ff7c2103fad1cec", "type": "electric_bike", "lat": 38.94546783333333, "is_disabled": 0}, {"fusion_lat": 0.0, "lon": -77.068632, "is_reserved": 0, "bike_id": "b54a3a6e0d9edafc8a63245fbd709828", "fusion_lon": 0.0, "rental_uris": {"android": "https://dc.lft.to/lastmile_qr_scan", "ios": "https://dc.lft.to/lastmile_qr_scan"}, "name": "b54a3a6e0d9edafc8a63245fbd709828", "type": "electric_bike", "lat": 38.8057595, "is_disabled": 0}, {"fusion_lat": 0.0, "lon": -77.07477066666667, "is_reserved": 0, "bike_id": "2cf012063d449f6f37f4fc3d07a519a3", "fusion_lon": 0.0, "rental_uris": {"android": "https://dc.lft.to/lastmile_qr_scan", "ios": "https://dc.lft.to/lastmile_qr_scan"}, "name": "2cf012063d449f6f37f4fc3d07a519a3", "type": "electric_scooter", "lat": 38.963224, "is_disabled": 0}, {"fusion_lat": 0.0, "lon": -77.02734433333333, "is_reserved": 0, "bike_id": "9fc147d7a4cbdb5473a95b6fcaeef3eb", "fusion_lon": 0.0, "rental_uris": {"android": "https://dc.lft.to/lastmile_qr_scan", "ios": "https://dc.lft.to/lastmile_qr_scan"}, "name": "9fc147d7a4cbdb5473a95b6fcaeef3eb", "type": "electric_scooter", "lat": 38.94090116666667, "is_disabled": 0}, {"fusion_lat": 0.0, "lon": -77.03438716666666, "is_reserved": 0, "bike_id": "7804abadcf4bcc2360472a4817652937", "fusion_lon": 0.0, "rental_uris": {"android": "https://dc.lft.to/lastmile_qr_scan", "ios": "https://dc.lft.to/lastmile_qr_scan"}, "name": "7804abadcf4bcc2360472a4817652937", "type": "electric_scooter", "lat": 38.9180745, "is_disabled": 0}, {"fusion_lat": 0.0, "lon": -77.03648216666667, "is_reserved": 0, "bike_id": "773bfc0701af3c4e68298d6838c2290e", "fusion_lon": 0.0, "rental_uris": {"android": "https://dc.lft.to/lastmile_qr_scan", "ios": "https://dc.lft.to/lastmile_qr_scan"}, "name": "773bfc0701af3c4e68298d6838c2290e", "type": "electric_scooter", "lat": 38.92261216666667, "is_disabled": 0}, {"fusion_lat": 0.0, "lon": -77.02092883333333, "is_reserved": 0, "bike_id": "bcfd91afb0259e09303e9a61c47d5cb5", "fusion_lon": 0.0, "rental_uris": {"android": "https://dc.lft.to/lastmile_qr_scan", "ios": "https://dc.lft.to/lastmile_qr_scan"}, "name": "bcfd91afb0259e09303e9a61c47d5cb5", "type": "electric_scooter", "lat": 38.91124683333334, "is_disabled": 0}, {"fusion_lat": 0.0, "lon": -77.05136366666666, "is_reserved": 0, "bike_id": "227b496b9f47150c283564d47ca2b6f2", "fusion_lon": 0.0, "rental_uris": {"android": "https://dc.lft.to/lastmile_qr_scan", "ios": "https://dc.lft.to/lastmile_qr_scan"}, "name": "227b496b9f47150c283564d47ca2b6f2", "type": "electric_scooter", "lat": 38.899407833333335, "is_disabled": 0}, {"fusion_lat": 0.0, "lon": -77.02094183333334, "is_reserved": 0, "bike_id": "1c52e956569550fd71e792365ab9ee35", "fusion_lon": 0.0, "rental_uris": {"android": "https://dc.lft.to/lastmile_qr_scan", "ios": "https://dc.lft.to/lastmile_qr_scan"}, "name": "1c52e956569550fd71e792365ab9ee35", "type": "electric_scooter", "lat": 38.88503083333333, "is_disabled": 0}, {"fusion_lat": 0.0, "lon": -77.01947416666667, "is_reserved": 0, "bike_id": "1373f65c023b914936168594c779c22f", "fusion_lon": 0.0, "rental_uris": {"android": "https://dc.lft.to/lastmile_qr_scan", "ios": "https://dc.lft.to/lastmile_qr_scan"}, "name": "1373f65c023b914936168594c779c22f", "type": "electric_bike", "lat": 38.924211, "is_disabled": 0}, {"fusion_lat": 0.0, "lon": -76.9273945, "is_reserved": 0, "bike_id": "40558812606be95290f964954ad831fc", "fusion_lon": 0.0, "rental_uris": {"android": "https://dc.lft.to/lastmile_qr_scan", "ios": "https://dc.lft.to/lastmile_qr_scan"}, "name": "40558812606be95290f964954ad831fc", "type": "electric_scooter", "lat": 38.889639333333335, "is_disabled": 0}, {"fusion_lat": 0.0, "lon": -76.99507733333333, "is_reserved": 0, "bike_id": "6bca0934b34375abbb22dc9cf9ea87f3", "fusion_lon": 0.0, "rental_uris": {"android": "https://dc.lft.to/lastmile_qr_scan", "ios": "https://dc.lft.to/lastmile_qr_scan"}, "name": "6bca0934b34375abbb22dc9cf9ea87f3", "type": "electric_scooter", "lat": 38.8828115, "is_disabled": 0}, {"fusion_lat": 0.0, "lon": -77.01939216666666, "is_reserved": 0, "bike_id": "1344049a229181e5919d80e4d8f1874b", "fusion_lon": 0.0, "rental_uris": {"android": "https://dc.lft.to/lastmile_qr_scan", "ios": "https://dc.lft.to/lastmile_qr_scan"}, "name": "1344049a229181e5919d80e4d8f1874b", "type": "electric_scooter", "lat": 38.947032666666665, "is_disabled": 0}, {"fusion_lat": 0.0, "lon": -76.93376633333334, "is_reserved": 0, "bike_id": "2585c9cd8bab337603a337389ba340b6", "fusion_lon": 0.0, "rental_uris": {"android": "https://dc.lft.to/lastmile_qr_scan", "ios": "https://dc.lft.to/lastmile_qr_scan"}, "name": "2585c9cd8bab337603a337389ba340b6", "type": "electric_scooter", "lat": 38.899052, "is_disabled": 0}, {"fusion_lat": 0.0, "lon": -77.042521, "is_reserved": 0, "bike_id": "f90fba806a435b6f25640d059f49ec85", "fusion_lon": 0.0, "rental_uris": {"android": "https://dc.lft.to/lastmile_qr_scan", "ios": "https://dc.lft.to/lastmile_qr_scan"}, "name": "f90fba806a435b6f25640d059f49ec85", "type": "electric_scooter", "lat": 38.925389, "is_disabled": 0}, {"fusion_lat": 0.0, "lon": -77.0585625, "is_reserved": 0, "bike_id": "a24dad01186d4e76571b3cb4d562ee42", "fusion_lon": 0.0, "rental_uris": {"android": "https://dc.lft.to/lastmile_qr_scan", "ios": "https://dc.lft.to/lastmile_qr_scan"}, "name": "a24dad01186d4e76571b3cb4d562ee42", "type": "electric_scooter", "lat": 38.935858833333334, "is_disabled": 0}, {"fusion_lat": 0.0, "lon": -76.98287283333333, "is_reserved": 0, "bike_id": "a6aa21d135cde944809d8778c7e799bd", "fusion_lon": 0.0, "rental_uris": {"android": "https://dc.lft.to/lastmile_qr_scan", "ios": "https://dc.lft.to/lastmile_qr_scan"}, "name": "a6aa21d135cde944809d8778c7e799bd", "type": "electric_scooter", "lat": 38.900462, "is_disabled": 0}, {"fusion_lat": 0.0, "lon": -77.036682, "is_reserved": 0, "bike_id": "76b8f733871c3f3e2e61d03d707f1089", "fusion_lon": 0.0, "rental_uris": {"android": "https://dc.lft.to/lastmile_qr_scan", "ios": "https://dc.lft.to/lastmile_qr_scan"}, "name": "76b8f733871c3f3e2e61d03d707f1089", "type": "electric_scooter", "lat": 38.90688016666667, "is_disabled": 0}, {"fusion_lat": 0.0, "lon": -77.017394, "is_reserved": 0, "bike_id": "edc3c1df59e8c5b9213b3e90a2a92d46", "fusion_lon": 0.0, "rental_uris": {"android": "https://dc.lft.to/lastmile_qr_scan", "ios": "https://dc.lft.to/lastmile_qr_scan"}, "name": "edc3c1df59e8c5b9213b3e90a2a92d46", "type": "electric_scooter", "lat": 38.90250016666667, "is_disabled": 0}, {"fusion_lat": 0.0, "lon": -77.03956466666666, "is_reserved": 0, "bike_id": "68398531f32b47d4c882e4dee57c4030", "fusion_lon": 0.0, "rental_uris": {"android": "https://dc.lft.to/lastmile_qr_scan", "ios": "https://dc.lft.to/lastmile_qr_scan"}, "name": "68398531f32b47d4c882e4dee57c4030", "type": "electric_scooter", "lat": 38.892438166666665, "is_disabled": 0}, {"fusion_lat": 0.0, "lon": -77.0797565, "is_reserved": 0, "bike_id": "229735d00b01515d54187875248a4e59", "fusion_lon": 0.0, "rental_uris": {"android": "https://dc.lft.to/lastmile_qr_scan", "ios": "https://dc.lft.to/lastmile_qr_scan"}, "name": "229735d00b01515d54187875248a4e59", "type": "electric_scooter", "lat": 38.92582066666667, "is_disabled": 0}, {"fusion_lat": 0.0, "lon": -77.00528983333334, "is_reserved": 0, "bike_id": "2e4cf35db53d97bbab55b8c836c3cd20", "fusion_lon": 0.0, "rental_uris": {"android": "https://dc.lft.to/lastmile_qr_scan", "ios": "https://dc.lft.to/lastmile_qr_scan"}, "name": "2e4cf35db53d97bbab55b8c836c3cd20", "type": "electric_scooter", "lat": 38.89682366666667, "is_disabled": 0}, {"fusion_lat": 0.0, "lon": -77.03224133333333, "is_reserved": 0, "bike_id": "5c545d0a44c6844f828303a9ce11b837", "fusion_lon": 0.0, "rental_uris": {"android": "https://dc.lft.to/lastmile_qr_scan", "ios": "https://dc.lft.to/lastmile_qr_scan"}, "name": "5c545d0a44c6844f828303a9ce11b837", "type": "electric_scooter", "lat": 38.928597333333336, "is_disabled": 0}, {"fusion_lat": 0.0, "lon": -77.0317555, "is_reserved": 0, "bike_id": "1047bd5d86730c5f34a9984f6862eec7", "fusion_lon": 0.0, "rental_uris": {"android": "https://dc.lft.to/lastmile_qr_scan", "ios": "https://dc.lft.to/lastmile_qr_scan"}, "name": "1047bd5d86730c5f34a9984f6862eec7", "type": "electric_scooter", "lat": 38.91804366666667, "is_disabled": 0}, {"fusion_lat": 0.0, "lon": -77.03477833333334, "is_reserved": 0, "bike_id": "fc455534baa198e687f2f2612ee82c52", "fusion_lon": 0.0, "rental_uris": {"android": "https://dc.lft.to/lastmile_qr_scan", "ios": "https://dc.lft.to/lastmile_qr_scan"}, "name": "fc455534baa198e687f2f2612ee82c52", "type": "electric_scooter", "lat": 38.9065065, "is_disabled": 0}, {"fusion_lat": 0.0, "lon": -76.937586, "is_reserved": 0, "bike_id": "a4508c36485b1620a98150d9047d9018", "fusion_lon": 0.0, "rental_uris": {"android": "https://dc.lft.to/lastmile_qr_scan", "ios": "https://dc.lft.to/lastmile_qr_scan"}, "name": "a4508c36485b1620a98150d9047d9018", "type": "electric_scooter", "lat": 38.89045483333334, "is_disabled": 0}, {"fusion_lat": 0.0, "lon": -77.04544166666666, "is_reserved": 0, "bike_id": "14f33376ba7aa8c9d7efbc28e4a53c02", "fusion_lon": 0.0, "rental_uris": {"android": "https://dc.lft.to/lastmile_qr_scan", "ios": "https://dc.lft.to/lastmile_qr_scan"}, "name": "14f33376ba7aa8c9d7efbc28e4a53c02", "type": "electric_scooter", "lat": 38.89610883333334, "is_disabled": 0}, {"fusion_lat": 0.0, "lon": -76.98402633333333, "is_reserved": 0, "bike_id": "7d4643b3a9a89abb6010e1e54d49e2de", "fusion_lon": 0.0, "rental_uris": {"android": "https://dc.lft.to/lastmile_qr_scan", "ios": "https://dc.lft.to/lastmile_qr_scan"}, "name": "7d4643b3a9a89abb6010e1e54d49e2de", "type": "electric_scooter", "lat": 38.86701, "is_disabled": 0}, {"fusion_lat": 0.0, "lon": -77.07584366666667, "is_reserved": 0, "bike_id": "59753ef2a03d4eace8af2c358c19efca", "fusion_lon": 0.0, "rental_uris": {"android": "https://dc.lft.to/lastmile_qr_scan", "ios": "https://dc.lft.to/lastmile_qr_scan"}, "name": "59753ef2a03d4eace8af2c358c19efca", "type": "electric_scooter", "lat": 38.912638, "is_disabled": 0}, {"fusion_lat": 0.0, "lon": -77.04496016666667, "is_reserved": 0, "bike_id": "f87225a13db8c3d55532a32be454afc9", "fusion_lon": 0.0, "rental_uris": {"android": "https://dc.lft.to/lastmile_qr_scan", "ios": "https://dc.lft.to/lastmile_qr_scan"}, "name": "f87225a13db8c3d55532a32be454afc9", "type": "electric_scooter", "lat": 38.903752, "is_disabled": 0}, {"fusion_lat": 0.0, "lon": -77.00608283333334, "is_reserved": 0, "bike_id": "52d0ce98592a252959c726aa5d95bade", "fusion_lon": 0.0, "rental_uris": {"android": "https://dc.lft.to/lastmile_qr_scan", "ios": "https://dc.lft.to/lastmile_qr_scan"}, "name": "52d0ce98592a252959c726aa5d95bade", "type": "electric_scooter", "lat": 38.905614666666665, "is_disabled": 0}, {"fusion_lat": 0.0, "lon": -77.0371765, "is_reserved": 0, "bike_id": "c3f6e6d56be0f08d3384b85543ea4b3e", "fusion_lon": 0.0, "rental_uris": {"android": "https://dc.lft.to/lastmile_qr_scan", "ios": "https://dc.lft.to/lastmile_qr_scan"}, "name": "c3f6e6d56be0f08d3384b85543ea4b3e", "type": "electric_scooter", "lat": 38.903558333333336, "is_disabled": 0}, {"fusion_lat": 0.0, "lon": -76.994061, "is_reserved": 0, "bike_id": "f8d11e8f17ff565b8ae3300b190c599b", "fusion_lon": 0.0, "rental_uris": {"android": "https://dc.lft.to/lastmile_qr_scan", "ios": "https://dc.lft.to/lastmile_qr_scan"}, "name": "f8d11e8f17ff565b8ae3300b190c599b", "type": "electric_scooter", "lat": 38.87785066666667, "is_disabled": 0}, {"fusion_lat": 0.0, "lon": -77.00629233333333, "is_reserved": 0, "bike_id": "a81e20ad1571d32aa903a4c0aba23eda", "fusion_lon": 0.0, "rental_uris": {"android": "https://dc.lft.to/lastmile_qr_scan", "ios": "https://dc.lft.to/lastmile_qr_scan"}, "name": "a81e20ad1571d32aa903a4c0aba23eda", "type": "electric_scooter", "lat": 38.83266183333333, "is_disabled": 0}, {"fusion_lat": 0.0, "lon": -77.00295016666666, "is_reserved": 0, "bike_id": "22baac45d7044f7147aa1b0443e2d8ff", "fusion_lon": 0.0, "rental_uris": {"android": "https://dc.lft.to/lastmile_qr_scan", "ios": "https://dc.lft.to/lastmile_qr_scan"}, "name": "22baac45d7044f7147aa1b0443e2d8ff", "type": "electric_scooter", "lat": 38.89490883333333, "is_disabled": 0}, {"fusion_lat": 0.0, "lon": -76.91968033333333, "is_reserved": 0, "bike_id": "9b4874a6e10c2592ab19c0cb6365f5fe", "fusion_lon": 0.0, "rental_uris": {"android": "https://dc.lft.to/lastmile_qr_scan", "ios": "https://dc.lft.to/lastmile_qr_scan"}, "name": "9b4874a6e10c2592ab19c0cb6365f5fe", "type": "electric_scooter", "lat": 38.9002605, "is_disabled": 0}, {"fusion_lat": 0.0, "lon": -77.03915083333334, "is_reserved": 0, "bike_id": "74b270f9368b85a5c5b59f518f001f04", "fusion_lon": 0.0, "rental_uris": {"android": "https://dc.lft.to/lastmile_qr_scan", "ios": "https://dc.lft.to/lastmile_qr_scan"}, "name": "74b270f9368b85a5c5b59f518f001f04", "type": "electric_scooter", "lat": 38.924213, "is_disabled": 0}, {"fusion_lat": 0.0, "lon": -77.03087666666667, "is_reserved": 0, "bike_id": "12662fc82d5c5f6dd3da78da6693d3f4", "fusion_lon": 0.0, "rental_uris": {"android": "https://dc.lft.to/lastmile_qr_scan", "ios": "https://dc.lft.to/lastmile_qr_scan"}, "name": "12662fc82d5c5f6dd3da78da6693d3f4", "type": "electric_scooter", "lat": 38.899626166666664, "is_disabled": 0}, {"fusion_lat": 0.0, "lon": -77.038706, "is_reserved": 0, "bike_id": "0900589119f1b30f9cfc88ccce264fa5", "fusion_lon": 0.0, "rental_uris": {"android": "https://dc.lft.to/lastmile_qr_scan", "ios": "https://dc.lft.to/lastmile_qr_scan"}, "name": "0900589119f1b30f9cfc88ccce264fa5", "type": "electric_scooter", "lat": 38.90815383333333, "is_disabled": 0}, {"fusion_lat": 0.0, "lon": -77.0151735, "is_reserved": 0, "bike_id": "3e3330b461cf21a850fb86fc58ac45ac", "fusion_lon": 0.0, "rental_uris": {"android": "https://dc.lft.to/lastmile_qr_scan", "ios": "https://dc.lft.to/lastmile_qr_scan"}, "name": "3e3330b461cf21a850fb86fc58ac45ac", "type": "electric_scooter", "lat": 38.8924245, "is_disabled": 0}, {"fusion_lat": 0.0, "lon": -77.04369716666666, "is_reserved": 0, "bike_id": "de0ffa8fb1ee7a2270bdc1518f0e567b", "fusion_lon": 0.0, "rental_uris": {"android": "https://dc.lft.to/lastmile_qr_scan", "ios": "https://dc.lft.to/lastmile_qr_scan"}, "name": "de0ffa8fb1ee7a2270bdc1518f0e567b", "type": "electric_scooter", "lat": 38.89217583333333, "is_disabled": 0}, {"fusion_lat": 0.0, "lon": -77.03425516666667, "is_reserved": 0, "bike_id": "26b653f8245d8d44e4267b81088d081b", "fusion_lon": 0.0, "rental_uris": {"android": "https://dc.lft.to/lastmile_qr_scan", "ios": "https://dc.lft.to/lastmile_qr_scan"}, "name": "26b653f8245d8d44e4267b81088d081b", "type": "electric_bike", "lat": 38.965231333333335, "is_disabled": 0}, {"fusion_lat": 0.0, "lon": -77.017526, "is_reserved": 0, "bike_id": "2f02794f13e148f5d696047930b09e76", "fusion_lon": 0.0, "rental_uris": {"android": "https://dc.lft.to/lastmile_qr_scan", "ios": "https://dc.lft.to/lastmile_qr_scan"}, "name": "2f02794f13e148f5d696047930b09e76", "type": "electric_scooter", "lat": 38.885865833333334, "is_disabled": 0}, {"fusion_lat": 0.0, "lon": -77.0060085, "is_reserved": 0, "bike_id": "8e9e1eaf637e630e9af742d8e99c09b0", "fusion_lon": 0.0, "rental_uris": {"android": "https://dc.lft.to/lastmile_qr_scan", "ios": "https://dc.lft.to/lastmile_qr_scan"}, "name": "8e9e1eaf637e630e9af742d8e99c09b0", "type": "electric_scooter", "lat": 38.88518066666666, "is_disabled": 0}, {"fusion_lat": 0.0, "lon": -77.02219733333334, "is_reserved": 0, "bike_id": "2aa8b719e40fcb299d38aa940ff8d41c", "fusion_lon": 0.0, "rental_uris": {"android": "https://dc.lft.to/lastmile_qr_scan", "ios": "https://dc.lft.to/lastmile_qr_scan"}, "name": "2aa8b719e40fcb299d38aa940ff8d41c", "type": "electric_scooter", "lat": 38.911217, "is_disabled": 0}, {"fusion_lat": 0.0, "lon": -77.02713033333333, "is_reserved": 0, "bike_id": "256f85aeeea2535da9b17a38c5cfbdd5", "fusion_lon": 0.0, "rental_uris": {"android": "https://dc.lft.to/lastmile_qr_scan", "ios": "https://dc.lft.to/lastmile_qr_scan"}, "name": "256f85aeeea2535da9b17a38c5cfbdd5", "type": "electric_scooter", "lat": 38.9245475, "is_disabled": 0}, {"fusion_lat": 0.0, "lon": -77.079067, "is_reserved": 0, "bike_id": "9c45025d827c5d7fd99ea2f7f37a8e82", "fusion_lon": 0.0, "rental_uris": {"android": "https://dc.lft.to/lastmile_qr_scan", "ios": "https://dc.lft.to/lastmile_qr_scan"}, "name": "9c45025d827c5d7fd99ea2f7f37a8e82", "type": "electric_scooter", "lat": 38.9480275, "is_disabled": 0}, {"fusion_lat": 0.0, "lon": -77.04485283333334, "is_reserved": 0, "bike_id": "a0746a3f1890ce7586746dc1d9e78700", "fusion_lon": 0.0, "rental_uris": {"android": "https://dc.lft.to/lastmile_qr_scan", "ios": "https://dc.lft.to/lastmile_qr_scan"}, "name": "a0746a3f1890ce7586746dc1d9e78700", "type": "electric_scooter", "lat": 38.9110015, "is_disabled": 0}, {"fusion_lat": 0.0, "lon": -77.00702416666667, "is_reserved": 0, "bike_id": "d2ad71ff454237fb4e0c6db4f836e7fe", "fusion_lon": 0.0, "rental_uris": {"android": "https://dc.lft.to/lastmile_qr_scan", "ios": "https://dc.lft.to/lastmile_qr_scan"}, "name": "d2ad71ff454237fb4e0c6db4f836e7fe", "type": "electric_scooter", "lat": 38.95244316666667, "is_disabled": 0}, {"fusion_lat": 0.0, "lon": -77.043854, "is_reserved": 0, "bike_id": "5951c89994ef64b27815ac3a0c68a484", "fusion_lon": 0.0, "rental_uris": {"android": "https://dc.lft.to/lastmile_qr_scan", "ios": "https://dc.lft.to/lastmile_qr_scan"}, "name": "5951c89994ef64b27815ac3a0c68a484", "type": "electric_scooter", "lat": 38.92108433333333, "is_disabled": 0}, {"fusion_lat": 0.0, "lon": -76.99795166666667, "is_reserved": 0, "bike_id": "4cf4f66019b51f45f06fbcf24f37e7a4", "fusion_lon": 0.0, "rental_uris": {"android": "https://dc.lft.to/lastmile_qr_scan", "ios": "https://dc.lft.to/lastmile_qr_scan"}, "name": "4cf4f66019b51f45f06fbcf24f37e7a4", "type": "electric_bike", "lat": 38.950891166666665, "is_disabled": 0}, {"fusion_lat": 0.0, "lon": -77.01687383333334, "is_reserved": 0, "bike_id": "763f9f938d3d15ccb9779441afc46fc4", "fusion_lon": 0.0, "rental_uris": {"android": "https://dc.lft.to/lastmile_qr_scan", "ios": "https://dc.lft.to/lastmile_qr_scan"}, "name": "763f9f938d3d15ccb9779441afc46fc4", "type": "electric_scooter", "lat": 38.905102, "is_disabled": 0}, {"fusion_lat": 0.0, "lon": -77.0629595, "is_reserved": 0, "bike_id": "eca94931885ed85ec4168863a23537ed", "fusion_lon": 0.0, "rental_uris": {"android": "https://dc.lft.to/lastmile_qr_scan", "ios": "https://dc.lft.to/lastmile_qr_scan"}, "name": "eca94931885ed85ec4168863a23537ed", "type": "electric_scooter", "lat": 38.903954, "is_disabled": 0}, {"fusion_lat": 0.0, "lon": -77.06608116666666, "is_reserved": 0, "bike_id": "4656164f7ee969c558f018b3325df764", "fusion_lon": 0.0, "rental_uris": {"android": "https://dc.lft.to/lastmile_qr_scan", "ios": "https://dc.lft.to/lastmile_qr_scan"}, "name": "4656164f7ee969c558f018b3325df764", "type": "electric_scooter", "lat": 38.90361766666667, "is_disabled": 0}, {"fusion_lat": 0.0, "lon": -77.06981233333333, "is_reserved": 0, "bike_id": "969d4948845d6ef86b9acfb7abf03782", "fusion_lon": 0.0, "rental_uris": {"android": "https://dc.lft.to/lastmile_qr_scan", "ios": "https://dc.lft.to/lastmile_qr_scan"}, "name": "969d4948845d6ef86b9acfb7abf03782", "type": "electric_scooter", "lat": 38.95252833333333, "is_disabled": 0}, {"fusion_lat": 0.0, "lon": -76.98924716666667, "is_reserved": 0, "bike_id": "439657e011e939a020152572778e5a5e", "fusion_lon": 0.0, "rental_uris": {"android": "https://dc.lft.to/lastmile_qr_scan", "ios": "https://dc.lft.to/lastmile_qr_scan"}, "name": "439657e011e939a020152572778e5a5e", "type": "electric_scooter", "lat": 38.85809666666667, "is_disabled": 0}, {"fusion_lat": 0.0, "lon": -77.033945, "is_reserved": 0, "bike_id": "91ad36ae102559f0d5b7108be1a40b63", "fusion_lon": 0.0, "rental_uris": {"android": "https://dc.lft.to/lastmile_qr_scan", "ios": "https://dc.lft.to/lastmile_qr_scan"}, "name": "91ad36ae102559f0d5b7108be1a40b63", "type": "electric_scooter", "lat": 38.909573, "is_disabled": 0}, {"fusion_lat": 0.0, "lon": -77.01341216666667, "is_reserved": 0, "bike_id": "0223cbabd3615920975d61579c7c3f78", "fusion_lon": 0.0, "rental_uris": {"android": "https://dc.lft.to/lastmile_qr_scan", "ios": "https://dc.lft.to/lastmile_qr_scan"}, "name": "0223cbabd3615920975d61579c7c3f78", "type": "electric_scooter", "lat": 38.87597866666667, "is_disabled": 0}, {"fusion_lat": 0.0, "lon": -77.0035005, "is_reserved": 0, "bike_id": "b28cfef20064c76ac1528dbd5335f4b1", "fusion_lon": 0.0, "rental_uris": {"android": "https://dc.lft.to/lastmile_qr_scan", "ios": "https://dc.lft.to/lastmile_qr_scan"}, "name": "b28cfef20064c76ac1528dbd5335f4b1", "type": "electric_scooter", "lat": 38.916138833333335, "is_disabled": 0}, {"fusion_lat": 0.0, "lon": -77.0019845, "is_reserved": 0, "bike_id": "6121de86206f7305240a86aa67a4ed86", "fusion_lon": 0.0, "rental_uris": {"android": "https://dc.lft.to/lastmile_qr_scan", "ios": "https://dc.lft.to/lastmile_qr_scan"}, "name": "6121de86206f7305240a86aa67a4ed86", "type": "electric_scooter", "lat": 38.900346166666665, "is_disabled": 0}, {"fusion_lat": 0.0, "lon": -77.02185, "is_reserved": 0, "bike_id": "f3375d4c5f951c8055ecfb2c9f4f9d0f", "fusion_lon": 0.0, "rental_uris": {"android": "https://dc.lft.to/lastmile_qr_scan", "ios": "https://dc.lft.to/lastmile_qr_scan"}, "name": "f3375d4c5f951c8055ecfb2c9f4f9d0f", "type": "electric_scooter", "lat": 38.90951883333334, "is_disabled": 0}, {"fusion_lat": 0.0, "lon": -77.036628, "is_reserved": 0, "bike_id": "d628f925ae44336b0e0859917c9b5922", "fusion_lon": 0.0, "rental_uris": {"android": "https://dc.lft.to/lastmile_qr_scan", "ios": "https://dc.lft.to/lastmile_qr_scan"}, "name": "d628f925ae44336b0e0859917c9b5922", "type": "electric_scooter", "lat": 38.931552833333335, "is_disabled": 0}, {"fusion_lat": 0.0, "lon": -76.90706533333334, "is_reserved": 0, "bike_id": "84b13a5971cd916de52888cf8f63401b", "fusion_lon": 0.0, "rental_uris": {"android": "https://dc.lft.to/lastmile_qr_scan", "ios": "https://dc.lft.to/lastmile_qr_scan"}, "name": "84b13a5971cd916de52888cf8f63401b", "type": "electric_bike", "lat": 38.89597066666666, "is_disabled": 0}, {"fusion_lat": 0.0, "lon": -77.04406116666667, "is_reserved": 0, "bike_id": "6983d0b57c32e300a5c54687eee1ffe4", "fusion_lon": 0.0, "rental_uris": {"android": "https://dc.lft.to/lastmile_qr_scan", "ios": "https://dc.lft.to/lastmile_qr_scan"}, "name": "6983d0b57c32e300a5c54687eee1ffe4", "type": "electric_scooter", "lat": 38.92448516666666, "is_disabled": 0}, {"fusion_lat": 0.0, "lon": -76.98086016666667, "is_reserved": 0, "bike_id": "6b678efe0f8e932859f234f2055d18b0", "fusion_lon": 0.0, "rental_uris": {"android": "https://dc.lft.to/lastmile_qr_scan", "ios": "https://dc.lft.to/lastmile_qr_scan"}, "name": "6b678efe0f8e932859f234f2055d18b0", "type": "electric_bike", "lat": 38.95353266666667, "is_disabled": 0}, {"fusion_lat": 0.0, "lon": -77.02201466666666, "is_reserved": 0, "bike_id": "b46fb7b004eb6ab8991efea7910e9d05", "fusion_lon": 0.0, "rental_uris": {"android": "https://dc.lft.to/lastmile_qr_scan", "ios": "https://dc.lft.to/lastmile_qr_scan"}, "name": "b46fb7b004eb6ab8991efea7910e9d05", "type": "electric_scooter", "lat": 38.92039966666667, "is_disabled": 0}, {"fusion_lat": 0.0, "lon": -77.02228, "is_reserved": 0, "bike_id": "ffbfef978412fed34dfb4d640481241a", "fusion_lon": 0.0, "rental_uris": {"android": "https://dc.lft.to/lastmile_qr_scan", "ios": "https://dc.lft.to/lastmile_qr_scan"}, "name": "ffbfef978412fed34dfb4d640481241a", "type": "electric_scooter", "lat": 38.92591016666667, "is_disabled": 0}, {"fusion_lat": 0.0, "lon": -76.99037116666666, "is_reserved": 0, "bike_id": "020279611bf33e0711273c2217d45e95", "fusion_lon": 0.0, "rental_uris": {"android": "https://dc.lft.to/lastmile_qr_scan", "ios": "https://dc.lft.to/lastmile_qr_scan"}, "name": "020279611bf33e0711273c2217d45e95", "type": "electric_scooter", "lat": 38.898539166666666, "is_disabled": 0}, {"fusion_lat": 0.0, "lon": -77.03841833333334, "is_reserved": 0, "bike_id": "e25f6403b978d5fb9f9961599b9750d1", "fusion_lon": 0.0, "rental_uris": {"android": "https://dc.lft.to/lastmile_qr_scan", "ios": "https://dc.lft.to/lastmile_qr_scan"}, "name": "e25f6403b978d5fb9f9961599b9750d1", "type": "electric_scooter", "lat": 38.90377483333333, "is_disabled": 0}, {"fusion_lat": 0.0, "lon": -77.01986, "is_reserved": 0, "bike_id": "e3b59ea236823b196443e2cc9ae6a5df", "fusion_lon": 0.0, "rental_uris": {"android": "https://dc.lft.to/lastmile_qr_scan", "ios": "https://dc.lft.to/lastmile_qr_scan"}, "name": "e3b59ea236823b196443e2cc9ae6a5df", "type": "electric_bike", "lat": 38.92270216666667, "is_disabled": 0}, {"fusion_lat": 0.0, "lon": -77.05019333333334, "is_reserved": 0, "bike_id": "c5f7e917d4698dbb44af6e001f3f7ebb", "fusion_lon": 0.0, "rental_uris": {"android": "https://dc.lft.to/lastmile_qr_scan", "ios": "https://dc.lft.to/lastmile_qr_scan"}, "name": "c5f7e917d4698dbb44af6e001f3f7ebb", "type": "electric_scooter", "lat": 38.90287133333333, "is_disabled": 0}, {"fusion_lat": 0.0, "lon": -77.03643616666666, "is_reserved": 0, "bike_id": "e33e34f89eb45ebf6140544857a2c31b", "fusion_lon": 0.0, "rental_uris": {"android": "https://dc.lft.to/lastmile_qr_scan", "ios": "https://dc.lft.to/lastmile_qr_scan"}, "name": "e33e34f89eb45ebf6140544857a2c31b", "type": "electric_scooter", "lat": 38.92263066666667, "is_disabled": 0}, {"fusion_lat": 0.0, "lon": -76.94959116666666, "is_reserved": 0, "bike_id": "e56babbe2f8542348ebc834de8e928d9", "fusion_lon": 0.0, "rental_uris": {"android": "https://dc.lft.to/lastmile_qr_scan", "ios": "https://dc.lft.to/lastmile_qr_scan"}, "name": "e56babbe2f8542348ebc834de8e928d9", "type": "electric_scooter", "lat": 38.90498066666667, "is_disabled": 0}, {"fusion_lat": 0.0, "lon": -77.02168516666667, "is_reserved": 0, "bike_id": "aba675eb87e7ad6077d6614185b73492", "fusion_lon": 0.0, "rental_uris": {"android": "https://dc.lft.to/lastmile_qr_scan", "ios": "https://dc.lft.to/lastmile_qr_scan"}, "name": "aba675eb87e7ad6077d6614185b73492", "type": "electric_scooter", "lat": 38.91608266666667, "is_disabled": 0}, {"fusion_lat": 0.0, "lon": -77.03131733333333, "is_reserved": 0, "bike_id": "f1879c736a62fc9e28e514385f87a57a", "fusion_lon": 0.0, "rental_uris": {"android": "https://dc.lft.to/lastmile_qr_scan", "ios": "https://dc.lft.to/lastmile_qr_scan"}, "name": "f1879c736a62fc9e28e514385f87a57a", "type": "electric_scooter", "lat": 38.914928833333335, "is_disabled": 0}, {"fusion_lat": 0.0, "lon": -77.00193533333334, "is_reserved": 0, "bike_id": "68f76aa8f83d6e1957fca6424353e8d4", "fusion_lon": 0.0, "rental_uris": {"android": "https://dc.lft.to/lastmile_qr_scan", "ios": "https://dc.lft.to/lastmile_qr_scan"}, "name": "68f76aa8f83d6e1957fca6424353e8d4", "type": "electric_scooter", "lat": 38.903757, "is_disabled": 0}, {"fusion_lat": 0.0, "lon": -76.95758883333333, "is_reserved": 0, "bike_id": "6499aee447ca88828ece38f8ba95a9d4", "fusion_lon": 0.0, "rental_uris": {"android": "https://dc.lft.to/lastmile_qr_scan", "ios": "https://dc.lft.to/lastmile_qr_scan"}, "name": "6499aee447ca88828ece38f8ba95a9d4", "type": "electric_scooter", "lat": 38.88432183333333, "is_disabled": 0}, {"fusion_lat": 0.0, "lon": -76.95128183333334, "is_reserved": 0, "bike_id": "3296fa2b33a88585a1b4bd008052169b", "fusion_lon": 0.0, "rental_uris": {"android": "https://dc.lft.to/lastmile_qr_scan", "ios": "https://dc.lft.to/lastmile_qr_scan"}, "name": "3296fa2b33a88585a1b4bd008052169b", "type": "electric_scooter", "lat": 38.89031466666667, "is_disabled": 0}, {"fusion_lat": 0.0, "lon": -77.0471735, "is_reserved": 0, "bike_id": "00ac8143a0bef9a59c491c05d1096264", "fusion_lon": 0.0, "rental_uris": {"android": "https://dc.lft.to/lastmile_qr_scan", "ios": "https://dc.lft.to/lastmile_qr_scan"}, "name": "00ac8143a0bef9a59c491c05d1096264", "type": "electric_scooter", "lat": 38.9222955, "is_disabled": 0}, {"fusion_lat": 0.0, "lon": -77.00738433333333, "is_reserved": 0, "bike_id": "b2334d450fb5d032bad381e5997b2b9a", "fusion_lon": 0.0, "rental_uris": {"android": "https://dc.lft.to/lastmile_qr_scan", "ios": "https://dc.lft.to/lastmile_qr_scan"}, "name": "b2334d450fb5d032bad381e5997b2b9a", "type": "electric_scooter", "lat": 38.925410666666664, "is_disabled": 0}, {"fusion_lat": 0.0, "lon": -77.05001066666667, "is_reserved": 0, "bike_id": "1abc7dee90227f8946be9986f75cb31b", "fusion_lon": 0.0, "rental_uris": {"android": "https://dc.lft.to/lastmile_qr_scan", "ios": "https://dc.lft.to/lastmile_qr_scan"}, "name": "1abc7dee90227f8946be9986f75cb31b", "type": "electric_scooter", "lat": 38.892312, "is_disabled": 0}, {"fusion_lat": 0.0, "lon": -77.08038633333334, "is_reserved": 0, "bike_id": "3c86b0ebb3d4b049cc864fdc674bdd75", "fusion_lon": 0.0, "rental_uris": {"android": "https://dc.lft.to/lastmile_qr_scan", "ios": "https://dc.lft.to/lastmile_qr_scan"}, "name": "3c86b0ebb3d4b049cc864fdc674bdd75", "type": "electric_scooter", "lat": 38.9238915, "is_disabled": 0}, {"fusion_lat": 0.0, "lon": -77.0422555, "is_reserved": 0, "bike_id": "68d1fbe92cbd70f0f6aaf1e39f93fd6c", "fusion_lon": 0.0, "rental_uris": {"android": "https://dc.lft.to/lastmile_qr_scan", "ios": "https://dc.lft.to/lastmile_qr_scan"}, "name": "68d1fbe92cbd70f0f6aaf1e39f93fd6c", "type": "electric_scooter", "lat": 38.92157483333333, "is_disabled": 0}, {"fusion_lat": 0.0, "lon": -77.02905583333333, "is_reserved": 0, "bike_id": "f146ea2c9343c99fa03608ffbe4f57e7", "fusion_lon": 0.0, "rental_uris": {"android": "https://dc.lft.to/lastmile_qr_scan", "ios": "https://dc.lft.to/lastmile_qr_scan"}, "name": "f146ea2c9343c99fa03608ffbe4f57e7", "type": "electric_scooter", "lat": 38.928145, "is_disabled": 0}, {"fusion_lat": 0.0, "lon": -77.04480533333333, "is_reserved": 0, "bike_id": "688a8fed9115d1fbcfc1d085030759ad", "fusion_lon": 0.0, "rental_uris": {"android": "https://dc.lft.to/lastmile_qr_scan", "ios": "https://dc.lft.to/lastmile_qr_scan"}, "name": "688a8fed9115d1fbcfc1d085030759ad", "type": "electric_scooter", "lat": 38.90501916666667, "is_disabled": 0}, {"fusion_lat": 0.0, "lon": -77.02950883333334, "is_reserved": 0, "bike_id": "d2b25b11f0fa0278b49333f29f62d9ca", "fusion_lon": 0.0, "rental_uris": {"android": "https://dc.lft.to/lastmile_qr_scan", "ios": "https://dc.lft.to/lastmile_qr_scan"}, "name": "d2b25b11f0fa0278b49333f29f62d9ca", "type": "electric_scooter", "lat": 38.91682866666667, "is_disabled": 0}, {"fusion_lat": 0.0, "lon": -76.9987765, "is_reserved": 0, "bike_id": "45289a53e1290159ef46be367b3880ee", "fusion_lon": 0.0, "rental_uris": {"android": "https://dc.lft.to/lastmile_qr_scan", "ios": "https://dc.lft.to/lastmile_qr_scan"}, "name": "45289a53e1290159ef46be367b3880ee", "type": "electric_scooter", "lat": 38.90129433333333, "is_disabled": 0}, {"fusion_lat": 0.0, "lon": -77.02201616666666, "is_reserved": 0, "bike_id": "bd44439688f87fca6448cce55ad58093", "fusion_lon": 0.0, "rental_uris": {"android": "https://dc.lft.to/lastmile_qr_scan", "ios": "https://dc.lft.to/lastmile_qr_scan"}, "name": "bd44439688f87fca6448cce55ad58093", "type": "electric_scooter", "lat": 38.92588166666667, "is_disabled": 0}, {"fusion_lat": 0.0, "lon": -77.03884716666667, "is_reserved": 0, "bike_id": "1de08e5cd353aee52d1e2ffaf6cf56d8", "fusion_lon": 0.0, "rental_uris": {"android": "https://dc.lft.to/lastmile_qr_scan", "ios": "https://dc.lft.to/lastmile_qr_scan"}, "name": "1de08e5cd353aee52d1e2ffaf6cf56d8", "type": "electric_scooter", "lat": 38.9147235, "is_disabled": 0}, {"fusion_lat": 0.0, "lon": -77.002021, "is_reserved": 0, "bike_id": "663286fb35eb312cbe91b92395f7e7ba", "fusion_lon": 0.0, "rental_uris": {"android": "https://dc.lft.to/lastmile_qr_scan", "ios": "https://dc.lft.to/lastmile_qr_scan"}, "name": "663286fb35eb312cbe91b92395f7e7ba", "type": "electric_scooter", "lat": 38.90237883333333, "is_disabled": 0}, {"fusion_lat": 0.0, "lon": -76.98020033333333, "is_reserved": 0, "bike_id": "73bc87d4acb27800203d176cc13a8374", "fusion_lon": 0.0, "rental_uris": {"android": "https://dc.lft.to/lastmile_qr_scan", "ios": "https://dc.lft.to/lastmile_qr_scan"}, "name": "73bc87d4acb27800203d176cc13a8374", "type": "electric_scooter", "lat": 38.902957666666666, "is_disabled": 0}, {"fusion_lat": 0.0, "lon": -77.0386275, "is_reserved": 0, "bike_id": "3ad4d49fbfa632f727a631c2a887d008", "fusion_lon": 0.0, "rental_uris": {"android": "https://dc.lft.to/lastmile_qr_scan", "ios": "https://dc.lft.to/lastmile_qr_scan"}, "name": "3ad4d49fbfa632f727a631c2a887d008", "type": "electric_scooter", "lat": 38.906647166666666, "is_disabled": 0}, {"fusion_lat": 0.0, "lon": -77.017663, "is_reserved": 0, "bike_id": "98f2db7f6fc7e3d76285fefaccc19462", "fusion_lon": 0.0, "rental_uris": {"android": "https://dc.lft.to/lastmile_qr_scan", "ios": "https://dc.lft.to/lastmile_qr_scan"}, "name": "98f2db7f6fc7e3d76285fefaccc19462", "type": "electric_scooter", "lat": 38.877045, "is_disabled": 0}, {"fusion_lat": 0.0, "lon": -77.07242216666667, "is_reserved": 0, "bike_id": "ba3fbc159380a1e757d19ba2418d369a", "fusion_lon": 0.0, "rental_uris": {"android": "https://dc.lft.to/lastmile_qr_scan", "ios": "https://dc.lft.to/lastmile_qr_scan"}, "name": "ba3fbc159380a1e757d19ba2418d369a", "type": "electric_scooter", "lat": 38.95965133333333, "is_disabled": 0}, {"fusion_lat": 0.0, "lon": -77.0182005, "is_reserved": 0, "bike_id": "8fb860261d36ed4bf73651a371a25eba", "fusion_lon": 0.0, "rental_uris": {"android": "https://dc.lft.to/lastmile_qr_scan", "ios": "https://dc.lft.to/lastmile_qr_scan"}, "name": "8fb860261d36ed4bf73651a371a25eba", "type": "electric_scooter", "lat": 38.92367516666667, "is_disabled": 0}, {"fusion_lat": 0.0, "lon": -76.9846245, "is_reserved": 0, "bike_id": "a83c04ef95884b7ac05880d6ec368106", "fusion_lon": 0.0, "rental_uris": {"android": "https://dc.lft.to/lastmile_qr_scan", "ios": "https://dc.lft.to/lastmile_qr_scan"}, "name": "a83c04ef95884b7ac05880d6ec368106", "type": "electric_scooter", "lat": 38.9000585, "is_disabled": 0}, {"fusion_lat": 0.0, "lon": -77.00546916666667, "is_reserved": 0, "bike_id": "309e9a91474dc7050f07d60f139d9d80", "fusion_lon": 0.0, "rental_uris": {"android": "https://dc.lft.to/lastmile_qr_scan", "ios": "https://dc.lft.to/lastmile_qr_scan"}, "name": "309e9a91474dc7050f07d60f139d9d80", "type": "electric_scooter", "lat": 38.87544883333333, "is_disabled": 0}, {"fusion_lat": 0.0, "lon": -77.02380816666667, "is_reserved": 0, "bike_id": "94e1735d900d09125b7ff7d31aa18b7e", "fusion_lon": 0.0, "rental_uris": {"android": "https://dc.lft.to/lastmile_qr_scan", "ios": "https://dc.lft.to/lastmile_qr_scan"}, "name": "94e1735d900d09125b7ff7d31aa18b7e", "type": "electric_scooter", "lat": 38.929063666666664, "is_disabled": 0}, {"fusion_lat": 0.0, "lon": -77.01257266666667, "is_reserved": 0, "bike_id": "3bfa24473f2058220576a49ff5475c0a", "fusion_lon": 0.0, "rental_uris": {"android": "https://dc.lft.to/lastmile_qr_scan", "ios": "https://dc.lft.to/lastmile_qr_scan"}, "name": "3bfa24473f2058220576a49ff5475c0a", "type": "electric_scooter", "lat": 38.90843916666667, "is_disabled": 0}, {"fusion_lat": 0.0, "lon": -77.04551166666667, "is_reserved": 0, "bike_id": "f6c5af293967ef2f10d4b06e419ee2ce", "fusion_lon": 0.0, "rental_uris": {"android": "https://dc.lft.to/lastmile_qr_scan", "ios": "https://dc.lft.to/lastmile_qr_scan"}, "name": "f6c5af293967ef2f10d4b06e419ee2ce", "type": "electric_scooter", "lat": 38.909529166666665, "is_disabled": 0}, {"fusion_lat": 0.0, "lon": -77.051365, "is_reserved": 0, "bike_id": "f6a6ee9df92613bfe75956e31d6cc78a", "fusion_lon": 0.0, "rental_uris": {"android": "https://dc.lft.to/lastmile_qr_scan", "ios": "https://dc.lft.to/lastmile_qr_scan"}, "name": "f6a6ee9df92613bfe75956e31d6cc78a", "type": "electric_scooter", "lat": 38.8976795, "is_disabled": 0}, {"fusion_lat": 0.0, "lon": -77.000649, "is_reserved": 0, "bike_id": "12447005442b22e4a5e1b46e1f3e14da", "fusion_lon": 0.0, "rental_uris": {"android": "https://dc.lft.to/lastmile_qr_scan", "ios": "https://dc.lft.to/lastmile_qr_scan"}, "name": "12447005442b22e4a5e1b46e1f3e14da", "type": "electric_scooter", "lat": 38.90049583333333, "is_disabled": 0}, {"fusion_lat": 0.0, "lon": -77.03832216666666, "is_reserved": 0, "bike_id": "6dc54cca4e3a1ffa361a73a438a70c37", "fusion_lon": 0.0, "rental_uris": {"android": "https://dc.lft.to/lastmile_qr_scan", "ios": "https://dc.lft.to/lastmile_qr_scan"}, "name": "6dc54cca4e3a1ffa361a73a438a70c37", "type": "electric_scooter", "lat": 38.9113295, "is_disabled": 0}, {"fusion_lat": 0.0, "lon": -77.03175016666667, "is_reserved": 0, "bike_id": "fc9643d92e92f2fd67b8c8731ec33ce4", "fusion_lon": 0.0, "rental_uris": {"android": "https://dc.lft.to/lastmile_qr_scan", "ios": "https://dc.lft.to/lastmile_qr_scan"}, "name": "fc9643d92e92f2fd67b8c8731ec33ce4", "type": "electric_scooter", "lat": 38.91555616666667, "is_disabled": 0}, {"fusion_lat": 0.0, "lon": -77.04424383333334, "is_reserved": 0, "bike_id": "409e59db3aaf5a45b8f661eb2483b4a6", "fusion_lon": 0.0, "rental_uris": {"android": "https://dc.lft.to/lastmile_qr_scan", "ios": "https://dc.lft.to/lastmile_qr_scan"}, "name": "409e59db3aaf5a45b8f661eb2483b4a6", "type": "electric_scooter", "lat": 38.91361, "is_disabled": 0}, {"fusion_lat": 0.0, "lon": -77.03789683333333, "is_reserved": 0, "bike_id": "517871cd50d7d571df4050757de2f323", "fusion_lon": 0.0, "rental_uris": {"android": "https://dc.lft.to/lastmile_qr_scan", "ios": "https://dc.lft.to/lastmile_qr_scan"}, "name": "517871cd50d7d571df4050757de2f323", "type": "electric_scooter", "lat": 38.9250585, "is_disabled": 0}, {"fusion_lat": 0.0, "lon": -77.001962, "is_reserved": 0, "bike_id": "5df8402924d6ca06a035fba8455196e0", "fusion_lon": 0.0, "rental_uris": {"android": "https://dc.lft.to/lastmile_qr_scan", "ios": "https://dc.lft.to/lastmile_qr_scan"}, "name": "5df8402924d6ca06a035fba8455196e0", "type": "electric_scooter", "lat": 38.90376833333333, "is_disabled": 0}, {"fusion_lat": 0.0, "lon": -77.0320825, "is_reserved": 0, "bike_id": "d9a9c066a49ac1c08f1c3a86effcc567", "fusion_lon": 0.0, "rental_uris": {"android": "https://dc.lft.to/lastmile_qr_scan", "ios": "https://dc.lft.to/lastmile_qr_scan"}, "name": "d9a9c066a49ac1c08f1c3a86effcc567", "type": "electric_scooter", "lat": 38.91497, "is_disabled": 0}, {"fusion_lat": 0.0, "lon": -77.012222, "is_reserved": 0, "bike_id": "064e5efc6d6cf503e0baf2f30029ec6d", "fusion_lon": 0.0, "rental_uris": {"android": "https://dc.lft.to/lastmile_qr_scan", "ios": "https://dc.lft.to/lastmile_qr_scan"}, "name": "064e5efc6d6cf503e0baf2f30029ec6d", "type": "electric_scooter", "lat": 38.915209, "is_disabled": 0}, {"fusion_lat": 0.0, "lon": -77.072746, "is_reserved": 0, "bike_id": "216a003b83d3b86f6622857866124819", "fusion_lon": 0.0, "rental_uris": {"android": "https://dc.lft.to/lastmile_qr_scan", "ios": "https://dc.lft.to/lastmile_qr_scan"}, "name": "216a003b83d3b86f6622857866124819", "type": "electric_scooter", "lat": 38.93485316666667, "is_disabled": 0}, {"fusion_lat": 0.0, "lon": -77.02931033333333, "is_reserved": 0, "bike_id": "4a47407800411e00db4a5d67f56c6139", "fusion_lon": 0.0, "rental_uris": {"android": "https://dc.lft.to/lastmile_qr_scan", "ios": "https://dc.lft.to/lastmile_qr_scan"}, "name": "4a47407800411e00db4a5d67f56c6139", "type": "electric_scooter", "lat": 38.932485166666666, "is_disabled": 0}, {"fusion_lat": 0.0, "lon": -77.01494616666666, "is_reserved": 0, "bike_id": "a5e17765aa30c22cf0198e0faeac54f4", "fusion_lon": 0.0, "rental_uris": {"android": "https://dc.lft.to/lastmile_qr_scan", "ios": "https://dc.lft.to/lastmile_qr_scan"}, "name": "a5e17765aa30c22cf0198e0faeac54f4", "type": "electric_scooter", "lat": 38.9177135, "is_disabled": 0}, {"fusion_lat": 0.0, "lon": -76.987423, "is_reserved": 0, "bike_id": "f2fd229cda778ce2302fefbdd110aafe", "fusion_lon": 0.0, "rental_uris": {"android": "https://dc.lft.to/lastmile_qr_scan", "ios": "https://dc.lft.to/lastmile_qr_scan"}, "name": "f2fd229cda778ce2302fefbdd110aafe", "type": "electric_scooter", "lat": 38.886101333333336, "is_disabled": 0}, {"fusion_lat": 0.0, "lon": -77.03769766666667, "is_reserved": 0, "bike_id": "3b9e5f40bae7a49b49f094e22f60ca41", "fusion_lon": 0.0, "rental_uris": {"android": "https://dc.lft.to/lastmile_qr_scan", "ios": "https://dc.lft.to/lastmile_qr_scan"}, "name": "3b9e5f40bae7a49b49f094e22f60ca41", "type": "electric_scooter", "lat": 38.91678916666667, "is_disabled": 0}, {"fusion_lat": 0.0, "lon": -77.048446, "is_reserved": 0, "bike_id": "c12de42db66a22c3aa79e97a181b87f8", "fusion_lon": 0.0, "rental_uris": {"android": "https://dc.lft.to/lastmile_qr_scan", "ios": "https://dc.lft.to/lastmile_qr_scan"}, "name": "c12de42db66a22c3aa79e97a181b87f8", "type": "electric_scooter", "lat": 38.91973266666667, "is_disabled": 0}, {"fusion_lat": 0.0, "lon": -77.02806016666666, "is_reserved": 0, "bike_id": "8aaace4c579bec787d2eeb66d77082da", "fusion_lon": 0.0, "rental_uris": {"android": "https://dc.lft.to/lastmile_qr_scan", "ios": "https://dc.lft.to/lastmile_qr_scan"}, "name": "8aaace4c579bec787d2eeb66d77082da", "type": "electric_scooter", "lat": 38.89229666666667, "is_disabled": 0}, {"fusion_lat": 0.0, "lon": -77.019961, "is_reserved": 0, "bike_id": "30eeae1437d5a707c08ba3449caeacd9", "fusion_lon": 0.0, "rental_uris": {"android": "https://dc.lft.to/lastmile_qr_scan", "ios": "https://dc.lft.to/lastmile_qr_scan"}, "name": "30eeae1437d5a707c08ba3449caeacd9", "type": "electric_scooter", "lat": 38.87588916666667, "is_disabled": 0}, {"fusion_lat": 0.0, "lon": -77.02165466666666, "is_reserved": 0, "bike_id": "9420b7efdb611a531f7f254e06ceb934", "fusion_lon": 0.0, "rental_uris": {"android": "https://dc.lft.to/lastmile_qr_scan", "ios": "https://dc.lft.to/lastmile_qr_scan"}, "name": "9420b7efdb611a531f7f254e06ceb934", "type": "electric_scooter", "lat": 38.9019285, "is_disabled": 0}, {"fusion_lat": 0.0, "lon": -76.98886316666666, "is_reserved": 0, "bike_id": "05a65a0a8ca572929521f0e5be72a1e4", "fusion_lon": 0.0, "rental_uris": {"android": "https://dc.lft.to/lastmile_qr_scan", "ios": "https://dc.lft.to/lastmile_qr_scan"}, "name": "05a65a0a8ca572929521f0e5be72a1e4", "type": "electric_scooter", "lat": 38.866595333333336, "is_disabled": 0}, {"fusion_lat": 0.0, "lon": -77.0240415, "is_reserved": 0, "bike_id": "f12f55889dd2286a7a66fcdafbd54d5c", "fusion_lon": 0.0, "rental_uris": {"android": "https://dc.lft.to/lastmile_qr_scan", "ios": "https://dc.lft.to/lastmile_qr_scan"}, "name": "f12f55889dd2286a7a66fcdafbd54d5c", "type": "electric_scooter", "lat": 38.937031833333336, "is_disabled": 0}, {"fusion_lat": 0.0, "lon": -77.043788, "is_reserved": 0, "bike_id": "f6d1cc2eda32dbf3c9acb577cb115bf0", "fusion_lon": 0.0, "rental_uris": {"android": "https://dc.lft.to/lastmile_qr_scan", "ios": "https://dc.lft.to/lastmile_qr_scan"}, "name": "f6d1cc2eda32dbf3c9acb577cb115bf0", "type": "electric_scooter", "lat": 38.922308, "is_disabled": 0}, {"fusion_lat": 0.0, "lon": -77.0280175, "is_reserved": 0, "bike_id": "1b089db7fc5bef7dc30a5621eef81e97", "fusion_lon": 0.0, "rental_uris": {"android": "https://dc.lft.to/lastmile_qr_scan", "ios": "https://dc.lft.to/lastmile_qr_scan"}, "name": "1b089db7fc5bef7dc30a5621eef81e97", "type": "electric_scooter", "lat": 38.93076766666667, "is_disabled": 0}, {"fusion_lat": 0.0, "lon": -76.98832833333333, "is_reserved": 0, "bike_id": "f78df2ed48bbe2ce3dfcaf29afba7b32", "fusion_lon": 0.0, "rental_uris": {"android": "https://dc.lft.to/lastmile_qr_scan", "ios": "https://dc.lft.to/lastmile_qr_scan"}, "name": "f78df2ed48bbe2ce3dfcaf29afba7b32", "type": "electric_scooter", "lat": 38.90038933333334, "is_disabled": 0}, {"fusion_lat": 0.0, "lon": -76.91608083333334, "is_reserved": 0, "bike_id": "e1ba8629bc4fa3db337818016e6c5481", "fusion_lon": 0.0, "rental_uris": {"android": "https://dc.lft.to/lastmile_qr_scan", "ios": "https://dc.lft.to/lastmile_qr_scan"}, "name": "e1ba8629bc4fa3db337818016e6c5481", "type": "electric_bike", "lat": 38.879650833333336, "is_disabled": 0}, {"fusion_lat": 0.0, "lon": -76.98381016666667, "is_reserved": 0, "bike_id": "eb859979c81beabf6e33fe4f043fb5cb", "fusion_lon": 0.0, "rental_uris": {"android": "https://dc.lft.to/lastmile_qr_scan", "ios": "https://dc.lft.to/lastmile_qr_scan"}, "name": "eb859979c81beabf6e33fe4f043fb5cb", "type": "electric_scooter", "lat": 38.86122016666667, "is_disabled": 0}, {"fusion_lat": 0.0, "lon": -77.01891316666666, "is_reserved": 0, "bike_id": "1564406e6028f63b3787923558092136", "fusion_lon": 0.0, "rental_uris": {"android": "https://dc.lft.to/lastmile_qr_scan", "ios": "https://dc.lft.to/lastmile_qr_scan"}, "name": "1564406e6028f63b3787923558092136", "type": "electric_scooter", "lat": 38.904500666666664, "is_disabled": 0}, {"fusion_lat": 0.0, "lon": -77.02212083333333, "is_reserved": 0, "bike_id": "4471f7df63da4f96d480d130dbfdd746", "fusion_lon": 0.0, "rental_uris": {"android": "https://dc.lft.to/lastmile_qr_scan", "ios": "https://dc.lft.to/lastmile_qr_scan"}, "name": "4471f7df63da4f96d480d130dbfdd746", "type": "electric_scooter", "lat": 38.901884833333334, "is_disabled": 0}, {"fusion_lat": 0.0, "lon": -77.03273783333333, "is_reserved": 0, "bike_id": "c3cab67acf9b224723f8161dac17f1f6", "fusion_lon": 0.0, "rental_uris": {"android": "https://dc.lft.to/lastmile_qr_scan", "ios": "https://dc.lft.to/lastmile_qr_scan"}, "name": "c3cab67acf9b224723f8161dac17f1f6", "type": "electric_scooter", "lat": 38.92844316666667, "is_disabled": 0}, {"fusion_lat": 0.0, "lon": -77.01981716666667, "is_reserved": 0, "bike_id": "2e902064b785e0222be627d51545b5dc", "fusion_lon": 0.0, "rental_uris": {"android": "https://dc.lft.to/lastmile_qr_scan", "ios": "https://dc.lft.to/lastmile_qr_scan"}, "name": "2e902064b785e0222be627d51545b5dc", "type": "electric_scooter", "lat": 38.8858575, "is_disabled": 0}, {"fusion_lat": 0.0, "lon": -77.04869916666667, "is_reserved": 0, "bike_id": "6aeb5ae39ca5341c85f24d04a3e4d879", "fusion_lon": 0.0, "rental_uris": {"android": "https://dc.lft.to/lastmile_qr_scan", "ios": "https://dc.lft.to/lastmile_qr_scan"}, "name": "6aeb5ae39ca5341c85f24d04a3e4d879", "type": "electric_scooter", "lat": 38.9011385, "is_disabled": 0}, {"fusion_lat": 0.0, "lon": -76.99607583333334, "is_reserved": 0, "bike_id": "4790ae7a644cbadf4d9ceb37cfa37528", "fusion_lon": 0.0, "rental_uris": {"android": "https://dc.lft.to/lastmile_qr_scan", "ios": "https://dc.lft.to/lastmile_qr_scan"}, "name": "4790ae7a644cbadf4d9ceb37cfa37528", "type": "electric_scooter", "lat": 38.88559433333333, "is_disabled": 0}, {"fusion_lat": 0.0, "lon": -76.98590233333333, "is_reserved": 0, "bike_id": "d9cee1099f68529d397032a69575e053", "fusion_lon": 0.0, "rental_uris": {"android": "https://dc.lft.to/lastmile_qr_scan", "ios": "https://dc.lft.to/lastmile_qr_scan"}, "name": "d9cee1099f68529d397032a69575e053", "type": "electric_scooter", "lat": 38.90645133333334, "is_disabled": 0}, {"fusion_lat": 0.0, "lon": -77.0877585, "is_reserved": 0, "bike_id": "9fd373e4cd2657964b1560e5f9fd46ba", "fusion_lon": 0.0, "rental_uris": {"android": "https://dc.lft.to/lastmile_qr_scan", "ios": "https://dc.lft.to/lastmile_qr_scan"}, "name": "9fd373e4cd2657964b1560e5f9fd46ba", "type": "electric_bike", "lat": 38.838984833333335, "is_disabled": 0}, {"fusion_lat": 0.0, "lon": -76.977126, "is_reserved": 0, "bike_id": "d204e814716d6cc5a23e5f7b239cc726", "fusion_lon": 0.0, "rental_uris": {"android": "https://dc.lft.to/lastmile_qr_scan", "ios": "https://dc.lft.to/lastmile_qr_scan"}, "name": "d204e814716d6cc5a23e5f7b239cc726", "type": "electric_scooter", "lat": 38.88774433333333, "is_disabled": 0}, {"fusion_lat": 0.0, "lon": -77.00795833333333, "is_reserved": 0, "bike_id": "f3f3f7e023cf7d62f201549d759cd798", "fusion_lon": 0.0, "rental_uris": {"android": "https://dc.lft.to/lastmile_qr_scan", "ios": "https://dc.lft.to/lastmile_qr_scan"}, "name": "f3f3f7e023cf7d62f201549d759cd798", "type": "electric_scooter", "lat": 38.89644283333333, "is_disabled": 0}, {"fusion_lat": 0.0, "lon": -77.0175555, "is_reserved": 0, "bike_id": "ce9f5b926a4026895a5ff9e4d8140968", "fusion_lon": 0.0, "rental_uris": {"android": "https://dc.lft.to/lastmile_qr_scan", "ios": "https://dc.lft.to/lastmile_qr_scan"}, "name": "ce9f5b926a4026895a5ff9e4d8140968", "type": "electric_scooter", "lat": 38.8945735, "is_disabled": 0}, {"fusion_lat": 0.0, "lon": -77.07234966666667, "is_reserved": 0, "bike_id": "1ec1082d8a84820194b1d00d4f08daa3", "fusion_lon": 0.0, "rental_uris": {"android": "https://dc.lft.to/lastmile_qr_scan", "ios": "https://dc.lft.to/lastmile_qr_scan"}, "name": "1ec1082d8a84820194b1d00d4f08daa3", "type": "electric_scooter", "lat": 38.94006483333333, "is_disabled": 0}, {"fusion_lat": 0.0, "lon": -76.97871433333333, "is_reserved": 0, "bike_id": "95c3c3fa3cf54b6999248f6006005b36", "fusion_lon": 0.0, "rental_uris": {"android": "https://dc.lft.to/lastmile_qr_scan", "ios": "https://dc.lft.to/lastmile_qr_scan"}, "name": "95c3c3fa3cf54b6999248f6006005b36", "type": "electric_scooter", "lat": 38.883032166666666, "is_disabled": 0}, {"fusion_lat": 0.0, "lon": -77.00367216666666, "is_reserved": 0, "bike_id": "b582ec110e24194605df71763ba74988", "fusion_lon": 0.0, "rental_uris": {"android": "https://dc.lft.to/lastmile_qr_scan", "ios": "https://dc.lft.to/lastmile_qr_scan"}, "name": "b582ec110e24194605df71763ba74988", "type": "electric_scooter", "lat": 38.897296, "is_disabled": 0}, {"fusion_lat": 0.0, "lon": -77.0271505, "is_reserved": 0, "bike_id": "671733067a6ea77c905c76e9c55a34b3", "fusion_lon": 0.0, "rental_uris": {"android": "https://dc.lft.to/lastmile_qr_scan", "ios": "https://dc.lft.to/lastmile_qr_scan"}, "name": "671733067a6ea77c905c76e9c55a34b3", "type": "electric_scooter", "lat": 38.897345, "is_disabled": 0}, {"fusion_lat": 0.0, "lon": -77.02653316666667, "is_reserved": 0, "bike_id": "08fddfd5a8301b99833033db1bf4a0ee", "fusion_lon": 0.0, "rental_uris": {"android": "https://dc.lft.to/lastmile_qr_scan", "ios": "https://dc.lft.to/lastmile_qr_scan"}, "name": "08fddfd5a8301b99833033db1bf4a0ee", "type": "electric_scooter", "lat": 38.9780995, "is_disabled": 0}, {"fusion_lat": 0.0, "lon": -77.02311483333334, "is_reserved": 0, "bike_id": "d6ce16486005c32dfb4762187d668b61", "fusion_lon": 0.0, "rental_uris": {"android": "https://dc.lft.to/lastmile_qr_scan", "ios": "https://dc.lft.to/lastmile_qr_scan"}, "name": "d6ce16486005c32dfb4762187d668b61", "type": "electric_scooter", "lat": 38.917600666666665, "is_disabled": 0}, {"fusion_lat": 0.0, "lon": -76.96774583333334, "is_reserved": 0, "bike_id": "3442cd73d863ffba69064dd27099d6f7", "fusion_lon": 0.0, "rental_uris": {"android": "https://dc.lft.to/lastmile_qr_scan", "ios": "https://dc.lft.to/lastmile_qr_scan"}, "name": "3442cd73d863ffba69064dd27099d6f7", "type": "electric_scooter", "lat": 38.859230333333336, "is_disabled": 0}, {"fusion_lat": 0.0, "lon": -76.99518616666667, "is_reserved": 0, "bike_id": "34e8db4117dc227a8250bdce365fb89a", "fusion_lon": 0.0, "rental_uris": {"android": "https://dc.lft.to/lastmile_qr_scan", "ios": "https://dc.lft.to/lastmile_qr_scan"}, "name": "34e8db4117dc227a8250bdce365fb89a", "type": "electric_scooter", "lat": 38.895441166666664, "is_disabled": 0}, {"fusion_lat": 0.0, "lon": -77.0505835, "is_reserved": 0, "bike_id": "e03fb36f6abf682e581448c4f943d71f", "fusion_lon": 0.0, "rental_uris": {"android": "https://dc.lft.to/lastmile_qr_scan", "ios": "https://dc.lft.to/lastmile_qr_scan"}, "name": "e03fb36f6abf682e581448c4f943d71f", "type": "electric_scooter", "lat": 38.905380666666666, "is_disabled": 0}, {"fusion_lat": 0.0, "lon": -77.019699, "is_reserved": 0, "bike_id": "be4a278169d048ae10d3cd8283f8fd38", "fusion_lon": 0.0, "rental_uris": {"android": "https://dc.lft.to/lastmile_qr_scan", "ios": "https://dc.lft.to/lastmile_qr_scan"}, "name": "be4a278169d048ae10d3cd8283f8fd38", "type": "electric_scooter", "lat": 38.950195666666666, "is_disabled": 0}, {"fusion_lat": 0.0, "lon": -77.03848816666667, "is_reserved": 0, "bike_id": "24b6aeb6aaff4bbc8e1a359b9f3ab709", "fusion_lon": 0.0, "rental_uris": {"android": "https://dc.lft.to/lastmile_qr_scan", "ios": "https://dc.lft.to/lastmile_qr_scan"}, "name": "24b6aeb6aaff4bbc8e1a359b9f3ab709", "type": "electric_scooter", "lat": 38.921640833333335, "is_disabled": 0}, {"fusion_lat": 0.0, "lon": -77.0236175, "is_reserved": 0, "bike_id": "24f9567eb41c458e355d3b0b59539085", "fusion_lon": 0.0, "rental_uris": {"android": "https://dc.lft.to/lastmile_qr_scan", "ios": "https://dc.lft.to/lastmile_qr_scan"}, "name": "24f9567eb41c458e355d3b0b59539085", "type": "electric_scooter", "lat": 38.89218283333334, "is_disabled": 0}, {"fusion_lat": 0.0, "lon": -77.05008433333333, "is_reserved": 0, "bike_id": "6b48f420a7b8185052c61b3d174dea07", "fusion_lon": 0.0, "rental_uris": {"android": "https://dc.lft.to/lastmile_qr_scan", "ios": "https://dc.lft.to/lastmile_qr_scan"}, "name": "6b48f420a7b8185052c61b3d174dea07", "type": "electric_scooter", "lat": 38.90551416666667, "is_disabled": 0}, {"fusion_lat": 0.0, "lon": -77.03008916666667, "is_reserved": 0, "bike_id": "56b0ffdf88f0044c5bc22bc1e665bf47", "fusion_lon": 0.0, "rental_uris": {"android": "https://dc.lft.to/lastmile_qr_scan", "ios": "https://dc.lft.to/lastmile_qr_scan"}, "name": "56b0ffdf88f0044c5bc22bc1e665bf47", "type": "electric_scooter", "lat": 38.926675, "is_disabled": 0}, {"fusion_lat": 0.0, "lon": -77.0198915, "is_reserved": 0, "bike_id": "55d524fd7911e852f6e1c1e2945bde09", "fusion_lon": 0.0, "rental_uris": {"android": "https://dc.lft.to/lastmile_qr_scan", "ios": "https://dc.lft.to/lastmile_qr_scan"}, "name": "55d524fd7911e852f6e1c1e2945bde09", "type": "electric_scooter", "lat": 38.88582533333334, "is_disabled": 0}, {"fusion_lat": 0.0, "lon": -77.06326716666666, "is_reserved": 0, "bike_id": "8abb04c03c9b033e42791461babf4f55", "fusion_lon": 0.0, "rental_uris": {"android": "https://dc.lft.to/lastmile_qr_scan", "ios": "https://dc.lft.to/lastmile_qr_scan"}, "name": "8abb04c03c9b033e42791461babf4f55", "type": "electric_scooter", "lat": 38.94413383333333, "is_disabled": 0}, {"fusion_lat": 0.0, "lon": -76.95409066666667, "is_reserved": 0, "bike_id": "906a1bdb4a1ab58f11aaf2ed5e2643e9", "fusion_lon": 0.0, "rental_uris": {"android": "https://dc.lft.to/lastmile_qr_scan", "ios": "https://dc.lft.to/lastmile_qr_scan"}, "name": "906a1bdb4a1ab58f11aaf2ed5e2643e9", "type": "electric_scooter", "lat": 38.884701666666665, "is_disabled": 0}, {"fusion_lat": 0.0, "lon": -77.02703766666667, "is_reserved": 0, "bike_id": "af1cd9fef0a3a07b2930be272aa8c2b5", "fusion_lon": 0.0, "rental_uris": {"android": "https://dc.lft.to/lastmile_qr_scan", "ios": "https://dc.lft.to/lastmile_qr_scan"}, "name": "af1cd9fef0a3a07b2930be272aa8c2b5", "type": "electric_scooter", "lat": 38.90664916666667, "is_disabled": 0}, {"fusion_lat": 0.0, "lon": -77.02973, "is_reserved": 0, "bike_id": "1bdac7d960bbb2f66ce4195fcd39c1c8", "fusion_lon": 0.0, "rental_uris": {"android": "https://dc.lft.to/lastmile_qr_scan", "ios": "https://dc.lft.to/lastmile_qr_scan"}, "name": "1bdac7d960bbb2f66ce4195fcd39c1c8", "type": "electric_scooter", "lat": 38.90492666666667, "is_disabled": 0}, {"fusion_lat": 0.0, "lon": -77.05901283333333, "is_reserved": 0, "bike_id": "b7320a45887962e79e36f80dbf0fed5d", "fusion_lon": 0.0, "rental_uris": {"android": "https://dc.lft.to/lastmile_qr_scan", "ios": "https://dc.lft.to/lastmile_qr_scan"}, "name": "b7320a45887962e79e36f80dbf0fed5d", "type": "electric_scooter", "lat": 38.9015695, "is_disabled": 0}, {"fusion_lat": 0.0, "lon": -77.05490216666666, "is_reserved": 0, "bike_id": "156b2bb5351284c717f3b12c48871417", "fusion_lon": 0.0, "rental_uris": {"android": "https://dc.lft.to/lastmile_qr_scan", "ios": "https://dc.lft.to/lastmile_qr_scan"}, "name": "156b2bb5351284c717f3b12c48871417", "type": "electric_scooter", "lat": 38.893846333333336, "is_disabled": 0}, {"fusion_lat": 0.0, "lon": -76.98715116666666, "is_reserved": 0, "bike_id": "94e27d0d95978ce14b580231853e4fb1", "fusion_lon": 0.0, "rental_uris": {"android": "https://dc.lft.to/lastmile_qr_scan", "ios": "https://dc.lft.to/lastmile_qr_scan"}, "name": "94e27d0d95978ce14b580231853e4fb1", "type": "electric_scooter", "lat": 38.866264666666666, "is_disabled": 0}, {"fusion_lat": 0.0, "lon": -76.97478716666667, "is_reserved": 0, "bike_id": "fea9b606a0360006d880a3f69adde40b", "fusion_lon": 0.0, "rental_uris": {"android": "https://dc.lft.to/lastmile_qr_scan", "ios": "https://dc.lft.to/lastmile_qr_scan"}, "name": "fea9b606a0360006d880a3f69adde40b", "type": "electric_scooter", "lat": 38.903507166666664, "is_disabled": 0}, {"fusion_lat": 0.0, "lon": -77.0233685, "is_reserved": 0, "bike_id": "5c6d413ea6386f0a8f65a0e9829cb1bf", "fusion_lon": 0.0, "rental_uris": {"android": "https://dc.lft.to/lastmile_qr_scan", "ios": "https://dc.lft.to/lastmile_qr_scan"}, "name": "5c6d413ea6386f0a8f65a0e9829cb1bf", "type": "electric_scooter", "lat": 38.92478766666667, "is_disabled": 0}, {"fusion_lat": 0.0, "lon": -77.04208133333333, "is_reserved": 0, "bike_id": "1815c6041cda103f065fd892b147868e", "fusion_lon": 0.0, "rental_uris": {"android": "https://dc.lft.to/lastmile_qr_scan", "ios": "https://dc.lft.to/lastmile_qr_scan"}, "name": "1815c6041cda103f065fd892b147868e", "type": "electric_scooter", "lat": 38.906686666666666, "is_disabled": 0}, {"fusion_lat": 0.0, "lon": -77.04041316666667, "is_reserved": 0, "bike_id": "59826df221f7a3fa399abab995c0865d", "fusion_lon": 0.0, "rental_uris": {"android": "https://dc.lft.to/lastmile_qr_scan", "ios": "https://dc.lft.to/lastmile_qr_scan"}, "name": "59826df221f7a3fa399abab995c0865d", "type": "electric_scooter", "lat": 38.918604333333334, "is_disabled": 0}, {"fusion_lat": 0.0, "lon": -76.99019483333333, "is_reserved": 0, "bike_id": "00e4d3c5e7339b0c86e411aecc54c356", "fusion_lon": 0.0, "rental_uris": {"android": "https://dc.lft.to/lastmile_qr_scan", "ios": "https://dc.lft.to/lastmile_qr_scan"}, "name": "00e4d3c5e7339b0c86e411aecc54c356", "type": "electric_scooter", "lat": 38.866417, "is_disabled": 0}, {"fusion_lat": 0.0, "lon": -77.04879883333334, "is_reserved": 0, "bike_id": "5b3eb6a9a0853a51a7c276c5e473c515", "fusion_lon": 0.0, "rental_uris": {"android": "https://dc.lft.to/lastmile_qr_scan", "ios": "https://dc.lft.to/lastmile_qr_scan"}, "name": "5b3eb6a9a0853a51a7c276c5e473c515", "type": "electric_scooter", "lat": 38.909752, "is_disabled": 0}, {"fusion_lat": 0.0, "lon": -77.02809816666667, "is_reserved": 0, "bike_id": "a191872eac14162cea8ed6dccef21ffb", "fusion_lon": 0.0, "rental_uris": {"android": "https://dc.lft.to/lastmile_qr_scan", "ios": "https://dc.lft.to/lastmile_qr_scan"}, "name": "a191872eac14162cea8ed6dccef21ffb", "type": "electric_scooter", "lat": 38.8952335, "is_disabled": 0}, {"fusion_lat": 0.0, "lon": -77.02838133333333, "is_reserved": 0, "bike_id": "2a59fb077e062a68fe35774225f03e64", "fusion_lon": 0.0, "rental_uris": {"android": "https://dc.lft.to/lastmile_qr_scan", "ios": "https://dc.lft.to/lastmile_qr_scan"}, "name": "2a59fb077e062a68fe35774225f03e64", "type": "electric_scooter", "lat": 39.037447666666665, "is_disabled": 0}, {"fusion_lat": 0.0, "lon": -77.00682666666667, "is_reserved": 0, "bike_id": "8528d29f50186a88abd137c2f2774295", "fusion_lon": 0.0, "rental_uris": {"android": "https://dc.lft.to/lastmile_qr_scan", "ios": "https://dc.lft.to/lastmile_qr_scan"}, "name": "8528d29f50186a88abd137c2f2774295", "type": "electric_scooter", "lat": 38.900080833333334, "is_disabled": 0}, {"fusion_lat": 0.0, "lon": -77.07355183333334, "is_reserved": 0, "bike_id": "a3350f153571bbc17e366546efdc7f7f", "fusion_lon": 0.0, "rental_uris": {"android": "https://dc.lft.to/lastmile_qr_scan", "ios": "https://dc.lft.to/lastmile_qr_scan"}, "name": "a3350f153571bbc17e366546efdc7f7f", "type": "electric_scooter", "lat": 38.933552166666665, "is_disabled": 0}, {"fusion_lat": 0.0, "lon": -76.9876775, "is_reserved": 0, "bike_id": "e45b6de850d79703320c0fd583bd01a1", "fusion_lon": 0.0, "rental_uris": {"android": "https://dc.lft.to/lastmile_qr_scan", "ios": "https://dc.lft.to/lastmile_qr_scan"}, "name": "e45b6de850d79703320c0fd583bd01a1", "type": "electric_bike", "lat": 38.857688333333336, "is_disabled": 0}, {"fusion_lat": 0.0, "lon": -76.974239, "is_reserved": 0, "bike_id": "5c0a21a67bb087a4f94514faa3fc52b0", "fusion_lon": 0.0, "rental_uris": {"android": "https://dc.lft.to/lastmile_qr_scan", "ios": "https://dc.lft.to/lastmile_qr_scan"}, "name": "5c0a21a67bb087a4f94514faa3fc52b0", "type": "electric_scooter", "lat": 38.90451766666666, "is_disabled": 0}, {"fusion_lat": 0.0, "lon": -77.0488105, "is_reserved": 0, "bike_id": "95ad077351797ab11b84c6d9deb662c4", "fusion_lon": 0.0, "rental_uris": {"android": "https://dc.lft.to/lastmile_qr_scan", "ios": "https://dc.lft.to/lastmile_qr_scan"}, "name": "95ad077351797ab11b84c6d9deb662c4", "type": "electric_scooter", "lat": 38.91566433333333, "is_disabled": 0}, {"fusion_lat": 0.0, "lon": -77.0807285, "is_reserved": 0, "bike_id": "beae3d56cda2d9ef50df4cbc11d7cf5a", "fusion_lon": 0.0, "rental_uris": {"android": "https://dc.lft.to/lastmile_qr_scan", "ios": "https://dc.lft.to/lastmile_qr_scan"}, "name": "beae3d56cda2d9ef50df4cbc11d7cf5a", "type": "electric_bike", "lat": 39.052826, "is_disabled": 0}, {"fusion_lat": 0.0, "lon": -77.03426533333334, "is_reserved": 0, "bike_id": "7ef718711cf2aa8215071cfc1ffd7b2b", "fusion_lon": 0.0, "rental_uris": {"android": "https://dc.lft.to/lastmile_qr_scan", "ios": "https://dc.lft.to/lastmile_qr_scan"}, "name": "7ef718711cf2aa8215071cfc1ffd7b2b", "type": "electric_bike", "lat": 38.966182333333336, "is_disabled": 0}, {"fusion_lat": 0.0, "lon": -77.019362, "is_reserved": 0, "bike_id": "a54659512f1e6da8d3705bf882aeeb93", "fusion_lon": 0.0, "rental_uris": {"android": "https://dc.lft.to/lastmile_qr_scan", "ios": "https://dc.lft.to/lastmile_qr_scan"}, "name": "a54659512f1e6da8d3705bf882aeeb93", "type": "electric_scooter", "lat": 38.94925416666667, "is_disabled": 0}, {"fusion_lat": 0.0, "lon": -77.05632766666666, "is_reserved": 0, "bike_id": "f66cca1ec7d31de4fa50642188ba65bf", "fusion_lon": 0.0, "rental_uris": {"android": "https://dc.lft.to/lastmile_qr_scan", "ios": "https://dc.lft.to/lastmile_qr_scan"}, "name": "f66cca1ec7d31de4fa50642188ba65bf", "type": "electric_scooter", "lat": 38.96071583333333, "is_disabled": 0}, {"fusion_lat": 0.0, "lon": -76.99967266666667, "is_reserved": 0, "bike_id": "3d135944f8972c89a3278372acd8cb57", "fusion_lon": 0.0, "rental_uris": {"android": "https://dc.lft.to/lastmile_qr_scan", "ios": "https://dc.lft.to/lastmile_qr_scan"}, "name": "3d135944f8972c89a3278372acd8cb57", "type": "electric_scooter", "lat": 38.923573166666664, "is_disabled": 0}, {"fusion_lat": 0.0, "lon": -77.03879616666667, "is_reserved": 0, "bike_id": "db8cee209b9593600a96b89c052bec83", "fusion_lon": 0.0, "rental_uris": {"android": "https://dc.lft.to/lastmile_qr_scan", "ios": "https://dc.lft.to/lastmile_qr_scan"}, "name": "db8cee209b9593600a96b89c052bec83", "type": "electric_scooter", "lat": 38.90659516666667, "is_disabled": 0}, {"fusion_lat": 0.0, "lon": -77.030897, "is_reserved": 0, "bike_id": "feb3b94c5f0cedf5fa326018d31eb21b", "fusion_lon": 0.0, "rental_uris": {"android": "https://dc.lft.to/lastmile_qr_scan", "ios": "https://dc.lft.to/lastmile_qr_scan"}, "name": "feb3b94c5f0cedf5fa326018d31eb21b", "type": "electric_scooter", "lat": 38.922365, "is_disabled": 0}, {"fusion_lat": 0.0, "lon": -77.03863533333333, "is_reserved": 0, "bike_id": "c9fc95ad7290c67a48262fe3e8677749", "fusion_lon": 0.0, "rental_uris": {"android": "https://dc.lft.to/lastmile_qr_scan", "ios": "https://dc.lft.to/lastmile_qr_scan"}, "name": "c9fc95ad7290c67a48262fe3e8677749", "type": "electric_scooter", "lat": 38.91550016666667, "is_disabled": 0}, {"fusion_lat": 0.0, "lon": -77.01843833333334, "is_reserved": 0, "bike_id": "0eaacb2002f8da25e2c2bda05a08cc12", "fusion_lon": 0.0, "rental_uris": {"android": "https://dc.lft.to/lastmile_qr_scan", "ios": "https://dc.lft.to/lastmile_qr_scan"}, "name": "0eaacb2002f8da25e2c2bda05a08cc12", "type": "electric_scooter", "lat": 38.949965666666664, "is_disabled": 0}, {"fusion_lat": 0.0, "lon": -77.00206966666667, "is_reserved": 0, "bike_id": "c5ad883a946b3813f5e74e3706ec484b", "fusion_lon": 0.0, "rental_uris": {"android": "https://dc.lft.to/lastmile_qr_scan", "ios": "https://dc.lft.to/lastmile_qr_scan"}, "name": "c5ad883a946b3813f5e74e3706ec484b", "type": "electric_scooter", "lat": 38.9004345, "is_disabled": 0}, {"fusion_lat": 0.0, "lon": -77.095963, "is_reserved": 0, "bike_id": "dce5b45a972172e96010cb5087dc54ef", "fusion_lon": 0.0, "rental_uris": {"android": "https://dc.lft.to/lastmile_qr_scan", "ios": "https://dc.lft.to/lastmile_qr_scan"}, "name": "dce5b45a972172e96010cb5087dc54ef", "type": "electric_bike", "lat": 39.02890516666667, "is_disabled": 0}, {"fusion_lat": 0.0, "lon": -77.03533733333333, "is_reserved": 0, "bike_id": "3154c984dc786104013ec9fdbab13585", "fusion_lon": 0.0, "rental_uris": {"android": "https://dc.lft.to/lastmile_qr_scan", "ios": "https://dc.lft.to/lastmile_qr_scan"}, "name": "3154c984dc786104013ec9fdbab13585", "type": "electric_scooter", "lat": 38.924189166666665, "is_disabled": 0}, {"fusion_lat": 0.0, "lon": -77.06076166666666, "is_reserved": 0, "bike_id": "2dbad0f08d1612853273220d0e835bd4", "fusion_lon": 0.0, "rental_uris": {"android": "https://dc.lft.to/lastmile_qr_scan", "ios": "https://dc.lft.to/lastmile_qr_scan"}, "name": "2dbad0f08d1612853273220d0e835bd4", "type": "electric_bike", "lat": 38.88582566666667, "is_disabled": 0}, {"fusion_lat": 0.0, "lon": -76.99527116666667, "is_reserved": 0, "bike_id": "b9f6cf4c4915b58b93a24f388654b1d7", "fusion_lon": 0.0, "rental_uris": {"android": "https://dc.lft.to/lastmile_qr_scan", "ios": "https://dc.lft.to/lastmile_qr_scan"}, "name": "b9f6cf4c4915b58b93a24f388654b1d7", "type": "electric_scooter", "lat": 38.877584166666665, "is_disabled": 0}, {"fusion_lat": 0.0, "lon": -77.0298805, "is_reserved": 0, "bike_id": "0b5675d1b206f6f291239002e00956e5", "fusion_lon": 0.0, "rental_uris": {"android": "https://dc.lft.to/lastmile_qr_scan", "ios": "https://dc.lft.to/lastmile_qr_scan"}, "name": "0b5675d1b206f6f291239002e00956e5", "type": "electric_scooter", "lat": 38.90575916666667, "is_disabled": 0}, {"fusion_lat": 0.0, "lon": -77.00622083333333, "is_reserved": 0, "bike_id": "e57f62b38846f61111b8596aac0f149b", "fusion_lon": 0.0, "rental_uris": {"android": "https://dc.lft.to/lastmile_qr_scan", "ios": "https://dc.lft.to/lastmile_qr_scan"}, "name": "e57f62b38846f61111b8596aac0f149b", "type": "electric_scooter", "lat": 38.90817066666666, "is_disabled": 0}, {"fusion_lat": 0.0, "lon": -77.1309915, "is_reserved": 0, "bike_id": "04c4c47b3936c0e97970040f02bd4359", "fusion_lon": 0.0, "rental_uris": {"android": "https://dc.lft.to/lastmile_qr_scan", "ios": "https://dc.lft.to/lastmile_qr_scan"}, "name": "04c4c47b3936c0e97970040f02bd4359", "type": "electric_bike", "lat": 39.02432433333333, "is_disabled": 0}, {"fusion_lat": 0.0, "lon": -77.02207433333334, "is_reserved": 0, "bike_id": "2eb1cebc3e3bf7ae8586a1b98f3bb52b", "fusion_lon": 0.0, "rental_uris": {"android": "https://dc.lft.to/lastmile_qr_scan", "ios": "https://dc.lft.to/lastmile_qr_scan"}, "name": "2eb1cebc3e3bf7ae8586a1b98f3bb52b", "type": "electric_scooter", "lat": 38.90179883333333, "is_disabled": 0}, {"fusion_lat": 0.0, "lon": -77.044865, "is_reserved": 0, "bike_id": "34366bd0743b2b29fc78d098ec3be5b8", "fusion_lon": 0.0, "rental_uris": {"android": "https://dc.lft.to/lastmile_qr_scan", "ios": "https://dc.lft.to/lastmile_qr_scan"}, "name": "34366bd0743b2b29fc78d098ec3be5b8", "type": "electric_scooter", "lat": 38.9240515, "is_disabled": 0}, {"fusion_lat": 0.0, "lon": -77.03444883333333, "is_reserved": 0, "bike_id": "a4d2bfda0941aece337da13e90b95d44", "fusion_lon": 0.0, "rental_uris": {"android": "https://dc.lft.to/lastmile_qr_scan", "ios": "https://dc.lft.to/lastmile_qr_scan"}, "name": "a4d2bfda0941aece337da13e90b95d44", "type": "electric_scooter", "lat": 38.93091583333333, "is_disabled": 0}, {"fusion_lat": 0.0, "lon": -77.0347265, "is_reserved": 0, "bike_id": "e57afc6c21383e295f7dddd015626e80", "fusion_lon": 0.0, "rental_uris": {"android": "https://dc.lft.to/lastmile_qr_scan", "ios": "https://dc.lft.to/lastmile_qr_scan"}, "name": "e57afc6c21383e295f7dddd015626e80", "type": "electric_scooter", "lat": 38.93555083333333, "is_disabled": 0}, {"fusion_lat": 0.0, "lon": -77.01723483333333, "is_reserved": 0, "bike_id": "7aa05f5455ab5e97ef56b4c0a3d319db", "fusion_lon": 0.0, "rental_uris": {"android": "https://dc.lft.to/lastmile_qr_scan", "ios": "https://dc.lft.to/lastmile_qr_scan"}, "name": "7aa05f5455ab5e97ef56b4c0a3d319db", "type": "electric_bike", "lat": 38.9460645, "is_disabled": 0}, {"fusion_lat": 0.0, "lon": -77.05576633333334, "is_reserved": 0, "bike_id": "c6bd7bdd1203df568c572972d1e290e7", "fusion_lon": 0.0, "rental_uris": {"android": "https://dc.lft.to/lastmile_qr_scan", "ios": "https://dc.lft.to/lastmile_qr_scan"}, "name": "c6bd7bdd1203df568c572972d1e290e7", "type": "electric_scooter", "lat": 38.936246, "is_disabled": 0}, {"fusion_lat": 0.0, "lon": -76.992728, "is_reserved": 0, "bike_id": "b690ec9ab2e04f8d810cf7ca8ef66644", "fusion_lon": 0.0, "rental_uris": {"android": "https://dc.lft.to/lastmile_qr_scan", "ios": "https://dc.lft.to/lastmile_qr_scan"}, "name": "b690ec9ab2e04f8d810cf7ca8ef66644", "type": "electric_scooter", "lat": 38.8862135, "is_disabled": 0}, {"fusion_lat": 0.0, "lon": -77.0124705, "is_reserved": 0, "bike_id": "4f9b4d471f01398711dbe58e73416a26", "fusion_lon": 0.0, "rental_uris": {"android": "https://dc.lft.to/lastmile_qr_scan", "ios": "https://dc.lft.to/lastmile_qr_scan"}, "name": "4f9b4d471f01398711dbe58e73416a26", "type": "electric_scooter", "lat": 38.830478666666664, "is_disabled": 0}, {"fusion_lat": 0.0, "lon": -77.0395725, "is_reserved": 0, "bike_id": "1d086d1822e418e0e55a5ac3e1fcd212", "fusion_lon": 0.0, "rental_uris": {"android": "https://dc.lft.to/lastmile_qr_scan", "ios": "https://dc.lft.to/lastmile_qr_scan"}, "name": "1d086d1822e418e0e55a5ac3e1fcd212", "type": "electric_scooter", "lat": 38.89241616666666, "is_disabled": 0}, {"fusion_lat": 0.0, "lon": -77.01764483333334, "is_reserved": 0, "bike_id": "dec6e7609b701731205098206543cb05", "fusion_lon": 0.0, "rental_uris": {"android": "https://dc.lft.to/lastmile_qr_scan", "ios": "https://dc.lft.to/lastmile_qr_scan"}, "name": "dec6e7609b701731205098206543cb05", "type": "electric_scooter", "lat": 38.917365, "is_disabled": 0}, {"fusion_lat": 0.0, "lon": -77.042097, "is_reserved": 0, "bike_id": "3bb3edaa32af61526977c9b7fe17a6aa", "fusion_lon": 0.0, "rental_uris": {"android": "https://dc.lft.to/lastmile_qr_scan", "ios": "https://dc.lft.to/lastmile_qr_scan"}, "name": "3bb3edaa32af61526977c9b7fe17a6aa", "type": "electric_scooter", "lat": 38.903956666666666, "is_disabled": 0}, {"fusion_lat": 0.0, "lon": -77.0231935, "is_reserved": 0, "bike_id": "cb09c881f18dfb4577008ffab1f1bc86", "fusion_lon": 0.0, "rental_uris": {"android": "https://dc.lft.to/lastmile_qr_scan", "ios": "https://dc.lft.to/lastmile_qr_scan"}, "name": "cb09c881f18dfb4577008ffab1f1bc86", "type": "electric_scooter", "lat": 38.95522716666667, "is_disabled": 0}, {"fusion_lat": 0.0, "lon": -77.03874933333333, "is_reserved": 0, "bike_id": "5078f49c697f71da449746b61e60d680", "fusion_lon": 0.0, "rental_uris": {"android": "https://dc.lft.to/lastmile_qr_scan", "ios": "https://dc.lft.to/lastmile_qr_scan"}, "name": "5078f49c697f71da449746b61e60d680", "type": "electric_scooter", "lat": 38.906563, "is_disabled": 0}, {"fusion_lat": 0.0, "lon": -77.03957483333333, "is_reserved": 0, "bike_id": "0dee65c304aef5acd6cfea67a6576b10", "fusion_lon": 0.0, "rental_uris": {"android": "https://dc.lft.to/lastmile_qr_scan", "ios": "https://dc.lft.to/lastmile_qr_scan"}, "name": "0dee65c304aef5acd6cfea67a6576b10", "type": "electric_scooter", "lat": 38.892422333333336, "is_disabled": 0}, {"fusion_lat": 0.0, "lon": -77.03638383333333, "is_reserved": 0, "bike_id": "2999b9b8fb94f04c7ff3c435417626ff", "fusion_lon": 0.0, "rental_uris": {"android": "https://dc.lft.to/lastmile_qr_scan", "ios": "https://dc.lft.to/lastmile_qr_scan"}, "name": "2999b9b8fb94f04c7ff3c435417626ff", "type": "electric_scooter", "lat": 38.93674216666667, "is_disabled": 0}, {"fusion_lat": 0.0, "lon": -77.01261216666667, "is_reserved": 0, "bike_id": "f66efc664928016002f14d887d13c5be", "fusion_lon": 0.0, "rental_uris": {"android": "https://dc.lft.to/lastmile_qr_scan", "ios": "https://dc.lft.to/lastmile_qr_scan"}, "name": "f66efc664928016002f14d887d13c5be", "type": "electric_scooter", "lat": 38.8924075, "is_disabled": 0}, {"fusion_lat": 0.0, "lon": -77.03162783333333, "is_reserved": 0, "bike_id": "d32bda1d67a34aea4d87e5abf878fb61", "fusion_lon": 0.0, "rental_uris": {"android": "https://dc.lft.to/lastmile_qr_scan", "ios": "https://dc.lft.to/lastmile_qr_scan"}, "name": "d32bda1d67a34aea4d87e5abf878fb61", "type": "electric_scooter", "lat": 38.897788166666665, "is_disabled": 0}, {"fusion_lat": 0.0, "lon": -77.029274, "is_reserved": 0, "bike_id": "d1377f8a9f19d4e5b53fe2e499bda9a5", "fusion_lon": 0.0, "rental_uris": {"android": "https://dc.lft.to/lastmile_qr_scan", "ios": "https://dc.lft.to/lastmile_qr_scan"}, "name": "d1377f8a9f19d4e5b53fe2e499bda9a5", "type": "electric_scooter", "lat": 38.8981485, "is_disabled": 0}, {"fusion_lat": 0.0, "lon": -76.91870233333333, "is_reserved": 0, "bike_id": "45fd2062b9f5b0fdbf0a670e16195eca", "fusion_lon": 0.0, "rental_uris": {"android": "https://dc.lft.to/lastmile_qr_scan", "ios": "https://dc.lft.to/lastmile_qr_scan"}, "name": "45fd2062b9f5b0fdbf0a670e16195eca", "type": "electric_scooter", "lat": 38.89096833333333, "is_disabled": 0}, {"fusion_lat": 0.0, "lon": -77.02414116666667, "is_reserved": 0, "bike_id": "a56b595794423a37c4dccad872b071dd", "fusion_lon": 0.0, "rental_uris": {"android": "https://dc.lft.to/lastmile_qr_scan", "ios": "https://dc.lft.to/lastmile_qr_scan"}, "name": "a56b595794423a37c4dccad872b071dd", "type": "electric_scooter", "lat": 38.89706133333333, "is_disabled": 0}, {"fusion_lat": 0.0, "lon": -77.05021466666666, "is_reserved": 0, "bike_id": "4bd2502827ae33ab0868834dfa3531af", "fusion_lon": 0.0, "rental_uris": {"android": "https://dc.lft.to/lastmile_qr_scan", "ios": "https://dc.lft.to/lastmile_qr_scan"}, "name": "4bd2502827ae33ab0868834dfa3531af", "type": "electric_scooter", "lat": 38.92353166666667, "is_disabled": 0}, {"fusion_lat": 0.0, "lon": -76.94578566666667, "is_reserved": 0, "bike_id": "1ae60058197d2d6effba17213d1c4448", "fusion_lon": 0.0, "rental_uris": {"android": "https://dc.lft.to/lastmile_qr_scan", "ios": "https://dc.lft.to/lastmile_qr_scan"}, "name": "1ae60058197d2d6effba17213d1c4448", "type": "electric_bike", "lat": 38.93745416666667, "is_disabled": 0}, {"fusion_lat": 0.0, "lon": -76.98020133333333, "is_reserved": 0, "bike_id": "8f886975634f8302640a543823aa0ef4", "fusion_lon": 0.0, "rental_uris": {"android": "https://dc.lft.to/lastmile_qr_scan", "ios": "https://dc.lft.to/lastmile_qr_scan"}, "name": "8f886975634f8302640a543823aa0ef4", "type": "electric_scooter", "lat": 38.8531425, "is_disabled": 0}, {"fusion_lat": 0.0, "lon": -77.039002, "is_reserved": 0, "bike_id": "667fb2d05227a5b9bbbc7f65a96be1b0", "fusion_lon": 0.0, "rental_uris": {"android": "https://dc.lft.to/lastmile_qr_scan", "ios": "https://dc.lft.to/lastmile_qr_scan"}, "name": "667fb2d05227a5b9bbbc7f65a96be1b0", "type": "electric_scooter", "lat": 38.914703833333334, "is_disabled": 0}, {"fusion_lat": 0.0, "lon": -77.08030866666667, "is_reserved": 0, "bike_id": "6d24d27f9d22f1614910f68f7831345b", "fusion_lon": 0.0, "rental_uris": {"android": "https://dc.lft.to/lastmile_qr_scan", "ios": "https://dc.lft.to/lastmile_qr_scan"}, "name": "6d24d27f9d22f1614910f68f7831345b", "type": "electric_scooter", "lat": 38.9494745, "is_disabled": 0}, {"fusion_lat": 0.0, "lon": -77.002892, "is_reserved": 0, "bike_id": "35566dc75644820170837e075b62efaa", "fusion_lon": 0.0, "rental_uris": {"android": "https://dc.lft.to/lastmile_qr_scan", "ios": "https://dc.lft.to/lastmile_qr_scan"}, "name": "35566dc75644820170837e075b62efaa", "type": "electric_bike", "lat": 38.91169716666667, "is_disabled": 0}, {"fusion_lat": 0.0, "lon": -76.985425, "is_reserved": 0, "bike_id": "7750d9769176bff4f6cef03a590c25af", "fusion_lon": 0.0, "rental_uris": {"android": "https://dc.lft.to/lastmile_qr_scan", "ios": "https://dc.lft.to/lastmile_qr_scan"}, "name": "7750d9769176bff4f6cef03a590c25af", "type": "electric_scooter", "lat": 38.9102365, "is_disabled": 0}, {"fusion_lat": 0.0, "lon": -77.022698, "is_reserved": 0, "bike_id": "006b92ea858609b71491f22eed990389", "fusion_lon": 0.0, "rental_uris": {"android": "https://dc.lft.to/lastmile_qr_scan", "ios": "https://dc.lft.to/lastmile_qr_scan"}, "name": "006b92ea858609b71491f22eed990389", "type": "electric_scooter", "lat": 38.894812, "is_disabled": 0},