{"data": {"bikes": [{"is_disabled": 0, "is_reserved": 0, "fusion_lat": 0.0, "lat": 38.838661, "fusion_lon": 0.0, "rental_uris": {"ios": "https://dc.lft.to/lastmile_qr_scan", "android": "https://dc.lft.to/lastmile_qr_scan"}, "lon": -76.99707683333334, "bike_id": "5a3f835122ad705723aa2b477e14a055", "type": "electric_bike", "name": "5a3f835122ad705723aa2b477e14a055"}, {"is_disabled": 0, "is_reserved": 0, "fusion_lat": 0.0, "lat": 38.9022155, "fusion_lon": 0.0, "rental_uris": {"ios": "https://dc.lft.to/lastmile_qr_scan", "android": "https://dc.lft.to/lastmile_qr_scan"}, "lon": -76.93176566666666, "bike_id": "add5ee35444aa87433f4c8322782d9b8", "type": "electric_bike", "name": "add5ee35444aa87433f4c8322782d9b8"}, {"is_disabled": 0, "is_reserved": 0, "fusion_lat": 0.0, "lat": 38.87995983333333, "fusion_lon": 0.0, "rental_uris": {"ios": "https://dc.lft.to/lastmile_qr_scan", "android": "https://dc.lft.to/lastmile_qr_scan"}, "lon": -77.03740183333333, "bike_id": "f65f1b8bac182fbfe93abaf7c8e1d196", "type": "electric_scooter", "name": "f65f1b8bac182fbfe93abaf7c8e1d196"}, {"is_disabled": 0, "is_reserved": 0, "fusion_lat": 0.0, "lat": 38.92417733333333, "fusion_lon": 0.0, "rental_uris": {"ios": "https://dc.lft.to/lastmile_qr_scan", "android": "https://dc.lft.to/lastmile_qr_scan"}, "lon": -77.02131433333334, "bike_id": "23e5efc72193115c67f74b019d2eea1a", "type": "electric_scooter", "name": "23e5efc72193115c67f74b019d2eea1a"}, {"is_disabled": 0, "is_reserved": 0, "fusion_lat": 0.0, "lat": 38.924624666666666, "fusion_lon": 0.0, "rental_uris": {"ios": "https://dc.lft.to/lastmile_qr_scan", "android": "https://dc.lft.to/lastmile_qr_scan"}, "lon": -77.05754733333333, "bike_id": "a4e0d7066df5dca823b1069143601711", "type": "electric_scooter", "name": "a4e0d7066df5dca823b1069143601711"}, {"is_disabled": 0, "is_reserved": 0, "fusion_lat": 0.0, "lat": 38.9120465, "fusion_lon": 0.0, "rental_uris": {"ios": "https://dc.lft.to/lastmile_qr_scan", "android": "https://dc.lft.to/lastmile_qr_scan"}, "lon": -77.00826566666667, "bike_id": "d0cdc565883ce2b2dcf83e095c8159db", "type": "electric_scooter", "name": "d0cdc565883ce2b2dcf83e095c8159db"}, {"is_disabled": 0, "is_reserved": 0, "fusion_lat": 0.0, "lat": 38.931441, "fusion_lon": 0.0, "rental_uris": {"ios": "https://dc.lft.to/lastmile_qr_scan", "android": "https://dc.lft.to/lastmile_qr_scan"}, "lon": -77.03827216666667, "bike_id": "93bda34eccf8f0125c9e549628b3aeb9", "type": "electric_scooter", "name": "93bda34eccf8f0125c9e549628b3aeb9"}, {"is_disabled": 0, "is_reserved": 0, "fusion_lat": 0.0, "lat": 38.897948, "fusion_lon": 0.0, "rental_uris": {"ios": "https://dc.lft.to/lastmile_qr_scan", "android": "https://dc.lft.to/lastmile_qr_scan"}, "lon": -76.97164783333334, "bike_id": "77021bf3cd36e11f60256ead78740526", "type": "electric_scooter", "name": "77021bf3cd36e11f60256ead78740526"}, {"is_disabled": 0, "is_reserved": 0, "fusion_lat": 0.0, "lat": 38.92151783333333, "fusion_lon": 0.0, "rental_uris": {"ios": "https://dc.lft.to/lastmile_qr_scan", "android": "https://dc.lft.to/lastmile_qr_scan"}, "lon": -77.03382116666667, "bike_id": "46e1627201eb76418377ab61da246cb8", "type": "electric_scooter", "name": "46e1627201eb76418377ab61da246cb8"}, {"is_disabled": 0, "is_reserved": 0, "fusion_lat": 0.0, "lat": 38.90956533333333, "fusion_lon": 0.0, "rental_uris": {"ios": "https://dc.lft.to/lastmile_qr_scan", "android": "https://dc.lft.to/lastmile_qr_scan"}, "lon": -77.02369533333334, "bike_id": "32595f0c4f2a120834d950e791cee0b2", "type": "electric_scooter", "name": "32595f0c4f2a120834d950e791cee0b2"}, {"is_disabled": 0, "is_reserved": 0, "fusion_lat": 0.0, "lat": 38.905005333333335, "fusion_lon": 0.0, "rental_uris": {"ios": "https://dc.lft.to/lastmile_qr_scan", "android": "https://dc.lft.to/lastmile_qr_scan"}, "lon": -77.02949866666667, "bike_id": "19759857fe01054bfd71c72fd5c41a8b", "type": "electric_scooter", "name": "19759857fe01054bfd71c72fd5c41a8b"}, {"is_disabled": 0, "is_reserved": 0, "fusion_lat": 0.0, "lat": 38.916818166666665, "fusion_lon": 0.0, "rental_uris": {"ios": "https://dc.lft.to/lastmile_qr_scan", "android": "https://dc.lft.to/lastmile_qr_scan"}, "lon": -77.04137916666667, "bike_id": "8e6048c8b852814947d8cb827fcc7d6a", "type": "electric_scooter", "name": "8e6048c8b852814947d8cb827fcc7d6a"}, {"is_disabled": 0, "is_reserved": 0, "fusion_lat": 0.0, "lat": 38.908492833333334, "fusion_lon": 0.0, "rental_uris": {"ios": "https://dc.lft.to/lastmile_qr_scan", "android": "https://dc.lft.to/lastmile_qr_scan"}, "lon": -77.0090075, "bike_id": "2383c3e275de009cafff6cd0e5703b03", "type": "electric_scooter", "name": "2383c3e275de009cafff6cd0e5703b03"}, {"is_disabled": 0, "is_reserved": 0, "fusion_lat": 0.0, "lat": 38.920606, "fusion_lon": 0.0, "rental_uris": {"ios": "https://dc.lft.to/lastmile_qr_scan", "android": "https://dc.lft.to/lastmile_qr_scan"}, "lon": -77.02938716666667, "bike_id": "f84237ae4e41626b683e6cc265c5b454", "type": "electric_scooter", "name": "f84237ae4e41626b683e6cc265c5b454"}, {"is_disabled": 0, "is_reserved": 0, "fusion_lat": 0.0, "lat": 38.892522, "fusion_lon": 0.0, "rental_uris": {"ios": "https://dc.lft.to/lastmile_qr_scan", "android": "https://dc.lft.to/lastmile_qr_scan"}, "lon": -77.04657733333333, "bike_id": "e6d8fbafa0a3378eff826cd8431b57d8", "type": "electric_scooter", "name": "e6d8fbafa0a3378eff826cd8431b57d8"}, {"is_disabled": 0, "is_reserved": 0, "fusion_lat": 0.0, "lat": 38.892110833333334, "fusion_lon": 0.0, "rental_uris": {"ios": "https://dc.lft.to/lastmile_qr_scan", "android": "https://dc.lft.to/lastmile_qr_scan"}, "lon": -76.92923383333333, "bike_id": "07982d537e7a89449475963ada35dff2", "type": "electric_scooter", "name": "07982d537e7a89449475963ada35dff2"}, {"is_disabled": 0, "is_reserved": 0, "fusion_lat": 0.0, "lat": 38.90132783333333, "fusion_lon": 0.0, "rental_uris": {"ios": "https://dc.lft.to/lastmile_qr_scan", "android": "https://dc.lft.to/lastmile_qr_scan"}, "lon": -77.0500615, "bike_id": "fc9a7ce08f389fe16cf3d8aa5f569bdd", "type": "electric_scooter", "name": "fc9a7ce08f389fe16cf3d8aa5f569bdd"}, {"is_disabled": 0, "is_reserved": 0, "fusion_lat": 0.0, "lat": 38.89636316666667, "fusion_lon": 0.0, "rental_uris": {"ios": "https://dc.lft.to/lastmile_qr_scan", "android": "https://dc.lft.to/lastmile_qr_scan"}, "lon": -77.007536, "bike_id": "ba13be299f251e74e3b87c941882e387", "type": "electric_scooter", "name": "ba13be299f251e74e3b87c941882e387"}, {"is_disabled": 0, "is_reserved": 0, "fusion_lat": 0.0, "lat": 38.9079885, "fusion_lon": 0.0, "rental_uris": {"ios": "https://dc.lft.to/lastmile_qr_scan", "android": "https://dc.lft.to/lastmile_qr_scan"}, "lon": -77.0418465, "bike_id": "54a304946191a116cfa8c4a8e384213f", "type": "electric_scooter", "name": "54a304946191a116cfa8c4a8e384213f"}, {"is_disabled": 0, "is_reserved": 0, "fusion_lat": 0.0, "lat": 38.92345016666667, "fusion_lon": 0.0, "rental_uris": {"ios": "https://dc.lft.to/lastmile_qr_scan", "android": "https://dc.lft.to/lastmile_qr_scan"}, "lon": -77.0017285, "bike_id": "ae95820063b979c7dc235926b76d8aa9", "type": "electric_scooter", "name": "ae95820063b979c7dc235926b76d8aa9"}, {"is_disabled": 0, "is_reserved": 0, "fusion_lat": 0.0, "lat": 38.924559, "fusion_lon": 0.0, "rental_uris": {"ios": "https://dc.lft.to/lastmile_qr_scan", "android": "https://dc.lft.to/lastmile_qr_scan"}, "lon": -77.02022433333333, "bike_id": "7449c1e086a63f86a2210089ce24a64d", "type": "electric_scooter", "name": "7449c1e086a63f86a2210089ce24a64d"}, {"is_disabled": 0, "is_reserved": 0, "fusion_lat": 0.0, "lat": 38.897385, "fusion_lon": 0.0, "rental_uris": {"ios": "https://dc.lft.to/lastmile_qr_scan", "android": "https://dc.lft.to/lastmile_qr_scan"}, "lon": -77.0271015, "bike_id": "47acf4c1c61c2ff9a8824274d7b54bfa", "type": "electric_scooter", "name": "47acf4c1c61c2ff9a8824274d7b54bfa"}, {"is_disabled": 0, "is_reserved": 0, "fusion_lat": 0.0, "lat": 38.85640983333333, "fusion_lon": 0.0, "rental_uris": {"ios": "https://dc.lft.to/lastmile_qr_scan", "android": "https://dc.lft.to/lastmile_qr_scan"}, "lon": -77.06835083333333, "bike_id": "9010571410b825f64d4b54a168ba23a3", "type": "electric_bike", "name": "9010571410b825f64d4b54a168ba23a3"}, {"is_disabled": 0, "is_reserved": 0, "fusion_lat": 0.0, "lat": 38.882216666666665, "fusion_lon": 0.0, "rental_uris": {"ios": "https://dc.lft.to/lastmile_qr_scan", "android": "https://dc.lft.to/lastmile_qr_scan"}, "lon": -76.99736683333333, "bike_id": "c38d5bacb6e6021d430774ea2ca77fbf", "type": "electric_scooter", "name": "c38d5bacb6e6021d430774ea2ca77fbf"}, {"is_disabled": 0, "is_reserved": 0, "fusion_lat": 0.0, "lat": 38.917072833333336, "fusion_lon": 0.0, "rental_uris": {"ios": "https://dc.lft.to/lastmile_qr_scan", "android": "https://dc.lft.to/lastmile_qr_scan"}, "lon": -77.02847166666666, "bike_id": "1b1cb9b7c79a98e399ced161e834b3cb", "type": "electric_scooter", "name": "1b1cb9b7c79a98e399ced161e834b3cb"}, {"is_disabled": 0, "is_reserved": 0, "fusion_lat": 0.0, "lat": 38.86562883333333, "fusion_lon": 0.0, "rental_uris": {"ios": "https://dc.lft.to/lastmile_qr_scan", "android": "https://dc.lft.to/lastmile_qr_scan"}, "lon": -76.97477033333334, "bike_id": "c1730153730918ca48f2e76f6f52d2b8", "type": "electric_bike", "name": "c1730153730918ca48f2e76f6f52d2b8"}, {"is_disabled": 0, "is_reserved": 0, "fusion_lat": 0.0, "lat": 38.873033166666666, "fusion_lon": 0.0, "rental_uris": {"ios": "https://dc.lft.to/lastmile_qr_scan", "android": "https://dc.lft.to/lastmile_qr_scan"}, "lon": -77.01074566666666, "bike_id": "f88e5bf3ef78f07d380fc56a966d496f", "type": "electric_scooter", "name": "f88e5bf3ef78f07d380fc56a966d496f"}, {"is_disabled": 0, "is_reserved": 0, "fusion_lat": 0.0, "lat": 38.90078366666667, "fusion_lon": 0.0, "rental_uris": {"ios": "https://dc.lft.to/lastmile_qr_scan", "android": "https://dc.lft.to/lastmile_qr_scan"}, "lon": -77.03821416666666, "bike_id": "86b62e96f6ae1dfb84c9b2854cb1d887", "type": "electric_scooter", "name": "86b62e96f6ae1dfb84c9b2854cb1d887"}, {"is_disabled": 0, "is_reserved": 0, "fusion_lat": 0.0, "lat": 38.8242965, "fusion_lon": 0.0, "rental_uris": {"ios": "https://dc.lft.to/lastmile_qr_scan", "android": "https://dc.lft.to/lastmile_qr_scan"}, "lon": -77.120425, "bike_id": "fabe47af73bfb0364ddcac7485a54da1", "type": "electric_bike", "name": "fabe47af73bfb0364ddcac7485a54da1"}, {"is_disabled": 0, "is_reserved": 0, "fusion_lat": 0.0, "lat": 38.892270833333335, "fusion_lon": 0.0, "rental_uris": {"ios": "https://dc.lft.to/lastmile_qr_scan", "android": "https://dc.lft.to/lastmile_qr_scan"}, "lon": -77.02172066666667, "bike_id": "ec86f2b7dfd16e132d3bcee0370ebed2", "type": "electric_scooter", "name": "ec86f2b7dfd16e132d3bcee0370ebed2"}, {"is_disabled": 0, "is_reserved": 0, "fusion_lat": 0.0, "lat": 38.846197333333336, "fusion_lon": 0.0, "rental_uris": {"ios": "https://dc.lft.to/lastmile_qr_scan", "android": "https://dc.lft.to/lastmile_qr_scan"}, "lon": -76.978366, "bike_id": "5e26146f14b59e28011b272ceb1100d9", "type": "electric_bike", "name": "5e26146f14b59e28011b272ceb1100d9"}, {"is_disabled": 0, "is_reserved": 0, "fusion_lat": 0.0, "lat": 38.909399, "fusion_lon": 0.0, "rental_uris": {"ios": "https://dc.lft.to/lastmile_qr_scan", "android": "https://dc.lft.to/lastmile_qr_scan"}, "lon": -77.0324895, "bike_id": "97b89167d935f69e58a63172da23ab0b", "type": "electric_scooter", "name": "97b89167d935f69e58a63172da23ab0b"}, {"is_disabled": 0, "is_reserved": 0, "fusion_lat": 0.0, "lat": 38.84649133333333, "fusion_lon": 0.0, "rental_uris": {"ios": "https://dc.lft.to/lastmile_qr_scan", "android": "https://dc.lft.to/lastmile_qr_scan"}, "lon": -77.00366233333334, "bike_id": "74107c40587ea5626b6ce795189aa079", "type": "electric_scooter", "name": "74107c40587ea5626b6ce795189aa079"}, {"is_disabled": 0, "is_reserved": 0, "fusion_lat": 0.0, "lat": 38.917834, "fusion_lon": 0.0, "rental_uris": {"ios": "https://dc.lft.to/lastmile_qr_scan", "android": "https://dc.lft.to/lastmile_qr_scan"}, "lon": -77.02702233333333, "bike_id": "94d928dc35748fcd60a1488d3e34daf1", "type": "electric_scooter", "name": "94d928dc35748fcd60a1488d3e34daf1"}, {"is_disabled": 0, "is_reserved": 0, "fusion_lat": 0.0, "lat": 38.887113, "fusion_lon": 0.0, "rental_uris": {"ios": "https://dc.lft.to/lastmile_qr_scan", "android": "https://dc.lft.to/lastmile_qr_scan"}, "lon": -76.98342866666667, "bike_id": "ce20df195b6a0d2fe1a2cc51cbd42786", "type": "electric_scooter", "name": "ce20df195b6a0d2fe1a2cc51cbd42786"}, {"is_disabled": 0, "is_reserved": 0, "fusion_lat": 0.0, "lat": 38.90772333333334, "fusion_lon": 0.0, "rental_uris": {"ios": "https://dc.lft.to/lastmile_qr_scan", "android": "https://dc.lft.to/lastmile_qr_scan"}, "lon": -77.0238715, "bike_id": "9aed387578c754765b529ada5795fb54", "type": "electric_scooter", "name": "9aed387578c754765b529ada5795fb54"}, {"is_disabled": 0, "is_reserved": 0, "fusion_lat": 0.0, "lat": 38.9104745, "fusion_lon": 0.0, "rental_uris": {"ios": "https://dc.lft.to/lastmile_qr_scan", "android": "https://dc.lft.to/lastmile_qr_scan"}, "lon": -77.0219745, "bike_id": "f00da96e0451e8ccd185c1dff29e8e2d", "type": "electric_scooter", "name": "f00da96e0451e8ccd185c1dff29e8e2d"}, {"is_disabled": 0, "is_reserved": 0, "fusion_lat": 0.0, "lat": 38.870856833333335, "fusion_lon": 0.0, "rental_uris": {"ios": "https://dc.lft.to/lastmile_qr_scan", "android": "https://dc.lft.to/lastmile_qr_scan"}, "lon": -77.1333285, "bike_id": "37c83241cec09bce3dda36ffdd942d73", "type": "electric_bike", "name": "37c83241cec09bce3dda36ffdd942d73"}, {"is_disabled": 0, "is_reserved": 0, "fusion_lat": 0.0, "lat": 38.9054585, "fusion_lon": 0.0, "rental_uris": {"ios": "https://dc.lft.to/lastmile_qr_scan", "android": "https://dc.lft.to/lastmile_qr_scan"}, "lon": -77.02200066666667, "bike_id": "bc12c2df4b8791354c5110cbeb95975a", "type": "electric_scooter", "name": "bc12c2df4b8791354c5110cbeb95975a"}, {"is_disabled": 0, "is_reserved": 0, "fusion_lat": 0.0, "lat": 38.900203, "fusion_lon": 0.0, "rental_uris": {"ios": "https://dc.lft.to/lastmile_qr_scan", "android": "https://dc.lft.to/lastmile_qr_scan"}, "lon": -77.017577, "bike_id": "c3f50889c7717e0a4bb483f318954538", "type": "electric_scooter", "name": "c3f50889c7717e0a4bb483f318954538"}, {"is_disabled": 0, "is_reserved": 0, "fusion_lat": 0.0, "lat": 38.898872, "fusion_lon": 0.0, "rental_uris": {"ios": "https://dc.lft.to/lastmile_qr_scan", "android": "https://dc.lft.to/lastmile_qr_scan"}, "lon": -77.01988933333334, "bike_id": "375d03e5a4f170d5c6b7da3831e1ff00", "type": "electric_scooter", "name": "375d03e5a4f170d5c6b7da3831e1ff00"}, {"is_disabled": 0, "is_reserved": 0, "fusion_lat": 0.0, "lat": 38.920952, "fusion_lon": 0.0, "rental_uris": {"ios": "https://dc.lft.to/lastmile_qr_scan", "android": "https://dc.lft.to/lastmile_qr_scan"}, "lon": -77.02318133333333, "bike_id": "564b18a8cdc2b4eb00da3c8dbf74217c", "type": "electric_scooter", "name": "564b18a8cdc2b4eb00da3c8dbf74217c"}, {"is_disabled": 0, "is_reserved": 0, "fusion_lat": 0.0, "lat": 38.8802335, "fusion_lon": 0.0, "rental_uris": {"ios": "https://dc.lft.to/lastmile_qr_scan", "android": "https://dc.lft.to/lastmile_qr_scan"}, "lon": -76.94324183333333, "bike_id": "fa201eb94b3b40a467c04d5da14f2d36", "type": "electric_scooter", "name": "fa201eb94b3b40a467c04d5da14f2d36"}, {"is_disabled": 0, "is_reserved": 0, "fusion_lat": 0.0, "lat": 38.914816, "fusion_lon": 0.0, "rental_uris": {"ios": "https://dc.lft.to/lastmile_qr_scan", "android": "https://dc.lft.to/lastmile_qr_scan"}, "lon": -77.02202783333334, "bike_id": "5d04cf723196082b07643cd427e4f796", "type": "electric_scooter", "name": "5d04cf723196082b07643cd427e4f796"}, {"is_disabled": 0, "is_reserved": 0, "fusion_lat": 0.0, "lat": 38.919087, "fusion_lon": 0.0, "rental_uris": {"ios": "https://dc.lft.to/lastmile_qr_scan", "android": "https://dc.lft.to/lastmile_qr_scan"}, "lon": -77.04481516666667, "bike_id": "a5f15f9bef453aff861ea9073803f8ff", "type": "electric_scooter", "name": "a5f15f9bef453aff861ea9073803f8ff"}, {"is_disabled": 0, "is_reserved": 0, "fusion_lat": 0.0, "lat": 38.91927033333333, "fusion_lon": 0.0, "rental_uris": {"ios": "https://dc.lft.to/lastmile_qr_scan", "android": "https://dc.lft.to/lastmile_qr_scan"}, "lon": -77.0230395, "bike_id": "400fa3c864786005f8b30f55c3c43e6b", "type": "electric_scooter", "name": "400fa3c864786005f8b30f55c3c43e6b"}, {"is_disabled": 0, "is_reserved": 0, "fusion_lat": 0.0, "lat": 38.8729245, "fusion_lon": 0.0, "rental_uris": {"ios": "https://dc.lft.to/lastmile_qr_scan", "android": "https://dc.lft.to/lastmile_qr_scan"}, "lon": -77.00987633333334, "bike_id": "7bafaccec0d7240f102249003f3d9c66", "type": "electric_scooter", "name": "7bafaccec0d7240f102249003f3d9c66"}, {"is_disabled": 0, "is_reserved": 0, "fusion_lat": 0.0, "lat": 38.90031666666667, "fusion_lon": 0.0, "rental_uris": {"ios": "https://dc.lft.to/lastmile_qr_scan", "android": "https://dc.lft.to/lastmile_qr_scan"}, "lon": -77.00369666666667, "bike_id": "610be46b437ef7b63136096cab5d76b9", "type": "electric_scooter", "name": "610be46b437ef7b63136096cab5d76b9"}, {"is_disabled": 0, "is_reserved": 0, "fusion_lat": 0.0, "lat": 38.916604, "fusion_lon": 0.0, "rental_uris": {"ios": "https://dc.lft.to/lastmile_qr_scan", "android": "https://dc.lft.to/lastmile_qr_scan"}, "lon": -77.03857716666667, "bike_id": "fc52f5db89a8ccb9417afe49ff543795", "type": "electric_scooter", "name": "fc52f5db89a8ccb9417afe49ff543795"}, {"is_disabled": 0, "is_reserved": 0, "fusion_lat": 0.0, "lat": 38.926640666666664, "fusion_lon": 0.0, "rental_uris": {"ios": "https://dc.lft.to/lastmile_qr_scan", "android": "https://dc.lft.to/lastmile_qr_scan"}, "lon": -77.030288, "bike_id": "326fe2429b7cc067775a65ace639e0ad", "type": "electric_scooter", "name": "326fe2429b7cc067775a65ace639e0ad"}, {"is_disabled": 0, "is_reserved": 0, "fusion_lat": 0.0, "lat": 38.9352495, "fusion_lon": 0.0, "rental_uris": {"ios": "https://dc.lft.to/lastmile_qr_scan", "android": "https://dc.lft.to/lastmile_qr_scan"}, "lon": -77.0284935, "bike_id": "b24613533478748bde4b4c55db7cab86", "type": "electric_scooter", "name": "b24613533478748bde4b4c55db7cab86"}, {"is_disabled": 0, "is_reserved": 0, "fusion_lat": 0.0, "lat": 38.892262, "fusion_lon": 0.0, "rental_uris": {"ios": "https://dc.lft.to/lastmile_qr_scan", "android": "https://dc.lft.to/lastmile_qr_scan"}, "lon": -77.02175633333333, "bike_id": "274e3d6552899f44dee7454209f349a8", "type": "electric_scooter", "name": "274e3d6552899f44dee7454209f349a8"}, {"is_disabled": 0, "is_reserved": 0, "fusion_lat": 0.0, "lat": 38.91540883333333, "fusion_lon": 0.0, "rental_uris": {"ios": "https://dc.lft.to/lastmile_qr_scan", "android": "https://dc.lft.to/lastmile_qr_scan"}, "lon": -77.04636466666666, "bike_id": "2675e411219940180615d79548d1a09e", "type": "electric_scooter", "name": "2675e411219940180615d79548d1a09e"}, {"is_disabled": 0, "is_reserved": 0, "fusion_lat": 0.0, "lat": 38.90148216666667, "fusion_lon": 0.0, "rental_uris": {"ios": "https://dc.lft.to/lastmile_qr_scan", "android": "https://dc.lft.to/lastmile_qr_scan"}, "lon": -77.0417955, "bike_id": "8ea7f438fea091eae57ad050fe3517e1", "type": "electric_scooter", "name": "8ea7f438fea091eae57ad050fe3517e1"}, {"is_disabled": 0, "is_reserved": 0, "fusion_lat": 0.0, "lat": 38.91552933333333, "fusion_lon": 0.0, "rental_uris": {"ios": "https://dc.lft.to/lastmile_qr_scan", "android": "https://dc.lft.to/lastmile_qr_scan"}, "lon": -77.0213665, "bike_id": "b2a75369bdcfc7cc9d2fbe63e32f08bb", "type": "electric_scooter", "name": "b2a75369bdcfc7cc9d2fbe63e32f08bb"}, {"is_disabled": 0, "is_reserved": 0, "fusion_lat": 0.0, "lat": 38.920943, "fusion_lon": 0.0, "rental_uris": {"ios": "https://dc.lft.to/lastmile_qr_scan", "android": "https://dc.lft.to/lastmile_qr_scan"}, "lon": -77.02316966666666, "bike_id": "05aed118b8e3d23e545ad29a35720886", "type": "electric_scooter", "name": "05aed118b8e3d23e545ad29a35720886"}, {"is_disabled": 0, "is_reserved": 0, "fusion_lat": 0.0, "lat": 38.92147533333333, "fusion_lon": 0.0, "rental_uris": {"ios": "https://dc.lft.to/lastmile_qr_scan", "android": "https://dc.lft.to/lastmile_qr_scan"}, "lon": -77.03505533333333, "bike_id": "168deab48bcf4a2661b7e8a37894a444", "type": "electric_scooter", "name": "168deab48bcf4a2661b7e8a37894a444"}, {"is_disabled": 0, "is_reserved": 0, "fusion_lat": 0.0, "lat": 38.914121333333334, "fusion_lon": 0.0, "rental_uris": {"ios": "https://dc.lft.to/lastmile_qr_scan", "android": "https://dc.lft.to/lastmile_qr_scan"}, "lon": -77.04289, "bike_id": "1f6f9a3959fb8df7f1a796be80f1803f", "type": "electric_scooter", "name": "1f6f9a3959fb8df7f1a796be80f1803f"}, {"is_disabled": 0, "is_reserved": 0, "fusion_lat": 0.0, "lat": 38.921415833333334, "fusion_lon": 0.0, "rental_uris": {"ios": "https://dc.lft.to/lastmile_qr_scan", "android": "https://dc.lft.to/lastmile_qr_scan"}, "lon": -77.04559133333333, "bike_id": "4ee2d1724811794cce3520ba87a36349", "type": "electric_scooter", "name": "4ee2d1724811794cce3520ba87a36349"}, {"is_disabled": 0, "is_reserved": 0, "fusion_lat": 0.0, "lat": 38.91138766666667, "fusion_lon": 0.0, "rental_uris": {"ios": "https://dc.lft.to/lastmile_qr_scan", "android": "https://dc.lft.to/lastmile_qr_scan"}, "lon": -77.0218985, "bike_id": "9e334fd5945c13fbebb368edb674dd99", "type": "electric_scooter", "name": "9e334fd5945c13fbebb368edb674dd99"}, {"is_disabled": 0, "is_reserved": 0, "fusion_lat": 0.0, "lat": 38.90453883333333, "fusion_lon": 0.0, "rental_uris": {"ios": "https://dc.lft.to/lastmile_qr_scan", "android": "https://dc.lft.to/lastmile_qr_scan"}, "lon": -77.030733, "bike_id": "5fbaf8692fc8c9edfe75d655adc67656", "type": "electric_scooter", "name": "5fbaf8692fc8c9edfe75d655adc67656"}, {"is_disabled": 0, "is_reserved": 0, "fusion_lat": 0.0, "lat": 38.905925833333335, "fusion_lon": 0.0, "rental_uris": {"ios": "https://dc.lft.to/lastmile_qr_scan", "android": "https://dc.lft.to/lastmile_qr_scan"}, "lon": -77.0161235, "bike_id": "31b95fc9802f92e2a24b47a26625ce38", "type": "electric_scooter", "name": "31b95fc9802f92e2a24b47a26625ce38"}, {"is_disabled": 0, "is_reserved": 0, "fusion_lat": 0.0, "lat": 38.88438883333333, "fusion_lon": 0.0, "rental_uris": {"ios": "https://dc.lft.to/lastmile_qr_scan", "android": "https://dc.lft.to/lastmile_qr_scan"}, "lon": -77.025091, "bike_id": "431128ff02978ad2ac140c73551a5aef", "type": "electric_scooter", "name": "431128ff02978ad2ac140c73551a5aef"}, {"is_disabled": 0, "is_reserved": 0, "fusion_lat": 0.0, "lat": 38.927488333333336, "fusion_lon": 0.0, "rental_uris": {"ios": "https://dc.lft.to/lastmile_qr_scan", "android": "https://dc.lft.to/lastmile_qr_scan"}, "lon": -77.033049, "bike_id": "670a2a127821b680b84a92ef1dd12aef", "type": "electric_scooter", "name": "670a2a127821b680b84a92ef1dd12aef"}, {"is_disabled": 0, "is_reserved": 0, "fusion_lat": 0.0, "lat": 38.807386666666666, "fusion_lon": 0.0, "rental_uris": {"ios": "https://dc.lft.to/lastmile_qr_scan", "android": "https://dc.lft.to/lastmile_qr_scan"}, "lon": -77.09691133333334, "bike_id": "47abf2427281f51c829ed88facc91bc9", "type": "electric_bike", "name": "47abf2427281f51c829ed88facc91bc9"}, {"is_disabled": 0, "is_reserved": 0, "fusion_lat": 0.0, "lat": 38.939009166666665, "fusion_lon": 0.0, "rental_uris": {"ios": "https://dc.lft.to/lastmile_qr_scan", "android": "https://dc.lft.to/lastmile_qr_scan"}, "lon": -77.02685033333333, "bike_id": "afb7ac9f39cc1ec63db8059290493ee3", "type": "electric_bike", "name": "afb7ac9f39cc1ec63db8059290493ee3"}, {"is_disabled": 0, "is_reserved": 0, "fusion_lat": 0.0, "lat": 38.91049833333334, "fusion_lon": 0.0, "rental_uris": {"ios": "https://dc.lft.to/lastmile_qr_scan", "android": "https://dc.lft.to/lastmile_qr_scan"}, "lon": -77.0434855, "bike_id": "007e4123f84f91a4cdd71090c107aa03", "type": "electric_scooter", "name": "007e4123f84f91a4cdd71090c107aa03"}, {"is_disabled": 0, "is_reserved": 0, "fusion_lat": 0.0, "lat": 38.871685, "fusion_lon": 0.0, "rental_uris": {"ios": "https://dc.lft.to/lastmile_qr_scan", "android": "https://dc.lft.to/lastmile_qr_scan"}, "lon": -77.233878, "bike_id": "f686e6e6ec9e0bc827a2b89c77a6f926", "type": "electric_bike", "name": "f686e6e6ec9e0bc827a2b89c77a6f926"}, {"is_disabled": 0, "is_reserved": 0, "fusion_lat": 0.0, "lat": 38.9165325, "fusion_lon": 0.0, "rental_uris": {"ios": "https://dc.lft.to/lastmile_qr_scan", "android": "https://dc.lft.to/lastmile_qr_scan"}, "lon": -77.02397933333333, "bike_id": "3584ab8b3a5aef834284e8eb62ee0200", "type": "electric_scooter", "name": "3584ab8b3a5aef834284e8eb62ee0200"}, {"is_disabled": 0, "is_reserved": 0, "fusion_lat": 0.0, "lat": 38.92012183333333, "fusion_lon": 0.0, "rental_uris": {"ios": "https://dc.lft.to/lastmile_qr_scan", "android": "https://dc.lft.to/lastmile_qr_scan"}, "lon": -77.0417935, "bike_id": "cb052dd242b01a703d3d8b15cf935306", "type": "electric_scooter", "name": "cb052dd242b01a703d3d8b15cf935306"}, {"is_disabled": 0, "is_reserved": 0, "fusion_lat": 0.0, "lat": 38.879965166666665, "fusion_lon": 0.0, "rental_uris": {"ios": "https://dc.lft.to/lastmile_qr_scan", "android": "https://dc.lft.to/lastmile_qr_scan"}, "lon": -76.985418, "bike_id": "3c8a0f799549f4bf09e97656daf18807", "type": "electric_scooter", "name": "3c8a0f799549f4bf09e97656daf18807"}, {"is_disabled": 0, "is_reserved": 0, "fusion_lat": 0.0, "lat": 39.0000725, "fusion_lon": 0.0, "rental_uris": {"ios": "https://dc.lft.to/lastmile_qr_scan", "android": "https://dc.lft.to/lastmile_qr_scan"}, "lon": -76.9179955, "bike_id": "ac012f0bd7765251b62970fdaaba6083", "type": "electric_bike", "name": "ac012f0bd7765251b62970fdaaba6083"}, {"is_disabled": 0, "is_reserved": 0, "fusion_lat": 0.0, "lat": 38.89364716666667, "fusion_lon": 0.0, "rental_uris": {"ios": "https://dc.lft.to/lastmile_qr_scan", "android": "https://dc.lft.to/lastmile_qr_scan"}, "lon": -76.94107433333333, "bike_id": "aa7172abf2157c59f43a138d9c49218e", "type": "electric_scooter", "name": "aa7172abf2157c59f43a138d9c49218e"}, {"is_disabled": 0, "is_reserved": 0, "fusion_lat": 0.0, "lat": 38.9531725, "fusion_lon": 0.0, "rental_uris": {"ios": "https://dc.lft.to/lastmile_qr_scan", "android": "https://dc.lft.to/lastmile_qr_scan"}, "lon": -76.9946415, "bike_id": "f7493b901bc3d80ef9bde3c1dd944a09", "type": "electric_scooter", "name": "f7493b901bc3d80ef9bde3c1dd944a09"}, {"is_disabled": 0, "is_reserved": 0, "fusion_lat": 0.0, "lat": 38.900634833333335, "fusion_lon": 0.0, "rental_uris": {"ios": "https://dc.lft.to/lastmile_qr_scan", "android": "https://dc.lft.to/lastmile_qr_scan"}, "lon": -77.04940916666666, "bike_id": "e85ae32a80304110d5ca424b7d7f7c7a", "type": "electric_scooter", "name": "e85ae32a80304110d5ca424b7d7f7c7a"}, {"is_disabled": 0, "is_reserved": 0, "fusion_lat": 0.0, "lat": 38.93699683333333, "fusion_lon": 0.0, "rental_uris": {"ios": "https://dc.lft.to/lastmile_qr_scan", "android": "https://dc.lft.to/lastmile_qr_scan"}, "lon": -77.05604, "bike_id": "17353bec3cc15192fe0f4a428ddb7b63", "type": "electric_scooter", "name": "17353bec3cc15192fe0f4a428ddb7b63"}, {"is_disabled": 0, "is_reserved": 0, "fusion_lat": 0.0, "lat": 38.899851166666664, "fusion_lon": 0.0, "rental_uris": {"ios": "https://dc.lft.to/lastmile_qr_scan", "android": "https://dc.lft.to/lastmile_qr_scan"}, "lon": -77.00925583333333, "bike_id": "3774d918eccfe105ae7b210b52651ce3", "type": "electric_scooter", "name": "3774d918eccfe105ae7b210b52651ce3"}, {"is_disabled": 0, "is_reserved": 0, "fusion_lat": 0.0, "lat": 38.896037, "fusion_lon": 0.0, "rental_uris": {"ios": "https://dc.lft.to/lastmile_qr_scan", "android": "https://dc.lft.to/lastmile_qr_scan"}, "lon": -77.02672133333333, "bike_id": "ff5e2f7363b9dc5a748f4e678b9996bf", "type": "electric_scooter", "name": "ff5e2f7363b9dc5a748f4e678b9996bf"}, {"is_disabled": 0, "is_reserved": 0, "fusion_lat": 0.0, "lat": 38.88535066666667, "fusion_lon": 0.0, "rental_uris": {"ios": "https://dc.lft.to/lastmile_qr_scan", "android": "https://dc.lft.to/lastmile_qr_scan"}, "lon": -76.99798116666666, "bike_id": "a68012190d1947e1d1e41392431fd911", "type": "electric_scooter", "name": "a68012190d1947e1d1e41392431fd911"}, {"is_disabled": 0, "is_reserved": 0, "fusion_lat": 0.0, "lat": 38.8718985, "fusion_lon": 0.0, "rental_uris": {"ios": "https://dc.lft.to/lastmile_qr_scan", "android": "https://dc.lft.to/lastmile_qr_scan"}, "lon": -77.005871, "bike_id": "f505d11e8526a7055e2862a178d0cece", "type": "electric_scooter", "name": "f505d11e8526a7055e2862a178d0cece"}, {"is_disabled": 0, "is_reserved": 0, "fusion_lat": 0.0, "lat": 38.8667965, "fusion_lon": 0.0, "rental_uris": {"ios": "https://dc.lft.to/lastmile_qr_scan", "android": "https://dc.lft.to/lastmile_qr_scan"}, "lon": -77.01064433333333, "bike_id": "e9b171f87d6fef2571c73516bb1a006b", "type": "electric_scooter", "name": "e9b171f87d6fef2571c73516bb1a006b"}, {"is_disabled": 0, "is_reserved": 0, "fusion_lat": 0.0, "lat": 38.892365833333336, "fusion_lon": 0.0, "rental_uris": {"ios": "https://dc.lft.to/lastmile_qr_scan", "android": "https://dc.lft.to/lastmile_qr_scan"}, "lon": -77.031777, "bike_id": "c619d9510683919c3eff63fcd3b7d7ab", "type": "electric_scooter", "name": "c619d9510683919c3eff63fcd3b7d7ab"}, {"is_disabled": 0, "is_reserved": 0, "fusion_lat": 0.0, "lat": 38.883584, "fusion_lon": 0.0, "rental_uris": {"ios": "https://dc.lft.to/lastmile_qr_scan", "android": "https://dc.lft.to/lastmile_qr_scan"}, "lon": -76.99498716666666, "bike_id": "da1ec8370def6e7037cb73794c5f20d2", "type": "electric_scooter", "name": "da1ec8370def6e7037cb73794c5f20d2"}, {"is_disabled": 0, "is_reserved": 0, "fusion_lat": 0.0, "lat": 38.964437333333336, "fusion_lon": 0.0, "rental_uris": {"ios": "https://dc.lft.to/lastmile_qr_scan", "android": "https://dc.lft.to/lastmile_qr_scan"}, "lon": -77.074278, "bike_id": "c14b98498ea07b6b55e06fbc38f5510b", "type": "electric_scooter", "name": "c14b98498ea07b6b55e06fbc38f5510b"}, {"is_disabled": 0, "is_reserved": 0, "fusion_lat": 0.0, "lat": 38.89755816666667, "fusion_lon": 0.0, "rental_uris": {"ios": "https://dc.lft.to/lastmile_qr_scan", "android": "https://dc.lft.to/lastmile_qr_scan"}, "lon": -77.0453295, "bike_id": "e59591ef432d1e136a6e281405303da4", "type": "electric_scooter", "name": "e59591ef432d1e136a6e281405303da4"}, {"is_disabled": 0, "is_reserved": 0, "fusion_lat": 0.0, "lat": 38.9015085, "fusion_lon": 0.0, "rental_uris": {"ios": "https://dc.lft.to/lastmile_qr_scan", "android": "https://dc.lft.to/lastmile_qr_scan"}, "lon": -77.03372083333333, "bike_id": "36f7c82aa15ef28c4afe0e99e0f246d3", "type": "electric_scooter", "name": "36f7c82aa15ef28c4afe0e99e0f246d3"}, {"is_disabled": 0, "is_reserved": 0, "fusion_lat": 0.0, "lat": 38.834091666666666, "fusion_lon": 0.0, "rental_uris": {"ios": "https://dc.lft.to/lastmile_qr_scan", "android": "https://dc.lft.to/lastmile_qr_scan"}, "lon": -77.0502765, "bike_id": "cb8597c8ce517e51b23b90bce14a5ab2", "type": "electric_bike", "name": "cb8597c8ce517e51b23b90bce14a5ab2"}, {"is_disabled": 0, "is_reserved": 0, "fusion_lat": 0.0, "lat": 38.8571645, "fusion_lon": 0.0, "rental_uris": {"ios": "https://dc.lft.to/lastmile_qr_scan", "android": "https://dc.lft.to/lastmile_qr_scan"}, "lon": -76.98100016666666, "bike_id": "6c69dd9bb781704b2e59b5730c81be44", "type": "electric_scooter", "name": "6c69dd9bb781704b2e59b5730c81be44"}, {"is_disabled": 0, "is_reserved": 0, "fusion_lat": 0.0, "lat": 38.918350833333335, "fusion_lon": 0.0, "rental_uris": {"ios": "https://dc.lft.to/lastmile_qr_scan", "android": "https://dc.lft.to/lastmile_qr_scan"}, "lon": -77.04168383333334, "bike_id": "923c77c26731cd0aab11333215dfc6a3", "type": "electric_scooter", "name": "923c77c26731cd0aab11333215dfc6a3"}, {"is_disabled": 0, "is_reserved": 0, "fusion_lat": 0.0, "lat": 38.898661, "fusion_lon": 0.0, "rental_uris": {"ios": "https://dc.lft.to/lastmile_qr_scan", "android": "https://dc.lft.to/lastmile_qr_scan"}, "lon": -76.94665416666666, "bike_id": "baa1eeca9b0a8bbe9574f1fc9c30beb8", "type": "electric_scooter", "name": "baa1eeca9b0a8bbe9574f1fc9c30beb8"}, {"is_disabled": 0, "is_reserved": 0, "fusion_lat": 0.0, "lat": 38.918084666666665, "fusion_lon": 0.0, "rental_uris": {"ios": "https://dc.lft.to/lastmile_qr_scan", "android": "https://dc.lft.to/lastmile_qr_scan"}, "lon": -77.034422, "bike_id": "5c9f103ca5423f3af1dd2cad5aaa5d4f", "type": "electric_scooter", "name": "5c9f103ca5423f3af1dd2cad5aaa5d4f"}, {"is_disabled": 0, "is_reserved": 0, "fusion_lat": 0.0, "lat": 38.89677283333333, "fusion_lon": 0.0, "rental_uris": {"ios": "https://dc.lft.to/lastmile_qr_scan", "android": "https://dc.lft.to/lastmile_qr_scan"}, "lon": -77.05467583333333, "bike_id": "26d2e5691022219c32e9ec2abc543f0c", "type": "electric_scooter", "name": "26d2e5691022219c32e9ec2abc543f0c"}, {"is_disabled": 0, "is_reserved": 0, "fusion_lat": 0.0, "lat": 38.8961115, "fusion_lon": 0.0, "rental_uris": {"ios": "https://dc.lft.to/lastmile_qr_scan", "android": "https://dc.lft.to/lastmile_qr_scan"}, "lon": -77.00607183333334, "bike_id": "5d16753e8a77e3e173647616d8ce4731", "type": "electric_scooter", "name": "5d16753e8a77e3e173647616d8ce4731"}, {"is_disabled": 0, "is_reserved": 0, "fusion_lat": 0.0, "lat": 38.928098, "fusion_lon": 0.0, "rental_uris": {"ios": "https://dc.lft.to/lastmile_qr_scan", "android": "https://dc.lft.to/lastmile_qr_scan"}, "lon": -77.02302466666667, "bike_id": "e10e48801dfef047e2d705d19b00a065", "type": "electric_scooter", "name": "e10e48801dfef047e2d705d19b00a065"}, {"is_disabled": 0, "is_reserved": 0, "fusion_lat": 0.0, "lat": 38.93073066666667, "fusion_lon": 0.0, "rental_uris": {"ios": "https://dc.lft.to/lastmile_qr_scan", "android": "https://dc.lft.to/lastmile_qr_scan"}, "lon": -77.0236385, "bike_id": "5a59ea10fb2ae9a15f7a1e0ddac557ce", "type": "electric_scooter", "name": "5a59ea10fb2ae9a15f7a1e0ddac557ce"}, {"is_disabled": 0, "is_reserved": 0, "fusion_lat": 0.0, "lat": 38.882242166666664, "fusion_lon": 0.0, "rental_uris": {"ios": "https://dc.lft.to/lastmile_qr_scan", "android": "https://dc.lft.to/lastmile_qr_scan"}, "lon": -77.029464, "bike_id": "c8e720ef992b9e2b707d87b1b8abd5d4", "type": "electric_scooter", "name": "c8e720ef992b9e2b707d87b1b8abd5d4"}, {"is_disabled": 0, "is_reserved": 0, "fusion_lat": 0.0, "lat": 38.94921016666667, "fusion_lon": 0.0, "rental_uris": {"ios": "https://dc.lft.to/lastmile_qr_scan", "android": "https://dc.lft.to/lastmile_qr_scan"}, "lon": -77.02311083333333, "bike_id": "40f6897916ac2e13497b6a2456106e17", "type": "electric_scooter", "name": "40f6897916ac2e13497b6a2456106e17"}, {"is_disabled": 0, "is_reserved": 0, "fusion_lat": 0.0, "lat": 38.886270333333336, "fusion_lon": 0.0, "rental_uris": {"ios": "https://dc.lft.to/lastmile_qr_scan", "android": "https://dc.lft.to/lastmile_qr_scan"}, "lon": -76.995032, "bike_id": "b846680a074713fcabf84757c29c77ef", "type": "electric_scooter", "name": "b846680a074713fcabf84757c29c77ef"}, {"is_disabled": 0, "is_reserved": 0, "fusion_lat": 0.0, "lat": 38.911570166666664, "fusion_lon": 0.0, "rental_uris": {"ios": "https://dc.lft.to/lastmile_qr_scan", "android": "https://dc.lft.to/lastmile_qr_scan"}, "lon": -77.02382433333334, "bike_id": "4bc16253f33b7dc7f7b7582148c7f2b7", "type": "electric_scooter", "name": "4bc16253f33b7dc7f7b7582148c7f2b7"}, {"is_disabled": 0, "is_reserved": 0, "fusion_lat": 0.0, "lat": 38.912075333333334, "fusion_lon": 0.0, "rental_uris": {"ios": "https://dc.lft.to/lastmile_qr_scan", "android": "https://dc.lft.to/lastmile_qr_scan"}, "lon": -77.02095733333333, "bike_id": "ccb9e1ce1f9d11071fdc975199c21f94", "type": "electric_scooter", "name": "ccb9e1ce1f9d11071fdc975199c21f94"}, {"is_disabled": 0, "is_reserved": 0, "fusion_lat": 0.0, "lat": 38.918196333333334, "fusion_lon": 0.0, "rental_uris": {"ios": "https://dc.lft.to/lastmile_qr_scan", "android": "https://dc.lft.to/lastmile_qr_scan"}, "lon": -77.0252525, "bike_id": "241ac12ec7782a8bf07e64effd9b0029", "type": "electric_scooter", "name": "241ac12ec7782a8bf07e64effd9b0029"}, {"is_disabled": 0, "is_reserved": 0, "fusion_lat": 0.0, "lat": 38.9309045, "fusion_lon": 0.0, "rental_uris": {"ios": "https://dc.lft.to/lastmile_qr_scan", "android": "https://dc.lft.to/lastmile_qr_scan"}, "lon": -77.032263, "bike_id": "54f63cc954aa3c235aae2db696b336c9", "type": "electric_scooter", "name": "54f63cc954aa3c235aae2db696b336c9"}, {"is_disabled": 0, "is_reserved": 0, "fusion_lat": 0.0, "lat": 38.9216535, "fusion_lon": 0.0, "rental_uris": {"ios": "https://dc.lft.to/lastmile_qr_scan", "android": "https://dc.lft.to/lastmile_qr_scan"}, "lon": -77.03668216666667, "bike_id": "92b3799e670aeaba6701a71251ef482a", "type": "electric_scooter", "name": "92b3799e670aeaba6701a71251ef482a"}, {"is_disabled": 0, "is_reserved": 0, "fusion_lat": 0.0, "lat": 38.91328583333333, "fusion_lon": 0.0, "rental_uris": {"ios": "https://dc.lft.to/lastmile_qr_scan", "android": "https://dc.lft.to/lastmile_qr_scan"}, "lon": -77.031908, "bike_id": "07c2a4ef214347d80da8deaca937c2aa", "type": "electric_scooter", "name": "07c2a4ef214347d80da8deaca937c2aa"}, {"is_disabled": 0, "is_reserved": 0, "fusion_lat": 0.0, "lat": 38.907185166666665, "fusion_lon": 0.0, "rental_uris": {"ios": "https://dc.lft.to/lastmile_qr_scan", "android": "https://dc.lft.to/lastmile_qr_scan"}, "lon": -77.05309, "bike_id": "16f76b1183b42ff629c412909bd454b6", "type": "electric_scooter", "name": "16f76b1183b42ff629c412909bd454b6"}, {"is_disabled": 0, "is_reserved": 0, "fusion_lat": 0.0, "lat": 38.9264505, "fusion_lon": 0.0, "rental_uris": {"ios": "https://dc.lft.to/lastmile_qr_scan", "android": "https://dc.lft.to/lastmile_qr_scan"}, "lon": -77.037057, "bike_id": "3452fb3563167846ec9c3dd32b2d646d", "type": "electric_scooter", "name": "3452fb3563167846ec9c3dd32b2d646d"}, {"is_disabled": 0, "is_reserved": 0, "fusion_lat": 0.0, "lat": 38.90164733333334, "fusion_lon": 0.0, "rental_uris": {"ios": "https://dc.lft.to/lastmile_qr_scan", "android": "https://dc.lft.to/lastmile_qr_scan"}, "lon": -77.02176933333334, "bike_id": "a2c8bd774684305acc2ade1605dee13b", "type": "electric_scooter", "name": "a2c8bd774684305acc2ade1605dee13b"}, {"is_disabled": 0, "is_reserved": 0, "fusion_lat": 0.0, "lat": 38.90545983333333, "fusion_lon": 0.0, "rental_uris": {"ios": "https://dc.lft.to/lastmile_qr_scan", "android": "https://dc.lft.to/lastmile_qr_scan"}, "lon": -77.0219845, "bike_id": "3e2826ab3384743b177909c946c6a008", "type": "electric_scooter", "name": "3e2826ab3384743b177909c946c6a008"}, {"is_disabled": 0, "is_reserved": 0, "fusion_lat": 0.0, "lat": 38.91261566666667, "fusion_lon": 0.0, "rental_uris": {"ios": "https://dc.lft.to/lastmile_qr_scan", "android": "https://dc.lft.to/lastmile_qr_scan"}, "lon": -77.022309, "bike_id": "042e37555d0e0c25992badd62f88e960", "type": "electric_scooter", "name": "042e37555d0e0c25992badd62f88e960"}, {"is_disabled": 0, "is_reserved": 0, "fusion_lat": 0.0, "lat": 38.89387116666666, "fusion_lon": 0.0, "rental_uris": {"ios": "https://dc.lft.to/lastmile_qr_scan", "android": "https://dc.lft.to/lastmile_qr_scan"}, "lon": -76.9230985, "bike_id": "605083822085a4f7765845697a8a9a7a", "type": "electric_scooter", "name": "605083822085a4f7765845697a8a9a7a"}, {"is_disabled": 0, "is_reserved": 0, "fusion_lat": 0.0, "lat": 38.91551716666667, "fusion_lon": 0.0, "rental_uris": {"ios": "https://dc.lft.to/lastmile_qr_scan", "android": "https://dc.lft.to/lastmile_qr_scan"}, "lon": -77.05403916666667, "bike_id": "d090442879d6d2e0b21520a199e5c05e", "type": "electric_scooter", "name": "d090442879d6d2e0b21520a199e5c05e"}, {"is_disabled": 0, "is_reserved": 0, "fusion_lat": 0.0, "lat": 38.927297833333334, "fusion_lon": 0.0, "rental_uris": {"ios": "https://dc.lft.to/lastmile_qr_scan", "android": "https://dc.lft.to/lastmile_qr_scan"}, "lon": -77.02263083333334, "bike_id": "3a780aad866482abd2e3de7257b87b1e", "type": "electric_scooter", "name": "3a780aad866482abd2e3de7257b87b1e"}, {"is_disabled": 0, "is_reserved": 0, "fusion_lat": 0.0, "lat": 38.90959566666667, "fusion_lon": 0.0, "rental_uris": {"ios": "https://dc.lft.to/lastmile_qr_scan", "android": "https://dc.lft.to/lastmile_qr_scan"}, "lon": -77.034221, "bike_id": "aeb88ff8ec54b743abf409582cfb4408", "type": "electric_scooter", "name": "aeb88ff8ec54b743abf409582cfb4408"}, {"is_disabled": 0, "is_reserved": 0, "fusion_lat": 0.0, "lat": 38.9026105, "fusion_lon": 0.0, "rental_uris": {"ios": "https://dc.lft.to/lastmile_qr_scan", "android": "https://dc.lft.to/lastmile_qr_scan"}, "lon": -77.0168655, "bike_id": "b97949a51006dd6a41fac66acb2ac9aa", "type": "electric_scooter", "name": "b97949a51006dd6a41fac66acb2ac9aa"}, {"is_disabled": 0, "is_reserved": 0, "fusion_lat": 0.0, "lat": 38.902270666666666, "fusion_lon": 0.0, "rental_uris": {"ios": "https://dc.lft.to/lastmile_qr_scan", "android": "https://dc.lft.to/lastmile_qr_scan"}, "lon": -77.05347383333333, "bike_id": "e49557525f362b5055a540b034513115", "type": "electric_scooter", "name": "e49557525f362b5055a540b034513115"}, {"is_disabled": 0, "is_reserved": 0, "fusion_lat": 0.0, "lat": 38.9361055, "fusion_lon": 0.0, "rental_uris": {"ios": "https://dc.lft.to/lastmile_qr_scan", "android": "https://dc.lft.to/lastmile_qr_scan"}, "lon": -77.0387475, "bike_id": "2cc973b4e03601098144fd42d31e61c4", "type": "electric_scooter", "name": "2cc973b4e03601098144fd42d31e61c4"}, {"is_disabled": 0, "is_reserved": 0, "fusion_lat": 0.0, "lat": 38.880852, "fusion_lon": 0.0, "rental_uris": {"ios": "https://dc.lft.to/lastmile_qr_scan", "android": "https://dc.lft.to/lastmile_qr_scan"}, "lon": -77.00576666666667, "bike_id": "aa13c826726fa68bcc8a011d3f4cd5c4", "type": "electric_scooter", "name": "aa13c826726fa68bcc8a011d3f4cd5c4"}, {"is_disabled": 0, "is_reserved": 0, "fusion_lat": 0.0, "lat": 38.89823716666667, "fusion_lon": 0.0, "rental_uris": {"ios": "https://dc.lft.to/lastmile_qr_scan", "android": "https://dc.lft.to/lastmile_qr_scan"}, "lon": -77.029559, "bike_id": "7fb1ddc9a7954d66be70d63029597bbf", "type": "electric_scooter", "name": "7fb1ddc9a7954d66be70d63029597bbf"}, {"is_disabled": 0, "is_reserved": 0, "fusion_lat": 0.0, "lat": 38.934147333333335, "fusion_lon": 0.0, "rental_uris": {"ios": "https://dc.lft.to/lastmile_qr_scan", "android": "https://dc.lft.to/lastmile_qr_scan"}, "lon": -77.042817, "bike_id": "6bc878839098e747805c7a2bd7708f69", "type": "electric_scooter", "name": "6bc878839098e747805c7a2bd7708f69"}, {"is_disabled": 0, "is_reserved": 0, "fusion_lat": 0.0, "lat": 38.90894266666667, "fusion_lon": 0.0, "rental_uris": {"ios": "https://dc.lft.to/lastmile_qr_scan", "android": "https://dc.lft.to/lastmile_qr_scan"}, "lon": -76.9979905, "bike_id": "581ed6959ac624ee1f3ba2e30d567d6d", "type": "electric_scooter", "name": "581ed6959ac624ee1f3ba2e30d567d6d"}, {"is_disabled": 0, "is_reserved": 0, "fusion_lat": 0.0, "lat": 38.9287605, "fusion_lon": 0.0, "rental_uris": {"ios": "https://dc.lft.to/lastmile_qr_scan", "android": "https://dc.lft.to/lastmile_qr_scan"}, "lon": -77.02957166666667, "bike_id": "ff22c10391c396ab2f3075e3d18daed5", "type": "electric_scooter", "name": "ff22c10391c396ab2f3075e3d18daed5"}, {"is_disabled": 0, "is_reserved": 0, "fusion_lat": 0.0, "lat": 38.91055, "fusion_lon": 0.0, "rental_uris": {"ios": "https://dc.lft.to/lastmile_qr_scan", "android": "https://dc.lft.to/lastmile_qr_scan"}, "lon": -77.0434495, "bike_id": "8f8d9fc218450fefd15b63f008d6c598", "type": "electric_scooter", "name": "8f8d9fc218450fefd15b63f008d6c598"}, {"is_disabled": 0, "is_reserved": 0, "fusion_lat": 0.0, "lat": 38.929891, "fusion_lon": 0.0, "rental_uris": {"ios": "https://dc.lft.to/lastmile_qr_scan", "android": "https://dc.lft.to/lastmile_qr_scan"}, "lon": -77.03474783333333, "bike_id": "5e7fcef995c673b7fb957ddce693327a", "type": "electric_scooter", "name": "5e7fcef995c673b7fb957ddce693327a"}, {"is_disabled": 0, "is_reserved": 0, "fusion_lat": 0.0, "lat": 38.908313166666666, "fusion_lon": 0.0, "rental_uris": {"ios": "https://dc.lft.to/lastmile_qr_scan", "android": "https://dc.lft.to/lastmile_qr_scan"}, "lon": -77.03179783333333, "bike_id": "b8b140f1a1baffcfdf6ef66ae8a9e0b8", "type": "electric_scooter", "name": "b8b140f1a1baffcfdf6ef66ae8a9e0b8"}, {"is_disabled": 0, "is_reserved": 0, "fusion_lat": 0.0, "lat": 38.921155166666665, "fusion_lon": 0.0, "rental_uris": {"ios": "https://dc.lft.to/lastmile_qr_scan", "android": "https://dc.lft.to/lastmile_qr_scan"}, "lon": -77.0366185, "bike_id": "2f83600a1e4bbeefc02918d8656d912d", "type": "electric_scooter", "name": "2f83600a1e4bbeefc02918d8656d912d"}, {"is_disabled": 0, "is_reserved": 0, "fusion_lat": 0.0, "lat": 38.88390033333334, "fusion_lon": 0.0, "rental_uris": {"ios": "https://dc.lft.to/lastmile_qr_scan", "android": "https://dc.lft.to/lastmile_qr_scan"}, "lon": -77.03027133333333, "bike_id": "4984493ac84a1e27574e678e06ce1680", "type": "electric_scooter", "name": "4984493ac84a1e27574e678e06ce1680"}, {"is_disabled": 0, "is_reserved": 0, "fusion_lat": 0.0, "lat": 38.830420833333335, "fusion_lon": 0.0, "rental_uris": {"ios": "https://dc.lft.to/lastmile_qr_scan", "android": "https://dc.lft.to/lastmile_qr_scan"}, "lon": -77.00820283333333, "bike_id": "13adc102a307f68e0da9569663727aad", "type": "electric_bike", "name": "13adc102a307f68e0da9569663727aad"}, {"is_disabled": 0, "is_reserved": 0, "fusion_lat": 0.0, "lat": 38.904961166666666, "fusion_lon": 0.0, "rental_uris": {"ios": "https://dc.lft.to/lastmile_qr_scan", "android": "https://dc.lft.to/lastmile_qr_scan"}, "lon": -77.0088905, "bike_id": "1b97ff4dcfdd9be82ca52dea2d233bbb", "type": "electric_scooter", "name": "1b97ff4dcfdd9be82ca52dea2d233bbb"}, {"is_disabled": 0, "is_reserved": 0, "fusion_lat": 0.0, "lat": 38.923721, "fusion_lon": 0.0, "rental_uris": {"ios": "https://dc.lft.to/lastmile_qr_scan", "android": "https://dc.lft.to/lastmile_qr_scan"}, "lon": -77.01910383333333, "bike_id": "5c4a08bc94ecd23314a6a996f56530e9", "type": "electric_scooter", "name": "5c4a08bc94ecd23314a6a996f56530e9"}, {"is_disabled": 0, "is_reserved": 0, "fusion_lat": 0.0, "lat": 38.89231983333333, "fusion_lon": 0.0, "rental_uris": {"ios": "https://dc.lft.to/lastmile_qr_scan", "android": "https://dc.lft.to/lastmile_qr_scan"}, "lon": -77.02814116666667, "bike_id": "c31bd78d3f9fdacd75d9943085ec9e9d", "type": "electric_scooter", "name": "c31bd78d3f9fdacd75d9943085ec9e9d"}, {"is_disabled": 0, "is_reserved": 0, "fusion_lat": 0.0, "lat": 38.92297633333333, "fusion_lon": 0.0, "rental_uris": {"ios": "https://dc.lft.to/lastmile_qr_scan", "android": "https://dc.lft.to/lastmile_qr_scan"}, "lon": -77.04275816666667, "bike_id": "088b6ed3228bb945ad0f670e6add78fd", "type": "electric_scooter", "name": "088b6ed3228bb945ad0f670e6add78fd"}, {"is_disabled": 0, "is_reserved": 0, "fusion_lat": 0.0, "lat": 38.90910616666667, "fusion_lon": 0.0, "rental_uris": {"ios": "https://dc.lft.to/lastmile_qr_scan", "android": "https://dc.lft.to/lastmile_qr_scan"}, "lon": -77.03393583333333, "bike_id": "0601c6b0eab1cc78a7a95e085bfaa0c9", "type": "electric_scooter", "name": "0601c6b0eab1cc78a7a95e085bfaa0c9"}, {"is_disabled": 0, "is_reserved": 0, "fusion_lat": 0.0, "lat": 38.889876, "fusion_lon": 0.0, "rental_uris": {"ios": "https://dc.lft.to/lastmile_qr_scan", "android": "https://dc.lft.to/lastmile_qr_scan"}, "lon": -77.00340716666666, "bike_id": "43af87c990b0dca1ca04357e018f5857", "type": "electric_scooter", "name": "43af87c990b0dca1ca04357e018f5857"}, {"is_disabled": 0, "is_reserved": 0, "fusion_lat": 0.0, "lat": 38.89968066666667, "fusion_lon": 0.0, "rental_uris": {"ios": "https://dc.lft.to/lastmile_qr_scan", "android": "https://dc.lft.to/lastmile_qr_scan"}, "lon": -76.9376585, "bike_id": "7d38761d4b5795e40df277c2062dd1b3", "type": "electric_scooter", "name": "7d38761d4b5795e40df277c2062dd1b3"}, {"is_disabled": 0, "is_reserved": 0, "fusion_lat": 0.0, "lat": 38.892277166666666, "fusion_lon": 0.0, "rental_uris": {"ios": "https://dc.lft.to/lastmile_qr_scan", "android": "https://dc.lft.to/lastmile_qr_scan"}, "lon": -77.02171033333333, "bike_id": "f450cb5c87d3b63d07ffec0a6208483b", "type": "electric_scooter", "name": "f450cb5c87d3b63d07ffec0a6208483b"}, {"is_disabled": 0, "is_reserved": 0, "fusion_lat": 0.0, "lat": 38.920551833333334, "fusion_lon": 0.0, "rental_uris": {"ios": "https://dc.lft.to/lastmile_qr_scan", "android": "https://dc.lft.to/lastmile_qr_scan"}, "lon": -77.04192683333333, "bike_id": "f992e7ecaf83bb973d2ffc88e5233e27", "type": "electric_scooter", "name": "f992e7ecaf83bb973d2ffc88e5233e27"}, {"is_disabled": 0, "is_reserved": 0, "fusion_lat": 0.0, "lat": 38.89280483333334, "fusion_lon": 0.0, "rental_uris": {"ios": "https://dc.lft.to/lastmile_qr_scan", "android": "https://dc.lft.to/lastmile_qr_scan"}, "lon": -77.0502355, "bike_id": "6d95f53c37ab6a695aad07f567fef40d", "type": "electric_scooter", "name": "6d95f53c37ab6a695aad07f567fef40d"}, {"is_disabled": 0, "is_reserved": 0, "fusion_lat": 0.0, "lat": 38.8837205, "fusion_lon": 0.0, "rental_uris": {"ios": "https://dc.lft.to/lastmile_qr_scan", "android": "https://dc.lft.to/lastmile_qr_scan"}, "lon": -76.995161, "bike_id": "e18549bd1375a6406f803eae6af0e0e7", "type": "electric_scooter", "name": "e18549bd1375a6406f803eae6af0e0e7"}, {"is_disabled": 0, "is_reserved": 0, "fusion_lat": 0.0, "lat": 38.95362733333333, "fusion_lon": 0.0, "rental_uris": {"ios": "https://dc.lft.to/lastmile_qr_scan", "android": "https://dc.lft.to/lastmile_qr_scan"}, "lon": -76.94296366666667, "bike_id": "e7ee2b34ca4f2ea22635c80d50486dc3", "type": "electric_bike", "name": "e7ee2b34ca4f2ea22635c80d50486dc3"}, {"is_disabled": 0, "is_reserved": 0, "fusion_lat": 0.0, "lat": 38.92848816666667, "fusion_lon": 0.0, "rental_uris": {"ios": "https://dc.lft.to/lastmile_qr_scan", "android": "https://dc.lft.to/lastmile_qr_scan"}, "lon": -77.03258016666666, "bike_id": "357a55ddb0e39014997ff65d91a6cf47", "type": "electric_scooter", "name": "357a55ddb0e39014997ff65d91a6cf47"}, {"is_disabled": 0, "is_reserved": 0, "fusion_lat": 0.0, "lat": 38.9292055, "fusion_lon": 0.0, "rental_uris": {"ios": "https://dc.lft.to/lastmile_qr_scan", "android": "https://dc.lft.to/lastmile_qr_scan"}, "lon": -77.0325145, "bike_id": "bd03a283eebf7d97a7bf9d10781f7708", "type": "electric_bike", "name": "bd03a283eebf7d97a7bf9d10781f7708"}, {"is_disabled": 0, "is_reserved": 0, "fusion_lat": 0.0, "lat": 38.93079133333333, "fusion_lon": 0.0, "rental_uris": {"ios": "https://dc.lft.to/lastmile_qr_scan", "android": "https://dc.lft.to/lastmile_qr_scan"}, "lon": -77.07763683333333, "bike_id": "cc60d9765f1c91777e20963c73b25722", "type": "electric_scooter", "name": "cc60d9765f1c91777e20963c73b25722"}, {"is_disabled": 0, "is_reserved": 0, "fusion_lat": 0.0, "lat": 38.91005416666667, "fusion_lon": 0.0, "rental_uris": {"ios": "https://dc.lft.to/lastmile_qr_scan", "android": "https://dc.lft.to/lastmile_qr_scan"}, "lon": -77.044279, "bike_id": "b01f76068115bf4378141c9644026037", "type": "electric_scooter", "name": "b01f76068115bf4378141c9644026037"}, {"is_disabled": 0, "is_reserved": 0, "fusion_lat": 0.0, "lat": 38.892261166666664, "fusion_lon": 0.0, "rental_uris": {"ios": "https://dc.lft.to/lastmile_qr_scan", "android": "https://dc.lft.to/lastmile_qr_scan"}, "lon": -77.05005233333333, "bike_id": "a505ef3f54bd1067aca98bb7196dd50e", "type": "electric_scooter", "name": "a505ef3f54bd1067aca98bb7196dd50e"}, {"is_disabled": 0, "is_reserved": 0, "fusion_lat": 0.0, "lat": 38.93973033333333, "fusion_lon": 0.0, "rental_uris": {"ios": "https://dc.lft.to/lastmile_qr_scan", "android": "https://dc.lft.to/lastmile_qr_scan"}, "lon": -77.03430316666666, "bike_id": "f58fca95aaf7301d8109cad90fa5e0d0", "type": "electric_scooter", "name": "f58fca95aaf7301d8109cad90fa5e0d0"}, {"is_disabled": 0, "is_reserved": 0, "fusion_lat": 0.0, "lat": 38.91808966666667, "fusion_lon": 0.0, "rental_uris": {"ios": "https://dc.lft.to/lastmile_qr_scan", "android": "https://dc.lft.to/lastmile_qr_scan"}, "lon": -77.03436566666667, "bike_id": "15ed8cac28e044e287dcfeb4daf59ea0", "type": "electric_scooter", "name": "15ed8cac28e044e287dcfeb4daf59ea0"}, {"is_disabled": 0, "is_reserved": 0, "fusion_lat": 0.0, "lat": 39.0037915, "fusion_lon": 0.0, "rental_uris": {"ios": "https://dc.lft.to/lastmile_qr_scan", "android": "https://dc.lft.to/lastmile_qr_scan"}, "lon": -77.01299416666667, "bike_id": "05424e7250ceac1f3e2a106b3cf4a3ad", "type": "electric_bike", "name": "05424e7250ceac1f3e2a106b3cf4a3ad"}, {"is_disabled": 0, "is_reserved": 0, "fusion_lat": 0.0, "lat": 38.9126505, "fusion_lon": 0.0, "rental_uris": {"ios": "https://dc.lft.to/lastmile_qr_scan", "android": "https://dc.lft.to/lastmile_qr_scan"}, "lon": -77.022579, "bike_id": "73af4ffb97fc242411402f3876eae623", "type": "electric_scooter", "name": "73af4ffb97fc242411402f3876eae623"}, {"is_disabled": 0, "is_reserved": 0, "fusion_lat": 0.0, "lat": 38.91550983333333, "fusion_lon": 0.0, "rental_uris": {"ios": "https://dc.lft.to/lastmile_qr_scan", "android": "https://dc.lft.to/lastmile_qr_scan"}, "lon": -77.034738, "bike_id": "b5773cfe48a8d4d58628d0cee553b1a7", "type": "electric_scooter", "name": "b5773cfe48a8d4d58628d0cee553b1a7"}, {"is_disabled": 0, "is_reserved": 0, "fusion_lat": 0.0, "lat": 38.916028, "fusion_lon": 0.0, "rental_uris": {"ios": "https://dc.lft.to/lastmile_qr_scan", "android": "https://dc.lft.to/lastmile_qr_scan"}, "lon": -77.01218566666667, "bike_id": "408361f4935e814814ae390a9144a20a", "type": "electric_scooter", "name": "408361f4935e814814ae390a9144a20a"}, {"is_disabled": 0, "is_reserved": 0, "fusion_lat": 0.0, "lat": 38.91113633333333, "fusion_lon": 0.0, "rental_uris": {"ios": "https://dc.lft.to/lastmile_qr_scan", "android": "https://dc.lft.to/lastmile_qr_scan"}, "lon": -77.044631, "bike_id": "d9266ade04b99fe3b271427380cc3aa1", "type": "electric_scooter", "name": "d9266ade04b99fe3b271427380cc3aa1"}, {"is_disabled": 0, "is_reserved": 0, "fusion_lat": 0.0, "lat": 38.903606333333336, "fusion_lon": 0.0, "rental_uris": {"ios": "https://dc.lft.to/lastmile_qr_scan", "android": "https://dc.lft.to/lastmile_qr_scan"}, "lon": -77.02970466666666, "bike_id": "67acfcd458f0dd03b320c5643330f701", "type": "electric_scooter", "name": "67acfcd458f0dd03b320c5643330f701"}, {"is_disabled": 0, "is_reserved": 0, "fusion_lat": 0.0, "lat": 38.91111333333333, "fusion_lon": 0.0, "rental_uris": {"ios": "https://dc.lft.to/lastmile_qr_scan", "android": "https://dc.lft.to/lastmile_qr_scan"}, "lon": -77.0116395, "bike_id": "b9093d975e41ce6d62c0d8268f7ca12e", "type": "electric_scooter", "name": "b9093d975e41ce6d62c0d8268f7ca12e"}, {"is_disabled": 0, "is_reserved": 0, "fusion_lat": 0.0, "lat": 38.923426, "fusion_lon": 0.0, "rental_uris": {"ios": "https://dc.lft.to/lastmile_qr_scan", "android": "https://dc.lft.to/lastmile_qr_scan"}, "lon": -77.0191615, "bike_id": "34b66f6f0ba7c4178299208a562b7fd5", "type": "electric_scooter", "name": "34b66f6f0ba7c4178299208a562b7fd5"}, {"is_disabled": 0, "is_reserved": 0, "fusion_lat": 0.0, "lat": 38.91540216666667, "fusion_lon": 0.0, "rental_uris": {"ios": "https://dc.lft.to/lastmile_qr_scan", "android": "https://dc.lft.to/lastmile_qr_scan"}, "lon": -77.0092015, "bike_id": "41fdae4b07b4181a80a8afcf5c5fbab2", "type": "electric_scooter", "name": "41fdae4b07b4181a80a8afcf5c5fbab2"}, {"is_disabled": 0, "is_reserved": 0, "fusion_lat": 0.0, "lat": 38.93172666666667, "fusion_lon": 0.0, "rental_uris": {"ios": "https://dc.lft.to/lastmile_qr_scan", "android": "https://dc.lft.to/lastmile_qr_scan"}, "lon": -77.02817283333333, "bike_id": "2d72f5460f841966d05b18efc88ed100", "type": "electric_scooter", "name": "2d72f5460f841966d05b18efc88ed100"}, {"is_disabled": 0, "is_reserved": 0, "fusion_lat": 0.0, "lat": 38.8960475, "fusion_lon": 0.0, "rental_uris": {"ios": "https://dc.lft.to/lastmile_qr_scan", "android": "https://dc.lft.to/lastmile_qr_scan"}, "lon": -76.998013, "bike_id": "c155dc3ab8563c2825b1cc785037140c", "type": "electric_scooter", "name": "c155dc3ab8563c2825b1cc785037140c"}, {"is_disabled": 0, "is_reserved": 0, "fusion_lat": 0.0, "lat": 38.9418155, "fusion_lon": 0.0, "rental_uris": {"ios": "https://dc.lft.to/lastmile_qr_scan", "android": "https://dc.lft.to/lastmile_qr_scan"}, "lon": -77.02538633333333, "bike_id": "426ff4ab059ef50ff06712257ef9bc08", "type": "electric_scooter", "name": "426ff4ab059ef50ff06712257ef9bc08"}, {"is_disabled": 0, "is_reserved": 0, "fusion_lat": 0.0, "lat": 38.912304, "fusion_lon": 0.0, "rental_uris": {"ios": "https://dc.lft.to/lastmile_qr_scan", "android": "https://dc.lft.to/lastmile_qr_scan"}, "lon": -77.06403016666667, "bike_id": "b738836ee013b9dc9047d73064474dc3", "type": "electric_scooter", "name": "b738836ee013b9dc9047d73064474dc3"}, {"is_disabled": 0, "is_reserved": 0, "fusion_lat": 0.0, "lat": 38.916616, "fusion_lon": 0.0, "rental_uris": {"ios": "https://dc.lft.to/lastmile_qr_scan", "android": "https://dc.lft.to/lastmile_qr_scan"}, "lon": -77.03183683333333, "bike_id": "54b267fdb14e6a41b8fccbc5762243c4", "type": "electric_scooter", "name": "54b267fdb14e6a41b8fccbc5762243c4"}, {"is_disabled": 0, "is_reserved": 0, "fusion_lat": 0.0, "lat": 38.906490833333336, "fusion_lon": 0.0, "rental_uris": {"ios": "https://dc.lft.to/lastmile_qr_scan", "android": "https://dc.lft.to/lastmile_qr_scan"}, "lon": -76.97944283333334, "bike_id": "15db83c9f1bb1f573622c7af2f9c47f5", "type": "electric_scooter", "name": "15db83c9f1bb1f573622c7af2f9c47f5"}, {"is_disabled": 0, "is_reserved": 0, "fusion_lat": 0.0, "lat": 38.930586, "fusion_lon": 0.0, "rental_uris": {"ios": "https://dc.lft.to/lastmile_qr_scan", "android": "https://dc.lft.to/lastmile_qr_scan"}, "lon": -77.02320866666666, "bike_id": "6bbf9139e2136cf8b1be9cf2ddccbad1", "type": "electric_scooter", "name": "6bbf9139e2136cf8b1be9cf2ddccbad1"}, {"is_disabled": 0, "is_reserved": 0, "fusion_lat": 0.0, "lat": 38.91652083333334, "fusion_lon": 0.0, "rental_uris": {"ios": "https://dc.lft.to/lastmile_qr_scan", "android": "https://dc.lft.to/lastmile_qr_scan"}, "lon": -77.02391216666666, "bike_id": "fe10d3b90928760812da4dc118884edd", "type": "electric_scooter", "name": "fe10d3b90928760812da4dc118884edd"}, {"is_disabled": 0, "is_reserved": 0, "fusion_lat": 0.0, "lat": 38.91614533333333, "fusion_lon": 0.0, "rental_uris": {"ios": "https://dc.lft.to/lastmile_qr_scan", "android": "https://dc.lft.to/lastmile_qr_scan"}, "lon": -77.02315516666667, "bike_id": "11065187215ebbfc020d6946b86155ee", "type": "electric_scooter", "name": "11065187215ebbfc020d6946b86155ee"}, {"is_disabled": 0, "is_reserved": 0, "fusion_lat": 0.0, "lat": 38.92809733333333, "fusion_lon": 0.0, "rental_uris": {"ios": "https://dc.lft.to/lastmile_qr_scan", "android": "https://dc.lft.to/lastmile_qr_scan"}, "lon": -77.022997, "bike_id": "e0a9ba103469aaa60a796ce38a4cab8e", "type": "electric_scooter", "name": "e0a9ba103469aaa60a796ce38a4cab8e"}, {"is_disabled": 0, "is_reserved": 0, "fusion_lat": 0.0, "lat": 38.90888666666667, "fusion_lon": 0.0, "rental_uris": {"ios": "https://dc.lft.to/lastmile_qr_scan", "android": "https://dc.lft.to/lastmile_qr_scan"}, "lon": -77.0743495, "bike_id": "baa12ba466017317bfc57e5f4d0e7a45", "type": "electric_scooter", "name": "baa12ba466017317bfc57e5f4d0e7a45"}, {"is_disabled": 0, "is_reserved": 0, "fusion_lat": 0.0, "lat": 38.91705133333333, "fusion_lon": 0.0, "rental_uris": {"ios": "https://dc.lft.to/lastmile_qr_scan", "android": "https://dc.lft.to/lastmile_qr_scan"}, "lon": -77.04175666666667, "bike_id": "06f9ec5a092b4fdd1c143d3ec8d2cc4b", "type": "electric_scooter", "name": "06f9ec5a092b4fdd1c143d3ec8d2cc4b"}, {"is_disabled": 0, "is_reserved": 0, "fusion_lat": 0.0, "lat": 38.892274666666665, "fusion_lon": 0.0, "rental_uris": {"ios": "https://dc.lft.to/lastmile_qr_scan", "android": "https://dc.lft.to/lastmile_qr_scan"}, "lon": -77.03127316666667, "bike_id": "011eb5260da3a95d21c3b2226118c274", "type": "electric_scooter", "name": "011eb5260da3a95d21c3b2226118c274"}, {"is_disabled": 0, "is_reserved": 0, "fusion_lat": 0.0, "lat": 38.85520183333333, "fusion_lon": 0.0, "rental_uris": {"ios": "https://dc.lft.to/lastmile_qr_scan", "android": "https://dc.lft.to/lastmile_qr_scan"}, "lon": -76.9915905, "bike_id": "ac28cf3f43d9aa2b64fce1e5c58ffeec", "type": "electric_scooter", "name": "ac28cf3f43d9aa2b64fce1e5c58ffeec"}, {"is_disabled": 0, "is_reserved": 0, "fusion_lat": 0.0, "lat": 38.90472116666667, "fusion_lon": 0.0, "rental_uris": {"ios": "https://dc.lft.to/lastmile_qr_scan", "android": "https://dc.lft.to/lastmile_qr_scan"}, "lon": -76.95063966666666, "bike_id": "f26a085510932ed34cba7eb5e2d2e7f7", "type": "electric_scooter", "name": "f26a085510932ed34cba7eb5e2d2e7f7"}, {"is_disabled": 0, "is_reserved": 0, "fusion_lat": 0.0, "lat": 38.901290333333336, "fusion_lon": 0.0, "rental_uris": {"ios": "https://dc.lft.to/lastmile_qr_scan", "android": "https://dc.lft.to/lastmile_qr_scan"}, "lon": -77.00285516666666, "bike_id": "91d4f14e3a12551dbdabe0eb58b2986f", "type": "electric_scooter", "name": "91d4f14e3a12551dbdabe0eb58b2986f"}, {"is_disabled": 0, "is_reserved": 0, "fusion_lat": 0.0, "lat": 38.924352666666664, "fusion_lon": 0.0, "rental_uris": {"ios": "https://dc.lft.to/lastmile_qr_scan", "android": "https://dc.lft.to/lastmile_qr_scan"}, "lon": -77.02988816666667, "bike_id": "752a812cb461a75df5c7a5fbc46ea886", "type": "electric_scooter", "name": "752a812cb461a75df5c7a5fbc46ea886"}, {"is_disabled": 0, "is_reserved": 0, "fusion_lat": 0.0, "lat": 38.926414333333334, "fusion_lon": 0.0, "rental_uris": {"ios": "https://dc.lft.to/lastmile_qr_scan", "android": "https://dc.lft.to/lastmile_qr_scan"}, "lon": -77.03709333333333, "bike_id": "b260a4c631f070e96e1b376d865aa9a0", "type": "electric_scooter", "name": "b260a4c631f070e96e1b376d865aa9a0"}, {"is_disabled": 0, "is_reserved": 0, "fusion_lat": 0.0, "lat": 38.900659, "fusion_lon": 0.0, "rental_uris": {"ios": "https://dc.lft.to/lastmile_qr_scan", "android": "https://dc.lft.to/lastmile_qr_scan"}, "lon": -77.0445085, "bike_id": "2dca8dd389bb518fc2770776f9ecf8eb", "type": "electric_scooter", "name": "2dca8dd389bb518fc2770776f9ecf8eb"}, {"is_disabled": 0, "is_reserved": 0, "fusion_lat": 0.0, "lat": 38.90168333333333, "fusion_lon": 0.0, "rental_uris": {"ios": "https://dc.lft.to/lastmile_qr_scan", "android": "https://dc.lft.to/lastmile_qr_scan"}, "lon": -77.02192866666667, "bike_id": "3c1f7a161b59f4b80b8e93bd6b67c5e7", "type": "electric_scooter", "name": "3c1f7a161b59f4b80b8e93bd6b67c5e7"}, {"is_disabled": 0, "is_reserved": 0, "fusion_lat": 0.0, "lat": 38.91682216666667, "fusion_lon": 0.0, "rental_uris": {"ios": "https://dc.lft.to/lastmile_qr_scan", "android": "https://dc.lft.to/lastmile_qr_scan"}, "lon": -77.03345066666667, "bike_id": "8fc2570002fdbd78b6ce71f888b88b94", "type": "electric_scooter", "name": "8fc2570002fdbd78b6ce71f888b88b94"}, {"is_disabled": 0, "is_reserved": 0, "fusion_lat": 0.0, "lat": 38.93686533333333, "fusion_lon": 0.0, "rental_uris": {"ios": "https://dc.lft.to/lastmile_qr_scan", "android": "https://dc.lft.to/lastmile_qr_scan"}, "lon": -77.0585485, "bike_id": "2190f1cfa8d36abb9218e9cda5c40c14", "type": "electric_scooter", "name": "2190f1cfa8d36abb9218e9cda5c40c14"}, {"is_disabled": 0, "is_reserved": 0, "fusion_lat": 0.0, "lat": 38.91033133333333, "fusion_lon": 0.0, "rental_uris": {"ios": "https://dc.lft.to/lastmile_qr_scan", "android": "https://dc.lft.to/lastmile_qr_scan"}, "lon": -76.92333783333333, "bike_id": "7dee8a469bc113b2a3a13f5aafb8ade2", "type": "electric_bike", "name": "7dee8a469bc113b2a3a13f5aafb8ade2"}, {"is_disabled": 0, "is_reserved": 0, "fusion_lat": 0.0, "lat": 38.9126595, "fusion_lon": 0.0, "rental_uris": {"ios": "https://dc.lft.to/lastmile_qr_scan", "android": "https://dc.lft.to/lastmile_qr_scan"}, "lon": -77.02256883333334, "bike_id": "f8742c89df26e223d6cbdf73b2b02bfe", "type": "electric_scooter", "name": "f8742c89df26e223d6cbdf73b2b02bfe"}, {"is_disabled": 0, "is_reserved": 0, "fusion_lat": 0.0, "lat": 38.89960333333333, "fusion_lon": 0.0, "rental_uris": {"ios": "https://dc.lft.to/lastmile_qr_scan", "android": "https://dc.lft.to/lastmile_qr_scan"}, "lon": -77.02739183333334, "bike_id": "5ce0e7500cfc4f59d2b54c463777521b", "type": "electric_scooter", "name": "5ce0e7500cfc4f59d2b54c463777521b"}, {"is_disabled": 0, "is_reserved": 0, "fusion_lat": 0.0, "lat": 38.90592316666667, "fusion_lon": 0.0, "rental_uris": {"ios": "https://dc.lft.to/lastmile_qr_scan", "android": "https://dc.lft.to/lastmile_qr_scan"}, "lon": -77.06530116666667, "bike_id": "c247701675319c09938e5ff92c2865b2", "type": "electric_scooter", "name": "c247701675319c09938e5ff92c2865b2"}, {"is_disabled": 0, "is_reserved": 0, "fusion_lat": 0.0, "lat": 38.92264566666667, "fusion_lon": 0.0, "rental_uris": {"ios": "https://dc.lft.to/lastmile_qr_scan", "android": "https://dc.lft.to/lastmile_qr_scan"}, "lon": -77.03643466666666, "bike_id": "fadc45f9a66431880be4826e6b473556", "type": "electric_scooter", "name": "fadc45f9a66431880be4826e6b473556"}, {"is_disabled": 0, "is_reserved": 0, "fusion_lat": 0.0, "lat": 38.9024725, "fusion_lon": 0.0, "rental_uris": {"ios": "https://dc.lft.to/lastmile_qr_scan", "android": "https://dc.lft.to/lastmile_qr_scan"}, "lon": -77.0265295, "bike_id": "1a4ce2fa00c525ac08c34bebb9559840", "type": "electric_scooter", "name": "1a4ce2fa00c525ac08c34bebb9559840"}, {"is_disabled": 0, "is_reserved": 0, "fusion_lat": 0.0, "lat": 38.89587433333333, "fusion_lon": 0.0, "rental_uris": {"ios": "https://dc.lft.to/lastmile_qr_scan", "android": "https://dc.lft.to/lastmile_qr_scan"}, "lon": -77.02664966666667, "bike_id": "37519c48278e66a433e3811ab0e81ae2", "type": "electric_scooter", "name": "37519c48278e66a433e3811ab0e81ae2"}, {"is_disabled": 0, "is_reserved": 0, "fusion_lat": 0.0, "lat": 38.90732583333333, "fusion_lon": 0.0, "rental_uris": {"ios": "https://dc.lft.to/lastmile_qr_scan", "android": "https://dc.lft.to/lastmile_qr_scan"}, "lon": -77.00952216666667, "bike_id": "633fb404562197e8b0d481e9b2f5feee", "type": "electric_scooter", "name": "633fb404562197e8b0d481e9b2f5feee"}, {"is_disabled": 0, "is_reserved": 0, "fusion_lat": 0.0, "lat": 38.913502, "fusion_lon": 0.0, "rental_uris": {"ios": "https://dc.lft.to/lastmile_qr_scan", "android": "https://dc.lft.to/lastmile_qr_scan"}, "lon": -76.97138433333333, "bike_id": "3150d0baf289dd11eb905c86e2a50646", "type": "electric_scooter", "name": "3150d0baf289dd11eb905c86e2a50646"}, {"is_disabled": 0, "is_reserved": 0, "fusion_lat": 0.0, "lat": 38.920817, "fusion_lon": 0.0, "rental_uris": {"ios": "https://dc.lft.to/lastmile_qr_scan", "android": "https://dc.lft.to/lastmile_qr_scan"}, "lon": -77.02537633333333, "bike_id": "62337897cf5166e51e585ff832edf8e4", "type": "electric_scooter", "name": "62337897cf5166e51e585ff832edf8e4"}, {"is_disabled": 0, "is_reserved": 0, "fusion_lat": 0.0, "lat": 38.90003633333333, "fusion_lon": 0.0, "rental_uris": {"ios": "https://dc.lft.to/lastmile_qr_scan", "android": "https://dc.lft.to/lastmile_qr_scan"}, "lon": -77.00677266666666, "bike_id": "10a71599930d5dabd5c1c39aad0197f7", "type": "electric_scooter", "name": "10a71599930d5dabd5c1c39aad0197f7"}, {"is_disabled": 0, "is_reserved": 0, "fusion_lat": 0.0, "lat": 38.925045833333336, "fusion_lon": 0.0, "rental_uris": {"ios": "https://dc.lft.to/lastmile_qr_scan", "android": "https://dc.lft.to/lastmile_qr_scan"}, "lon": -77.0235725, "bike_id": "bd9479c6177b258e035f81411fb08ed4", "type": "electric_scooter", "name": "bd9479c6177b258e035f81411fb08ed4"}, {"is_disabled": 0, "is_reserved": 0, "fusion_lat": 0.0, "lat": 38.917114, "fusion_lon": 0.0, "rental_uris": {"ios": "https://dc.lft.to/lastmile_qr_scan", "android": "https://dc.lft.to/lastmile_qr_scan"}, "lon": -77.03209066666666, "bike_id": "16902f9f509a0f8e414cb42fdb1eea53", "type": "electric_scooter", "name": "16902f9f509a0f8e414cb42fdb1eea53"}, {"is_disabled": 0, "is_reserved": 0, "fusion_lat": 0.0, "lat": 38.91822616666666, "fusion_lon": 0.0, "rental_uris": {"ios": "https://dc.lft.to/lastmile_qr_scan", "android": "https://dc.lft.to/lastmile_qr_scan"}, "lon": -77.024245, "bike_id": "79fcfe42bc47fe082b788d661535cdf7", "type": "electric_scooter", "name": "79fcfe42bc47fe082b788d661535cdf7"}, {"is_disabled": 0, "is_reserved": 0, "fusion_lat": 0.0, "lat": 38.883598, "fusion_lon": 0.0, "rental_uris": {"ios": "https://dc.lft.to/lastmile_qr_scan", "android": "https://dc.lft.to/lastmile_qr_scan"}, "lon": -76.9279355, "bike_id": "7cced52c0181f283b1864362833a0089", "type": "electric_scooter", "name": "7cced52c0181f283b1864362833a0089"}, {"is_disabled": 0, "is_reserved": 0, "fusion_lat": 0.0, "lat": 38.87660433333333, "fusion_lon": 0.0, "rental_uris": {"ios": "https://dc.lft.to/lastmile_qr_scan", "android": "https://dc.lft.to/lastmile_qr_scan"}, "lon": -77.00881216666667, "bike_id": "dcc01862a4a25c3a77a64f8ed0e16736", "type": "electric_scooter", "name": "dcc01862a4a25c3a77a64f8ed0e16736"}, {"is_disabled": 0, "is_reserved": 0, "fusion_lat": 0.0, "lat": 38.91322, "fusion_lon": 0.0, "rental_uris": {"ios": "https://dc.lft.to/lastmile_qr_scan", "android": "https://dc.lft.to/lastmile_qr_scan"}, "lon": -77.03267333333334, "bike_id": "34cb48f9e9e8d74a705b85324403979a", "type": "electric_scooter", "name": "34cb48f9e9e8d74a705b85324403979a"}, {"is_disabled": 0, "is_reserved": 0, "fusion_lat": 0.0, "lat": 38.905424833333335, "fusion_lon": 0.0, "rental_uris": {"ios": "https://dc.lft.to/lastmile_qr_scan", "android": "https://dc.lft.to/lastmile_qr_scan"}, "lon": -77.02981866666667, "bike_id": "0cad9fa2e71281da157c6e0263b9bc87", "type": "electric_scooter", "name": "0cad9fa2e71281da157c6e0263b9bc87"}, {"is_disabled": 0, "is_reserved": 0, "fusion_lat": 0.0, "lat": 38.928641, "fusion_lon": 0.0, "rental_uris": {"ios": "https://dc.lft.to/lastmile_qr_scan", "android": "https://dc.lft.to/lastmile_qr_scan"}, "lon": -77.07890416666666, "bike_id": "26f538e8bcdaf5666c5d40bba25e87dd", "type": "electric_scooter", "name": "26f538e8bcdaf5666c5d40bba25e87dd"}, {"is_disabled": 0, "is_reserved": 0, "fusion_lat": 0.0, "lat": 38.91835666666667, "fusion_lon": 0.0, "rental_uris": {"ios": "https://dc.lft.to/lastmile_qr_scan", "android": "https://dc.lft.to/lastmile_qr_scan"}, "lon": -77.04173116666666, "bike_id": "6edc096e1a41501a9bb808263eb126b2", "type": "electric_scooter", "name": "6edc096e1a41501a9bb808263eb126b2"}, {"is_disabled": 0, "is_reserved": 0, "fusion_lat": 0.0, "lat": 38.9052495, "fusion_lon": 0.0, "rental_uris": {"ios": "https://dc.lft.to/lastmile_qr_scan", "android": "https://dc.lft.to/lastmile_qr_scan"}, "lon": -77.059301, "bike_id": "bb65e52138121533f79a6e23c02b76f4", "type": "electric_scooter", "name": "bb65e52138121533f79a6e23c02b76f4"}, {"is_disabled": 0, "is_reserved": 0, "fusion_lat": 0.0, "lat": 38.9097045, "fusion_lon": 0.0, "rental_uris": {"ios": "https://dc.lft.to/lastmile_qr_scan", "android": "https://dc.lft.to/lastmile_qr_scan"}, "lon": -77.04619066666666, "bike_id": "b59f40928ee8ed471ddbb311d2b4d26d", "type": "electric_scooter", "name": "b59f40928ee8ed471ddbb311d2b4d26d"}, {"is_disabled": 0, "is_reserved": 0, "fusion_lat": 0.0, "lat": 38.8829865, "fusion_lon": 0.0, "rental_uris": {"ios": "https://dc.lft.to/lastmile_qr_scan", "android": "https://dc.lft.to/lastmile_qr_scan"}, "lon": -77.02563466666666, "bike_id": "23a7ff67b3dc0f3e92451e1e7a56e9ed", "type": "electric_scooter", "name": "23a7ff67b3dc0f3e92451e1e7a56e9ed"}, {"is_disabled": 0, "is_reserved": 0, "fusion_lat": 0.0, "lat": 39.01067916666667, "fusion_lon": 0.0, "rental_uris": {"ios": "https://dc.lft.to/lastmile_qr_scan", "android": "https://dc.lft.to/lastmile_qr_scan"}, "lon": -76.92243566666667, "bike_id": "ef5b7436189f514da2a8e05754c211f0", "type": "electric_bike", "name": "ef5b7436189f514da2a8e05754c211f0"}, {"is_disabled": 0, "is_reserved": 0, "fusion_lat": 0.0, "lat": 38.9308525, "fusion_lon": 0.0, "rental_uris": {"ios": "https://dc.lft.to/lastmile_qr_scan", "android": "https://dc.lft.to/lastmile_qr_scan"}, "lon": -77.03442966666667, "bike_id": "1fb864727a7d39f5a928474753f38593", "type": "electric_scooter", "name": "1fb864727a7d39f5a928474753f38593"}, {"is_disabled": 0, "is_reserved": 0, "fusion_lat": 0.0, "lat": 38.91753466666667, "fusion_lon": 0.0, "rental_uris": {"ios": "https://dc.lft.to/lastmile_qr_scan", "android": "https://dc.lft.to/lastmile_qr_scan"}, "lon": -77.01520383333333, "bike_id": "f4aa3728086932fda7258f436f147e45", "type": "electric_scooter", "name": "f4aa3728086932fda7258f436f147e45"}, {"is_disabled": 0, "is_reserved": 0, "fusion_lat": 0.0, "lat": 38.920376, "fusion_lon": 0.0, "rental_uris": {"ios": "https://dc.lft.to/lastmile_qr_scan", "android": "https://dc.lft.to/lastmile_qr_scan"}, "lon": -77.02608116666667, "bike_id": "2c2728c4e144a16553572662dfda36dc", "type": "electric_scooter", "name": "2c2728c4e144a16553572662dfda36dc"}, {"is_disabled": 0, "is_reserved": 0, "fusion_lat": 0.0, "lat": 38.90687533333333, "fusion_lon": 0.0, "rental_uris": {"ios": "https://dc.lft.to/lastmile_qr_scan", "android": "https://dc.lft.to/lastmile_qr_scan"}, "lon": -77.02697716666667, "bike_id": "4fe17aa9b14947afc3d5abc89daeae24", "type": "electric_scooter", "name": "4fe17aa9b14947afc3d5abc89daeae24"}, {"is_disabled": 0, "is_reserved": 0, "fusion_lat": 0.0, "lat": 38.894390666666666, "fusion_lon": 0.0, "rental_uris": {"ios": "https://dc.lft.to/lastmile_qr_scan", "android": "https://dc.lft.to/lastmile_qr_scan"}, "lon": -76.9751265, "bike_id": "35c9891ae299fc6ecc3ba6653110d916", "type": "electric_bike", "name": "35c9891ae299fc6ecc3ba6653110d916"}, {"is_disabled": 0, "is_reserved": 0, "fusion_lat": 0.0, "lat": 38.878411, "fusion_lon": 0.0, "rental_uris": {"ios": "https://dc.lft.to/lastmile_qr_scan", "android": "https://dc.lft.to/lastmile_qr_scan"}, "lon": -76.93133933333333, "bike_id": "a1e6790a61dacc381514dab10809e08c", "type": "electric_scooter", "name": "a1e6790a61dacc381514dab10809e08c"}, {"is_disabled": 0, "is_reserved": 0, "fusion_lat": 0.0, "lat": 38.899818833333335, "fusion_lon": 0.0, "rental_uris": {"ios": "https://dc.lft.to/lastmile_qr_scan", "android": "https://dc.lft.to/lastmile_qr_scan"}, "lon": -77.0272225, "bike_id": "a154bf215559849257f7bc5fbc05aab0", "type": "electric_scooter", "name": "a154bf215559849257f7bc5fbc05aab0"}, {"is_disabled": 0, "is_reserved": 0, "fusion_lat": 0.0, "lat": 38.89971366666666, "fusion_lon": 0.0, "rental_uris": {"ios": "https://dc.lft.to/lastmile_qr_scan", "android": "https://dc.lft.to/lastmile_qr_scan"}, "lon": -76.92632866666666, "bike_id": "03eeca83d5789ee539a345fc30ad4671", "type": "electric_scooter", "name": "03eeca83d5789ee539a345fc30ad4671"}, {"is_disabled": 0, "is_reserved": 0, "fusion_lat": 0.0, "lat": 38.894648333333336, "fusion_lon": 0.0, "rental_uris": {"ios": "https://dc.lft.to/lastmile_qr_scan", "android": "https://dc.lft.to/lastmile_qr_scan"}, "lon": -77.00230383333333, "bike_id": "ebae6099c3c59f245f62f0ab28d6ccd5", "type": "electric_scooter", "name": "ebae6099c3c59f245f62f0ab28d6ccd5"}, {"is_disabled": 0, "is_reserved": 0, "fusion_lat": 0.0, "lat": 38.90309166666667, "fusion_lon": 0.0, "rental_uris": {"ios": "https://dc.lft.to/lastmile_qr_scan", "android": "https://dc.lft.to/lastmile_qr_scan"}, "lon": -77.03213783333334, "bike_id": "8759324a2804faf7c9f259baa2047490", "type": "electric_scooter", "name": "8759324a2804faf7c9f259baa2047490"}, {"is_disabled": 0, "is_reserved": 0, "fusion_lat": 0.0, "lat": 38.92168683333333, "fusion_lon": 0.0, "rental_uris": {"ios": "https://dc.lft.to/lastmile_qr_scan", "android": "https://dc.lft.to/lastmile_qr_scan"}, "lon": -77.04025483333334, "bike_id": "f8078f69935aafb7ccb473ee1d0b8931", "type": "electric_scooter", "name": "f8078f69935aafb7ccb473ee1d0b8931"}, {"is_disabled": 0, "is_reserved": 0, "fusion_lat": 0.0, "lat": 38.92350666666667, "fusion_lon": 0.0, "rental_uris": {"ios": "https://dc.lft.to/lastmile_qr_scan", "android": "https://dc.lft.to/lastmile_qr_scan"}, "lon": -76.97207166666666, "bike_id": "96c90f6933c040e93806cbfab98160c1", "type": "electric_scooter", "name": "96c90f6933c040e93806cbfab98160c1"}, {"is_disabled": 0, "is_reserved": 0, "fusion_lat": 0.0, "lat": 38.90958033333333, "fusion_lon": 0.0, "rental_uris": {"ios": "https://dc.lft.to/lastmile_qr_scan", "android": "https://dc.lft.to/lastmile_qr_scan"}, "lon": -77.02402583333334, "bike_id": "a501ef78bc7ae93f1ff77138174c8628", "type": "electric_scooter", "name": "a501ef78bc7ae93f1ff77138174c8628"}, {"is_disabled": 0, "is_reserved": 0, "fusion_lat": 0.0, "lat": 38.953467333333336, "fusion_lon": 0.0, "rental_uris": {"ios": "https://dc.lft.to/lastmile_qr_scan", "android": "https://dc.lft.to/lastmile_qr_scan"}, "lon": -77.0814815, "bike_id": "8383c7b81712ed364b8bf3ce066c9455", "type": "electric_scooter", "name": "8383c7b81712ed364b8bf3ce066c9455"}, {"is_disabled": 0, "is_reserved": 0, "fusion_lat": 0.0, "lat": 38.90561783333333, "fusion_lon": 0.0, "rental_uris": {"ios": "https://dc.lft.to/lastmile_qr_scan", "android": "https://dc.lft.to/lastmile_qr_scan"}, "lon": -77.0326895, "bike_id": "f98cadfaf812d8a86642534448c502d3", "type": "electric_scooter", "name": "f98cadfaf812d8a86642534448c502d3"}, {"is_disabled": 0, "is_reserved": 0, "fusion_lat": 0.0, "lat": 38.91417583333333, "fusion_lon": 0.0, "rental_uris": {"ios": "https://dc.lft.to/lastmile_qr_scan", "android": "https://dc.lft.to/lastmile_qr_scan"}, "lon": -77.02232016666666, "bike_id": "2d882996e8632fbad7a4682c7029ca44", "type": "electric_scooter", "name": "2d882996e8632fbad7a4682c7029ca44"}, {"is_disabled": 0, "is_reserved": 0, "fusion_lat": 0.0, "lat": 38.90349, "fusion_lon": 0.0, "rental_uris": {"ios": "https://dc.lft.to/lastmile_qr_scan", "android": "https://dc.lft.to/lastmile_qr_scan"}, "lon": -77.00600683333333, "bike_id": "b601685c61684e373147e68c1ed66247", "type": "electric_scooter", "name": "b601685c61684e373147e68c1ed66247"}, {"is_disabled": 0, "is_reserved": 0, "fusion_lat": 0.0, "lat": 39.025188, "fusion_lon": 0.0, "rental_uris": {"ios": "https://dc.lft.to/lastmile_qr_scan", "android": "https://dc.lft.to/lastmile_qr_scan"}, "lon": -77.01970333333334, "bike_id": "b775c1aae9b27d397cdabc9f23892088", "type": "electric_bike", "name": "b775c1aae9b27d397cdabc9f23892088"}, {"is_disabled": 0, "is_reserved": 0, "fusion_lat": 0.0, "lat": 38.917054, "fusion_lon": 0.0, "rental_uris": {"ios": "https://dc.lft.to/lastmile_qr_scan", "android": "https://dc.lft.to/lastmile_qr_scan"}, "lon": -77.02306816666666, "bike_id": "c536857eb7938fc5f0753a479a8b4427", "type": "electric_scooter", "name": "c536857eb7938fc5f0753a479a8b4427"}, {"is_disabled": 0, "is_reserved": 0, "fusion_lat": 0.0, "lat": 39.08476316666667, "fusion_lon": 0.0, "rental_uris": {"ios": "https://dc.lft.to/lastmile_qr_scan", "android": "https://dc.lft.to/lastmile_qr_scan"}, "lon": -76.95067816666666, "bike_id": "0be95ef024883c560e9724f19b5142d8", "type": "electric_bike", "name": "0be95ef024883c560e9724f19b5142d8"}, {"is_disabled": 0, "is_reserved": 0, "fusion_lat": 0.0, "lat": 38.91522483333333, "fusion_lon": 0.0, "rental_uris": {"ios": "https://dc.lft.to/lastmile_qr_scan", "android": "https://dc.lft.to/lastmile_qr_scan"}, "lon": -77.01971533333334, "bike_id": "bc946f5c855bb420b06497bfe381f412", "type": "electric_scooter", "name": "bc946f5c855bb420b06497bfe381f412"}, {"is_disabled": 0, "is_reserved": 0, "fusion_lat": 0.0, "lat": 38.918175833333336, "fusion_lon": 0.0, "rental_uris": {"ios": "https://dc.lft.to/lastmile_qr_scan", "android": "https://dc.lft.to/lastmile_qr_scan"}, "lon": -77.03792016666667, "bike_id": "f185f008f8aad364d662c2b9dd99b1d7", "type": "electric_scooter", "name": "f185f008f8aad364d662c2b9dd99b1d7"}, {"is_disabled": 0, "is_reserved": 0, "fusion_lat": 0.0, "lat": 38.922547, "fusion_lon": 0.0, "rental_uris": {"ios": "https://dc.lft.to/lastmile_qr_scan", "android": "https://dc.lft.to/lastmile_qr_scan"}, "lon": -77.04302716666666, "bike_id": "537b3a62d17001f9151e37d8eeb8df28", "type": "electric_scooter", "name": "537b3a62d17001f9151e37d8eeb8df28"}, {"is_disabled": 0, "is_reserved": 0, "fusion_lat": 0.0, "lat": 38.832959333333335, "fusion_lon": 0.0, "rental_uris": {"ios": "https://dc.lft.to/lastmile_qr_scan", "android": "https://dc.lft.to/lastmile_qr_scan"}, "lon": -77.08411983333333, "bike_id": "d2a560adc38849ef40c0ab4a123313e6", "type": "electric_bike", "name": "d2a560adc38849ef40c0ab4a123313e6"}, {"is_disabled": 0, "is_reserved": 0, "fusion_lat": 0.0, "lat": 38.9043685, "fusion_lon": 0.0, "rental_uris": {"ios": "https://dc.lft.to/lastmile_qr_scan", "android": "https://dc.lft.to/lastmile_qr_scan"}, "lon": -76.97233166666666, "bike_id": "e45881f3caa0dc966bdbc15e98cb1d69", "type": "electric_bike", "name": "e45881f3caa0dc966bdbc15e98cb1d69"}, {"is_disabled": 0, "is_reserved": 0, "fusion_lat": 0.0, "lat": 38.92644966666667, "fusion_lon": 0.0, "rental_uris": {"ios": "https://dc.lft.to/lastmile_qr_scan", "android": "https://dc.lft.to/lastmile_qr_scan"}, "lon": -77.03704233333333, "bike_id": "2b12170e3b4a0e3792f2009cd6e07d2e", "type": "electric_scooter", "name": "2b12170e3b4a0e3792f2009cd6e07d2e"}, {"is_disabled": 0, "is_reserved": 0, "fusion_lat": 0.0, "lat": 38.9207995, "fusion_lon": 0.0, "rental_uris": {"ios": "https://dc.lft.to/lastmile_qr_scan", "android": "https://dc.lft.to/lastmile_qr_scan"}, "lon": -77.0255805, "bike_id": "f9c8f68fac2c3af7d687c66b09c6fe7c", "type": "electric_scooter", "name": "f9c8f68fac2c3af7d687c66b09c6fe7c"}, {"is_disabled": 0, "is_reserved": 0, "fusion_lat": 0.0, "lat": 38.902553166666664, "fusion_lon": 0.0, "rental_uris": {"ios": "https://dc.lft.to/lastmile_qr_scan", "android": "https://dc.lft.to/lastmile_qr_scan"}, "lon": -77.03969416666666, "bike_id": "4f6c795342aacb4a669453bb1a9b5690", "type": "electric_scooter", "name": "4f6c795342aacb4a669453bb1a9b5690"}, {"is_disabled": 0, "is_reserved": 0, "fusion_lat": 0.0, "lat": 38.898501333333336, "fusion_lon": 0.0, "rental_uris": {"ios": "https://dc.lft.to/lastmile_qr_scan", "android": "https://dc.lft.to/lastmile_qr_scan"}, "lon": -76.927523, "bike_id": "25492e86d2d1c7e2e81c9588c3707cd4", "type": "electric_scooter", "name": "25492e86d2d1c7e2e81c9588c3707cd4"}, {"is_disabled": 0, "is_reserved": 0, "fusion_lat": 0.0, "lat": 38.883776833333336, "fusion_lon": 0.0, "rental_uris": {"ios": "https://dc.lft.to/lastmile_qr_scan", "android": "https://dc.lft.to/lastmile_qr_scan"}, "lon": -76.99516266666667, "bike_id": "dbecf7979b476a0b87b073ab46f61c43", "type": "electric_scooter", "name": "dbecf7979b476a0b87b073ab46f61c43"}, {"is_disabled": 0, "is_reserved": 0, "fusion_lat": 0.0, "lat": 38.89834466666667, "fusion_lon": 0.0, "rental_uris": {"ios": "https://dc.lft.to/lastmile_qr_scan", "android": "https://dc.lft.to/lastmile_qr_scan"}, "lon": -77.02213333333333, "bike_id": "8910eb689cab1f2059ee7572f5377044", "type": "electric_scooter", "name": "8910eb689cab1f2059ee7572f5377044"}, {"is_disabled": 0, "is_reserved": 0, "fusion_lat": 0.0, "lat": 38.907243666666666, "fusion_lon": 0.0, "rental_uris": {"ios": "https://dc.lft.to/lastmile_qr_scan", "android": "https://dc.lft.to/lastmile_qr_scan"}, "lon": -77.03511383333333, "bike_id": "9efaba79834a009182d41098808a2766", "type": "electric_scooter", "name": "9efaba79834a009182d41098808a2766"}, {"is_disabled": 0, "is_reserved": 0, "fusion_lat": 0.0, "lat": 38.921005, "fusion_lon": 0.0, "rental_uris": {"ios": "https://dc.lft.to/lastmile_qr_scan", "android": "https://dc.lft.to/lastmile_qr_scan"}, "lon": -76.994011, "bike_id": "3027b529618650a4509c1424fa7c9b1c", "type": "electric_scooter", "name": "3027b529618650a4509c1424fa7c9b1c"}, {"is_disabled": 0, "is_reserved": 0, "fusion_lat": 0.0, "lat": 38.8220745, "fusion_lon": 0.0, "rental_uris": {"ios": "https://dc.lft.to/lastmile_qr_scan", "android": "https://dc.lft.to/lastmile_qr_scan"}, "lon": -76.97704166666666, "bike_id": "a21a7c7e9ecfbcecf771c94f73e63741", "type": "electric_bike", "name": "a21a7c7e9ecfbcecf771c94f73e63741"}, {"is_disabled": 0, "is_reserved": 0, "fusion_lat": 0.0, "lat": 38.916325666666665, "fusion_lon": 0.0, "rental_uris": {"ios": "https://dc.lft.to/lastmile_qr_scan", "android": "https://dc.lft.to/lastmile_qr_scan"}, "lon": -77.00109816666667, "bike_id": "7336d47f67d091e77d5b36b37098117e", "type": "electric_scooter", "name": "7336d47f67d091e77d5b36b37098117e"}, {"is_disabled": 0, "is_reserved": 0, "fusion_lat": 0.0, "lat": 38.98475766666667, "fusion_lon": 0.0, "rental_uris": {"ios": "https://dc.lft.to/lastmile_qr_scan", "android": "https://dc.lft.to/lastmile_qr_scan"}, "lon": -77.013192, "bike_id": "002205d2f4519e06b4f6ced701811a09", "type": "electric_bike", "name": "002205d2f4519e06b4f6ced701811a09"}, {"is_disabled": 0, "is_reserved": 0, "fusion_lat": 0.0, "lat": 38.9057325, "fusion_lon": 0.0, "rental_uris": {"ios": "https://dc.lft.to/lastmile_qr_scan", "android": "https://dc.lft.to/lastmile_qr_scan"}, "lon": -77.07277616666667, "bike_id": "e465182de098fccf09b47debc81be160", "type": "electric_scooter", "name": "e465182de098fccf09b47debc81be160"}, {"is_disabled": 0, "is_reserved": 0, "fusion_lat": 0.0, "lat": 38.89197083333333, "fusion_lon": 0.0, "rental_uris": {"ios": "https://dc.lft.to/lastmile_qr_scan", "android": "https://dc.lft.to/lastmile_qr_scan"}, "lon": -77.0029725, "bike_id": "477b8bf6e9433af2803a8ef53ee4fef4", "type": "electric_scooter", "name": "477b8bf6e9433af2803a8ef53ee4fef4"}, {"is_disabled": 0, "is_reserved": 0, "fusion_lat": 0.0, "lat": 38.919977, "fusion_lon": 0.0, "rental_uris": {"ios": "https://dc.lft.to/lastmile_qr_scan", "android": "https://dc.lft.to/lastmile_qr_scan"}, "lon": -77.03246966666667, "bike_id": "ad6242efd13337cea72b11eb28b751fe", "type": "electric_scooter", "name": "ad6242efd13337cea72b11eb28b751fe"}, {"is_disabled": 0, "is_reserved": 0, "fusion_lat": 0.0, "lat": 38.92450933333333, "fusion_lon": 0.0, "rental_uris": {"ios": "https://dc.lft.to/lastmile_qr_scan", "android": "https://dc.lft.to/lastmile_qr_scan"}, "lon": -77.02039783333333, "bike_id": "3f9491f5fdb597d7052328123162c8bc", "type": "electric_scooter", "name": "3f9491f5fdb597d7052328123162c8bc"}, {"is_disabled": 0, "is_reserved": 0, "fusion_lat": 0.0, "lat": 38.902642, "fusion_lon": 0.0, "rental_uris": {"ios": "https://dc.lft.to/lastmile_qr_scan", "android": "https://dc.lft.to/lastmile_qr_scan"}, "lon": -77.017536, "bike_id": "51a641a307f759f7b343215d65e9f895", "type": "electric_scooter", "name": "51a641a307f759f7b343215d65e9f895"}, {"is_disabled": 0, "is_reserved": 0, "fusion_lat": 0.0, "lat": 38.80732733333333, "fusion_lon": 0.0, "rental_uris": {"ios": "https://dc.lft.to/lastmile_qr_scan", "android": "https://dc.lft.to/lastmile_qr_scan"}, "lon": -76.99264033333333, "bike_id": "2f5fb264ba24917e053a4f8a726bf5e3", "type": "electric_bike", "name": "2f5fb264ba24917e053a4f8a726bf5e3"}, {"is_disabled": 0, "is_reserved": 0, "fusion_lat": 0.0, "lat": 38.92352533333333, "fusion_lon": 0.0, "rental_uris": {"ios": "https://dc.lft.to/lastmile_qr_scan", "android": "https://dc.lft.to/lastmile_qr_scan"}, "lon": -77.00200466666666, "bike_id": "986f538e8bec6d63ddb8594bc1298492", "type": "electric_scooter", "name": "986f538e8bec6d63ddb8594bc1298492"}, {"is_disabled": 0, "is_reserved": 0, "fusion_lat": 0.0, "lat": 38.9233795, "fusion_lon": 0.0, "rental_uris": {"ios": "https://dc.lft.to/lastmile_qr_scan", "android": "https://dc.lft.to/lastmile_qr_scan"}, "lon": -77.03532983333334, "bike_id": "1bd340ae260f54f9d24a0d4f07cfd794", "type": "electric_scooter", "name": "1bd340ae260f54f9d24a0d4f07cfd794"}, {"is_disabled": 0, "is_reserved": 0, "fusion_lat": 0.0, "lat": 38.9335425, "fusion_lon": 0.0, "rental_uris": {"ios": "https://dc.lft.to/lastmile_qr_scan", "android": "https://dc.lft.to/lastmile_qr_scan"}, "lon": -77.02564066666666, "bike_id": "9fbed8fc42aadf396cfbaf1fd29cea76", "type": "electric_scooter", "name": "9fbed8fc42aadf396cfbaf1fd29cea76"}, {"is_disabled": 0, "is_reserved": 0, "fusion_lat": 0.0, "lat": 38.8813695, "fusion_lon": 0.0, "rental_uris": {"ios": "https://dc.lft.to/lastmile_qr_scan", "android": "https://dc.lft.to/lastmile_qr_scan"}, "lon": -76.99604683333334, "bike_id": "1944e30cf76570a15b2829fadcaf2e84", "type": "electric_scooter", "name": "1944e30cf76570a15b2829fadcaf2e84"}, {"is_disabled": 0, "is_reserved": 0, "fusion_lat": 0.0, "lat": 38.96223766666667, "fusion_lon": 0.0, "rental_uris": {"ios": "https://dc.lft.to/lastmile_qr_scan", "android": "https://dc.lft.to/lastmile_qr_scan"}, "lon": -77.0262665, "bike_id": "d402d59723ec04e4265af542756a2154", "type": "electric_bike", "name": "d402d59723ec04e4265af542756a2154"}, {"is_disabled": 0, "is_reserved": 0, "fusion_lat": 0.0, "lat": 38.9479205, "fusion_lon": 0.0, "rental_uris": {"ios": "https://dc.lft.to/lastmile_qr_scan", "android": "https://dc.lft.to/lastmile_qr_scan"}, "lon": -77.0789125, "bike_id": "2a1448ab1045b1e7b1197a3799229bd4", "type": "electric_scooter", "name": "2a1448ab1045b1e7b1197a3799229bd4"}, {"is_disabled": 0, "is_reserved": 0, "fusion_lat": 0.0, "lat": 38.963816333333334, "fusion_lon": 0.0, "rental_uris": {"ios": "https://dc.lft.to/lastmile_qr_scan", "android": "https://dc.lft.to/lastmile_qr_scan"}, "lon": -77.01976583333334, "bike_id": "73c668fac602e0f9cf3f2466d0356811", "type": "electric_bike", "name": "73c668fac602e0f9cf3f2466d0356811"}, {"is_disabled": 0, "is_reserved": 0, "fusion_lat": 0.0, "lat": 38.884770333333336, "fusion_lon": 0.0, "rental_uris": {"ios": "https://dc.lft.to/lastmile_qr_scan", "android": "https://dc.lft.to/lastmile_qr_scan"}, "lon": -77.03178383333334, "bike_id": "cffc0f16242a2b6c31ebcdd095268aad", "type": "electric_bike", "name": "cffc0f16242a2b6c31ebcdd095268aad"}, {"is_disabled": 0, "is_reserved": 0, "fusion_lat": 0.0, "lat": 38.92006833333333, "fusion_lon": 0.0, "rental_uris": {"ios": "https://dc.lft.to/lastmile_qr_scan", "android": "https://dc.lft.to/lastmile_qr_scan"}, "lon": -77.021803, "bike_id": "3ae59074dac211ac7d8d7e4677177bf6", "type": "electric_scooter", "name": "3ae59074dac211ac7d8d7e4677177bf6"}, {"is_disabled": 0, "is_reserved": 0, "fusion_lat": 0.0, "lat": 38.926741166666666, "fusion_lon": 0.0, "rental_uris": {"ios": "https://dc.lft.to/lastmile_qr_scan", "android": "https://dc.lft.to/lastmile_qr_scan"}, "lon": -77.01469966666667, "bike_id": "a6462e08d85d4cdd7df6be6f00b36bea", "type": "electric_scooter", "name": "a6462e08d85d4cdd7df6be6f00b36bea"}, {"is_disabled": 0, "is_reserved": 0, "fusion_lat": 0.0, "lat": 38.9235035, "fusion_lon": 0.0, "rental_uris": {"ios": "https://dc.lft.to/lastmile_qr_scan", "android": "https://dc.lft.to/lastmile_qr_scan"}, "lon": -77.03288966666666, "bike_id": "9c1b43626e7865d6e638c0afb599b18c", "type": "electric_scooter", "name": "9c1b43626e7865d6e638c0afb599b18c"}, {"is_disabled": 0, "is_reserved": 0, "fusion_lat": 0.0, "lat": 38.951004833333336, "fusion_lon": 0.0, "rental_uris": {"ios": "https://dc.lft.to/lastmile_qr_scan", "android": "https://dc.lft.to/lastmile_qr_scan"}, "lon": -77.02195916666666, "bike_id": "3097c2b12729e93c832db518bf515ea3", "type": "electric_scooter", "name": "3097c2b12729e93c832db518bf515ea3"}, {"is_disabled": 0, "is_reserved": 0, "fusion_lat": 0.0, "lat": 38.827633666666664, "fusion_lon": 0.0, "rental_uris": {"ios": "https://dc.lft.to/lastmile_qr_scan", "android": "https://dc.lft.to/lastmile_qr_scan"}, "lon": -77.06014616666667, "bike_id": "b343324e152ffc63b1481d8d707114f1", "type": "electric_bike", "name": "b343324e152ffc63b1481d8d707114f1"}, {"is_disabled": 0, "is_reserved": 0, "fusion_lat": 0.0, "lat": 38.900166666666664, "fusion_lon": 0.0, "rental_uris": {"ios": "https://dc.lft.to/lastmile_qr_scan", "android": "https://dc.lft.to/lastmile_qr_scan"}, "lon": -77.04878383333333, "bike_id": "d17131106314d059170a4c651940be71", "type": "electric_scooter", "name": "d17131106314d059170a4c651940be71"}, {"is_disabled": 0, "is_reserved": 0, "fusion_lat": 0.0, "lat": 38.9151025, "fusion_lon": 0.0, "rental_uris": {"ios": "https://dc.lft.to/lastmile_qr_scan", "android": "https://dc.lft.to/lastmile_qr_scan"}, "lon": -77.01890133333333, "bike_id": "0c9a93f255bfdca9059442dfcac713f7", "type": "electric_scooter", "name": "0c9a93f255bfdca9059442dfcac713f7"}, {"is_disabled": 0, "is_reserved": 0, "fusion_lat": 0.0, "lat": 38.957326, "fusion_lon": 0.0, "rental_uris": {"ios": "https://dc.lft.to/lastmile_qr_scan", "android": "https://dc.lft.to/lastmile_qr_scan"}, "lon": -77.0240485, "bike_id": "8885fc391706ebf317430a0147b0fc09", "type": "electric_scooter", "name": "8885fc391706ebf317430a0147b0fc09"}, {"is_disabled": 0, "is_reserved": 0, "fusion_lat": 0.0, "lat": 38.9334905, "fusion_lon": 0.0, "rental_uris": {"ios": "https://dc.lft.to/lastmile_qr_scan", "android": "https://dc.lft.to/lastmile_qr_scan"}, "lon": -77.06043033333333, "bike_id": "e07567de50aefd35f0154a707cb48763", "type": "electric_scooter", "name": "e07567de50aefd35f0154a707cb48763"}, {"is_disabled": 0, "is_reserved": 0, "fusion_lat": 0.0, "lat": 38.9290985, "fusion_lon": 0.0, "rental_uris": {"ios": "https://dc.lft.to/lastmile_qr_scan", "android": "https://dc.lft.to/lastmile_qr_scan"}, "lon": -77.0548745, "bike_id": "da9022fa35ffd1dc3bc669dd66967460", "type": "electric_scooter", "name": "da9022fa35ffd1dc3bc669dd66967460"}, {"is_disabled": 0, "is_reserved": 0, "fusion_lat": 0.0, "lat": 38.909696, "fusion_lon": 0.0, "rental_uris": {"ios": "https://dc.lft.to/lastmile_qr_scan", "android": "https://dc.lft.to/lastmile_qr_scan"}, "lon": -77.03256733333333, "bike_id": "5a761c06894198b0391f557f91406070", "type": "electric_scooter", "name": "5a761c06894198b0391f557f91406070"}, {"is_disabled": 0, "is_reserved": 0, "fusion_lat": 0.0, "lat": 38.930465166666664, "fusion_lon": 0.0, "rental_uris": {"ios": "https://dc.lft.to/lastmile_qr_scan", "android": "https://dc.lft.to/lastmile_qr_scan"}, "lon": -77.055687, "bike_id": "7e71f58282e6136257089bf3c5f842ca", "type": "electric_scooter", "name": "7e71f58282e6136257089bf3c5f842ca"}, {"is_disabled": 0, "is_reserved": 0, "fusion_lat": 0.0, "lat": 38.951524666666664, "fusion_lon": 0.0, "rental_uris": {"ios": "https://dc.lft.to/lastmile_qr_scan", "android": "https://dc.lft.to/lastmile_qr_scan"}, "lon": -77.01868966666666, "bike_id": "35850d03b2d23502a5466507d1d26031", "type": "electric_scooter", "name": "35850d03b2d23502a5466507d1d26031"}, {"is_disabled": 0, "is_reserved": 0, "fusion_lat": 0.0, "lat": 38.916466, "fusion_lon": 0.0, "rental_uris": {"ios": "https://dc.lft.to/lastmile_qr_scan", "android": "https://dc.lft.to/lastmile_qr_scan"}, "lon": -77.0239535, "bike_id": "86533ac137685b048e755cba56f3bab6", "type": "electric_scooter", "name": "86533ac137685b048e755cba56f3bab6"}, {"is_disabled": 0, "is_reserved": 0, "fusion_lat": 0.0, "lat": 38.91807983333333, "fusion_lon": 0.0, "rental_uris": {"ios": "https://dc.lft.to/lastmile_qr_scan", "android": "https://dc.lft.to/lastmile_qr_scan"}, "lon": -77.0351025, "bike_id": "f6e8936aa80606f1cc39085d3166dc1c", "type": "electric_scooter", "name": "f6e8936aa80606f1cc39085d3166dc1c"}, {"is_disabled": 0, "is_reserved": 0, "fusion_lat": 0.0, "lat": 38.898963, "fusion_lon": 0.0, "rental_uris": {"ios": "https://dc.lft.to/lastmile_qr_scan", "android": "https://dc.lft.to/lastmile_qr_scan"}, "lon": -77.03238833333333, "bike_id": "68b38c3c5e7bed78a6d4465bd63b50b3", "type": "electric_scooter", "name": "68b38c3c5e7bed78a6d4465bd63b50b3"}, {"is_disabled": 0, "is_reserved": 0, "fusion_lat": 0.0, "lat": 38.917174833333334, "fusion_lon": 0.0, "rental_uris": {"ios": "https://dc.lft.to/lastmile_qr_scan", "android": "https://dc.lft.to/lastmile_qr_scan"}, "lon": -77.0260555, "bike_id": "eabaf2d4b96ec1522bf74bb837938c2e", "type": "electric_scooter", "name": "eabaf2d4b96ec1522bf74bb837938c2e"}, {"is_disabled": 0, "is_reserved": 0, "fusion_lat": 0.0, "lat": 38.91915783333334, "fusion_lon": 0.0, "rental_uris": {"ios": "https://dc.lft.to/lastmile_qr_scan", "android": "https://dc.lft.to/lastmile_qr_scan"}, "lon": -77.03430133333333, "bike_id": "855cf1338d0fb0345dd512e344f12ef7", "type": "electric_scooter", "name": "855cf1338d0fb0345dd512e344f12ef7"}, {"is_disabled": 0, "is_reserved": 0, "fusion_lat": 0.0, "lat": 38.905081833333334, "fusion_lon": 0.0, "rental_uris": {"ios": "https://dc.lft.to/lastmile_qr_scan", "android": "https://dc.lft.to/lastmile_qr_scan"}, "lon": -77.06017166666666, "bike_id": "e7523681f478f99b47b09ef3f382b266", "type": "electric_scooter", "name": "e7523681f478f99b47b09ef3f382b266"}, {"is_disabled": 0, "is_reserved": 0, "fusion_lat": 0.0, "lat": 38.90538133333333, "fusion_lon": 0.0, "rental_uris": {"ios": "https://dc.lft.to/lastmile_qr_scan", "android": "https://dc.lft.to/lastmile_qr_scan"}, "lon": -77.02398716666667, "bike_id": "a861300f4447c22e64951c71671973d3", "type": "electric_scooter", "name": "a861300f4447c22e64951c71671973d3"}, {"is_disabled": 0, "is_reserved": 0, "fusion_lat": 0.0, "lat": 38.930385333333334, "fusion_lon": 0.0, "rental_uris": {"ios": "https://dc.lft.to/lastmile_qr_scan", "android": "https://dc.lft.to/lastmile_qr_scan"}, "lon": -77.02977583333333, "bike_id": "3028d1058c0566e0e15e9f894841e92f", "type": "electric_scooter", "name": "3028d1058c0566e0e15e9f894841e92f"}, {"is_disabled": 0, "is_reserved": 0, "fusion_lat": 0.0, "lat": 38.8871725, "fusion_lon": 0.0, "rental_uris": {"ios": "https://dc.lft.to/lastmile_qr_scan", "android": "https://dc.lft.to/lastmile_qr_scan"}, "lon": -76.99607233333333, "bike_id": "8cac4431cb55e5a0f7977ed119a84cef", "type": "electric_scooter", "name": "8cac4431cb55e5a0f7977ed119a84cef"}, {"is_disabled": 0, "is_reserved": 0, "fusion_lat": 0.0, "lat": 38.96018683333333, "fusion_lon": 0.0, "rental_uris": {"ios": "https://dc.lft.to/lastmile_qr_scan", "android": "https://dc.lft.to/lastmile_qr_scan"}, "lon": -77.02821916666667, "bike_id": "744a4bbcca02cb0793ba496c74459578", "type": "electric_scooter", "name": "744a4bbcca02cb0793ba496c74459578"}, {"is_disabled": 0, "is_reserved": 0, "fusion_lat": 0.0, "lat": 38.881219333333334, "fusion_lon": 0.0, "rental_uris": {"ios": "https://dc.lft.to/lastmile_qr_scan", "android": "https://dc.lft.to/lastmile_qr_scan"}, "lon": -76.99286333333333, "bike_id": "5d647b18a3dce31f68767c53f2bd33da", "type": "electric_scooter", "name": "5d647b18a3dce31f68767c53f2bd33da"}, {"is_disabled": 0, "is_reserved": 0, "fusion_lat": 0.0, "lat": 38.909486666666666, "fusion_lon": 0.0, "rental_uris": {"ios": "https://dc.lft.to/lastmile_qr_scan", "android": "https://dc.lft.to/lastmile_qr_scan"}, "lon": -77.0337825, "bike_id": "6d3f43eb4355c360ae99f6e38c319fc0", "type": "electric_scooter", "name": "6d3f43eb4355c360ae99f6e38c319fc0"}, {"is_disabled": 0, "is_reserved": 0, "fusion_lat": 0.0, "lat": 38.9281255, "fusion_lon": 0.0, "rental_uris": {"ios": "https://dc.lft.to/lastmile_qr_scan", "android": "https://dc.lft.to/lastmile_qr_scan"}, "lon": -77.0132995, "bike_id": "0f93a0cab835e47920a6321f8955e135", "type": "electric_scooter", "name": "0f93a0cab835e47920a6321f8955e135"}, {"is_disabled": 0, "is_reserved": 0, "fusion_lat": 0.0, "lat": 38.910322666666666, "fusion_lon": 0.0, "rental_uris": {"ios": "https://dc.lft.to/lastmile_qr_scan", "android": "https://dc.lft.to/lastmile_qr_scan"}, "lon": -77.0096435, "bike_id": "603bfed8e7d0282108d8405c73940140", "type": "electric_scooter", "name": "603bfed8e7d0282108d8405c73940140"}, {"is_disabled": 0, "is_reserved": 0, "fusion_lat": 0.0, "lat": 38.923993833333334, "fusion_lon": 0.0, "rental_uris": {"ios": "https://dc.lft.to/lastmile_qr_scan", "android": "https://dc.lft.to/lastmile_qr_scan"}, "lon": -76.99381783333334, "bike_id": "e4ad32e6ac9dc7b223c10d66b7a7a30e", "type": "electric_scooter", "name": "e4ad32e6ac9dc7b223c10d66b7a7a30e"}, {"is_disabled": 0, "is_reserved": 0, "fusion_lat": 0.0, "lat": 38.92652316666667, "fusion_lon": 0.0, "rental_uris": {"ios": "https://dc.lft.to/lastmile_qr_scan", "android": "https://dc.lft.to/lastmile_qr_scan"}, "lon": -77.02448916666667, "bike_id": "baff0a9fa1414f932f5c9eb424668094", "type": "electric_scooter", "name": "baff0a9fa1414f932f5c9eb424668094"}, {"is_disabled": 0, "is_reserved": 0, "fusion_lat": 0.0, "lat": 38.92654066666667, "fusion_lon": 0.0, "rental_uris": {"ios": "https://dc.lft.to/lastmile_qr_scan", "android": "https://dc.lft.to/lastmile_qr_scan"}, "lon": -77.02425816666667, "bike_id": "7542cf99afa36617c89ba44293c65302", "type": "electric_scooter", "name": "7542cf99afa36617c89ba44293c65302"}, {"is_disabled": 0, "is_reserved": 0, "fusion_lat": 0.0, "lat": 38.931218, "fusion_lon": 0.0, "rental_uris": {"ios": "https://dc.lft.to/lastmile_qr_scan", "android": "https://dc.lft.to/lastmile_qr_scan"}, "lon": -77.02067483333333, "bike_id": "440b382db007c9d6663bb81cf06efea6", "type": "electric_scooter", "name": "440b382db007c9d6663bb81cf06efea6"}, {"is_disabled": 0, "is_reserved": 0, "fusion_lat": 0.0, "lat": 38.917098, "fusion_lon": 0.0, "rental_uris": {"ios": "https://dc.lft.to/lastmile_qr_scan", "android": "https://dc.lft.to/lastmile_qr_scan"},