{"data": {"bikes": [{"fusion_lat": 0.0, "lon": -77.00201333333334, "is_reserved": 0, "bike_id": "2678609a823db470e7750317dea5d722", "fusion_lon": 0.0, "rental_uris": {"android": "https://dc.lft.to/lastmile_qr_scan", "ios": "https://dc.lft.to/lastmile_qr_scan"}, "name": "2678609a823db470e7750317dea5d722", "type": "electric_scooter", "lat": 38.90027933333333, "is_disabled": 0}, {"fusion_lat": 0.0, "lon": -77.01094133333334, "is_reserved": 0, "bike_id": "e56f6853dfb1e9c92d5ed425a1242dfd", "fusion_lon": 0.0, "rental_uris": {"android": "https://dc.lft.to/lastmile_qr_scan", "ios": "https://dc.lft.to/lastmile_qr_scan"}, "name": "e56f6853dfb1e9c92d5ed425a1242dfd", "type": "electric_bike", "lat": 38.87301383333333, "is_disabled": 0}, {"fusion_lat": 0.0, "lon": -77.02639733333334, "is_reserved": 0, "bike_id": "8fc5d7b77a4744bf562d4997fd40e4df", "fusion_lon": 0.0, "rental_uris": {"android": "https://dc.lft.to/lastmile_qr_scan", "ios": "https://dc.lft.to/lastmile_qr_scan"}, "name": "8fc5d7b77a4744bf562d4997fd40e4df", "type": "electric_scooter", "lat": 38.89217516666667, "is_disabled": 0}, {"fusion_lat": 0.0, "lon": -77.04198316666667, "is_reserved": 0, "bike_id": "0c4da8999c51f0441313ad69ee8c2f80", "fusion_lon": 0.0, "rental_uris": {"android": "https://dc.lft.to/lastmile_qr_scan", "ios": "https://dc.lft.to/lastmile_qr_scan"}, "name": "0c4da8999c51f0441313ad69ee8c2f80", "type": "electric_scooter", "lat": 38.903866666666666, "is_disabled": 0}, {"fusion_lat": 0.0, "lon": -76.99408416666667, "is_reserved": 0, "bike_id": "046b048f67dda96fc00a126effd347ec", "fusion_lon": 0.0, "rental_uris": {"android": "https://dc.lft.to/lastmile_qr_scan", "ios": "https://dc.lft.to/lastmile_qr_scan"}, "name": "046b048f67dda96fc00a126effd347ec", "type": "electric_bike", "lat": 38.8313515, "is_disabled": 0}, {"fusion_lat": 0.0, "lon": -77.016576, "is_reserved": 0, "bike_id": "937590de1842f540d349486e301ec078", "fusion_lon": 0.0, "rental_uris": {"android": "https://dc.lft.to/lastmile_qr_scan", "ios": "https://dc.lft.to/lastmile_qr_scan"}, "name": "937590de1842f540d349486e301ec078", "type": "electric_scooter", "lat": 38.88122233333333, "is_disabled": 0}, {"fusion_lat": 0.0, "lon": -77.04509566666667, "is_reserved": 0, "bike_id": "362fad72d3a39fb9567ef09b8ea4a061", "fusion_lon": 0.0, "rental_uris": {"android": "https://dc.lft.to/lastmile_qr_scan", "ios": "https://dc.lft.to/lastmile_qr_scan"}, "name": "362fad72d3a39fb9567ef09b8ea4a061", "type": "electric_scooter", "lat": 38.903771, "is_disabled": 0}, {"fusion_lat": 0.0, "lon": -77.02131533333333, "is_reserved": 0, "bike_id": "ee75c64a317c3ee7bdbf9fd63abe5140", "fusion_lon": 0.0, "rental_uris": {"android": "https://dc.lft.to/lastmile_qr_scan", "ios": "https://dc.lft.to/lastmile_qr_scan"}, "name": "ee75c64a317c3ee7bdbf9fd63abe5140", "type": "electric_scooter", "lat": 38.92326, "is_disabled": 0}, {"fusion_lat": 0.0, "lon": -76.933661, "is_reserved": 0, "bike_id": "372205b025209fc409ddfd3727d81254", "fusion_lon": 0.0, "rental_uris": {"android": "https://dc.lft.to/lastmile_qr_scan", "ios": "https://dc.lft.to/lastmile_qr_scan"}, "name": "372205b025209fc409ddfd3727d81254", "type": "electric_scooter", "lat": 38.8991705, "is_disabled": 0}, {"fusion_lat": 0.0, "lon": -77.025287, "is_reserved": 0, "bike_id": "f9ad19802645795ad27d71ac1a9156b2", "fusion_lon": 0.0, "rental_uris": {"android": "https://dc.lft.to/lastmile_qr_scan", "ios": "https://dc.lft.to/lastmile_qr_scan"}, "name": "f9ad19802645795ad27d71ac1a9156b2", "type": "electric_scooter", "lat": 38.92743866666667, "is_disabled": 0}, {"fusion_lat": 0.0, "lon": -77.02896683333333, "is_reserved": 0, "bike_id": "35eaecf5c9ea9057a522872b0dfb2ac0", "fusion_lon": 0.0, "rental_uris": {"android": "https://dc.lft.to/lastmile_qr_scan", "ios": "https://dc.lft.to/lastmile_qr_scan"}, "name": "35eaecf5c9ea9057a522872b0dfb2ac0", "type": "electric_scooter", "lat": 38.940454, "is_disabled": 0}, {"fusion_lat": 0.0, "lon": -77.04312733333333, "is_reserved": 0, "bike_id": "b63d8376f3315f2fe796dfaf68e82b41", "fusion_lon": 0.0, "rental_uris": {"android": "https://dc.lft.to/lastmile_qr_scan", "ios": "https://dc.lft.to/lastmile_qr_scan"}, "name": "b63d8376f3315f2fe796dfaf68e82b41", "type": "electric_scooter", "lat": 38.923306, "is_disabled": 0}, {"fusion_lat": 0.0, "lon": -77.017575, "is_reserved": 0, "bike_id": "f5fe3b90b8f1957f3094aa0938269a54", "fusion_lon": 0.0, "rental_uris": {"android": "https://dc.lft.to/lastmile_qr_scan", "ios": "https://dc.lft.to/lastmile_qr_scan"}, "name": "f5fe3b90b8f1957f3094aa0938269a54", "type": "electric_scooter", "lat": 38.9026145, "is_disabled": 0}, {"fusion_lat": 0.0, "lon": -77.10093183333333, "is_reserved": 0, "bike_id": "3cf030cfc584d43201258a556a0c23c7", "fusion_lon": 0.0, "rental_uris": {"android": "https://dc.lft.to/lastmile_qr_scan", "ios": "https://dc.lft.to/lastmile_qr_scan"}, "name": "3cf030cfc584d43201258a556a0c23c7", "type": "electric_bike", "lat": 38.959574, "is_disabled": 0}, {"fusion_lat": 0.0, "lon": -77.03245133333333, "is_reserved": 0, "bike_id": "a10291f7c9afea5ea83345ba0d826830", "fusion_lon": 0.0, "rental_uris": {"android": "https://dc.lft.to/lastmile_qr_scan", "ios": "https://dc.lft.to/lastmile_qr_scan"}, "name": "a10291f7c9afea5ea83345ba0d826830", "type": "electric_scooter", "lat": 38.909781833333334, "is_disabled": 0}, {"fusion_lat": 0.0, "lon": -77.01159616666666, "is_reserved": 0, "bike_id": "95389ad12888262ae3ce0cf512ec3d42", "fusion_lon": 0.0, "rental_uris": {"android": "https://dc.lft.to/lastmile_qr_scan", "ios": "https://dc.lft.to/lastmile_qr_scan"}, "name": "95389ad12888262ae3ce0cf512ec3d42", "type": "electric_scooter", "lat": 38.900261, "is_disabled": 0}, {"fusion_lat": 0.0, "lon": -77.0575845, "is_reserved": 0, "bike_id": "2ceca5c117c50d17c1799f5bdab230e0", "fusion_lon": 0.0, "rental_uris": {"android": "https://dc.lft.to/lastmile_qr_scan", "ios": "https://dc.lft.to/lastmile_qr_scan"}, "name": "2ceca5c117c50d17c1799f5bdab230e0", "type": "electric_scooter", "lat": 38.924631, "is_disabled": 0}, {"fusion_lat": 0.0, "lon": -77.02729166666667, "is_reserved": 0, "bike_id": "8723072cb72f2b0d31e50f0ab81c4f6d", "fusion_lon": 0.0, "rental_uris": {"android": "https://dc.lft.to/lastmile_qr_scan", "ios": "https://dc.lft.to/lastmile_qr_scan"}, "name": "8723072cb72f2b0d31e50f0ab81c4f6d", "type": "electric_scooter", "lat": 38.89749183333333, "is_disabled": 0}, {"fusion_lat": 0.0, "lon": -77.0420195, "is_reserved": 0, "bike_id": "0ea2de5637528237f300b0c655c4efb0", "fusion_lon": 0.0, "rental_uris": {"android": "https://dc.lft.to/lastmile_qr_scan", "ios": "https://dc.lft.to/lastmile_qr_scan"}, "name": "0ea2de5637528237f300b0c655c4efb0", "type": "electric_scooter", "lat": 38.90909166666667, "is_disabled": 0}, {"fusion_lat": 0.0, "lon": -76.98075116666666, "is_reserved": 0, "bike_id": "03804621acdbbbc26fb90abcaa5ddff5", "fusion_lon": 0.0, "rental_uris": {"android": "https://dc.lft.to/lastmile_qr_scan", "ios": "https://dc.lft.to/lastmile_qr_scan"}, "name": "03804621acdbbbc26fb90abcaa5ddff5", "type": "electric_scooter", "lat": 38.901773, "is_disabled": 0}, {"fusion_lat": 0.0, "lon": -77.037988, "is_reserved": 0, "bike_id": "1b19bc1352093db907af82c8e846abdf", "fusion_lon": 0.0, "rental_uris": {"android": "https://dc.lft.to/lastmile_qr_scan", "ios": "https://dc.lft.to/lastmile_qr_scan"}, "name": "1b19bc1352093db907af82c8e846abdf", "type": "electric_scooter", "lat": 38.910347, "is_disabled": 0}, {"fusion_lat": 0.0, "lon": -77.0632595, "is_reserved": 0, "bike_id": "069fe6d8b745f353383cbc6a8129897c", "fusion_lon": 0.0, "rental_uris": {"android": "https://dc.lft.to/lastmile_qr_scan", "ios": "https://dc.lft.to/lastmile_qr_scan"}, "name": "069fe6d8b745f353383cbc6a8129897c", "type": "electric_scooter", "lat": 38.907655166666665, "is_disabled": 0}, {"fusion_lat": 0.0, "lon": -76.98694316666666, "is_reserved": 0, "bike_id": "01558905b927b6c573f17555f5ce5d6f", "fusion_lon": 0.0, "rental_uris": {"android": "https://dc.lft.to/lastmile_qr_scan", "ios": "https://dc.lft.to/lastmile_qr_scan"}, "name": "01558905b927b6c573f17555f5ce5d6f", "type": "electric_scooter", "lat": 38.862549, "is_disabled": 0}, {"fusion_lat": 0.0, "lon": -77.02670683333334, "is_reserved": 0, "bike_id": "1100ac37f743f0300f9be4e1094425b5", "fusion_lon": 0.0, "rental_uris": {"android": "https://dc.lft.to/lastmile_qr_scan", "ios": "https://dc.lft.to/lastmile_qr_scan"}, "name": "1100ac37f743f0300f9be4e1094425b5", "type": "electric_scooter", "lat": 38.907343, "is_disabled": 0}, {"fusion_lat": 0.0, "lon": -77.007484, "is_reserved": 0, "bike_id": "2136a23b53de426d9718360c8e6d2bbc", "fusion_lon": 0.0, "rental_uris": {"android": "https://dc.lft.to/lastmile_qr_scan", "ios": "https://dc.lft.to/lastmile_qr_scan"}, "name": "2136a23b53de426d9718360c8e6d2bbc", "type": "electric_scooter", "lat": 38.8983285, "is_disabled": 0}, {"fusion_lat": 0.0, "lon": -77.05340566666666, "is_reserved": 0, "bike_id": "0d36aa9383633cfcff77ae56542cd726", "fusion_lon": 0.0, "rental_uris": {"android": "https://dc.lft.to/lastmile_qr_scan", "ios": "https://dc.lft.to/lastmile_qr_scan"}, "name": "0d36aa9383633cfcff77ae56542cd726", "type": "electric_scooter", "lat": 38.923449166666664, "is_disabled": 0}, {"fusion_lat": 0.0, "lon": -77.03161266666666, "is_reserved": 0, "bike_id": "d875a30306904b924887c157f2643816", "fusion_lon": 0.0, "rental_uris": {"android": "https://dc.lft.to/lastmile_qr_scan", "ios": "https://dc.lft.to/lastmile_qr_scan"}, "name": "d875a30306904b924887c157f2643816", "type": "electric_scooter", "lat": 38.9060365, "is_disabled": 0}, {"fusion_lat": 0.0, "lon": -77.02766166666666, "is_reserved": 0, "bike_id": "f1fa49a50cfa741cef7cb0d7480df61b", "fusion_lon": 0.0, "rental_uris": {"android": "https://dc.lft.to/lastmile_qr_scan", "ios": "https://dc.lft.to/lastmile_qr_scan"}, "name": "f1fa49a50cfa741cef7cb0d7480df61b", "type": "electric_scooter", "lat": 38.954208333333334, "is_disabled": 0}, {"fusion_lat": 0.0, "lon": -76.98194316666667, "is_reserved": 0, "bike_id": "10d2280ade6b63ded0cee6f06af640a0", "fusion_lon": 0.0, "rental_uris": {"android": "https://dc.lft.to/lastmile_qr_scan", "ios": "https://dc.lft.to/lastmile_qr_scan"}, "name": "10d2280ade6b63ded0cee6f06af640a0", "type": "electric_scooter", "lat": 38.9028185, "is_disabled": 0}, {"fusion_lat": 0.0, "lon": -77.0504515, "is_reserved": 0, "bike_id": "751d466a0511f29718a93d5361301a84", "fusion_lon": 0.0, "rental_uris": {"android": "https://dc.lft.to/lastmile_qr_scan", "ios": "https://dc.lft.to/lastmile_qr_scan"}, "name": "751d466a0511f29718a93d5361301a84", "type": "electric_scooter", "lat": 38.9238505, "is_disabled": 0}, {"fusion_lat": 0.0, "lon": -77.0228535, "is_reserved": 0, "bike_id": "2555d2360fc82674591ca26d38781aa9", "fusion_lon": 0.0, "rental_uris": {"android": "https://dc.lft.to/lastmile_qr_scan", "ios": "https://dc.lft.to/lastmile_qr_scan"}, "name": "2555d2360fc82674591ca26d38781aa9", "type": "electric_scooter", "lat": 38.9353775, "is_disabled": 0}, {"fusion_lat": 0.0, "lon": -77.00025216666667, "is_reserved": 0, "bike_id": "f6cf72bfb83c6ee28ba51d7f0d318bf2", "fusion_lon": 0.0, "rental_uris": {"android": "https://dc.lft.to/lastmile_qr_scan", "ios": "https://dc.lft.to/lastmile_qr_scan"}, "name": "f6cf72bfb83c6ee28ba51d7f0d318bf2", "type": "electric_scooter", "lat": 38.907819833333335, "is_disabled": 0}, {"fusion_lat": 0.0, "lon": -77.04881916666666, "is_reserved": 0, "bike_id": "d1b8fb7bbedf522a63de1b7a44b46f85", "fusion_lon": 0.0, "rental_uris": {"android": "https://dc.lft.to/lastmile_qr_scan", "ios": "https://dc.lft.to/lastmile_qr_scan"}, "name": "d1b8fb7bbedf522a63de1b7a44b46f85", "type": "electric_scooter", "lat": 38.9053525, "is_disabled": 0}, {"fusion_lat": 0.0, "lon": -77.02816066666666, "is_reserved": 0, "bike_id": "e44e9af89f107f5793ee8efb628a8fce", "fusion_lon": 0.0, "rental_uris": {"android": "https://dc.lft.to/lastmile_qr_scan", "ios": "https://dc.lft.to/lastmile_qr_scan"}, "name": "e44e9af89f107f5793ee8efb628a8fce", "type": "electric_scooter", "lat": 38.8983915, "is_disabled": 0}, {"fusion_lat": 0.0, "lon": -77.035311, "is_reserved": 0, "bike_id": "10e6134da470cd3b9f439657ea8bbac0", "fusion_lon": 0.0, "rental_uris": {"android": "https://dc.lft.to/lastmile_qr_scan", "ios": "https://dc.lft.to/lastmile_qr_scan"}, "name": "10e6134da470cd3b9f439657ea8bbac0", "type": "electric_scooter", "lat": 38.9069, "is_disabled": 0}, {"fusion_lat": 0.0, "lon": -77.01161033333334, "is_reserved": 0, "bike_id": "19de005d1dfb896a8cdd8a92eea3a11b", "fusion_lon": 0.0, "rental_uris": {"android": "https://dc.lft.to/lastmile_qr_scan", "ios": "https://dc.lft.to/lastmile_qr_scan"}, "name": "19de005d1dfb896a8cdd8a92eea3a11b", "type": "electric_scooter", "lat": 38.900324499999996, "is_disabled": 0}, {"fusion_lat": 0.0, "lon": -76.92205116666666, "is_reserved": 0, "bike_id": "955a19a914992a0e506d13f7590bd14f", "fusion_lon": 0.0, "rental_uris": {"android": "https://dc.lft.to/lastmile_qr_scan", "ios": "https://dc.lft.to/lastmile_qr_scan"}, "name": "955a19a914992a0e506d13f7590bd14f", "type": "electric_bike", "lat": 38.894881, "is_disabled": 0}, {"fusion_lat": 0.0, "lon": -77.02493466666667, "is_reserved": 0, "bike_id": "c262cea4cda20f0c740e8211baf16f95", "fusion_lon": 0.0, "rental_uris": {"android": "https://dc.lft.to/lastmile_qr_scan", "ios": "https://dc.lft.to/lastmile_qr_scan"}, "name": "c262cea4cda20f0c740e8211baf16f95", "type": "electric_scooter", "lat": 38.94183783333333, "is_disabled": 0}, {"fusion_lat": 0.0, "lon": -77.03947266666667, "is_reserved": 0, "bike_id": "3076f988a5650054bfad5f01c2a9f572", "fusion_lon": 0.0, "rental_uris": {"android": "https://dc.lft.to/lastmile_qr_scan", "ios": "https://dc.lft.to/lastmile_qr_scan"}, "name": "3076f988a5650054bfad5f01c2a9f572", "type": "electric_scooter", "lat": 38.908148833333335, "is_disabled": 0}, {"fusion_lat": 0.0, "lon": -76.99033116666666, "is_reserved": 0, "bike_id": "b6d0beea6b78131138115b66874411ed", "fusion_lon": 0.0, "rental_uris": {"android": "https://dc.lft.to/lastmile_qr_scan", "ios": "https://dc.lft.to/lastmile_qr_scan"}, "name": "b6d0beea6b78131138115b66874411ed", "type": "electric_scooter", "lat": 38.902882166666664, "is_disabled": 0}, {"fusion_lat": 0.0, "lon": -77.02962766666667, "is_reserved": 0, "bike_id": "70004b9f579c7b3e888b79831539971b", "fusion_lon": 0.0, "rental_uris": {"android": "https://dc.lft.to/lastmile_qr_scan", "ios": "https://dc.lft.to/lastmile_qr_scan"}, "name": "70004b9f579c7b3e888b79831539971b", "type": "electric_scooter", "lat": 38.925677, "is_disabled": 0}, {"fusion_lat": 0.0, "lon": -77.03832183333333, "is_reserved": 0, "bike_id": "a375ed33381559c27240f2196e0fb337", "fusion_lon": 0.0, "rental_uris": {"android": "https://dc.lft.to/lastmile_qr_scan", "ios": "https://dc.lft.to/lastmile_qr_scan"}, "name": "a375ed33381559c27240f2196e0fb337", "type": "electric_scooter", "lat": 38.91191516666667, "is_disabled": 0}, {"fusion_lat": 0.0, "lon": -77.00600433333334, "is_reserved": 0, "bike_id": "8ce4e9286effe11ddfca95fc795bea3e", "fusion_lon": 0.0, "rental_uris": {"android": "https://dc.lft.to/lastmile_qr_scan", "ios": "https://dc.lft.to/lastmile_qr_scan"}, "name": "8ce4e9286effe11ddfca95fc795bea3e", "type": "electric_scooter", "lat": 38.885178333333336, "is_disabled": 0}, {"fusion_lat": 0.0, "lon": -77.07371766666667, "is_reserved": 0, "bike_id": "f13a53c8c76f9926cb0fc6fe0de05b3d", "fusion_lon": 0.0, "rental_uris": {"android": "https://dc.lft.to/lastmile_qr_scan", "ios": "https://dc.lft.to/lastmile_qr_scan"}, "name": "f13a53c8c76f9926cb0fc6fe0de05b3d", "type": "electric_bike", "lat": 38.961848833333335, "is_disabled": 0}, {"fusion_lat": 0.0, "lon": -76.99026033333334, "is_reserved": 0, "bike_id": "2988b7b514015855c87509b62cfc70cd", "fusion_lon": 0.0, "rental_uris": {"android": "https://dc.lft.to/lastmile_qr_scan", "ios": "https://dc.lft.to/lastmile_qr_scan"}, "name": "2988b7b514015855c87509b62cfc70cd", "type": "electric_scooter", "lat": 38.8638025, "is_disabled": 0}, {"fusion_lat": 0.0, "lon": -77.03406233333334, "is_reserved": 0, "bike_id": "addfe7757307c9d206bdd79d66e66371", "fusion_lon": 0.0, "rental_uris": {"android": "https://dc.lft.to/lastmile_qr_scan", "ios": "https://dc.lft.to/lastmile_qr_scan"}, "name": "addfe7757307c9d206bdd79d66e66371", "type": "electric_scooter", "lat": 38.903958, "is_disabled": 0}, {"fusion_lat": 0.0, "lon": -77.08579016666667, "is_reserved": 0, "bike_id": "cfa45c841e97fbb3227c5da16987fdc2", "fusion_lon": 0.0, "rental_uris": {"android": "https://dc.lft.to/lastmile_qr_scan", "ios": "https://dc.lft.to/lastmile_qr_scan"}, "name": "cfa45c841e97fbb3227c5da16987fdc2", "type": "electric_bike", "lat": 38.844289, "is_disabled": 0}, {"fusion_lat": 0.0, "lon": -77.06400866666667, "is_reserved": 0, "bike_id": "ec6b304d3db1625a4bdcea10097e6b7f", "fusion_lon": 0.0, "rental_uris": {"android": "https://dc.lft.to/lastmile_qr_scan", "ios": "https://dc.lft.to/lastmile_qr_scan"}, "name": "ec6b304d3db1625a4bdcea10097e6b7f", "type": "electric_scooter", "lat": 38.94326783333333, "is_disabled": 0}, {"fusion_lat": 0.0, "lon": -77.02196766666667, "is_reserved": 0, "bike_id": "061c0c13f95ab7df3896089da67f6613", "fusion_lon": 0.0, "rental_uris": {"android": "https://dc.lft.to/lastmile_qr_scan", "ios": "https://dc.lft.to/lastmile_qr_scan"}, "name": "061c0c13f95ab7df3896089da67f6613", "type": "electric_scooter", "lat": 38.897121166666665, "is_disabled": 0}, {"fusion_lat": 0.0, "lon": -77.03247766666667, "is_reserved": 0, "bike_id": "3cd2839cb1c41bb89cfda3640a71bc0e", "fusion_lon": 0.0, "rental_uris": {"android": "https://dc.lft.to/lastmile_qr_scan", "ios": "https://dc.lft.to/lastmile_qr_scan"}, "name": "3cd2839cb1c41bb89cfda3640a71bc0e", "type": "electric_scooter", "lat": 38.9285255, "is_disabled": 0}, {"fusion_lat": 0.0, "lon": -77.00727683333334, "is_reserved": 0, "bike_id": "110ab80bb80e47e940021dd7f4c52248", "fusion_lon": 0.0, "rental_uris": {"android": "https://dc.lft.to/lastmile_qr_scan", "ios": "https://dc.lft.to/lastmile_qr_scan"}, "name": "110ab80bb80e47e940021dd7f4c52248", "type": "electric_scooter", "lat": 38.88492466666667, "is_disabled": 0}, {"fusion_lat": 0.0, "lon": -77.011623, "is_reserved": 0, "bike_id": "d1cc3eeafcfbb224df31485b3053e891", "fusion_lon": 0.0, "rental_uris": {"android": "https://dc.lft.to/lastmile_qr_scan", "ios": "https://dc.lft.to/lastmile_qr_scan"}, "name": "d1cc3eeafcfbb224df31485b3053e891", "type": "electric_scooter", "lat": 38.90026, "is_disabled": 0}, {"fusion_lat": 0.0, "lon": -76.98455716666666, "is_reserved": 0, "bike_id": "a9b9a2806dacb8009b0937d22f78b36d", "fusion_lon": 0.0, "rental_uris": {"android": "https://dc.lft.to/lastmile_qr_scan", "ios": "https://dc.lft.to/lastmile_qr_scan"}, "name": "a9b9a2806dacb8009b0937d22f78b36d", "type": "electric_scooter", "lat": 38.90387033333333, "is_disabled": 0}, {"fusion_lat": 0.0, "lon": -77.06162016666667, "is_reserved": 0, "bike_id": "4baa1ff7768f26e21a12d4ca6f62864b", "fusion_lon": 0.0, "rental_uris": {"android": "https://dc.lft.to/lastmile_qr_scan", "ios": "https://dc.lft.to/lastmile_qr_scan"}, "name": "4baa1ff7768f26e21a12d4ca6f62864b", "type": "electric_scooter", "lat": 38.90260633333333, "is_disabled": 0}, {"fusion_lat": 0.0, "lon": -76.98826416666667, "is_reserved": 0, "bike_id": "44ffbc20bfb0cc31e86ff78fa2d54054", "fusion_lon": 0.0, "rental_uris": {"android": "https://dc.lft.to/lastmile_qr_scan", "ios": "https://dc.lft.to/lastmile_qr_scan"}, "name": "44ffbc20bfb0cc31e86ff78fa2d54054", "type": "electric_scooter", "lat": 38.90041816666667, "is_disabled": 0}, {"fusion_lat": 0.0, "lon": -77.0176415, "is_reserved": 0, "bike_id": "fb86779f971328fd7c5f6be91ac9e39b", "fusion_lon": 0.0, "rental_uris": {"android": "https://dc.lft.to/lastmile_qr_scan", "ios": "https://dc.lft.to/lastmile_qr_scan"}, "name": "fb86779f971328fd7c5f6be91ac9e39b", "type": "electric_scooter", "lat": 38.876913333333334, "is_disabled": 0}, {"fusion_lat": 0.0, "lon": -77.11254616666666, "is_reserved": 0, "bike_id": "3def95b6675ba3cfe10a479c3db12348", "fusion_lon": 0.0, "rental_uris": {"android": "https://dc.lft.to/lastmile_qr_scan", "ios": "https://dc.lft.to/lastmile_qr_scan"}, "name": "3def95b6675ba3cfe10a479c3db12348", "type": "electric_bike", "lat": 38.856488, "is_disabled": 0}, {"fusion_lat": 0.0, "lon": -77.00370533333333, "is_reserved": 0, "bike_id": "086f3083a13b8e30630405baca9c3038", "fusion_lon": 0.0, "rental_uris": {"android": "https://dc.lft.to/lastmile_qr_scan", "ios": "https://dc.lft.to/lastmile_qr_scan"}, "name": "086f3083a13b8e30630405baca9c3038", "type": "electric_scooter", "lat": 38.882632, "is_disabled": 0}, {"fusion_lat": 0.0, "lon": -77.038391, "is_reserved": 0, "bike_id": "5dfe7518e1f0927025e9bbc9fe3d289c", "fusion_lon": 0.0, "rental_uris": {"android": "https://dc.lft.to/lastmile_qr_scan", "ios": "https://dc.lft.to/lastmile_qr_scan"}, "name": "5dfe7518e1f0927025e9bbc9fe3d289c", "type": "electric_scooter", "lat": 38.903652666666666, "is_disabled": 0}, {"fusion_lat": 0.0, "lon": -77.007681, "is_reserved": 0, "bike_id": "103a2a0ee2db24836f10d0a0c18c949e", "fusion_lon": 0.0, "rental_uris": {"android": "https://dc.lft.to/lastmile_qr_scan", "ios": "https://dc.lft.to/lastmile_qr_scan"}, "name": "103a2a0ee2db24836f10d0a0c18c949e", "type": "electric_scooter", "lat": 38.89832, "is_disabled": 0}, {"fusion_lat": 0.0, "lon": -77.01138733333333, "is_reserved": 0, "bike_id": "f2d7ff276cefe25b8aac87263e5218f6", "fusion_lon": 0.0, "rental_uris": {"android": "https://dc.lft.to/lastmile_qr_scan", "ios": "https://dc.lft.to/lastmile_qr_scan"}, "name": "f2d7ff276cefe25b8aac87263e5218f6", "type": "electric_scooter", "lat": 38.91593983333333, "is_disabled": 0}, {"fusion_lat": 0.0, "lon": -77.03270366666666, "is_reserved": 0, "bike_id": "85b0c4215a77d19622b40e64fc4049c5", "fusion_lon": 0.0, "rental_uris": {"android": "https://dc.lft.to/lastmile_qr_scan", "ios": "https://dc.lft.to/lastmile_qr_scan"}, "name": "85b0c4215a77d19622b40e64fc4049c5", "type": "electric_scooter", "lat": 38.928455166666666, "is_disabled": 0}, {"fusion_lat": 0.0, "lon": -77.0672135, "is_reserved": 0, "bike_id": "965f6652f587731fb939dff2dd09b1b7", "fusion_lon": 0.0, "rental_uris": {"android": "https://dc.lft.to/lastmile_qr_scan", "ios": "https://dc.lft.to/lastmile_qr_scan"}, "name": "965f6652f587731fb939dff2dd09b1b7", "type": "electric_scooter", "lat": 38.9502105, "is_disabled": 0}, {"fusion_lat": 0.0, "lon": -77.0079335, "is_reserved": 0, "bike_id": "7318dfa439a088a00442ed139f9158f1", "fusion_lon": 0.0, "rental_uris": {"android": "https://dc.lft.to/lastmile_qr_scan", "ios": "https://dc.lft.to/lastmile_qr_scan"}, "name": "7318dfa439a088a00442ed139f9158f1", "type": "electric_scooter", "lat": 38.9057615, "is_disabled": 0}, {"fusion_lat": 0.0, "lon": -77.017887, "is_reserved": 0, "bike_id": "d0b24b8cabc9c36965cb217c97f6115c", "fusion_lon": 0.0, "rental_uris": {"android": "https://dc.lft.to/lastmile_qr_scan", "ios": "https://dc.lft.to/lastmile_qr_scan"}, "name": "d0b24b8cabc9c36965cb217c97f6115c", "type": "electric_scooter", "lat": 38.904073333333336, "is_disabled": 0}, {"fusion_lat": 0.0, "lon": -77.11707433333333, "is_reserved": 0, "bike_id": "315d556859869efc92c90d9b49016657", "fusion_lon": 0.0, "rental_uris": {"android": "https://dc.lft.to/lastmile_qr_scan", "ios": "https://dc.lft.to/lastmile_qr_scan"}, "name": "315d556859869efc92c90d9b49016657", "type": "electric_bike", "lat": 38.86745, "is_disabled": 0}, {"fusion_lat": 0.0, "lon": -77.0474095, "is_reserved": 0, "bike_id": "311eec95602a079e0fe1c067ada43e11", "fusion_lon": 0.0, "rental_uris": {"android": "https://dc.lft.to/lastmile_qr_scan", "ios": "https://dc.lft.to/lastmile_qr_scan"}, "name": "311eec95602a079e0fe1c067ada43e11", "type": "electric_scooter", "lat": 38.902219833333334, "is_disabled": 0}, {"fusion_lat": 0.0, "lon": -77.02154783333333, "is_reserved": 0, "bike_id": "3fd57e9cb123db821e289762995da29e", "fusion_lon": 0.0, "rental_uris": {"android": "https://dc.lft.to/lastmile_qr_scan", "ios": "https://dc.lft.to/lastmile_qr_scan"}, "name": "3fd57e9cb123db821e289762995da29e", "type": "electric_scooter", "lat": 38.92604883333333, "is_disabled": 0}, {"fusion_lat": 0.0, "lon": -77.04211066666667, "is_reserved": 0, "bike_id": "c696897fb3d5641b8be1f827ec83c598", "fusion_lon": 0.0, "rental_uris": {"android": "https://dc.lft.to/lastmile_qr_scan", "ios": "https://dc.lft.to/lastmile_qr_scan"}, "name": "c696897fb3d5641b8be1f827ec83c598", "type": "electric_scooter", "lat": 38.9170365, "is_disabled": 0}, {"fusion_lat": 0.0, "lon": -77.03388916666667, "is_reserved": 0, "bike_id": "5814b55b5fd06ec354f7c5e822844e8d", "fusion_lon": 0.0, "rental_uris": {"android": "https://dc.lft.to/lastmile_qr_scan", "ios": "https://dc.lft.to/lastmile_qr_scan"}, "name": "5814b55b5fd06ec354f7c5e822844e8d", "type": "electric_scooter", "lat": 38.92355833333333, "is_disabled": 0}, {"fusion_lat": 0.0, "lon": -76.9882525, "is_reserved": 0, "bike_id": "863a4a996abd9e437f9b594782256794", "fusion_lon": 0.0, "rental_uris": {"android": "https://dc.lft.to/lastmile_qr_scan", "ios": "https://dc.lft.to/lastmile_qr_scan"}, "name": "863a4a996abd9e437f9b594782256794", "type": "electric_scooter", "lat": 38.900326166666666, "is_disabled": 0}, {"fusion_lat": 0.0, "lon": -76.996517, "is_reserved": 0, "bike_id": "2b79030a4ce47636e9d8a04cb84bf60e", "fusion_lon": 0.0, "rental_uris": {"android": "https://dc.lft.to/lastmile_qr_scan", "ios": "https://dc.lft.to/lastmile_qr_scan"}, "name": "2b79030a4ce47636e9d8a04cb84bf60e", "type": "electric_bike", "lat": 38.988287666666665, "is_disabled": 0}, {"fusion_lat": 0.0, "lon": -77.00758383333333, "is_reserved": 0, "bike_id": "350bcedfdb2623e341cedf44dee73cb2", "fusion_lon": 0.0, "rental_uris": {"android": "https://dc.lft.to/lastmile_qr_scan", "ios": "https://dc.lft.to/lastmile_qr_scan"}, "name": "350bcedfdb2623e341cedf44dee73cb2", "type": "electric_scooter", "lat": 38.900629, "is_disabled": 0}, {"fusion_lat": 0.0, "lon": -77.04835933333334, "is_reserved": 0, "bike_id": "06faf2893b6c8f681e741d0d822b0565", "fusion_lon": 0.0, "rental_uris": {"android": "https://dc.lft.to/lastmile_qr_scan", "ios": "https://dc.lft.to/lastmile_qr_scan"}, "name": "06faf2893b6c8f681e741d0d822b0565", "type": "electric_scooter", "lat": 38.90492233333333, "is_disabled": 0}, {"fusion_lat": 0.0, "lon": -77.02597783333333, "is_reserved": 0, "bike_id": "98e0265e855dab4c70735b44b567bcdb", "fusion_lon": 0.0, "rental_uris": {"android": "https://dc.lft.to/lastmile_qr_scan", "ios": "https://dc.lft.to/lastmile_qr_scan"}, "name": "98e0265e855dab4c70735b44b567bcdb", "type": "electric_scooter", "lat": 38.92584866666667, "is_disabled": 0}, {"fusion_lat": 0.0, "lon": -77.02161666666667, "is_reserved": 0, "bike_id": "a09d5fa8570606e68a90fc618726a19c", "fusion_lon": 0.0, "rental_uris": {"android": "https://dc.lft.to/lastmile_qr_scan", "ios": "https://dc.lft.to/lastmile_qr_scan"}, "name": "a09d5fa8570606e68a90fc618726a19c", "type": "electric_scooter", "lat": 38.9290675, "is_disabled": 0}, {"fusion_lat": 0.0, "lon": -77.038406, "is_reserved": 0, "bike_id": "c07f5274b5fdfd052e1e08271dd20f7e", "fusion_lon": 0.0, "rental_uris": {"android": "https://dc.lft.to/lastmile_qr_scan", "ios": "https://dc.lft.to/lastmile_qr_scan"}, "name": "c07f5274b5fdfd052e1e08271dd20f7e", "type": "electric_scooter", "lat": 38.90799366666667, "is_disabled": 0}, {"fusion_lat": 0.0, "lon": -77.03165016666667, "is_reserved": 0, "bike_id": "7831ba27629a13d3d3e6f63303796370", "fusion_lon": 0.0, "rental_uris": {"android": "https://dc.lft.to/lastmile_qr_scan", "ios": "https://dc.lft.to/lastmile_qr_scan"}, "name": "7831ba27629a13d3d3e6f63303796370", "type": "electric_scooter", "lat": 38.9037055, "is_disabled": 0}, {"fusion_lat": 0.0, "lon": -77.06735466666666, "is_reserved": 0, "bike_id": "b05008bb6de01fe32dfea883142eafb9", "fusion_lon": 0.0, "rental_uris": {"android": "https://dc.lft.to/lastmile_qr_scan", "ios": "https://dc.lft.to/lastmile_qr_scan"}, "name": "b05008bb6de01fe32dfea883142eafb9", "type": "electric_scooter", "lat": 38.906849, "is_disabled": 0}, {"fusion_lat": 0.0, "lon": -77.01775733333334, "is_reserved": 0, "bike_id": "06fee0c659e84307273aaef4f3bc44ce", "fusion_lon": 0.0, "rental_uris": {"android": "https://dc.lft.to/lastmile_qr_scan", "ios": "https://dc.lft.to/lastmile_qr_scan"}, "name": "06fee0c659e84307273aaef4f3bc44ce", "type": "electric_scooter", "lat": 38.8871375, "is_disabled": 0}, {"fusion_lat": 0.0, "lon": -77.01985583333334, "is_reserved": 0, "bike_id": "caf0d8d52d90b3c27ed74ad68b631023", "fusion_lon": 0.0, "rental_uris": {"android": "https://dc.lft.to/lastmile_qr_scan", "ios": "https://dc.lft.to/lastmile_qr_scan"}, "name": "caf0d8d52d90b3c27ed74ad68b631023", "type": "electric_scooter", "lat": 38.895716166666666, "is_disabled": 0}, {"fusion_lat": 0.0, "lon": -77.01944216666666, "is_reserved": 0, "bike_id": "80c124dc83ee9455051efb857c2aa585", "fusion_lon": 0.0, "rental_uris": {"android": "https://dc.lft.to/lastmile_qr_scan", "ios": "https://dc.lft.to/lastmile_qr_scan"}, "name": "80c124dc83ee9455051efb857c2aa585", "type": "electric_scooter", "lat": 38.924131333333335, "is_disabled": 0}, {"fusion_lat": 0.0, "lon": -76.99493, "is_reserved": 0, "bike_id": "e7cce966da90c5799f463c1de968cb09", "fusion_lon": 0.0, "rental_uris": {"android": "https://dc.lft.to/lastmile_qr_scan", "ios": "https://dc.lft.to/lastmile_qr_scan"}, "name": "e7cce966da90c5799f463c1de968cb09", "type": "electric_scooter", "lat": 38.881543666666666, "is_disabled": 0}, {"fusion_lat": 0.0, "lon": -77.0092, "is_reserved": 0, "bike_id": "88a945170505d1005eab4a87e8962105", "fusion_lon": 0.0, "rental_uris": {"android": "https://dc.lft.to/lastmile_qr_scan", "ios": "https://dc.lft.to/lastmile_qr_scan"}, "name": "88a945170505d1005eab4a87e8962105", "type": "electric_scooter", "lat": 38.8960695, "is_disabled": 0}, {"fusion_lat": 0.0, "lon": -77.02157633333333, "is_reserved": 0, "bike_id": "8bb93ebdfcb7207ff3cabadac7b7f4c6", "fusion_lon": 0.0, "rental_uris": {"android": "https://dc.lft.to/lastmile_qr_scan", "ios": "https://dc.lft.to/lastmile_qr_scan"}, "name": "8bb93ebdfcb7207ff3cabadac7b7f4c6", "type": "electric_scooter", "lat": 38.926045333333334, "is_disabled": 0}, {"fusion_lat": 0.0, "lon": -76.9970235, "is_reserved": 0, "bike_id": "d2a2bb1530533840e5034976855c4f32", "fusion_lon": 0.0, "rental_uris": {"android": "https://dc.lft.to/lastmile_qr_scan", "ios": "https://dc.lft.to/lastmile_qr_scan"}, "name": "d2a2bb1530533840e5034976855c4f32", "type": "electric_scooter", "lat": 38.844296, "is_disabled": 0}, {"fusion_lat": 0.0, "lon": -77.0760455, "is_reserved": 0, "bike_id": "24569dbdcdefd4be121bbf7808932940", "fusion_lon": 0.0, "rental_uris": {"android": "https://dc.lft.to/lastmile_qr_scan", "ios": "https://dc.lft.to/lastmile_qr_scan"}, "name": "24569dbdcdefd4be121bbf7808932940", "type": "electric_scooter", "lat": 38.9205455, "is_disabled": 0}, {"fusion_lat": 0.0, "lon": -76.97600516666667, "is_reserved": 0, "bike_id": "0ed9d50549aa3feb709bd9cf5d77a472", "fusion_lon": 0.0, "rental_uris": {"android": "https://dc.lft.to/lastmile_qr_scan", "ios": "https://dc.lft.to/lastmile_qr_scan"}, "name": "0ed9d50549aa3feb709bd9cf5d77a472", "type": "electric_scooter", "lat": 38.89748783333334, "is_disabled": 0}, {"fusion_lat": 0.0, "lon": -76.98764783333333, "is_reserved": 0, "bike_id": "f856b8b64891b7aa291038f8158db071", "fusion_lon": 0.0, "rental_uris": {"android": "https://dc.lft.to/lastmile_qr_scan", "ios": "https://dc.lft.to/lastmile_qr_scan"}, "name": "f856b8b64891b7aa291038f8158db071", "type": "electric_scooter", "lat": 38.90031533333333, "is_disabled": 0}, {"fusion_lat": 0.0, "lon": -77.02740183333333, "is_reserved": 0, "bike_id": "b2a220d985689bc9a113576fe2ef5696", "fusion_lon": 0.0, "rental_uris": {"android": "https://dc.lft.to/lastmile_qr_scan", "ios": "https://dc.lft.to/lastmile_qr_scan"}, "name": "b2a220d985689bc9a113576fe2ef5696", "type": "electric_scooter", "lat": 38.92385783333334, "is_disabled": 0}, {"fusion_lat": 0.0, "lon": -77.03096416666666, "is_reserved": 0, "bike_id": "02d8e060689a3c4ebdac5ff0613ac6a2", "fusion_lon": 0.0, "rental_uris": {"android": "https://dc.lft.to/lastmile_qr_scan", "ios": "https://dc.lft.to/lastmile_qr_scan"}, "name": "02d8e060689a3c4ebdac5ff0613ac6a2", "type": "electric_scooter", "lat": 38.923843, "is_disabled": 0}, {"fusion_lat": 0.0, "lon": -77.003325, "is_reserved": 0, "bike_id": "228c5e968694264d5475a04d54f37698", "fusion_lon": 0.0, "rental_uris": {"android": "https://dc.lft.to/lastmile_qr_scan", "ios": "https://dc.lft.to/lastmile_qr_scan"}, "name": "228c5e968694264d5475a04d54f37698", "type": "electric_scooter", "lat": 38.889891166666665, "is_disabled": 0}, {"fusion_lat": 0.0, "lon": -76.99805083333334, "is_reserved": 0, "bike_id": "633e0ccf69ce22aef7122dcce7f6a63b", "fusion_lon": 0.0, "rental_uris": {"android": "https://dc.lft.to/lastmile_qr_scan", "ios": "https://dc.lft.to/lastmile_qr_scan"}, "name": "633e0ccf69ce22aef7122dcce7f6a63b", "type": "electric_scooter", "lat": 38.885638, "is_disabled": 0}, {"fusion_lat": 0.0, "lon": -77.041733, "is_reserved": 0, "bike_id": "b501f823e03a9b225e22d71d00af34f6", "fusion_lon": 0.0, "rental_uris": {"android": "https://dc.lft.to/lastmile_qr_scan", "ios": "https://dc.lft.to/lastmile_qr_scan"}, "name": "b501f823e03a9b225e22d71d00af34f6", "type": "electric_scooter", "lat": 38.919778666666666, "is_disabled": 0}, {"fusion_lat": 0.0, "lon": -77.0274155, "is_reserved": 0, "bike_id": "7b0dbb13f18e42e3bb5417310b47e331", "fusion_lon": 0.0, "rental_uris": {"android": "https://dc.lft.to/lastmile_qr_scan", "ios": "https://dc.lft.to/lastmile_qr_scan"}, "name": "7b0dbb13f18e42e3bb5417310b47e331", "type": "electric_scooter", "lat": 38.92773833333333, "is_disabled": 0}, {"fusion_lat": 0.0, "lon": -77.04815933333333, "is_reserved": 0, "bike_id": "b87a074b02029eb9762ad5d714680911", "fusion_lon": 0.0, "rental_uris": {"android": "https://dc.lft.to/lastmile_qr_scan", "ios": "https://dc.lft.to/lastmile_qr_scan"}, "name": "b87a074b02029eb9762ad5d714680911", "type": "electric_scooter", "lat": 38.9103555, "is_disabled": 0}, {"fusion_lat": 0.0, "lon": -77.02057, "is_reserved": 0, "bike_id": "b0b9932c0684ab1dde4d86d5e749734e", "fusion_lon": 0.0, "rental_uris": {"android": "https://dc.lft.to/lastmile_qr_scan", "ios": "https://dc.lft.to/lastmile_qr_scan"}, "name": "b0b9932c0684ab1dde4d86d5e749734e", "type": "electric_bike", "lat": 38.957588333333334, "is_disabled": 0}, {"fusion_lat": 0.0, "lon": -77.00615033333334, "is_reserved": 0, "bike_id": "0aa10ec9bb20dd42c326e64beb7c4af4", "fusion_lon": 0.0, "rental_uris": {"android": "https://dc.lft.to/lastmile_qr_scan", "ios": "https://dc.lft.to/lastmile_qr_scan"}, "name": "0aa10ec9bb20dd42c326e64beb7c4af4", "type": "electric_scooter", "lat": 38.875512666666665, "is_disabled": 0}, {"fusion_lat": 0.0, "lon": -77.00211116666667, "is_reserved": 0, "bike_id": "8bb12ab8b3b2f9e9f4127d9afb5610a5", "fusion_lon": 0.0, "rental_uris": {"android": "https://dc.lft.to/lastmile_qr_scan", "ios": "https://dc.lft.to/lastmile_qr_scan"}, "name": "8bb12ab8b3b2f9e9f4127d9afb5610a5", "type": "electric_scooter", "lat": 38.9005535, "is_disabled": 0}, {"fusion_lat": 0.0, "lon": -76.99571666666667, "is_reserved": 0, "bike_id": "d72cfce228c5f2dba8c0f060fcffad76", "fusion_lon": 0.0, "rental_uris": {"android": "https://dc.lft.to/lastmile_qr_scan", "ios": "https://dc.lft.to/lastmile_qr_scan"}, "name": "d72cfce228c5f2dba8c0f060fcffad76", "type": "electric_scooter", "lat": 38.88427516666667, "is_disabled": 0}, {"fusion_lat": 0.0, "lon": -77.03337733333333, "is_reserved": 0, "bike_id": "bc4ab974baa5a68ac0f2b84702a7302c", "fusion_lon": 0.0, "rental_uris": {"android": "https://dc.lft.to/lastmile_qr_scan", "ios": "https://dc.lft.to/lastmile_qr_scan"}, "name": "bc4ab974baa5a68ac0f2b84702a7302c", "type": "electric_scooter", "lat": 38.9288075, "is_disabled": 0}, {"fusion_lat": 0.0, "lon": -77.02227616666667, "is_reserved": 0, "bike_id": "f678b9c278c4fcb5d0532665789c3fbc", "fusion_lon": 0.0, "rental_uris": {"android": "https://dc.lft.to/lastmile_qr_scan", "ios": "https://dc.lft.to/lastmile_qr_scan"}, "name": "f678b9c278c4fcb5d0532665789c3fbc", "type": "electric_scooter", "lat": 38.9261415, "is_disabled": 0}, {"fusion_lat": 0.0, "lon": -77.0385635, "is_reserved": 0, "bike_id": "dc66eacb06c3d21bd63fd7eecec32a87", "fusion_lon": 0.0, "rental_uris": {"android": "https://dc.lft.to/lastmile_qr_scan", "ios": "https://dc.lft.to/lastmile_qr_scan"}, "name": "dc66eacb06c3d21bd63fd7eecec32a87", "type": "electric_scooter", "lat": 38.903651333333336, "is_disabled": 0}, {"fusion_lat": 0.0, "lon": -76.98089433333334, "is_reserved": 0, "bike_id": "ce71592659487a3e5d00ad1953697a3d", "fusion_lon": 0.0, "rental_uris": {"android": "https://dc.lft.to/lastmile_qr_scan", "ios": "https://dc.lft.to/lastmile_qr_scan"}, "name": "ce71592659487a3e5d00ad1953697a3d", "type": "electric_bike", "lat": 38.95357716666667, "is_disabled": 0}, {"fusion_lat": 0.0, "lon": -77.02183466666666, "is_reserved": 0, "bike_id": "0106c6f463f6cc0e46f83b8b837eb571", "fusion_lon": 0.0, "rental_uris": {"android": "https://dc.lft.to/lastmile_qr_scan", "ios": "https://dc.lft.to/lastmile_qr_scan"}, "name": "0106c6f463f6cc0e46f83b8b837eb571", "type": "electric_scooter", "lat": 38.9095585, "is_disabled": 0}, {"fusion_lat": 0.0, "lon": -76.9903405, "is_reserved": 0, "bike_id": "f4df7687014eff73bf5819c120dd3b4e", "fusion_lon": 0.0, "rental_uris": {"android": "https://dc.lft.to/lastmile_qr_scan", "ios": "https://dc.lft.to/lastmile_qr_scan"}, "name": "f4df7687014eff73bf5819c120dd3b4e", "type": "electric_scooter", "lat": 38.89854233333333, "is_disabled": 0}, {"fusion_lat": 0.0, "lon": -77.01985783333333, "is_reserved": 0, "bike_id": "99c8ef33b7fd82ac3afbf27ae48f9dae", "fusion_lon": 0.0, "rental_uris": {"android": "https://dc.lft.to/lastmile_qr_scan", "ios": "https://dc.lft.to/lastmile_qr_scan"}, "name": "99c8ef33b7fd82ac3afbf27ae48f9dae", "type": "electric_bike", "lat": 38.922714, "is_disabled": 0}, {"fusion_lat": 0.0, "lon": -76.98925, "is_reserved": 0, "bike_id": "41de09d6a18c2a8814f9aede8ef65231", "fusion_lon": 0.0, "rental_uris": {"android": "https://dc.lft.to/lastmile_qr_scan", "ios": "https://dc.lft.to/lastmile_qr_scan"}, "name": "41de09d6a18c2a8814f9aede8ef65231", "type": "electric_scooter", "lat": 38.858110833333335, "is_disabled": 0}, {"fusion_lat": 0.0, "lon": -77.01555033333334, "is_reserved": 0, "bike_id": "64593342144f2bb949216ed0b11217d9", "fusion_lon": 0.0, "rental_uris": {"android": "https://dc.lft.to/lastmile_qr_scan", "ios": "https://dc.lft.to/lastmile_qr_scan"}, "name": "64593342144f2bb949216ed0b11217d9", "type": "electric_bike", "lat": 38.975024, "is_disabled": 0}, {"fusion_lat": 0.0, "lon": -77.06978733333334, "is_reserved": 0, "bike_id": "c1980690f65c832bfee6a4a01d62e912", "fusion_lon": 0.0, "rental_uris": {"android": "https://dc.lft.to/lastmile_qr_scan", "ios": "https://dc.lft.to/lastmile_qr_scan"}, "name": "c1980690f65c832bfee6a4a01d62e912", "type": "electric_scooter", "lat": 38.95257633333333, "is_disabled": 0}, {"fusion_lat": 0.0, "lon": -77.021189, "is_reserved": 0, "bike_id": "42e80c8676c4836f6864c864cfd77a7a", "fusion_lon": 0.0, "rental_uris": {"android": "https://dc.lft.to/lastmile_qr_scan", "ios": "https://dc.lft.to/lastmile_qr_scan"}, "name": "42e80c8676c4836f6864c864cfd77a7a", "type": "electric_scooter", "lat": 38.905705833333336, "is_disabled": 0}, {"fusion_lat": 0.0, "lon": -77.033962, "is_reserved": 0, "bike_id": "59dce80bbbdf278bebebc67cb5046034", "fusion_lon": 0.0, "rental_uris": {"android": "https://dc.lft.to/lastmile_qr_scan", "ios": "https://dc.lft.to/lastmile_qr_scan"}, "name": "59dce80bbbdf278bebebc67cb5046034", "type": "electric_scooter", "lat": 38.909803333333336, "is_disabled": 0}, {"fusion_lat": 0.0, "lon": -76.90082516666666, "is_reserved": 0, "bike_id": "9e55ea9642dac669d02286aeed68dbb8", "fusion_lon": 0.0, "rental_uris": {"android": "https://dc.lft.to/lastmile_qr_scan", "ios": "https://dc.lft.to/lastmile_qr_scan"}, "name": "9e55ea9642dac669d02286aeed68dbb8", "type": "electric_bike", "lat": 38.88756633333333, "is_disabled": 0}, {"fusion_lat": 0.0, "lon": -77.0034225, "is_reserved": 0, "bike_id": "6fa2fbcda29d51eff3e205d04ee51739", "fusion_lon": 0.0, "rental_uris": {"android": "https://dc.lft.to/lastmile_qr_scan", "ios": "https://dc.lft.to/lastmile_qr_scan"}, "name": "6fa2fbcda29d51eff3e205d04ee51739", "type": "electric_scooter", "lat": 38.91610816666667, "is_disabled": 0}, {"fusion_lat": 0.0, "lon": -77.00195916666667, "is_reserved": 0, "bike_id": "8674058a19e53a8cf864e3aa92476dfd", "fusion_lon": 0.0, "rental_uris": {"android": "https://dc.lft.to/lastmile_qr_scan", "ios": "https://dc.lft.to/lastmile_qr_scan"}, "name": "8674058a19e53a8cf864e3aa92476dfd", "type": "electric_scooter", "lat": 38.900298166666666, "is_disabled": 0}, {"fusion_lat": 0.0, "lon": -77.04404516666666, "is_reserved": 0, "bike_id": "40a5ba3c74dfc71edeac8e1e393ef968", "fusion_lon": 0.0, "rental_uris": {"android": "https://dc.lft.to/lastmile_qr_scan", "ios": "https://dc.lft.to/lastmile_qr_scan"}, "name": "40a5ba3c74dfc71edeac8e1e393ef968", "type": "electric_scooter", "lat": 38.9244845, "is_disabled": 0}, {"fusion_lat": 0.0, "lon": -76.95658816666666, "is_reserved": 0, "bike_id": "4e5a8808c6631517b85f02173a0f97f6", "fusion_lon": 0.0, "rental_uris": {"android": "https://dc.lft.to/lastmile_qr_scan", "ios": "https://dc.lft.to/lastmile_qr_scan"}, "name": "4e5a8808c6631517b85f02173a0f97f6", "type": "electric_scooter", "lat": 38.8961035, "is_disabled": 0}, {"fusion_lat": 0.0, "lon": -77.03472466666666, "is_reserved": 0, "bike_id": "168556ba884fe4b62bbf99d84c4d39b0", "fusion_lon": 0.0, "rental_uris": {"android": "https://dc.lft.to/lastmile_qr_scan", "ios": "https://dc.lft.to/lastmile_qr_scan"}, "name": "168556ba884fe4b62bbf99d84c4d39b0", "type": "electric_scooter", "lat": 38.917103166666664, "is_disabled": 0}, {"fusion_lat": 0.0, "lon": -77.03993833333334, "is_reserved": 0, "bike_id": "9c56793582b456c6772a5d46f98d56e6", "fusion_lon": 0.0, "rental_uris": {"android": "https://dc.lft.to/lastmile_qr_scan", "ios": "https://dc.lft.to/lastmile_qr_scan"}, "name": "9c56793582b456c6772a5d46f98d56e6", "type": "electric_scooter", "lat": 38.905734333333335, "is_disabled": 0}, {"fusion_lat": 0.0, "lon": -76.884014, "is_reserved": 0, "bike_id": "bf1549d89da5a361dec82e9f11550339", "fusion_lon": 0.0, "rental_uris": {"android": "https://dc.lft.to/lastmile_qr_scan", "ios": "https://dc.lft.to/lastmile_qr_scan"}, "name": "bf1549d89da5a361dec82e9f11550339", "type": "electric_bike", "lat": 38.93168033333333, "is_disabled": 0}, {"fusion_lat": 0.0, "lon": -77.02709283333333, "is_reserved": 0, "bike_id": "d6495fc7c665da667675c3e226b46713", "fusion_lon": 0.0, "rental_uris": {"android": "https://dc.lft.to/lastmile_qr_scan", "ios": "https://dc.lft.to/lastmile_qr_scan"}, "name": "d6495fc7c665da667675c3e226b46713", "type": "electric_scooter", "lat": 38.924663833333334, "is_disabled": 0}, {"fusion_lat": 0.0, "lon": -77.04652933333334, "is_reserved": 0, "bike_id": "03f3f7eb4f87bd6446fd7a63bdc86915", "fusion_lon": 0.0, "rental_uris": {"android": "https://dc.lft.to/lastmile_qr_scan", "ios": "https://dc.lft.to/lastmile_qr_scan"}, "name": "03f3f7eb4f87bd6446fd7a63bdc86915", "type": "electric_scooter", "lat": 38.90382116666667, "is_disabled": 0}, {"fusion_lat": 0.0, "lon": -76.9316325, "is_reserved": 0, "bike_id": "128c938a586263b38131c98a635208bc", "fusion_lon": 0.0, "rental_uris": {"android": "https://dc.lft.to/lastmile_qr_scan", "ios": "https://dc.lft.to/lastmile_qr_scan"}, "name": "128c938a586263b38131c98a635208bc", "type": "electric_bike", "lat": 38.908635, "is_disabled": 0}, {"fusion_lat": 0.0, "lon": -77.01758333333333, "is_reserved": 0, "bike_id": "e8df4784c9a31c4cb3f922e7c02ac9b7", "fusion_lon": 0.0, "rental_uris": {"android": "https://dc.lft.to/lastmile_qr_scan", "ios": "https://dc.lft.to/lastmile_qr_scan"}, "name": "e8df4784c9a31c4cb3f922e7c02ac9b7", "type": "electric_scooter", "lat": 38.877100166666665, "is_disabled": 0}, {"fusion_lat": 0.0, "lon": -77.018141, "is_reserved": 0, "bike_id": "fb9770bfc0e3b0502e4935133e345de0", "fusion_lon": 0.0, "rental_uris": {"android": "https://dc.lft.to/lastmile_qr_scan", "ios": "https://dc.lft.to/lastmile_qr_scan"}, "name": "fb9770bfc0e3b0502e4935133e345de0", "type": "electric_scooter", "lat": 38.964853166666664, "is_disabled": 0}, {"fusion_lat": 0.0, "lon": -77.04477566666667, "is_reserved": 0, "bike_id": "f2f00e580d1f938180a16c66f78d8328", "fusion_lon": 0.0, "rental_uris": {"android": "https://dc.lft.to/lastmile_qr_scan", "ios": "https://dc.lft.to/lastmile_qr_scan"}, "name": "f2f00e580d1f938180a16c66f78d8328", "type": "electric_scooter", "lat": 38.9108265, "is_disabled": 0}, {"fusion_lat": 0.0, "lon": -77.04655166666667, "is_reserved": 0, "bike_id": "8547557e3666e50d12420db5a908ab1a", "fusion_lon": 0.0, "rental_uris": {"android": "https://dc.lft.to/lastmile_qr_scan", "ios": "https://dc.lft.to/lastmile_qr_scan"}, "name": "8547557e3666e50d12420db5a908ab1a", "type": "electric_bike", "lat": 39.055047333333334, "is_disabled": 0}, {"fusion_lat": 0.0, "lon": -77.0073995, "is_reserved": 0, "bike_id": "02bf51d56b757e7c1c32465be5057887", "fusion_lon": 0.0, "rental_uris": {"android": "https://dc.lft.to/lastmile_qr_scan", "ios": "https://dc.lft.to/lastmile_qr_scan"}, "name": "02bf51d56b757e7c1c32465be5057887", "type": "electric_scooter", "lat": 38.8763905, "is_disabled": 0}, {"fusion_lat": 0.0, "lon": -76.988224, "is_reserved": 0, "bike_id": "a35f90a0738b86aa986863852342268a", "fusion_lon": 0.0, "rental_uris": {"android": "https://dc.lft.to/lastmile_qr_scan", "ios": "https://dc.lft.to/lastmile_qr_scan"}, "name": "a35f90a0738b86aa986863852342268a", "type": "electric_scooter", "lat": 38.89081183333333, "is_disabled": 0}, {"fusion_lat": 0.0, "lon": -76.96838516666666, "is_reserved": 0, "bike_id": "5789d0a89e0c9ee09ffc2abc094bb288", "fusion_lon": 0.0, "rental_uris": {"android": "https://dc.lft.to/lastmile_qr_scan", "ios": "https://dc.lft.to/lastmile_qr_scan"}, "name": "5789d0a89e0c9ee09ffc2abc094bb288", "type": "electric_bike", "lat": 38.943214, "is_disabled": 0}, {"fusion_lat": 0.0, "lon": -77.02681683333333, "is_reserved": 0, "bike_id": "5712b2341347790440732ea60db1d6de", "fusion_lon": 0.0, "rental_uris": {"android": "https://dc.lft.to/lastmile_qr_scan", "ios": "https://dc.lft.to/lastmile_qr_scan"}, "name": "5712b2341347790440732ea60db1d6de", "type": "electric_scooter", "lat": 38.92772033333333, "is_disabled": 0}, {"fusion_lat": 0.0, "lon": -77.02683866666666, "is_reserved": 0, "bike_id": "7003601ce20a209deb9470dc50073092", "fusion_lon": 0.0, "rental_uris": {"android": "https://dc.lft.to/lastmile_qr_scan", "ios": "https://dc.lft.to/lastmile_qr_scan"}, "name": "7003601ce20a209deb9470dc50073092", "type": "electric_scooter", "lat": 38.9848785, "is_disabled": 0}, {"fusion_lat": 0.0, "lon": -77.0181255, "is_reserved": 0, "bike_id": "9ec08b8f3d99eb0c375778001c5a7d01", "fusion_lon": 0.0, "rental_uris": {"android": "https://dc.lft.to/lastmile_qr_scan", "ios": "https://dc.lft.to/lastmile_qr_scan"}, "name": "9ec08b8f3d99eb0c375778001c5a7d01", "type": "electric_scooter", "lat": 38.89322633333333, "is_disabled": 0}, {"fusion_lat": 0.0, "lon": -77.0239775, "is_reserved": 0, "bike_id": "a303d223b11d216823e978087577ec94", "fusion_lon": 0.0, "rental_uris": {"android": "https://dc.lft.to/lastmile_qr_scan", "ios": "https://dc.lft.to/lastmile_qr_scan"}, "name": "a303d223b11d216823e978087577ec94", "type": "electric_scooter", "lat": 38.919616833333336, "is_disabled": 0}, {"fusion_lat": 0.0, "lon": -77.03178566666666, "is_reserved": 0, "bike_id": "d0751b8a2b737b4f5808f6d4e48fd1a7", "fusion_lon": 0.0, "rental_uris": {"android": "https://dc.lft.to/lastmile_qr_scan", "ios": "https://dc.lft.to/lastmile_qr_scan"}, "name": "d0751b8a2b737b4f5808f6d4e48fd1a7", "type": "electric_scooter", "lat": 38.884156833333336, "is_disabled": 0}, {"fusion_lat": 0.0, "lon": -76.9921105, "is_reserved": 0, "bike_id": "e032c83582db86e6310c48956cbec463", "fusion_lon": 0.0, "rental_uris": {"android": "https://dc.lft.to/lastmile_qr_scan", "ios": "https://dc.lft.to/lastmile_qr_scan"}, "name": "e032c83582db86e6310c48956cbec463", "type": "electric_scooter", "lat": 38.895168166666664, "is_disabled": 0}, {"fusion_lat": 0.0, "lon": -76.99697266666666, "is_reserved": 0, "bike_id": "2b4bbed4c73f7d0053730bd424c7212c", "fusion_lon": 0.0, "rental_uris": {"android": "https://dc.lft.to/lastmile_qr_scan", "ios": "https://dc.lft.to/lastmile_qr_scan"}, "name": "2b4bbed4c73f7d0053730bd424c7212c", "type": "electric_scooter", "lat": 38.90834266666667, "is_disabled": 0}, {"fusion_lat": 0.0, "lon": -77.0147515, "is_reserved": 0, "bike_id": "23a4668a92beaabbaeb0886caba56d48", "fusion_lon": 0.0, "rental_uris": {"android": "https://dc.lft.to/lastmile_qr_scan", "ios": "https://dc.lft.to/lastmile_qr_scan"}, "name": "23a4668a92beaabbaeb0886caba56d48", "type": "electric_scooter", "lat": 38.92679016666666, "is_disabled": 0}, {"fusion_lat": 0.0, "lon": -77.02690083333333, "is_reserved": 0, "bike_id": "4322fd137927eaa98116c814ecf69285", "fusion_lon": 0.0, "rental_uris": {"android": "https://dc.lft.to/lastmile_qr_scan", "ios": "https://dc.lft.to/lastmile_qr_scan"}, "name": "4322fd137927eaa98116c814ecf69285", "type": "electric_scooter", "lat": 38.948877333333336, "is_disabled": 0}, {"fusion_lat": 0.0, "lon": -77.06374316666667, "is_reserved": 0, "bike_id": "42c442d69d6b14209be822ae93f4444a", "fusion_lon": 0.0, "rental_uris": {"android": "https://dc.lft.to/lastmile_qr_scan", "ios": "https://dc.lft.to/lastmile_qr_scan"}, "name": "42c442d69d6b14209be822ae93f4444a", "type": "electric_scooter", "lat": 38.908193, "is_disabled": 0}, {"fusion_lat": 0.0, "lon": -77.043491, "is_reserved": 0, "bike_id": "dfac7651d0730241a2e838ba8f5d2ae9", "fusion_lon": 0.0, "rental_uris": {"android": "https://dc.lft.to/lastmile_qr_scan", "ios": "https://dc.lft.to/lastmile_qr_scan"}, "name": "dfac7651d0730241a2e838ba8f5d2ae9", "type": "electric_scooter", "lat": 38.902890166666666, "is_disabled": 0}, {"fusion_lat": 0.0, "lon": -76.98747766666666, "is_reserved": 0, "bike_id": "991ce9d71c9c283bf136ec826719dcdf", "fusion_lon": 0.0, "rental_uris": {"android": "https://dc.lft.to/lastmile_qr_scan", "ios": "https://dc.lft.to/lastmile_qr_scan"}, "name": "991ce9d71c9c283bf136ec826719dcdf", "type": "electric_scooter", "lat": 38.84486, "is_disabled": 0}, {"fusion_lat": 0.0, "lon": -77.0323805, "is_reserved": 0, "bike_id": "1deef3863a1419f1c23570e2a011f315", "fusion_lon": 0.0, "rental_uris": {"android": "https://dc.lft.to/lastmile_qr_scan", "ios": "https://dc.lft.to/lastmile_qr_scan"}, "name": "1deef3863a1419f1c23570e2a011f315", "type": "electric_scooter", "lat": 38.92911616666667, "is_disabled": 0}, {"fusion_lat": 0.0, "lon": -76.95017533333333, "is_reserved": 0, "bike_id": "cbccbae6751ece27f5e65cb58543fd0b", "fusion_lon": 0.0, "rental_uris": {"android": "https://dc.lft.to/lastmile_qr_scan", "ios": "https://dc.lft.to/lastmile_qr_scan"}, "name": "cbccbae6751ece27f5e65cb58543fd0b", "type": "electric_scooter", "lat": 38.893884666666665, "is_disabled": 0}, {"fusion_lat": 0.0, "lon": -76.9646665, "is_reserved": 0, "bike_id": "61a6265ce55bd91c8274d3002301d1a1", "fusion_lon": 0.0, "rental_uris": {"android": "https://dc.lft.to/lastmile_qr_scan", "ios": "https://dc.lft.to/lastmile_qr_scan"}, "name": "61a6265ce55bd91c8274d3002301d1a1", "type": "electric_scooter", "lat": 38.93446683333333, "is_disabled": 0}, {"fusion_lat": 0.0, "lon": -76.9853355, "is_reserved": 0, "bike_id": "6745c996375b62d6436db1b398102443", "fusion_lon": 0.0, "rental_uris": {"android": "https://dc.lft.to/lastmile_qr_scan", "ios": "https://dc.lft.to/lastmile_qr_scan"}, "name": "6745c996375b62d6436db1b398102443", "type": "electric_scooter", "lat": 38.91025783333333, "is_disabled": 0}, {"fusion_lat": 0.0, "lon": -77.0060115, "is_reserved": 0, "bike_id": "c415a238439f53a5c1e89b953058add8", "fusion_lon": 0.0, "rental_uris": {"android": "https://dc.lft.to/lastmile_qr_scan", "ios": "https://dc.lft.to/lastmile_qr_scan"}, "name": "c415a238439f53a5c1e89b953058add8", "type": "electric_bike", "lat": 38.89806733333333, "is_disabled": 0}, {"fusion_lat": 0.0, "lon": -77.05197733333334, "is_reserved": 0, "bike_id": "6b707accf4ac9850e01db890031e93a5", "fusion_lon": 0.0, "rental_uris": {"android": "https://dc.lft.to/lastmile_qr_scan", "ios": "https://dc.lft.to/lastmile_qr_scan"}, "name": "6b707accf4ac9850e01db890031e93a5", "type": "electric_scooter", "lat": 38.924618333333335, "is_disabled": 0}, {"fusion_lat": 0.0, "lon": -76.99191450000001, "is_reserved": 0, "bike_id": "1863d1cd087282c1f33f3f50ac196ae7", "fusion_lon": 0.0, "rental_uris": {"android": "https://dc.lft.to/lastmile_qr_scan", "ios": "https://dc.lft.to/lastmile_qr_scan"}, "name": "1863d1cd087282c1f33f3f50ac196ae7", "type": "electric_scooter", "lat": 38.90027583333333, "is_disabled": 0}, {"fusion_lat": 0.0, "lon": -76.93763616666666, "is_reserved": 0, "bike_id": "d6485ea08bc6d50e29e90efaa688e0bc", "fusion_lon": 0.0, "rental_uris": {"android": "https://dc.lft.to/lastmile_qr_scan", "ios": "https://dc.lft.to/lastmile_qr_scan"}, "name": "d6485ea08bc6d50e29e90efaa688e0bc", "type": "electric_scooter", "lat": 38.87859816666667, "is_disabled": 0}, {"fusion_lat": 0.0, "lon": -77.03288783333333, "is_reserved": 0, "bike_id": "1c642b10563aafbffbb428418755ecad", "fusion_lon": 0.0, "rental_uris": {"android": "https://dc.lft.to/lastmile_qr_scan", "ios": "https://dc.lft.to/lastmile_qr_scan"}, "name": "1c642b10563aafbffbb428418755ecad", "type": "electric_scooter", "lat": 38.9563465, "is_disabled": 0}, {"fusion_lat": 0.0, "lon": -77.04978716666666, "is_reserved": 0, "bike_id": "9655efb62f0453a90ab3e96fb6d6e1e2", "fusion_lon": 0.0, "rental_uris": {"android": "https://dc.lft.to/lastmile_qr_scan", "ios": "https://dc.lft.to/lastmile_qr_scan"}, "name": "9655efb62f0453a90ab3e96fb6d6e1e2", "type": "electric_bike", "lat": 39.06292533333333, "is_disabled": 0}, {"fusion_lat": 0.0, "lon": -77.02103283333334, "is_reserved": 0, "bike_id": "e188066edc02a69cf04c86a3227a923b", "fusion_lon": 0.0, "rental_uris": {"android": "https://dc.lft.to/lastmile_qr_scan", "ios": "https://dc.lft.to/lastmile_qr_scan"}, "name": "e188066edc02a69cf04c86a3227a923b", "type": "electric_scooter", "lat": 38.894620333333336, "is_disabled": 0}, {"fusion_lat": 0.0, "lon": -77.03014683333333, "is_reserved": 0, "bike_id": "4d59cc71762b617e7889459306c94356", "fusion_lon": 0.0, "rental_uris": {"android": "https://dc.lft.to/lastmile_qr_scan", "ios": "https://dc.lft.to/lastmile_qr_scan"}, "name": "4d59cc71762b617e7889459306c94356", "type": "electric_scooter", "lat": 38.9156515, "is_disabled": 0}, {"fusion_lat": 0.0, "lon": -77.0012105, "is_reserved": 0, "bike_id": "8435db19559add2cf2c819fd2bdf117a", "fusion_lon": 0.0, "rental_uris": {"android": "https://dc.lft.to/lastmile_qr_scan", "ios": "https://dc.lft.to/lastmile_qr_scan"}, "name": "8435db19559add2cf2c819fd2bdf117a", "type": "electric_scooter", "lat": 38.90504833333333, "is_disabled": 0}, {"fusion_lat": 0.0, "lon": -76.99860216666667, "is_reserved": 0, "bike_id": "4712b2cec57b7640eeee65c6ffefe0a2", "fusion_lon": 0.0, "rental_uris": {"android": "https://dc.lft.to/lastmile_qr_scan", "ios": "https://dc.lft.to/lastmile_qr_scan"}, "name": "4712b2cec57b7640eeee65c6ffefe0a2", "type": "electric_scooter", "lat": 38.89415116666667, "is_disabled": 0}, {"fusion_lat": 0.0, "lon": -76.99015383333334, "is_reserved": 0, "bike_id": "530030e0b4064ab3b090a0aeda78e906", "fusion_lon": 0.0, "rental_uris": {"android": "https://dc.lft.to/lastmile_qr_scan", "ios": "https://dc.lft.to/lastmile_qr_scan"}, "name": "530030e0b4064ab3b090a0aeda78e906", "type": "electric_scooter", "lat": 38.946039166666665, "is_disabled": 0}, {"fusion_lat": 0.0, "lon": -76.94622983333333, "is_reserved": 0, "bike_id": "db3bc1927742809bfdfc51d61312ef95", "fusion_lon": 0.0, "rental_uris": {"android": "https://dc.lft.to/lastmile_qr_scan", "ios": "https://dc.lft.to/lastmile_qr_scan"}, "name": "db3bc1927742809bfdfc51d61312ef95", "type": "electric_bike", "lat": 38.83238133333333, "is_disabled": 0}, {"fusion_lat": 0.0, "lon": -77.02453533333333, "is_reserved": 0, "bike_id": "e1ffd43c8cbba72c4d871dc3f5040322", "fusion_lon": 0.0, "rental_uris": {"android": "https://dc.lft.to/lastmile_qr_scan", "ios": "https://dc.lft.to/lastmile_qr_scan"}, "name": "e1ffd43c8cbba72c4d871dc3f5040322", "type": "electric_scooter", "lat": 38.89737866666667, "is_disabled": 0}, {"fusion_lat": 0.0, "lon": -77.03866033333334, "is_reserved": 0, "bike_id": "545ce3541a80cb92540d553e942107a6", "fusion_lon": 0.0, "rental_uris": {"android": "https://dc.lft.to/lastmile_qr_scan", "ios": "https://dc.lft.to/lastmile_qr_scan"}, "name": "545ce3541a80cb92540d553e942107a6", "type": "electric_scooter", "lat": 38.912570833333334, "is_disabled": 0}, {"fusion_lat": 0.0, "lon": -77.04327383333333, "is_reserved": 0, "bike_id": "b79764e241fd5ed8ddc10485b65ccd8c", "fusion_lon": 0.0, "rental_uris": {"android": "https://dc.lft.to/lastmile_qr_scan", "ios": "https://dc.lft.to/lastmile_qr_scan"}, "name": "b79764e241fd5ed8ddc10485b65ccd8c", "type": "electric_scooter", "lat": 38.89223, "is_disabled": 0}, {"fusion_lat": 0.0, "lon": -76.94251433333334, "is_reserved": 0, "bike_id": "94db0b0026dcc2f1d30f064369fdb166", "fusion_lon": 0.0, "rental_uris": {"android": "https://dc.lft.to/lastmile_qr_scan", "ios": "https://dc.lft.to/lastmile_qr_scan"}, "name": "94db0b0026dcc2f1d30f064369fdb166", "type": "electric_scooter", "lat": 38.896702833333336, "is_disabled": 0}, {"fusion_lat": 0.0, "lon": -77.030269, "is_reserved": 0, "bike_id": "f69c0541669b9898458f72fc4b131093", "fusion_lon": 0.0, "rental_uris": {"android": "https://dc.lft.to/lastmile_qr_scan", "ios": "https://dc.lft.to/lastmile_qr_scan"}, "name": "f69c0541669b9898458f72fc4b131093", "type": "electric_scooter", "lat": 38.89817433333333, "is_disabled": 0}, {"fusion_lat": 0.0, "lon": -77.03869933333333, "is_reserved": 0, "bike_id": "25cf5abf111f77e281cf06a56ff350a5", "fusion_lon": 0.0, "rental_uris": {"android": "https://dc.lft.to/lastmile_qr_scan", "ios": "https://dc.lft.to/lastmile_qr_scan"}, "name": "25cf5abf111f77e281cf06a56ff350a5", "type": "electric_scooter", "lat": 38.907975666666665, "is_disabled": 0}, {"fusion_lat": 0.0, "lon": -77.0452695, "is_reserved": 0, "bike_id": "0749996ccb69ae65946ea1a1839a467c", "fusion_lon": 0.0, "rental_uris": {"android": "https://dc.lft.to/lastmile_qr_scan", "ios": "https://dc.lft.to/lastmile_qr_scan"}, "name": "0749996ccb69ae65946ea1a1839a467c", "type": "electric_bike", "lat": 38.858215, "is_disabled": 0}, {"fusion_lat": 0.0, "lon": -76.99354083333333, "is_reserved": 0, "bike_id": "e32a1054b032c0ede60c0b7734971745", "fusion_lon": 0.0, "rental_uris": {"android": "https://dc.lft.to/lastmile_qr_scan", "ios": "https://dc.lft.to/lastmile_qr_scan"}, "name": "e32a1054b032c0ede60c0b7734971745", "type": "electric_bike", "lat": 38.8450805, "is_disabled": 0}, {"fusion_lat": 0.0, "lon": -77.00659316666666, "is_reserved": 0, "bike_id": "73d65071247e72a911508e780626b5eb", "fusion_lon": 0.0, "rental_uris": {"android": "https://dc.lft.to/lastmile_qr_scan", "ios": "https://dc.lft.to/lastmile_qr_scan"}, "name": "73d65071247e72a911508e780626b5eb", "type": "electric_scooter", "lat": 38.900365666666666, "is_disabled": 0}, {"fusion_lat": 0.0, "lon": -77.04579133333333, "is_reserved": 0, "bike_id": "d8a38e31957e3c2d309b224c9283774e", "fusion_lon": 0.0, "rental_uris": {"android": "https://dc.lft.to/lastmile_qr_scan", "ios": "https://dc.lft.to/lastmile_qr_scan"}, "name": "d8a38e31957e3c2d309b224c9283774e", "type": "electric_scooter", "lat": 38.9212855, "is_disabled": 0}, {"fusion_lat": 0.0, "lon": -77.04863066666667, "is_reserved": 0, "bike_id": "43672634a84cc907777f0aa4f6e0209d", "fusion_lon": 0.0, "rental_uris": {"android": "https://dc.lft.to/lastmile_qr_scan", "ios": "https://dc.lft.to/lastmile_qr_scan"}, "name": "43672634a84cc907777f0aa4f6e0209d", "type": "electric_scooter", "lat": 38.9052245, "is_disabled": 0}, {"fusion_lat": 0.0, "lon": -77.05267866666667, "is_reserved": 0, "bike_id": "f3b6c8a5b3adba5e5d7ff0ada72054bc", "fusion_lon": 0.0, "rental_uris": {"android": "https://dc.lft.to/lastmile_qr_scan", "ios": "https://dc.lft.to/lastmile_qr_scan"}, "name": "f3b6c8a5b3adba5e5d7ff0ada72054bc", "type": "electric_scooter", "lat": 38.927738833333336, "is_disabled": 0}, {"fusion_lat": 0.0, "lon": -77.03846, "is_reserved": 0, "bike_id": "76080009138747c093de2461fd2e2ecd", "fusion_lon": 0.0, "rental_uris": {"android": "https://dc.lft.to/lastmile_qr_scan", "ios": "https://dc.lft.to/lastmile_qr_scan"}, "name": "76080009138747c093de2461fd2e2ecd", "type": "electric_scooter", "lat": 38.90266333333334, "is_disabled": 0}, {"fusion_lat": 0.0, "lon": -76.99833983333333, "is_reserved": 0, "bike_id": "6523d824def877e537dca15b09b324d3", "fusion_lon": 0.0, "rental_uris": {"android": "https://dc.lft.to/lastmile_qr_scan", "ios": "https://dc.lft.to/lastmile_qr_scan"}, "name": "6523d824def877e537dca15b09b324d3", "type": "electric_scooter", "lat": 38.88324716666666, "is_disabled": 0}, {"fusion_lat": 0.0, "lon": -76.94402083333334, "is_reserved": 0, "bike_id": "ac221f504c50d41ed9ae30fa664fb9b8", "fusion_lon": 0.0, "rental_uris": {"android": "https://dc.lft.to/lastmile_qr_scan", "ios": "https://dc.lft.to/lastmile_qr_scan"}, "name": "ac221f504c50d41ed9ae30fa664fb9b8", "type": "electric_scooter", "lat": 38.8814375, "is_disabled": 0}, {"fusion_lat": 0.0, "lon": -77.0241775, "is_reserved": 0, "bike_id": "0c92c66d36889e11b211ea1fb2deb789", "fusion_lon": 0.0, "rental_uris": {"android": "https://dc.lft.to/lastmile_qr_scan", "ios": "https://dc.lft.to/lastmile_qr_scan"}, "name": "0c92c66d36889e11b211ea1fb2deb789", "type": "electric_scooter", "lat": 38.931017, "is_disabled": 0}, {"fusion_lat": 0.0, "lon": -77.02215233333334, "is_reserved": 0, "bike_id": "197b01374a1c1c6591c58ccf0de165ea", "fusion_lon": 0.0, "rental_uris": {"android": "https://dc.lft.to/lastmile_qr_scan", "ios": "https://dc.lft.to/lastmile_qr_scan"}, "name": "197b01374a1c1c6591c58ccf0de165ea", "type": "electric_scooter", "lat": 38.912725333333334, "is_disabled": 0}, {"fusion_lat": 0.0, "lon": -77.00733683333333, "is_reserved": 0, "bike_id": "741be42b7a521cb6de8ce0fe25b2d7b7", "fusion_lon": 0.0, "rental_uris": {"android": "https://dc.lft.to/lastmile_qr_scan", "ios": "https://dc.lft.to/lastmile_qr_scan"}, "name": "741be42b7a521cb6de8ce0fe25b2d7b7", "type": "electric_scooter", "lat": 38.9253905, "is_disabled": 0}, {"fusion_lat": 0.0, "lon": -77.05014833333334, "is_reserved": 0, "bike_id": "7ea042b54c43adb58d76efb9db16b594", "fusion_lon": 0.0, "rental_uris": {"android": "https://dc.lft.to/lastmile_qr_scan", "ios": "https://dc.lft.to/lastmile_qr_scan"}, "name": "7ea042b54c43adb58d76efb9db16b594", "type": "electric_scooter", "lat": 38.90289816666667, "is_disabled": 0}, {"fusion_lat": 0.0, "lon": -77.021673, "is_reserved": 0, "bike_id": "a754cdc3da06b0ecc0debf6ba2aca601", "fusion_lon": 0.0, "rental_uris": {"android": "https://dc.lft.to/lastmile_qr_scan", "ios": "https://dc.lft.to/lastmile_qr_scan"}, "name": "a754cdc3da06b0ecc0debf6ba2aca601", "type": "electric_scooter", "lat": 38.91614833333333, "is_disabled": 0}, {"fusion_lat": 0.0, "lon": -77.02181633333333, "is_reserved": 0, "bike_id": "010a71a45dedbe66802a03c9ec7ada02", "fusion_lon": 0.0, "rental_uris": {"android": "https://dc.lft.to/lastmile_qr_scan", "ios": "https://dc.lft.to/lastmile_qr_scan"}, "name": "010a71a45dedbe66802a03c9ec7ada02", "type": "electric_scooter", "lat": 38.90740533333334, "is_disabled": 0}, {"fusion_lat": 0.0, "lon": -77.036376, "is_reserved": 0, "bike_id": "32d7083f69e1a1e0b7745d60c4608404", "fusion_lon": 0.0, "rental_uris": {"android": "https://dc.lft.to/lastmile_qr_scan", "ios": "https://dc.lft.to/lastmile_qr_scan"}, "name": "32d7083f69e1a1e0b7745d60c4608404", "type": "electric_scooter", "lat": 38.92265066666667, "is_disabled": 0}, {"fusion_lat": 0.0, "lon": -76.9496265, "is_reserved": 0, "bike_id": "953e1f112fbaf870ea322df10b4b5eb5", "fusion_lon": 0.0, "rental_uris": {"android": "https://dc.lft.to/lastmile_qr_scan", "ios": "https://dc.lft.to/lastmile_qr_scan"}, "name": "953e1f112fbaf870ea322df10b4b5eb5", "type": "electric_scooter", "lat": 38.9049585, "is_disabled": 0}, {"fusion_lat": 0.0, "lon": -77.04996716666666, "is_reserved": 0, "bike_id": "a00241b9120bd3375f78acb3bdac3e96", "fusion_lon": 0.0, "rental_uris": {"android": "https://dc.lft.to/lastmile_qr_scan", "ios": "https://dc.lft.to/lastmile_qr_scan"}, "name": "a00241b9120bd3375f78acb3bdac3e96", "type": "electric_scooter", "lat": 38.892308166666666, "is_disabled": 0}, {"fusion_lat": 0.0, "lon": -77.03137566666666, "is_reserved": 0, "bike_id": "463b3718705f95506d52ed756fb4f7e7", "fusion_lon": 0.0, "rental_uris": {"android": "https://dc.lft.to/lastmile_qr_scan", "ios": "https://dc.lft.to/lastmile_qr_scan"}, "name": "463b3718705f95506d52ed756fb4f7e7", "type": "electric_scooter", "lat": 38.91494133333333, "is_disabled": 0}, {"fusion_lat": 0.0, "lon": -76.95759033333333, "is_reserved": 0, "bike_id": "957ba0581fae9133c7e0d3ea0f90a489", "fusion_lon": 0.0, "rental_uris": {"android": "https://dc.lft.to/lastmile_qr_scan", "ios": "https://dc.lft.to/lastmile_qr_scan"}, "name": "957ba0581fae9133c7e0d3ea0f90a489", "type": "electric_scooter", "lat": 38.8843165, "is_disabled": 0}, {"fusion_lat": 0.0, "lon": -77.02423983333334, "is_reserved": 0, "bike_id": "4f13feaabc7979112ac703d94dbba534", "fusion_lon": 0.0, "rental_uris": {"android": "https://dc.lft.to/lastmile_qr_scan", "ios": "https://dc.lft.to/lastmile_qr_scan"}, "name": "4f13feaabc7979112ac703d94dbba534", "type": "electric_scooter", "lat": 38.92152266666667, "is_disabled": 0}, {"fusion_lat": 0.0, "lon": -77.00189083333333, "is_reserved": 0, "bike_id": "052e4c0f64685a878cb14b4fa43eb453", "fusion_lon": 0.0, "rental_uris": {"android": "https://dc.lft.to/lastmile_qr_scan", "ios": "https://dc.lft.to/lastmile_qr_scan"}, "name": "052e4c0f64685a878cb14b4fa43eb453", "type": "electric_scooter", "lat": 38.903789, "is_disabled": 0}, {"fusion_lat": 0.0, "lon": -77.0471355, "is_reserved": 0, "bike_id": "ac87e7e84614ddc592ae38bb54f4df40", "fusion_lon": 0.0, "rental_uris": {"android": "https://dc.lft.to/lastmile_qr_scan", "ios": "https://dc.lft.to/lastmile_qr_scan"}, "name": "ac87e7e84614ddc592ae38bb54f4df40", "type": "electric_scooter", "lat": 38.92230033333333, "is_disabled": 0}, {"fusion_lat": 0.0, "lon": -77.02887816666667, "is_reserved": 0, "bike_id": "f4b27a078beb42a1144e9c514b9b1ad6", "fusion_lon": 0.0, "rental_uris": {"android": "https://dc.lft.to/lastmile_qr_scan", "ios": "https://dc.lft.to/lastmile_qr_scan"}, "name": "f4b27a078beb42a1144e9c514b9b1ad6", "type": "electric_scooter", "lat": 38.904284, "is_disabled": 0}, {"fusion_lat": 0.0, "lon": -76.9730125, "is_reserved": 0, "bike_id": "3173c1d894bb43aa8dd1620a5a73c3f7", "fusion_lon": 0.0, "rental_uris": {"android": "https://dc.lft.to/lastmile_qr_scan", "ios": "https://dc.lft.to/lastmile_qr_scan"}, "name": "3173c1d894bb43aa8dd1620a5a73c3f7", "type": "electric_bike", "lat": 38.91645066666667, "is_disabled": 0}, {"fusion_lat": 0.0, "lon": -77.233302, "is_reserved": 0, "bike_id": "6d6b5e3168581f6e07eacce06a588b98", "fusion_lon": 0.0, "rental_uris": {"android": "https://dc.lft.to/lastmile_qr_scan", "ios": "https://dc.lft.to/lastmile_qr_scan"}, "name": "6d6b5e3168581f6e07eacce06a588b98", "type": "electric_bike", "lat": 38.872747333333336, "is_disabled": 0}, {"fusion_lat": 0.0, "lon": -77.04858633333333, "is_reserved": 0, "bike_id": "e2eb8f833b40c6a9f8e16b7255cffa88", "fusion_lon": 0.0, "rental_uris": {"android": "https://dc.lft.to/lastmile_qr_scan", "ios": "https://dc.lft.to/lastmile_qr_scan"}, "name": "e2eb8f833b40c6a9f8e16b7255cffa88", "type": "electric_scooter", "lat": 38.9055005, "is_disabled": 0}, {"fusion_lat": 0.0, "lon": -77.04480433333333, "is_reserved": 0, "bike_id": "3b60d68644fff251d578d21c4ff25cd9", "fusion_lon": 0.0, "rental_uris": {"android": "https://dc.lft.to/lastmile_qr_scan", "ios": "https://dc.lft.to/lastmile_qr_scan"}, "name": "3b60d68644fff251d578d21c4ff25cd9", "type": "electric_scooter", "lat": 38.9242465, "is_disabled": 0}, {"fusion_lat": 0.0, "lon": -77.02205533333333, "is_reserved": 0, "bike_id": "4f14d48c3f1a14461aa7ff760f5cea1c", "fusion_lon": 0.0, "rental_uris": {"android": "https://dc.lft.to/lastmile_qr_scan", "ios": "https://dc.lft.to/lastmile_qr_scan"}, "name": "4f14d48c3f1a14461aa7ff760f5cea1c", "type": "electric_scooter", "lat": 38.90969066666667, "is_disabled": 0}, {"fusion_lat": 0.0, "lon": -77.02132233333333, "is_reserved": 0, "bike_id": "b1a72483ae88a75e201a5ec2a3ebbfdd", "fusion_lon": 0.0, "rental_uris": {"android": "https://dc.lft.to/lastmile_qr_scan", "ios": "https://dc.lft.to/lastmile_qr_scan"}, "name": "b1a72483ae88a75e201a5ec2a3ebbfdd", "type": "electric_scooter", "lat": 38.9241465, "is_disabled": 0}, {"fusion_lat": 0.0, "lon": -76.9853315, "is_reserved": 0, "bike_id": "f921585048f3e0e97ca1c69261be5349", "fusion_lon": 0.0, "rental_uris": {"android": "https://dc.lft.to/lastmile_qr_scan", "ios": "https://dc.lft.to/lastmile_qr_scan"}, "name": "f921585048f3e0e97ca1c69261be5349", "type": "electric_scooter", "lat": 38.85365183333333, "is_disabled": 0}, {"fusion_lat": 0.0, "lon": -77.04310083333333, "is_reserved": 0, "bike_id": "88b9abf9d2426acb5d74a63d6375ff97", "fusion_lon": 0.0, "rental_uris": {"android": "https://dc.lft.to/lastmile_qr_scan", "ios": "https://dc.lft.to/lastmile_qr_scan"}, "name": "88b9abf9d2426acb5d74a63d6375ff97", "type": "electric_scooter", "lat": 38.91880416666667, "is_disabled": 0}, {"fusion_lat": 0.0, "lon": -76.93753283333334, "is_reserved": 0, "bike_id": "4fb55b078183f48904f228671c243f42", "fusion_lon": 0.0, "rental_uris": {"android": "https://dc.lft.to/lastmile_qr_scan", "ios": "https://dc.lft.to/lastmile_qr_scan"}, "name": "4fb55b078183f48904f228671c243f42", "type": "electric_scooter", "lat": 38.890421333333336, "is_disabled": 0}, {"fusion_lat": 0.0, "lon": -77.046211, "is_reserved": 0, "bike_id": "d9f1e7e29a1e61648833c773c4c95a51", "fusion_lon": 0.0, "rental_uris": {"android": "https://dc.lft.to/lastmile_qr_scan", "ios": "https://dc.lft.to/lastmile_qr_scan"}, "name": "d9f1e7e29a1e61648833c773c4c95a51", "type": "electric_scooter", "lat": 38.92318566666667, "is_disabled": 0}, {"fusion_lat": 0.0, "lon": -77.0088925, "is_reserved": 0, "bike_id": "e04e3ce6bd4a3959aa63e30e9a7149c2", "fusion_lon": 0.0, "rental_uris": {"android": "https://dc.lft.to/lastmile_qr_scan", "ios": "https://dc.lft.to/lastmile_qr_scan"}, "name": "e04e3ce6bd4a3959aa63e30e9a7149c2", "type": "electric_scooter", "lat": 38.92278183333333, "is_disabled": 0}, {"fusion_lat": 0.0, "lon": -77.03554033333333, "is_reserved": 0, "bike_id": "2312a821e8455ccee6337b9f56c3d808", "fusion_lon": 0.0, "rental_uris": {"android": "https://dc.lft.to/lastmile_qr_scan", "ios": "https://dc.lft.to/lastmile_qr_scan"}, "name": "2312a821e8455ccee6337b9f56c3d808", "type": "electric_scooter", "lat": 38.908397, "is_disabled": 0}, {"fusion_lat": 0.0, "lon": -76.99010383333334, "is_reserved": 0, "bike_id": "959fc629e7c2d6e222d46436309214ca", "fusion_lon": 0.0, "rental_uris": {"android": "https://dc.lft.to/lastmile_qr_scan", "ios": "https://dc.lft.to/lastmile_qr_scan"}, "name": "959fc629e7c2d6e222d46436309214ca", "type": "electric_scooter", "lat": 38.903982166666665, "is_disabled": 0}, {"fusion_lat": 0.0, "lon": -77.17842583333334, "is_reserved": 0, "bike_id": "ba5ddfce31dd5a42da032bd94e72f678", "fusion_lon": 0.0, "rental_uris": {"android": "https://dc.lft.to/lastmile_qr_scan", "ios": "https://dc.lft.to/lastmile_qr_scan"}, "name": "ba5ddfce31dd5a42da032bd94e72f678", "type": "electric_bike", "lat": 39.08857, "is_disabled": 0}, {"fusion_lat": 0.0, "lon": -77.02653466666666, "is_reserved": 0, "bike_id": "8f8cee57cc0f417d1e30170546c1a7e1", "fusion_lon": 0.0, "rental_uris": {"android": "https://dc.lft.to/lastmile_qr_scan", "ios": "https://dc.lft.to/lastmile_qr_scan"}, "name": "8f8cee57cc0f417d1e30170546c1a7e1", "type": "electric_scooter", "lat": 38.8921715, "is_disabled": 0}, {"fusion_lat": 0.0, "lon": -77.02083083333333, "is_reserved": 0, "bike_id": "2fa23e22f4c7ba06071f7c59ceaf4954", "fusion_lon": 0.0, "rental_uris": {"android": "https://dc.lft.to/lastmile_qr_scan", "ios": "https://dc.lft.to/lastmile_qr_scan"}, "name": "2fa23e22f4c7ba06071f7c59ceaf4954", "type": "electric_scooter", "lat": 38.881837166666664, "is_disabled": 0}, {"fusion_lat": 0.0, "lon": -77.03069333333333, "is_reserved": 0, "bike_id": "794daa433e812a971021fd755cf13e4c", "fusion_lon": 0.0, "rental_uris": {"android": "https://dc.lft.to/lastmile_qr_scan", "ios": "https://dc.lft.to/lastmile_qr_scan"}, "name": "794daa433e812a971021fd755cf13e4c", "type": "electric_scooter", "lat": 38.90581516666666, "is_disabled": 0}, {"fusion_lat": 0.0, "lon": -76.9565075, "is_reserved": 0, "bike_id": "76bfc2ac8bc8a3fc32adaefa6646f742", "fusion_lon": 0.0, "rental_uris": {"android": "https://dc.lft.to/lastmile_qr_scan", "ios": "https://dc.lft.to/lastmile_qr_scan"}, "name": "76bfc2ac8bc8a3fc32adaefa6646f742", "type": "electric_scooter", "lat": 38.8955155, "is_disabled": 0}, {"fusion_lat": 0.0, "lon": -76.98473316666667, "is_reserved": 0, "bike_id": "ea9a90899b54639a90efa26198efaf9c", "fusion_lon": 0.0, "rental_uris": {"android": "https://dc.lft.to/lastmile_qr_scan", "ios": "https://dc.lft.to/lastmile_qr_scan"}, "name": "ea9a90899b54639a90efa26198efaf9c", "type": "electric_bike", "lat": 38.928910333333334, "is_disabled": 0}, {"fusion_lat": 0.0, "lon": -77.00337816666666, "is_reserved": 0, "bike_id": "679b5fee243ef17bcbf0cf2284f60d53", "fusion_lon": 0.0, "rental_uris": {"android": "https://dc.lft.to/lastmile_qr_scan", "ios": "https://dc.lft.to/lastmile_qr_scan"}, "name": "679b5fee243ef17bcbf0cf2284f60d53", "type": "electric_scooter", "lat": 38.89525666666667, "is_disabled": 0}, {"fusion_lat": 0.0, "lon": -76.99379633333334, "is_reserved": 0, "bike_id": "2cf651bae76eadbb1918efccaf77081d", "fusion_lon": 0.0, "rental_uris": {"android": "https://dc.lft.to/lastmile_qr_scan", "ios": "https://dc.lft.to/lastmile_qr_scan"}, "name": "2cf651bae76eadbb1918efccaf77081d", "type": "electric_bike", "lat": 38.97185916666667, "is_disabled": 0}, {"fusion_lat": 0.0, "lon": -77.05744616666667, "is_reserved": 0, "bike_id": "34e6ccb1362a88883ed2b4d64c86fbc8", "fusion_lon": 0.0, "rental_uris": {"android": "https://dc.lft.to/lastmile_qr_scan", "ios": "https://dc.lft.to/lastmile_qr_scan"}, "name": "34e6ccb1362a88883ed2b4d64c86fbc8", "type": "electric_scooter", "lat": 38.933883333333334, "is_disabled": 0}, {"fusion_lat": 0.0, "lon": -77.02488066666666, "is_reserved": 0, "bike_id": "a3287c8d945ebd46f505f20c9849cb27", "fusion_lon": 0.0, "rental_uris": {"android": "https://dc.lft.to/lastmile_qr_scan", "ios": "https://dc.lft.to/lastmile_qr_scan"}, "name": "a3287c8d945ebd46f505f20c9849cb27", "type": "electric_scooter", "lat": 38.937534166666666, "is_disabled": 0}, {"fusion_lat": 0.0, "lon": -77.06279616666667, "is_reserved": 0, "bike_id": "35bed5f9bfa5f66362f414e93995d0f0", "fusion_lon": 0.0, "rental_uris": {"android": "https://dc.lft.to/lastmile_qr_scan", "ios": "https://dc.lft.to/lastmile_qr_scan"}, "name": "35bed5f9bfa5f66362f414e93995d0f0", "type": "electric_scooter", "lat": 38.90579916666667, "is_disabled": 0}, {"fusion_lat": 0.0, "lon": -76.99845416666666, "is_reserved": 0, "bike_id": "48c417dfe8fcd63f12874e50139d1f47", "fusion_lon": 0.0, "rental_uris": {"android": "https://dc.lft.to/lastmile_qr_scan", "ios": "https://dc.lft.to/lastmile_qr_scan"}, "name": "48c417dfe8fcd63f12874e50139d1f47", "type": "electric_scooter", "lat": 38.900252333333334, "is_disabled": 0}, {"fusion_lat": 0.0, "lon": -76.94873966666667, "is_reserved": 0, "bike_id": "e85d23a9626f2cf7c19a2b3f88a1a938", "fusion_lon": 0.0, "rental_uris": {"android": "https://dc.lft.to/lastmile_qr_scan", "ios": "https://dc.lft.to/lastmile_qr_scan"}, "name": "e85d23a9626f2cf7c19a2b3f88a1a938", "type": "electric_scooter", "lat": 38.89546466666667, "is_disabled": 0}, {"fusion_lat": 0.0, "lon": -76.99935683333334, "is_reserved": 0, "bike_id": "efb5403cd305628e1ca4b6cf69af0eb6", "fusion_lon": 0.0, "rental_uris": {"android": "https://dc.lft.to/lastmile_qr_scan", "ios": "https://dc.lft.to/lastmile_qr_scan"}, "name": "efb5403cd305628e1ca4b6cf69af0eb6", "type": "electric_scooter", "lat": 38.843009333333335, "is_disabled": 0}, {"fusion_lat": 0.0, "lon": -77.04750816666666, "is_reserved": 0, "bike_id": "6b42efc371c56589fc645761e4c25956", "fusion_lon": 0.0, "rental_uris": {"android": "https://dc.lft.to/lastmile_qr_scan", "ios": "https://dc.lft.to/lastmile_qr_scan"}, "name": "6b42efc371c56589fc645761e4c25956", "type": "electric_scooter", "lat": 38.90551416666667, "is_disabled": 0}, {"fusion_lat": 0.0, "lon": -77.063339, "is_reserved": 0, "bike_id": "347d0241bf8e184015ce3228a9527b64", "fusion_lon": 0.0, "rental_uris": {"android": "https://dc.lft.to/lastmile_qr_scan", "ios": "https://dc.lft.to/lastmile_qr_scan"}, "name": "347d0241bf8e184015ce3228a9527b64", "type": "electric_bike", "lat": 38.9210215, "is_disabled": 0}, {"fusion_lat": 0.0, "lon": -76.99635183333334, "is_reserved": 0, "bike_id": "e5e0fc922afe5d89ea35020f07a3edb1", "fusion_lon": 0.0, "rental_uris": {"android": "https://dc.lft.to/lastmile_qr_scan", "ios": "https://dc.lft.to/lastmile_qr_scan"}, "name": "e5e0fc922afe5d89ea35020f07a3edb1", "type": "electric_scooter", "lat": 38.900252333333334, "is_disabled": 0}, {"fusion_lat": 0.0, "lon": -77.02549916666666, "is_reserved": 0, "bike_id": "c07ad384a251cd6849785e009646a761", "fusion_lon": 0.0, "rental_uris": {"android": "https://dc.lft.to/lastmile_qr_scan", "ios": "https://dc.lft.to/lastmile_qr_scan"}, "name": "c07ad384a251cd6849785e009646a761", "type": "electric_scooter", "lat": 38.941406, "is_disabled": 0}, {"fusion_lat": 0.0, "lon": -77.01075966666667, "is_reserved": 0, "bike_id": "f3a24317fa10725991a5fe66526c61a7", "fusion_lon": 0.0, "rental_uris": {"android": "https://dc.lft.to/lastmile_qr_scan", "ios": "https://dc.lft.to/lastmile_qr_scan"}, "name": "f3a24317fa10725991a5fe66526c61a7", "type": "electric_scooter", "lat": 38.91771933333333, "is_disabled": 0}, {"fusion_lat": 0.0, "lon": -77.04192833333333, "is_reserved": 0, "bike_id": "bd2b74c755a98f8465d757f6f0dce6f7", "fusion_lon": 0.0, "rental_uris": {"android": "https://dc.lft.to/lastmile_qr_scan", "ios": "https://dc.lft.to/lastmile_qr_scan"}, "name": "bd2b74c755a98f8465d757f6f0dce6f7", "type": "electric_scooter", "lat": 38.919685, "is_disabled": 0}, {"fusion_lat": 0.0, "lon": -77.03196416666667, "is_reserved": 0, "bike_id": "c73a9d59407cf990cc6ae98c2e8943cf", "fusion_lon": 0.0, "rental_uris": {"android": "https://dc.lft.to/lastmile_qr_scan", "ios": "https://dc.lft.to/lastmile_qr_scan"}, "name": "c73a9d59407cf990cc6ae98c2e8943cf", "type": "electric_scooter", "lat": 38.90848833333333, "is_disabled": 0}, {"fusion_lat": 0.0, "lon": -77.031881, "is_reserved": 0, "bike_id": "bc6a5326d31b2256481321df094b4f66", "fusion_lon": 0.0, "rental_uris": {"android": "https://dc.lft.to/lastmile_qr_scan", "ios": "https://dc.lft.to/lastmile_qr_scan"}, "name": "bc6a5326d31b2256481321df094b4f66", "type": "electric_scooter", "lat": 38.90983933333333, "is_disabled": 0}, {"fusion_lat": 0.0, "lon": -77.02227983333333, "is_reserved": 0, "bike_id": "251130320d261be7ff66934099c95a97", "fusion_lon": 0.0, "rental_uris": {"android": "https://dc.lft.to/lastmile_qr_scan", "ios": "https://dc.lft.to/lastmile_qr_scan"}, "name": "251130320d261be7ff66934099c95a97", "type": "electric_scooter", "lat": 38.89218616666667, "is_disabled": 0}, {"fusion_lat": 0.0, "lon": -77.03432966666666, "is_reserved": 0, "bike_id": "604b98736603ac44ec3b34e4e030daae", "fusion_lon": 0.0, "rental_uris": {"android": "https://dc.lft.to/lastmile_qr_scan", "ios": "https://dc.lft.to/lastmile_qr_scan"}, "name": "604b98736603ac44ec3b34e4e030daae", "type": "electric_scooter", "lat": 38.91937716666666, "is_disabled": 0}, {"fusion_lat": 0.0, "lon": -77.0269465, "is_reserved": 0, "bike_id": "a1544ba43c32dd96797fb14aca9b023b", "fusion_lon": 0.0, "rental_uris": {"android": "https://dc.lft.to/lastmile_qr_scan", "ios": "https://dc.lft.to/lastmile_qr_scan"}, "name": "a1544ba43c32dd96797fb14aca9b023b", "type": "electric_scooter", "lat": 38.90839416666667, "is_disabled": 0}, {"fusion_lat": 0.0, "lon": -77.04335266666666, "is_reserved": 0, "bike_id": "65323cb4ced3454d6792ba9fc41ee117", "fusion_lon": 0.0, "rental_uris": {"android": "https://dc.lft.to/lastmile_qr_scan", "ios": "https://dc.lft.to/lastmile_qr_scan"}, "name": "65323cb4ced3454d6792ba9fc41ee117", "type": "electric_scooter", "lat": 38.89225866666666, "is_disabled": 0}, {"fusion_lat": 0.0, "lon": -77.07819033333334, "is_reserved": 0, "bike_id": "4902951e5f718fbb9e9a03567d11a86a", "fusion_lon": 0.0, "rental_uris": {"android": "https://dc.lft.to/lastmile_qr_scan", "ios": "https://dc.lft.to/lastmile_qr_scan"}, "name": "4902951e5f718fbb9e9a03567d11a86a", "type": "electric_bike", "lat": 38.936396, "is_disabled": 0}, {"fusion_lat": 0.0, "lon": -77.02727316666666, "is_reserved": 0, "bike_id": "098333ac5d17a9213de0a263fb12f126", "fusion_lon": 0.0, "rental_uris": {"android": "https://dc.lft.to/lastmile_qr_scan", "ios": "https://dc.lft.to/lastmile_qr_scan"}, "name": "098333ac5d17a9213de0a263fb12f126", "type": "electric_scooter", "lat": 38.932510666666666, "is_disabled": 0}, {"fusion_lat": 0.0, "lon": -77.02377233333333, "is_reserved": 0, "bike_id": "e1564b816e16199046d89fbdc66d646a", "fusion_lon": 0.0, "rental_uris": {"android": "https://dc.lft.to/lastmile_qr_scan", "ios": "https://dc.lft.to/lastmile_qr_scan"}, "name": "e1564b816e16199046d89fbdc66d646a", "type": "electric_scooter", "lat": 38.901998666666664, "is_disabled": 0}, {"fusion_lat": 0.0, "lon": -77.0446965, "is_reserved": 0, "bike_id": "b922b7d0526a295bac4b84a4d35b1c9a", "fusion_lon": 0.0, "rental_uris": {"android": "https://dc.lft.to/lastmile_qr_scan", "ios": "https://dc.lft.to/lastmile_qr_scan"}, "name": "b922b7d0526a295bac4b84a4d35b1c9a", "type": "electric_scooter", "lat": 38.91018, "is_disabled": 0}, {"fusion_lat": 0.0, "lon": -77.04160966666667, "is_reserved": 0, "bike_id": "6e8a6ca100be7f2aa82dd17e05936e8a", "fusion_lon": 0.0, "rental_uris": {"android": "https://dc.lft.to/lastmile_qr_scan", "ios": "https://dc.lft.to/lastmile_qr_scan"}, "name": "6e8a6ca100be7f2aa82dd17e05936e8a", "type": "electric_scooter", "lat": 38.90657066666667, "is_disabled": 0}, {"fusion_lat": 0.0, "lon": -77.02621633333334, "is_reserved": 0, "bike_id": "ca40e42b7c01640ea7b577d5f2784c56", "fusion_lon": 0.0, "rental_uris": {"android": "https://dc.lft.to/lastmile_qr_scan", "ios": "https://dc.lft.to/lastmile_qr_scan"}, "name": "ca40e42b7c01640ea7b577d5f2784c56", "type": "electric_scooter", "lat": 38.89428983333333, "is_disabled": 0}, {"fusion_lat": 0.0, "lon": -76.988388, "is_reserved": 0, "bike_id": "0b34b732a2c7c12cb968f1b683690808", "fusion_lon": 0.0, "rental_uris": {"android": "https://dc.lft.to/lastmile_qr_scan", "ios": "https://dc.lft.to/lastmile_qr_scan"}, "name": "0b34b732a2c7c12cb968f1b683690808", "type": "electric_bike", "lat": 38.84280316666667, "is_disabled": 0}, {"fusion_lat": 0.0, "lon": -76.9761225, "is_reserved": 0, "bike_id": "a833d22b9740a8135072f7badd444734", "fusion_lon": 0.0, "rental_uris": {"android": "https://dc.lft.to/lastmile_qr_scan", "ios": "https://dc.lft.to/lastmile_qr_scan"}, "name": "a833d22b9740a8135072f7badd444734", "type": "electric_scooter", "lat": 38.91297216666667, "is_disabled": 0}, {"fusion_lat": 0.0, "lon": -77.03613233333333, "is_reserved": 0, "bike_id": "6c580e5cadf8fea2017a78721a481db3", "fusion_lon": 0.0, "rental_uris": {"android": "https://dc.lft.to/lastmile_qr_scan", "ios": "https://dc.lft.to/lastmile_qr_scan"}, "name": "6c580e5cadf8fea2017a78721a481db3", "type": "electric_scooter", "lat": 38.930431166666665, "is_disabled": 0}, {"fusion_lat": 0.0, "lon": -77.02049316666667, "is_reserved": 0, "bike_id": "d9252c72ec7929a7d6c7528232fc9f24", "fusion_lon": 0.0, "rental_uris": {"android": "https://dc.lft.to/lastmile_qr_scan", "ios": "https://dc.lft.to/lastmile_qr_scan"}, "name": "d9252c72ec7929a7d6c7528232fc9f24", "type": "electric_scooter", "lat": 38.92191233333333, "is_disabled": 0}, {"fusion_lat": 0.0, "lon": -76.994128, "is_reserved": 0, "bike_id": "f2f21f5fde5923668181d4e37769be56", "fusion_lon": 0.0, "rental_uris": {"android": "https://dc.lft.to/lastmile_qr_scan", "ios": "https://dc.lft.to/lastmile_qr_scan"}, "name": "f2f21f5fde5923668181d4e37769be56", "type": "electric_scooter", "lat": 38.92115966666667, "is_disabled": 0}, {"fusion_lat": 0.0, "lon": -76.98067916666666, "is_reserved": 0, "bike_id": "a8450ba9f2d618ef04e336d358cfe616", "fusion_lon": 0.0, "rental_uris": {"android": "https://dc.lft.to/lastmile_qr_scan", "ios": "https://dc.lft.to/lastmile_qr_scan"}, "name": "a8450ba9f2d618ef04e336d358cfe616", "type": "electric_scooter", "lat": 38.90171983333333, "is_disabled": 0}, {"fusion_lat": 0.0, "lon": -77.042256, "is_reserved": 0, "bike_id": "72abea07d9b152ac761191d9e5fcb78a", "fusion_lon": 0.0, "rental_uris": {"android": "https://dc.lft.to/lastmile_qr_scan", "ios": "https://dc.lft.to/lastmile_qr_scan"}, "name": "72abea07d9b152ac761191d9e5fcb78a", "type": "electric_scooter", "lat": 38.931593666666664, "is_disabled": 0}, {"fusion_lat": 0.0, "lon": -76.9375725, "is_reserved": 0, "bike_id": "775d85390673afe7ee406e1bc6eb86f8", "fusion_lon": 0.0, "rental_uris": {"android": "https://dc.lft.to/lastmile_qr_scan", "ios": "https://dc.lft.to/lastmile_qr_scan"}, "name": "775d85390673afe7ee406e1bc6eb86f8", "type": "electric_scooter", "lat": 38.89046066666667, "is_disabled": 0}, {"fusion_lat": 0.0, "lon": -77.038985, "is_reserved": 0, "bike_id": "b1188e40b92b344944c520760947d995", "fusion_lon": 0.0, "rental_uris": {"android": "https://dc.lft.to/lastmile_qr_scan", "ios": "https://dc.lft.to/lastmile_qr_scan"}, "name": "b1188e40b92b344944c520760947d995", "type": "electric_scooter", "lat": 38.91472183333333, "is_disabled": 0}, {"fusion_lat": 0.0, "lon": -77.00970166666667, "is_reserved": 0, "bike_id": "495277a10aa0bdb49ca24ed71080405a", "fusion_lon": 0.0, "rental_uris": {"android": "https://dc.lft.to/lastmile_qr_scan", "ios": "https://dc.lft.to/lastmile_qr_scan"}, "name": "495277a10aa0bdb49ca24ed71080405a", "type": "electric_scooter", "lat": 38.91415966666667, "is_disabled": 0}, {"fusion_lat": 0.0, "lon": -77.04441016666667, "is_reserved": 0, "bike_id": "85d78a5a8eeaa77a837beda9193274d1", "fusion_lon": 0.0, "rental_uris": {"android": "https://dc.lft.to/lastmile_qr_scan", "ios": "https://dc.lft.to/lastmile_qr_scan"}, "name": "85d78a5a8eeaa77a837beda9193274d1", "type": "electric_scooter", "lat": 38.90986616666667, "is_disabled": 0}, {"fusion_lat": 0.0, "lon": -77.019032, "is_reserved": 0, "bike_id": "eda6819c805cec30190c23cd4aca27c7", "fusion_lon": 0.0, "rental_uris": {"android": "https://dc.lft.to/lastmile_qr_scan", "ios": "https://dc.lft.to/lastmile_qr_scan"}, "name": "eda6819c805cec30190c23cd4aca27c7", "type": "electric_scooter", "lat": 38.90314816666667, "is_disabled": 0}, {"fusion_lat": 0.0, "lon": -77.07071283333333, "is_reserved": 0, "bike_id": "b4e366440e6ec15b1099377b3de9f60a", "fusion_lon": 0.0, "rental_uris": {"android": "https://dc.lft.to/lastmile_qr_scan", "ios": "https://dc.lft.to/lastmile_qr_scan"}, "name": "b4e366440e6ec15b1099377b3de9f60a", "type": "electric_scooter", "lat": 38.9316935, "is_disabled": 0}, {"fusion_lat": 0.0, "lon": -77.02699016666666, "is_reserved": 0, "bike_id": "91e869f534ec5f9508c7f26eb8274ded", "fusion_lon": 0.0, "rental_uris": {"android": "https://dc.lft.to/lastmile_qr_scan", "ios": "https://dc.lft.to/lastmile_qr_scan"}, "name": "91e869f534ec5f9508c7f26eb8274ded", "type": "electric_scooter", "lat": 38.9237245, "is_disabled": 0}, {"fusion_lat": 0.0, "lon": -77.0190205, "is_reserved": 0, "bike_id": "fd043c2caa762ebb846ad098db7826ec", "fusion_lon": 0.0, "rental_uris": {"android": "https://dc.lft.to/lastmile_qr_scan", "ios": "https://dc.lft.to/lastmile_qr_scan"}, "name": "fd043c2caa762ebb846ad098db7826ec", "type": "electric_scooter", "lat": 38.895591333333336, "is_disabled": 0}, {"fusion_lat": 0.0, "lon": -77.02724533333334, "is_reserved": 0, "bike_id": "e8a0b3d2793ecac02a09c404210a7f95", "fusion_lon": 0.0, "rental_uris": {"android": "https://dc.lft.to/lastmile_qr_scan", "ios": "https://dc.lft.to/lastmile_qr_scan"}, "name": "e8a0b3d2793ecac02a09c404210a7f95", "type": "electric_scooter", "lat": 38.90672583333333, "is_disabled": 0}, {"fusion_lat": 0.0, "lon": -77.04203033333333, "is_reserved": 0, "bike_id": "543b040358e4bb7145bfe1a8183dc538", "fusion_lon": 0.0, "rental_uris": {"android": "https://dc.lft.to/lastmile_qr_scan", "ios": "https://dc.lft.to/lastmile_qr_scan"}, "name": "543b040358e4bb7145bfe1a8183dc538", "type": "electric_scooter", "lat": 38.91963333333333, "is_disabled": 0}, {"fusion_lat": 0.0, "lon": -76.99753033333333, "is_reserved": 0, "bike_id": "cb65384b69d1003feffe662d0a854daf", "fusion_lon": 0.0, "rental_uris": {"android": "https://dc.lft.to/lastmile_qr_scan", "ios": "https://dc.lft.to/lastmile_qr_scan"}, "name": "cb65384b69d1003feffe662d0a854daf", "type": "electric_scooter", "lat": 38.90843866666667, "is_disabled": 0}, {"fusion_lat": 0.0, "lon": -77.04309966666666, "is_reserved": 0, "bike_id": "9a7b0844778f617440d7d2dbaafc9313", "fusion_lon": 0.0, "rental_uris": {"android": "https://dc.lft.to/lastmile_qr_scan", "ios": "https://dc.lft.to/lastmile_qr_scan"}, "name": "9a7b0844778f617440d7d2dbaafc9313", "type": "electric_scooter", "lat": 38.923343333333335, "is_disabled": 0}, {"fusion_lat": 0.0, "lon": -77.0613185, "is_reserved": 0, "bike_id": "60faa77662d35b73324266b4c96ec73a", "fusion_lon": 0.0, "rental_uris": {"android": "https://dc.lft.to/lastmile_qr_scan", "ios": "https://dc.lft.to/lastmile_qr_scan"}, "name": "60faa77662d35b73324266b4c96ec73a", "type": "electric_scooter", "lat": 38.94083066666666, "is_disabled": 0}, {"fusion_lat": 0.0, "lon": -77.02786266666666, "is_reserved": 0, "bike_id": "4a5bde34251ea166b45b611294198930", "fusion_lon": 0.0, "rental_uris": {"android": "https://dc.lft.to/lastmile_qr_scan", "ios": "https://dc.lft.to/lastmile_qr_scan"}, "name": "4a5bde34251ea166b45b611294198930", "type": "electric_scooter", "lat": 38.92682766666667, "is_disabled": 0}, {"fusion_lat": 0.0, "lon": -77.04022316666666, "is_reserved": 0, "bike_id": "dd61803781dbc6a3445f99e7dcb94097", "fusion_lon": 0.0, "rental_uris": {"android": "https://dc.lft.to/lastmile_qr_scan", "ios": "https://dc.lft.to/lastmile_qr_scan"}, "name": "dd61803781dbc6a3445f99e7dcb94097", "type": "electric_scooter", "lat": 38.92445383333333, "is_disabled": 0}, {"fusion_lat": 0.0, "lon": -77.02699033333333, "is_reserved": 0, "bike_id": "a23ef54b1ca665b4cba9e12076717fb4", "fusion_lon": 0.0, "rental_uris": {"android": "https://dc.lft.to/lastmile_qr_scan", "ios": "https://dc.lft.to/lastmile_qr_scan"}, "name": "a23ef54b1ca665b4cba9e12076717fb4", "type": "electric_scooter", "lat": 38.908404833333336, "is_disabled": 0}, {"fusion_lat": 0.0, "lon": -77.07352916666666, "is_reserved": 0, "bike_id": "65600894ecb9a516d0d0caa5aa3ef64c", "fusion_lon": 0.0, "rental_uris": {"android": "https://dc.lft.to/lastmile_qr_scan", "ios": "https://dc.lft.to/lastmile_qr_scan"}, "name": "65600894ecb9a516d0d0caa5aa3ef64c", "type": "electric_scooter", "lat": 38.911084833333334, "is_disabled": 0}, {"fusion_lat": 0.0, "lon": -77.00706633333333, "is_reserved": 0, "bike_id": "c6f1c34991a2195fcb76293ec9d6f65e", "fusion_lon": 0.0, "rental_uris": {"android": "https://dc.lft.to/lastmile_qr_scan", "ios": "https://dc.lft.to/lastmile_qr_scan"}, "name": "c6f1c34991a2195fcb76293ec9d6f65e", "type": "electric_scooter", "lat": 38.878529666666665, "is_disabled": 0}, {"fusion_lat": 0.0, "lon": -77.06049966666667, "is_reserved": 0, "bike_id": "bb0fedd3888c73f537bd43d2e849b03c", "fusion_lon": 0.0, "rental_uris": {"android": "https://dc.lft.to/lastmile_qr_scan", "ios": "https://dc.lft.to/lastmile_qr_scan"}, "name": "bb0fedd3888c73f537bd43d2e849b03c", "type": "electric_scooter", "lat": 38.93910066666667, "is_disabled": 0}, {"fusion_lat": 0.0, "lon": -76.99464583333334, "is_reserved": 0, "bike_id": "94af79025a9d45c6a9a1467104f8cc0e", "fusion_lon": 0.0, "rental_uris": {"android": "https://dc.lft.to/lastmile_qr_scan", "ios": "https://dc.lft.to/lastmile_qr_scan"}, "name": "94af79025a9d45c6a9a1467104f8cc0e", "type": "electric_scooter", "lat": 38.86226216666667, "is_disabled": 0}, {"fusion_lat": 0.0, "lon": -77.04354783333334, "is_reserved": 0, "bike_id": "d200353e8bb9dbe32a98b0717cbbf824", "fusion_lon": 0.0, "rental_uris": {"android": "https://dc.lft.to/lastmile_qr_scan", "ios": "https://dc.lft.to/lastmile_qr_scan"}, "name": "d200353e8bb9dbe32a98b0717cbbf824", "type": "electric_scooter", "lat": 38.90417333333333, "is_disabled": 0}, {"fusion_lat": 0.0, "lon": -77.029728, "is_reserved": 0, "bike_id": "dbf014d198d5edec09d81aabefa2a568", "fusion_lon": 0.0, "rental_uris": {"android": "https://dc.lft.to/lastmile_qr_scan", "ios": "https://dc.lft.to/lastmile_qr_scan"}, "name": "dbf014d198d5edec09d81aabefa2a568", "type": "electric_scooter", "lat": 38.91053766666667, "is_disabled": 0}, {"fusion_lat": 0.0, "lon": -76.98150116666666, "is_reserved": 0, "bike_id": "89325eb2eac51100ca9405b6c0f8d5f7", "fusion_lon": 0.0, "rental_uris": {"android": "https://dc.lft.to/lastmile_qr_scan", "ios": "https://dc.lft.to/lastmile_qr_scan"}, "name": "89325eb2eac51100ca9405b6c0f8d5f7", "type": "electric_scooter", "lat": 38.9056705, "is_disabled": 0}, {"fusion_lat": 0.0, "lon": -77.0174915, "is_reserved": 0, "bike_id": "cbce71c24010f4b893b1fde9ef4ff24b", "fusion_lon": 0.0, "rental_uris": {"android": "https://dc.lft.to/lastmile_qr_scan", "ios": "https://dc.lft.to/lastmile_qr_scan"}, "name": "cbce71c24010f4b893b1fde9ef4ff24b", "type": "electric_scooter", "lat": 38.8727205, "is_disabled": 0}, {"fusion_lat": 0.0, "lon": -77.0435865, "is_reserved": 0, "bike_id": "736f20987e9459e6a089cf3d0a2117a8", "fusion_lon": 0.0, "rental_uris": {"android": "https://dc.lft.to/lastmile_qr_scan", "ios": "https://dc.lft.to/lastmile_qr_scan"}, "name": "736f20987e9459e6a089cf3d0a2117a8", "type": "electric_scooter", "lat": 38.90577233333333, "is_disabled": 0}, {"fusion_lat": 0.0, "lon": -77.01617533333334, "is_reserved": 0, "bike_id": "3fa98aa6e05f101afb280b23341bf5ed", "fusion_lon": 0.0, "rental_uris": {"android": "https://dc.lft.to/lastmile_qr_scan", "ios": "https://dc.lft.to/lastmile_qr_scan"}, "name": "3fa98aa6e05f101afb280b23341bf5ed", "type": "electric_scooter", "lat": 38.883345, "is_disabled": 0}, {"fusion_lat": 0.0, "lon": -77.039553, "is_reserved": 0, "bike_id": "214665a3ecde07f948b1ea1aacf71b0f", "fusion_lon": 0.0, "rental_uris": {"android": "https://dc.lft.to/lastmile_qr_scan", "ios": "https://dc.lft.to/lastmile_qr_scan"}, "name": "214665a3ecde07f948b1ea1aacf71b0f", "type": "electric_scooter", "lat": 38.892432666666664, "is_disabled": 0}, {"fusion_lat": 0.0, "lon": -77.08031733333333, "is_reserved": 0, "bike_id": "a072a7d7a6aacbf79287035900843dbf", "fusion_lon": 0.0, "rental_uris": {"android": "https://dc.lft.to/lastmile_qr_scan", "ios": "https://dc.lft.to/lastmile_qr_scan"}, "name": "a072a7d7a6aacbf79287035900843dbf", "type": "electric_scooter", "lat": 38.949506666666665, "is_disabled": 0}, {"fusion_lat": 0.0, "lon": -77.026501, "is_reserved": 0, "bike_id": "253373f638eb9df98fffb043566cc511", "fusion_lon": 0.0, "rental_uris": {"android": "https://dc.lft.to/lastmile_qr_scan", "ios": "https://dc.lft.to/lastmile_qr_scan"}, "name": "253373f638eb9df98fffb043566cc511", "type": "electric_scooter", "lat": 38.93860333333333, "is_disabled": 0}, {"fusion_lat": 0.0, "lon": -77.03875266666667, "is_reserved": 0, "bike_id": "266b47f2978de539c4862a20323209f8", "fusion_lon": 0.0, "rental_uris": {"android": "https://dc.lft.to/lastmile_qr_scan", "ios": "https://dc.lft.to/lastmile_qr_scan"}, "name": "266b47f2978de539c4862a20323209f8", "type": "electric_scooter", "lat": 38.906588, "is_disabled": 0}, {"fusion_lat": 0.0, "lon": -77.03851066666667, "is_reserved": 0, "bike_id": "abfbe89531bc9ad2e12fafafa84a3738", "fusion_lon": 0.0, "rental_uris": {"android": "https://dc.lft.to/lastmile_qr_scan", "ios": "https://dc.lft.to/lastmile_qr_scan"}, "name": "abfbe89531bc9ad2e12fafafa84a3738", "type": "electric_scooter", "lat": 38.91544183333333, "is_disabled": 0}, {"fusion_lat": 0.0, "lon": -77.012638, "is_reserved": 0, "bike_id": "8416223e071d77b4e115b861361e3356", "fusion_lon": 0.0, "rental_uris": {"android": "https://dc.lft.to/lastmile_qr_scan", "ios": "https://dc.lft.to/lastmile_qr_scan"}, "name": "8416223e071d77b4e115b861361e3356", "type": "electric_scooter", "lat": 38.89241033333333, "is_disabled": 0}, {"fusion_lat": 0.0, "lon": -77.02318116666666, "is_reserved": 0, "bike_id": "4e5b764142302703355225cb9bcf237c", "fusion_lon": 0.0, "rental_uris": {"android": "https://dc.lft.to/lastmile_qr_scan", "ios": "https://dc.lft.to/lastmile_qr_scan"}, "name": "4e5b764142302703355225cb9bcf237c", "type": "electric_scooter", "lat": 38.955236166666666, "is_disabled": 0}, {"fusion_lat": 0.0, "lon": -76.99052416666666, "is_reserved": 0, "bike_id": "ea4f319cad0f0e730b3ee9e92330f6ed", "fusion_lon": 0.0, "rental_uris": {"android": "https://dc.lft.to/lastmile_qr_scan", "ios": "https://dc.lft.to/lastmile_qr_scan"}, "name": "ea4f319cad0f0e730b3ee9e92330f6ed", "type": "electric_bike", "lat": 38.889214833333334, "is_disabled": 0}, {"fusion_lat": 0.0, "lon": -77.031741, "is_reserved": 0, "bike_id": "417b4155a040c7413a690b2957629fc0", "fusion_lon": 0.0, "rental_uris": {"android": "https://dc.lft.to/lastmile_qr_scan", "ios": "https://dc.lft.to/lastmile_qr_scan"}, "name": "417b4155a040c7413a690b2957629fc0", "type": "electric_scooter", "lat": 38.89779933333333, "is_disabled": 0}, {"fusion_lat": 0.0, "lon": -76.94578883333334, "is_reserved": 0, "bike_id": "9ed21b3728ca0db6699b908d91ce7e8d", "fusion_lon": 0.0, "rental_uris": {"android": "https://dc.lft.to/lastmile_qr_scan", "ios": "https://dc.lft.to/lastmile_qr_scan"}, "name": "9ed21b3728ca0db6699b908d91ce7e8d", "type": "electric_bike", "lat": 38.9374435, "is_disabled": 0}, {"fusion_lat": 0.0, "lon": -77.029287, "is_reserved": 0, "bike_id": "287781f2a3366f6eee95eee7d94c0fff", "fusion_lon": 0.0, "rental_uris": {"android": "https://dc.lft.to/lastmile_qr_scan", "ios": "https://dc.lft.to/lastmile_qr_scan"}, "name": "287781f2a3366f6eee95eee7d94c0fff", "type": "electric_scooter", "lat": 38.89820683333333, "is_disabled": 0}, {"fusion_lat": 0.0, "lon": -77.02484866666667, "is_reserved": 0, "bike_id": "d3d0eb3704e6ae6694887932b3aa739c", "fusion_lon": 0.0, "rental_uris": {"android": "https://dc.lft.to/lastmile_qr_scan", "ios": "https://dc.lft.to/lastmile_qr_scan"}, "name": "d3d0eb3704e6ae6694887932b3aa739c", "type": "electric_scooter", "lat": 38.93862516666667, "is_disabled": 0}, {"fusion_lat": 0.0, "lon": -76.98020333333334, "is_reserved": 0, "bike_id": "0724aa0f2f8e0f4ff268c119979e5750", "fusion_lon": 0.0, "rental_uris": {"android": "https://dc.lft.to/lastmile_qr_scan", "ios": "https://dc.lft.to/lastmile_qr_scan"}, "name": "0724aa0f2f8e0f4ff268c119979e5750", "type": "electric_scooter", "lat": 38.8531455, "is_disabled": 0}, {"fusion_lat": 0.0, "lon": -77.05233066666666, "is_reserved": 0, "bike_id": "daf772527d847aa33789898f4b2a64d6", "fusion_lon": 0.0, "rental_uris": {"android": "https://dc.lft.to/lastmile_qr_scan", "ios": "https://dc.lft.to/lastmile_qr_scan"}, "name": "daf772527d847aa33789898f4b2a64d6", "type": "electric_scooter", "lat": 38.92509966666667, "is_disabled": 0}, {"fusion_lat": 0.0, "lon": -77.02420166666667, "is_reserved": 0, "bike_id": "19cda4d323158e843e94753b2d9382fe", "fusion_lon": 0.0, "rental_uris": {"android": "https://dc.lft.to/lastmile_qr_scan", "ios": "https://dc.lft.to/lastmile_qr_scan"}, "name": "19cda4d323158e843e94753b2d9382fe", "type": "electric_scooter", "lat": 38.897446, "is_disabled": 0}, {"fusion_lat": 0.0, "lon": -77.03897366666666, "is_reserved": 0, "bike_id": "d0051af841a3e0d84326b31f8496d3cf", "fusion_lon": 0.0, "rental_uris": {"android": "https://dc.lft.to/lastmile_qr_scan", "ios": "https://dc.lft.to/lastmile_qr_scan"}, "name": "d0051af841a3e0d84326b31f8496d3cf", "type": "electric_scooter", "lat": 38.914683333333336, "is_disabled": 0},