{"data": {"bikes": [{"lat": 38.88745766666667, "fusion_lon": 0.0, "lon": -77.02739566666666, "is_disabled": 0, "type": "electric_scooter", "name": "f89b42bab01d62bce99c93060888d5ea", "fusion_lat": 0.0, "rental_uris": {"android": "https://dc.lft.to/lastmile_qr_scan", "ios": "https://dc.lft.to/lastmile_qr_scan"}, "bike_id": "f89b42bab01d62bce99c93060888d5ea", "is_reserved": 0}, {"lat": 38.91694416666667, "fusion_lon": 0.0, "lon": -77.02382033333333, "is_disabled": 0, "type": "electric_scooter", "name": "9ac7aa4397b18f2ea09689ae890a5878", "fusion_lat": 0.0, "rental_uris": {"android": "https://dc.lft.to/lastmile_qr_scan", "ios": "https://dc.lft.to/lastmile_qr_scan"}, "bike_id": "9ac7aa4397b18f2ea09689ae890a5878", "is_reserved": 0}, {"lat": 38.9187275, "fusion_lon": 0.0, "lon": -77.04203033333333, "is_disabled": 0, "type": "electric_scooter", "name": "4f64edf63a91f3d1a185a5a805f47008", "fusion_lat": 0.0, "rental_uris": {"android": "https://dc.lft.to/lastmile_qr_scan", "ios": "https://dc.lft.to/lastmile_qr_scan"}, "bike_id": "4f64edf63a91f3d1a185a5a805f47008", "is_reserved": 0}, {"lat": 38.93948066666667, "fusion_lon": 0.0, "lon": -77.072537, "is_disabled": 0, "type": "electric_scooter", "name": "b89383caff01de920d5888a92f2b2666", "fusion_lat": 0.0, "rental_uris": {"android": "https://dc.lft.to/lastmile_qr_scan", "ios": "https://dc.lft.to/lastmile_qr_scan"}, "bike_id": "b89383caff01de920d5888a92f2b2666", "is_reserved": 0}, {"lat": 38.93336, "fusion_lon": 0.0, "lon": -77.03265066666667, "is_disabled": 0, "type": "electric_scooter", "name": "57c438c6e695ce9f578936c2f21c24a7", "fusion_lat": 0.0, "rental_uris": {"android": "https://dc.lft.to/lastmile_qr_scan", "ios": "https://dc.lft.to/lastmile_qr_scan"}, "bike_id": "57c438c6e695ce9f578936c2f21c24a7", "is_reserved": 0}, {"lat": 38.919915, "fusion_lon": 0.0, "lon": -77.03243933333333, "is_disabled": 0, "type": "electric_scooter", "name": "5ed76aa2fe35270034f20749af026c4a", "fusion_lat": 0.0, "rental_uris": {"android": "https://dc.lft.to/lastmile_qr_scan", "ios": "https://dc.lft.to/lastmile_qr_scan"}, "bike_id": "5ed76aa2fe35270034f20749af026c4a", "is_reserved": 0}, {"lat": 38.9389335, "fusion_lon": 0.0, "lon": -77.02462816666667, "is_disabled": 0, "type": "electric_scooter", "name": "aa6e6fb5287af07e51f3c83f25651d05", "fusion_lat": 0.0, "rental_uris": {"android": "https://dc.lft.to/lastmile_qr_scan", "ios": "https://dc.lft.to/lastmile_qr_scan"}, "bike_id": "aa6e6fb5287af07e51f3c83f25651d05", "is_reserved": 0}, {"lat": 38.91276533333333, "fusion_lon": 0.0, "lon": -77.03130233333333, "is_disabled": 0, "type": "electric_scooter", "name": "376ee0fdd0d81b52a0710350e1dcdc25", "fusion_lat": 0.0, "rental_uris": {"android": "https://dc.lft.to/lastmile_qr_scan", "ios": "https://dc.lft.to/lastmile_qr_scan"}, "bike_id": "376ee0fdd0d81b52a0710350e1dcdc25", "is_reserved": 0}, {"lat": 38.86502316666667, "fusion_lon": 0.0, "lon": -76.99000383333333, "is_disabled": 0, "type": "electric_scooter", "name": "254796d331ac90ab6d5b933ff03f968b", "fusion_lat": 0.0, "rental_uris": {"android": "https://dc.lft.to/lastmile_qr_scan", "ios": "https://dc.lft.to/lastmile_qr_scan"}, "bike_id": "254796d331ac90ab6d5b933ff03f968b", "is_reserved": 0}, {"lat": 38.905496, "fusion_lon": 0.0, "lon": -77.0464115, "is_disabled": 0, "type": "electric_scooter", "name": "57678a5164c14da3409bd1cdb5135cdc", "fusion_lat": 0.0, "rental_uris": {"android": "https://dc.lft.to/lastmile_qr_scan", "ios": "https://dc.lft.to/lastmile_qr_scan"}, "bike_id": "57678a5164c14da3409bd1cdb5135cdc", "is_reserved": 0}, {"lat": 38.89211183333333, "fusion_lon": 0.0, "lon": -77.04376633333334, "is_disabled": 0, "type": "electric_scooter", "name": "940bd4cbd8308fe9439ecf5e3b73d968", "fusion_lat": 0.0, "rental_uris": {"android": "https://dc.lft.to/lastmile_qr_scan", "ios": "https://dc.lft.to/lastmile_qr_scan"}, "bike_id": "940bd4cbd8308fe9439ecf5e3b73d968", "is_reserved": 0}, {"lat": 39.013671, "fusion_lon": 0.0, "lon": -76.92135716666667, "is_disabled": 0, "type": "electric_bike", "name": "d6215be45657b2450633a97bb0dbdf05", "fusion_lat": 0.0, "rental_uris": {"android": "https://dc.lft.to/lastmile_qr_scan", "ios": "https://dc.lft.to/lastmile_qr_scan"}, "bike_id": "d6215be45657b2450633a97bb0dbdf05", "is_reserved": 0}, {"lat": 38.8658085, "fusion_lon": 0.0, "lon": -77.04762166666667, "is_disabled": 0, "type": "electric_bike", "name": "921316e23a25a19f4c27483e6ea93d1e", "fusion_lat": 0.0, "rental_uris": {"android": "https://dc.lft.to/lastmile_qr_scan", "ios": "https://dc.lft.to/lastmile_qr_scan"}, "bike_id": "921316e23a25a19f4c27483e6ea93d1e", "is_reserved": 0}, {"lat": 38.9127075, "fusion_lon": 0.0, "lon": -77.018363, "is_disabled": 0, "type": "electric_scooter", "name": "b46663dd30d18491fdf9d7248f1c134b", "fusion_lat": 0.0, "rental_uris": {"android": "https://dc.lft.to/lastmile_qr_scan", "ios": "https://dc.lft.to/lastmile_qr_scan"}, "bike_id": "b46663dd30d18491fdf9d7248f1c134b", "is_reserved": 0}, {"lat": 38.92913816666667, "fusion_lon": 0.0, "lon": -77.0375555, "is_disabled": 0, "type": "electric_scooter", "name": "9aa87784c6d5496531ea9dc52f1ef4b1", "fusion_lat": 0.0, "rental_uris": {"android": "https://dc.lft.to/lastmile_qr_scan", "ios": "https://dc.lft.to/lastmile_qr_scan"}, "bike_id": "9aa87784c6d5496531ea9dc52f1ef4b1", "is_reserved": 0}, {"lat": 38.865119, "fusion_lon": 0.0, "lon": -76.97331766666667, "is_disabled": 0, "type": "electric_bike", "name": "39400691a33407f4fa911b10cef7a3fc", "fusion_lat": 0.0, "rental_uris": {"android": "https://dc.lft.to/lastmile_qr_scan", "ios": "https://dc.lft.to/lastmile_qr_scan"}, "bike_id": "39400691a33407f4fa911b10cef7a3fc", "is_reserved": 0}, {"lat": 38.9420235, "fusion_lon": 0.0, "lon": -77.02501266666667, "is_disabled": 0, "type": "electric_scooter", "name": "397bfa057f9e6d48937d6e878cd164c3", "fusion_lat": 0.0, "rental_uris": {"android": "https://dc.lft.to/lastmile_qr_scan", "ios": "https://dc.lft.to/lastmile_qr_scan"}, "bike_id": "397bfa057f9e6d48937d6e878cd164c3", "is_reserved": 0}, {"lat": 38.93859116666667, "fusion_lon": 0.0, "lon": -77.02650083333333, "is_disabled": 0, "type": "electric_scooter", "name": "c1824d36c65809c71ea6988b1bb25f7e", "fusion_lat": 0.0, "rental_uris": {"android": "https://dc.lft.to/lastmile_qr_scan", "ios": "https://dc.lft.to/lastmile_qr_scan"}, "bike_id": "c1824d36c65809c71ea6988b1bb25f7e", "is_reserved": 0}, {"lat": 38.96592533333333, "fusion_lon": 0.0, "lon": -77.06805416666667, "is_disabled": 0, "type": "electric_scooter", "name": "13278fbca6b33bfa8026ff6044fdfe3e", "fusion_lat": 0.0, "rental_uris": {"android": "https://dc.lft.to/lastmile_qr_scan", "ios": "https://dc.lft.to/lastmile_qr_scan"}, "bike_id": "13278fbca6b33bfa8026ff6044fdfe3e", "is_reserved": 0}, {"lat": 38.902641, "fusion_lon": 0.0, "lon": -77.053272, "is_disabled": 0, "type": "electric_scooter", "name": "21f698a7164aca1d916bcaee52a2d4e4", "fusion_lat": 0.0, "rental_uris": {"android": "https://dc.lft.to/lastmile_qr_scan", "ios": "https://dc.lft.to/lastmile_qr_scan"}, "bike_id": "21f698a7164aca1d916bcaee52a2d4e4", "is_reserved": 0}, {"lat": 38.922533333333334, "fusion_lon": 0.0, "lon": -77.04297583333333, "is_disabled": 0, "type": "electric_scooter", "name": "75edeed4123d635849095b67ae365ab8", "fusion_lat": 0.0, "rental_uris": {"android": "https://dc.lft.to/lastmile_qr_scan", "ios": "https://dc.lft.to/lastmile_qr_scan"}, "bike_id": "75edeed4123d635849095b67ae365ab8", "is_reserved": 0}, {"lat": 38.91416866666667, "fusion_lon": 0.0, "lon": -77.04487183333333, "is_disabled": 0, "type": "electric_scooter", "name": "ab5c4bfa94d28671f9844554b468b029", "fusion_lat": 0.0, "rental_uris": {"android": "https://dc.lft.to/lastmile_qr_scan", "ios": "https://dc.lft.to/lastmile_qr_scan"}, "bike_id": "ab5c4bfa94d28671f9844554b468b029", "is_reserved": 0}, {"lat": 38.927531333333334, "fusion_lon": 0.0, "lon": -77.03278216666666, "is_disabled": 0, "type": "electric_scooter", "name": "d22c915c501518b8834cbd33f5c49f95", "fusion_lat": 0.0, "rental_uris": {"android": "https://dc.lft.to/lastmile_qr_scan", "ios": "https://dc.lft.to/lastmile_qr_scan"}, "bike_id": "d22c915c501518b8834cbd33f5c49f95", "is_reserved": 0}, {"lat": 38.924873833333336, "fusion_lon": 0.0, "lon": -77.05766716666666, "is_disabled": 0, "type": "electric_scooter", "name": "1214aa1603af91e26c27c68296ccc483", "fusion_lat": 0.0, "rental_uris": {"android": "https://dc.lft.to/lastmile_qr_scan", "ios": "https://dc.lft.to/lastmile_qr_scan"}, "bike_id": "1214aa1603af91e26c27c68296ccc483", "is_reserved": 0}, {"lat": 38.86641616666667, "fusion_lon": 0.0, "lon": -76.98503366666667, "is_disabled": 0, "type": "electric_scooter", "name": "68ebf1af01ae281d805e49b73f7131d3", "fusion_lat": 0.0, "rental_uris": {"android": "https://dc.lft.to/lastmile_qr_scan", "ios": "https://dc.lft.to/lastmile_qr_scan"}, "bike_id": "68ebf1af01ae281d805e49b73f7131d3", "is_reserved": 0}, {"lat": 38.89220666666667, "fusion_lon": 0.0, "lon": -77.04380583333334, "is_disabled": 0, "type": "electric_scooter", "name": "99064f79e84504d767e9215a9785e419", "fusion_lat": 0.0, "rental_uris": {"android": "https://dc.lft.to/lastmile_qr_scan", "ios": "https://dc.lft.to/lastmile_qr_scan"}, "bike_id": "99064f79e84504d767e9215a9785e419", "is_reserved": 0}, {"lat": 38.9210775, "fusion_lon": 0.0, "lon": -77.03330083333333, "is_disabled": 0, "type": "electric_scooter", "name": "4e39bc8a4e429cfed4b9f64942b7ff4c", "fusion_lat": 0.0, "rental_uris": {"android": "https://dc.lft.to/lastmile_qr_scan", "ios": "https://dc.lft.to/lastmile_qr_scan"}, "bike_id": "4e39bc8a4e429cfed4b9f64942b7ff4c", "is_reserved": 0}, {"lat": 38.863761833333335, "fusion_lon": 0.0, "lon": -76.9906015, "is_disabled": 0, "type": "electric_scooter", "name": "d6ee3495eb548efb995040cb6d29aab0", "fusion_lat": 0.0, "rental_uris": {"android": "https://dc.lft.to/lastmile_qr_scan", "ios": "https://dc.lft.to/lastmile_qr_scan"}, "bike_id": "d6ee3495eb548efb995040cb6d29aab0", "is_reserved": 0}, {"lat": 38.93399183333333, "fusion_lon": 0.0, "lon": -77.022032, "is_disabled": 0, "type": "electric_scooter", "name": "e76bce7e3cba0035480187cca3a2c4e8", "fusion_lat": 0.0, "rental_uris": {"android": "https://dc.lft.to/lastmile_qr_scan", "ios": "https://dc.lft.to/lastmile_qr_scan"}, "bike_id": "e76bce7e3cba0035480187cca3a2c4e8", "is_reserved": 0}, {"lat": 38.913072, "fusion_lon": 0.0, "lon": -77.01619833333334, "is_disabled": 0, "type": "electric_scooter", "name": "5396c1b2106f56bc1e85dc5d5ec52e6e", "fusion_lat": 0.0, "rental_uris": {"android": "https://dc.lft.to/lastmile_qr_scan", "ios": "https://dc.lft.to/lastmile_qr_scan"}, "bike_id": "5396c1b2106f56bc1e85dc5d5ec52e6e", "is_reserved": 0}, {"lat": 38.929982833333334, "fusion_lon": 0.0, "lon": -77.0130455, "is_disabled": 0, "type": "electric_scooter", "name": "bfea69667992ef2871e20f7c176a9030", "fusion_lat": 0.0, "rental_uris": {"android": "https://dc.lft.to/lastmile_qr_scan", "ios": "https://dc.lft.to/lastmile_qr_scan"}, "bike_id": "bfea69667992ef2871e20f7c176a9030", "is_reserved": 0}, {"lat": 38.87462933333333, "fusion_lon": 0.0, "lon": -77.00543116666667, "is_disabled": 0, "type": "electric_scooter", "name": "6fc189aacd7b92523df53c80b67f7a59", "fusion_lat": 0.0, "rental_uris": {"android": "https://dc.lft.to/lastmile_qr_scan", "ios": "https://dc.lft.to/lastmile_qr_scan"}, "bike_id": "6fc189aacd7b92523df53c80b67f7a59", "is_reserved": 0}, {"lat": 38.910438, "fusion_lon": 0.0, "lon": -77.03205666666666, "is_disabled": 0, "type": "electric_scooter", "name": "f1ed169aa7fa079d63481d51fb069b81", "fusion_lat": 0.0, "rental_uris": {"android": "https://dc.lft.to/lastmile_qr_scan", "ios": "https://dc.lft.to/lastmile_qr_scan"}, "bike_id": "f1ed169aa7fa079d63481d51fb069b81", "is_reserved": 0}, {"lat": 38.924037166666665, "fusion_lon": 0.0, "lon": -76.99387433333334, "is_disabled": 0, "type": "electric_scooter", "name": "fb9451d8cc3943dd8396edec37527194", "fusion_lat": 0.0, "rental_uris": {"android": "https://dc.lft.to/lastmile_qr_scan", "ios": "https://dc.lft.to/lastmile_qr_scan"}, "bike_id": "fb9451d8cc3943dd8396edec37527194", "is_reserved": 0}, {"lat": 38.90951616666667, "fusion_lon": 0.0, "lon": -77.05481616666667, "is_disabled": 0, "type": "electric_scooter", "name": "f006ff78935e57bc5118506d5df0a316", "fusion_lat": 0.0, "rental_uris": {"android": "https://dc.lft.to/lastmile_qr_scan", "ios": "https://dc.lft.to/lastmile_qr_scan"}, "bike_id": "f006ff78935e57bc5118506d5df0a316", "is_reserved": 0}, {"lat": 38.90252566666667, "fusion_lon": 0.0, "lon": -77.00201833333334, "is_disabled": 0, "type": "electric_scooter", "name": "e208f4b9f88167ef08e1a8625069c8a8", "fusion_lat": 0.0, "rental_uris": {"android": "https://dc.lft.to/lastmile_qr_scan", "ios": "https://dc.lft.to/lastmile_qr_scan"}, "bike_id": "e208f4b9f88167ef08e1a8625069c8a8", "is_reserved": 0}, {"lat": 38.9097515, "fusion_lon": 0.0, "lon": -77.03593866666667, "is_disabled": 0, "type": "electric_scooter", "name": "966334435e92d8cbb1d8fb8bcccc9964", "fusion_lat": 0.0, "rental_uris": {"android": "https://dc.lft.to/lastmile_qr_scan", "ios": "https://dc.lft.to/lastmile_qr_scan"}, "bike_id": "966334435e92d8cbb1d8fb8bcccc9964", "is_reserved": 0}, {"lat": 38.9418205, "fusion_lon": 0.0, "lon": -77.02532466666666, "is_disabled": 0, "type": "electric_scooter", "name": "ccfa0032e69116b096a2c5a2faed76cf", "fusion_lat": 0.0, "rental_uris": {"android": "https://dc.lft.to/lastmile_qr_scan", "ios": "https://dc.lft.to/lastmile_qr_scan"}, "bike_id": "ccfa0032e69116b096a2c5a2faed76cf", "is_reserved": 0}, {"lat": 39.042396, "fusion_lon": 0.0, "lon": -76.99736433333334, "is_disabled": 0, "type": "electric_bike", "name": "ab992a67fd7dfce62c7b4a6352cd33b1", "fusion_lat": 0.0, "rental_uris": {"android": "https://dc.lft.to/lastmile_qr_scan", "ios": "https://dc.lft.to/lastmile_qr_scan"}, "bike_id": "ab992a67fd7dfce62c7b4a6352cd33b1", "is_reserved": 0}, {"lat": 38.89227566666667, "fusion_lon": 0.0, "lon": -77.04371, "is_disabled": 0, "type": "electric_scooter", "name": "fb05f8ec3c47c34a26d912a58f181955", "fusion_lat": 0.0, "rental_uris": {"android": "https://dc.lft.to/lastmile_qr_scan", "ios": "https://dc.lft.to/lastmile_qr_scan"}, "bike_id": "fb05f8ec3c47c34a26d912a58f181955", "is_reserved": 0}, {"lat": 38.89602133333333, "fusion_lon": 0.0, "lon": -77.007693, "is_disabled": 0, "type": "electric_scooter", "name": "aabc5de5c37a4bf756a00c2e3a0a6567", "fusion_lat": 0.0, "rental_uris": {"android": "https://dc.lft.to/lastmile_qr_scan", "ios": "https://dc.lft.to/lastmile_qr_scan"}, "bike_id": "aabc5de5c37a4bf756a00c2e3a0a6567", "is_reserved": 0}, {"lat": 38.87673083333333, "fusion_lon": 0.0, "lon": -76.99824633333333, "is_disabled": 0, "type": "electric_scooter", "name": "ec212d56e0f0f7fc2a68fedd35fb9195", "fusion_lat": 0.0, "rental_uris": {"android": "https://dc.lft.to/lastmile_qr_scan", "ios": "https://dc.lft.to/lastmile_qr_scan"}, "bike_id": "ec212d56e0f0f7fc2a68fedd35fb9195", "is_reserved": 0}, {"lat": 38.902741, "fusion_lon": 0.0, "lon": -76.929303, "is_disabled": 0, "type": "electric_bike", "name": "235f175124a8b6ad2bd6008dce3f80d6", "fusion_lat": 0.0, "rental_uris": {"android": "https://dc.lft.to/lastmile_qr_scan", "ios": "https://dc.lft.to/lastmile_qr_scan"}, "bike_id": "235f175124a8b6ad2bd6008dce3f80d6", "is_reserved": 0}, {"lat": 38.9095165, "fusion_lon": 0.0, "lon": -77.00814583333333, "is_disabled": 0, "type": "electric_scooter", "name": "e39e099fe2fd9be21ead202b2f10489a", "fusion_lat": 0.0, "rental_uris": {"android": "https://dc.lft.to/lastmile_qr_scan", "ios": "https://dc.lft.to/lastmile_qr_scan"}, "bike_id": "e39e099fe2fd9be21ead202b2f10489a", "is_reserved": 0}, {"lat": 38.92613083333333, "fusion_lon": 0.0, "lon": -77.02165116666667, "is_disabled": 0, "type": "electric_scooter", "name": "6c56b5ae5812d3d2118c3b4a5f16c31e", "fusion_lat": 0.0, "rental_uris": {"android": "https://dc.lft.to/lastmile_qr_scan", "ios": "https://dc.lft.to/lastmile_qr_scan"}, "bike_id": "6c56b5ae5812d3d2118c3b4a5f16c31e", "is_reserved": 0}, {"lat": 38.92704533333333, "fusion_lon": 0.0, "lon": -77.01492383333333, "is_disabled": 0, "type": "electric_scooter", "name": "2767cb6c38876036efa9f03c243fee72", "fusion_lat": 0.0, "rental_uris": {"android": "https://dc.lft.to/lastmile_qr_scan", "ios": "https://dc.lft.to/lastmile_qr_scan"}, "bike_id": "2767cb6c38876036efa9f03c243fee72", "is_reserved": 0}, {"lat": 38.900046833333334, "fusion_lon": 0.0, "lon": -77.03391016666667, "is_disabled": 0, "type": "electric_bike", "name": "7c3cbf4c6597608cdae09c225cc53686", "fusion_lat": 0.0, "rental_uris": {"android": "https://dc.lft.to/lastmile_qr_scan", "ios": "https://dc.lft.to/lastmile_qr_scan"}, "bike_id": "7c3cbf4c6597608cdae09c225cc53686", "is_reserved": 0}, {"lat": 38.92648783333333, "fusion_lon": 0.0, "lon": -77.03473066666666, "is_disabled": 0, "type": "electric_scooter", "name": "1869e5afdc31ce7e563975ccf804aafa", "fusion_lat": 0.0, "rental_uris": {"android": "https://dc.lft.to/lastmile_qr_scan", "ios": "https://dc.lft.to/lastmile_qr_scan"}, "bike_id": "1869e5afdc31ce7e563975ccf804aafa", "is_reserved": 0}, {"lat": 38.92347, "fusion_lon": 0.0, "lon": -77.01904766666667, "is_disabled": 0, "type": "electric_scooter", "name": "a72e5e8974553333b5ab8ea0e5ede92a", "fusion_lat": 0.0, "rental_uris": {"android": "https://dc.lft.to/lastmile_qr_scan", "ios": "https://dc.lft.to/lastmile_qr_scan"}, "bike_id": "a72e5e8974553333b5ab8ea0e5ede92a", "is_reserved": 0}, {"lat": 38.88120033333333, "fusion_lon": 0.0, "lon": -76.990088, "is_disabled": 0, "type": "electric_scooter", "name": "0c9c097fa0f22ae6a4f4065567e01476", "fusion_lat": 0.0, "rental_uris": {"android": "https://dc.lft.to/lastmile_qr_scan", "ios": "https://dc.lft.to/lastmile_qr_scan"}, "bike_id": "0c9c097fa0f22ae6a4f4065567e01476", "is_reserved": 0}, {"lat": 38.910635, "fusion_lon": 0.0, "lon": -77.053148, "is_disabled": 0, "type": "electric_scooter", "name": "162bd209f7950bc9df8869d662c38f3f", "fusion_lat": 0.0, "rental_uris": {"android": "https://dc.lft.to/lastmile_qr_scan", "ios": "https://dc.lft.to/lastmile_qr_scan"}, "bike_id": "162bd209f7950bc9df8869d662c38f3f", "is_reserved": 0}, {"lat": 38.908746666666666, "fusion_lon": 0.0, "lon": -77.07154833333334, "is_disabled": 0, "type": "electric_scooter", "name": "9e6446982b2af363ed1963a9779c5599", "fusion_lat": 0.0, "rental_uris": {"android": "https://dc.lft.to/lastmile_qr_scan", "ios": "https://dc.lft.to/lastmile_qr_scan"}, "bike_id": "9e6446982b2af363ed1963a9779c5599", "is_reserved": 0}, {"lat": 38.920429166666665, "fusion_lon": 0.0, "lon": -76.989547, "is_disabled": 0, "type": "electric_scooter", "name": "56489cc7558a70e9bfd2568004a68cc8", "fusion_lat": 0.0, "rental_uris": {"android": "https://dc.lft.to/lastmile_qr_scan", "ios": "https://dc.lft.to/lastmile_qr_scan"}, "bike_id": "56489cc7558a70e9bfd2568004a68cc8", "is_reserved": 0}, {"lat": 38.926944666666664, "fusion_lon": 0.0, "lon": -77.02288916666667, "is_disabled": 0, "type": "electric_scooter", "name": "1ac42d6dee1f1b6ebc9798b86ffb1597", "fusion_lat": 0.0, "rental_uris": {"android": "https://dc.lft.to/lastmile_qr_scan", "ios": "https://dc.lft.to/lastmile_qr_scan"}, "bike_id": "1ac42d6dee1f1b6ebc9798b86ffb1597", "is_reserved": 0}, {"lat": 38.829532666666665, "fusion_lon": 0.0, "lon": -77.12353683333333, "is_disabled": 0, "type": "electric_bike", "name": "ceaefdb2c95e818ac47096d81ba45e19", "fusion_lat": 0.0, "rental_uris": {"android": "https://dc.lft.to/lastmile_qr_scan", "ios": "https://dc.lft.to/lastmile_qr_scan"}, "bike_id": "ceaefdb2c95e818ac47096d81ba45e19", "is_reserved": 0}, {"lat": 38.8994665, "fusion_lon": 0.0, "lon": -77.04139883333333, "is_disabled": 0, "type": "electric_scooter", "name": "e621bab01ef3d6b55814664628f630e9", "fusion_lat": 0.0, "rental_uris": {"android": "https://dc.lft.to/lastmile_qr_scan", "ios": "https://dc.lft.to/lastmile_qr_scan"}, "bike_id": "e621bab01ef3d6b55814664628f630e9", "is_reserved": 0}, {"lat": 38.92740333333333, "fusion_lon": 0.0, "lon": -77.0214485, "is_disabled": 0, "type": "electric_scooter", "name": "5ab1638095e173aac5e3e4a20309fc14", "fusion_lat": 0.0, "rental_uris": {"android": "https://dc.lft.to/lastmile_qr_scan", "ios": "https://dc.lft.to/lastmile_qr_scan"}, "bike_id": "5ab1638095e173aac5e3e4a20309fc14", "is_reserved": 0}, {"lat": 38.871994666666666, "fusion_lon": 0.0, "lon": -77.00573466666667, "is_disabled": 0, "type": "electric_scooter", "name": "195cd248c80dc740a009f6ad65b8e51a", "fusion_lat": 0.0, "rental_uris": {"android": "https://dc.lft.to/lastmile_qr_scan", "ios": "https://dc.lft.to/lastmile_qr_scan"}, "bike_id": "195cd248c80dc740a009f6ad65b8e51a", "is_reserved": 0}, {"lat": 38.918256, "fusion_lon": 0.0, "lon": -77.03153333333333, "is_disabled": 0, "type": "electric_scooter", "name": "0f3121cac9787ab12a3af29f09ed549e", "fusion_lat": 0.0, "rental_uris": {"android": "https://dc.lft.to/lastmile_qr_scan", "ios": "https://dc.lft.to/lastmile_qr_scan"}, "bike_id": "0f3121cac9787ab12a3af29f09ed549e", "is_reserved": 0}, {"lat": 38.901546833333335, "fusion_lon": 0.0, "lon": -77.0318835, "is_disabled": 0, "type": "electric_scooter", "name": "6dab6f1e22347c48bb96227d0918be3a", "fusion_lat": 0.0, "rental_uris": {"android": "https://dc.lft.to/lastmile_qr_scan", "ios": "https://dc.lft.to/lastmile_qr_scan"}, "bike_id": "6dab6f1e22347c48bb96227d0918be3a", "is_reserved": 0}, {"lat": 38.9115085, "fusion_lon": 0.0, "lon": -77.072715, "is_disabled": 0, "type": "electric_scooter", "name": "f22b23a6f51cb78dcf5da7092da171eb", "fusion_lat": 0.0, "rental_uris": {"android": "https://dc.lft.to/lastmile_qr_scan", "ios": "https://dc.lft.to/lastmile_qr_scan"}, "bike_id": "f22b23a6f51cb78dcf5da7092da171eb", "is_reserved": 0}, {"lat": 38.9091015, "fusion_lon": 0.0, "lon": -77.03111683333333, "is_disabled": 0, "type": "electric_scooter", "name": "07cd68bc8b907d15f8390aae3b609668", "fusion_lat": 0.0, "rental_uris": {"android": "https://dc.lft.to/lastmile_qr_scan", "ios": "https://dc.lft.to/lastmile_qr_scan"}, "bike_id": "07cd68bc8b907d15f8390aae3b609668", "is_reserved": 0}, {"lat": 38.92438216666667, "fusion_lon": 0.0, "lon": -77.02136566666667, "is_disabled": 0, "type": "electric_scooter", "name": "efad42fcc83dd231a06a21d98dc9d5bb", "fusion_lat": 0.0, "rental_uris": {"android": "https://dc.lft.to/lastmile_qr_scan", "ios": "https://dc.lft.to/lastmile_qr_scan"}, "bike_id": "efad42fcc83dd231a06a21d98dc9d5bb", "is_reserved": 0}, {"lat": 38.905402, "fusion_lon": 0.0, "lon": -77.04995366666667, "is_disabled": 0, "type": "electric_scooter", "name": "b023c185e6e558348cd202f9346c0cd4", "fusion_lat": 0.0, "rental_uris": {"android": "https://dc.lft.to/lastmile_qr_scan", "ios": "https://dc.lft.to/lastmile_qr_scan"}, "bike_id": "b023c185e6e558348cd202f9346c0cd4", "is_reserved": 0}, {"lat": 38.8930555, "fusion_lon": 0.0, "lon": -77.05004466666666, "is_disabled": 0, "type": "electric_scooter", "name": "4877febe98ef6aabd51ca9e29e896a3a", "fusion_lat": 0.0, "rental_uris": {"android": "https://dc.lft.to/lastmile_qr_scan", "ios": "https://dc.lft.to/lastmile_qr_scan"}, "bike_id": "4877febe98ef6aabd51ca9e29e896a3a", "is_reserved": 0}, {"lat": 38.9013935, "fusion_lon": 0.0, "lon": -77.04441316666667, "is_disabled": 0, "type": "electric_scooter", "name": "12f6e62191fe1575cd849f2e81d3e497", "fusion_lat": 0.0, "rental_uris": {"android": "https://dc.lft.to/lastmile_qr_scan", "ios": "https://dc.lft.to/lastmile_qr_scan"}, "bike_id": "12f6e62191fe1575cd849f2e81d3e497", "is_reserved": 0}, {"lat": 38.890129333333334, "fusion_lon": 0.0, "lon": -76.93693133333333, "is_disabled": 0, "type": "electric_scooter", "name": "e96b918585c9ae329f6fd251504c6da7", "fusion_lat": 0.0, "rental_uris": {"android": "https://dc.lft.to/lastmile_qr_scan", "ios": "https://dc.lft.to/lastmile_qr_scan"}, "bike_id": "e96b918585c9ae329f6fd251504c6da7", "is_reserved": 0}, {"lat": 38.89215216666667, "fusion_lon": 0.0, "lon": -77.02349366666667, "is_disabled": 0, "type": "electric_scooter", "name": "a6d42b163f9e5a8e36ce11a0d773738c", "fusion_lat": 0.0, "rental_uris": {"android": "https://dc.lft.to/lastmile_qr_scan", "ios": "https://dc.lft.to/lastmile_qr_scan"}, "bike_id": "a6d42b163f9e5a8e36ce11a0d773738c", "is_reserved": 0}, {"lat": 38.900284166666665, "fusion_lon": 0.0, "lon": -77.0021525, "is_disabled": 0, "type": "electric_scooter", "name": "8085bf65cacba5cd75d7130c52a6ae83", "fusion_lat": 0.0, "rental_uris": {"android": "https://dc.lft.to/lastmile_qr_scan", "ios": "https://dc.lft.to/lastmile_qr_scan"}, "bike_id": "8085bf65cacba5cd75d7130c52a6ae83", "is_reserved": 0}, {"lat": 38.89286366666666, "fusion_lon": 0.0, "lon": -77.03211566666667, "is_disabled": 0, "type": "electric_scooter", "name": "2329723b9b1fd99980705c909f021fd6", "fusion_lat": 0.0, "rental_uris": {"android": "https://dc.lft.to/lastmile_qr_scan", "ios": "https://dc.lft.to/lastmile_qr_scan"}, "bike_id": "2329723b9b1fd99980705c909f021fd6", "is_reserved": 0}, {"lat": 38.916886833333336, "fusion_lon": 0.0, "lon": -77.02596566666666, "is_disabled": 0, "type": "electric_scooter", "name": "7d086c5fe865952d01212ec273160274", "fusion_lat": 0.0, "rental_uris": {"android": "https://dc.lft.to/lastmile_qr_scan", "ios": "https://dc.lft.to/lastmile_qr_scan"}, "bike_id": "7d086c5fe865952d01212ec273160274", "is_reserved": 0}, {"lat": 38.86940533333333, "fusion_lon": 0.0, "lon": -77.0946515, "is_disabled": 0, "type": "electric_bike", "name": "64ef44d92faa311fc4433da6ef8ac09b", "fusion_lat": 0.0, "rental_uris": {"android": "https://dc.lft.to/lastmile_qr_scan", "ios": "https://dc.lft.to/lastmile_qr_scan"}, "bike_id": "64ef44d92faa311fc4433da6ef8ac09b", "is_reserved": 0}, {"lat": 38.90375216666666, "fusion_lon": 0.0, "lon": -77.00731033333334, "is_disabled": 0, "type": "electric_scooter", "name": "0698d7802cf9e1dbc344015ae49587f6", "fusion_lat": 0.0, "rental_uris": {"android": "https://dc.lft.to/lastmile_qr_scan", "ios": "https://dc.lft.to/lastmile_qr_scan"}, "bike_id": "0698d7802cf9e1dbc344015ae49587f6", "is_reserved": 0}, {"lat": 38.90440066666667, "fusion_lon": 0.0, "lon": -76.98493483333333, "is_disabled": 0, "type": "electric_scooter", "name": "dddcdb54dd4b4e43b681c5d756a106eb", "fusion_lat": 0.0, "rental_uris": {"android": "https://dc.lft.to/lastmile_qr_scan", "ios": "https://dc.lft.to/lastmile_qr_scan"}, "bike_id": "dddcdb54dd4b4e43b681c5d756a106eb", "is_reserved": 0}, {"lat": 38.922254833333334, "fusion_lon": 0.0, "lon": -77.04252783333334, "is_disabled": 0, "type": "electric_scooter", "name": "10c37b50b43532ad4d6be317949818bd", "fusion_lat": 0.0, "rental_uris": {"android": "https://dc.lft.to/lastmile_qr_scan", "ios": "https://dc.lft.to/lastmile_qr_scan"}, "bike_id": "10c37b50b43532ad4d6be317949818bd", "is_reserved": 0}, {"lat": 38.96817733333334, "fusion_lon": 0.0, "lon": -77.07228883333333, "is_disabled": 0, "type": "electric_bike", "name": "2a31495895720ba89487294d3bd786db", "fusion_lat": 0.0, "rental_uris": {"android": "https://dc.lft.to/lastmile_qr_scan", "ios": "https://dc.lft.to/lastmile_qr_scan"}, "bike_id": "2a31495895720ba89487294d3bd786db", "is_reserved": 0}, {"lat": 38.92257816666667, "fusion_lon": 0.0, "lon": -77.035284, "is_disabled": 0, "type": "electric_scooter", "name": "e7763df462723038b987038b4338f2d7", "fusion_lat": 0.0, "rental_uris": {"android": "https://dc.lft.to/lastmile_qr_scan", "ios": "https://dc.lft.to/lastmile_qr_scan"}, "bike_id": "e7763df462723038b987038b4338f2d7", "is_reserved": 0}, {"lat": 38.9190875, "fusion_lon": 0.0, "lon": -77.0262045, "is_disabled": 0, "type": "electric_scooter", "name": "be5dc5c5edaa1716a59d9e5815371da7", "fusion_lat": 0.0, "rental_uris": {"android": "https://dc.lft.to/lastmile_qr_scan", "ios": "https://dc.lft.to/lastmile_qr_scan"}, "bike_id": "be5dc5c5edaa1716a59d9e5815371da7", "is_reserved": 0}, {"lat": 38.89964716666667, "fusion_lon": 0.0, "lon": -76.98677166666667, "is_disabled": 0, "type": "electric_bike", "name": "c8e2f9fa467a0745316b07c6130c7c31", "fusion_lat": 0.0, "rental_uris": {"android": "https://dc.lft.to/lastmile_qr_scan", "ios": "https://dc.lft.to/lastmile_qr_scan"}, "bike_id": "c8e2f9fa467a0745316b07c6130c7c31", "is_reserved": 0}, {"lat": 38.8963005, "fusion_lon": 0.0, "lon": -77.04011083333333, "is_disabled": 0, "type": "electric_scooter", "name": "203b4707e9cfbb8cffb09a2d16c14b4b", "fusion_lat": 0.0, "rental_uris": {"android": "https://dc.lft.to/lastmile_qr_scan", "ios": "https://dc.lft.to/lastmile_qr_scan"}, "bike_id": "203b4707e9cfbb8cffb09a2d16c14b4b", "is_reserved": 0}, {"lat": 38.92955833333333, "fusion_lon": 0.0, "lon": -77.03252866666666, "is_disabled": 0, "type": "electric_scooter", "name": "4a664782c3ac291e3da1f27a9fe74aff", "fusion_lat": 0.0, "rental_uris": {"android": "https://dc.lft.to/lastmile_qr_scan", "ios": "https://dc.lft.to/lastmile_qr_scan"}, "bike_id": "4a664782c3ac291e3da1f27a9fe74aff", "is_reserved": 0}, {"lat": 38.928762166666665, "fusion_lon": 0.0, "lon": -77.0135935, "is_disabled": 0, "type": "electric_scooter", "name": "918e140a0247a93f511ee9ed87029cc9", "fusion_lat": 0.0, "rental_uris": {"android": "https://dc.lft.to/lastmile_qr_scan", "ios": "https://dc.lft.to/lastmile_qr_scan"}, "bike_id": "918e140a0247a93f511ee9ed87029cc9", "is_reserved": 0}, {"lat": 38.910999, "fusion_lon": 0.0, "lon": -77.04491916666667, "is_disabled": 0, "type": "electric_scooter", "name": "8f18817b66480d1a03bff39a6c7bf672", "fusion_lat": 0.0, "rental_uris": {"android": "https://dc.lft.to/lastmile_qr_scan", "ios": "https://dc.lft.to/lastmile_qr_scan"}, "bike_id": "8f18817b66480d1a03bff39a6c7bf672", "is_reserved": 0}, {"lat": 38.903724833333335, "fusion_lon": 0.0, "lon": -77.031712, "is_disabled": 0, "type": "electric_scooter", "name": "20f31c26ef954c25f6c18ef18afc1f99", "fusion_lat": 0.0, "rental_uris": {"android": "https://dc.lft.to/lastmile_qr_scan", "ios": "https://dc.lft.to/lastmile_qr_scan"}, "bike_id": "20f31c26ef954c25f6c18ef18afc1f99", "is_reserved": 0}, {"lat": 38.939541, "fusion_lon": 0.0, "lon": -77.025123, "is_disabled": 0, "type": "electric_scooter", "name": "6c309439799467204cfeab32b5be63d3", "fusion_lat": 0.0, "rental_uris": {"android": "https://dc.lft.to/lastmile_qr_scan", "ios": "https://dc.lft.to/lastmile_qr_scan"}, "bike_id": "6c309439799467204cfeab32b5be63d3", "is_reserved": 0}, {"lat": 38.880644333333336, "fusion_lon": 0.0, "lon": -77.02586, "is_disabled": 0, "type": "electric_scooter", "name": "d62401e940f189db73907c62b9c569c6", "fusion_lat": 0.0, "rental_uris": {"android": "https://dc.lft.to/lastmile_qr_scan", "ios": "https://dc.lft.to/lastmile_qr_scan"}, "bike_id": "d62401e940f189db73907c62b9c569c6", "is_reserved": 0}, {"lat": 38.90001266666667, "fusion_lon": 0.0, "lon": -77.00127766666667, "is_disabled": 0, "type": "electric_scooter", "name": "1ca97cf509e9878e93d0e5e33b2f63ee", "fusion_lat": 0.0, "rental_uris": {"android": "https://dc.lft.to/lastmile_qr_scan", "ios": "https://dc.lft.to/lastmile_qr_scan"}, "bike_id": "1ca97cf509e9878e93d0e5e33b2f63ee", "is_reserved": 0}, {"lat": 38.91192233333334, "fusion_lon": 0.0, "lon": -77.03448816666666, "is_disabled": 0, "type": "electric_scooter", "name": "ec32753d3875978fdece23529ede2b94", "fusion_lat": 0.0, "rental_uris": {"android": "https://dc.lft.to/lastmile_qr_scan", "ios": "https://dc.lft.to/lastmile_qr_scan"}, "bike_id": "ec32753d3875978fdece23529ede2b94", "is_reserved": 0}, {"lat": 38.996051666666666, "fusion_lon": 0.0, "lon": -77.03209033333333, "is_disabled": 0, "type": "electric_scooter", "name": "66533f95e2407c71a8ea86521248a56e", "fusion_lat": 0.0, "rental_uris": {"android": "https://dc.lft.to/lastmile_qr_scan", "ios": "https://dc.lft.to/lastmile_qr_scan"}, "bike_id": "66533f95e2407c71a8ea86521248a56e", "is_reserved": 0}, {"lat": 38.8830835, "fusion_lon": 0.0, "lon": -77.01754883333334, "is_disabled": 0, "type": "electric_scooter", "name": "f55eb66e42e7c0b2fbcc9e3e1ad8bb42", "fusion_lat": 0.0, "rental_uris": {"android": "https://dc.lft.to/lastmile_qr_scan", "ios": "https://dc.lft.to/lastmile_qr_scan"}, "bike_id": "f55eb66e42e7c0b2fbcc9e3e1ad8bb42", "is_reserved": 0}, {"lat": 38.893254166666665, "fusion_lon": 0.0, "lon": -77.04677816666667, "is_disabled": 0, "type": "electric_scooter", "name": "757bd99f4f958cff0cd165e1b3e18ef2", "fusion_lat": 0.0, "rental_uris": {"android": "https://dc.lft.to/lastmile_qr_scan", "ios": "https://dc.lft.to/lastmile_qr_scan"}, "bike_id": "757bd99f4f958cff0cd165e1b3e18ef2", "is_reserved": 0}, {"lat": 38.904658, "fusion_lon": 0.0, "lon": -76.98053866666666, "is_disabled": 0, "type": "electric_scooter", "name": "9f136c5bd8f14fad2db7d061e8dde915", "fusion_lat": 0.0, "rental_uris": {"android": "https://dc.lft.to/lastmile_qr_scan", "ios": "https://dc.lft.to/lastmile_qr_scan"}, "bike_id": "9f136c5bd8f14fad2db7d061e8dde915", "is_reserved": 0}, {"lat": 38.86467666666667, "fusion_lon": 0.0, "lon": -76.98240066666666, "is_disabled": 0, "type": "electric_scooter", "name": "019939653766a0878d850468043a8b16", "fusion_lat": 0.0, "rental_uris": {"android": "https://dc.lft.to/lastmile_qr_scan", "ios": "https://dc.lft.to/lastmile_qr_scan"}, "bike_id": "019939653766a0878d850468043a8b16", "is_reserved": 0}, {"lat": 38.894729166666664, "fusion_lon": 0.0, "lon": -77.009916, "is_disabled": 0, "type": "electric_scooter", "name": "fecc7e0030e424fd8a1ffc10c884e6dd", "fusion_lat": 0.0, "rental_uris": {"android": "https://dc.lft.to/lastmile_qr_scan", "ios": "https://dc.lft.to/lastmile_qr_scan"}, "bike_id": "fecc7e0030e424fd8a1ffc10c884e6dd", "is_reserved": 0}, {"lat": 38.899073333333334, "fusion_lon": 0.0, "lon": -76.93347933333334, "is_disabled": 0, "type": "electric_scooter", "name": "246ae11b46e93f7e1cef14172e492411", "fusion_lat": 0.0, "rental_uris": {"android": "https://dc.lft.to/lastmile_qr_scan", "ios": "https://dc.lft.to/lastmile_qr_scan"}, "bike_id": "246ae11b46e93f7e1cef14172e492411", "is_reserved": 0}, {"lat": 38.9282185, "fusion_lon": 0.0, "lon": -77.021489, "is_disabled": 0, "type": "electric_scooter", "name": "d8a81bec3a09cda597767cc6af89e7ab", "fusion_lat": 0.0, "rental_uris": {"android": "https://dc.lft.to/lastmile_qr_scan", "ios": "https://dc.lft.to/lastmile_qr_scan"}, "bike_id": "d8a81bec3a09cda597767cc6af89e7ab", "is_reserved": 0}, {"lat": 38.915645833333336, "fusion_lon": 0.0, "lon": -77.03842566666667, "is_disabled": 0, "type": "electric_scooter", "name": "002ff60ee099920355895db7cd0d1bd2", "fusion_lat": 0.0, "rental_uris": {"android": "https://dc.lft.to/lastmile_qr_scan", "ios": "https://dc.lft.to/lastmile_qr_scan"}, "bike_id": "002ff60ee099920355895db7cd0d1bd2", "is_reserved": 0}, {"lat": 38.8922645, "fusion_lon": 0.0, "lon": -77.03198633333334, "is_disabled": 0, "type": "electric_scooter", "name": "fac250cbf4cc182f98b871daa3c35c97", "fusion_lat": 0.0, "rental_uris": {"android": "https://dc.lft.to/lastmile_qr_scan", "ios": "https://dc.lft.to/lastmile_qr_scan"}, "bike_id": "fac250cbf4cc182f98b871daa3c35c97", "is_reserved": 0}, {"lat": 38.870045833333336, "fusion_lon": 0.0, "lon": -76.9808695, "is_disabled": 0, "type": "electric_scooter", "name": "b6ddc93de12001d3753d96e07df2834a", "fusion_lat": 0.0, "rental_uris": {"android": "https://dc.lft.to/lastmile_qr_scan", "ios": "https://dc.lft.to/lastmile_qr_scan"}, "bike_id": "b6ddc93de12001d3753d96e07df2834a", "is_reserved": 0}, {"lat": 38.897296833333336, "fusion_lon": 0.0, "lon": -77.04362633333334, "is_disabled": 0, "type": "electric_scooter", "name": "ed5aa94401b9d71d8a64413736fe17ea", "fusion_lat": 0.0, "rental_uris": {"android": "https://dc.lft.to/lastmile_qr_scan", "ios": "https://dc.lft.to/lastmile_qr_scan"}, "bike_id": "ed5aa94401b9d71d8a64413736fe17ea", "is_reserved": 0}, {"lat": 38.892365166666664, "fusion_lon": 0.0, "lon": -77.03211666666667, "is_disabled": 0, "type": "electric_scooter", "name": "e35ea7276c408e45374217c0d0252227", "fusion_lat": 0.0, "rental_uris": {"android": "https://dc.lft.to/lastmile_qr_scan", "ios": "https://dc.lft.to/lastmile_qr_scan"}, "bike_id": "e35ea7276c408e45374217c0d0252227", "is_reserved": 0}, {"lat": 38.91984466666667, "fusion_lon": 0.0, "lon": -77.0414715, "is_disabled": 0, "type": "electric_scooter", "name": "b17e93d07c178474132a7980f032559e", "fusion_lat": 0.0, "rental_uris": {"android": "https://dc.lft.to/lastmile_qr_scan", "ios": "https://dc.lft.to/lastmile_qr_scan"}, "bike_id": "b17e93d07c178474132a7980f032559e", "is_reserved": 0}, {"lat": 38.9845225, "fusion_lon": 0.0, "lon": -77.02689033333333, "is_disabled": 0, "type": "electric_scooter", "name": "911794dff80765f33e74f34b90e25e0e", "fusion_lat": 0.0, "rental_uris": {"android": "https://dc.lft.to/lastmile_qr_scan", "ios": "https://dc.lft.to/lastmile_qr_scan"}, "bike_id": "911794dff80765f33e74f34b90e25e0e", "is_reserved": 0}, {"lat": 38.907679333333334, "fusion_lon": 0.0, "lon": -77.03746633333333, "is_disabled": 0, "type": "electric_scooter", "name": "4a50a95e7388d9914dbe92b2431daf34", "fusion_lat": 0.0, "rental_uris": {"android": "https://dc.lft.to/lastmile_qr_scan", "ios": "https://dc.lft.to/lastmile_qr_scan"}, "bike_id": "4a50a95e7388d9914dbe92b2431daf34", "is_reserved": 0}, {"lat": 38.91414866666667, "fusion_lon": 0.0, "lon": -77.03146483333333, "is_disabled": 0, "type": "electric_scooter", "name": "5abb53a7a9e7b16f3277dbf06bfb123c", "fusion_lat": 0.0, "rental_uris": {"android": "https://dc.lft.to/lastmile_qr_scan", "ios": "https://dc.lft.to/lastmile_qr_scan"}, "bike_id": "5abb53a7a9e7b16f3277dbf06bfb123c", "is_reserved": 0}, {"lat": 38.883300166666665, "fusion_lon": 0.0, "lon": -77.00715616666666, "is_disabled": 0, "type": "electric_scooter", "name": "3241de7ba09d4fc41cae8817fd8818fe", "fusion_lat": 0.0, "rental_uris": {"android": "https://dc.lft.to/lastmile_qr_scan", "ios": "https://dc.lft.to/lastmile_qr_scan"}, "bike_id": "3241de7ba09d4fc41cae8817fd8818fe", "is_reserved": 0}, {"lat": 38.91799433333333, "fusion_lon": 0.0, "lon": -77.03147333333334, "is_disabled": 0, "type": "electric_scooter", "name": "d54c212e42daf5f6d2f46b52b8298b7f", "fusion_lat": 0.0, "rental_uris": {"android": "https://dc.lft.to/lastmile_qr_scan", "ios": "https://dc.lft.to/lastmile_qr_scan"}, "bike_id": "d54c212e42daf5f6d2f46b52b8298b7f", "is_reserved": 0}, {"lat": 38.89236183333333, "fusion_lon": 0.0, "lon": -77.01318133333334, "is_disabled": 0, "type": "electric_scooter", "name": "b9120c66ce71849dcf85fcf5554b213a", "fusion_lat": 0.0, "rental_uris": {"android": "https://dc.lft.to/lastmile_qr_scan", "ios": "https://dc.lft.to/lastmile_qr_scan"}, "bike_id": "b9120c66ce71849dcf85fcf5554b213a", "is_reserved": 0}, {"lat": 38.921217, "fusion_lon": 0.0, "lon": -77.00334, "is_disabled": 0, "type": "electric_scooter", "name": "99b560fe8131afff229a5e0a6d796569", "fusion_lat": 0.0, "rental_uris": {"android": "https://dc.lft.to/lastmile_qr_scan", "ios": "https://dc.lft.to/lastmile_qr_scan"}, "bike_id": "99b560fe8131afff229a5e0a6d796569", "is_reserved": 0}, {"lat": 38.8190915, "fusion_lon": 0.0, "lon": -76.99912683333334, "is_disabled": 0, "type": "electric_bike", "name": "11cf2ef85bc3b94c80625093ee642342", "fusion_lat": 0.0, "rental_uris": {"android": "https://dc.lft.to/lastmile_qr_scan", "ios": "https://dc.lft.to/lastmile_qr_scan"}, "bike_id": "11cf2ef85bc3b94c80625093ee642342", "is_reserved": 0}, {"lat": 38.90841833333333, "fusion_lon": 0.0, "lon": -77.0269935, "is_disabled": 0, "type": "electric_scooter", "name": "76933d1ea07c320a709d34e6150055eb", "fusion_lat": 0.0, "rental_uris": {"android": "https://dc.lft.to/lastmile_qr_scan", "ios": "https://dc.lft.to/lastmile_qr_scan"}, "bike_id": "76933d1ea07c320a709d34e6150055eb", "is_reserved": 0}, {"lat": 38.95727383333333, "fusion_lon": 0.0, "lon": -77.02402883333333, "is_disabled": 0, "type": "electric_scooter", "name": "288b4fd644f45e57e72979cb4bb10472", "fusion_lat": 0.0, "rental_uris": {"android": "https://dc.lft.to/lastmile_qr_scan", "ios": "https://dc.lft.to/lastmile_qr_scan"}, "bike_id": "288b4fd644f45e57e72979cb4bb10472", "is_reserved": 0}, {"lat": 38.8935505, "fusion_lon": 0.0, "lon": -77.00338283333333, "is_disabled": 0, "type": "electric_scooter", "name": "5c87014a1f092ba0b207683a426dd06f", "fusion_lat": 0.0, "rental_uris": {"android": "https://dc.lft.to/lastmile_qr_scan", "ios": "https://dc.lft.to/lastmile_qr_scan"}, "bike_id": "5c87014a1f092ba0b207683a426dd06f", "is_reserved": 0}, {"lat": 38.90270866666667, "fusion_lon": 0.0, "lon": -77.0385325, "is_disabled": 0, "type": "electric_scooter", "name": "3d1f56c088fec15b559829b9418df49e", "fusion_lat": 0.0, "rental_uris": {"android": "https://dc.lft.to/lastmile_qr_scan", "ios": "https://dc.lft.to/lastmile_qr_scan"}, "bike_id": "3d1f56c088fec15b559829b9418df49e", "is_reserved": 0}, {"lat": 38.87984333333333, "fusion_lon": 0.0, "lon": -76.91597316666666, "is_disabled": 0, "type": "electric_bike", "name": "275a0a5b7aa878f7b2cdafdff2856796", "fusion_lat": 0.0, "rental_uris": {"android": "https://dc.lft.to/lastmile_qr_scan", "ios": "https://dc.lft.to/lastmile_qr_scan"}, "bike_id": "275a0a5b7aa878f7b2cdafdff2856796", "is_reserved": 0}, {"lat": 38.9294935, "fusion_lon": 0.0, "lon": -77.01651616666666, "is_disabled": 0, "type": "electric_scooter", "name": "43ef13771d89d883b91def8a32c468a7", "fusion_lat": 0.0, "rental_uris": {"android": "https://dc.lft.to/lastmile_qr_scan", "ios": "https://dc.lft.to/lastmile_qr_scan"}, "bike_id": "43ef13771d89d883b91def8a32c468a7", "is_reserved": 0}, {"lat": 38.887243166666664, "fusion_lon": 0.0, "lon": -77.0218005, "is_disabled": 0, "type": "electric_scooter", "name": "10ebefb6f3ae8018996ee1752c95e1da", "fusion_lat": 0.0, "rental_uris": {"android": "https://dc.lft.to/lastmile_qr_scan", "ios": "https://dc.lft.to/lastmile_qr_scan"}, "bike_id": "10ebefb6f3ae8018996ee1752c95e1da", "is_reserved": 0}, {"lat": 38.90731183333333, "fusion_lon": 0.0, "lon": -77.045024, "is_disabled": 0, "type": "electric_scooter", "name": "a7370c3a7b4775c1d58e5841586cf60e", "fusion_lat": 0.0, "rental_uris": {"android": "https://dc.lft.to/lastmile_qr_scan", "ios": "https://dc.lft.to/lastmile_qr_scan"}, "bike_id": "a7370c3a7b4775c1d58e5841586cf60e", "is_reserved": 0}, {"lat": 38.88517216666666, "fusion_lon": 0.0, "lon": -76.9962745, "is_disabled": 0, "type": "electric_scooter", "name": "6b37dfae9bb8b38f865bfba7ee8b6c6a", "fusion_lat": 0.0, "rental_uris": {"android": "https://dc.lft.to/lastmile_qr_scan", "ios": "https://dc.lft.to/lastmile_qr_scan"}, "bike_id": "6b37dfae9bb8b38f865bfba7ee8b6c6a", "is_reserved": 0}, {"lat": 38.93617233333333, "fusion_lon": 0.0, "lon": -77.03796, "is_disabled": 0, "type": "electric_scooter", "name": "0c310bec85c05015b50ee152e41098da", "fusion_lat": 0.0, "rental_uris": {"android": "https://dc.lft.to/lastmile_qr_scan", "ios": "https://dc.lft.to/lastmile_qr_scan"}, "bike_id": "0c310bec85c05015b50ee152e41098da", "is_reserved": 0}, {"lat": 38.887358166666665, "fusion_lon": 0.0, "lon": -77.02209616666667, "is_disabled": 0, "type": "electric_scooter", "name": "6a2bd35f2497fbb1d2193457170a2b7f", "fusion_lat": 0.0, "rental_uris": {"android": "https://dc.lft.to/lastmile_qr_scan", "ios": "https://dc.lft.to/lastmile_qr_scan"}, "bike_id": "6a2bd35f2497fbb1d2193457170a2b7f", "is_reserved": 0}, {"lat": 38.93866966666667, "fusion_lon": 0.0, "lon": -76.94293783333333, "is_disabled": 0, "type": "electric_bike", "name": "3e9c242a57319c3361c417d2c14a0d2b", "fusion_lat": 0.0, "rental_uris": {"android": "https://dc.lft.to/lastmile_qr_scan", "ios": "https://dc.lft.to/lastmile_qr_scan"}, "bike_id": "3e9c242a57319c3361c417d2c14a0d2b", "is_reserved": 0}, {"lat": 38.90231166666667, "fusion_lon": 0.0, "lon": -77.0339315, "is_disabled": 0, "type": "electric_scooter", "name": "97db76b5545b1f8c692cbdfe8e4bc950", "fusion_lat": 0.0, "rental_uris": {"android": "https://dc.lft.to/lastmile_qr_scan", "ios": "https://dc.lft.to/lastmile_qr_scan"}, "bike_id": "97db76b5545b1f8c692cbdfe8e4bc950", "is_reserved": 0}, {"lat": 38.907574333333336, "fusion_lon": 0.0, "lon": -77.07168833333333, "is_disabled": 0, "type": "electric_scooter", "name": "0576a6dd0968795656d0db011630780b", "fusion_lat": 0.0, "rental_uris": {"android": "https://dc.lft.to/lastmile_qr_scan", "ios": "https://dc.lft.to/lastmile_qr_scan"}, "bike_id": "0576a6dd0968795656d0db011630780b", "is_reserved": 0}, {"lat": 38.95954183333333, "fusion_lon": 0.0, "lon": -77.10093383333333, "is_disabled": 0, "type": "electric_bike", "name": "8749b7d63de11c7d54752dbdd12767f9", "fusion_lat": 0.0, "rental_uris": {"android": "https://dc.lft.to/lastmile_qr_scan", "ios": "https://dc.lft.to/lastmile_qr_scan"}, "bike_id": "8749b7d63de11c7d54752dbdd12767f9", "is_reserved": 0}, {"lat": 38.88607583333334, "fusion_lon": 0.0, "lon": -76.99510866666667, "is_disabled": 0, "type": "electric_scooter", "name": "702ffde1562776c0acc7a73f05467bd4", "fusion_lat": 0.0, "rental_uris": {"android": "https://dc.lft.to/lastmile_qr_scan", "ios": "https://dc.lft.to/lastmile_qr_scan"}, "bike_id": "702ffde1562776c0acc7a73f05467bd4", "is_reserved": 0}, {"lat": 38.934582166666665, "fusion_lon": 0.0, "lon": -77.0221645, "is_disabled": 0, "type": "electric_scooter", "name": "14f4177510fa700f78e7554f6dd96eab", "fusion_lat": 0.0, "rental_uris": {"android": "https://dc.lft.to/lastmile_qr_scan", "ios": "https://dc.lft.to/lastmile_qr_scan"}, "bike_id": "14f4177510fa700f78e7554f6dd96eab", "is_reserved": 0}, {"lat": 38.884596, "fusion_lon": 0.0, "lon": -76.92623366666666, "is_disabled": 0, "type": "electric_scooter", "name": "62b58ea6af3da1e1622eca921a581a96", "fusion_lat": 0.0, "rental_uris": {"android": "https://dc.lft.to/lastmile_qr_scan", "ios": "https://dc.lft.to/lastmile_qr_scan"}, "bike_id": "62b58ea6af3da1e1622eca921a581a96", "is_reserved": 0}, {"lat": 38.91989816666667, "fusion_lon": 0.0, "lon": -77.03242583333333, "is_disabled": 0, "type": "electric_scooter", "name": "8a4be51e1536fdf2cc3ccf79b36db69d", "fusion_lat": 0.0, "rental_uris": {"android": "https://dc.lft.to/lastmile_qr_scan", "ios": "https://dc.lft.to/lastmile_qr_scan"}, "bike_id": "8a4be51e1536fdf2cc3ccf79b36db69d", "is_reserved": 0}, {"lat": 38.83159966666667, "fusion_lon": 0.0, "lon": -76.9954725, "is_disabled": 0, "type": "electric_bike", "name": "aa8901359afb614bbe2afa3d1fc5b927", "fusion_lat": 0.0, "rental_uris": {"android": "https://dc.lft.to/lastmile_qr_scan", "ios": "https://dc.lft.to/lastmile_qr_scan"}, "bike_id": "aa8901359afb614bbe2afa3d1fc5b927", "is_reserved": 0}, {"lat": 38.8120495, "fusion_lon": 0.0, "lon": -77.10833183333334, "is_disabled": 0, "type": "electric_bike", "name": "d72cb5f0f1f4108cba79a6bd388208bd", "fusion_lat": 0.0, "rental_uris": {"android": "https://dc.lft.to/lastmile_qr_scan", "ios": "https://dc.lft.to/lastmile_qr_scan"}, "bike_id": "d72cb5f0f1f4108cba79a6bd388208bd", "is_reserved": 0}, {"lat": 38.923421166666664, "fusion_lon": 0.0, "lon": -77.02122583333333, "is_disabled": 0, "type": "electric_scooter", "name": "67f2597b02a53f8590068ac5988ed966", "fusion_lat": 0.0, "rental_uris": {"android": "https://dc.lft.to/lastmile_qr_scan", "ios": "https://dc.lft.to/lastmile_qr_scan"}, "bike_id": "67f2597b02a53f8590068ac5988ed966", "is_reserved": 0}, {"lat": 38.87160033333333, "fusion_lon": 0.0, "lon": -77.01352466666667, "is_disabled": 0, "type": "electric_scooter", "name": "fc5ab5feb2c8e1809411254763298ae5", "fusion_lat": 0.0, "rental_uris": {"android": "https://dc.lft.to/lastmile_qr_scan", "ios": "https://dc.lft.to/lastmile_qr_scan"}, "bike_id": "fc5ab5feb2c8e1809411254763298ae5", "is_reserved": 0}, {"lat": 38.921190333333335, "fusion_lon": 0.0, "lon": -76.99411283333333, "is_disabled": 0, "type": "electric_bike", "name": "1ceb15ac3cc204a289a5de8058da2e24", "fusion_lat": 0.0, "rental_uris": {"android": "https://dc.lft.to/lastmile_qr_scan", "ios": "https://dc.lft.to/lastmile_qr_scan"}, "bike_id": "1ceb15ac3cc204a289a5de8058da2e24", "is_reserved": 0}, {"lat": 38.9276145, "fusion_lon": 0.0, "lon": -77.0328005, "is_disabled": 0, "type": "electric_scooter", "name": "0bec41d16564f60c3c4e44303652a3eb", "fusion_lat": 0.0, "rental_uris": {"android": "https://dc.lft.to/lastmile_qr_scan", "ios": "https://dc.lft.to/lastmile_qr_scan"}, "bike_id": "0bec41d16564f60c3c4e44303652a3eb", "is_reserved": 0}, {"lat": 38.962099333333335, "fusion_lon": 0.0, "lon": -77.0263085, "is_disabled": 0, "type": "electric_bike", "name": "75b91b19349783402e26445cd8c3cecc", "fusion_lat": 0.0, "rental_uris": {"android": "https://dc.lft.to/lastmile_qr_scan", "ios": "https://dc.lft.to/lastmile_qr_scan"}, "bike_id": "75b91b19349783402e26445cd8c3cecc", "is_reserved": 0}, {"lat": 38.89560433333333, "fusion_lon": 0.0, "lon": -76.94873433333333, "is_disabled": 0, "type": "electric_scooter", "name": "71ac8ad048f32029ad9271d9ab2237c2", "fusion_lat": 0.0, "rental_uris": {"android": "https://dc.lft.to/lastmile_qr_scan", "ios": "https://dc.lft.to/lastmile_qr_scan"}, "bike_id": "71ac8ad048f32029ad9271d9ab2237c2", "is_reserved": 0}, {"lat": 38.921392833333336, "fusion_lon": 0.0, "lon": -77.0287355, "is_disabled": 0, "type": "electric_scooter", "name": "cbde56481bfc30656247a7c378cfb6e8", "fusion_lat": 0.0, "rental_uris": {"android": "https://dc.lft.to/lastmile_qr_scan", "ios": "https://dc.lft.to/lastmile_qr_scan"}, "bike_id": "cbde56481bfc30656247a7c378cfb6e8", "is_reserved": 0}, {"lat": 38.84558233333333, "fusion_lon": 0.0, "lon": -77.0669195, "is_disabled": 0, "type": "electric_bike", "name": "07759698caa00f2ec9889138288e520c", "fusion_lat": 0.0, "rental_uris": {"android": "https://dc.lft.to/lastmile_qr_scan", "ios": "https://dc.lft.to/lastmile_qr_scan"}, "bike_id": "07759698caa00f2ec9889138288e520c", "is_reserved": 0}, {"lat": 38.89232833333333, "fusion_lon": 0.0, "lon": -77.023817, "is_disabled": 0, "type": "electric_scooter", "name": "6dbb2eadbeee1d82843a54ebde285ca2", "fusion_lat": 0.0, "rental_uris": {"android": "https://dc.lft.to/lastmile_qr_scan", "ios": "https://dc.lft.to/lastmile_qr_scan"}, "bike_id": "6dbb2eadbeee1d82843a54ebde285ca2", "is_reserved": 0}, {"lat": 38.8664715, "fusion_lon": 0.0, "lon": -76.98516466666666, "is_disabled": 0, "type": "electric_scooter", "name": "c2639156c1abb5eddd5d392882ce35fb", "fusion_lat": 0.0, "rental_uris": {"android": "https://dc.lft.to/lastmile_qr_scan", "ios": "https://dc.lft.to/lastmile_qr_scan"}, "bike_id": "c2639156c1abb5eddd5d392882ce35fb", "is_reserved": 0}, {"lat": 38.922251833333334, "fusion_lon": 0.0, "lon": -77.0424585, "is_disabled": 0, "type": "electric_scooter", "name": "6768226ab769984172edd88e339fb694", "fusion_lat": 0.0, "rental_uris": {"android": "https://dc.lft.to/lastmile_qr_scan", "ios": "https://dc.lft.to/lastmile_qr_scan"}, "bike_id": "6768226ab769984172edd88e339fb694", "is_reserved": 0}, {"lat": 38.9302225, "fusion_lon": 0.0, "lon": -77.055303, "is_disabled": 0, "type": "electric_scooter", "name": "7a926a58487810d890fc2b48fd294262", "fusion_lat": 0.0, "rental_uris": {"android": "https://dc.lft.to/lastmile_qr_scan", "ios": "https://dc.lft.to/lastmile_qr_scan"}, "bike_id": "7a926a58487810d890fc2b48fd294262", "is_reserved": 0}, {"lat": 38.866517333333334, "fusion_lon": 0.0, "lon": -76.98883283333333, "is_disabled": 0, "type": "electric_scooter", "name": "ad93b4f1cfe1e12e541ea0e6e2cd979b", "fusion_lat": 0.0, "rental_uris": {"android": "https://dc.lft.to/lastmile_qr_scan", "ios": "https://dc.lft.to/lastmile_qr_scan"}, "bike_id": "ad93b4f1cfe1e12e541ea0e6e2cd979b", "is_reserved": 0}, {"lat": 38.9934135, "fusion_lon": 0.0, "lon": -77.11585516666666, "is_disabled": 0, "type": "electric_bike", "name": "96237f7a169812979a8e1f64c0e1f7e1", "fusion_lat": 0.0, "rental_uris": {"android": "https://dc.lft.to/lastmile_qr_scan", "ios": "https://dc.lft.to/lastmile_qr_scan"}, "bike_id": "96237f7a169812979a8e1f64c0e1f7e1", "is_reserved": 0}, {"lat": 38.892874, "fusion_lon": 0.0, "lon": -77.01217483333333, "is_disabled": 0, "type": "electric_scooter", "name": "0fff271824861991622b5452dfa143e9", "fusion_lat": 0.0, "rental_uris": {"android": "https://dc.lft.to/lastmile_qr_scan", "ios": "https://dc.lft.to/lastmile_qr_scan"}, "bike_id": "0fff271824861991622b5452dfa143e9", "is_reserved": 0}, {"lat": 38.92722233333333, "fusion_lon": 0.0, "lon": -77.03671533333333, "is_disabled": 0, "type": "electric_scooter", "name": "0f7d2bf61d4ba2824dd90419037c8e79", "fusion_lat": 0.0, "rental_uris": {"android": "https://dc.lft.to/lastmile_qr_scan", "ios": "https://dc.lft.to/lastmile_qr_scan"}, "bike_id": "0f7d2bf61d4ba2824dd90419037c8e79", "is_reserved": 0}, {"lat": 38.902869833333334, "fusion_lon": 0.0, "lon": -77.0462525, "is_disabled": 0, "type": "electric_scooter", "name": "38468d099f2ddae81e95b39851b17281", "fusion_lat": 0.0, "rental_uris": {"android": "https://dc.lft.to/lastmile_qr_scan", "ios": "https://dc.lft.to/lastmile_qr_scan"}, "bike_id": "38468d099f2ddae81e95b39851b17281", "is_reserved": 0}, {"lat": 38.89977666666667, "fusion_lon": 0.0, "lon": -77.03173333333334, "is_disabled": 0, "type": "electric_scooter", "name": "9890dc7d9bc088323b91cf5fc2d43080", "fusion_lat": 0.0, "rental_uris": {"android": "https://dc.lft.to/lastmile_qr_scan", "ios": "https://dc.lft.to/lastmile_qr_scan"}, "bike_id": "9890dc7d9bc088323b91cf5fc2d43080", "is_reserved": 0}, {"lat": 38.9174265, "fusion_lon": 0.0, "lon": -77.041523, "is_disabled": 0, "type": "electric_scooter", "name": "f792ea8cb715290f18f8c4073fded87e", "fusion_lat": 0.0, "rental_uris": {"android": "https://dc.lft.to/lastmile_qr_scan", "ios": "https://dc.lft.to/lastmile_qr_scan"}, "bike_id": "f792ea8cb715290f18f8c4073fded87e", "is_reserved": 0}, {"lat": 38.8999875, "fusion_lon": 0.0, "lon": -77.0067385, "is_disabled": 0, "type": "electric_scooter", "name": "c237406b446e5f072d494dbe1bfc9ea9", "fusion_lat": 0.0, "rental_uris": {"android": "https://dc.lft.to/lastmile_qr_scan", "ios": "https://dc.lft.to/lastmile_qr_scan"}, "bike_id": "c237406b446e5f072d494dbe1bfc9ea9", "is_reserved": 0}, {"lat": 38.9049665, "fusion_lon": 0.0, "lon": -77.04657033333334, "is_disabled": 0, "type": "electric_scooter", "name": "57b3ace8da83e69b74313f456685fbbd", "fusion_lat": 0.0, "rental_uris": {"android": "https://dc.lft.to/lastmile_qr_scan", "ios": "https://dc.lft.to/lastmile_qr_scan"}, "bike_id": "57b3ace8da83e69b74313f456685fbbd", "is_reserved": 0}, {"lat": 38.90517716666667, "fusion_lon": 0.0, "lon": -77.0481735, "is_disabled": 0, "type": "electric_scooter", "name": "746d419c2d786ec39b3498946c8d6cf8", "fusion_lat": 0.0, "rental_uris": {"android": "https://dc.lft.to/lastmile_qr_scan", "ios": "https://dc.lft.to/lastmile_qr_scan"}, "bike_id": "746d419c2d786ec39b3498946c8d6cf8", "is_reserved": 0}, {"lat": 38.91691266666667, "fusion_lon": 0.0, "lon": -77.02595333333333, "is_disabled": 0, "type": "electric_scooter", "name": "f6bff79fca611abe7c8185b2f193e0c5", "fusion_lat": 0.0, "rental_uris": {"android": "https://dc.lft.to/lastmile_qr_scan", "ios": "https://dc.lft.to/lastmile_qr_scan"}, "bike_id": "f6bff79fca611abe7c8185b2f193e0c5", "is_reserved": 0}, {"lat": 38.9288945, "fusion_lon": 0.0, "lon": -77.03251366666667, "is_disabled": 0, "type": "electric_scooter", "name": "f9c1d441b188b841cb2b2caed5817a6c", "fusion_lat": 0.0, "rental_uris": {"android": "https://dc.lft.to/lastmile_qr_scan", "ios": "https://dc.lft.to/lastmile_qr_scan"}, "bike_id": "f9c1d441b188b841cb2b2caed5817a6c", "is_reserved": 0}, {"lat": 38.9226195, "fusion_lon": 0.0, "lon": -77.03518816666667, "is_disabled": 0, "type": "electric_scooter", "name": "18230970bfcbb7fe8ebac75db6b1fdb1", "fusion_lat": 0.0, "rental_uris": {"android": "https://dc.lft.to/lastmile_qr_scan", "ios": "https://dc.lft.to/lastmile_qr_scan"}, "bike_id": "18230970bfcbb7fe8ebac75db6b1fdb1", "is_reserved": 0}, {"lat": 38.969616333333335, "fusion_lon": 0.0, "lon": -76.95752216666666, "is_disabled": 0, "type": "electric_bike", "name": "c8e63b473a4008faa0a606b4feeea291", "fusion_lat": 0.0, "rental_uris": {"android": "https://dc.lft.to/lastmile_qr_scan", "ios": "https://dc.lft.to/lastmile_qr_scan"}, "bike_id": "c8e63b473a4008faa0a606b4feeea291", "is_reserved": 0}, {"lat": 38.88389633333333, "fusion_lon": 0.0, "lon": -77.01769216666666, "is_disabled": 0, "type": "electric_scooter", "name": "a38e251e413f8ee8a55eb6ecb7fa97cd", "fusion_lat": 0.0, "rental_uris": {"android": "https://dc.lft.to/lastmile_qr_scan", "ios": "https://dc.lft.to/lastmile_qr_scan"}, "bike_id": "a38e251e413f8ee8a55eb6ecb7fa97cd", "is_reserved": 0}, {"lat": 38.9224975, "fusion_lon": 0.0, "lon": -77.0305935, "is_disabled": 0, "type": "electric_scooter", "name": "aa850458122c3e36445ea5f34cc87d76", "fusion_lat": 0.0, "rental_uris": {"android": "https://dc.lft.to/lastmile_qr_scan", "ios": "https://dc.lft.to/lastmile_qr_scan"}, "bike_id": "aa850458122c3e36445ea5f34cc87d76", "is_reserved": 0}, {"lat": 38.90215633333333, "fusion_lon": 0.0, "lon": -77.028245, "is_disabled": 0, "type": "electric_scooter", "name": "36fb2bf23a8925caf887b4ff8ecd8b66", "fusion_lat": 0.0, "rental_uris": {"android": "https://dc.lft.to/lastmile_qr_scan", "ios": "https://dc.lft.to/lastmile_qr_scan"}, "bike_id": "36fb2bf23a8925caf887b4ff8ecd8b66", "is_reserved": 0}, {"lat": 38.927568666666666, "fusion_lon": 0.0, "lon": -77.032771, "is_disabled": 0, "type": "electric_scooter", "name": "18f9889852ac8b36dced231cf6b602c7", "fusion_lat": 0.0, "rental_uris": {"android": "https://dc.lft.to/lastmile_qr_scan", "ios": "https://dc.lft.to/lastmile_qr_scan"}, "bike_id": "18f9889852ac8b36dced231cf6b602c7", "is_reserved": 0}, {"lat": 38.860134, "fusion_lon": 0.0, "lon": -76.98517433333333, "is_disabled": 0, "type": "electric_scooter", "name": "9394847b87122618aeb2624fb6d3a988", "fusion_lat": 0.0, "rental_uris": {"android": "https://dc.lft.to/lastmile_qr_scan", "ios": "https://dc.lft.to/lastmile_qr_scan"}, "bike_id": "9394847b87122618aeb2624fb6d3a988", "is_reserved": 0}, {"lat": 38.91405566666667, "fusion_lon": 0.0, "lon": -77.03289916666667, "is_disabled": 0, "type": "electric_scooter", "name": "f77f1e2c23230659416eebb26968ee9b", "fusion_lat": 0.0, "rental_uris": {"android": "https://dc.lft.to/lastmile_qr_scan", "ios": "https://dc.lft.to/lastmile_qr_scan"}, "bike_id": "f77f1e2c23230659416eebb26968ee9b", "is_reserved": 0}, {"lat": 38.927341, "fusion_lon": 0.0, "lon": -77.02262316666666, "is_disabled": 0, "type": "electric_scooter", "name": "aab15edbaccb758b1fcd8e8c2a059664", "fusion_lat": 0.0, "rental_uris": {"android": "https://dc.lft.to/lastmile_qr_scan", "ios": "https://dc.lft.to/lastmile_qr_scan"}, "bike_id": "aab15edbaccb758b1fcd8e8c2a059664", "is_reserved": 0}, {"lat": 38.8650145, "fusion_lon": 0.0, "lon": -76.99004583333334, "is_disabled": 0, "type": "electric_scooter", "name": "8f0ab69fad8c8a2a8e2828d75a86256f", "fusion_lat": 0.0, "rental_uris": {"android": "https://dc.lft.to/lastmile_qr_scan", "ios": "https://dc.lft.to/lastmile_qr_scan"}, "bike_id": "8f0ab69fad8c8a2a8e2828d75a86256f", "is_reserved": 0}, {"lat": 38.811987, "fusion_lon": 0.0, "lon": -77.108411, "is_disabled": 0, "type": "electric_bike", "name": "92183a8a7714f51ec9028b7648461347", "fusion_lat": 0.0, "rental_uris": {"android": "https://dc.lft.to/lastmile_qr_scan", "ios": "https://dc.lft.to/lastmile_qr_scan"}, "bike_id": "92183a8a7714f51ec9028b7648461347", "is_reserved": 0}, {"lat": 38.90114066666667, "fusion_lon": 0.0, "lon": -77.040141, "is_disabled": 0, "type": "electric_scooter", "name": "b9af7eb3612e792ac38ea9bf1a53b5cb", "fusion_lat": 0.0, "rental_uris": {"android": "https://dc.lft.to/lastmile_qr_scan", "ios": "https://dc.lft.to/lastmile_qr_scan"}, "bike_id": "b9af7eb3612e792ac38ea9bf1a53b5cb", "is_reserved": 0}, {"lat": 38.863919833333334, "fusion_lon": 0.0, "lon": -77.01229666666667, "is_disabled": 0, "type": "electric_scooter", "name": "1b8a269560ec9c5ce50089002004982f", "fusion_lat": 0.0, "rental_uris": {"android": "https://dc.lft.to/lastmile_qr_scan", "ios": "https://dc.lft.to/lastmile_qr_scan"}, "bike_id": "1b8a269560ec9c5ce50089002004982f", "is_reserved": 0}, {"lat": 38.9002535, "fusion_lon": 0.0, "lon": -77.01169883333333, "is_disabled": 0, "type": "electric_scooter", "name": "419fb01054858a85b9feebc73c60ecb3", "fusion_lat": 0.0, "rental_uris": {"android": "https://dc.lft.to/lastmile_qr_scan", "ios": "https://dc.lft.to/lastmile_qr_scan"}, "bike_id": "419fb01054858a85b9feebc73c60ecb3", "is_reserved": 0}, {"lat": 38.92666333333333, "fusion_lon": 0.0, "lon": -77.02275566666667, "is_disabled": 0, "type": "electric_scooter", "name": "1d615bda0527ff1758c99011f7b4becf", "fusion_lat": 0.0, "rental_uris": {"android": "https://dc.lft.to/lastmile_qr_scan", "ios": "https://dc.lft.to/lastmile_qr_scan"}, "bike_id": "1d615bda0527ff1758c99011f7b4becf", "is_reserved": 0}, {"lat": 38.8930615, "fusion_lon": 0.0, "lon": -76.92921833333334, "is_disabled": 0, "type": "electric_scooter", "name": "cec34d11e28d9eaabe568f6386b8fc76", "fusion_lat": 0.0, "rental_uris": {"android": "https://dc.lft.to/lastmile_qr_scan", "ios": "https://dc.lft.to/lastmile_qr_scan"}, "bike_id": "cec34d11e28d9eaabe568f6386b8fc76", "is_reserved": 0}, {"lat": 38.97127566666666, "fusion_lon": 0.0, "lon": -77.03159183333334, "is_disabled": 0, "type": "electric_bike", "name": "d00db9709b8a77796d601d1349a5a3ed", "fusion_lat": 0.0, "rental_uris": {"android": "https://dc.lft.to/lastmile_qr_scan", "ios": "https://dc.lft.to/lastmile_qr_scan"}, "bike_id": "d00db9709b8a77796d601d1349a5a3ed", "is_reserved": 0}, {"lat": 38.89838916666667, "fusion_lon": 0.0, "lon": -77.03316783333334, "is_disabled": 0, "type": "electric_scooter", "name": "db7076f65c6c635c7cf2312a4f3aafdd", "fusion_lat": 0.0, "rental_uris": {"android": "https://dc.lft.to/lastmile_qr_scan", "ios": "https://dc.lft.to/lastmile_qr_scan"}, "bike_id": "db7076f65c6c635c7cf2312a4f3aafdd", "is_reserved": 0}, {"lat": 38.873302333333335, "fusion_lon": 0.0, "lon": -77.106137, "is_disabled": 0, "type": "electric_bike", "name": "9a326cfd87cd4bd6a4703e76e2e51cab", "fusion_lat": 0.0, "rental_uris": {"android": "https://dc.lft.to/lastmile_qr_scan", "ios": "https://dc.lft.to/lastmile_qr_scan"}, "bike_id": "9a326cfd87cd4bd6a4703e76e2e51cab", "is_reserved": 0}, {"lat": 38.89363783333334, "fusion_lon": 0.0, "lon": -77.00346416666666, "is_disabled": 0, "type": "electric_scooter", "name": "a0e06c25f0b593ba1b574802c771e57e", "fusion_lat": 0.0, "rental_uris": {"android": "https://dc.lft.to/lastmile_qr_scan", "ios": "https://dc.lft.to/lastmile_qr_scan"}, "bike_id": "a0e06c25f0b593ba1b574802c771e57e", "is_reserved": 0}, {"lat": 38.91878416666667, "fusion_lon": 0.0, "lon": -77.02954833333334, "is_disabled": 0, "type": "electric_scooter", "name": "cbaed3d326282f8cc654dc98ddc71f68", "fusion_lat": 0.0, "rental_uris": {"android": "https://dc.lft.to/lastmile_qr_scan", "ios": "https://dc.lft.to/lastmile_qr_scan"}, "bike_id": "cbaed3d326282f8cc654dc98ddc71f68", "is_reserved": 0}, {"lat": 38.93740833333333, "fusion_lon": 0.0, "lon": -77.036214, "is_disabled": 0, "type": "electric_scooter", "name": "39a6656bc376e83c99edc6ba1f5108f4", "fusion_lat": 0.0, "rental_uris": {"android": "https://dc.lft.to/lastmile_qr_scan", "ios": "https://dc.lft.to/lastmile_qr_scan"}, "bike_id": "39a6656bc376e83c99edc6ba1f5108f4", "is_reserved": 0}, {"lat": 38.96723166666666, "fusion_lon": 0.0, "lon": -77.018599, "is_disabled": 0, "type": "electric_scooter", "name": "bee993902e10a9fd317f2de31b37fdf1", "fusion_lat": 0.0, "rental_uris": {"android": "https://dc.lft.to/lastmile_qr_scan", "ios": "https://dc.lft.to/lastmile_qr_scan"}, "bike_id": "bee993902e10a9fd317f2de31b37fdf1", "is_reserved": 0}, {"lat": 38.9065165, "fusion_lon": 0.0, "lon": -77.04804533333333, "is_disabled": 0, "type": "electric_scooter", "name": "c5043d248cfb6e9fac14699d552e0a29", "fusion_lat": 0.0, "rental_uris": {"android": "https://dc.lft.to/lastmile_qr_scan", "ios": "https://dc.lft.to/lastmile_qr_scan"}, "bike_id": "c5043d248cfb6e9fac14699d552e0a29", "is_reserved": 0}, {"lat": 38.892576, "fusion_lon": 0.0, "lon": -77.0172355, "is_disabled": 0, "type": "electric_scooter", "name": "83837e6de03d329c2becd86f0712987c", "fusion_lat": 0.0, "rental_uris": {"android": "https://dc.lft.to/lastmile_qr_scan", "ios": "https://dc.lft.to/lastmile_qr_scan"}, "bike_id": "83837e6de03d329c2becd86f0712987c", "is_reserved": 0}, {"lat": 38.92652316666667, "fusion_lon": 0.0, "lon": -77.034053, "is_disabled": 0, "type": "electric_scooter", "name": "a566fa6bf97614d458ef839ed277cedf", "fusion_lat": 0.0, "rental_uris": {"android": "https://dc.lft.to/lastmile_qr_scan", "ios": "https://dc.lft.to/lastmile_qr_scan"}, "bike_id": "a566fa6bf97614d458ef839ed277cedf", "is_reserved": 0}, {"lat": 38.89579716666667, "fusion_lon": 0.0, "lon": -77.01576733333333, "is_disabled": 0, "type": "electric_scooter", "name": "9c29a9f9c34b7b99df087052a2a0eea5", "fusion_lat": 0.0, "rental_uris": {"android": "https://dc.lft.to/lastmile_qr_scan", "ios": "https://dc.lft.to/lastmile_qr_scan"}, "bike_id": "9c29a9f9c34b7b99df087052a2a0eea5", "is_reserved": 0}, {"lat": 38.89530366666666, "fusion_lon": 0.0, "lon": -77.02855866666667, "is_disabled": 0, "type": "electric_scooter", "name": "cbb7f345d5377bb86719581b935c1542", "fusion_lat": 0.0, "rental_uris": {"android": "https://dc.lft.to/lastmile_qr_scan", "ios": "https://dc.lft.to/lastmile_qr_scan"}, "bike_id": "cbb7f345d5377bb86719581b935c1542", "is_reserved": 0}, {"lat": 38.91946083333333, "fusion_lon": 0.0, "lon": -77.02501066666666, "is_disabled": 0, "type": "electric_scooter", "name": "ab3c0cf9cb0021ac27a228e8b1818ce5", "fusion_lat": 0.0, "rental_uris": {"android": "https://dc.lft.to/lastmile_qr_scan", "ios": "https://dc.lft.to/lastmile_qr_scan"}, "bike_id": "ab3c0cf9cb0021ac27a228e8b1818ce5", "is_reserved": 0}, {"lat": 38.948706666666666, "fusion_lon": 0.0, "lon": -77.0389035, "is_disabled": 0, "type": "electric_scooter", "name": "6d2b08c86de00937f340c918f05b7e1a", "fusion_lat": 0.0, "rental_uris": {"android": "https://dc.lft.to/lastmile_qr_scan", "ios": "https://dc.lft.to/lastmile_qr_scan"}, "bike_id": "6d2b08c86de00937f340c918f05b7e1a", "is_reserved": 0}, {"lat": 38.890338166666666, "fusion_lon": 0.0, "lon": -77.02978933333333, "is_disabled": 0, "type": "electric_scooter", "name": "7688f5cbde42c51a7340ff687e4806f9", "fusion_lat": 0.0, "rental_uris": {"android": "https://dc.lft.to/lastmile_qr_scan", "ios": "https://dc.lft.to/lastmile_qr_scan"}, "bike_id": "7688f5cbde42c51a7340ff687e4806f9", "is_reserved": 0}, {"lat": 38.918053, "fusion_lon": 0.0, "lon": -77.02495666666667, "is_disabled": 0, "type": "electric_scooter", "name": "fa2bb855642a9e68cec5f898ef708cff", "fusion_lat": 0.0, "rental_uris": {"android": "https://dc.lft.to/lastmile_qr_scan", "ios": "https://dc.lft.to/lastmile_qr_scan"}, "bike_id": "fa2bb855642a9e68cec5f898ef708cff", "is_reserved": 0}, {"lat": 38.894523, "fusion_lon": 0.0, "lon": -76.998385, "is_disabled": 0, "type": "electric_scooter", "name": "4770b84ce04dfd22684a9a7e6bcd06db", "fusion_lat": 0.0, "rental_uris": {"android": "https://dc.lft.to/lastmile_qr_scan", "ios": "https://dc.lft.to/lastmile_qr_scan"}, "bike_id": "4770b84ce04dfd22684a9a7e6bcd06db", "is_reserved": 0}, {"lat": 38.891002, "fusion_lon": 0.0, "lon": -77.00286233333334, "is_disabled": 0, "type": "electric_scooter", "name": "289c9baa1c2cd316c4adfaa0d7aaa0c9", "fusion_lat": 0.0, "rental_uris": {"android": "https://dc.lft.to/lastmile_qr_scan", "ios": "https://dc.lft.to/lastmile_qr_scan"}, "bike_id": "289c9baa1c2cd316c4adfaa0d7aaa0c9", "is_reserved": 0}, {"lat": 38.92459916666667, "fusion_lon": 0.0, "lon": -77.05770416666667, "is_disabled": 0, "type": "electric_scooter", "name": "064006d3677d243148db267fac75a7bf", "fusion_lat": 0.0, "rental_uris": {"android": "https://dc.lft.to/lastmile_qr_scan", "ios": "https://dc.lft.to/lastmile_qr_scan"}, "bike_id": "064006d3677d243148db267fac75a7bf", "is_reserved": 0}, {"lat": 38.863778833333335, "fusion_lon": 0.0, "lon": -76.99063183333334, "is_disabled": 0, "type": "electric_scooter", "name": "d8bbf32695b413dde22fd56511c039c7", "fusion_lat": 0.0, "rental_uris": {"android": "https://dc.lft.to/lastmile_qr_scan", "ios": "https://dc.lft.to/lastmile_qr_scan"}, "bike_id": "d8bbf32695b413dde22fd56511c039c7", "is_reserved": 0}, {"lat": 38.919945, "fusion_lon": 0.0, "lon": -77.02206, "is_disabled": 0, "type": "electric_scooter", "name": "0c4174ec8c18b6e6bcbaa61511cf5a0f", "fusion_lat": 0.0, "rental_uris": {"android": "https://dc.lft.to/lastmile_qr_scan", "ios": "https://dc.lft.to/lastmile_qr_scan"}, "bike_id": "0c4174ec8c18b6e6bcbaa61511cf5a0f", "is_reserved": 0}, {"lat": 38.9219135, "fusion_lon": 0.0, "lon": -77.04237833333333, "is_disabled": 0, "type": "electric_scooter", "name": "a9022c1d1b351380deefd86f386791c0", "fusion_lat": 0.0, "rental_uris": {"android": "https://dc.lft.to/lastmile_qr_scan", "ios": "https://dc.lft.to/lastmile_qr_scan"}, "bike_id": "a9022c1d1b351380deefd86f386791c0", "is_reserved": 0}, {"lat": 38.88959716666667, "fusion_lon": 0.0, "lon": -76.93707683333334, "is_disabled": 0, "type": "electric_scooter", "name": "435dc63d403f0977880755194ef8f949", "fusion_lat": 0.0, "rental_uris": {"android": "https://dc.lft.to/lastmile_qr_scan", "ios": "https://dc.lft.to/lastmile_qr_scan"}, "bike_id": "435dc63d403f0977880755194ef8f949", "is_reserved": 0}, {"lat": 38.913007666666665, "fusion_lon": 0.0, "lon": -76.9847615, "is_disabled": 0, "type": "electric_scooter", "name": "1ca068c28a1e3a8d4b8311cda1272d78", "fusion_lat": 0.0, "rental_uris": {"android": "https://dc.lft.to/lastmile_qr_scan", "ios": "https://dc.lft.to/lastmile_qr_scan"}, "bike_id": "1ca068c28a1e3a8d4b8311cda1272d78", "is_reserved": 0}, {"lat": 38.9217165, "fusion_lon": 0.0, "lon": -77.04705983333334, "is_disabled": 0, "type": "electric_scooter", "name": "a5d8fe4a6f07c88a58961ca68afc5a35", "fusion_lat": 0.0, "rental_uris": {"android": "https://dc.lft.to/lastmile_qr_scan", "ios": "https://dc.lft.to/lastmile_qr_scan"}, "bike_id": "a5d8fe4a6f07c88a58961ca68afc5a35", "is_reserved": 0}, {"lat": 38.894286, "fusion_lon": 0.0, "lon": -76.94879766666666, "is_disabled": 0, "type": "electric_scooter", "name": "c4bbbc52aaf12e6bd4a139307935702c", "fusion_lat": 0.0, "rental_uris": {"android": "https://dc.lft.to/lastmile_qr_scan", "ios": "https://dc.lft.to/lastmile_qr_scan"}, "bike_id": "c4bbbc52aaf12e6bd4a139307935702c", "is_reserved": 0}, {"lat": 38.917596333333336, "fusion_lon": 0.0, "lon": -77.03913966666667, "is_disabled": 0, "type": "electric_scooter", "name": "8b4dd03b1fdfc522d573c2c8843f70f8", "fusion_lat": 0.0, "rental_uris": {"android": "https://dc.lft.to/lastmile_qr_scan", "ios": "https://dc.lft.to/lastmile_qr_scan"}, "bike_id": "8b4dd03b1fdfc522d573c2c8843f70f8", "is_reserved": 0}, {"lat": 38.934063333333334, "fusion_lon": 0.0, "lon": -77.041206, "is_disabled": 0, "type": "electric_scooter", "name": "65e71b83eee19aed4fd042e9418b667c", "fusion_lat": 0.0, "rental_uris": {"android": "https://dc.lft.to/lastmile_qr_scan", "ios": "https://dc.lft.to/lastmile_qr_scan"}, "bike_id": "65e71b83eee19aed4fd042e9418b667c", "is_reserved": 0}, {"lat": 38.915353333333336, "fusion_lon": 0.0, "lon": -77.01266616666666, "is_disabled": 0, "type": "electric_scooter", "name": "b7070afafe60ee942a099a51125c60d7", "fusion_lat": 0.0, "rental_uris": {"android": "https://dc.lft.to/lastmile_qr_scan", "ios": "https://dc.lft.to/lastmile_qr_scan"}, "bike_id": "b7070afafe60ee942a099a51125c60d7", "is_reserved": 0}, {"lat": 38.901778166666666, "fusion_lon": 0.0, "lon": -77.0477275, "is_disabled": 0, "type": "electric_scooter", "name": "e612d2257a491d2f716ac834f984f4ae", "fusion_lat": 0.0, "rental_uris": {"android": "https://dc.lft.to/lastmile_qr_scan", "ios": "https://dc.lft.to/lastmile_qr_scan"}, "bike_id": "e612d2257a491d2f716ac834f984f4ae", "is_reserved": 0}, {"lat": 38.8922065, "fusion_lon": 0.0, "lon": -77.04261566666666, "is_disabled": 0, "type": "electric_scooter", "name": "75347a67213ef2b7af0d26d7ae5458ea", "fusion_lat": 0.0, "rental_uris": {"android": "https://dc.lft.to/lastmile_qr_scan", "ios": "https://dc.lft.to/lastmile_qr_scan"}, "bike_id": "75347a67213ef2b7af0d26d7ae5458ea", "is_reserved": 0}, {"lat": 38.92382766666667, "fusion_lon": 0.0, "lon": -77.03649516666667, "is_disabled": 0, "type": "electric_scooter", "name": "c773c92ad2a578e49f6c618a6a9f4113", "fusion_lat": 0.0, "rental_uris": {"android": "https://dc.lft.to/lastmile_qr_scan", "ios": "https://dc.lft.to/lastmile_qr_scan"}, "bike_id": "c773c92ad2a578e49f6c618a6a9f4113", "is_reserved": 0}, {"lat": 38.87977683333333, "fusion_lon": 0.0, "lon": -77.01378966666667, "is_disabled": 0, "type": "electric_scooter", "name": "c2db09c16666128c955608fcb89bba0a", "fusion_lat": 0.0, "rental_uris": {"android": "https://dc.lft.to/lastmile_qr_scan", "ios": "https://dc.lft.to/lastmile_qr_scan"}, "bike_id": "c2db09c16666128c955608fcb89bba0a", "is_reserved": 0}, {"lat": 38.9484055, "fusion_lon": 0.0, "lon": -77.02543183333333, "is_disabled": 0, "type": "electric_scooter", "name": "1a4f47a75f7547bcc99ef65a6de679eb", "fusion_lat": 0.0, "rental_uris": {"android": "https://dc.lft.to/lastmile_qr_scan", "ios": "https://dc.lft.to/lastmile_qr_scan"}, "bike_id": "1a4f47a75f7547bcc99ef65a6de679eb", "is_reserved": 0}, {"lat": 38.92719833333334, "fusion_lon": 0.0, "lon": -77.0229095, "is_disabled": 0, "type": "electric_scooter", "name": "0f99ec8977f0b3888358e01f25305ebb", "fusion_lat": 0.0, "rental_uris": {"android": "https://dc.lft.to/lastmile_qr_scan", "ios": "https://dc.lft.to/lastmile_qr_scan"}, "bike_id": "0f99ec8977f0b3888358e01f25305ebb", "is_reserved": 0}, {"lat": 38.89736533333333, "fusion_lon": 0.0, "lon": -76.9472885, "is_disabled": 0, "type": "electric_scooter", "name": "02280a91b479c6ec67c6306944af4b58", "fusion_lat": 0.0, "rental_uris": {"android": "https://dc.lft.to/lastmile_qr_scan", "ios": "https://dc.lft.to/lastmile_qr_scan"}, "bike_id": "02280a91b479c6ec67c6306944af4b58", "is_reserved": 0}, {"lat": 38.90878516666667, "fusion_lon": 0.0, "lon": -77.07171966666667, "is_disabled": 0, "type": "electric_scooter", "name": "b8955bf84cb43513c2de76e8df3dac4f", "fusion_lat": 0.0, "rental_uris": {"android": "https://dc.lft.to/lastmile_qr_scan", "ios": "https://dc.lft.to/lastmile_qr_scan"}, "bike_id": "b8955bf84cb43513c2de76e8df3dac4f", "is_reserved": 0}, {"lat": 38.9110265, "fusion_lon": 0.0, "lon": -77.04669166666666, "is_disabled": 0, "type": "electric_scooter", "name": "23752bce30ba128eb36dfbe636ed148a", "fusion_lat": 0.0, "rental_uris": {"android": "https://dc.lft.to/lastmile_qr_scan", "ios": "https://dc.lft.to/lastmile_qr_scan"}, "bike_id": "23752bce30ba128eb36dfbe636ed148a", "is_reserved": 0}, {"lat": 38.900338166666664, "fusion_lon": 0.0, "lon": -77.03214966666667, "is_disabled": 0, "type": "electric_scooter", "name": "24836f14e01847273d8e819ca530e506", "fusion_lat": 0.0, "rental_uris": {"android": "https://dc.lft.to/lastmile_qr_scan", "ios": "https://dc.lft.to/lastmile_qr_scan"}, "bike_id": "24836f14e01847273d8e819ca530e506", "is_reserved": 0}, {"lat": 38.949568666666664, "fusion_lon": 0.0, "lon": -77.02724633333334, "is_disabled": 0, "type": "electric_scooter", "name": "6dcab6616f85a518d0fc0bcd32072a1f", "fusion_lat": 0.0, "rental_uris": {"android": "https://dc.lft.to/lastmile_qr_scan", "ios": "https://dc.lft.to/lastmile_qr_scan"}, "bike_id": "6dcab6616f85a518d0fc0bcd32072a1f", "is_reserved": 0}, {"lat": 38.9071035, "fusion_lon": 0.0, "lon": -77.07418383333334, "is_disabled": 0, "type": "electric_scooter", "name": "8cf77c87d1a86a69501655e3366a50ca", "fusion_lat": 0.0, "rental_uris": {"android": "https://dc.lft.to/lastmile_qr_scan", "ios": "https://dc.lft.to/lastmile_qr_scan"}, "bike_id": "8cf77c87d1a86a69501655e3366a50ca", "is_reserved": 0}, {"lat": 38.9138445, "fusion_lon": 0.0, "lon": -77.0893175, "is_disabled": 0, "type": "electric_bike", "name": "d7e799a934f51a2deb148f74e807ba7f", "fusion_lat": 0.0, "rental_uris": {"android": "https://dc.lft.to/lastmile_qr_scan", "ios": "https://dc.lft.to/lastmile_qr_scan"}, "bike_id": "d7e799a934f51a2deb148f74e807ba7f", "is_reserved": 0}, {"lat": 38.91322066666667, "fusion_lon": 0.0, "lon": -77.015166, "is_disabled": 0, "type": "electric_scooter", "name": "67dee41431692a9de6d740a77d1d0f7a", "fusion_lat": 0.0, "rental_uris": {"android": "https://dc.lft.to/lastmile_qr_scan", "ios": "https://dc.lft.to/lastmile_qr_scan"}, "bike_id": "67dee41431692a9de6d740a77d1d0f7a", "is_reserved": 0}, {"lat": 38.93887083333333, "fusion_lon": 0.0, "lon": -77.03313233333333, "is_disabled": 0, "type": "electric_scooter", "name": "7c83902e3365f9ff58339143b759fca3", "fusion_lat": 0.0, "rental_uris": {"android": "https://dc.lft.to/lastmile_qr_scan", "ios": "https://dc.lft.to/lastmile_qr_scan"}, "bike_id": "7c83902e3365f9ff58339143b759fca3", "is_reserved": 0}, {"lat": 38.84284316666667, "fusion_lon": 0.0, "lon": -77.001418, "is_disabled": 0, "type": "electric_scooter", "name": "63b24c45ac5c28a542e22ae86174a0b3", "fusion_lat": 0.0, "rental_uris": {"android": "https://dc.lft.to/lastmile_qr_scan", "ios": "https://dc.lft.to/lastmile_qr_scan"}, "bike_id": "63b24c45ac5c28a542e22ae86174a0b3", "is_reserved": 0}, {"lat": 38.90141416666667, "fusion_lon": 0.0, "lon": -77.00015983333333, "is_disabled": 0, "type": "electric_scooter", "name": "665c4e9f3a4465a87f1dc142d7763cd1", "fusion_lat": 0.0, "rental_uris": {"android": "https://dc.lft.to/lastmile_qr_scan", "ios": "https://dc.lft.to/lastmile_qr_scan"}, "bike_id": "665c4e9f3a4465a87f1dc142d7763cd1", "is_reserved": 0}, {"lat": 38.89908233333333, "fusion_lon": 0.0, "lon": -76.93372933333333, "is_disabled": 0, "type": "electric_scooter", "name": "90bdb7b2ccc04a31038fcec51f512ffc", "fusion_lat": 0.0, "rental_uris": {"android": "https://dc.lft.to/lastmile_qr_scan", "ios": "https://dc.lft.to/lastmile_qr_scan"}, "bike_id": "90bdb7b2ccc04a31038fcec51f512ffc", "is_reserved": 0}, {"lat": 38.9203925, "fusion_lon": 0.0, "lon": -77.01730783333333, "is_disabled": 0, "type": "electric_scooter", "name": "3812471b817d4795edd183e9e5fa2b5b", "fusion_lat": 0.0, "rental_uris": {"android": "https://dc.lft.to/lastmile_qr_scan", "ios": "https://dc.lft.to/lastmile_qr_scan"}, "bike_id": "3812471b817d4795edd183e9e5fa2b5b", "is_reserved": 0}, {"lat": 38.9050085, "fusion_lon": 0.0, "lon": -76.980763, "is_disabled": 0, "type": "electric_scooter", "name": "91ad686f6614a8ddcd1736366abeb7b9", "fusion_lat": 0.0, "rental_uris": {"android": "https://dc.lft.to/lastmile_qr_scan", "ios": "https://dc.lft.to/lastmile_qr_scan"}, "bike_id": "91ad686f6614a8ddcd1736366abeb7b9", "is_reserved": 0}, {"lat": 38.937757500000004, "fusion_lon": 0.0, "lon": -77.0188285, "is_disabled": 0, "type": "electric_bike", "name": "6b4f0608156b7892204cac8a5988e94a", "fusion_lat": 0.0, "rental_uris": {"android": "https://dc.lft.to/lastmile_qr_scan", "ios": "https://dc.lft.to/lastmile_qr_scan"}, "bike_id": "6b4f0608156b7892204cac8a5988e94a", "is_reserved": 0}, {"lat": 38.91524366666667, "fusion_lon": 0.0, "lon": -77.03208166666667, "is_disabled": 0, "type": "electric_scooter", "name": "a3ae1063e57530027c27e75bc85db8df", "fusion_lat": 0.0, "rental_uris": {"android": "https://dc.lft.to/lastmile_qr_scan", "ios": "https://dc.lft.to/lastmile_qr_scan"}, "bike_id": "a3ae1063e57530027c27e75bc85db8df", "is_reserved": 0}, {"lat": 38.90489083333333, "fusion_lon": 0.0, "lon": -77.03855783333333, "is_disabled": 0, "type": "electric_scooter", "name": "b49bc75c8e1e167d19d5d86010932131", "fusion_lat": 0.0, "rental_uris": {"android": "https://dc.lft.to/lastmile_qr_scan", "ios": "https://dc.lft.to/lastmile_qr_scan"}, "bike_id": "b49bc75c8e1e167d19d5d86010932131", "is_reserved": 0}, {"lat": 38.90584033333333, "fusion_lon": 0.0, "lon": -77.0409985, "is_disabled": 0, "type": "electric_scooter", "name": "c6c8e503ac867d4cb3469b2e755f07c5", "fusion_lat": 0.0, "rental_uris": {"android": "https://dc.lft.to/lastmile_qr_scan", "ios": "https://dc.lft.to/lastmile_qr_scan"}, "bike_id": "c6c8e503ac867d4cb3469b2e755f07c5", "is_reserved": 0}, {"lat": 38.9168605, "fusion_lon": 0.0, "lon": -77.02377566666667, "is_disabled": 0, "type": "electric_scooter", "name": "4d391e9dbb4e46db97f10575d1463609", "fusion_lat": 0.0, "rental_uris": {"android": "https://dc.lft.to/lastmile_qr_scan", "ios": "https://dc.lft.to/lastmile_qr_scan"}, "bike_id": "4d391e9dbb4e46db97f10575d1463609", "is_reserved": 0}, {"lat": 38.936350166666664, "fusion_lon": 0.0, "lon": -77.08175433333334, "is_disabled": 0, "type": "electric_scooter", "name": "d4f9736db9227fe381cf16acc31e7333", "fusion_lat": 0.0, "rental_uris": {"android": "https://dc.lft.to/lastmile_qr_scan", "ios": "https://dc.lft.to/lastmile_qr_scan"}, "bike_id": "d4f9736db9227fe381cf16acc31e7333", "is_reserved": 0}, {"lat": 38.9244225, "fusion_lon": 0.0, "lon": -77.021344, "is_disabled": 0, "type": "electric_scooter", "name": "14ad75eb9f13034fe58d6b9c9299bbe3", "fusion_lat": 0.0, "rental_uris": {"android": "https://dc.lft.to/lastmile_qr_scan", "ios": "https://dc.lft.to/lastmile_qr_scan"}, "bike_id": "14ad75eb9f13034fe58d6b9c9299bbe3", "is_reserved": 0}, {"lat": 38.8971445, "fusion_lon": 0.0, "lon": -77.03060466666666, "is_disabled": 0, "type": "electric_scooter", "name": "c459641a21cae54106f4ce6938e8323a", "fusion_lat": 0.0, "rental_uris": {"android": "https://dc.lft.to/lastmile_qr_scan", "ios": "https://dc.lft.to/lastmile_qr_scan"}, "bike_id": "c459641a21cae54106f4ce6938e8323a", "is_reserved": 0}, {"lat": 38.99635516666667, "fusion_lon": 0.0, "lon": -77.03998216666666, "is_disabled": 0, "type": "electric_bike", "name": "6e7ff9df219ebf61095b89f26d58b801", "fusion_lat": 0.0, "rental_uris": {"android": "https://dc.lft.to/lastmile_qr_scan", "ios": "https://dc.lft.to/lastmile_qr_scan"}, "bike_id": "6e7ff9df219ebf61095b89f26d58b801", "is_reserved": 0}, {"lat": 38.9008105, "fusion_lon": 0.0, "lon": -76.93869633333334, "is_disabled": 0, "type": "electric_scooter", "name": "b0dc716003757209867be18fc4ce3a66", "fusion_lat": 0.0, "rental_uris": {"android": "https://dc.lft.to/lastmile_qr_scan", "ios": "https://dc.lft.to/lastmile_qr_scan"}, "bike_id": "b0dc716003757209867be18fc4ce3a66", "is_reserved": 0}, {"lat": 38.90023816666667, "fusion_lon": 0.0, "lon": -76.98904716666667, "is_disabled": 0, "type": "electric_scooter", "name": "17e9626a6263c7c3d7016a3bf6f194fd", "fusion_lat": 0.0, "rental_uris": {"android": "https://dc.lft.to/lastmile_qr_scan", "ios": "https://dc.lft.to/lastmile_qr_scan"}, "bike_id": "17e9626a6263c7c3d7016a3bf6f194fd", "is_reserved": 0}, {"lat": 38.9190275, "fusion_lon": 0.0, "lon": -76.98743966666666, "is_disabled": 0, "type": "electric_scooter", "name": "8d87b08007cc1f9770454979e0aafa07", "fusion_lat": 0.0, "rental_uris": {"android": "https://dc.lft.to/lastmile_qr_scan", "ios": "https://dc.lft.to/lastmile_qr_scan"}, "bike_id": "8d87b08007cc1f9770454979e0aafa07", "is_reserved": 0}, {"lat": 38.891859833333335, "fusion_lon": 0.0, "lon": -77.036374, "is_disabled": 0, "type": "electric_scooter", "name": "a16fdaf6f79abb6c85e6a879c9f9d152", "fusion_lat": 0.0, "rental_uris": {"android": "https://dc.lft.to/lastmile_qr_scan", "ios": "https://dc.lft.to/lastmile_qr_scan"}, "bike_id": "a16fdaf6f79abb6c85e6a879c9f9d152", "is_reserved": 0}, {"lat": 38.904890333333334, "fusion_lon": 0.0, "lon": -77.04659516666666, "is_disabled": 0, "type": "electric_scooter", "name": "593948cddf4c393a50f274de702a8ae4", "fusion_lat": 0.0, "rental_uris": {"android": "https://dc.lft.to/lastmile_qr_scan", "ios": "https://dc.lft.to/lastmile_qr_scan"}, "bike_id": "593948cddf4c393a50f274de702a8ae4", "is_reserved": 0}, {"lat": 38.90661016666667, "fusion_lon": 0.0, "lon": -77.0417465, "is_disabled": 0, "type": "electric_scooter", "name": "ef35de69ce0f41a2df4373f9a0531abc", "fusion_lat": 0.0, "rental_uris": {"android": "https://dc.lft.to/lastmile_qr_scan", "ios": "https://dc.lft.to/lastmile_qr_scan"}, "bike_id": "ef35de69ce0f41a2df4373f9a0531abc", "is_reserved": 0}, {"lat": 38.872840333333336, "fusion_lon": 0.0, "lon": -76.97731783333333, "is_disabled": 0, "type": "electric_scooter", "name": "6ed275238192076e584024443301c8f8", "fusion_lat": 0.0, "rental_uris": {"android": "https://dc.lft.to/lastmile_qr_scan", "ios": "https://dc.lft.to/lastmile_qr_scan"}, "bike_id": "6ed275238192076e584024443301c8f8", "is_reserved": 0}, {"lat": 38.887645, "fusion_lon": 0.0, "lon": -77.0177305, "is_disabled": 0, "type": "electric_scooter", "name": "b1e9a453ef4b8eb0c51bf5941dff1f0e", "fusion_lat": 0.0, "rental_uris": {"android": "https://dc.lft.to/lastmile_qr_scan", "ios": "https://dc.lft.to/lastmile_qr_scan"}, "bike_id": "b1e9a453ef4b8eb0c51bf5941dff1f0e", "is_reserved": 0}, {"lat": 38.908682166666665, "fusion_lon": 0.0, "lon": -77.04857666666666, "is_disabled": 0, "type": "electric_scooter", "name": "89e0dce13d3b60475ab1edf7491415d3", "fusion_lat": 0.0, "rental_uris": {"android": "https://dc.lft.to/lastmile_qr_scan", "ios": "https://dc.lft.to/lastmile_qr_scan"}, "bike_id": "89e0dce13d3b60475ab1edf7491415d3", "is_reserved": 0}, {"lat": 38.8922265, "fusion_lon": 0.0, "lon": -77.03342916666666, "is_disabled": 0, "type": "electric_scooter", "name": "b80497840e34a03b0317b31270388a93", "fusion_lat": 0.0, "rental_uris": {"android": "https://dc.lft.to/lastmile_qr_scan", "ios": "https://dc.lft.to/lastmile_qr_scan"}, "bike_id": "b80497840e34a03b0317b31270388a93", "is_reserved": 0}, {"lat": 38.92256783333333, "fusion_lon": 0.0, "lon": -77.07030233333333, "is_disabled": 0, "type": "electric_scooter", "name": "82ad58111730ed494aed9e9c1c6d4464", "fusion_lat": 0.0, "rental_uris": {"android": "https://dc.lft.to/lastmile_qr_scan", "ios": "https://dc.lft.to/lastmile_qr_scan"}, "bike_id": "82ad58111730ed494aed9e9c1c6d4464", "is_reserved": 0}, {"lat": 38.89215633333333, "fusion_lon": 0.0, "lon": -77.045035, "is_disabled": 0, "type": "electric_scooter", "name": "779570cacd2b25065c882ddc5f0453ed", "fusion_lat": 0.0, "rental_uris": {"android": "https://dc.lft.to/lastmile_qr_scan", "ios": "https://dc.lft.to/lastmile_qr_scan"}, "bike_id": "779570cacd2b25065c882ddc5f0453ed", "is_reserved": 0}, {"lat": 38.8278525, "fusion_lon": 0.0, "lon": -77.00918533333333, "is_disabled": 0, "type": "electric_bike", "name": "2da1402e27a4176ae048a2bb56c51acf", "fusion_lat": 0.0, "rental_uris": {"android": "https://dc.lft.to/lastmile_qr_scan", "ios": "https://dc.lft.to/lastmile_qr_scan"}, "bike_id": "2da1402e27a4176ae048a2bb56c51acf", "is_reserved": 0}, {"lat": 38.90282333333333, "fusion_lon": 0.0, "lon": -77.04630516666667, "is_disabled": 0, "type": "electric_scooter", "name": "635df275d49d6d89135f52502443a3aa", "fusion_lat": 0.0, "rental_uris": {"android": "https://dc.lft.to/lastmile_qr_scan", "ios": "https://dc.lft.to/lastmile_qr_scan"}, "bike_id": "635df275d49d6d89135f52502443a3aa", "is_reserved": 0}, {"lat": 38.923606166666666, "fusion_lon": 0.0, "lon": -77.050495, "is_disabled": 0, "type": "electric_scooter", "name": "0abe29f669429b903686b1afc25b4e81", "fusion_lat": 0.0, "rental_uris": {"android": "https://dc.lft.to/lastmile_qr_scan", "ios": "https://dc.lft.to/lastmile_qr_scan"}, "bike_id": "0abe29f669429b903686b1afc25b4e81", "is_reserved": 0}, {"lat": 38.90506633333333, "fusion_lon": 0.0, "lon": -76.98484966666666, "is_disabled": 0, "type": "electric_scooter", "name": "5471795a2f9460a8df7da691bdfe85d1", "fusion_lat": 0.0, "rental_uris": {"android": "https://dc.lft.to/lastmile_qr_scan", "ios": "https://dc.lft.to/lastmile_qr_scan"}, "bike_id": "5471795a2f9460a8df7da691bdfe85d1", "is_reserved": 0}, {"lat": 38.90146383333333, "fusion_lon": 0.0, "lon": -77.03983083333334, "is_disabled": 0, "type": "electric_scooter", "name": "f6fafb5ab463ce4cbbb8a42552beae1e", "fusion_lat": 0.0, "rental_uris": {"android": "https://dc.lft.to/lastmile_qr_scan", "ios": "https://dc.lft.to/lastmile_qr_scan"}, "bike_id": "f6fafb5ab463ce4cbbb8a42552beae1e", "is_reserved": 0}, {"lat": 38.89482533333333, "fusion_lon": 0.0, "lon": -77.02737083333334, "is_disabled": 0, "type": "electric_scooter", "name": "466d222742834d65e5ecd26353258ea8", "fusion_lat": 0.0, "rental_uris": {"android": "https://dc.lft.to/lastmile_qr_scan", "ios": "https://dc.lft.to/lastmile_qr_scan"}, "bike_id": "466d222742834d65e5ecd26353258ea8", "is_reserved": 0}, {"lat": 38.89718516666667, "fusion_lon": 0.0, "lon": -77.0079495, "is_disabled": 0, "type": "electric_scooter", "name": "65c6a4b5a7aae9d38ac9cab6f3118e0f", "fusion_lat": 0.0, "rental_uris": {"android": "https://dc.lft.to/lastmile_qr_scan", "ios": "https://dc.lft.to/lastmile_qr_scan"}, "bike_id": "65c6a4b5a7aae9d38ac9cab6f3118e0f", "is_reserved": 0}, {"lat": 38.9168205, "fusion_lon": 0.0, "lon": -77.02808166666667, "is_disabled": 0, "type": "electric_scooter", "name": "b173546aec65756aea4610822f07d4ea", "fusion_lat": 0.0, "rental_uris": {"android": "https://dc.lft.to/lastmile_qr_scan", "ios": "https://dc.lft.to/lastmile_qr_scan"}, "bike_id": "b173546aec65756aea4610822f07d4ea", "is_reserved": 0}, {"lat": 38.916787166666666, "fusion_lon": 0.0, "lon": -77.02804333333333, "is_disabled": 0, "type": "electric_scooter", "name": "b523ceaf69323f029a311c89fcae99f2", "fusion_lat": 0.0, "rental_uris": {"android": "https://dc.lft.to/lastmile_qr_scan", "ios": "https://dc.lft.to/lastmile_qr_scan"}, "bike_id": "b523ceaf69323f029a311c89fcae99f2", "is_reserved": 0}, {"lat": 38.88521883333333, "fusion_lon": 0.0, "lon": -77.01583783333334, "is_disabled": 0, "type": "electric_scooter", "name": "20564b98384f0eee8945138947272fc7", "fusion_lat": 0.0, "rental_uris": {"android": "https://dc.lft.to/lastmile_qr_scan", "ios": "https://dc.lft.to/lastmile_qr_scan"}, "bike_id": "20564b98384f0eee8945138947272fc7", "is_reserved": 0}, {"lat": 38.956123166666664, "fusion_lon": 0.0, "lon": -77.027837, "is_disabled": 0, "type": "electric_scooter", "name": "d0ec67c7db36aa61fb214fa148036577", "fusion_lat": 0.0, "rental_uris": {"android": "https://dc.lft.to/lastmile_qr_scan", "ios": "https://dc.lft.to/lastmile_qr_scan"}, "bike_id": "d0ec67c7db36aa61fb214fa148036577", "is_reserved": 0}, {"lat": 38.8718645, "fusion_lon": 0.0, "lon": -77.00581216666667, "is_disabled": 0, "type": "electric_scooter", "name": "9c411cd23f046ae9d0b427a59c4f75eb", "fusion_lat": 0.0, "rental_uris": {"android": "https://dc.lft.to/lastmile_qr_scan", "ios": "https://dc.lft.to/lastmile_qr_scan"}, "bike_id": "9c411cd23f046ae9d0b427a59c4f75eb", "is_reserved": 0}, {"lat": 38.92508983333333, "fusion_lon": 0.0, "lon": -77.0022445, "is_disabled": 0, "type": "electric_scooter", "name": "240b01916bc6ccd481b005af185ad7ec", "fusion_lat": 0.0, "rental_uris": {"android": "https://dc.lft.to/lastmile_qr_scan", "ios": "https://dc.lft.to/lastmile_qr_scan"}, "bike_id": "240b01916bc6ccd481b005af185ad7ec", "is_reserved": 0}, {"lat": 38.86504933333333, "fusion_lon": 0.0, "lon": -76.99001216666667, "is_disabled": 0, "type": "electric_scooter", "name": "aaf41744a25b305c0340b2b94f3de0cd", "fusion_lat": 0.0, "rental_uris": {"android": "https://dc.lft.to/lastmile_qr_scan", "ios": "https://dc.lft.to/lastmile_qr_scan"}, "bike_id": "aaf41744a25b305c0340b2b94f3de0cd", "is_reserved": 0}, {"lat": 38.94203816666667, "fusion_lon": 0.0, "lon": -77.02501333333333, "is_disabled": 0, "type": "electric_scooter", "name": "ec85c5d25094c7e32a010437dca80616", "fusion_lat": 0.0, "rental_uris": {"android": "https://dc.lft.to/lastmile_qr_scan", "ios": "https://dc.lft.to/lastmile_qr_scan"}, "bike_id": "ec85c5d25094c7e32a010437dca80616", "is_reserved": 0}, {"lat": 38.900831333333336, "fusion_lon": 0.0, "lon": -76.9302835, "is_disabled": 0, "type": "electric_scooter", "name": "e51bb60c2e58c7c83b40a9a843d76364", "fusion_lat": 0.0, "rental_uris": {"android": "https://dc.lft.to/lastmile_qr_scan", "ios": "https://dc.lft.to/lastmile_qr_scan"}, "bike_id": "e51bb60c2e58c7c83b40a9a843d76364", "is_reserved": 0}, {"lat": 38.89914, "fusion_lon": 0.0, "lon": -77.0327095, "is_disabled": 0, "type": "electric_scooter", "name": "6a27940dba69f7af51bc4d658e8b61a3", "fusion_lat": 0.0, "rental_uris": {"android": "https://dc.lft.to/lastmile_qr_scan", "ios": "https://dc.lft.to/lastmile_qr_scan"}, "bike_id": "6a27940dba69f7af51bc4d658e8b61a3", "is_reserved": 0}, {"lat": 38.9113055, "fusion_lon": 0.0, "lon": -77.04417516666666, "is_disabled": 0, "type": "electric_scooter", "name": "d14ffe755c908286498795739643f41b", "fusion_lat": 0.0, "rental_uris": {"android": "https://dc.lft.to/lastmile_qr_scan", "ios": "https://dc.lft.to/lastmile_qr_scan"}, "bike_id": "d14ffe755c908286498795739643f41b", "is_reserved": 0}, {"lat": 38.886104, "fusion_lon": 0.0, "lon": -77.01982733333334, "is_disabled": 0, "type": "electric_scooter", "name": "7bcc97af02601b8997fafcd3c32e6bd6", "fusion_lat": 0.0, "rental_uris": {"android": "https://dc.lft.to/lastmile_qr_scan", "ios": "https://dc.lft.to/lastmile_qr_scan"}, "bike_id": "7bcc97af02601b8997fafcd3c32e6bd6", "is_reserved": 0}, {"lat": 38.9575975, "fusion_lon": 0.0, "lon": -77.0071015, "is_disabled": 0, "type": "electric_bike", "name": "3ef742c8321c245010648a03a17de6cd", "fusion_lat": 0.0, "rental_uris": {"android": "https://dc.lft.to/lastmile_qr_scan", "ios": "https://dc.lft.to/lastmile_qr_scan"}, "bike_id": "3ef742c8321c245010648a03a17de6cd", "is_reserved": 0}, {"lat": 38.89199683333333, "fusion_lon": 0.0, "lon": -76.95696516666666, "is_disabled": 0, "type": "electric_scooter", "name": "1a2edeb4ce28dbddba1792f03d740640", "fusion_lat": 0.0, "rental_uris": {"android": "https://dc.lft.to/lastmile_qr_scan", "ios": "https://dc.lft.to/lastmile_qr_scan"}, "bike_id": "1a2edeb4ce28dbddba1792f03d740640", "is_reserved": 0}, {"lat": 38.9054025, "fusion_lon": 0.0, "lon": -77.04998883333333, "is_disabled": 0, "type": "electric_scooter", "name": "8e62696ba66c0da401d02f870cd53d0f", "fusion_lat": 0.0, "rental_uris": {"android": "https://dc.lft.to/lastmile_qr_scan", "ios": "https://dc.lft.to/lastmile_qr_scan"}, "bike_id": "8e62696ba66c0da401d02f870cd53d0f", "is_reserved": 0}, {"lat": 38.905039, "fusion_lon": 0.0, "lon": -76.97927033333333, "is_disabled": 0, "type": "electric_scooter", "name": "d474c7bdafd2ad5c372ace879881f9a9", "fusion_lat": 0.0, "rental_uris": {"android": "https://dc.lft.to/lastmile_qr_scan", "ios": "https://dc.lft.to/lastmile_qr_scan"}, "bike_id": "d474c7bdafd2ad5c372ace879881f9a9", "is_reserved": 0}, {"lat": 38.90367216666667, "fusion_lon": 0.0, "lon": -77.03681933333333, "is_disabled": 0, "type": "electric_scooter", "name": "a01ce1690b862cb9b893f18a5b66e52e", "fusion_lat": 0.0, "rental_uris": {"android": "https://dc.lft.to/lastmile_qr_scan", "ios": "https://dc.lft.to/lastmile_qr_scan"}, "bike_id": "a01ce1690b862cb9b893f18a5b66e52e", "is_reserved": 0}, {"lat": 38.8955675, "fusion_lon": 0.0, "lon": -76.94878116666666, "is_disabled": 0, "type": "electric_scooter", "name": "1cd7900c3e2fe5d0b4086b29dde5f2a9", "fusion_lat": 0.0, "rental_uris": {"android": "https://dc.lft.to/lastmile_qr_scan", "ios": "https://dc.lft.to/lastmile_qr_scan"}, "bike_id": "1cd7900c3e2fe5d0b4086b29dde5f2a9", "is_reserved": 0}, {"lat": 38.897366833333336, "fusion_lon": 0.0, "lon": -76.99871233333333, "is_disabled": 0, "type": "electric_scooter", "name": "fa128172da6658e8891559ed9b9e4d64", "fusion_lat": 0.0, "rental_uris": {"android": "https://dc.lft.to/lastmile_qr_scan", "ios": "https://dc.lft.to/lastmile_qr_scan"}, "bike_id": "fa128172da6658e8891559ed9b9e4d64", "is_reserved": 0}, {"lat": 38.899151833333335, "fusion_lon": 0.0, "lon": -76.93381366666667, "is_disabled": 0, "type": "electric_scooter", "name": "c953788ef2766854d045ba6c74b6becf", "fusion_lat": 0.0, "rental_uris": {"android": "https://dc.lft.to/lastmile_qr_scan", "ios": "https://dc.lft.to/lastmile_qr_scan"}, "bike_id": "c953788ef2766854d045ba6c74b6becf", "is_reserved": 0}, {"lat": 38.89539033333333, "fusion_lon": 0.0, "lon": -77.02853933333333, "is_disabled": 0, "type": "electric_scooter", "name": "fe75465b6c5febc08d7bf9428483eba1", "fusion_lat": 0.0, "rental_uris": {"android": "https://dc.lft.to/lastmile_qr_scan", "ios": "https://dc.lft.to/lastmile_qr_scan"}, "bike_id": "fe75465b6c5febc08d7bf9428483eba1", "is_reserved": 0}, {"lat": 38.91222483333333, "fusion_lon": 0.0, "lon": -77.02270266666666, "is_disabled": 0, "type": "electric_scooter", "name": "a70266337bb903afafc165d0921476c9", "fusion_lat": 0.0, "rental_uris": {"android": "https://dc.lft.to/lastmile_qr_scan", "ios": "https://dc.lft.to/lastmile_qr_scan"}, "bike_id": "a70266337bb903afafc165d0921476c9", "is_reserved": 0}, {"lat": 38.8955885, "fusion_lon": 0.0, "lon": -77.02855183333334, "is_disabled": 0, "type": "electric_scooter", "name": "b6c53ffb01e3efb4aa7141512b51b80b", "fusion_lat": 0.0, "rental_uris": {"android": "https://dc.lft.to/lastmile_qr_scan", "ios": "https://dc.lft.to/lastmile_qr_scan"}, "bike_id": "b6c53ffb01e3efb4aa7141512b51b80b", "is_reserved": 0}, {"lat": 38.875069333333336, "fusion_lon": 0.0, "lon": -77.00081316666666, "is_disabled": 0, "type": "electric_scooter", "name": "ed28e8313ba27eaac48f8f9a540889df", "fusion_lat": 0.0, "rental_uris": {"android": "https://dc.lft.to/lastmile_qr_scan", "ios": "https://dc.lft.to/lastmile_qr_scan"}, "bike_id": "ed28e8313ba27eaac48f8f9a540889df", "is_reserved": 0}, {"lat": 38.9126375, "fusion_lon": 0.0, "lon": -77.07277333333333, "is_disabled": 0, "type": "electric_scooter", "name": "db55a7176b538ce88c84a79cccc5b0a1", "fusion_lat": 0.0, "rental_uris": {"android": "https://dc.lft.to/lastmile_qr_scan", "ios": "https://dc.lft.to/lastmile_qr_scan"}, "bike_id": "db55a7176b538ce88c84a79cccc5b0a1", "is_reserved": 0}, {"lat": 38.923573833333336, "fusion_lon": 0.0, "lon": -77.050383, "is_disabled": 0, "type": "electric_scooter", "name": "51aaa040c78620f980d1d62d32b0808c", "fusion_lat": 0.0, "rental_uris": {"android": "https://dc.lft.to/lastmile_qr_scan", "ios": "https://dc.lft.to/lastmile_qr_scan"}, "bike_id": "51aaa040c78620f980d1d62d32b0808c", "is_reserved": 0}, {"lat": 38.90052766666667, "fusion_lon": 0.0, "lon": -77.04883933333333, "is_disabled": 0, "type": "electric_scooter", "name": "6460281dd8e9b3c89f552376c7c7ae97", "fusion_lat": 0.0, "rental_uris": {"android": "https://dc.lft.to/lastmile_qr_scan", "ios": "https://dc.lft.to/lastmile_qr_scan"}, "bike_id": "6460281dd8e9b3c89f552376c7c7ae97", "is_reserved": 0}, {"lat": 38.854183166666665, "fusion_lon": 0.0, "lon": -77.12076516666667, "is_disabled": 0, "type": "electric_bike", "name": "b2edf11bf0917a090f5da77dab23e088", "fusion_lat": 0.0, "rental_uris": {"android": "https://dc.lft.to/lastmile_qr_scan", "ios": "https://dc.lft.to/lastmile_qr_scan"}, "bike_id": "b2edf11bf0917a090f5da77dab23e088", "is_reserved": 0}, {"lat": 38.893548, "fusion_lon": 0.0, "lon": -77.18735216666667, "is_disabled": 0, "type": "electric_bike", "name": "3ab3d73c38646ca36ffcf007548c8652", "fusion_lat": 0.0, "rental_uris": {"android": "https://dc.lft.to/lastmile_qr_scan", "ios": "https://dc.lft.to/lastmile_qr_scan"}, "bike_id": "3ab3d73c38646ca36ffcf007548c8652", "is_reserved": 0}, {"lat": 38.910705166666666, "fusion_lon": 0.0, "lon": -77.044885, "is_disabled": 0, "type": "electric_scooter", "name": "5a1acc254daa05898d0d0ae905dec7f5", "fusion_lat": 0.0, "rental_uris": {"android": "https://dc.lft.to/lastmile_qr_scan", "ios": "https://dc.lft.to/lastmile_qr_scan"}, "bike_id": "5a1acc254daa05898d0d0ae905dec7f5", "is_reserved": 0}, {"lat": 38.918455, "fusion_lon": 0.0, "lon": -76.96553833333333, "is_disabled": 0, "type": "electric_scooter", "name": "05501fa5342e099660052c69aae027ab", "fusion_lat": 0.0, "rental_uris": {"android": "https://dc.lft.to/lastmile_qr_scan", "ios": "https://dc.lft.to/lastmile_qr_scan"}, "bike_id": "05501fa5342e099660052c69aae027ab", "is_reserved": 0}, {"lat": 38.925330833333334, "fusion_lon": 0.0, "lon": -77.00113733333333, "is_disabled": 0, "type": "electric_bike", "name": "8797ce34ca6d232640d90d30c7f651e7", "fusion_lat": 0.0, "rental_uris": {"android": "https://dc.lft.to/lastmile_qr_scan", "ios": "https://dc.lft.to/lastmile_qr_scan"}, "bike_id": "8797ce34ca6d232640d90d30c7f651e7", "is_reserved": 0}, {"lat": 38.87147483333333, "fusion_lon": 0.0, "lon": -77.00710183333334, "is_disabled": 0, "type": "electric_scooter", "name": "1f0931af4ce016e8bb0aa54ed7e84d62", "fusion_lat": 0.0, "rental_uris": {"android": "https://dc.lft.to/lastmile_qr_scan", "ios": "https://dc.lft.to/lastmile_qr_scan"}, "bike_id": "1f0931af4ce016e8bb0aa54ed7e84d62", "is_reserved": 0}, {"lat": 38.9047385, "fusion_lon": 0.0, "lon": -77.0379825, "is_disabled": 0, "type": "electric_scooter", "name": "332e070650a2ce23ff77959f891112be", "fusion_lat": 0.0, "rental_uris": {"android": "https://dc.lft.to/lastmile_qr_scan", "ios": "https://dc.lft.to/lastmile_qr_scan"}, "bike_id": "332e070650a2ce23ff77959f891112be", "is_reserved": 0},