{"data": {"bikes": [{"bike_id": "292cec53a832de6686a91217d7bfc760", "type": "electric_scooter", "is_disabled": 0, "lat": 38.875654, "rental_uris": {"ios": "https://dc.lft.to/lastmile_qr_scan", "android": "https://dc.lft.to/lastmile_qr_scan"}, "is_reserved": 0, "fusion_lon": 0.0, "fusion_lat": 0.0, "lon": -76.958713, "name": "292cec53a832de6686a91217d7bfc760"}, {"bike_id": "c2040886aef16a60e1e8d1b0aa254350", "type": "electric_scooter", "is_disabled": 0, "lat": 38.91698516666666, "rental_uris": {"ios": "https://dc.lft.to/lastmile_qr_scan", "android": "https://dc.lft.to/lastmile_qr_scan"}, "is_reserved": 0, "fusion_lon": 0.0, "fusion_lat": 0.0, "lon": -77.03774733333333, "name": "c2040886aef16a60e1e8d1b0aa254350"}, {"bike_id": "fb3e15edabf532559fb951750a4b0a15", "type": "electric_scooter", "is_disabled": 0, "lat": 38.906498, "rental_uris": {"ios": "https://dc.lft.to/lastmile_qr_scan", "android": "https://dc.lft.to/lastmile_qr_scan"}, "is_reserved": 0, "fusion_lon": 0.0, "fusion_lat": 0.0, "lon": -77.0514425, "name": "fb3e15edabf532559fb951750a4b0a15"}, {"bike_id": "ab29a3be8f2b93289f08ac4095a8825f", "type": "electric_scooter", "is_disabled": 0, "lat": 38.88920783333333, "rental_uris": {"ios": "https://dc.lft.to/lastmile_qr_scan", "android": "https://dc.lft.to/lastmile_qr_scan"}, "is_reserved": 0, "fusion_lon": 0.0, "fusion_lat": 0.0, "lon": -76.98953233333333, "name": "ab29a3be8f2b93289f08ac4095a8825f"}, {"bike_id": "5b76844f868a0286c0d0404f66129a72", "type": "electric_scooter", "is_disabled": 0, "lat": 38.939199, "rental_uris": {"ios": "https://dc.lft.to/lastmile_qr_scan", "android": "https://dc.lft.to/lastmile_qr_scan"}, "is_reserved": 0, "fusion_lon": 0.0, "fusion_lat": 0.0, "lon": -77.06052883333334, "name": "5b76844f868a0286c0d0404f66129a72"}, {"bike_id": "86b27df2a336fa8d9dc74a4767eb7d10", "type": "electric_scooter", "is_disabled": 0, "lat": 38.9593515, "rental_uris": {"ios": "https://dc.lft.to/lastmile_qr_scan", "android": "https://dc.lft.to/lastmile_qr_scan"}, "is_reserved": 0, "fusion_lon": 0.0, "fusion_lat": 0.0, "lon": -77.03132066666667, "name": "86b27df2a336fa8d9dc74a4767eb7d10"}, {"bike_id": "a41091db4133726c8a63c25df2037a14", "type": "electric_scooter", "is_disabled": 0, "lat": 38.874899, "rental_uris": {"ios": "https://dc.lft.to/lastmile_qr_scan", "android": "https://dc.lft.to/lastmile_qr_scan"}, "is_reserved": 0, "fusion_lon": 0.0, "fusion_lat": 0.0, "lon": -76.9997335, "name": "a41091db4133726c8a63c25df2037a14"}, {"bike_id": "bd4e2c2fb645489ea8894d3466c58d01", "type": "electric_scooter", "is_disabled": 0, "lat": 38.945091166666664, "rental_uris": {"ios": "https://dc.lft.to/lastmile_qr_scan", "android": "https://dc.lft.to/lastmile_qr_scan"}, "is_reserved": 0, "fusion_lon": 0.0, "fusion_lat": 0.0, "lon": -77.0217055, "name": "bd4e2c2fb645489ea8894d3466c58d01"}, {"bike_id": "a64ff892f77c679f4b48ea5f3dcf625c", "type": "electric_scooter", "is_disabled": 0, "lat": 38.904040333333334, "rental_uris": {"ios": "https://dc.lft.to/lastmile_qr_scan", "android": "https://dc.lft.to/lastmile_qr_scan"}, "is_reserved": 0, "fusion_lon": 0.0, "fusion_lat": 0.0, "lon": -77.01781883333334, "name": "a64ff892f77c679f4b48ea5f3dcf625c"}, {"bike_id": "9f3d93ba5649f3b1d921fcf5f3b4b364", "type": "electric_bike", "is_disabled": 0, "lat": 39.037078, "rental_uris": {"ios": "https://dc.lft.to/lastmile_qr_scan", "android": "https://dc.lft.to/lastmile_qr_scan"}, "is_reserved": 0, "fusion_lon": 0.0, "fusion_lat": 0.0, "lon": -77.02865216666666, "name": "9f3d93ba5649f3b1d921fcf5f3b4b364"}, {"bike_id": "6e47090b21d7323c2c2779cb698cce92", "type": "electric_scooter", "is_disabled": 0, "lat": 38.923776, "rental_uris": {"ios": "https://dc.lft.to/lastmile_qr_scan", "android": "https://dc.lft.to/lastmile_qr_scan"}, "is_reserved": 0, "fusion_lon": 0.0, "fusion_lat": 0.0, "lon": -77.03024183333333, "name": "6e47090b21d7323c2c2779cb698cce92"}, {"bike_id": "52523453436b736b6a605171ff2d2cb7", "type": "electric_scooter", "is_disabled": 0, "lat": 38.974146, "rental_uris": {"ios": "https://dc.lft.to/lastmile_qr_scan", "android": "https://dc.lft.to/lastmile_qr_scan"}, "is_reserved": 0, "fusion_lon": 0.0, "fusion_lat": 0.0, "lon": -77.0127525, "name": "52523453436b736b6a605171ff2d2cb7"}, {"bike_id": "638962351f54361cca99fc01b6630375", "type": "electric_scooter", "is_disabled": 0, "lat": 38.90641016666667, "rental_uris": {"ios": "https://dc.lft.to/lastmile_qr_scan", "android": "https://dc.lft.to/lastmile_qr_scan"}, "is_reserved": 0, "fusion_lon": 0.0, "fusion_lat": 0.0, "lon": -77.01016383333334, "name": "638962351f54361cca99fc01b6630375"}, {"bike_id": "a0e59d04a8c755a0ff3defe9fa1462e2", "type": "electric_bike", "is_disabled": 0, "lat": 38.924578, "rental_uris": {"ios": "https://dc.lft.to/lastmile_qr_scan", "android": "https://dc.lft.to/lastmile_qr_scan"}, "is_reserved": 0, "fusion_lon": 0.0, "fusion_lat": 0.0, "lon": -77.225642, "name": "a0e59d04a8c755a0ff3defe9fa1462e2"}, {"bike_id": "5f533003e5251984b8c07087e6fb86a5", "type": "electric_scooter", "is_disabled": 0, "lat": 38.91118683333333, "rental_uris": {"ios": "https://dc.lft.to/lastmile_qr_scan", "android": "https://dc.lft.to/lastmile_qr_scan"}, "is_reserved": 0, "fusion_lon": 0.0, "fusion_lat": 0.0, "lon": -77.03915533333333, "name": "5f533003e5251984b8c07087e6fb86a5"}, {"bike_id": "78a24e22a34c5b9ae235859a578e1372", "type": "electric_scooter", "is_disabled": 0, "lat": 38.9231285, "rental_uris": {"ios": "https://dc.lft.to/lastmile_qr_scan", "android": "https://dc.lft.to/lastmile_qr_scan"}, "is_reserved": 0, "fusion_lon": 0.0, "fusion_lat": 0.0, "lon": -77.0421825, "name": "78a24e22a34c5b9ae235859a578e1372"}, {"bike_id": "514d4406d807ee040fa6ec1ed98d9ea6", "type": "electric_scooter", "is_disabled": 0, "lat": 38.94196483333333, "rental_uris": {"ios": "https://dc.lft.to/lastmile_qr_scan", "android": "https://dc.lft.to/lastmile_qr_scan"}, "is_reserved": 0, "fusion_lon": 0.0, "fusion_lat": 0.0, "lon": -77.02438316666667, "name": "514d4406d807ee040fa6ec1ed98d9ea6"}, {"bike_id": "d5bd4e37c82eed8520b2d2a61d206b28", "type": "electric_bike", "is_disabled": 0, "lat": 38.94663416666667, "rental_uris": {"ios": "https://dc.lft.to/lastmile_qr_scan", "android": "https://dc.lft.to/lastmile_qr_scan"}, "is_reserved": 0, "fusion_lon": 0.0, "fusion_lat": 0.0, "lon": -76.95672066666667, "name": "d5bd4e37c82eed8520b2d2a61d206b28"}, {"bike_id": "a7a35cc9cf2d175b846b428b0bf25aad", "type": "electric_scooter", "is_disabled": 0, "lat": 38.9135455, "rental_uris": {"ios": "https://dc.lft.to/lastmile_qr_scan", "android": "https://dc.lft.to/lastmile_qr_scan"}, "is_reserved": 0, "fusion_lon": 0.0, "fusion_lat": 0.0, "lon": -77.01891, "name": "a7a35cc9cf2d175b846b428b0bf25aad"}, {"bike_id": "20b5a2be8f3ec9da986c16a5eebffc0f", "type": "electric_bike", "is_disabled": 0, "lat": 38.9491905, "rental_uris": {"ios": "https://dc.lft.to/lastmile_qr_scan", "android": "https://dc.lft.to/lastmile_qr_scan"}, "is_reserved": 0, "fusion_lon": 0.0, "fusion_lat": 0.0, "lon": -77.0081105, "name": "20b5a2be8f3ec9da986c16a5eebffc0f"}, {"bike_id": "9f0a5ec2526e55a949114030a9877aba", "type": "electric_scooter", "is_disabled": 0, "lat": 38.91254333333333, "rental_uris": {"ios": "https://dc.lft.to/lastmile_qr_scan", "android": "https://dc.lft.to/lastmile_qr_scan"}, "is_reserved": 0, "fusion_lon": 0.0, "fusion_lat": 0.0, "lon": -77.03217783333334, "name": "9f0a5ec2526e55a949114030a9877aba"}, {"bike_id": "ddcf17d171e348d909919da485ccde65", "type": "electric_scooter", "is_disabled": 0, "lat": 38.91114566666667, "rental_uris": {"ios": "https://dc.lft.to/lastmile_qr_scan", "android": "https://dc.lft.to/lastmile_qr_scan"}, "is_reserved": 0, "fusion_lon": 0.0, "fusion_lat": 0.0, "lon": -77.04268416666666, "name": "ddcf17d171e348d909919da485ccde65"}, {"bike_id": "c93de201b7f7f7e9fd52bbc7de3873de", "type": "electric_scooter", "is_disabled": 0, "lat": 38.90415633333333, "rental_uris": {"ios": "https://dc.lft.to/lastmile_qr_scan", "android": "https://dc.lft.to/lastmile_qr_scan"}, "is_reserved": 0, "fusion_lon": 0.0, "fusion_lat": 0.0, "lon": -76.97332433333334, "name": "c93de201b7f7f7e9fd52bbc7de3873de"}, {"bike_id": "bd796fc12ff0685eab2b132265e2899e", "type": "electric_scooter", "is_disabled": 0, "lat": 38.92923733333333, "rental_uris": {"ios": "https://dc.lft.to/lastmile_qr_scan", "android": "https://dc.lft.to/lastmile_qr_scan"}, "is_reserved": 0, "fusion_lon": 0.0, "fusion_lat": 0.0, "lon": -77.0326055, "name": "bd796fc12ff0685eab2b132265e2899e"}, {"bike_id": "1c6e1f4180a2d826f033dd799028aabe", "type": "electric_bike", "is_disabled": 0, "lat": 38.87305216666667, "rental_uris": {"ios": "https://dc.lft.to/lastmile_qr_scan", "android": "https://dc.lft.to/lastmile_qr_scan"}, "is_reserved": 0, "fusion_lon": 0.0, "fusion_lat": 0.0, "lon": -76.96987366666667, "name": "1c6e1f4180a2d826f033dd799028aabe"}, {"bike_id": "969ccd72d2531e940e3e59f595f4dc5c", "type": "electric_scooter", "is_disabled": 0, "lat": 38.91561183333334, "rental_uris": {"ios": "https://dc.lft.to/lastmile_qr_scan", "android": "https://dc.lft.to/lastmile_qr_scan"}, "is_reserved": 0, "fusion_lon": 0.0, "fusion_lat": 0.0, "lon": -77.0215725, "name": "969ccd72d2531e940e3e59f595f4dc5c"}, {"bike_id": "9c46874d15bab8d62a94233160ac9b00", "type": "electric_scooter", "is_disabled": 0, "lat": 38.949858, "rental_uris": {"ios": "https://dc.lft.to/lastmile_qr_scan", "android": "https://dc.lft.to/lastmile_qr_scan"}, "is_reserved": 0, "fusion_lon": 0.0, "fusion_lat": 0.0, "lon": -77.02703466666667, "name": "9c46874d15bab8d62a94233160ac9b00"}, {"bike_id": "e816f31b36cd6c2f336750efa8ced495", "type": "electric_scooter", "is_disabled": 0, "lat": 38.94783966666667, "rental_uris": {"ios": "https://dc.lft.to/lastmile_qr_scan", "android": "https://dc.lft.to/lastmile_qr_scan"}, "is_reserved": 0, "fusion_lon": 0.0, "fusion_lat": 0.0, "lon": -77.07937566666666, "name": "e816f31b36cd6c2f336750efa8ced495"}, {"bike_id": "3c964f37e324af9ee7a228754171b6c3", "type": "electric_scooter", "is_disabled": 0, "lat": 38.9028855, "rental_uris": {"ios": "https://dc.lft.to/lastmile_qr_scan", "android": "https://dc.lft.to/lastmile_qr_scan"}, "is_reserved": 0, "fusion_lon": 0.0, "fusion_lat": 0.0, "lon": -77.00354833333333, "name": "3c964f37e324af9ee7a228754171b6c3"}, {"bike_id": "2c914f2a3d3993ed405aa29373111b14", "type": "electric_bike", "is_disabled": 0, "lat": 38.896122166666665, "rental_uris": {"ios": "https://dc.lft.to/lastmile_qr_scan", "android": "https://dc.lft.to/lastmile_qr_scan"}, "is_reserved": 0, "fusion_lon": 0.0, "fusion_lat": 0.0, "lon": -76.9073805, "name": "2c914f2a3d3993ed405aa29373111b14"}, {"bike_id": "45af9812dbef06d668627c68a4e1c3d9", "type": "electric_scooter", "is_disabled": 0, "lat": 38.91991516666667, "rental_uris": {"ios": "https://dc.lft.to/lastmile_qr_scan", "android": "https://dc.lft.to/lastmile_qr_scan"}, "is_reserved": 0, "fusion_lon": 0.0, "fusion_lat": 0.0, "lon": -76.97303, "name": "45af9812dbef06d668627c68a4e1c3d9"}, {"bike_id": "a5022e99c2ce78eb24e2ee4a978f42e5", "type": "electric_scooter", "is_disabled": 0, "lat": 38.901532, "rental_uris": {"ios": "https://dc.lft.to/lastmile_qr_scan", "android": "https://dc.lft.to/lastmile_qr_scan"}, "is_reserved": 0, "fusion_lon": 0.0, "fusion_lat": 0.0, "lon": -77.0593555, "name": "a5022e99c2ce78eb24e2ee4a978f42e5"}, {"bike_id": "68262b907688692f100a788b4d40d76d", "type": "electric_scooter", "is_disabled": 0, "lat": 38.923376166666664, "rental_uris": {"ios": "https://dc.lft.to/lastmile_qr_scan", "android": "https://dc.lft.to/lastmile_qr_scan"}, "is_reserved": 0, "fusion_lon": 0.0, "fusion_lat": 0.0, "lon": -77.0378815, "name": "68262b907688692f100a788b4d40d76d"}, {"bike_id": "2f3baab66ae3cee070ba96629597ba96", "type": "electric_scooter", "is_disabled": 0, "lat": 38.956256833333335, "rental_uris": {"ios": "https://dc.lft.to/lastmile_qr_scan", "android": "https://dc.lft.to/lastmile_qr_scan"}, "is_reserved": 0, "fusion_lon": 0.0, "fusion_lat": 0.0, "lon": -77.03614983333334, "name": "2f3baab66ae3cee070ba96629597ba96"}, {"bike_id": "8f66208e58a31d61713284a399fbeaf6", "type": "electric_scooter", "is_disabled": 0, "lat": 38.899305166666664, "rental_uris": {"ios": "https://dc.lft.to/lastmile_qr_scan", "android": "https://dc.lft.to/lastmile_qr_scan"}, "is_reserved": 0, "fusion_lon": 0.0, "fusion_lat": 0.0, "lon": -77.039282, "name": "8f66208e58a31d61713284a399fbeaf6"}, {"bike_id": "0829b0da4357370b7d53029ddf84f616", "type": "electric_scooter", "is_disabled": 0, "lat": 38.873516333333335, "rental_uris": {"ios": "https://dc.lft.to/lastmile_qr_scan", "android": "https://dc.lft.to/lastmile_qr_scan"}, "is_reserved": 0, "fusion_lon": 0.0, "fusion_lat": 0.0, "lon": -77.0061455, "name": "0829b0da4357370b7d53029ddf84f616"}, {"bike_id": "c1edecc74b88732a73b8a7a811310c5c", "type": "electric_scooter", "is_disabled": 0, "lat": 38.900195333333336, "rental_uris": {"ios": "https://dc.lft.to/lastmile_qr_scan", "android": "https://dc.lft.to/lastmile_qr_scan"}, "is_reserved": 0, "fusion_lon": 0.0, "fusion_lat": 0.0, "lon": -76.9925065, "name": "c1edecc74b88732a73b8a7a811310c5c"}, {"bike_id": "c5323984011135bfbeca29f84be7d4d4", "type": "electric_scooter", "is_disabled": 0, "lat": 38.885423, "rental_uris": {"ios": "https://dc.lft.to/lastmile_qr_scan", "android": "https://dc.lft.to/lastmile_qr_scan"}, "is_reserved": 0, "fusion_lon": 0.0, "fusion_lat": 0.0, "lon": -76.99827833333333, "name": "c5323984011135bfbeca29f84be7d4d4"}, {"bike_id": "579e344766585f154560fb83c7d4ad8c", "type": "electric_bike", "is_disabled": 0, "lat": 38.974052666666665, "rental_uris": {"ios": "https://dc.lft.to/lastmile_qr_scan", "android": "https://dc.lft.to/lastmile_qr_scan"}, "is_reserved": 0, "fusion_lon": 0.0, "fusion_lat": 0.0, "lon": -77.0645815, "name": "579e344766585f154560fb83c7d4ad8c"}, {"bike_id": "c81972ee68c30c46237f420de73089e8", "type": "electric_scooter", "is_disabled": 0, "lat": 38.90121533333333, "rental_uris": {"ios": "https://dc.lft.to/lastmile_qr_scan", "android": "https://dc.lft.to/lastmile_qr_scan"}, "is_reserved": 0, "fusion_lon": 0.0, "fusion_lat": 0.0, "lon": -76.92958783333333, "name": "c81972ee68c30c46237f420de73089e8"}, {"bike_id": "70a61684ed8a8c1792724c4f39b66bfc", "type": "electric_scooter", "is_disabled": 0, "lat": 38.873385666666664, "rental_uris": {"ios": "https://dc.lft.to/lastmile_qr_scan", "android": "https://dc.lft.to/lastmile_qr_scan"}, "is_reserved": 0, "fusion_lon": 0.0, "fusion_lat": 0.0, "lon": -76.9678905, "name": "70a61684ed8a8c1792724c4f39b66bfc"}, {"bike_id": "4d8d6806c3e494ef10db48a67bcaa342", "type": "electric_scooter", "is_disabled": 0, "lat": 38.94416016666667, "rental_uris": {"ios": "https://dc.lft.to/lastmile_qr_scan", "android": "https://dc.lft.to/lastmile_qr_scan"}, "is_reserved": 0, "fusion_lon": 0.0, "fusion_lat": 0.0, "lon": -77.06322283333333, "name": "4d8d6806c3e494ef10db48a67bcaa342"}, {"bike_id": "f81c9309b234cfab4d625b04eafd0d37", "type": "electric_scooter", "is_disabled": 0, "lat": 38.90512833333333, "rental_uris": {"ios": "https://dc.lft.to/lastmile_qr_scan", "android": "https://dc.lft.to/lastmile_qr_scan"}, "is_reserved": 0, "fusion_lon": 0.0, "fusion_lat": 0.0, "lon": -77.063841, "name": "f81c9309b234cfab4d625b04eafd0d37"}, {"bike_id": "bcff11cab89f92db2489580d62227ac4", "type": "electric_scooter", "is_disabled": 0, "lat": 38.912508333333335, "rental_uris": {"ios": "https://dc.lft.to/lastmile_qr_scan", "android": "https://dc.lft.to/lastmile_qr_scan"}, "is_reserved": 0, "fusion_lon": 0.0, "fusion_lat": 0.0, "lon": -77.00126816666666, "name": "bcff11cab89f92db2489580d62227ac4"}, {"bike_id": "edc2b9d95df46f211c70f0fe6d8a8afe", "type": "electric_scooter", "is_disabled": 0, "lat": 38.9053975, "rental_uris": {"ios": "https://dc.lft.to/lastmile_qr_scan", "android": "https://dc.lft.to/lastmile_qr_scan"}, "is_reserved": 0, "fusion_lon": 0.0, "fusion_lat": 0.0, "lon": -77.04578333333333, "name": "edc2b9d95df46f211c70f0fe6d8a8afe"}, {"bike_id": "2ea021b05b5beea30585effb4761f99a", "type": "electric_scooter", "is_disabled": 0, "lat": 38.92918566666667, "rental_uris": {"ios": "https://dc.lft.to/lastmile_qr_scan", "android": "https://dc.lft.to/lastmile_qr_scan"}, "is_reserved": 0, "fusion_lon": 0.0, "fusion_lat": 0.0, "lon": -77.02096433333334, "name": "2ea021b05b5beea30585effb4761f99a"}, {"bike_id": "9af2b1c6ad0d688f8d6fcad3672aa54f", "type": "electric_scooter", "is_disabled": 0, "lat": 38.898893666666666, "rental_uris": {"ios": "https://dc.lft.to/lastmile_qr_scan", "android": "https://dc.lft.to/lastmile_qr_scan"}, "is_reserved": 0, "fusion_lon": 0.0, "fusion_lat": 0.0, "lon": -76.93180683333334, "name": "9af2b1c6ad0d688f8d6fcad3672aa54f"}, {"bike_id": "5fb2cfb6ed4239d4542dc561e7a8f8bb", "type": "electric_scooter", "is_disabled": 0, "lat": 38.92044166666667, "rental_uris": {"ios": "https://dc.lft.to/lastmile_qr_scan", "android": "https://dc.lft.to/lastmile_qr_scan"}, "is_reserved": 0, "fusion_lon": 0.0, "fusion_lat": 0.0, "lon": -77.02179916666667, "name": "5fb2cfb6ed4239d4542dc561e7a8f8bb"}, {"bike_id": "b7337c441964ef907107a4b6ef617596", "type": "electric_scooter", "is_disabled": 0, "lat": 38.902452333333336, "rental_uris": {"ios": "https://dc.lft.to/lastmile_qr_scan", "android": "https://dc.lft.to/lastmile_qr_scan"}, "is_reserved": 0, "fusion_lon": 0.0, "fusion_lat": 0.0, "lon": -77.0286125, "name": "b7337c441964ef907107a4b6ef617596"}, {"bike_id": "4358101a7a233bb7f471a94af8b151cd", "type": "electric_scooter", "is_disabled": 0, "lat": 38.9142985, "rental_uris": {"ios": "https://dc.lft.to/lastmile_qr_scan", "android": "https://dc.lft.to/lastmile_qr_scan"}, "is_reserved": 0, "fusion_lon": 0.0, "fusion_lat": 0.0, "lon": -77.03185966666666, "name": "4358101a7a233bb7f471a94af8b151cd"}, {"bike_id": "a6cb9e6a2d86b40591c5b673657a3927", "type": "electric_scooter", "is_disabled": 0, "lat": 38.899023166666666, "rental_uris": {"ios": "https://dc.lft.to/lastmile_qr_scan", "android": "https://dc.lft.to/lastmile_qr_scan"}, "is_reserved": 0, "fusion_lon": 0.0, "fusion_lat": 0.0, "lon": -77.01528233333333, "name": "a6cb9e6a2d86b40591c5b673657a3927"}, {"bike_id": "4630804eae294c51a34c7216a414079b", "type": "electric_scooter", "is_disabled": 0, "lat": 38.8900405, "rental_uris": {"ios": "https://dc.lft.to/lastmile_qr_scan", "android": "https://dc.lft.to/lastmile_qr_scan"}, "is_reserved": 0, "fusion_lon": 0.0, "fusion_lat": 0.0, "lon": -76.93741983333334, "name": "4630804eae294c51a34c7216a414079b"}, {"bike_id": "902c3a8f1e5d333b6a3045111f1dc1c1", "type": "electric_scooter", "is_disabled": 0, "lat": 38.877648, "rental_uris": {"ios": "https://dc.lft.to/lastmile_qr_scan", "android": "https://dc.lft.to/lastmile_qr_scan"}, "is_reserved": 0, "fusion_lon": 0.0, "fusion_lat": 0.0, "lon": -77.00768966666666, "name": "902c3a8f1e5d333b6a3045111f1dc1c1"}, {"bike_id": "0eff79cb73094cc952a40e392e496673", "type": "electric_scooter", "is_disabled": 0, "lat": 38.895419833333335, "rental_uris": {"ios": "https://dc.lft.to/lastmile_qr_scan", "android": "https://dc.lft.to/lastmile_qr_scan"}, "is_reserved": 0, "fusion_lon": 0.0, "fusion_lat": 0.0, "lon": -76.9489915, "name": "0eff79cb73094cc952a40e392e496673"}, {"bike_id": "95f36b9630611ac0303db00b3595805e", "type": "electric_scooter", "is_disabled": 0, "lat": 38.94142083333333, "rental_uris": {"ios": "https://dc.lft.to/lastmile_qr_scan", "android": "https://dc.lft.to/lastmile_qr_scan"}, "is_reserved": 0, "fusion_lon": 0.0, "fusion_lat": 0.0, "lon": -77.02330683333334, "name": "95f36b9630611ac0303db00b3595805e"}, {"bike_id": "28f9007a3aeee8f2400b92c72b614aae", "type": "electric_scooter", "is_disabled": 0, "lat": 38.92489833333333, "rental_uris": {"ios": "https://dc.lft.to/lastmile_qr_scan", "android": "https://dc.lft.to/lastmile_qr_scan"}, "is_reserved": 0, "fusion_lon": 0.0, "fusion_lat": 0.0, "lon": -77.02830183333333, "name": "28f9007a3aeee8f2400b92c72b614aae"}, {"bike_id": "97286d9d82b511bc7db7675b0faa07f6", "type": "electric_scooter", "is_disabled": 0, "lat": 38.89004833333333, "rental_uris": {"ios": "https://dc.lft.to/lastmile_qr_scan", "android": "https://dc.lft.to/lastmile_qr_scan"}, "is_reserved": 0, "fusion_lon": 0.0, "fusion_lat": 0.0, "lon": -76.937457, "name": "97286d9d82b511bc7db7675b0faa07f6"}, {"bike_id": "3df9f4906057f7a1e7f28956b3765044", "type": "electric_bike", "is_disabled": 0, "lat": 38.90202883333333, "rental_uris": {"ios": "https://dc.lft.to/lastmile_qr_scan", "android": "https://dc.lft.to/lastmile_qr_scan"}, "is_reserved": 0, "fusion_lon": 0.0, "fusion_lat": 0.0, "lon": -77.021769, "name": "3df9f4906057f7a1e7f28956b3765044"}, {"bike_id": "1b8f512b77537c5cbf584e15bf1ec5dc", "type": "electric_scooter", "is_disabled": 0, "lat": 38.916095, "rental_uris": {"ios": "https://dc.lft.to/lastmile_qr_scan", "android": "https://dc.lft.to/lastmile_qr_scan"}, "is_reserved": 0, "fusion_lon": 0.0, "fusion_lat": 0.0, "lon": -77.022978, "name": "1b8f512b77537c5cbf584e15bf1ec5dc"}, {"bike_id": "ff0724db38c918612c81005268dc3219", "type": "electric_scooter", "is_disabled": 0, "lat": 38.878683, "rental_uris": {"ios": "https://dc.lft.to/lastmile_qr_scan", "android": "https://dc.lft.to/lastmile_qr_scan"}, "is_reserved": 0, "fusion_lon": 0.0, "fusion_lat": 0.0, "lon": -76.96987566666667, "name": "ff0724db38c918612c81005268dc3219"}, {"bike_id": "f72311870014ee9b208a3dcb2ba943a9", "type": "electric_scooter", "is_disabled": 0, "lat": 38.87423783333333, "rental_uris": {"ios": "https://dc.lft.to/lastmile_qr_scan", "android": "https://dc.lft.to/lastmile_qr_scan"}, "is_reserved": 0, "fusion_lon": 0.0, "fusion_lat": 0.0, "lon": -76.969119, "name": "f72311870014ee9b208a3dcb2ba943a9"}, {"bike_id": "1552b779b257c6af2d1a9b9840d3d47e", "type": "electric_scooter", "is_disabled": 0, "lat": 38.90866716666667, "rental_uris": {"ios": "https://dc.lft.to/lastmile_qr_scan", "android": "https://dc.lft.to/lastmile_qr_scan"}, "is_reserved": 0, "fusion_lon": 0.0, "fusion_lat": 0.0, "lon": -76.9996335, "name": "1552b779b257c6af2d1a9b9840d3d47e"}, {"bike_id": "b3338a096c68090f21b0c71524911890", "type": "electric_scooter", "is_disabled": 0, "lat": 38.90753016666667, "rental_uris": {"ios": "https://dc.lft.to/lastmile_qr_scan", "android": "https://dc.lft.to/lastmile_qr_scan"}, "is_reserved": 0, "fusion_lon": 0.0, "fusion_lat": 0.0, "lon": -77.0360455, "name": "b3338a096c68090f21b0c71524911890"}, {"bike_id": "2555c52df786fa7f7665443e934851b6", "type": "electric_scooter", "is_disabled": 0, "lat": 38.91576883333333, "rental_uris": {"ios": "https://dc.lft.to/lastmile_qr_scan", "android": "https://dc.lft.to/lastmile_qr_scan"}, "is_reserved": 0, "fusion_lon": 0.0, "fusion_lat": 0.0, "lon": -77.02055766666666, "name": "2555c52df786fa7f7665443e934851b6"}, {"bike_id": "9ac41f4f355883de20d3d1e404660bc8", "type": "electric_scooter", "is_disabled": 0, "lat": 38.9427775, "rental_uris": {"ios": "https://dc.lft.to/lastmile_qr_scan", "android": "https://dc.lft.to/lastmile_qr_scan"}, "is_reserved": 0, "fusion_lon": 0.0, "fusion_lat": 0.0, "lon": -77.032614, "name": "9ac41f4f355883de20d3d1e404660bc8"}, {"bike_id": "7ca86e0e97752c2274f74270558c3b4e", "type": "electric_scooter", "is_disabled": 0, "lat": 38.866912166666665, "rental_uris": {"ios": "https://dc.lft.to/lastmile_qr_scan", "android": "https://dc.lft.to/lastmile_qr_scan"}, "is_reserved": 0, "fusion_lon": 0.0, "fusion_lat": 0.0, "lon": -76.98586633333333, "name": "7ca86e0e97752c2274f74270558c3b4e"}, {"bike_id": "1feb361e05a19c2ec342e19847bf5abc", "type": "electric_scooter", "is_disabled": 0, "lat": 38.9010835, "rental_uris": {"ios": "https://dc.lft.to/lastmile_qr_scan", "android": "https://dc.lft.to/lastmile_qr_scan"}, "is_reserved": 0, "fusion_lon": 0.0, "fusion_lat": 0.0, "lon": -77.05906683333333, "name": "1feb361e05a19c2ec342e19847bf5abc"}, {"bike_id": "a6d0f2d0ab7ad0ee800fe1f35c31e51a", "type": "electric_scooter", "is_disabled": 0, "lat": 38.91132433333333, "rental_uris": {"ios": "https://dc.lft.to/lastmile_qr_scan", "android": "https://dc.lft.to/lastmile_qr_scan"}, "is_reserved": 0, "fusion_lon": 0.0, "fusion_lat": 0.0, "lon": -77.0440125, "name": "a6d0f2d0ab7ad0ee800fe1f35c31e51a"}, {"bike_id": "20cd66ddb980c98601997758979d964c", "type": "electric_scooter", "is_disabled": 0, "lat": 38.92902616666667, "rental_uris": {"ios": "https://dc.lft.to/lastmile_qr_scan", "android": "https://dc.lft.to/lastmile_qr_scan"}, "is_reserved": 0, "fusion_lon": 0.0, "fusion_lat": 0.0, "lon": -77.02448416666667, "name": "20cd66ddb980c98601997758979d964c"}, {"bike_id": "889df891685cfea95c160667b05edb6e", "type": "electric_bike", "is_disabled": 0, "lat": 38.963264, "rental_uris": {"ios": "https://dc.lft.to/lastmile_qr_scan", "android": "https://dc.lft.to/lastmile_qr_scan"}, "is_reserved": 0, "fusion_lon": 0.0, "fusion_lat": 0.0, "lon": -76.97366216666667, "name": "889df891685cfea95c160667b05edb6e"}, {"bike_id": "647a891a94a3047a209dbed5fb4cf04c", "type": "electric_scooter", "is_disabled": 0, "lat": 38.905352666666666, "rental_uris": {"ios": "https://dc.lft.to/lastmile_qr_scan", "android": "https://dc.lft.to/lastmile_qr_scan"}, "is_reserved": 0, "fusion_lon": 0.0, "fusion_lat": 0.0, "lon": -77.05935266666667, "name": "647a891a94a3047a209dbed5fb4cf04c"}, {"bike_id": "e45a758870c5d1f5e04e716f18691141", "type": "electric_bike", "is_disabled": 0, "lat": 38.95229583333333, "rental_uris": {"ios": "https://dc.lft.to/lastmile_qr_scan", "android": "https://dc.lft.to/lastmile_qr_scan"}, "is_reserved": 0, "fusion_lon": 0.0, "fusion_lat": 0.0, "lon": -76.97015366666666, "name": "e45a758870c5d1f5e04e716f18691141"}, {"bike_id": "91ecc90f585e948f2e81a4297862b6c3", "type": "electric_scooter", "is_disabled": 0, "lat": 38.905094166666665, "rental_uris": {"ios": "https://dc.lft.to/lastmile_qr_scan", "android": "https://dc.lft.to/lastmile_qr_scan"}, "is_reserved": 0, "fusion_lon": 0.0, "fusion_lat": 0.0, "lon": -77.062356, "name": "91ecc90f585e948f2e81a4297862b6c3"}, {"bike_id": "6aed7fad32575828b7a118584a0dab42", "type": "electric_scooter", "is_disabled": 0, "lat": 38.89738033333333, "rental_uris": {"ios": "https://dc.lft.to/lastmile_qr_scan", "android": "https://dc.lft.to/lastmile_qr_scan"}, "is_reserved": 0, "fusion_lon": 0.0, "fusion_lat": 0.0, "lon": -77.0086245, "name": "6aed7fad32575828b7a118584a0dab42"}, {"bike_id": "6bb96ebbb279992ae8b6d2f8b61386e0", "type": "electric_scooter", "is_disabled": 0, "lat": 38.874175666666666, "rental_uris": {"ios": "https://dc.lft.to/lastmile_qr_scan", "android": "https://dc.lft.to/lastmile_qr_scan"}, "is_reserved": 0, "fusion_lon": 0.0, "fusion_lat": 0.0, "lon": -76.96907766666666, "name": "6bb96ebbb279992ae8b6d2f8b61386e0"}, {"bike_id": "62aa62b959c85cc43dd7877cb9eddecb", "type": "electric_scooter", "is_disabled": 0, "lat": 38.923381666666664, "rental_uris": {"ios": "https://dc.lft.to/lastmile_qr_scan", "android": "https://dc.lft.to/lastmile_qr_scan"}, "is_reserved": 0, "fusion_lon": 0.0, "fusion_lat": 0.0, "lon": -77.04191266666666, "name": "62aa62b959c85cc43dd7877cb9eddecb"}, {"bike_id": "d5a60be00d3dde19524fd26ac2d167a9", "type": "electric_scooter", "is_disabled": 0, "lat": 38.92464966666667, "rental_uris": {"ios": "https://dc.lft.to/lastmile_qr_scan", "android": "https://dc.lft.to/lastmile_qr_scan"}, "is_reserved": 0, "fusion_lon": 0.0, "fusion_lat": 0.0, "lon": -77.02245383333333, "name": "d5a60be00d3dde19524fd26ac2d167a9"}, {"bike_id": "c85f369d887b1ad33477dfc57da662dc", "type": "electric_bike", "is_disabled": 0, "lat": 38.96307983333333, "rental_uris": {"ios": "https://dc.lft.to/lastmile_qr_scan", "android": "https://dc.lft.to/lastmile_qr_scan"}, "is_reserved": 0, "fusion_lon": 0.0, "fusion_lat": 0.0, "lon": -77.01105516666667, "name": "c85f369d887b1ad33477dfc57da662dc"}, {"bike_id": "91808e9497a9c6f8867988bad44f915d", "type": "electric_scooter", "is_disabled": 0, "lat": 38.92602083333333, "rental_uris": {"ios": "https://dc.lft.to/lastmile_qr_scan", "android": "https://dc.lft.to/lastmile_qr_scan"}, "is_reserved": 0, "fusion_lon": 0.0, "fusion_lat": 0.0, "lon": -77.10238166666667, "name": "91808e9497a9c6f8867988bad44f915d"}, {"bike_id": "26ddd95c1930ee51034eba12aaf6ea0c", "type": "electric_scooter", "is_disabled": 0, "lat": 38.92112, "rental_uris": {"ios": "https://dc.lft.to/lastmile_qr_scan", "android": "https://dc.lft.to/lastmile_qr_scan"}, "is_reserved": 0, "fusion_lon": 0.0, "fusion_lat": 0.0, "lon": -77.0318965, "name": "26ddd95c1930ee51034eba12aaf6ea0c"}, {"bike_id": "5a57f23a1ff8eca4dd1302e52baddec5", "type": "electric_scooter", "is_disabled": 0, "lat": 38.9052015, "rental_uris": {"ios": "https://dc.lft.to/lastmile_qr_scan", "android": "https://dc.lft.to/lastmile_qr_scan"}, "is_reserved": 0, "fusion_lon": 0.0, "fusion_lat": 0.0, "lon": -77.04106633333333, "name": "5a57f23a1ff8eca4dd1302e52baddec5"}, {"bike_id": "3e3e4bc734df46f89adc97fe537e0e4b", "type": "electric_scooter", "is_disabled": 0, "lat": 38.901462, "rental_uris": {"ios": "https://dc.lft.to/lastmile_qr_scan", "android": "https://dc.lft.to/lastmile_qr_scan"}, "is_reserved": 0, "fusion_lon": 0.0, "fusion_lat": 0.0, "lon": -76.93094166666667, "name": "3e3e4bc734df46f89adc97fe537e0e4b"}, {"bike_id": "3717d39bd17d66529ca16c704255c597", "type": "electric_scooter", "is_disabled": 0, "lat": 38.9096315, "rental_uris": {"ios": "https://dc.lft.to/lastmile_qr_scan", "android": "https://dc.lft.to/lastmile_qr_scan"}, "is_reserved": 0, "fusion_lon": 0.0, "fusion_lat": 0.0, "lon": -77.04704633333333, "name": "3717d39bd17d66529ca16c704255c597"}, {"bike_id": "70c924ca5f3f1e998b4bcddaee89f08e", "type": "electric_scooter", "is_disabled": 0, "lat": 38.900590666666666, "rental_uris": {"ios": "https://dc.lft.to/lastmile_qr_scan", "android": "https://dc.lft.to/lastmile_qr_scan"}, "is_reserved": 0, "fusion_lon": 0.0, "fusion_lat": 0.0, "lon": -77.017039, "name": "70c924ca5f3f1e998b4bcddaee89f08e"}, {"bike_id": "97b8a645327274f207765156b46ef245", "type": "electric_scooter", "is_disabled": 0, "lat": 38.899159833333336, "rental_uris": {"ios": "https://dc.lft.to/lastmile_qr_scan", "android": "https://dc.lft.to/lastmile_qr_scan"}, "is_reserved": 0, "fusion_lon": 0.0, "fusion_lat": 0.0, "lon": -76.93366616666667, "name": "97b8a645327274f207765156b46ef245"}, {"bike_id": "a88e61d230e15be6ecb0164d944b0776", "type": "electric_scooter", "is_disabled": 0, "lat": 38.886733666666665, "rental_uris": {"ios": "https://dc.lft.to/lastmile_qr_scan", "android": "https://dc.lft.to/lastmile_qr_scan"}, "is_reserved": 0, "fusion_lon": 0.0, "fusion_lat": 0.0, "lon": -76.99146483333334, "name": "a88e61d230e15be6ecb0164d944b0776"}, {"bike_id": "05f632b5f585dadabd495d98613048d7", "type": "electric_scooter", "is_disabled": 0, "lat": 38.89212766666667, "rental_uris": {"ios": "https://dc.lft.to/lastmile_qr_scan", "android": "https://dc.lft.to/lastmile_qr_scan"}, "is_reserved": 0, "fusion_lon": 0.0, "fusion_lat": 0.0, "lon": -77.02918866666667, "name": "05f632b5f585dadabd495d98613048d7"}, {"bike_id": "d41461041f912682eb570da653d9d0ca", "type": "electric_scooter", "is_disabled": 0, "lat": 38.865503833333335, "rental_uris": {"ios": "https://dc.lft.to/lastmile_qr_scan", "android": "https://dc.lft.to/lastmile_qr_scan"}, "is_reserved": 0, "fusion_lon": 0.0, "fusion_lat": 0.0, "lon": -76.97040216666667, "name": "d41461041f912682eb570da653d9d0ca"}, {"bike_id": "b6b251c7eab17ea262cf5f80e1ba2773", "type": "electric_bike", "is_disabled": 0, "lat": 38.79614816666667, "rental_uris": {"ios": "https://dc.lft.to/lastmile_qr_scan", "android": "https://dc.lft.to/lastmile_qr_scan"}, "is_reserved": 0, "fusion_lon": 0.0, "fusion_lat": 0.0, "lon": -76.9974785, "name": "b6b251c7eab17ea262cf5f80e1ba2773"}, {"bike_id": "70df54e6043e201aa34b057a970dbb43", "type": "electric_scooter", "is_disabled": 0, "lat": 38.9186905, "rental_uris": {"ios": "https://dc.lft.to/lastmile_qr_scan", "android": "https://dc.lft.to/lastmile_qr_scan"}, "is_reserved": 0, "fusion_lon": 0.0, "fusion_lat": 0.0, "lon": -77.04448866666667, "name": "70df54e6043e201aa34b057a970dbb43"}, {"bike_id": "dcc69f8038c0c531be8b29f0b8980033", "type": "electric_scooter", "is_disabled": 0, "lat": 38.92447, "rental_uris": {"ios": "https://dc.lft.to/lastmile_qr_scan", "android": "https://dc.lft.to/lastmile_qr_scan"}, "is_reserved": 0, "fusion_lon": 0.0, "fusion_lat": 0.0, "lon": -77.03341533333334, "name": "dcc69f8038c0c531be8b29f0b8980033"}, {"bike_id": "f8187a654c8556b2c5fad3c761fc3bee", "type": "electric_scooter", "is_disabled": 0, "lat": 38.8984045, "rental_uris": {"ios": "https://dc.lft.to/lastmile_qr_scan", "android": "https://dc.lft.to/lastmile_qr_scan"}, "is_reserved": 0, "fusion_lon": 0.0, "fusion_lat": 0.0, "lon": -76.9463405, "name": "f8187a654c8556b2c5fad3c761fc3bee"}, {"bike_id": "db769ef1961119d43d0929a7ec8e1998", "type": "electric_scooter", "is_disabled": 0, "lat": 38.897351666666665, "rental_uris": {"ios": "https://dc.lft.to/lastmile_qr_scan", "android": "https://dc.lft.to/lastmile_qr_scan"}, "is_reserved": 0, "fusion_lon": 0.0, "fusion_lat": 0.0, "lon": -77.04582516666666, "name": "db769ef1961119d43d0929a7ec8e1998"}, {"bike_id": "d9ff8aa828c30df3cedd38a1d22b4d78", "type": "electric_scooter", "is_disabled": 0, "lat": 38.90491166666666, "rental_uris": {"ios": "https://dc.lft.to/lastmile_qr_scan", "android": "https://dc.lft.to/lastmile_qr_scan"}, "is_reserved": 0, "fusion_lon": 0.0, "fusion_lat": 0.0, "lon": -76.98974866666667, "name": "d9ff8aa828c30df3cedd38a1d22b4d78"}, {"bike_id": "2d38d815c08894ec39e6df9400dcf8c2", "type": "electric_scooter", "is_disabled": 0, "lat": 38.9023395, "rental_uris": {"ios": "https://dc.lft.to/lastmile_qr_scan", "android": "https://dc.lft.to/lastmile_qr_scan"}, "is_reserved": 0, "fusion_lon": 0.0, "fusion_lat": 0.0, "lon": -77.00199083333334, "name": "2d38d815c08894ec39e6df9400dcf8c2"}, {"bike_id": "c5dddb0175f6e54de490cc26ae90edb7", "type": "electric_scooter", "is_disabled": 0, "lat": 38.907290833333334, "rental_uris": {"ios": "https://dc.lft.to/lastmile_qr_scan", "android": "https://dc.lft.to/lastmile_qr_scan"}, "is_reserved": 0, "fusion_lon": 0.0, "fusion_lat": 0.0, "lon": -77.04187633333333, "name": "c5dddb0175f6e54de490cc26ae90edb7"}, {"bike_id": "f0a4e24576c9c50857e4e5caa419747e", "type": "electric_scooter", "is_disabled": 0, "lat": 38.93094766666667, "rental_uris": {"ios": "https://dc.lft.to/lastmile_qr_scan", "android": "https://dc.lft.to/lastmile_qr_scan"}, "is_reserved": 0, "fusion_lon": 0.0, "fusion_lat": 0.0, "lon": -77.03096233333333, "name": "f0a4e24576c9c50857e4e5caa419747e"}, {"bike_id": "dbf60d492674e5d4640fb192b11e0c05", "type": "electric_scooter", "is_disabled": 0, "lat": 38.945591666666665, "rental_uris": {"ios": "https://dc.lft.to/lastmile_qr_scan", "android": "https://dc.lft.to/lastmile_qr_scan"}, "is_reserved": 0, "fusion_lon": 0.0, "fusion_lat": 0.0, "lon": -77.07127616666666, "name": "dbf60d492674e5d4640fb192b11e0c05"}, {"bike_id": "a1937d9ed1c8b5906ebd56e40fb25155", "type": "electric_bike", "is_disabled": 0, "lat": 38.957903333333334, "rental_uris": {"ios": "https://dc.lft.to/lastmile_qr_scan", "android": "https://dc.lft.to/lastmile_qr_scan"}, "is_reserved": 0, "fusion_lon": 0.0, "fusion_lat": 0.0, "lon": -77.02006316666667, "name": "a1937d9ed1c8b5906ebd56e40fb25155"}, {"bike_id": "10ff613231638dc936ec1c376d47aee2", "type": "electric_scooter", "is_disabled": 0, "lat": 38.884501666666665, "rental_uris": {"ios": "https://dc.lft.to/lastmile_qr_scan", "android": "https://dc.lft.to/lastmile_qr_scan"}, "is_reserved": 0, "fusion_lon": 0.0, "fusion_lat": 0.0, "lon": -76.95098333333334, "name": "10ff613231638dc936ec1c376d47aee2"}, {"bike_id": "4e5a641e68bd29eb766ecb044766408b", "type": "electric_scooter", "is_disabled": 0, "lat": 38.905766166666666, "rental_uris": {"ios": "https://dc.lft.to/lastmile_qr_scan", "android": "https://dc.lft.to/lastmile_qr_scan"}, "is_reserved": 0, "fusion_lon": 0.0, "fusion_lat": 0.0, "lon": -77.0063555, "name": "4e5a641e68bd29eb766ecb044766408b"}, {"bike_id": "3264e0fbd2b9e27c16ea7bbbd4dd0a02", "type": "electric_scooter", "is_disabled": 0, "lat": 38.9064805, "rental_uris": {"ios": "https://dc.lft.to/lastmile_qr_scan", "android": "https://dc.lft.to/lastmile_qr_scan"}, "is_reserved": 0, "fusion_lon": 0.0, "fusion_lat": 0.0, "lon": -77.03798966666666, "name": "3264e0fbd2b9e27c16ea7bbbd4dd0a02"}, {"bike_id": "f0c7b886f402bbf1ac49a7c7649f85c7", "type": "electric_bike", "is_disabled": 0, "lat": 38.8709495, "rental_uris": {"ios": "https://dc.lft.to/lastmile_qr_scan", "android": "https://dc.lft.to/lastmile_qr_scan"}, "is_reserved": 0, "fusion_lon": 0.0, "fusion_lat": 0.0, "lon": -77.01196783333333, "name": "f0c7b886f402bbf1ac49a7c7649f85c7"}, {"bike_id": "efdac9266f6ec2add2db5d711879b11f", "type": "electric_scooter", "is_disabled": 0, "lat": 38.904112166666664, "rental_uris": {"ios": "https://dc.lft.to/lastmile_qr_scan", "android": "https://dc.lft.to/lastmile_qr_scan"}, "is_reserved": 0, "fusion_lon": 0.0, "fusion_lat": 0.0, "lon": -76.97328966666667, "name": "efdac9266f6ec2add2db5d711879b11f"}, {"bike_id": "f553070a33203686b16a391e568ebd60", "type": "electric_scooter", "is_disabled": 0, "lat": 38.899776, "rental_uris": {"ios": "https://dc.lft.to/lastmile_qr_scan", "android": "https://dc.lft.to/lastmile_qr_scan"}, "is_reserved": 0, "fusion_lon": 0.0, "fusion_lat": 0.0, "lon": -76.98309316666666, "name": "f553070a33203686b16a391e568ebd60"}, {"bike_id": "ef8df1dbe8730815e585c3443c73fb44", "type": "electric_bike", "is_disabled": 0, "lat": 38.85896483333333, "rental_uris": {"ios": "https://dc.lft.to/lastmile_qr_scan", "android": "https://dc.lft.to/lastmile_qr_scan"}, "is_reserved": 0, "fusion_lon": 0.0, "fusion_lat": 0.0, "lon": -77.1186985, "name": "ef8df1dbe8730815e585c3443c73fb44"}, {"bike_id": "1800726dd80d042d622bbd8d43b4a44f", "type": "electric_scooter", "is_disabled": 0, "lat": 38.91933, "rental_uris": {"ios": "https://dc.lft.to/lastmile_qr_scan", "android": "https://dc.lft.to/lastmile_qr_scan"}, "is_reserved": 0, "fusion_lon": 0.0, "fusion_lat": 0.0, "lon": -77.0418545, "name": "1800726dd80d042d622bbd8d43b4a44f"}, {"bike_id": "a22f5e318f1edfb60cfbdd9d6b30676c", "type": "electric_scooter", "is_disabled": 0, "lat": 38.90966483333333, "rental_uris": {"ios": "https://dc.lft.to/lastmile_qr_scan", "android": "https://dc.lft.to/lastmile_qr_scan"}, "is_reserved": 0, "fusion_lon": 0.0, "fusion_lat": 0.0, "lon": -77.047882, "name": "a22f5e318f1edfb60cfbdd9d6b30676c"}, {"bike_id": "c67609bbf1adafee1592b7c7308201fe", "type": "electric_scooter", "is_disabled": 0, "lat": 38.90566533333333, "rental_uris": {"ios": "https://dc.lft.to/lastmile_qr_scan", "android": "https://dc.lft.to/lastmile_qr_scan"}, "is_reserved": 0, "fusion_lon": 0.0, "fusion_lat": 0.0, "lon": -76.99796016666667, "name": "c67609bbf1adafee1592b7c7308201fe"}, {"bike_id": "07a759906a93584dccb3c20b1925704e", "type": "electric_scooter", "is_disabled": 0, "lat": 38.93760833333333, "rental_uris": {"ios": "https://dc.lft.to/lastmile_qr_scan", "android": "https://dc.lft.to/lastmile_qr_scan"}, "is_reserved": 0, "fusion_lon": 0.0, "fusion_lat": 0.0, "lon": -77.02448266666667, "name": "07a759906a93584dccb3c20b1925704e"}, {"bike_id": "6065f5985aeec4eed33af953c7dbd81f", "type": "electric_scooter", "is_disabled": 0, "lat": 38.89477616666667, "rental_uris": {"ios": "https://dc.lft.to/lastmile_qr_scan", "android": "https://dc.lft.to/lastmile_qr_scan"}, "is_reserved": 0, "fusion_lon": 0.0, "fusion_lat": 0.0, "lon": -76.94863616666666, "name": "6065f5985aeec4eed33af953c7dbd81f"}, {"bike_id": "46b0909fe7abf1bb5ebdbe2eafe12af4", "type": "electric_scooter", "is_disabled": 0, "lat": 38.9321575, "rental_uris": {"ios": "https://dc.lft.to/lastmile_qr_scan", "android": "https://dc.lft.to/lastmile_qr_scan"}, "is_reserved": 0, "fusion_lon": 0.0, "fusion_lat": 0.0, "lon": -77.0284175, "name": "46b0909fe7abf1bb5ebdbe2eafe12af4"}, {"bike_id": "209483b600a65af7527f9911f235f834", "type": "electric_scooter", "is_disabled": 0, "lat": 38.92497683333333, "rental_uris": {"ios": "https://dc.lft.to/lastmile_qr_scan", "android": "https://dc.lft.to/lastmile_qr_scan"}, "is_reserved": 0, "fusion_lon": 0.0, "fusion_lat": 0.0, "lon": -77.021607, "name": "209483b600a65af7527f9911f235f834"}, {"bike_id": "870672fef7fe747b4929cdec8b6e71af", "type": "electric_scooter", "is_disabled": 0, "lat": 38.92781933333333, "rental_uris": {"ios": "https://dc.lft.to/lastmile_qr_scan", "android": "https://dc.lft.to/lastmile_qr_scan"}, "is_reserved": 0, "fusion_lon": 0.0, "fusion_lat": 0.0, "lon": -76.987627, "name": "870672fef7fe747b4929cdec8b6e71af"}, {"bike_id": "672bba633a266dac27f2518515d204ca", "type": "electric_bike", "is_disabled": 0, "lat": 38.978836333333334, "rental_uris": {"ios": "https://dc.lft.to/lastmile_qr_scan", "android": "https://dc.lft.to/lastmile_qr_scan"}, "is_reserved": 0, "fusion_lon": 0.0, "fusion_lat": 0.0, "lon": -77.06031, "name": "672bba633a266dac27f2518515d204ca"}, {"bike_id": "1d15ac8675a15a4c0eab44e89c290c02", "type": "electric_scooter", "is_disabled": 0, "lat": 38.90956383333334, "rental_uris": {"ios": "https://dc.lft.to/lastmile_qr_scan", "android": "https://dc.lft.to/lastmile_qr_scan"}, "is_reserved": 0, "fusion_lon": 0.0, "fusion_lat": 0.0, "lon": -77.02278283333334, "name": "1d15ac8675a15a4c0eab44e89c290c02"}, {"bike_id": "96c17b2b0fd0b5c730adaf80031a4382", "type": "electric_scooter", "is_disabled": 0, "lat": 38.916635, "rental_uris": {"ios": "https://dc.lft.to/lastmile_qr_scan", "android": "https://dc.lft.to/lastmile_qr_scan"}, "is_reserved": 0, "fusion_lon": 0.0, "fusion_lat": 0.0, "lon": -77.03207716666667, "name": "96c17b2b0fd0b5c730adaf80031a4382"}, {"bike_id": "ee0d1006a5ca49e6c6764a74ac0f688c", "type": "electric_scooter", "is_disabled": 0, "lat": 38.928500666666665, "rental_uris": {"ios": "https://dc.lft.to/lastmile_qr_scan", "android": "https://dc.lft.to/lastmile_qr_scan"}, "is_reserved": 0, "fusion_lon": 0.0, "fusion_lat": 0.0, "lon": -77.0326225, "name": "ee0d1006a5ca49e6c6764a74ac0f688c"}, {"bike_id": "a3b2aa824486f721fe07fb5fc0f7d21d", "type": "electric_scooter", "is_disabled": 0, "lat": 38.922649666666665, "rental_uris": {"ios": "https://dc.lft.to/lastmile_qr_scan", "android": "https://dc.lft.to/lastmile_qr_scan"}, "is_reserved": 0, "fusion_lon": 0.0, "fusion_lat": 0.0, "lon": -77.04306166666667, "name": "a3b2aa824486f721fe07fb5fc0f7d21d"}, {"bike_id": "1c5bd5d3200cb9587c954398b0e725e2", "type": "electric_scooter", "is_disabled": 0, "lat": 38.90793583333333, "rental_uris": {"ios": "https://dc.lft.to/lastmile_qr_scan", "android": "https://dc.lft.to/lastmile_qr_scan"}, "is_reserved": 0, "fusion_lon": 0.0, "fusion_lat": 0.0, "lon": -76.994164, "name": "1c5bd5d3200cb9587c954398b0e725e2"}, {"bike_id": "8ee2c8f063b41e536967e58e0fb5dc28", "type": "electric_bike", "is_disabled": 0, "lat": 38.807587, "rental_uris": {"ios": "https://dc.lft.to/lastmile_qr_scan", "android": "https://dc.lft.to/lastmile_qr_scan"}, "is_reserved": 0, "fusion_lon": 0.0, "fusion_lat": 0.0, "lon": -77.09459633333333, "name": "8ee2c8f063b41e536967e58e0fb5dc28"}, {"bike_id": "c27656c34b80733f20e7f5753a5d5475", "type": "electric_scooter", "is_disabled": 0, "lat": 38.9390505, "rental_uris": {"ios": "https://dc.lft.to/lastmile_qr_scan", "android": "https://dc.lft.to/lastmile_qr_scan"}, "is_reserved": 0, "fusion_lon": 0.0, "fusion_lat": 0.0, "lon": -77.03336933333334, "name": "c27656c34b80733f20e7f5753a5d5475"}, {"bike_id": "666545ba7c9a0cfbff92688d74edc61e", "type": "electric_scooter", "is_disabled": 0, "lat": 38.939795833333335, "rental_uris": {"ios": "https://dc.lft.to/lastmile_qr_scan", "android": "https://dc.lft.to/lastmile_qr_scan"}, "is_reserved": 0, "fusion_lon": 0.0, "fusion_lat": 0.0, "lon": -77.02875683333333, "name": "666545ba7c9a0cfbff92688d74edc61e"}, {"bike_id": "6b521277c85a46f15129309ee49e2ae5", "type": "electric_scooter", "is_disabled": 0, "lat": 38.8929985, "rental_uris": {"ios": "https://dc.lft.to/lastmile_qr_scan", "android": "https://dc.lft.to/lastmile_qr_scan"}, "is_reserved": 0, "fusion_lon": 0.0, "fusion_lat": 0.0, "lon": -77.020194, "name": "6b521277c85a46f15129309ee49e2ae5"}, {"bike_id": "b449b9aba4950cd014e837d38df56abe", "type": "electric_scooter", "is_disabled": 0, "lat": 38.9419865, "rental_uris": {"ios": "https://dc.lft.to/lastmile_qr_scan", "android": "https://dc.lft.to/lastmile_qr_scan"}, "is_reserved": 0, "fusion_lon": 0.0, "fusion_lat": 0.0, "lon": -77.025521, "name": "b449b9aba4950cd014e837d38df56abe"}, {"bike_id": "dcaf6c2ee2b73874519af26c60d83ab0", "type": "electric_scooter", "is_disabled": 0, "lat": 38.915003666666664, "rental_uris": {"ios": "https://dc.lft.to/lastmile_qr_scan", "android": "https://dc.lft.to/lastmile_qr_scan"}, "is_reserved": 0, "fusion_lon": 0.0, "fusion_lat": 0.0, "lon": -77.02531383333333, "name": "dcaf6c2ee2b73874519af26c60d83ab0"}, {"bike_id": "56a8de355712675c6af6513b50a53234", "type": "electric_scooter", "is_disabled": 0, "lat": 38.866326, "rental_uris": {"ios": "https://dc.lft.to/lastmile_qr_scan", "android": "https://dc.lft.to/lastmile_qr_scan"}, "is_reserved": 0, "fusion_lon": 0.0, "fusion_lat": 0.0, "lon": -76.9871835, "name": "56a8de355712675c6af6513b50a53234"}, {"bike_id": "4b80ed0aa0a79aa2184b025930f67ac2", "type": "electric_scooter", "is_disabled": 0, "lat": 38.87071383333333, "rental_uris": {"ios": "https://dc.lft.to/lastmile_qr_scan", "android": "https://dc.lft.to/lastmile_qr_scan"}, "is_reserved": 0, "fusion_lon": 0.0, "fusion_lat": 0.0, "lon": -76.98125883333333, "name": "4b80ed0aa0a79aa2184b025930f67ac2"}, {"bike_id": "a12d2690c31b3dd1164cabbe8c1b6f30", "type": "electric_scooter", "is_disabled": 0, "lat": 38.858108666666666, "rental_uris": {"ios": "https://dc.lft.to/lastmile_qr_scan", "android": "https://dc.lft.to/lastmile_qr_scan"}, "is_reserved": 0, "fusion_lon": 0.0, "fusion_lat": 0.0, "lon": -76.98932466666666, "name": "a12d2690c31b3dd1164cabbe8c1b6f30"}, {"bike_id": "cf50f7f0bdee6bfb0fc39ca8010d8d02", "type": "electric_bike", "is_disabled": 0, "lat": 38.864843666666665, "rental_uris": {"ios": "https://dc.lft.to/lastmile_qr_scan", "android": "https://dc.lft.to/lastmile_qr_scan"}, "is_reserved": 0, "fusion_lon": 0.0, "fusion_lat": 0.0, "lon": -76.97750383333333, "name": "cf50f7f0bdee6bfb0fc39ca8010d8d02"}, {"bike_id": "44681d2cbf8521e7c37d3e83aa80b7d0", "type": "electric_scooter", "is_disabled": 0, "lat": 38.912617833333336, "rental_uris": {"ios": "https://dc.lft.to/lastmile_qr_scan", "android": "https://dc.lft.to/lastmile_qr_scan"}, "is_reserved": 0, "fusion_lon": 0.0, "fusion_lat": 0.0, "lon": -77.00229333333333, "name": "44681d2cbf8521e7c37d3e83aa80b7d0"}, {"bike_id": "73f58b89aaf6a450418a99f8bbe9db39", "type": "electric_scooter", "is_disabled": 0, "lat": 38.917029666666664, "rental_uris": {"ios": "https://dc.lft.to/lastmile_qr_scan", "android": "https://dc.lft.to/lastmile_qr_scan"}, "is_reserved": 0, "fusion_lon": 0.0, "fusion_lat": 0.0, "lon": -77.028978, "name": "73f58b89aaf6a450418a99f8bbe9db39"}, {"bike_id": "6528e749303e71dd5eb48e017b05311b", "type": "electric_scooter", "is_disabled": 0, "lat": 38.91703733333333, "rental_uris": {"ios": "https://dc.lft.to/lastmile_qr_scan", "android": "https://dc.lft.to/lastmile_qr_scan"}, "is_reserved": 0, "fusion_lon": 0.0, "fusion_lat": 0.0, "lon": -77.0458945, "name": "6528e749303e71dd5eb48e017b05311b"}, {"bike_id": "b0f52f011b3de85bda960200cc560460", "type": "electric_scooter", "is_disabled": 0, "lat": 38.915683333333334, "rental_uris": {"ios": "https://dc.lft.to/lastmile_qr_scan", "android": "https://dc.lft.to/lastmile_qr_scan"}, "is_reserved": 0, "fusion_lon": 0.0, "fusion_lat": 0.0, "lon": -77.02391966666667, "name": "b0f52f011b3de85bda960200cc560460"}, {"bike_id": "602c9adfec67417c5ed78b54a46cae8a", "type": "electric_scooter", "is_disabled": 0, "lat": 38.955353833333334, "rental_uris": {"ios": "https://dc.lft.to/lastmile_qr_scan", "android": "https://dc.lft.to/lastmile_qr_scan"}, "is_reserved": 0, "fusion_lon": 0.0, "fusion_lat": 0.0, "lon": -77.02781683333333, "name": "602c9adfec67417c5ed78b54a46cae8a"}, {"bike_id": "302aef8f90e2269c7942afec24a879dd", "type": "electric_scooter", "is_disabled": 0, "lat": 38.96552616666666, "rental_uris": {"ios": "https://dc.lft.to/lastmile_qr_scan", "android": "https://dc.lft.to/lastmile_qr_scan"}, "is_reserved": 0, "fusion_lon": 0.0, "fusion_lat": 0.0, "lon": -77.036283, "name": "302aef8f90e2269c7942afec24a879dd"}, {"bike_id": "2c0af24c5bcc344568fb377c26612c47", "type": "electric_bike", "is_disabled": 0, "lat": 38.837891166666665, "rental_uris": {"ios": "https://dc.lft.to/lastmile_qr_scan", "android": "https://dc.lft.to/lastmile_qr_scan"}, "is_reserved": 0, "fusion_lon": 0.0, "fusion_lat": 0.0, "lon": -77.09352583333333, "name": "2c0af24c5bcc344568fb377c26612c47"}, {"bike_id": "dd332d3f9ceca65aff5420abacdf4332", "type": "electric_scooter", "is_disabled": 0, "lat": 38.928984666666665, "rental_uris": {"ios": "https://dc.lft.to/lastmile_qr_scan", "android": "https://dc.lft.to/lastmile_qr_scan"}, "is_reserved": 0, "fusion_lon": 0.0, "fusion_lat": 0.0, "lon": -77.03180266666666, "name": "dd332d3f9ceca65aff5420abacdf4332"}, {"bike_id": "ea6f4263a7a97b716d0e982826a98bdc", "type": "electric_scooter", "is_disabled": 0, "lat": 38.907393, "rental_uris": {"ios": "https://dc.lft.to/lastmile_qr_scan", "android": "https://dc.lft.to/lastmile_qr_scan"}, "is_reserved": 0, "fusion_lon": 0.0, "fusion_lat": 0.0, "lon": -77.000941, "name": "ea6f4263a7a97b716d0e982826a98bdc"}, {"bike_id": "fbe6dd34700532acdb6898522fad841d", "type": "electric_scooter", "is_disabled": 0, "lat": 38.86693833333333, "rental_uris": {"ios": "https://dc.lft.to/lastmile_qr_scan", "android": "https://dc.lft.to/lastmile_qr_scan"}, "is_reserved": 0, "fusion_lon": 0.0, "fusion_lat": 0.0, "lon": -76.98584066666666, "name": "fbe6dd34700532acdb6898522fad841d"}, {"bike_id": "eba89874739740420c13c0142a4e2e13", "type": "electric_scooter", "is_disabled": 0, "lat": 38.910768, "rental_uris": {"ios": "https://dc.lft.to/lastmile_qr_scan", "android": "https://dc.lft.to/lastmile_qr_scan"}, "is_reserved": 0, "fusion_lon": 0.0, "fusion_lat": 0.0, "lon": -77.03854016666666, "name": "eba89874739740420c13c0142a4e2e13"}, {"bike_id": "de15f47b092126176435bfd73d158d21", "type": "electric_scooter", "is_disabled": 0, "lat": 38.87393016666667, "rental_uris": {"ios": "https://dc.lft.to/lastmile_qr_scan", "android": "https://dc.lft.to/lastmile_qr_scan"}, "is_reserved": 0, "fusion_lon": 0.0, "fusion_lat": 0.0, "lon": -77.0436205, "name": "de15f47b092126176435bfd73d158d21"}, {"bike_id": "80f64ba0198b4c2b6c0fc06d0ef46bb2", "type": "electric_scooter", "is_disabled": 0, "lat": 38.9247755, "rental_uris": {"ios": "https://dc.lft.to/lastmile_qr_scan", "android": "https://dc.lft.to/lastmile_qr_scan"}, "is_reserved": 0, "fusion_lon": 0.0, "fusion_lat": 0.0, "lon": -77.052087, "name": "80f64ba0198b4c2b6c0fc06d0ef46bb2"}, {"bike_id": "c5b67590d925f7555ad4fb51df375730", "type": "electric_scooter", "is_disabled": 0, "lat": 38.900409333333336, "rental_uris": {"ios": "https://dc.lft.to/lastmile_qr_scan", "android": "https://dc.lft.to/lastmile_qr_scan"}, "is_reserved": 0, "fusion_lon": 0.0, "fusion_lat": 0.0, "lon": -77.03666866666667, "name": "c5b67590d925f7555ad4fb51df375730"}, {"bike_id": "3ba013d02a0f0076d15b1d5a4b2ac7c6", "type": "electric_scooter", "is_disabled": 0, "lat": 38.908747166666664, "rental_uris": {"ios": "https://dc.lft.to/lastmile_qr_scan", "android": "https://dc.lft.to/lastmile_qr_scan"}, "is_reserved": 0, "fusion_lon": 0.0, "fusion_lat": 0.0, "lon": -77.03450066666667, "name": "3ba013d02a0f0076d15b1d5a4b2ac7c6"}, {"bike_id": "5777bf29f5e6e1ef988a8bfa4cd333ec", "type": "electric_scooter", "is_disabled": 0, "lat": 38.9319635, "rental_uris": {"ios": "https://dc.lft.to/lastmile_qr_scan", "android": "https://dc.lft.to/lastmile_qr_scan"}, "is_reserved": 0, "fusion_lon": 0.0, "fusion_lat": 0.0, "lon": -77.02351916666667, "name": "5777bf29f5e6e1ef988a8bfa4cd333ec"}, {"bike_id": "16e47b5d2ed58525031355d4f40ac414", "type": "electric_scooter", "is_disabled": 0, "lat": 38.93204466666667, "rental_uris": {"ios": "https://dc.lft.to/lastmile_qr_scan", "android": "https://dc.lft.to/lastmile_qr_scan"}, "is_reserved": 0, "fusion_lon": 0.0, "fusion_lat": 0.0, "lon": -77.03663233333333, "name": "16e47b5d2ed58525031355d4f40ac414"}, {"bike_id": "a33f64abeca2da56374ff14ff17212bb", "type": "electric_bike", "is_disabled": 0, "lat": 38.879976666666664, "rental_uris": {"ios": "https://dc.lft.to/lastmile_qr_scan", "android": "https://dc.lft.to/lastmile_qr_scan"}, "is_reserved": 0, "fusion_lon": 0.0, "fusion_lat": 0.0, "lon": -76.98516233333334, "name": "a33f64abeca2da56374ff14ff17212bb"}, {"bike_id": "e508459ac7104512360ab988aad8121c", "type": "electric_scooter", "is_disabled": 0, "lat": 38.85712133333333, "rental_uris": {"ios": "https://dc.lft.to/lastmile_qr_scan", "android": "https://dc.lft.to/lastmile_qr_scan"}, "is_reserved": 0, "fusion_lon": 0.0, "fusion_lat": 0.0, "lon": -76.9896425, "name": "e508459ac7104512360ab988aad8121c"}, {"bike_id": "4dd5245f4bd641f0b657574d977deaf9", "type": "electric_scooter", "is_disabled": 0, "lat": 38.890034666666665, "rental_uris": {"ios": "https://dc.lft.to/lastmile_qr_scan", "android": "https://dc.lft.to/lastmile_qr_scan"}, "is_reserved": 0, "fusion_lon": 0.0, "fusion_lat": 0.0, "lon": -76.93744883333333, "name": "4dd5245f4bd641f0b657574d977deaf9"}, {"bike_id": "0d3b00965cc6f63c9fc410c1f71f57fc", "type": "electric_bike", "is_disabled": 0, "lat": 38.905801333333336, "rental_uris": {"ios": "https://dc.lft.to/lastmile_qr_scan", "android": "https://dc.lft.to/lastmile_qr_scan"}, "is_reserved": 0, "fusion_lon": 0.0, "fusion_lat": 0.0, "lon": -76.979148, "name": "0d3b00965cc6f63c9fc410c1f71f57fc"}, {"bike_id": "bb3038f83512decee7c718786fe3795e", "type": "electric_scooter", "is_disabled": 0, "lat": 38.911119, "rental_uris": {"ios": "https://dc.lft.to/lastmile_qr_scan", "android": "https://dc.lft.to/lastmile_qr_scan"}, "is_reserved": 0, "fusion_lon": 0.0, "fusion_lat": 0.0, "lon": -77.0242235, "name": "bb3038f83512decee7c718786fe3795e"}, {"bike_id": "0fe8906526539f8783a2e155d57bef31", "type": "electric_scooter", "is_disabled": 0, "lat": 38.93004783333333, "rental_uris": {"ios": "https://dc.lft.to/lastmile_qr_scan", "android": "https://dc.lft.to/lastmile_qr_scan"}, "is_reserved": 0, "fusion_lon": 0.0, "fusion_lat": 0.0, "lon": -77.01431766666667, "name": "0fe8906526539f8783a2e155d57bef31"}, {"bike_id": "0660f47cacb2edb8b4530ce20480db5c", "type": "electric_scooter", "is_disabled": 0, "lat": 38.9206115, "rental_uris": {"ios": "https://dc.lft.to/lastmile_qr_scan", "android": "https://dc.lft.to/lastmile_qr_scan"}, "is_reserved": 0, "fusion_lon": 0.0, "fusion_lat": 0.0, "lon": -77.0339715, "name": "0660f47cacb2edb8b4530ce20480db5c"}, {"bike_id": "5f44b3c765655c650bf36ab8ff0acf80", "type": "electric_scooter", "is_disabled": 0, "lat": 38.87116833333333, "rental_uris": {"ios": "https://dc.lft.to/lastmile_qr_scan", "android": "https://dc.lft.to/lastmile_qr_scan"}, "is_reserved": 0, "fusion_lon": 0.0, "fusion_lat": 0.0, "lon": -76.982447, "name": "5f44b3c765655c650bf36ab8ff0acf80"}, {"bike_id": "debd4fc22605d3ed8a1baac9c2c299ad", "type": "electric_bike", "is_disabled": 0, "lat": 39.057854666666664, "rental_uris": {"ios": "https://dc.lft.to/lastmile_qr_scan", "android": "https://dc.lft.to/lastmile_qr_scan"}, "is_reserved": 0, "fusion_lon": 0.0, "fusion_lat": 0.0, "lon": -77.15025116666666, "name": "debd4fc22605d3ed8a1baac9c2c299ad"}, {"bike_id": "f7e2e6b1541cb0587e4b2ee669a0488c", "type": "electric_scooter", "is_disabled": 0, "lat": 38.909817333333336, "rental_uris": {"ios": "https://dc.lft.to/lastmile_qr_scan", "android": "https://dc.lft.to/lastmile_qr_scan"}, "is_reserved": 0, "fusion_lon": 0.0, "fusion_lat": 0.0, "lon": -77.048843, "name": "f7e2e6b1541cb0587e4b2ee669a0488c"}, {"bike_id": "b426320f94ecc73e316da07e48183635", "type": "electric_scooter", "is_disabled": 0, "lat": 38.900582166666666, "rental_uris": {"ios": "https://dc.lft.to/lastmile_qr_scan", "android": "https://dc.lft.to/lastmile_qr_scan"}, "is_reserved": 0, "fusion_lon": 0.0, "fusion_lat": 0.0, "lon": -76.9347115, "name": "b426320f94ecc73e316da07e48183635"}, {"bike_id": "c8e90d4125d0ea0bfba03734f7b6ea9c", "type": "electric_bike", "is_disabled": 0, "lat": 38.853527, "rental_uris": {"ios": "https://dc.lft.to/lastmile_qr_scan", "android": "https://dc.lft.to/lastmile_qr_scan"}, "is_reserved": 0, "fusion_lon": 0.0, "fusion_lat": 0.0, "lon": -77.134691, "name": "c8e90d4125d0ea0bfba03734f7b6ea9c"}, {"bike_id": "0196dfada02444d6e766a01b4abf4935", "type": "electric_scooter", "is_disabled": 0, "lat": 38.9118815, "rental_uris": {"ios": "https://dc.lft.to/lastmile_qr_scan", "android": "https://dc.lft.to/lastmile_qr_scan"}, "is_reserved": 0, "fusion_lon": 0.0, "fusion_lat": 0.0, "lon": -77.03472383333333, "name": "0196dfada02444d6e766a01b4abf4935"}, {"bike_id": "f93352af030a035b46d4f9a66cb50131", "type": "electric_scooter", "is_disabled": 0, "lat": 38.91412433333333, "rental_uris": {"ios": "https://dc.lft.to/lastmile_qr_scan", "android": "https://dc.lft.to/lastmile_qr_scan"}, "is_reserved": 0, "fusion_lon": 0.0, "fusion_lat": 0.0, "lon": -77.03033916666666, "name": "f93352af030a035b46d4f9a66cb50131"}, {"bike_id": "9b59763bd7f26dca59f019c749e67c85", "type": "electric_scooter", "is_disabled": 0, "lat": 38.9429465, "rental_uris": {"ios": "https://dc.lft.to/lastmile_qr_scan", "android": "https://dc.lft.to/lastmile_qr_scan"}, "is_reserved": 0, "fusion_lon": 0.0, "fusion_lat": 0.0, "lon": -77.021725, "name": "9b59763bd7f26dca59f019c749e67c85"}, {"bike_id": "2d12849d3192e0236dac4531e329736f", "type": "electric_scooter", "is_disabled": 0, "lat": 38.89589433333333, "rental_uris": {"ios": "https://dc.lft.to/lastmile_qr_scan", "android": "https://dc.lft.to/lastmile_qr_scan"}, "is_reserved": 0, "fusion_lon": 0.0, "fusion_lat": 0.0, "lon": -77.0050545, "name": "2d12849d3192e0236dac4531e329736f"}, {"bike_id": "9d25669c8d57af4f6c5aa7364cd42b5f", "type": "electric_scooter", "is_disabled": 0, "lat": 38.91411683333333, "rental_uris": {"ios": "https://dc.lft.to/lastmile_qr_scan", "android": "https://dc.lft.to/lastmile_qr_scan"}, "is_reserved": 0, "fusion_lon": 0.0, "fusion_lat": 0.0, "lon": -77.02983566666667, "name": "9d25669c8d57af4f6c5aa7364cd42b5f"}, {"bike_id": "9ca9c3588dd4ac8665024f86be952c53", "type": "electric_scooter", "is_disabled": 0, "lat": 38.902854833333336, "rental_uris": {"ios": "https://dc.lft.to/lastmile_qr_scan", "android": "https://dc.lft.to/lastmile_qr_scan"}, "is_reserved": 0, "fusion_lon": 0.0, "fusion_lat": 0.0, "lon": -76.9904225, "name": "9ca9c3588dd4ac8665024f86be952c53"}, {"bike_id": "8a272c0a2c1b93d57b54293eab2c8dd0", "type": "electric_scooter", "is_disabled": 0, "lat": 38.9008465, "rental_uris": {"ios": "https://dc.lft.to/lastmile_qr_scan", "android": "https://dc.lft.to/lastmile_qr_scan"}, "is_reserved": 0, "fusion_lon": 0.0, "fusion_lat": 0.0, "lon": -77.017743, "name": "8a272c0a2c1b93d57b54293eab2c8dd0"}, {"bike_id": "7545f9bcc0ba506438e58b3eee2abf96", "type": "electric_scooter", "is_disabled": 0, "lat": 38.92480666666667, "rental_uris": {"ios": "https://dc.lft.to/lastmile_qr_scan", "android": "https://dc.lft.to/lastmile_qr_scan"}, "is_reserved": 0, "fusion_lon": 0.0, "fusion_lat": 0.0, "lon": -77.027649, "name": "7545f9bcc0ba506438e58b3eee2abf96"}, {"bike_id": "4713e60243e08241666ca37d21e536f1", "type": "electric_scooter", "is_disabled": 0, "lat": 38.92753016666666, "rental_uris": {"ios": "https://dc.lft.to/lastmile_qr_scan", "android": "https://dc.lft.to/lastmile_qr_scan"}, "is_reserved": 0, "fusion_lon": 0.0, "fusion_lat": 0.0, "lon": -77.02540016666667, "name": "4713e60243e08241666ca37d21e536f1"}, {"bike_id": "9581c6f39071f2da26bdf31035118f22", "type": "electric_scooter", "is_disabled": 0, "lat": 38.9268725, "rental_uris": {"ios": "https://dc.lft.to/lastmile_qr_scan", "android": "https://dc.lft.to/lastmile_qr_scan"}, "is_reserved": 0, "fusion_lon": 0.0, "fusion_lat": 0.0, "lon": -77.03775266666666, "name": "9581c6f39071f2da26bdf31035118f22"}, {"bike_id": "ad07f7f79ec9ecab701ff5fe112ed9bb", "type": "electric_scooter", "is_disabled": 0, "lat": 38.90912466666666, "rental_uris": {"ios": "https://dc.lft.to/lastmile_qr_scan", "android": "https://dc.lft.to/lastmile_qr_scan"}, "is_reserved": 0, "fusion_lon": 0.0, "fusion_lat": 0.0, "lon": -77.0739555, "name": "ad07f7f79ec9ecab701ff5fe112ed9bb"}, {"bike_id": "affdfb41c5cd8f6a48d8342668c77be0", "type": "electric_scooter", "is_disabled": 0, "lat": 38.93676883333333, "rental_uris": {"ios": "https://dc.lft.to/lastmile_qr_scan", "android": "https://dc.lft.to/lastmile_qr_scan"}, "is_reserved": 0, "fusion_lon": 0.0, "fusion_lat": 0.0, "lon": -77.03600966666667, "name": "affdfb41c5cd8f6a48d8342668c77be0"}, {"bike_id": "92aa070b0ca2b4e2d45d8a1a364f900a", "type": "electric_scooter", "is_disabled": 0, "lat": 38.928555333333335, "rental_uris": {"ios": "https://dc.lft.to/lastmile_qr_scan", "android": "https://dc.lft.to/lastmile_qr_scan"}, "is_reserved": 0, "fusion_lon": 0.0, "fusion_lat": 0.0, "lon": -77.03262566666666, "name": "92aa070b0ca2b4e2d45d8a1a364f900a"}, {"bike_id": "4b2236e4d62771e0a5592787d1f3b0ae", "type": "electric_scooter", "is_disabled": 0, "lat": 38.9346725, "rental_uris": {"ios": "https://dc.lft.to/lastmile_qr_scan", "android": "https://dc.lft.to/lastmile_qr_scan"}, "is_reserved": 0, "fusion_lon": 0.0, "fusion_lat": 0.0, "lon": -77.0727865, "name": "4b2236e4d62771e0a5592787d1f3b0ae"}, {"bike_id": "5f84a498dd51df28b0a886493bde5412", "type": "electric_scooter", "is_disabled": 0, "lat": 38.925823333333334, "rental_uris": {"ios": "https://dc.lft.to/lastmile_qr_scan", "android": "https://dc.lft.to/lastmile_qr_scan"}, "is_reserved": 0, "fusion_lon": 0.0, "fusion_lat": 0.0, "lon": -76.99497733333334, "name": "5f84a498dd51df28b0a886493bde5412"}, {"bike_id": "d8643c9f839bf67abf4efaca9a4410c8", "type": "electric_scooter", "is_disabled": 0, "lat": 38.92501733333334, "rental_uris": {"ios": "https://dc.lft.to/lastmile_qr_scan", "android": "https://dc.lft.to/lastmile_qr_scan"}, "is_reserved": 0, "fusion_lon": 0.0, "fusion_lat": 0.0, "lon": -77.03807283333333, "name": "d8643c9f839bf67abf4efaca9a4410c8"}, {"bike_id": "7de8d35ab0611b775e2d1b8e5cafacde", "type": "electric_bike", "is_disabled": 0, "lat": 38.90874783333334, "rental_uris": {"ios": "https://dc.lft.to/lastmile_qr_scan", "android": "https://dc.lft.to/lastmile_qr_scan"}, "is_reserved": 0, "fusion_lon": 0.0, "fusion_lat": 0.0, "lon": -76.991453, "name": "7de8d35ab0611b775e2d1b8e5cafacde"}, {"bike_id": "9ace787922c5c95b25241537215cbd6e", "type": "electric_scooter", "is_disabled": 0, "lat": 38.922450833333336, "rental_uris": {"ios": "https://dc.lft.to/lastmile_qr_scan", "android": "https://dc.lft.to/lastmile_qr_scan"}, "is_reserved": 0, "fusion_lon": 0.0, "fusion_lat": 0.0, "lon": -77.07316116666667, "name": "9ace787922c5c95b25241537215cbd6e"}, {"bike_id": "642baac587a90d2abb10897016e92694", "type": "electric_scooter", "is_disabled": 0, "lat": 38.88678766666666, "rental_uris": {"ios": "https://dc.lft.to/lastmile_qr_scan", "android": "https://dc.lft.to/lastmile_qr_scan"}, "is_reserved": 0, "fusion_lon": 0.0, "fusion_lat": 0.0, "lon": -77.01980766666667, "name": "642baac587a90d2abb10897016e92694"}, {"bike_id": "bc2d3910c7ad5ecd8672e7a990ff2edb", "type": "electric_scooter", "is_disabled": 0, "lat": 38.8764795, "rental_uris": {"ios": "https://dc.lft.to/lastmile_qr_scan", "android": "https://dc.lft.to/lastmile_qr_scan"}, "is_reserved": 0, "fusion_lon": 0.0, "fusion_lat": 0.0, "lon": -76.96507233333334, "name": "bc2d3910c7ad5ecd8672e7a990ff2edb"}, {"bike_id": "87ce1245aed4036b13a43b3637c8995c", "type": "electric_scooter", "is_disabled": 0, "lat": 38.907075166666665, "rental_uris": {"ios": "https://dc.lft.to/lastmile_qr_scan", "android": "https://dc.lft.to/lastmile_qr_scan"}, "is_reserved": 0, "fusion_lon": 0.0, "fusion_lat": 0.0, "lon": -77.02380316666667, "name": "87ce1245aed4036b13a43b3637c8995c"}, {"bike_id": "e2bb66b455076554e15f016b997f2bb0", "type": "electric_scooter", "is_disabled": 0, "lat": 38.90413816666667, "rental_uris": {"ios": "https://dc.lft.to/lastmile_qr_scan", "android": "https://dc.lft.to/lastmile_qr_scan"}, "is_reserved": 0, "fusion_lon": 0.0, "fusion_lat": 0.0, "lon": -77.02413766666666, "name": "e2bb66b455076554e15f016b997f2bb0"}, {"bike_id": "9b91355c6591ae2870c89e670ef8c9dc", "type": "electric_scooter", "is_disabled": 0, "lat": 38.924800833333336, "rental_uris": {"ios": "https://dc.lft.to/lastmile_qr_scan", "android": "https://dc.lft.to/lastmile_qr_scan"}, "is_reserved": 0, "fusion_lon": 0.0, "fusion_lat": 0.0, "lon": -77.02721366666667, "name": "9b91355c6591ae2870c89e670ef8c9dc"}, {"bike_id": "68c29a77001825e3d89059d25964e9c1", "type": "electric_scooter", "is_disabled": 0, "lat": 38.92138383333333, "rental_uris": {"ios": "https://dc.lft.to/lastmile_qr_scan", "android": "https://dc.lft.to/lastmile_qr_scan"}, "is_reserved": 0, "fusion_lon": 0.0, "fusion_lat": 0.0, "lon": -77.04132616666666, "name": "68c29a77001825e3d89059d25964e9c1"}, {"bike_id": "d06d0b81c7e988d50f1d5b09b2ca559b", "type": "electric_scooter", "is_disabled": 0, "lat": 38.911128166666664, "rental_uris": {"ios": "https://dc.lft.to/lastmile_qr_scan", "android": "https://dc.lft.to/lastmile_qr_scan"}, "is_reserved": 0, "fusion_lon": 0.0, "fusion_lat": 0.0, "lon": -77.0383555, "name": "d06d0b81c7e988d50f1d5b09b2ca559b"}, {"bike_id": "d2aad6e4a078b34394ea76596f5c1d8b", "type": "electric_scooter", "is_disabled": 0, "lat": 38.911264833333334, "rental_uris": {"ios": "https://dc.lft.to/lastmile_qr_scan", "android": "https://dc.lft.to/lastmile_qr_scan"}, "is_reserved": 0, "fusion_lon": 0.0, "fusion_lat": 0.0, "lon": -77.04420983333333, "name": "d2aad6e4a078b34394ea76596f5c1d8b"}, {"bike_id": "8e58913225c10ab5c7b2fb623ab56853", "type": "electric_scooter", "is_disabled": 0, "lat": 38.86625933333333, "rental_uris": {"ios": "https://dc.lft.to/lastmile_qr_scan", "android": "https://dc.lft.to/lastmile_qr_scan"}, "is_reserved": 0, "fusion_lon": 0.0, "fusion_lat": 0.0, "lon": -76.98715733333333, "name": "8e58913225c10ab5c7b2fb623ab56853"}, {"bike_id": "0d30bd9ccf0ac8ae084d9e5658f9b6e0", "type": "electric_scooter", "is_disabled": 0, "lat": 38.905321, "rental_uris": {"ios": "https://dc.lft.to/lastmile_qr_scan", "android": "https://dc.lft.to/lastmile_qr_scan"}, "is_reserved": 0, "fusion_lon": 0.0, "fusion_lat": 0.0, "lon": -77.0416475, "name": "0d30bd9ccf0ac8ae084d9e5658f9b6e0"}, {"bike_id": "f9400e5277d35ccb116d0a031824db95", "type": "electric_scooter", "is_disabled": 0, "lat": 38.9159115, "rental_uris": {"ios": "https://dc.lft.to/lastmile_qr_scan", "android": "https://dc.lft.to/lastmile_qr_scan"}, "is_reserved": 0, "fusion_lon": 0.0, "fusion_lat": 0.0, "lon": -77.04505466666667, "name": "f9400e5277d35ccb116d0a031824db95"}, {"bike_id": "ad1b91870da0fbc606bae54b1fbf990c", "type": "electric_scooter", "is_disabled": 0, "lat": 38.90560033333333, "rental_uris": {"ios": "https://dc.lft.to/lastmile_qr_scan", "android": "https://dc.lft.to/lastmile_qr_scan"}, "is_reserved": 0, "fusion_lon": 0.0, "fusion_lat": 0.0, "lon": -77.01636066666667, "name": "ad1b91870da0fbc606bae54b1fbf990c"}, {"bike_id": "07d7dc77cf2205cde65f76f6b431059d", "type": "electric_scooter", "is_disabled": 0, "lat": 38.93364316666667, "rental_uris": {"ios": "https://dc.lft.to/lastmile_qr_scan", "android": "https://dc.lft.to/lastmile_qr_scan"}, "is_reserved": 0, "fusion_lon": 0.0, "fusion_lat": 0.0, "lon": -77.088581, "name": "07d7dc77cf2205cde65f76f6b431059d"}, {"bike_id": "e9915415dee494cf09139e05646209eb", "type": "electric_scooter", "is_disabled": 0, "lat": 38.93406366666667, "rental_uris": {"ios": "https://dc.lft.to/lastmile_qr_scan", "android": "https://dc.lft.to/lastmile_qr_scan"}, "is_reserved": 0, "fusion_lon": 0.0, "fusion_lat": 0.0, "lon": -77.03898233333334, "name": "e9915415dee494cf09139e05646209eb"}, {"bike_id": "d5ff30934d95683b509b28b106edd4ca", "type": "electric_scooter", "is_disabled": 0, "lat": 38.897146166666666, "rental_uris": {"ios": "https://dc.lft.to/lastmile_qr_scan", "android": "https://dc.lft.to/lastmile_qr_scan"}, "is_reserved": 0, "fusion_lon": 0.0, "fusion_lat": 0.0, "lon": -77.00806233333333, "name": "d5ff30934d95683b509b28b106edd4ca"}, {"bike_id": "10324b7055a36deb1f6ee4af3a9bfe43", "type": "electric_scooter", "is_disabled": 0, "lat": 38.901861333333336, "rental_uris": {"ios": "https://dc.lft.to/lastmile_qr_scan", "android": "https://dc.lft.to/lastmile_qr_scan"}, "is_reserved": 0, "fusion_lon": 0.0, "fusion_lat": 0.0, "lon": -77.05085133333333, "name": "10324b7055a36deb1f6ee4af3a9bfe43"}, {"bike_id": "70e534224b4be91f0af2d7beee6de98a", "type": "electric_scooter", "is_disabled": 0, "lat": 38.886442333333335, "rental_uris": {"ios": "https://dc.lft.to/lastmile_qr_scan", "android": "https://dc.lft.to/lastmile_qr_scan"}, "is_reserved": 0, "fusion_lon": 0.0, "fusion_lat": 0.0, "lon": -77.02140916666667, "name": "70e534224b4be91f0af2d7beee6de98a"}, {"bike_id": "7edbb36e22e634b0a5289e40cda7a80e", "type": "electric_bike", "is_disabled": 0, "lat": 38.90899116666667, "rental_uris": {"ios": "https://dc.lft.to/lastmile_qr_scan", "android": "https://dc.lft.to/lastmile_qr_scan"}, "is_reserved": 0, "fusion_lon": 0.0, "fusion_lat": 0.0, "lon": -77.05723016666667, "name": "7edbb36e22e634b0a5289e40cda7a80e"}, {"bike_id": "d809ab0a2cfe8e3039bd3e388b1dd527", "type": "electric_scooter", "is_disabled": 0, "lat": 38.9361355, "rental_uris": {"ios": "https://dc.lft.to/lastmile_qr_scan", "android": "https://dc.lft.to/lastmile_qr_scan"}, "is_reserved": 0, "fusion_lon": 0.0, "fusion_lat": 0.0, "lon": -77.03784716666667, "name": "d809ab0a2cfe8e3039bd3e388b1dd527"}, {"bike_id": "39e3bac81c2b68f6711ee471c00162ba", "type": "electric_scooter", "is_disabled": 0, "lat": 38.90656766666667, "rental_uris": {"ios": "https://dc.lft.to/lastmile_qr_scan", "android": "https://dc.lft.to/lastmile_qr_scan"}, "is_reserved": 0, "fusion_lon": 0.0, "fusion_lat": 0.0, "lon": -77.03534283333333, "name": "39e3bac81c2b68f6711ee471c00162ba"}, {"bike_id": "25d95162f821f9445816b9d4c7d709ee", "type": "electric_scooter", "is_disabled": 0, "lat": 38.94111983333333, "rental_uris": {"ios": "https://dc.lft.to/lastmile_qr_scan", "android": "https://dc.lft.to/lastmile_qr_scan"}, "is_reserved": 0, "fusion_lon": 0.0, "fusion_lat": 0.0, "lon": -77.02541183333334, "name": "25d95162f821f9445816b9d4c7d709ee"}, {"bike_id": "32e086039b9caa94258ff21910e6c19e", "type": "electric_scooter", "is_disabled": 0, "lat": 38.92489616666667, "rental_uris": {"ios": "https://dc.lft.to/lastmile_qr_scan", "android": "https://dc.lft.to/lastmile_qr_scan"}, "is_reserved": 0, "fusion_lon": 0.0, "fusion_lat": 0.0, "lon": -77.0318025, "name": "32e086039b9caa94258ff21910e6c19e"}, {"bike_id": "19c0c1bb332c4b2110c6d15eefd95483", "type": "electric_scooter", "is_disabled": 0, "lat": 38.90068, "rental_uris": {"ios": "https://dc.lft.to/lastmile_qr_scan", "android": "https://dc.lft.to/lastmile_qr_scan"}, "is_reserved": 0, "fusion_lon": 0.0, "fusion_lat": 0.0, "lon": -77.01729366666666, "name": "19c0c1bb332c4b2110c6d15eefd95483"}, {"bike_id": "25d0a25ae51051bd182f551db7ad5dff", "type": "electric_scooter", "is_disabled": 0, "lat": 38.9133975, "rental_uris": {"ios": "https://dc.lft.to/lastmile_qr_scan", "android": "https://dc.lft.to/lastmile_qr_scan"}, "is_reserved": 0, "fusion_lon": 0.0, "fusion_lat": 0.0, "lon": -77.03858283333334, "name": "25d0a25ae51051bd182f551db7ad5dff"}, {"bike_id": "caea733fed8a9fcd9b27c27a852383ab", "type": "electric_scooter", "is_disabled": 0, "lat": 38.92373516666667, "rental_uris": {"ios": "https://dc.lft.to/lastmile_qr_scan", "android": "https://dc.lft.to/lastmile_qr_scan"}, "is_reserved": 0, "fusion_lon": 0.0, "fusion_lat": 0.0, "lon": -77.01221283333334, "name": "caea733fed8a9fcd9b27c27a852383ab"}, {"bike_id": "731c71a8b666cf3e9f9f9bfb29a292ef", "type": "electric_bike", "is_disabled": 0, "lat": 38.951756833333334, "rental_uris": {"ios": "https://dc.lft.to/lastmile_qr_scan", "android": "https://dc.lft.to/lastmile_qr_scan"}, "is_reserved": 0, "fusion_lon": 0.0, "fusion_lat": 0.0, "lon": -76.97735116666666, "name": "731c71a8b666cf3e9f9f9bfb29a292ef"}, {"bike_id": "63607b4f45dc52dec1a2c6711b5bb658", "type": "electric_scooter", "is_disabled": 0, "lat": 38.9478795, "rental_uris": {"ios": "https://dc.lft.to/lastmile_qr_scan", "android": "https://dc.lft.to/lastmile_qr_scan"}, "is_reserved": 0, "fusion_lon": 0.0, "fusion_lat": 0.0, "lon": -77.02135266666667, "name": "63607b4f45dc52dec1a2c6711b5bb658"}, {"bike_id": "5df022d27a66066a6ffa553a378ee7b9", "type": "electric_scooter", "is_disabled": 0, "lat": 38.913704833333334, "rental_uris": {"ios": "https://dc.lft.to/lastmile_qr_scan", "android": "https://dc.lft.to/lastmile_qr_scan"}, "is_reserved": 0, "fusion_lon": 0.0, "fusion_lat": 0.0, "lon": -77.07278883333333, "name": "5df022d27a66066a6ffa553a378ee7b9"}, {"bike_id": "7524a72748cddc12ea50691add9cab42", "type": "electric_scooter", "is_disabled": 0, "lat": 38.869785, "rental_uris": {"ios": "https://dc.lft.to/lastmile_qr_scan", "android": "https://dc.lft.to/lastmile_qr_scan"}, "is_reserved": 0, "fusion_lon": 0.0, "fusion_lat": 0.0, "lon": -76.9817465, "name": "7524a72748cddc12ea50691add9cab42"}, {"bike_id": "a87bf50f128502f06c1b162db3c4361c", "type": "electric_scooter", "is_disabled": 0, "lat": 38.88217266666667, "rental_uris": {"ios": "https://dc.lft.to/lastmile_qr_scan", "android": "https://dc.lft.to/lastmile_qr_scan"}, "is_reserved": 0, "fusion_lon": 0.0, "fusion_lat": 0.0, "lon": -76.926684, "name": "a87bf50f128502f06c1b162db3c4361c"}, {"bike_id": "08294e230771e90d0ca6d73c43b9c066", "type": "electric_bike", "is_disabled": 0, "lat": 38.91014283333333, "rental_uris": {"ios": "https://dc.lft.to/lastmile_qr_scan", "android": "https://dc.lft.to/lastmile_qr_scan"}, "is_reserved": 0, "fusion_lon": 0.0, "fusion_lat": 0.0, "lon": -77.227978, "name": "08294e230771e90d0ca6d73c43b9c066"}, {"bike_id": "5b57439b213c1ceb738c814491b55efd", "type": "electric_scooter", "is_disabled": 0, "lat": 38.9283235, "rental_uris": {"ios": "https://dc.lft.to/lastmile_qr_scan", "android": "https://dc.lft.to/lastmile_qr_scan"}, "is_reserved": 0, "fusion_lon": 0.0, "fusion_lat": 0.0, "lon": -77.00603066666666, "name": "5b57439b213c1ceb738c814491b55efd"}, {"bike_id": "77dae88b195b6009391596ae76d2cc87", "type": "electric_scooter", "is_disabled": 0, "lat": 38.92186316666667, "rental_uris": {"ios": "https://dc.lft.to/lastmile_qr_scan", "android": "https://dc.lft.to/lastmile_qr_scan"}, "is_reserved": 0, "fusion_lon": 0.0, "fusion_lat": 0.0, "lon": -77.0424735, "name": "77dae88b195b6009391596ae76d2cc87"}, {"bike_id": "667fc5866f93de35eb8df2746aa1ba3d", "type": "electric_scooter", "is_disabled": 0, "lat": 38.905660166666664, "rental_uris": {"ios": "https://dc.lft.to/lastmile_qr_scan", "android": "https://dc.lft.to/lastmile_qr_scan"}, "is_reserved": 0, "fusion_lon": 0.0, "fusion_lat": 0.0, "lon": -77.03821833333333, "name": "667fc5866f93de35eb8df2746aa1ba3d"}, {"bike_id": "c60d9e75426d88c06a6ae9b7e620a036", "type": "electric_scooter", "is_disabled": 0, "lat": 38.9053225, "rental_uris": {"ios": "https://dc.lft.to/lastmile_qr_scan", "android": "https://dc.lft.to/lastmile_qr_scan"}, "is_reserved": 0, "fusion_lon": 0.0, "fusion_lat": 0.0, "lon": -77.04179666666667, "name": "c60d9e75426d88c06a6ae9b7e620a036"}, {"bike_id": "a8701443d2ed6ad35318f2ee30669758", "type": "electric_bike", "is_disabled": 0, "lat": 38.880572, "rental_uris": {"ios": "https://dc.lft.to/lastmile_qr_scan", "android": "https://dc.lft.to/lastmile_qr_scan"}, "is_reserved": 0, "fusion_lon": 0.0, "fusion_lat": 0.0, "lon": -76.96249166666666, "name": "a8701443d2ed6ad35318f2ee30669758"}, {"bike_id": "f6a090cf499a2a3b98bd069562cba8f1", "type": "electric_scooter", "is_disabled": 0, "lat": 38.956623666666665, "rental_uris": {"ios": "https://dc.lft.to/lastmile_qr_scan", "android": "https://dc.lft.to/lastmile_qr_scan"}, "is_reserved": 0, "fusion_lon": 0.0, "fusion_lat": 0.0, "lon": -77.01321316666667, "name": "f6a090cf499a2a3b98bd069562cba8f1"}, {"bike_id": "d8cf6e84769116371c960ac1ef014ed9", "type": "electric_scooter", "is_disabled": 0, "lat": 38.9229405, "rental_uris": {"ios": "https://dc.lft.to/lastmile_qr_scan", "android": "https://dc.lft.to/lastmile_qr_scan"}, "is_reserved": 0, "fusion_lon": 0.0, "fusion_lat": 0.0, "lon": -77.04312433333334, "name": "d8cf6e84769116371c960ac1ef014ed9"}, {"bike_id": "b50619c97d81c7729346a92a23d081ea", "type": "electric_scooter", "is_disabled": 0, "lat": 38.92860683333333, "rental_uris": {"ios": "https://dc.lft.to/lastmile_qr_scan", "android": "https://dc.lft.to/lastmile_qr_scan"}, "is_reserved": 0, "fusion_lon": 0.0, "fusion_lat": 0.0, "lon": -77.01951466666667, "name": "b50619c97d81c7729346a92a23d081ea"}, {"bike_id": "11298256fd185d8d13083ef19f5afbc6", "type": "electric_scooter", "is_disabled": 0, "lat": 38.9141585, "rental_uris": {"ios": "https://dc.lft.to/lastmile_qr_scan", "android": "https://dc.lft.to/lastmile_qr_scan"}, "is_reserved": 0, "fusion_lon": 0.0, "fusion_lat": 0.0, "lon": -77.04818483333334, "name": "11298256fd185d8d13083ef19f5afbc6"}, {"bike_id": "75a1d2238d462cc9f79c0d7aa7cf55f9", "type": "electric_scooter", "is_disabled": 0, "lat": 38.92152933333333, "rental_uris": {"ios": "https://dc.lft.to/lastmile_qr_scan", "android": "https://dc.lft.to/lastmile_qr_scan"}, "is_reserved": 0, "fusion_lon": 0.0, "fusion_lat": 0.0, "lon": -77.0353745, "name": "75a1d2238d462cc9f79c0d7aa7cf55f9"}, {"bike_id": "2a01f26761dbc6ada80cdd3fa442f512", "type": "electric_scooter", "is_disabled": 0, "lat": 38.9279265, "rental_uris": {"ios": "https://dc.lft.to/lastmile_qr_scan", "android": "https://dc.lft.to/lastmile_qr_scan"}, "is_reserved": 0, "fusion_lon": 0.0, "fusion_lat": 0.0, "lon": -77.0262545, "name": "2a01f26761dbc6ada80cdd3fa442f512"}, {"bike_id": "ad293867b5bbed87ef05da8079669943", "type": "electric_scooter", "is_disabled": 0, "lat": 38.925955333333334, "rental_uris": {"ios": "https://dc.lft.to/lastmile_qr_scan", "android": "https://dc.lft.to/lastmile_qr_scan"}, "is_reserved": 0, "fusion_lon": 0.0, "fusion_lat": 0.0, "lon": -77.0375805, "name": "ad293867b5bbed87ef05da8079669943"}, {"bike_id": "bfa40291787f863c436123c30e975e13", "type": "electric_scooter", "is_disabled": 0, "lat": 38.91475966666667, "rental_uris": {"ios": "https://dc.lft.to/lastmile_qr_scan", "android": "https://dc.lft.to/lastmile_qr_scan"}, "is_reserved": 0, "fusion_lon": 0.0, "fusion_lat": 0.0, "lon": -77.03187, "name": "bfa40291787f863c436123c30e975e13"}, {"bike_id": "604972dae8f603e1d7415e7905928c46", "type": "electric_scooter", "is_disabled": 0, "lat": 38.9281405, "rental_uris": {"ios": "https://dc.lft.to/lastmile_qr_scan", "android": "https://dc.lft.to/lastmile_qr_scan"}, "is_reserved": 0, "fusion_lon": 0.0, "fusion_lat": 0.0, "lon": -77.02702416666666, "name": "604972dae8f603e1d7415e7905928c46"}, {"bike_id": "4d1e0ca6856b395d6cea74a63fad20ef", "type": "electric_scooter", "is_disabled": 0, "lat": 38.91415716666667, "rental_uris": {"ios": "https://dc.lft.to/lastmile_qr_scan", "android": "https://dc.lft.to/lastmile_qr_scan"}, "is_reserved": 0, "fusion_lon": 0.0, "fusion_lat": 0.0, "lon": -77.022597, "name": "4d1e0ca6856b395d6cea74a63fad20ef"}, {"bike_id": "677582ed533568cf7a0ad16357c4dbd0", "type": "electric_scooter", "is_disabled": 0, "lat": 38.94299066666667, "rental_uris": {"ios": "https://dc.lft.to/lastmile_qr_scan", "android": "https://dc.lft.to/lastmile_qr_scan"}, "is_reserved": 0, "fusion_lon": 0.0, "fusion_lat": 0.0, "lon": -77.021767, "name": "677582ed533568cf7a0ad16357c4dbd0"}, {"bike_id": "d6cda85abcddedb64a321dfa568b2534", "type": "electric_scooter", "is_disabled": 0, "lat": 38.9141955, "rental_uris": {"ios": "https://dc.lft.to/lastmile_qr_scan", "android": "https://dc.lft.to/lastmile_qr_scan"}, "is_reserved": 0, "fusion_lon": 0.0, "fusion_lat": 0.0, "lon": -77.03910166666667, "name": "d6cda85abcddedb64a321dfa568b2534"}, {"bike_id": "680c32d02edac20ba1996c9d50e2f13e", "type": "electric_bike", "is_disabled": 0, "lat": 38.85442483333333, "rental_uris": {"ios": "https://dc.lft.to/lastmile_qr_scan", "android": "https://dc.lft.to/lastmile_qr_scan"}, "is_reserved": 0, "fusion_lon": 0.0, "fusion_lat": 0.0, "lon": -77.08309766666666, "name": "680c32d02edac20ba1996c9d50e2f13e"}, {"bike_id": "01d0d55c55dd559a05162e39e38ae23d", "type": "electric_scooter", "is_disabled": 0, "lat": 38.911843833333336, "rental_uris": {"ios": "https://dc.lft.to/lastmile_qr_scan", "android": "https://dc.lft.to/lastmile_qr_scan"}, "is_reserved": 0, "fusion_lon": 0.0, "fusion_lat": 0.0, "lon": -77.01009933333333, "name": "01d0d55c55dd559a05162e39e38ae23d"}, {"bike_id": "39fb677feb6f65e40bc75a8d95003b01", "type": "electric_scooter", "is_disabled": 0, "lat": 38.9287165, "rental_uris": {"ios": "https://dc.lft.to/lastmile_qr_scan", "android": "https://dc.lft.to/lastmile_qr_scan"}, "is_reserved": 0, "fusion_lon": 0.0, "fusion_lat": 0.0, "lon": -77.02175116666666, "name": "39fb677feb6f65e40bc75a8d95003b01"}, {"bike_id": "eeed32e8f5c65fb6a9517cbc61032955", "type": "electric_scooter", "is_disabled": 0, "lat": 38.9521465, "rental_uris": {"ios": "https://dc.lft.to/lastmile_qr_scan", "android": "https://dc.lft.to/lastmile_qr_scan"}, "is_reserved": 0, "fusion_lon": 0.0, "fusion_lat": 0.0, "lon": -77.070672, "name": "eeed32e8f5c65fb6a9517cbc61032955"}, {"bike_id": "19f55fa031e97ccbd1c2270541490856", "type": "electric_scooter", "is_disabled": 0, "lat": 38.9208005, "rental_uris": {"ios": "https://dc.lft.to/lastmile_qr_scan", "android": "https://dc.lft.to/lastmile_qr_scan"}, "is_reserved": 0, "fusion_lon": 0.0, "fusion_lat": 0.0, "lon": -77.00451266666667, "name": "19f55fa031e97ccbd1c2270541490856"}, {"bike_id": "653d7af449ed732c5d60baef9f023e49", "type": "electric_scooter", "is_disabled": 0, "lat": 38.9194815, "rental_uris": {"ios": "https://dc.lft.to/lastmile_qr_scan", "android": "https://dc.lft.to/lastmile_qr_scan"}, "is_reserved": 0, "fusion_lon": 0.0, "fusion_lat": 0.0, "lon": -77.0487945, "name": "653d7af449ed732c5d60baef9f023e49"}, {"bike_id": "e21b70b1c005f9b5899ac33934671d98", "type": "electric_scooter", "is_disabled": 0, "lat": 38.919898833333335, "rental_uris": {"ios": "https://dc.lft.to/lastmile_qr_scan", "android": "https://dc.lft.to/lastmile_qr_scan"}, "is_reserved": 0, "fusion_lon": 0.0, "fusion_lat": 0.0, "lon": -77.04182566666667, "name": "e21b70b1c005f9b5899ac33934671d98"}, {"bike_id": "0fb25c2880a9439e204d70d04c7d5e40", "type": "electric_bike", "is_disabled": 0, "lat": 38.904895833333335, "rental_uris": {"ios": "https://dc.lft.to/lastmile_qr_scan", "android": "https://dc.lft.to/lastmile_qr_scan"}, "is_reserved": 0, "fusion_lon": 0.0, "fusion_lat": 0.0, "lon": -77.06804066666666, "name": "0fb25c2880a9439e204d70d04c7d5e40"}, {"bike_id": "0c6cb7802acaa68e608bc909f247f3fe", "type": "electric_bike", "is_disabled": 0, "lat": 38.90873633333333, "rental_uris": {"ios": "https://dc.lft.to/lastmile_qr_scan", "android": "https://dc.lft.to/lastmile_qr_scan"}, "is_reserved": 0, "fusion_lon": 0.0, "fusion_lat": 0.0, "lon": -77.03184116666667, "name": "0c6cb7802acaa68e608bc909f247f3fe"}, {"bike_id": "be41a02a8b23ddf60f29e01e9a37139c", "type": "electric_scooter", "is_disabled": 0, "lat": 38.9020375, "rental_uris": {"ios": "https://dc.lft.to/lastmile_qr_scan", "android": "https://dc.lft.to/lastmile_qr_scan"}, "is_reserved": 0, "fusion_lon": 0.0, "fusion_lat": 0.0, "lon": -77.0395105, "name": "be41a02a8b23ddf60f29e01e9a37139c"}, {"bike_id": "a99b51c53f64a986cb62b84fac6a3870", "type": "electric_scooter", "is_disabled": 0, "lat": 38.92671716666667, "rental_uris": {"ios": "https://dc.lft.to/lastmile_qr_scan", "android": "https://dc.lft.to/lastmile_qr_scan"}, "is_reserved": 0, "fusion_lon": 0.0, "fusion_lat": 0.0, "lon": -77.01524166666667, "name": "a99b51c53f64a986cb62b84fac6a3870"}, {"bike_id": "c2ecaab069db5fa499670932e7290808", "type": "electric_scooter", "is_disabled": 0, "lat": 38.93776833333333, "rental_uris": {"ios": "https://dc.lft.to/lastmile_qr_scan", "android": "https://dc.lft.to/lastmile_qr_scan"}, "is_reserved": 0, "fusion_lon": 0.0, "fusion_lat": 0.0, "lon": -77.019757, "name": "c2ecaab069db5fa499670932e7290808"}, {"bike_id": "dd48e2180082f45f4a2a2b246ae321b4", "type": "electric_scooter", "is_disabled": 0, "lat": 38.899872333333334, "rental_uris": {"ios": "https://dc.lft.to/lastmile_qr_scan", "android": "https://dc.lft.to/lastmile_qr_scan"}, "is_reserved": 0, "fusion_lon": 0.0, "fusion_lat": 0.0, "lon": -76.949964, "name": "dd48e2180082f45f4a2a2b246ae321b4"}, {"bike_id": "1728d0c3139d8af4de4d003e8b20b62f", "type": "electric_scooter", "is_disabled": 0, "lat": 38.904085, "rental_uris": {"ios": "https://dc.lft.to/lastmile_qr_scan", "android": "https://dc.lft.to/lastmile_qr_scan"}, "is_reserved": 0, "fusion_lon": 0.0, "fusion_lat": 0.0, "lon": -77.024085, "name": "1728d0c3139d8af4de4d003e8b20b62f"}, {"bike_id": "f73df13966f217bd910f7497cd26999d", "type": "electric_scooter", "is_disabled": 0, "lat": 38.8781375, "rental_uris": {"ios": "https://dc.lft.to/lastmile_qr_scan", "android": "https://dc.lft.to/lastmile_qr_scan"}, "is_reserved": 0, "fusion_lon": 0.0, "fusion_lat": 0.0, "lon": -76.97170566666667, "name": "f73df13966f217bd910f7497cd26999d"}, {"bike_id": "43640130f53e54b2183a282a223dcff6", "type": "electric_bike", "is_disabled": 0, "lat": 38.863734666666666, "rental_uris": {"ios": "https://dc.lft.to/lastmile_qr_scan", "android": "https://dc.lft.to/lastmile_qr_scan"}, "is_reserved": 0, "fusion_lon": 0.0, "fusion_lat": 0.0, "lon": -76.97011116666667, "name": "43640130f53e54b2183a282a223dcff6"}, {"bike_id": "1f537b39b2da86ba898853ead7d62141", "type": "electric_scooter", "is_disabled": 0, "lat": 38.906686, "rental_uris": {"ios": "https://dc.lft.to/lastmile_qr_scan", "android": "https://dc.lft.to/lastmile_qr_scan"}, "is_reserved": 0, "fusion_lon": 0.0, "fusion_lat": 0.0, "lon": -77.06124033333333, "name": "1f537b39b2da86ba898853ead7d62141"}, {"bike_id": "1ccdb1a0cd90fd263109fd4a439fe90d", "type": "electric_scooter", "is_disabled": 0, "lat": 38.85887066666667, "rental_uris": {"ios": "https://dc.lft.to/lastmile_qr_scan", "android": "https://dc.lft.to/lastmile_qr_scan"}, "is_reserved": 0, "fusion_lon": 0.0, "fusion_lat": 0.0, "lon": -76.9972485, "name": "1ccdb1a0cd90fd263109fd4a439fe90d"}, {"bike_id": "bdec940a91cb4442b412c5dc3b994a46", "type": "electric_scooter", "is_disabled": 0, "lat": 38.9217575, "rental_uris": {"ios": "https://dc.lft.to/lastmile_qr_scan", "android": "https://dc.lft.to/lastmile_qr_scan"}, "is_reserved": 0, "fusion_lon": 0.0, "fusion_lat": 0.0, "lon": -76.998037, "name": "bdec940a91cb4442b412c5dc3b994a46"}, {"bike_id": "502e1f2fccbc8f545b4264da2a1a7af7", "type": "electric_bike", "is_disabled": 0, "lat": 38.8634, "rental_uris": {"ios": "https://dc.lft.to/lastmile_qr_scan", "android": "https://dc.lft.to/lastmile_qr_scan"}, "is_reserved": 0, "fusion_lon": 0.0, "fusion_lat": 0.0, "lon": -76.98730316666666, "name": "502e1f2fccbc8f545b4264da2a1a7af7"}, {"bike_id": "f8dc7ac9e45bf307dd7fb8cba0d56964", "type": "electric_scooter", "is_disabled": 0, "lat": 38.935352, "rental_uris": {"ios": "https://dc.lft.to/lastmile_qr_scan", "android": "https://dc.lft.to/lastmile_qr_scan"}, "is_reserved": 0, "fusion_lon": 0.0, "fusion_lat": 0.0, "lon": -77.03412533333334, "name": "f8dc7ac9e45bf307dd7fb8cba0d56964"}, {"bike_id": "bcbaec0ca8819f75938719289e6e9583", "type": "electric_scooter", "is_disabled": 0, "lat": 38.90374666666666, "rental_uris": {"ios": "https://dc.lft.to/lastmile_qr_scan", "android": "https://dc.lft.to/lastmile_qr_scan"}, "is_reserved": 0, "fusion_lon": 0.0, "fusion_lat": 0.0, "lon": -77.02935416666666, "name": "bcbaec0ca8819f75938719289e6e9583"}, {"bike_id": "7cfcf4845c1375f1f86aceee29507b97", "type": "electric_scooter", "is_disabled": 0, "lat": 38.91915266666667, "rental_uris": {"ios": "https://dc.lft.to/lastmile_qr_scan", "android": "https://dc.lft.to/lastmile_qr_scan"}, "is_reserved": 0, "fusion_lon": 0.0, "fusion_lat": 0.0, "lon": -77.03184683333333, "name": "7cfcf4845c1375f1f86aceee29507b97"}, {"bike_id": "edacc463e78b3e2055353be6dbb3c748", "type": "electric_scooter", "is_disabled": 0, "lat": 38.934609, "rental_uris": {"ios": "https://dc.lft.to/lastmile_qr_scan", "android": "https://dc.lft.to/lastmile_qr_scan"}, "is_reserved": 0, "fusion_lon": 0.0, "fusion_lat": 0.0, "lon": -77.072742, "name": "edacc463e78b3e2055353be6dbb3c748"}, {"bike_id": "33926dddfca28a033e15d263cced4507", "type": "electric_scooter", "is_disabled": 0, "lat": 38.921239, "rental_uris": {"ios": "https://dc.lft.to/lastmile_qr_scan", "android": "https://dc.lft.to/lastmile_qr_scan"}, "is_reserved": 0, "fusion_lon": 0.0, "fusion_lat": 0.0, "lon": -77.0179865, "name": "33926dddfca28a033e15d263cced4507"}, {"bike_id": "abfe0101ba1f2f1eb0eec45ccd52b042", "type": "electric_scooter", "is_disabled": 0, "lat": 38.920542, "rental_uris": {"ios": "https://dc.lft.to/lastmile_qr_scan", "android": "https://dc.lft.to/lastmile_qr_scan"}, "is_reserved": 0, "fusion_lon": 0.0, "fusion_lat": 0.0, "lon": -77.07182733333333, "name": "abfe0101ba1f2f1eb0eec45ccd52b042"}, {"bike_id": "9515b1e7eb3911772163a50fc6e18fa6", "type": "electric_scooter", "is_disabled": 0, "lat": 38.86626666666667, "rental_uris": {"ios": "https://dc.lft.to/lastmile_qr_scan", "android": "https://dc.lft.to/lastmile_qr_scan"}, "is_reserved": 0, "fusion_lon": 0.0, "fusion_lat": 0.0, "lon": -76.98717066666667, "name": "9515b1e7eb3911772163a50fc6e18fa6"}, {"bike_id": "50cb0683b6827e9bf563d121f92d1c68", "type": "electric_scooter", "is_disabled": 0, "lat": 38.922498166666664, "rental_uris": {"ios": "https://dc.lft.to/lastmile_qr_scan", "android": "https://dc.lft.to/lastmile_qr_scan"}, "is_reserved": 0, "fusion_lon": 0.0, "fusion_lat": 0.0, "lon": -77.03145583333334, "name": "50cb0683b6827e9bf563d121f92d1c68"}, {"bike_id": "c20173f43900176f091e357f52e55201", "type": "electric_scooter", "is_disabled": 0, "lat": 38.899574, "rental_uris": {"ios": "https://dc.lft.to/lastmile_qr_scan", "android": "https://dc.lft.to/lastmile_qr_scan"}, "is_reserved": 0, "fusion_lon": 0.0, "fusion_lat": 0.0, "lon": -76.92629066666667, "name": "c20173f43900176f091e357f52e55201"}, {"bike_id": "08047f83a48ec2efeb42e6608a2dafcb", "type": "electric_scooter", "is_disabled": 0, "lat": 38.92489066666667, "rental_uris": {"ios": "https://dc.lft.to/lastmile_qr_scan", "android": "https://dc.lft.to/lastmile_qr_scan"}, "is_reserved": 0, "fusion_lon": 0.0, "fusion_lat": 0.0, "lon": -77.05758483333334, "name": "08047f83a48ec2efeb42e6608a2dafcb"}, {"bike_id": "9d7f6902c3e22782f83c3d2ae3bd0959", "type": "electric_scooter", "is_disabled": 0, "lat": 38.941774333333335, "rental_uris": {"ios": "https://dc.lft.to/lastmile_qr_scan", "android": "https://dc.lft.to/lastmile_qr_scan"}, "is_reserved": 0, "fusion_lon": 0.0, "fusion_lat": 0.0, "lon": -77.03279183333333, "name": "9d7f6902c3e22782f83c3d2ae3bd0959"}, {"bike_id": "0ad9bfe484ef2ff8aa9bb8f357dd8ec2", "type": "electric_scooter", "is_disabled": 0, "lat": 38.911292333333336, "rental_uris": {"ios": "https://dc.lft.to/lastmile_qr_scan", "android": "https://dc.lft.to/lastmile_qr_scan"}, "is_reserved": 0, "fusion_lon": 0.0, "fusion_lat": 0.0, "lon": -77.03740666666667, "name": "0ad9bfe484ef2ff8aa9bb8f357dd8ec2"}, {"bike_id": "ea0233e6c79e717a7fddfda001f1de30", "type": "electric_scooter", "is_disabled": 0, "lat": 38.89213816666667, "rental_uris": {"ios": "https://dc.lft.to/lastmile_qr_scan", "android": "https://dc.lft.to/lastmile_qr_scan"}, "is_reserved": 0, "fusion_lon": 0.0, "fusion_lat": 0.0, "lon": -77.02783666666667, "name": "ea0233e6c79e717a7fddfda001f1de30"}, {"bike_id": "49fad2b0ee86eb62485b0b3f6c472bb8", "type": "electric_bike", "is_disabled": 0, "lat": 38.93141683333333, "rental_uris": {"ios": "https://dc.lft.to/lastmile_qr_scan", "android": "https://dc.lft.to/lastmile_qr_scan"}, "is_reserved": 0, "fusion_lon": 0.0, "fusion_lat": 0.0, "lon": -77.07849433333334, "name": "49fad2b0ee86eb62485b0b3f6c472bb8"}, {"bike_id": "307c69aba1de7e43372280d4e135f13e", "type": "electric_scooter", "is_disabled": 0, "lat": 38.90849933333333, "rental_uris": {"ios": "https://dc.lft.to/lastmile_qr_scan", "android": "https://dc.lft.to/lastmile_qr_scan"}, "is_reserved": 0, "fusion_lon": 0.0, "fusion_lat": 0.0, "lon": -77.022306, "name": "307c69aba1de7e43372280d4e135f13e"}, {"bike_id": "e8fd5728bd8e5d5e2e5a557a633bbee1", "type": "electric_scooter", "is_disabled": 0, "lat": 38.9006655, "rental_uris": {"ios": "https://dc.lft.to/lastmile_qr_scan", "android": "https://dc.lft.to/lastmile_qr_scan"}, "is_reserved": 0, "fusion_lon": 0.0, "fusion_lat": 0.0, "lon": -77.03094783333333, "name": "e8fd5728bd8e5d5e2e5a557a633bbee1"}, {"bike_id": "4829de829d1b0c8d6119319ef2991724", "type": "electric_scooter", "is_disabled": 0, "lat": 38.9064505, "rental_uris": {"ios": "https://dc.lft.to/lastmile_qr_scan", "android": "https://dc.lft.to/lastmile_qr_scan"}, "is_reserved": 0, "fusion_lon": 0.0, "fusion_lat": 0.0, "lon": -77.04359216666667, "name": "4829de829d1b0c8d6119319ef2991724"}, {"bike_id": "c3382e3e9bc39e250c47f4096059a0ba", "type": "electric_scooter", "is_disabled": 0, "lat": 38.9140665, "rental_uris": {"ios": "https://dc.lft.to/lastmile_qr_scan", "android": "https://dc.lft.to/lastmile_qr_scan"}, "is_reserved": 0, "fusion_lon": 0.0, "fusion_lat": 0.0, "lon": -77.03148516666667, "name": "c3382e3e9bc39e250c47f4096059a0ba"}, {"bike_id": "04e5bc1560bec71ecfae8ea200a6004c", "type": "electric_bike", "is_disabled": 0, "lat": 38.83155933333333, "rental_uris": {"ios": "https://dc.lft.to/lastmile_qr_scan", "android": "https://dc.lft.to/lastmile_qr_scan"}, "is_reserved": 0, "fusion_lon": 0.0, "fusion_lat": 0.0, "lon": -76.99546266666667, "name": "04e5bc1560bec71ecfae8ea200a6004c"}, {"bike_id": "efdb2020bc1f7d93c9d42c0191415c1a", "type": "electric_scooter", "is_disabled": 0, "lat": 38.900916333333335, "rental_uris": {"ios": "https://dc.lft.to/lastmile_qr_scan", "android": "https://dc.lft.to/lastmile_qr_scan"}, "is_reserved": 0, "fusion_lon": 0.0, "fusion_lat": 0.0, "lon": -77.02454733333333, "name": "efdb2020bc1f7d93c9d42c0191415c1a"}, {"bike_id": "02e0755dcd00918255998df5f1615489", "type": "electric_scooter", "is_disabled": 0, "lat": 38.90251216666667, "rental_uris": {"ios": "https://dc.lft.to/lastmile_qr_scan", "android": "https://dc.lft.to/lastmile_qr_scan"}, "is_reserved": 0, "fusion_lon": 0.0, "fusion_lat": 0.0, "lon": -77.01821633333333, "name": "02e0755dcd00918255998df5f1615489"}, {"bike_id": "e1b1ac2b86a873d8f12c43340e355b21", "type": "electric_scooter", "is_disabled": 0, "lat": 38.9047625, "rental_uris": {"ios": "https://dc.lft.to/lastmile_qr_scan", "android": "https://dc.lft.to/lastmile_qr_scan"}, "is_reserved": 0, "fusion_lon": 0.0, "fusion_lat": 0.0, "lon": -77.04862783333333, "name": "e1b1ac2b86a873d8f12c43340e355b21"}, {"bike_id": "cbe9c108e20ae14cb945050d1fd1f066", "type": "electric_scooter", "is_disabled": 0, "lat": 38.94618416666667, "rental_uris": {"ios": "https://dc.lft.to/lastmile_qr_scan", "android": "https://dc.lft.to/lastmile_qr_scan"}, "is_reserved": 0, "fusion_lon": 0.0, "fusion_lat": 0.0, "lon": -77.07232783333333, "name": "cbe9c108e20ae14cb945050d1fd1f066"}, {"bike_id": "0850f151d4f4f3de1875233520de9081", "type": "electric_bike", "is_disabled": 0, "lat": 38.8936515, "rental_uris": {"ios": "https://dc.lft.to/lastmile_qr_scan", "android": "https://dc.lft.to/lastmile_qr_scan"}, "is_reserved": 0, "fusion_lon": 0.0, "fusion_lat": 0.0, "lon": -77.18676533333333, "name": "0850f151d4f4f3de1875233520de9081"}, {"bike_id": "2dd264791b3577367622fc8a5db54fef", "type": "electric_scooter", "is_disabled": 0, "lat": 38.910429666666666, "rental_uris": {"ios": "https://dc.lft.to/lastmile_qr_scan", "android": "https://dc.lft.to/lastmile_qr_scan"}, "is_reserved": 0, "fusion_lon": 0.0, "fusion_lat": 0.0, "lon": -77.03801966666667, "name": "2dd264791b3577367622fc8a5db54fef"}, {"bike_id": "c147755ea44107d5e2e81a5d914ae93a", "type": "electric_scooter", "is_disabled": 0, "lat": 38.906459, "rental_uris": {"ios": "https://dc.lft.to/lastmile_qr_scan", "android": "https://dc.lft.to/lastmile_qr_scan"}, "is_reserved": 0, "fusion_lon": 0.0, "fusion_lat": 0.0, "lon": -77.01730916666666, "name": "c147755ea44107d5e2e81a5d914ae93a"}, {"bike_id": "3412ea6de0fc993458355e0d4e42cea3", "type": "electric_scooter", "is_disabled": 0, "lat": 38.90251966666666, "rental_uris": {"ios": "https://dc.lft.to/lastmile_qr_scan", "android": "https://dc.lft.to/lastmile_qr_scan"}, "is_reserved": 0, "fusion_lon": 0.0, "fusion_lat": 0.0, "lon": -77.03463333333333, "name": "3412ea6de0fc993458355e0d4e42cea3"}, {"bike_id": "b79be56b406015a7a6b1d05544c34623", "type": "electric_scooter", "is_disabled": 0, "lat": 38.90106883333333, "rental_uris": {"ios": "https://dc.lft.to/lastmile_qr_scan", "android": "https://dc.lft.to/lastmile_qr_scan"}, "is_reserved": 0, "fusion_lon": 0.0, "fusion_lat": 0.0, "lon": -77.03851166666666, "name": "b79be56b406015a7a6b1d05544c34623"}, {"bike_id": "168da33c7c8e36b26affad7c7fa4aeac", "type": "electric_scooter", "is_disabled": 0, "lat": 38.91134733333333, "rental_uris": {"ios": "https://dc.lft.to/lastmile_qr_scan", "android": "https://dc.lft.to/lastmile_qr_scan"}, "is_reserved": 0, "fusion_lon": 0.0, "fusion_lat": 0.0, "lon": -77.02824783333334, "name": "168da33c7c8e36b26affad7c7fa4aeac"}, {"bike_id": "7e299498df16a3bd6835395387d9fbec", "type": "electric_scooter", "is_disabled": 0, "lat": 38.843166, "rental_uris": {"ios": "https://dc.lft.to/lastmile_qr_scan", "android": "https://dc.lft.to/lastmile_qr_scan"}, "is_reserved": 0, "fusion_lon": 0.0, "fusion_lat": 0.0, "lon": -76.99941116666666, "name": "7e299498df16a3bd6835395387d9fbec"}, {"bike_id": "63828fd31ea8b5ad3d66a22cc83f969a", "type": "electric_scooter", "is_disabled": 0, "lat": 38.918986333333336, "rental_uris": {"ios": "https://dc.lft.to/lastmile_qr_scan", "android": "https://dc.lft.to/lastmile_qr_scan"}, "is_reserved": 0, "fusion_lon": 0.0, "fusion_lat": 0.0, "lon": -77.046197, "name": "63828fd31ea8b5ad3d66a22cc83f969a"}, {"bike_id": "a81fcfb355f560061760ab892ad36a25", "type": "electric_scooter", "is_disabled": 0, "lat": 38.89302, "rental_uris": {"ios": "https://dc.lft.to/lastmile_qr_scan", "android": "https://dc.lft.to/lastmile_qr_scan"}, "is_reserved": 0, "fusion_lon": 0.0, "fusion_lat": 0.0, "lon": -77.0468655, "name": "a81fcfb355f560061760ab892ad36a25"}, {"bike_id": "653a4572a3237836b9d78ff299314443", "type": "electric_scooter", "is_disabled": 0, "lat": 38.912600833333336, "rental_uris": {"ios": "https://dc.lft.to/lastmile_qr_scan", "android": "https://dc.lft.to/lastmile_qr_scan"}, "is_reserved": 0, "fusion_lon": 0.0, "fusion_lat": 0.0, "lon": -77.067995, "name": "653a4572a3237836b9d78ff299314443"}, {"bike_id": "d1e87ad02a03553baec0a30ea1d3c53c", "type": "electric_scooter", "is_disabled": 0, "lat": 38.914806166666665, "rental_uris": {"ios": "https://dc.lft.to/lastmile_qr_scan", "android": "https://dc.lft.to/lastmile_qr_scan"}, "is_reserved": 0, "fusion_lon": 0.0, "fusion_lat": 0.0, "lon": -77.00285833333334, "name": "d1e87ad02a03553baec0a30ea1d3c53c"}, {"bike_id": "a754fda18d6e214dcfac34aa0870d4d3", "type": "electric_scooter", "is_disabled": 0, "lat": 38.939563666666665, "rental_uris": {"ios": "https://dc.lft.to/lastmile_qr_scan", "android": "https://dc.lft.to/lastmile_qr_scan"}, "is_reserved": 0, "fusion_lon": 0.0, "fusion_lat": 0.0, "lon": -77.07258833333333, "name": "a754fda18d6e214dcfac34aa0870d4d3"}, {"bike_id": "0431fa852ecbcc34c6e8d92cd9e88472", "type": "electric_scooter", "is_disabled": 0, "lat": 38.922705, "rental_uris": {"ios": "https://dc.lft.to/lastmile_qr_scan", "android": "https://dc.lft.to/lastmile_qr_scan"}, "is_reserved": 0, "fusion_lon": 0.0, "fusion_lat": 0.0, "lon": -77.01885033333333, "name": "0431fa852ecbcc34c6e8d92cd9e88472"}, {"bike_id": "d5cada807bf35c293e4fb57093e567f3", "type": "electric_scooter", "is_disabled": 0, "lat": 38.9086, "rental_uris": {"ios": "https://dc.lft.to/lastmile_qr_scan", "android": "https://dc.lft.to/lastmile_qr_scan"}, "is_reserved": 0, "fusion_lon": 0.0, "fusion_lat": 0.0, "lon": -76.99982466666667, "name": "d5cada807bf35c293e4fb57093e567f3"}, {"bike_id": "f3b32032a47d88e76fffb85e6649c313", "type": "electric_scooter", "is_disabled": 0, "lat": 38.90737133333333, "rental_uris": {"ios": "https://dc.lft.to/lastmile_qr_scan", "android": "https://dc.lft.to/lastmile_qr_scan"},