{"data": {"bikes": [{"lat": 38.8936545, "is_disabled": 0, "type": "electric_bike", "lon": -77.00258533333333, "bike_id": "3533c32c65591974a177a9c9c7855766", "fusion_lat": 0.0, "name": "3533c32c65591974a177a9c9c7855766", "is_reserved": 0, "rental_uris": {"android": "https://dc.lft.to/lastmile_qr_scan", "ios": "https://dc.lft.to/lastmile_qr_scan"}, "fusion_lon": 0.0}, {"lat": 38.919087166666664, "is_disabled": 0, "type": "electric_scooter", "lon": -77.0463025, "bike_id": "abeb6d6c5818d50d3054d31d4635470d", "fusion_lat": 0.0, "name": "abeb6d6c5818d50d3054d31d4635470d", "is_reserved": 0, "rental_uris": {"android": "https://dc.lft.to/lastmile_qr_scan", "ios": "https://dc.lft.to/lastmile_qr_scan"}, "fusion_lon": 0.0}, {"lat": 38.91210483333333, "is_disabled": 0, "type": "electric_scooter", "lon": -77.03845283333334, "bike_id": "22944065e7b8fa34536541a2d4a960b7", "fusion_lat": 0.0, "name": "22944065e7b8fa34536541a2d4a960b7", "is_reserved": 0, "rental_uris": {"android": "https://dc.lft.to/lastmile_qr_scan", "ios": "https://dc.lft.to/lastmile_qr_scan"}, "fusion_lon": 0.0}, {"lat": 38.909655666666666, "is_disabled": 0, "type": "electric_scooter", "lon": -77.03723633333334, "bike_id": "d2dc0a5997127a2f6967c1235e1ca056", "fusion_lat": 0.0, "name": "d2dc0a5997127a2f6967c1235e1ca056", "is_reserved": 0, "rental_uris": {"android": "https://dc.lft.to/lastmile_qr_scan", "ios": "https://dc.lft.to/lastmile_qr_scan"}, "fusion_lon": 0.0}, {"lat": 38.907790166666665, "is_disabled": 0, "type": "electric_scooter", "lon": -77.06931016666667, "bike_id": "57494db37e336205390237f77653a631", "fusion_lat": 0.0, "name": "57494db37e336205390237f77653a631", "is_reserved": 0, "rental_uris": {"android": "https://dc.lft.to/lastmile_qr_scan", "ios": "https://dc.lft.to/lastmile_qr_scan"}, "fusion_lon": 0.0}, {"lat": 38.8653075, "is_disabled": 0, "type": "electric_scooter", "lon": -76.9903085, "bike_id": "a2a761ef61c9ec0b3e7b9defe492a031", "fusion_lat": 0.0, "name": "a2a761ef61c9ec0b3e7b9defe492a031", "is_reserved": 0, "rental_uris": {"android": "https://dc.lft.to/lastmile_qr_scan", "ios": "https://dc.lft.to/lastmile_qr_scan"}, "fusion_lon": 0.0}, {"lat": 38.903541833333335, "is_disabled": 0, "type": "electric_scooter", "lon": -77.0252925, "bike_id": "59b550aa96c58f82488a52aa2924df19", "fusion_lat": 0.0, "name": "59b550aa96c58f82488a52aa2924df19", "is_reserved": 0, "rental_uris": {"android": "https://dc.lft.to/lastmile_qr_scan", "ios": "https://dc.lft.to/lastmile_qr_scan"}, "fusion_lon": 0.0}, {"lat": 38.921180166666666, "is_disabled": 0, "type": "electric_scooter", "lon": -77.03654816666666, "bike_id": "b896207679a26b0fb1601ae2eb5d8fa3", "fusion_lat": 0.0, "name": "b896207679a26b0fb1601ae2eb5d8fa3", "is_reserved": 0, "rental_uris": {"android": "https://dc.lft.to/lastmile_qr_scan", "ios": "https://dc.lft.to/lastmile_qr_scan"}, "fusion_lon": 0.0}, {"lat": 38.8973395, "is_disabled": 0, "type": "electric_scooter", "lon": -77.02558516666667, "bike_id": "8ae72e2a7d8b45440fef378f7be8424e", "fusion_lat": 0.0, "name": "8ae72e2a7d8b45440fef378f7be8424e", "is_reserved": 0, "rental_uris": {"android": "https://dc.lft.to/lastmile_qr_scan", "ios": "https://dc.lft.to/lastmile_qr_scan"}, "fusion_lon": 0.0}, {"lat": 38.909804333333334, "is_disabled": 0, "type": "electric_scooter", "lon": -77.04798433333333, "bike_id": "f785d362929be1fc0c02e8a56c4fe873", "fusion_lat": 0.0, "name": "f785d362929be1fc0c02e8a56c4fe873", "is_reserved": 0, "rental_uris": {"android": "https://dc.lft.to/lastmile_qr_scan", "ios": "https://dc.lft.to/lastmile_qr_scan"}, "fusion_lon": 0.0}, {"lat": 38.919197833333335, "is_disabled": 0, "type": "electric_scooter", "lon": -77.03118716666667, "bike_id": "901358b0167bdac90a8c3e7ec56cb2f0", "fusion_lat": 0.0, "name": "901358b0167bdac90a8c3e7ec56cb2f0", "is_reserved": 0, "rental_uris": {"android": "https://dc.lft.to/lastmile_qr_scan", "ios": "https://dc.lft.to/lastmile_qr_scan"}, "fusion_lon": 0.0}, {"lat": 38.825856333333334, "is_disabled": 0, "type": "electric_scooter", "lon": -76.9998045, "bike_id": "b0f71252296cabf44ea2a174387dcf83", "fusion_lat": 0.0, "name": "b0f71252296cabf44ea2a174387dcf83", "is_reserved": 0, "rental_uris": {"android": "https://dc.lft.to/lastmile_qr_scan", "ios": "https://dc.lft.to/lastmile_qr_scan"}, "fusion_lon": 0.0}, {"lat": 38.876854333333334, "is_disabled": 0, "type": "electric_scooter", "lon": -77.0179105, "bike_id": "9fb80ace5c5aac4c4ee0a09e3bb70de9", "fusion_lat": 0.0, "name": "9fb80ace5c5aac4c4ee0a09e3bb70de9", "is_reserved": 0, "rental_uris": {"android": "https://dc.lft.to/lastmile_qr_scan", "ios": "https://dc.lft.to/lastmile_qr_scan"}, "fusion_lon": 0.0}, {"lat": 38.9087135, "is_disabled": 0, "type": "electric_scooter", "lon": -77.0386265, "bike_id": "8e596abdcdd6c28b4584b8706b288bfc", "fusion_lat": 0.0, "name": "8e596abdcdd6c28b4584b8706b288bfc", "is_reserved": 0, "rental_uris": {"android": "https://dc.lft.to/lastmile_qr_scan", "ios": "https://dc.lft.to/lastmile_qr_scan"}, "fusion_lon": 0.0}, {"lat": 38.887684, "is_disabled": 0, "type": "electric_scooter", "lon": -76.99600766666667, "bike_id": "2548bb3033a29099c2fbe1116b3459c7", "fusion_lat": 0.0, "name": "2548bb3033a29099c2fbe1116b3459c7", "is_reserved": 0, "rental_uris": {"android": "https://dc.lft.to/lastmile_qr_scan", "ios": "https://dc.lft.to/lastmile_qr_scan"}, "fusion_lon": 0.0}, {"lat": 38.90656633333333, "is_disabled": 0, "type": "electric_scooter", "lon": -77.01405266666667, "bike_id": "3fb88bf9ce11011523709b83d31de806", "fusion_lat": 0.0, "name": "3fb88bf9ce11011523709b83d31de806", "is_reserved": 0, "rental_uris": {"android": "https://dc.lft.to/lastmile_qr_scan", "ios": "https://dc.lft.to/lastmile_qr_scan"}, "fusion_lon": 0.0}, {"lat": 38.88830466666667, "is_disabled": 0, "type": "electric_scooter", "lon": -77.04844016666667, "bike_id": "e81e04cbc9834adba0938066585d2e33", "fusion_lat": 0.0, "name": "e81e04cbc9834adba0938066585d2e33", "is_reserved": 0, "rental_uris": {"android": "https://dc.lft.to/lastmile_qr_scan", "ios": "https://dc.lft.to/lastmile_qr_scan"}, "fusion_lon": 0.0}, {"lat": 38.91583, "is_disabled": 0, "type": "electric_scooter", "lon": -77.05019716666666, "bike_id": "63ff6dc1db5531c9471d80ce8a006db1", "fusion_lat": 0.0, "name": "63ff6dc1db5531c9471d80ce8a006db1", "is_reserved": 0, "rental_uris": {"android": "https://dc.lft.to/lastmile_qr_scan", "ios": "https://dc.lft.to/lastmile_qr_scan"}, "fusion_lon": 0.0}, {"lat": 38.902506333333335, "is_disabled": 0, "type": "electric_scooter", "lon": -77.03410666666667, "bike_id": "b817778f4813a30647225f82c51cd87c", "fusion_lat": 0.0, "name": "b817778f4813a30647225f82c51cd87c", "is_reserved": 0, "rental_uris": {"android": "https://dc.lft.to/lastmile_qr_scan", "ios": "https://dc.lft.to/lastmile_qr_scan"}, "fusion_lon": 0.0}, {"lat": 38.9210415, "is_disabled": 0, "type": "electric_scooter", "lon": -77.046911, "bike_id": "559d0e41a2a12712e559fd09778af2dc", "fusion_lat": 0.0, "name": "559d0e41a2a12712e559fd09778af2dc", "is_reserved": 0, "rental_uris": {"android": "https://dc.lft.to/lastmile_qr_scan", "ios": "https://dc.lft.to/lastmile_qr_scan"}, "fusion_lon": 0.0}, {"lat": 38.928384, "is_disabled": 0, "type": "electric_scooter", "lon": -77.05416033333333, "bike_id": "f7adecc444d3ea4d9c6d517668ac50fe", "fusion_lat": 0.0, "name": "f7adecc444d3ea4d9c6d517668ac50fe", "is_reserved": 0, "rental_uris": {"android": "https://dc.lft.to/lastmile_qr_scan", "ios": "https://dc.lft.to/lastmile_qr_scan"}, "fusion_lon": 0.0}, {"lat": 38.92667483333334, "is_disabled": 0, "type": "electric_scooter", "lon": -77.01471066666667, "bike_id": "86ad385a62e2e4778456269dba7812c7", "fusion_lat": 0.0, "name": "86ad385a62e2e4778456269dba7812c7", "is_reserved": 0, "rental_uris": {"android": "https://dc.lft.to/lastmile_qr_scan", "ios": "https://dc.lft.to/lastmile_qr_scan"}, "fusion_lon": 0.0}, {"lat": 38.93239233333333, "is_disabled": 0, "type": "electric_scooter", "lon": -77.03382666666667, "bike_id": "00832e0a10822f1f6088d5a03703e1a2", "fusion_lat": 0.0, "name": "00832e0a10822f1f6088d5a03703e1a2", "is_reserved": 0, "rental_uris": {"android": "https://dc.lft.to/lastmile_qr_scan", "ios": "https://dc.lft.to/lastmile_qr_scan"}, "fusion_lon": 0.0}, {"lat": 38.90523116666667, "is_disabled": 0, "type": "electric_scooter", "lon": -77.03439, "bike_id": "5974c676aa15337aea97a7f3ada51b08", "fusion_lat": 0.0, "name": "5974c676aa15337aea97a7f3ada51b08", "is_reserved": 0, "rental_uris": {"android": "https://dc.lft.to/lastmile_qr_scan", "ios": "https://dc.lft.to/lastmile_qr_scan"}, "fusion_lon": 0.0}, {"lat": 38.8724805, "is_disabled": 0, "type": "electric_scooter", "lon": -76.97721833333334, "bike_id": "1fe3bd936515ea8dbba1bfabea5c9c48", "fusion_lat": 0.0, "name": "1fe3bd936515ea8dbba1bfabea5c9c48", "is_reserved": 0, "rental_uris": {"android": "https://dc.lft.to/lastmile_qr_scan", "ios": "https://dc.lft.to/lastmile_qr_scan"}, "fusion_lon": 0.0}, {"lat": 38.92251566666667, "is_disabled": 0, "type": "electric_scooter", "lon": -77.01934866666667, "bike_id": "baded1b6d358f9b8565738cf3d49c200", "fusion_lat": 0.0, "name": "baded1b6d358f9b8565738cf3d49c200", "is_reserved": 0, "rental_uris": {"android": "https://dc.lft.to/lastmile_qr_scan", "ios": "https://dc.lft.to/lastmile_qr_scan"}, "fusion_lon": 0.0}, {"lat": 38.909357166666666, "is_disabled": 0, "type": "electric_scooter", "lon": -77.0441495, "bike_id": "7b727271cd4045eb6f04254024887386", "fusion_lat": 0.0, "name": "7b727271cd4045eb6f04254024887386", "is_reserved": 0, "rental_uris": {"android": "https://dc.lft.to/lastmile_qr_scan", "ios": "https://dc.lft.to/lastmile_qr_scan"}, "fusion_lon": 0.0}, {"lat": 38.91291866666667, "is_disabled": 0, "type": "electric_scooter", "lon": -77.0451295, "bike_id": "e3051f22cb425f040185217538358a1d", "fusion_lat": 0.0, "name": "e3051f22cb425f040185217538358a1d", "is_reserved": 0, "rental_uris": {"android": "https://dc.lft.to/lastmile_qr_scan", "ios": "https://dc.lft.to/lastmile_qr_scan"}, "fusion_lon": 0.0}, {"lat": 38.943268833333335, "is_disabled": 0, "type": "electric_scooter", "lon": -77.06122233333333, "bike_id": "f0b5f0389825625c6c5ce44f51be7f6b", "fusion_lat": 0.0, "name": "f0b5f0389825625c6c5ce44f51be7f6b", "is_reserved": 0, "rental_uris": {"android": "https://dc.lft.to/lastmile_qr_scan", "ios": "https://dc.lft.to/lastmile_qr_scan"}, "fusion_lon": 0.0}, {"lat": 38.886427166666664, "is_disabled": 0, "type": "electric_scooter", "lon": -76.95471616666667, "bike_id": "63a2bd4f086cb4d772b4d82b2587ca9d", "fusion_lat": 0.0, "name": "63a2bd4f086cb4d772b4d82b2587ca9d", "is_reserved": 0, "rental_uris": {"android": "https://dc.lft.to/lastmile_qr_scan", "ios": "https://dc.lft.to/lastmile_qr_scan"}, "fusion_lon": 0.0}, {"lat": 38.919971, "is_disabled": 0, "type": "electric_scooter", "lon": -77.0322115, "bike_id": "658271629c617817dfadc452c4b7f638", "fusion_lat": 0.0, "name": "658271629c617817dfadc452c4b7f638", "is_reserved": 0, "rental_uris": {"android": "https://dc.lft.to/lastmile_qr_scan", "ios": "https://dc.lft.to/lastmile_qr_scan"}, "fusion_lon": 0.0}, {"lat": 38.86979066666667, "is_disabled": 0, "type": "electric_bike", "lon": -76.95989733333333, "bike_id": "dc7aa7f943a025a67e0010d0a0c94b8d", "fusion_lat": 0.0, "name": "dc7aa7f943a025a67e0010d0a0c94b8d", "is_reserved": 0, "rental_uris": {"android": "https://dc.lft.to/lastmile_qr_scan", "ios": "https://dc.lft.to/lastmile_qr_scan"}, "fusion_lon": 0.0}, {"lat": 38.928654333333334, "is_disabled": 0, "type": "electric_scooter", "lon": -77.02786566666667, "bike_id": "3ad53e676b59120d4fe2a71dce43a554", "fusion_lat": 0.0, "name": "3ad53e676b59120d4fe2a71dce43a554", "is_reserved": 0, "rental_uris": {"android": "https://dc.lft.to/lastmile_qr_scan", "ios": "https://dc.lft.to/lastmile_qr_scan"}, "fusion_lon": 0.0}, {"lat": 38.96494916666666, "is_disabled": 0, "type": "electric_scooter", "lon": -77.02790483333334, "bike_id": "6c3c1fa5be562843c29ba60427acaa18", "fusion_lat": 0.0, "name": "6c3c1fa5be562843c29ba60427acaa18", "is_reserved": 0, "rental_uris": {"android": "https://dc.lft.to/lastmile_qr_scan", "ios": "https://dc.lft.to/lastmile_qr_scan"}, "fusion_lon": 0.0}, {"lat": 38.898326, "is_disabled": 0, "type": "electric_scooter", "lon": -77.03150083333334, "bike_id": "803be269c78ed84e6ea33c8de05e881b", "fusion_lat": 0.0, "name": "803be269c78ed84e6ea33c8de05e881b", "is_reserved": 0, "rental_uris": {"android": "https://dc.lft.to/lastmile_qr_scan", "ios": "https://dc.lft.to/lastmile_qr_scan"}, "fusion_lon": 0.0}, {"lat": 38.907951833333335, "is_disabled": 0, "type": "electric_scooter", "lon": -77.036573, "bike_id": "66b4620d27e3a80160f8b292702baf3f", "fusion_lat": 0.0, "name": "66b4620d27e3a80160f8b292702baf3f", "is_reserved": 0, "rental_uris": {"android": "https://dc.lft.to/lastmile_qr_scan", "ios": "https://dc.lft.to/lastmile_qr_scan"}, "fusion_lon": 0.0}, {"lat": 38.88027183333333, "is_disabled": 0, "type": "electric_scooter", "lon": -77.024726, "bike_id": "4dd460be8b760e3cbe80e6f1512a9827", "fusion_lat": 0.0, "name": "4dd460be8b760e3cbe80e6f1512a9827", "is_reserved": 0, "rental_uris": {"android": "https://dc.lft.to/lastmile_qr_scan", "ios": "https://dc.lft.to/lastmile_qr_scan"}, "fusion_lon": 0.0}, {"lat": 38.902599333333335, "is_disabled": 0, "type": "electric_scooter", "lon": -77.0182795, "bike_id": "37340dd4572757065bb91cc3c0eec20a", "fusion_lat": 0.0, "name": "37340dd4572757065bb91cc3c0eec20a", "is_reserved": 0, "rental_uris": {"android": "https://dc.lft.to/lastmile_qr_scan", "ios": "https://dc.lft.to/lastmile_qr_scan"}, "fusion_lon": 0.0}, {"lat": 38.805778, "is_disabled": 0, "type": "electric_bike", "lon": -77.06858166666666, "bike_id": "276128e3e4e3714496299532258750c6", "fusion_lat": 0.0, "name": "276128e3e4e3714496299532258750c6", "is_reserved": 0, "rental_uris": {"android": "https://dc.lft.to/lastmile_qr_scan", "ios": "https://dc.lft.to/lastmile_qr_scan"}, "fusion_lon": 0.0}, {"lat": 38.91096116666667, "is_disabled": 0, "type": "electric_scooter", "lon": -77.03840783333334, "bike_id": "b1c8c8ff6f29543418dcef3d3fcb82e1", "fusion_lat": 0.0, "name": "b1c8c8ff6f29543418dcef3d3fcb82e1", "is_reserved": 0, "rental_uris": {"android": "https://dc.lft.to/lastmile_qr_scan", "ios": "https://dc.lft.to/lastmile_qr_scan"}, "fusion_lon": 0.0}, {"lat": 38.928269, "is_disabled": 0, "type": "electric_scooter", "lon": -77.02189716666666, "bike_id": "c36e8864ca91f6ea533e43c8287de2c2", "fusion_lat": 0.0, "name": "c36e8864ca91f6ea533e43c8287de2c2", "is_reserved": 0, "rental_uris": {"android": "https://dc.lft.to/lastmile_qr_scan", "ios": "https://dc.lft.to/lastmile_qr_scan"}, "fusion_lon": 0.0}, {"lat": 38.8226315, "is_disabled": 0, "type": "electric_bike", "lon": -77.05815533333333, "bike_id": "156d2936fb296272892eb8165aa23cf1", "fusion_lat": 0.0, "name": "156d2936fb296272892eb8165aa23cf1", "is_reserved": 0, "rental_uris": {"android": "https://dc.lft.to/lastmile_qr_scan", "ios": "https://dc.lft.to/lastmile_qr_scan"}, "fusion_lon": 0.0}, {"lat": 38.914266, "is_disabled": 0, "type": "electric_scooter", "lon": -77.03182783333334, "bike_id": "23131e3f8aa95ffed8c129c9702c1918", "fusion_lat": 0.0, "name": "23131e3f8aa95ffed8c129c9702c1918", "is_reserved": 0, "rental_uris": {"android": "https://dc.lft.to/lastmile_qr_scan", "ios": "https://dc.lft.to/lastmile_qr_scan"}, "fusion_lon": 0.0}, {"lat": 38.98505133333333, "is_disabled": 0, "type": "electric_bike", "lon": -76.98209383333334, "bike_id": "fb68351e0df382835175eb42037dff91", "fusion_lat": 0.0, "name": "fb68351e0df382835175eb42037dff91", "is_reserved": 0, "rental_uris": {"android": "https://dc.lft.to/lastmile_qr_scan", "ios": "https://dc.lft.to/lastmile_qr_scan"}, "fusion_lon": 0.0}, {"lat": 38.887324666666665, "is_disabled": 0, "type": "electric_scooter", "lon": -77.03208616666667, "bike_id": "19d00c03fa2867f9a3350729635d768e", "fusion_lat": 0.0, "name": "19d00c03fa2867f9a3350729635d768e", "is_reserved": 0, "rental_uris": {"android": "https://dc.lft.to/lastmile_qr_scan", "ios": "https://dc.lft.to/lastmile_qr_scan"}, "fusion_lon": 0.0}, {"lat": 38.90269816666667, "is_disabled": 0, "type": "electric_scooter", "lon": -77.03460066666666, "bike_id": "3bf444a21d65c4e7498b4a7125b720bc", "fusion_lat": 0.0, "name": "3bf444a21d65c4e7498b4a7125b720bc", "is_reserved": 0, "rental_uris": {"android": "https://dc.lft.to/lastmile_qr_scan", "ios": "https://dc.lft.to/lastmile_qr_scan"}, "fusion_lon": 0.0}, {"lat": 38.924708833333334, "is_disabled": 0, "type": "electric_scooter", "lon": -77.03968366666666, "bike_id": "be1628745a5202af7240ec9dca554004", "fusion_lat": 0.0, "name": "be1628745a5202af7240ec9dca554004", "is_reserved": 0, "rental_uris": {"android": "https://dc.lft.to/lastmile_qr_scan", "ios": "https://dc.lft.to/lastmile_qr_scan"}, "fusion_lon": 0.0}, {"lat": 38.9036405, "is_disabled": 0, "type": "electric_scooter", "lon": -76.97652983333333, "bike_id": "3063720a0027c1abca633c6da9a0d7cd", "fusion_lat": 0.0, "name": "3063720a0027c1abca633c6da9a0d7cd", "is_reserved": 0, "rental_uris": {"android": "https://dc.lft.to/lastmile_qr_scan", "ios": "https://dc.lft.to/lastmile_qr_scan"}, "fusion_lon": 0.0}, {"lat": 38.7930715, "is_disabled": 0, "type": "electric_bike", "lon": -77.049209, "bike_id": "921125163e96116bcd0e2cd12469d1fb", "fusion_lat": 0.0, "name": "921125163e96116bcd0e2cd12469d1fb", "is_reserved": 0, "rental_uris": {"android": "https://dc.lft.to/lastmile_qr_scan", "ios": "https://dc.lft.to/lastmile_qr_scan"}, "fusion_lon": 0.0}, {"lat": 38.89590666666667, "is_disabled": 0, "type": "electric_scooter", "lon": -77.043608, "bike_id": "7a4717c78286d210cd22a84069399e86", "fusion_lat": 0.0, "name": "7a4717c78286d210cd22a84069399e86", "is_reserved": 0, "rental_uris": {"android": "https://dc.lft.to/lastmile_qr_scan", "ios": "https://dc.lft.to/lastmile_qr_scan"}, "fusion_lon": 0.0}, {"lat": 38.90214116666667, "is_disabled": 0, "type": "electric_scooter", "lon": -76.98844183333334, "bike_id": "100f69bc0710ce61258195e757d26964", "fusion_lat": 0.0, "name": "100f69bc0710ce61258195e757d26964", "is_reserved": 0, "rental_uris": {"android": "https://dc.lft.to/lastmile_qr_scan", "ios": "https://dc.lft.to/lastmile_qr_scan"}, "fusion_lon": 0.0}, {"lat": 38.94655383333333, "is_disabled": 0, "type": "electric_scooter", "lon": -77.06471016666667, "bike_id": "ba471773c242358a180cd984ffbb2be1", "fusion_lat": 0.0, "name": "ba471773c242358a180cd984ffbb2be1", "is_reserved": 0, "rental_uris": {"android": "https://dc.lft.to/lastmile_qr_scan", "ios": "https://dc.lft.to/lastmile_qr_scan"}, "fusion_lon": 0.0}, {"lat": 38.896519166666664, "is_disabled": 0, "type": "electric_scooter", "lon": -77.00907183333334, "bike_id": "7c4b6220b64e225a54b80021e0c44e93", "fusion_lat": 0.0, "name": "7c4b6220b64e225a54b80021e0c44e93", "is_reserved": 0, "rental_uris": {"android": "https://dc.lft.to/lastmile_qr_scan", "ios": "https://dc.lft.to/lastmile_qr_scan"}, "fusion_lon": 0.0}, {"lat": 38.92061133333333, "is_disabled": 0, "type": "electric_scooter", "lon": -77.03339766666667, "bike_id": "bd4746be46f7eee9a68a3bf4238d2871", "fusion_lat": 0.0, "name": "bd4746be46f7eee9a68a3bf4238d2871", "is_reserved": 0, "rental_uris": {"android": "https://dc.lft.to/lastmile_qr_scan", "ios": "https://dc.lft.to/lastmile_qr_scan"}, "fusion_lon": 0.0}, {"lat": 38.92475233333333, "is_disabled": 0, "type": "electric_scooter", "lon": -77.039344, "bike_id": "9e9af6191c063d7e5b21793f78175cef", "fusion_lat": 0.0, "name": "9e9af6191c063d7e5b21793f78175cef", "is_reserved": 0, "rental_uris": {"android": "https://dc.lft.to/lastmile_qr_scan", "ios": "https://dc.lft.to/lastmile_qr_scan"}, "fusion_lon": 0.0}, {"lat": 38.926581, "is_disabled": 0, "type": "electric_scooter", "lon": -77.055893, "bike_id": "fb91ccb6dc2d68ccd431e0dfa8dd2461", "fusion_lat": 0.0, "name": "fb91ccb6dc2d68ccd431e0dfa8dd2461", "is_reserved": 0, "rental_uris": {"android": "https://dc.lft.to/lastmile_qr_scan", "ios": "https://dc.lft.to/lastmile_qr_scan"}, "fusion_lon": 0.0}, {"lat": 38.89879633333334, "is_disabled": 0, "type": "electric_scooter", "lon": -77.02816266666666, "bike_id": "3848229e7ac53f6e3d10c14c584e84b6", "fusion_lat": 0.0, "name": "3848229e7ac53f6e3d10c14c584e84b6", "is_reserved": 0, "rental_uris": {"android": "https://dc.lft.to/lastmile_qr_scan", "ios": "https://dc.lft.to/lastmile_qr_scan"}, "fusion_lon": 0.0}, {"lat": 38.919706, "is_disabled": 0, "type": "electric_scooter", "lon": -77.03957616666666, "bike_id": "1a353ac7ed72a9cbeb345ce09cefd565", "fusion_lat": 0.0, "name": "1a353ac7ed72a9cbeb345ce09cefd565", "is_reserved": 0, "rental_uris": {"android": "https://dc.lft.to/lastmile_qr_scan", "ios": "https://dc.lft.to/lastmile_qr_scan"}, "fusion_lon": 0.0}, {"lat": 38.8955165, "is_disabled": 0, "type": "electric_scooter", "lon": -76.933842, "bike_id": "29673da614166b4a223a7a2fe6d6def3", "fusion_lat": 0.0, "name": "29673da614166b4a223a7a2fe6d6def3", "is_reserved": 0, "rental_uris": {"android": "https://dc.lft.to/lastmile_qr_scan", "ios": "https://dc.lft.to/lastmile_qr_scan"}, "fusion_lon": 0.0}, {"lat": 38.90975133333333, "is_disabled": 0, "type": "electric_scooter", "lon": -77.02164316666666, "bike_id": "c8a54ad589f5120048b1512378aa0a27", "fusion_lat": 0.0, "name": "c8a54ad589f5120048b1512378aa0a27", "is_reserved": 0, "rental_uris": {"android": "https://dc.lft.to/lastmile_qr_scan", "ios": "https://dc.lft.to/lastmile_qr_scan"}, "fusion_lon": 0.0}, {"lat": 38.924356, "is_disabled": 0, "type": "electric_scooter", "lon": -77.05177966666666, "bike_id": "3651e474bb8223feeba39f0f7e08db33", "fusion_lat": 0.0, "name": "3651e474bb8223feeba39f0f7e08db33", "is_reserved": 0, "rental_uris": {"android": "https://dc.lft.to/lastmile_qr_scan", "ios": "https://dc.lft.to/lastmile_qr_scan"}, "fusion_lon": 0.0}, {"lat": 38.99412216666666, "is_disabled": 0, "type": "electric_bike", "lon": -77.03094716666666, "bike_id": "782214e546f9c7edb07310c3fbdff567", "fusion_lat": 0.0, "name": "782214e546f9c7edb07310c3fbdff567", "is_reserved": 0, "rental_uris": {"android": "https://dc.lft.to/lastmile_qr_scan", "ios": "https://dc.lft.to/lastmile_qr_scan"}, "fusion_lon": 0.0}, {"lat": 38.919937833333336, "is_disabled": 0, "type": "electric_scooter", "lon": -76.97306283333333, "bike_id": "0da092cd08b23b822c2416d735f155e3", "fusion_lat": 0.0, "name": "0da092cd08b23b822c2416d735f155e3", "is_reserved": 0, "rental_uris": {"android": "https://dc.lft.to/lastmile_qr_scan", "ios": "https://dc.lft.to/lastmile_qr_scan"}, "fusion_lon": 0.0}, {"lat": 38.9159165, "is_disabled": 0, "type": "electric_scooter", "lon": -77.02403633333333, "bike_id": "8966a1391836b878295ef3c09ca49ae0", "fusion_lat": 0.0, "name": "8966a1391836b878295ef3c09ca49ae0", "is_reserved": 0, "rental_uris": {"android": "https://dc.lft.to/lastmile_qr_scan", "ios": "https://dc.lft.to/lastmile_qr_scan"}, "fusion_lon": 0.0}, {"lat": 38.908702, "is_disabled": 0, "type": "electric_scooter", "lon": -77.04658916666666, "bike_id": "aadd4192f11e2758f9228f23543f2c19", "fusion_lat": 0.0, "name": "aadd4192f11e2758f9228f23543f2c19", "is_reserved": 0, "rental_uris": {"android": "https://dc.lft.to/lastmile_qr_scan", "ios": "https://dc.lft.to/lastmile_qr_scan"}, "fusion_lon": 0.0}, {"lat": 38.950102333333334, "is_disabled": 0, "type": "electric_scooter", "lon": -77.0156995, "bike_id": "cf7fc2fc9e639da546d2ee490b5eaa7b", "fusion_lat": 0.0, "name": "cf7fc2fc9e639da546d2ee490b5eaa7b", "is_reserved": 0, "rental_uris": {"android": "https://dc.lft.to/lastmile_qr_scan", "ios": "https://dc.lft.to/lastmile_qr_scan"}, "fusion_lon": 0.0}, {"lat": 38.904869833333336, "is_disabled": 0, "type": "electric_scooter", "lon": -77.05735066666666, "bike_id": "7a3a0730d4afae114a49f48c187e0eb2", "fusion_lat": 0.0, "name": "7a3a0730d4afae114a49f48c187e0eb2", "is_reserved": 0, "rental_uris": {"android": "https://dc.lft.to/lastmile_qr_scan", "ios": "https://dc.lft.to/lastmile_qr_scan"}, "fusion_lon": 0.0}, {"lat": 38.872120333333335, "is_disabled": 0, "type": "electric_bike", "lon": -77.01524733333333, "bike_id": "32b58479d15afa831aa4c9fa8ddf606d", "fusion_lat": 0.0, "name": "32b58479d15afa831aa4c9fa8ddf606d", "is_reserved": 0, "rental_uris": {"android": "https://dc.lft.to/lastmile_qr_scan", "ios": "https://dc.lft.to/lastmile_qr_scan"}, "fusion_lon": 0.0}, {"lat": 38.9111095, "is_disabled": 0, "type": "electric_scooter", "lon": -77.03554933333334, "bike_id": "fe99059434772428a0d81405bc13d806", "fusion_lat": 0.0, "name": "fe99059434772428a0d81405bc13d806", "is_reserved": 0, "rental_uris": {"android": "https://dc.lft.to/lastmile_qr_scan", "ios": "https://dc.lft.to/lastmile_qr_scan"}, "fusion_lon": 0.0}, {"lat": 38.862776333333336, "is_disabled": 0, "type": "electric_scooter", "lon": -76.99245483333333, "bike_id": "c962aff9a1c07e8f08b23e9f42f5dd80", "fusion_lat": 0.0, "name": "c962aff9a1c07e8f08b23e9f42f5dd80", "is_reserved": 0, "rental_uris": {"android": "https://dc.lft.to/lastmile_qr_scan", "ios": "https://dc.lft.to/lastmile_qr_scan"}, "fusion_lon": 0.0}, {"lat": 38.912516833333335, "is_disabled": 0, "type": "electric_scooter", "lon": -77.03211683333333, "bike_id": "e7e37539cb993d7ce48523384109c9cf", "fusion_lat": 0.0, "name": "e7e37539cb993d7ce48523384109c9cf", "is_reserved": 0, "rental_uris": {"android": "https://dc.lft.to/lastmile_qr_scan", "ios": "https://dc.lft.to/lastmile_qr_scan"}, "fusion_lon": 0.0}, {"lat": 38.91962316666667, "is_disabled": 0, "type": "electric_scooter", "lon": -77.0320775, "bike_id": "e962252d58512a911c4f344399ddbe55", "fusion_lat": 0.0, "name": "e962252d58512a911c4f344399ddbe55", "is_reserved": 0, "rental_uris": {"android": "https://dc.lft.to/lastmile_qr_scan", "ios": "https://dc.lft.to/lastmile_qr_scan"}, "fusion_lon": 0.0}, {"lat": 38.9217065, "is_disabled": 0, "type": "electric_scooter", "lon": -77.0423715, "bike_id": "9f78d80a5785fdcb03b1a7f18d66944d", "fusion_lat": 0.0, "name": "9f78d80a5785fdcb03b1a7f18d66944d", "is_reserved": 0, "rental_uris": {"android": "https://dc.lft.to/lastmile_qr_scan", "ios": "https://dc.lft.to/lastmile_qr_scan"}, "fusion_lon": 0.0}, {"lat": 38.949454, "is_disabled": 0, "type": "electric_scooter", "lon": -77.0202265, "bike_id": "3ebd200e083c8d2c02436144e19ad398", "fusion_lat": 0.0, "name": "3ebd200e083c8d2c02436144e19ad398", "is_reserved": 0, "rental_uris": {"android": "https://dc.lft.to/lastmile_qr_scan", "ios": "https://dc.lft.to/lastmile_qr_scan"}, "fusion_lon": 0.0}, {"lat": 38.901356166666666, "is_disabled": 0, "type": "electric_scooter", "lon": -77.030028, "bike_id": "89217005269f914434fc7d03dae4ee1f", "fusion_lat": 0.0, "name": "89217005269f914434fc7d03dae4ee1f", "is_reserved": 0, "rental_uris": {"android": "https://dc.lft.to/lastmile_qr_scan", "ios": "https://dc.lft.to/lastmile_qr_scan"}, "fusion_lon": 0.0}, {"lat": 38.941221666666664, "is_disabled": 0, "type": "electric_scooter", "lon": -77.023418, "bike_id": "e1607c98c5a9a7d2499e7095c1482b9e", "fusion_lat": 0.0, "name": "e1607c98c5a9a7d2499e7095c1482b9e", "is_reserved": 0, "rental_uris": {"android": "https://dc.lft.to/lastmile_qr_scan", "ios": "https://dc.lft.to/lastmile_qr_scan"}, "fusion_lon": 0.0}, {"lat": 38.896081333333335, "is_disabled": 0, "type": "electric_scooter", "lon": -77.0092125, "bike_id": "2d65f44c55fe67f6ce29e008caf97108", "fusion_lat": 0.0, "name": "2d65f44c55fe67f6ce29e008caf97108", "is_reserved": 0, "rental_uris": {"android": "https://dc.lft.to/lastmile_qr_scan", "ios": "https://dc.lft.to/lastmile_qr_scan"}, "fusion_lon": 0.0}, {"lat": 38.9357305, "is_disabled": 0, "type": "electric_scooter", "lon": -77.03265966666666, "bike_id": "7d797b88effd8da6060e5d7a80cbeb01", "fusion_lat": 0.0, "name": "7d797b88effd8da6060e5d7a80cbeb01", "is_reserved": 0, "rental_uris": {"android": "https://dc.lft.to/lastmile_qr_scan", "ios": "https://dc.lft.to/lastmile_qr_scan"}, "fusion_lon": 0.0}, {"lat": 38.85914116666667, "is_disabled": 0, "type": "electric_scooter", "lon": -76.991444, "bike_id": "d67c5ffe426a4bb4cfb05a0f5dc67881", "fusion_lat": 0.0, "name": "d67c5ffe426a4bb4cfb05a0f5dc67881", "is_reserved": 0, "rental_uris": {"android": "https://dc.lft.to/lastmile_qr_scan", "ios": "https://dc.lft.to/lastmile_qr_scan"}, "fusion_lon": 0.0}, {"lat": 38.91522766666667, "is_disabled": 0, "type": "electric_scooter", "lon": -77.03843216666667, "bike_id": "f1b150560894d8b5e921346413fc700a", "fusion_lat": 0.0, "name": "f1b150560894d8b5e921346413fc700a", "is_reserved": 0, "rental_uris": {"android": "https://dc.lft.to/lastmile_qr_scan", "ios": "https://dc.lft.to/lastmile_qr_scan"}, "fusion_lon": 0.0}, {"lat": 38.930641666666666, "is_disabled": 0, "type": "electric_scooter", "lon": -77.04176233333334, "bike_id": "484672ff59372dceda0c4a32395dc1e6", "fusion_lat": 0.0, "name": "484672ff59372dceda0c4a32395dc1e6", "is_reserved": 0, "rental_uris": {"android": "https://dc.lft.to/lastmile_qr_scan", "ios": "https://dc.lft.to/lastmile_qr_scan"}, "fusion_lon": 0.0}, {"lat": 38.904654, "is_disabled": 0, "type": "electric_scooter", "lon": -77.029466, "bike_id": "80187a7d47cdc85b353a0ebdce5f47bf", "fusion_lat": 0.0, "name": "80187a7d47cdc85b353a0ebdce5f47bf", "is_reserved": 0, "rental_uris": {"android": "https://dc.lft.to/lastmile_qr_scan", "ios": "https://dc.lft.to/lastmile_qr_scan"}, "fusion_lon": 0.0}, {"lat": 38.93167166666667, "is_disabled": 0, "type": "electric_scooter", "lon": -77.02831966666666, "bike_id": "095eb1bb901e1582adbb71c84691a4be", "fusion_lat": 0.0, "name": "095eb1bb901e1582adbb71c84691a4be", "is_reserved": 0, "rental_uris": {"android": "https://dc.lft.to/lastmile_qr_scan", "ios": "https://dc.lft.to/lastmile_qr_scan"}, "fusion_lon": 0.0}, {"lat": 38.912698166666665, "is_disabled": 0, "type": "electric_scooter", "lon": -77.0226895, "bike_id": "4e1ad5b75cc6d54660e50d70357f6669", "fusion_lat": 0.0, "name": "4e1ad5b75cc6d54660e50d70357f6669", "is_reserved": 0, "rental_uris": {"android": "https://dc.lft.to/lastmile_qr_scan", "ios": "https://dc.lft.to/lastmile_qr_scan"}, "fusion_lon": 0.0}, {"lat": 38.907703833333336, "is_disabled": 0, "type": "electric_scooter", "lon": -77.04354333333333, "bike_id": "36947ee55a52cbbe2d4e009278c6be12", "fusion_lat": 0.0, "name": "36947ee55a52cbbe2d4e009278c6be12", "is_reserved": 0, "rental_uris": {"android": "https://dc.lft.to/lastmile_qr_scan", "ios": "https://dc.lft.to/lastmile_qr_scan"}, "fusion_lon": 0.0}, {"lat": 38.913580833333334, "is_disabled": 0, "type": "electric_scooter", "lon": -77.03177216666667, "bike_id": "bc89058a0062ce4672c241e6d619c9e2", "fusion_lat": 0.0, "name": "bc89058a0062ce4672c241e6d619c9e2", "is_reserved": 0, "rental_uris": {"android": "https://dc.lft.to/lastmile_qr_scan", "ios": "https://dc.lft.to/lastmile_qr_scan"}, "fusion_lon": 0.0}, {"lat": 38.892554833333335, "is_disabled": 0, "type": "electric_scooter", "lon": -77.02624483333334, "bike_id": "3a121384ea76ae87122604fb1a2d9fad", "fusion_lat": 0.0, "name": "3a121384ea76ae87122604fb1a2d9fad", "is_reserved": 0, "rental_uris": {"android": "https://dc.lft.to/lastmile_qr_scan", "ios": "https://dc.lft.to/lastmile_qr_scan"}, "fusion_lon": 0.0}, {"lat": 38.9170155, "is_disabled": 0, "type": "electric_scooter", "lon": -77.00810883333334, "bike_id": "ee0551a0d98cea277de32e8dc8dcdbe2", "fusion_lat": 0.0, "name": "ee0551a0d98cea277de32e8dc8dcdbe2", "is_reserved": 0, "rental_uris": {"android": "https://dc.lft.to/lastmile_qr_scan", "ios": "https://dc.lft.to/lastmile_qr_scan"}, "fusion_lon": 0.0}, {"lat": 38.936353833333335, "is_disabled": 0, "type": "electric_scooter", "lon": -77.05879933333334, "bike_id": "2440aaca45dc3fced3d5498b6a5d1fe0", "fusion_lat": 0.0, "name": "2440aaca45dc3fced3d5498b6a5d1fe0", "is_reserved": 0, "rental_uris": {"android": "https://dc.lft.to/lastmile_qr_scan", "ios": "https://dc.lft.to/lastmile_qr_scan"}, "fusion_lon": 0.0}, {"lat": 38.90738783333333, "is_disabled": 0, "type": "electric_scooter", "lon": -77.00348233333334, "bike_id": "86ef8c96c8ddf324c93d9985c80b6df7", "fusion_lat": 0.0, "name": "86ef8c96c8ddf324c93d9985c80b6df7", "is_reserved": 0, "rental_uris": {"android": "https://dc.lft.to/lastmile_qr_scan", "ios": "https://dc.lft.to/lastmile_qr_scan"}, "fusion_lon": 0.0}, {"lat": 38.932101833333334, "is_disabled": 0, "type": "electric_scooter", "lon": -77.03658866666666, "bike_id": "672363497f0dda885e675c7e5ea62240", "fusion_lat": 0.0, "name": "672363497f0dda885e675c7e5ea62240", "is_reserved": 0, "rental_uris": {"android": "https://dc.lft.to/lastmile_qr_scan", "ios": "https://dc.lft.to/lastmile_qr_scan"}, "fusion_lon": 0.0}, {"lat": 38.9057975, "is_disabled": 0, "type": "electric_scooter", "lon": -77.06278116666667, "bike_id": "aab4a948af8a8dd66cb0a77428d08b6e", "fusion_lat": 0.0, "name": "aab4a948af8a8dd66cb0a77428d08b6e", "is_reserved": 0, "rental_uris": {"android": "https://dc.lft.to/lastmile_qr_scan", "ios": "https://dc.lft.to/lastmile_qr_scan"}, "fusion_lon": 0.0}, {"lat": 38.9062505, "is_disabled": 0, "type": "electric_scooter", "lon": -76.98982816666667, "bike_id": "4c2acae3d32ba34da1dbf14e9338a6ff", "fusion_lat": 0.0, "name": "4c2acae3d32ba34da1dbf14e9338a6ff", "is_reserved": 0, "rental_uris": {"android": "https://dc.lft.to/lastmile_qr_scan", "ios": "https://dc.lft.to/lastmile_qr_scan"}, "fusion_lon": 0.0}, {"lat": 38.9156055, "is_disabled": 0, "type": "electric_scooter", "lon": -77.03169266666667, "bike_id": "c4cfa5af1a8acc2dcd7b62bf13f4628d", "fusion_lat": 0.0, "name": "c4cfa5af1a8acc2dcd7b62bf13f4628d", "is_reserved": 0, "rental_uris": {"android": "https://dc.lft.to/lastmile_qr_scan", "ios": "https://dc.lft.to/lastmile_qr_scan"}, "fusion_lon": 0.0}, {"lat": 38.89911883333333, "is_disabled": 0, "type": "electric_scooter", "lon": -76.933523, "bike_id": "af7a17a4a4840d5e59ad6f526b292d17", "fusion_lat": 0.0, "name": "af7a17a4a4840d5e59ad6f526b292d17", "is_reserved": 0, "rental_uris": {"android": "https://dc.lft.to/lastmile_qr_scan", "ios": "https://dc.lft.to/lastmile_qr_scan"}, "fusion_lon": 0.0}, {"lat": 38.876393166666666, "is_disabled": 0, "type": "electric_scooter", "lon": -76.9932165, "bike_id": "4fadea4a2e8e85947dd19dc14b0b3cc1", "fusion_lat": 0.0, "name": "4fadea4a2e8e85947dd19dc14b0b3cc1", "is_reserved": 0, "rental_uris": {"android": "https://dc.lft.to/lastmile_qr_scan", "ios": "https://dc.lft.to/lastmile_qr_scan"}, "fusion_lon": 0.0}, {"lat": 38.91782033333333, "is_disabled": 0, "type": "electric_scooter", "lon": -77.02881866666667, "bike_id": "c01ece7ff199478a2c7552fd5dc89704", "fusion_lat": 0.0, "name": "c01ece7ff199478a2c7552fd5dc89704", "is_reserved": 0, "rental_uris": {"android": "https://dc.lft.to/lastmile_qr_scan", "ios": "https://dc.lft.to/lastmile_qr_scan"}, "fusion_lon": 0.0}, {"lat": 38.92610833333333, "is_disabled": 0, "type": "electric_scooter", "lon": -77.02435283333334, "bike_id": "9da11bca2300fab356d63461c59ef203", "fusion_lat": 0.0, "name": "9da11bca2300fab356d63461c59ef203", "is_reserved": 0, "rental_uris": {"android": "https://dc.lft.to/lastmile_qr_scan", "ios": "https://dc.lft.to/lastmile_qr_scan"}, "fusion_lon": 0.0}, {"lat": 38.905378666666664, "is_disabled": 0, "type": "electric_scooter", "lon": -77.02207783333333, "bike_id": "83d8f2b46fd0571e26e3f3db3709c97e", "fusion_lat": 0.0, "name": "83d8f2b46fd0571e26e3f3db3709c97e", "is_reserved": 0, "rental_uris": {"android": "https://dc.lft.to/lastmile_qr_scan", "ios": "https://dc.lft.to/lastmile_qr_scan"}, "fusion_lon": 0.0}, {"lat": 38.9164265, "is_disabled": 0, "type": "electric_scooter", "lon": -77.04620183333333, "bike_id": "346ba3911ccfc15a0d4723532960d840", "fusion_lat": 0.0, "name": "346ba3911ccfc15a0d4723532960d840", "is_reserved": 0, "rental_uris": {"android": "https://dc.lft.to/lastmile_qr_scan", "ios": "https://dc.lft.to/lastmile_qr_scan"}, "fusion_lon": 0.0}, {"lat": 38.881898, "is_disabled": 0, "type": "electric_scooter", "lon": -76.9949845, "bike_id": "7f7742fca3fac8bc2abc119c6666ab34", "fusion_lat": 0.0, "name": "7f7742fca3fac8bc2abc119c6666ab34", "is_reserved": 0, "rental_uris": {"android": "https://dc.lft.to/lastmile_qr_scan", "ios": "https://dc.lft.to/lastmile_qr_scan"}, "fusion_lon": 0.0}, {"lat": 38.892574, "is_disabled": 0, "type": "electric_scooter", "lon": -77.02608666666667, "bike_id": "3289e77045a1733247f85d49d29378ac", "fusion_lat": 0.0, "name": "3289e77045a1733247f85d49d29378ac", "is_reserved": 0, "rental_uris": {"android": "https://dc.lft.to/lastmile_qr_scan", "ios": "https://dc.lft.to/lastmile_qr_scan"}, "fusion_lon": 0.0}, {"lat": 38.92303416666667, "is_disabled": 0, "type": "electric_bike", "lon": -77.02352283333333, "bike_id": "45f4bc8c4decdbcdd79d00240ba62cf1", "fusion_lat": 0.0, "name": "45f4bc8c4decdbcdd79d00240ba62cf1", "is_reserved": 0, "rental_uris": {"android": "https://dc.lft.to/lastmile_qr_scan", "ios": "https://dc.lft.to/lastmile_qr_scan"}, "fusion_lon": 0.0}, {"lat": 38.90224033333333, "is_disabled": 0, "type": "electric_scooter", "lon": -77.04345633333334, "bike_id": "7e7951673ac579a3d420e2a24b93af49", "fusion_lat": 0.0, "name": "7e7951673ac579a3d420e2a24b93af49", "is_reserved": 0, "rental_uris": {"android": "https://dc.lft.to/lastmile_qr_scan", "ios": "https://dc.lft.to/lastmile_qr_scan"}, "fusion_lon": 0.0}, {"lat": 38.92859833333333, "is_disabled": 0, "type": "electric_bike", "lon": -77.22211216666666, "bike_id": "9bec446385873fe853f5fbfcc42ae693", "fusion_lat": 0.0, "name": "9bec446385873fe853f5fbfcc42ae693", "is_reserved": 0, "rental_uris": {"android": "https://dc.lft.to/lastmile_qr_scan", "ios": "https://dc.lft.to/lastmile_qr_scan"}, "fusion_lon": 0.0}, {"lat": 39.088645, "is_disabled": 0, "type": "electric_bike", "lon": -77.17838566666667, "bike_id": "e5a4a73388ab9119e86dde0831648391", "fusion_lat": 0.0, "name": "e5a4a73388ab9119e86dde0831648391", "is_reserved": 0, "rental_uris": {"android": "https://dc.lft.to/lastmile_qr_scan", "ios": "https://dc.lft.to/lastmile_qr_scan"}, "fusion_lon": 0.0}, {"lat": 38.89605516666666, "is_disabled": 0, "type": "electric_scooter", "lon": -77.02913616666666, "bike_id": "742973a4b819b1d0b581dbc176608ea9", "fusion_lat": 0.0, "name": "742973a4b819b1d0b581dbc176608ea9", "is_reserved": 0, "rental_uris": {"android": "https://dc.lft.to/lastmile_qr_scan", "ios": "https://dc.lft.to/lastmile_qr_scan"}, "fusion_lon": 0.0}, {"lat": 38.9591935, "is_disabled": 0, "type": "electric_bike", "lon": -77.0311595, "bike_id": "9b4ed940bdfe30ece6994bcb791f66b2", "fusion_lat": 0.0, "name": "9b4ed940bdfe30ece6994bcb791f66b2", "is_reserved": 0, "rental_uris": {"android": "https://dc.lft.to/lastmile_qr_scan", "ios": "https://dc.lft.to/lastmile_qr_scan"}, "fusion_lon": 0.0}, {"lat": 38.884956833333334, "is_disabled": 0, "type": "electric_scooter", "lon": -77.00709316666666, "bike_id": "ea8190bd75afdf2346ad712ad99cd329", "fusion_lat": 0.0, "name": "ea8190bd75afdf2346ad712ad99cd329", "is_reserved": 0, "rental_uris": {"android": "https://dc.lft.to/lastmile_qr_scan", "ios": "https://dc.lft.to/lastmile_qr_scan"}, "fusion_lon": 0.0}, {"lat": 38.84298916666667, "is_disabled": 0, "type": "electric_scooter", "lon": -76.999424, "bike_id": "85012930bcf5807a9326bc73d8cad482", "fusion_lat": 0.0, "name": "85012930bcf5807a9326bc73d8cad482", "is_reserved": 0, "rental_uris": {"android": "https://dc.lft.to/lastmile_qr_scan", "ios": "https://dc.lft.to/lastmile_qr_scan"}, "fusion_lon": 0.0}, {"lat": 38.849348666666664, "is_disabled": 0, "type": "electric_bike", "lon": -77.10018683333334, "bike_id": "26a1f6ee0939de2e17f0556ea98f4b12", "fusion_lat": 0.0, "name": "26a1f6ee0939de2e17f0556ea98f4b12", "is_reserved": 0, "rental_uris": {"android": "https://dc.lft.to/lastmile_qr_scan", "ios": "https://dc.lft.to/lastmile_qr_scan"}, "fusion_lon": 0.0}, {"lat": 38.90983216666667, "is_disabled": 0, "type": "electric_scooter", "lon": -77.04791516666667, "bike_id": "e5b90c334706d7f14f7d0bba8acc859c", "fusion_lat": 0.0, "name": "e5b90c334706d7f14f7d0bba8acc859c", "is_reserved": 0, "rental_uris": {"android": "https://dc.lft.to/lastmile_qr_scan", "ios": "https://dc.lft.to/lastmile_qr_scan"}, "fusion_lon": 0.0}, {"lat": 38.923666833333336, "is_disabled": 0, "type": "electric_scooter", "lon": -77.04030616666667, "bike_id": "8f81a3af622b250d14f97624532e31bc", "fusion_lat": 0.0, "name": "8f81a3af622b250d14f97624532e31bc", "is_reserved": 0, "rental_uris": {"android": "https://dc.lft.to/lastmile_qr_scan", "ios": "https://dc.lft.to/lastmile_qr_scan"}, "fusion_lon": 0.0}, {"lat": 38.89371916666666, "is_disabled": 0, "type": "electric_scooter", "lon": -76.94995633333333, "bike_id": "e1b313d44808a51fc02991a2f93cc978", "fusion_lat": 0.0, "name": "e1b313d44808a51fc02991a2f93cc978", "is_reserved": 0, "rental_uris": {"android": "https://dc.lft.to/lastmile_qr_scan", "ios": "https://dc.lft.to/lastmile_qr_scan"}, "fusion_lon": 0.0}, {"lat": 38.90967, "is_disabled": 0, "type": "electric_scooter", "lon": -77.02270333333334, "bike_id": "26f043de5ab2313dac8a0ebf68adc3e1", "fusion_lat": 0.0, "name": "26f043de5ab2313dac8a0ebf68adc3e1", "is_reserved": 0, "rental_uris": {"android": "https://dc.lft.to/lastmile_qr_scan", "ios": "https://dc.lft.to/lastmile_qr_scan"}, "fusion_lon": 0.0}, {"lat": 38.842894666666666, "is_disabled": 0, "type": "electric_bike", "lon": -76.98834733333334, "bike_id": "e335c2ee9b89da515d5068d6ca368c80", "fusion_lat": 0.0, "name": "e335c2ee9b89da515d5068d6ca368c80", "is_reserved": 0, "rental_uris": {"android": "https://dc.lft.to/lastmile_qr_scan", "ios": "https://dc.lft.to/lastmile_qr_scan"}, "fusion_lon": 0.0}, {"lat": 38.921376, "is_disabled": 0, "type": "electric_scooter", "lon": -77.01042266666667, "bike_id": "3a64256b738f42ff192fbb293e9fc54b", "fusion_lat": 0.0, "name": "3a64256b738f42ff192fbb293e9fc54b", "is_reserved": 0, "rental_uris": {"android": "https://dc.lft.to/lastmile_qr_scan", "ios": "https://dc.lft.to/lastmile_qr_scan"}, "fusion_lon": 0.0}, {"lat": 38.866287166666666, "is_disabled": 0, "type": "electric_scooter", "lon": -76.98696566666666, "bike_id": "042795ce1cbf12ee187634bf13fb0251", "fusion_lat": 0.0, "name": "042795ce1cbf12ee187634bf13fb0251", "is_reserved": 0, "rental_uris": {"android": "https://dc.lft.to/lastmile_qr_scan", "ios": "https://dc.lft.to/lastmile_qr_scan"}, "fusion_lon": 0.0}, {"lat": 38.9514075, "is_disabled": 0, "type": "electric_scooter", "lon": -77.01333066666666, "bike_id": "2a7bab80d34db9f12f2838e256e1ccdd", "fusion_lat": 0.0, "name": "2a7bab80d34db9f12f2838e256e1ccdd", "is_reserved": 0, "rental_uris": {"android": "https://dc.lft.to/lastmile_qr_scan", "ios": "https://dc.lft.to/lastmile_qr_scan"}, "fusion_lon": 0.0}, {"lat": 38.935389, "is_disabled": 0, "type": "electric_scooter", "lon": -77.02350416666667, "bike_id": "922291a61a20e936b58dbf29b18b9697", "fusion_lat": 0.0, "name": "922291a61a20e936b58dbf29b18b9697", "is_reserved": 0, "rental_uris": {"android": "https://dc.lft.to/lastmile_qr_scan", "ios": "https://dc.lft.to/lastmile_qr_scan"}, "fusion_lon": 0.0}, {"lat": 38.898810166666664, "is_disabled": 0, "type": "electric_scooter", "lon": -76.93184316666667, "bike_id": "46decbb17d5b8e70e59e7e4356268a12", "fusion_lat": 0.0, "name": "46decbb17d5b8e70e59e7e4356268a12", "is_reserved": 0, "rental_uris": {"android": "https://dc.lft.to/lastmile_qr_scan", "ios": "https://dc.lft.to/lastmile_qr_scan"}, "fusion_lon": 0.0}, {"lat": 38.9084575, "is_disabled": 0, "type": "electric_scooter", "lon": -77.02711733333334, "bike_id": "0298def41533e0f1345dba6f9970aa8e", "fusion_lat": 0.0, "name": "0298def41533e0f1345dba6f9970aa8e", "is_reserved": 0, "rental_uris": {"android": "https://dc.lft.to/lastmile_qr_scan", "ios": "https://dc.lft.to/lastmile_qr_scan"}, "fusion_lon": 0.0}, {"lat": 38.913555333333335, "is_disabled": 0, "type": "electric_scooter", "lon": -77.03112483333334, "bike_id": "4491920a71207d301590b6532ebf7b67", "fusion_lat": 0.0, "name": "4491920a71207d301590b6532ebf7b67", "is_reserved": 0, "rental_uris": {"android": "https://dc.lft.to/lastmile_qr_scan", "ios": "https://dc.lft.to/lastmile_qr_scan"}, "fusion_lon": 0.0}, {"lat": 38.97090733333334, "is_disabled": 0, "type": "electric_bike", "lon": -77.069667, "bike_id": "aed2b430bb5615ce9db608a1ae87dba3", "fusion_lat": 0.0, "name": "aed2b430bb5615ce9db608a1ae87dba3", "is_reserved": 0, "rental_uris": {"android": "https://dc.lft.to/lastmile_qr_scan", "ios": "https://dc.lft.to/lastmile_qr_scan"}, "fusion_lon": 0.0}, {"lat": 38.90962016666667, "is_disabled": 0, "type": "electric_scooter", "lon": -77.02278616666666, "bike_id": "7da3daa3744681f8b27e8cec626e1fa8", "fusion_lat": 0.0, "name": "7da3daa3744681f8b27e8cec626e1fa8", "is_reserved": 0, "rental_uris": {"android": "https://dc.lft.to/lastmile_qr_scan", "ios": "https://dc.lft.to/lastmile_qr_scan"}, "fusion_lon": 0.0}, {"lat": 38.87316583333333, "is_disabled": 0, "type": "electric_bike", "lon": -76.99150616666667, "bike_id": "0c4017075f7a000370b60426c6845a45", "fusion_lat": 0.0, "name": "0c4017075f7a000370b60426c6845a45", "is_reserved": 0, "rental_uris": {"android": "https://dc.lft.to/lastmile_qr_scan", "ios": "https://dc.lft.to/lastmile_qr_scan"}, "fusion_lon": 0.0}, {"lat": 38.90132033333333, "is_disabled": 0, "type": "electric_scooter", "lon": -76.9974745, "bike_id": "f63d64d103c3e59447c0658d85362a0b", "fusion_lat": 0.0, "name": "f63d64d103c3e59447c0658d85362a0b", "is_reserved": 0, "rental_uris": {"android": "https://dc.lft.to/lastmile_qr_scan", "ios": "https://dc.lft.to/lastmile_qr_scan"}, "fusion_lon": 0.0}, {"lat": 38.90721383333333, "is_disabled": 0, "type": "electric_scooter", "lon": -77.04756283333333, "bike_id": "2420743884e5bf17ffad5a7e9ce9a1c5", "fusion_lat": 0.0, "name": "2420743884e5bf17ffad5a7e9ce9a1c5", "is_reserved": 0, "rental_uris": {"android": "https://dc.lft.to/lastmile_qr_scan", "ios": "https://dc.lft.to/lastmile_qr_scan"}, "fusion_lon": 0.0}, {"lat": 38.91790316666667, "is_disabled": 0, "type": "electric_scooter", "lon": -77.04075216666666, "bike_id": "5c6aae172b60d7bc39115ae03cb3b4a6", "fusion_lat": 0.0, "name": "5c6aae172b60d7bc39115ae03cb3b4a6", "is_reserved": 0, "rental_uris": {"android": "https://dc.lft.to/lastmile_qr_scan", "ios": "https://dc.lft.to/lastmile_qr_scan"}, "fusion_lon": 0.0}, {"lat": 38.91568133333333, "is_disabled": 0, "type": "electric_scooter", "lon": -77.04863383333333, "bike_id": "f0bd0c54c81e8411ca078add2fe4c0ce", "fusion_lat": 0.0, "name": "f0bd0c54c81e8411ca078add2fe4c0ce", "is_reserved": 0, "rental_uris": {"android": "https://dc.lft.to/lastmile_qr_scan", "ios": "https://dc.lft.to/lastmile_qr_scan"}, "fusion_lon": 0.0}, {"lat": 38.885069333333334, "is_disabled": 0, "type": "electric_scooter", "lon": -77.01546383333333, "bike_id": "4885c566764a1dfda5363d9a92b963a9", "fusion_lat": 0.0, "name": "4885c566764a1dfda5363d9a92b963a9", "is_reserved": 0, "rental_uris": {"android": "https://dc.lft.to/lastmile_qr_scan", "ios": "https://dc.lft.to/lastmile_qr_scan"}, "fusion_lon": 0.0}, {"lat": 38.9038095, "is_disabled": 0, "type": "electric_scooter", "lon": -77.01761133333333, "bike_id": "7f88e2f8915c93964b55446c51d90c6a", "fusion_lat": 0.0, "name": "7f88e2f8915c93964b55446c51d90c6a", "is_reserved": 0, "rental_uris": {"android": "https://dc.lft.to/lastmile_qr_scan", "ios": "https://dc.lft.to/lastmile_qr_scan"}, "fusion_lon": 0.0}, {"lat": 38.944407166666664, "is_disabled": 0, "type": "electric_scooter", "lon": -77.023412, "bike_id": "1b3d450b03f5e55bbefb24493c01fab6", "fusion_lat": 0.0, "name": "1b3d450b03f5e55bbefb24493c01fab6", "is_reserved": 0, "rental_uris": {"android": "https://dc.lft.to/lastmile_qr_scan", "ios": "https://dc.lft.to/lastmile_qr_scan"}, "fusion_lon": 0.0}, {"lat": 38.8573525, "is_disabled": 0, "type": "electric_scooter", "lon": -76.99439116666667, "bike_id": "b8637a9a4a00a75dde16ee5886e9f8e3", "fusion_lat": 0.0, "name": "b8637a9a4a00a75dde16ee5886e9f8e3", "is_reserved": 0, "rental_uris": {"android": "https://dc.lft.to/lastmile_qr_scan", "ios": "https://dc.lft.to/lastmile_qr_scan"}, "fusion_lon": 0.0}, {"lat": 38.90966783333333, "is_disabled": 0, "type": "electric_scooter", "lon": -77.04788166666667, "bike_id": "462eb03187d3648c9be9f169986f401a", "fusion_lat": 0.0, "name": "462eb03187d3648c9be9f169986f401a", "is_reserved": 0, "rental_uris": {"android": "https://dc.lft.to/lastmile_qr_scan", "ios": "https://dc.lft.to/lastmile_qr_scan"}, "fusion_lon": 0.0}, {"lat": 38.909707, "is_disabled": 0, "type": "electric_scooter", "lon": -77.02394733333334, "bike_id": "830049e6aab6916cec6c96405adaf5d9", "fusion_lat": 0.0, "name": "830049e6aab6916cec6c96405adaf5d9", "is_reserved": 0, "rental_uris": {"android": "https://dc.lft.to/lastmile_qr_scan", "ios": "https://dc.lft.to/lastmile_qr_scan"}, "fusion_lon": 0.0}, {"lat": 38.901470833333335, "is_disabled": 0, "type": "electric_scooter", "lon": -77.04122, "bike_id": "50210a277771e6c733e4b9a4c99d1b1b", "fusion_lat": 0.0, "name": "50210a277771e6c733e4b9a4c99d1b1b", "is_reserved": 0, "rental_uris": {"android": "https://dc.lft.to/lastmile_qr_scan", "ios": "https://dc.lft.to/lastmile_qr_scan"}, "fusion_lon": 0.0}, {"lat": 38.90220566666667, "is_disabled": 0, "type": "electric_scooter", "lon": -77.02971016666666, "bike_id": "37682e52141ada3fb7769cdeff1309a3", "fusion_lat": 0.0, "name": "37682e52141ada3fb7769cdeff1309a3", "is_reserved": 0, "rental_uris": {"android": "https://dc.lft.to/lastmile_qr_scan", "ios": "https://dc.lft.to/lastmile_qr_scan"}, "fusion_lon": 0.0}, {"lat": 38.9046015, "is_disabled": 0, "type": "electric_scooter", "lon": -77.0294605, "bike_id": "3c3e75241da70bbe55afb0491e57c825", "fusion_lat": 0.0, "name": "3c3e75241da70bbe55afb0491e57c825", "is_reserved": 0, "rental_uris": {"android": "https://dc.lft.to/lastmile_qr_scan", "ios": "https://dc.lft.to/lastmile_qr_scan"}, "fusion_lon": 0.0}, {"lat": 38.9083455, "is_disabled": 0, "type": "electric_scooter", "lon": -76.94146733333334, "bike_id": "014d793cc7b23ce6e3389e6f34f7f3a5", "fusion_lat": 0.0, "name": "014d793cc7b23ce6e3389e6f34f7f3a5", "is_reserved": 0, "rental_uris": {"android": "https://dc.lft.to/lastmile_qr_scan", "ios": "https://dc.lft.to/lastmile_qr_scan"}, "fusion_lon": 0.0}, {"lat": 38.884116, "is_disabled": 0, "type": "electric_bike", "lon": -76.96058983333333, "bike_id": "0989e629bc034c996c7b1087167fa297", "fusion_lat": 0.0, "name": "0989e629bc034c996c7b1087167fa297", "is_reserved": 0, "rental_uris": {"android": "https://dc.lft.to/lastmile_qr_scan", "ios": "https://dc.lft.to/lastmile_qr_scan"}, "fusion_lon": 0.0}, {"lat": 38.92483983333333, "is_disabled": 0, "type": "electric_scooter", "lon": -77.027242, "bike_id": "edacfabfc2a1d06ea6472270d9c1e439", "fusion_lat": 0.0, "name": "edacfabfc2a1d06ea6472270d9c1e439", "is_reserved": 0, "rental_uris": {"android": "https://dc.lft.to/lastmile_qr_scan", "ios": "https://dc.lft.to/lastmile_qr_scan"}, "fusion_lon": 0.0}, {"lat": 38.8793605, "is_disabled": 0, "type": "electric_scooter", "lon": -77.007604, "bike_id": "4734651a67bfc7798341b3cb8e422be8", "fusion_lat": 0.0, "name": "4734651a67bfc7798341b3cb8e422be8", "is_reserved": 0, "rental_uris": {"android": "https://dc.lft.to/lastmile_qr_scan", "ios": "https://dc.lft.to/lastmile_qr_scan"}, "fusion_lon": 0.0}, {"lat": 38.917269, "is_disabled": 0, "type": "electric_scooter", "lon": -77.04093116666667, "bike_id": "15e18169628a05596a6070b28e9dadbe", "fusion_lat": 0.0, "name": "15e18169628a05596a6070b28e9dadbe", "is_reserved": 0, "rental_uris": {"android": "https://dc.lft.to/lastmile_qr_scan", "ios": "https://dc.lft.to/lastmile_qr_scan"}, "fusion_lon": 0.0}, {"lat": 38.92333083333333, "is_disabled": 0, "type": "electric_scooter", "lon": -77.0430355, "bike_id": "ee909be2f2cdb3e407ee63541d011239", "fusion_lat": 0.0, "name": "ee909be2f2cdb3e407ee63541d011239", "is_reserved": 0, "rental_uris": {"android": "https://dc.lft.to/lastmile_qr_scan", "ios": "https://dc.lft.to/lastmile_qr_scan"}, "fusion_lon": 0.0}, {"lat": 38.86663633333333, "is_disabled": 0, "type": "electric_scooter", "lon": -76.99016733333333, "bike_id": "9026ab7d7c85f42543a8232258230920", "fusion_lat": 0.0, "name": "9026ab7d7c85f42543a8232258230920", "is_reserved": 0, "rental_uris": {"android": "https://dc.lft.to/lastmile_qr_scan", "ios": "https://dc.lft.to/lastmile_qr_scan"}, "fusion_lon": 0.0}, {"lat": 38.900395333333336, "is_disabled": 0, "type": "electric_scooter", "lon": -76.995009, "bike_id": "4bd5a27b9bfab49d4161141127f01f20", "fusion_lat": 0.0, "name": "4bd5a27b9bfab49d4161141127f01f20", "is_reserved": 0, "rental_uris": {"android": "https://dc.lft.to/lastmile_qr_scan", "ios": "https://dc.lft.to/lastmile_qr_scan"}, "fusion_lon": 0.0}, {"lat": 38.942346666666666, "is_disabled": 0, "type": "electric_scooter", "lon": -77.0138565, "bike_id": "c264d38f2d01c339d11fec4d170ad10e", "fusion_lat": 0.0, "name": "c264d38f2d01c339d11fec4d170ad10e", "is_reserved": 0, "rental_uris": {"android": "https://dc.lft.to/lastmile_qr_scan", "ios": "https://dc.lft.to/lastmile_qr_scan"}, "fusion_lon": 0.0}, {"lat": 38.903930833333334, "is_disabled": 0, "type": "electric_scooter", "lon": -77.043506, "bike_id": "461e9374343efeae2b196c4ab1426931", "fusion_lat": 0.0, "name": "461e9374343efeae2b196c4ab1426931", "is_reserved": 0, "rental_uris": {"android": "https://dc.lft.to/lastmile_qr_scan", "ios": "https://dc.lft.to/lastmile_qr_scan"}, "fusion_lon": 0.0}, {"lat": 38.87985033333333, "is_disabled": 0, "type": "electric_scooter", "lon": -77.00592083333333, "bike_id": "29e0c37e64e9f1acd4c4d632c718c896", "fusion_lat": 0.0, "name": "29e0c37e64e9f1acd4c4d632c718c896", "is_reserved": 0, "rental_uris": {"android": "https://dc.lft.to/lastmile_qr_scan", "ios": "https://dc.lft.to/lastmile_qr_scan"}, "fusion_lon": 0.0}, {"lat": 38.90748716666667, "is_disabled": 0, "type": "electric_scooter", "lon": -77.00088883333333, "bike_id": "58138803547aa598e2d5f1ee31e072e3", "fusion_lat": 0.0, "name": "58138803547aa598e2d5f1ee31e072e3", "is_reserved": 0, "rental_uris": {"android": "https://dc.lft.to/lastmile_qr_scan", "ios": "https://dc.lft.to/lastmile_qr_scan"}, "fusion_lon": 0.0}, {"lat": 38.919811833333334, "is_disabled": 0, "type": "electric_scooter", "lon": -77.0001765, "bike_id": "8f6058b3ea5be4a770db36fde3470854", "fusion_lat": 0.0, "name": "8f6058b3ea5be4a770db36fde3470854", "is_reserved": 0, "rental_uris": {"android": "https://dc.lft.to/lastmile_qr_scan", "ios": "https://dc.lft.to/lastmile_qr_scan"}, "fusion_lon": 0.0}, {"lat": 38.91704133333333, "is_disabled": 0, "type": "electric_scooter", "lon": -77.03495083333334, "bike_id": "5cac862239a80ddcdd72329c5bd741bd", "fusion_lat": 0.0, "name": "5cac862239a80ddcdd72329c5bd741bd", "is_reserved": 0, "rental_uris": {"android": "https://dc.lft.to/lastmile_qr_scan", "ios": "https://dc.lft.to/lastmile_qr_scan"}, "fusion_lon": 0.0}, {"lat": 38.904162666666664, "is_disabled": 0, "type": "electric_scooter", "lon": -76.9907465, "bike_id": "b10672d533de49f5ec4344a18c02ffce", "fusion_lat": 0.0, "name": "b10672d533de49f5ec4344a18c02ffce", "is_reserved": 0, "rental_uris": {"android": "https://dc.lft.to/lastmile_qr_scan", "ios": "https://dc.lft.to/lastmile_qr_scan"}, "fusion_lon": 0.0}, {"lat": 38.909618333333334, "is_disabled": 0, "type": "electric_scooter", "lon": -77.01827666666667, "bike_id": "51782ede44d1cae77ff5773309f679ea", "fusion_lat": 0.0, "name": "51782ede44d1cae77ff5773309f679ea", "is_reserved": 0, "rental_uris": {"android": "https://dc.lft.to/lastmile_qr_scan", "ios": "https://dc.lft.to/lastmile_qr_scan"}, "fusion_lon": 0.0}, {"lat": 38.90366366666667, "is_disabled": 0, "type": "electric_scooter", "lon": -77.062821, "bike_id": "14cb5e6fc2d1227dba163e832fd512c7", "fusion_lat": 0.0, "name": "14cb5e6fc2d1227dba163e832fd512c7", "is_reserved": 0, "rental_uris": {"android": "https://dc.lft.to/lastmile_qr_scan", "ios": "https://dc.lft.to/lastmile_qr_scan"}, "fusion_lon": 0.0}, {"lat": 38.908523833333334, "is_disabled": 0, "type": "electric_scooter", "lon": -76.99961666666667, "bike_id": "02a4ba4d85c829393dc92f0badc6a198", "fusion_lat": 0.0, "name": "02a4ba4d85c829393dc92f0badc6a198", "is_reserved": 0, "rental_uris": {"android": "https://dc.lft.to/lastmile_qr_scan", "ios": "https://dc.lft.to/lastmile_qr_scan"}, "fusion_lon": 0.0}, {"lat": 38.917782833333334, "is_disabled": 0, "type": "electric_scooter", "lon": -77.02301933333334, "bike_id": "3c24b62f9e095b679bdb276ba66f3a49", "fusion_lat": 0.0, "name": "3c24b62f9e095b679bdb276ba66f3a49", "is_reserved": 0, "rental_uris": {"android": "https://dc.lft.to/lastmile_qr_scan", "ios": "https://dc.lft.to/lastmile_qr_scan"}, "fusion_lon": 0.0}, {"lat": 38.8901115, "is_disabled": 0, "type": "electric_scooter", "lon": -76.93747833333333, "bike_id": "3b167ed26439bad23c103f65dfae4000", "fusion_lat": 0.0, "name": "3b167ed26439bad23c103f65dfae4000", "is_reserved": 0, "rental_uris": {"android": "https://dc.lft.to/lastmile_qr_scan", "ios": "https://dc.lft.to/lastmile_qr_scan"}, "fusion_lon": 0.0}, {"lat": 38.84613083333333, "is_disabled": 0, "type": "electric_bike", "lon": -76.969053, "bike_id": "12925549e1bf0d0bef7549c203e55b1e", "fusion_lat": 0.0, "name": "12925549e1bf0d0bef7549c203e55b1e", "is_reserved": 0, "rental_uris": {"android": "https://dc.lft.to/lastmile_qr_scan", "ios": "https://dc.lft.to/lastmile_qr_scan"}, "fusion_lon": 0.0}, {"lat": 38.901402, "is_disabled": 0, "type": "electric_scooter", "lon": -76.98054066666667, "bike_id": "72325c7018261bf5df6454456b5b5302", "fusion_lat": 0.0, "name": "72325c7018261bf5df6454456b5b5302", "is_reserved": 0, "rental_uris": {"android": "https://dc.lft.to/lastmile_qr_scan", "ios": "https://dc.lft.to/lastmile_qr_scan"}, "fusion_lon": 0.0}, {"lat": 38.9312075, "is_disabled": 0, "type": "electric_scooter", "lon": -77.03034366666667, "bike_id": "878ee27a75505ba791dcf8652caa610b", "fusion_lat": 0.0, "name": "878ee27a75505ba791dcf8652caa610b", "is_reserved": 0, "rental_uris": {"android": "https://dc.lft.to/lastmile_qr_scan", "ios": "https://dc.lft.to/lastmile_qr_scan"}, "fusion_lon": 0.0}, {"lat": 38.896755, "is_disabled": 0, "type": "electric_scooter", "lon": -77.00517316666667, "bike_id": "73eb6073b7174f1afee735ecb76471a9", "fusion_lat": 0.0, "name": "73eb6073b7174f1afee735ecb76471a9", "is_reserved": 0, "rental_uris": {"android": "https://dc.lft.to/lastmile_qr_scan", "ios": "https://dc.lft.to/lastmile_qr_scan"}, "fusion_lon": 0.0}, {"lat": 38.90945583333333, "is_disabled": 0, "type": "electric_scooter", "lon": -77.04292166666667, "bike_id": "135838440574a585134277c765777645", "fusion_lat": 0.0, "name": "135838440574a585134277c765777645", "is_reserved": 0, "rental_uris": {"android": "https://dc.lft.to/lastmile_qr_scan", "ios": "https://dc.lft.to/lastmile_qr_scan"}, "fusion_lon": 0.0}, {"lat": 38.91574416666667, "is_disabled": 0, "type": "electric_scooter", "lon": -77.03166266666666, "bike_id": "e4f3364e57d3dfe991211dc0338a0f2e", "fusion_lat": 0.0, "name": "e4f3364e57d3dfe991211dc0338a0f2e", "is_reserved": 0, "rental_uris": {"android": "https://dc.lft.to/lastmile_qr_scan", "ios": "https://dc.lft.to/lastmile_qr_scan"}, "fusion_lon": 0.0}, {"lat": 38.904104833333335, "is_disabled": 0, "type": "electric_scooter", "lon": -76.9930055, "bike_id": "5e982ff39f68fc6bba06221210f18d41", "fusion_lat": 0.0, "name": "5e982ff39f68fc6bba06221210f18d41", "is_reserved": 0, "rental_uris": {"android": "https://dc.lft.to/lastmile_qr_scan", "ios": "https://dc.lft.to/lastmile_qr_scan"}, "fusion_lon": 0.0}, {"lat": 38.903761833333334, "is_disabled": 0, "type": "electric_scooter", "lon": -77.05812733333333, "bike_id": "7d5b8855a465b693fb7232dc05dc30ed", "fusion_lat": 0.0, "name": "7d5b8855a465b693fb7232dc05dc30ed", "is_reserved": 0, "rental_uris": {"android": "https://dc.lft.to/lastmile_qr_scan", "ios": "https://dc.lft.to/lastmile_qr_scan"}, "fusion_lon": 0.0}, {"lat": 38.903626, "is_disabled": 0, "type": "electric_scooter", "lon": -77.00337816666666, "bike_id": "a752e426fffa5aaa2686ce82c7368f51", "fusion_lat": 0.0, "name": "a752e426fffa5aaa2686ce82c7368f51", "is_reserved": 0, "rental_uris": {"android": "https://dc.lft.to/lastmile_qr_scan", "ios": "https://dc.lft.to/lastmile_qr_scan"}, "fusion_lon": 0.0}, {"lat": 38.92056933333333, "is_disabled": 0, "type": "electric_scooter", "lon": -77.03390466666667, "bike_id": "64efc05d292168e77ed40e08696cfa4f", "fusion_lat": 0.0, "name": "64efc05d292168e77ed40e08696cfa4f", "is_reserved": 0, "rental_uris": {"android": "https://dc.lft.to/lastmile_qr_scan", "ios": "https://dc.lft.to/lastmile_qr_scan"}, "fusion_lon": 0.0}, {"lat": 38.8556615, "is_disabled": 0, "type": "electric_bike", "lon": -77.08197883333334, "bike_id": "0c752f63bac8a4e37c2dc7ab53077637", "fusion_lat": 0.0, "name": "0c752f63bac8a4e37c2dc7ab53077637", "is_reserved": 0, "rental_uris": {"android": "https://dc.lft.to/lastmile_qr_scan", "ios": "https://dc.lft.to/lastmile_qr_scan"}, "fusion_lon": 0.0}, {"lat": 38.89739433333333, "is_disabled": 0, "type": "electric_scooter", "lon": -76.94721933333334, "bike_id": "bff5cc896d8c24d093d6a1fe8e0a3899", "fusion_lat": 0.0, "name": "bff5cc896d8c24d093d6a1fe8e0a3899", "is_reserved": 0, "rental_uris": {"android": "https://dc.lft.to/lastmile_qr_scan", "ios": "https://dc.lft.to/lastmile_qr_scan"}, "fusion_lon": 0.0}, {"lat": 38.9019535, "is_disabled": 0, "type": "electric_scooter", "lon": -77.02321916666666, "bike_id": "8b5a968b32c8b14c7968936b0d9936a3", "fusion_lat": 0.0, "name": "8b5a968b32c8b14c7968936b0d9936a3", "is_reserved": 0, "rental_uris": {"android": "https://dc.lft.to/lastmile_qr_scan", "ios": "https://dc.lft.to/lastmile_qr_scan"}, "fusion_lon": 0.0}, {"lat": 38.91418483333333, "is_disabled": 0, "type": "electric_scooter", "lon": -77.03526166666667, "bike_id": "c8a761262f9945e033f3ac39b9777948", "fusion_lat": 0.0, "name": "c8a761262f9945e033f3ac39b9777948", "is_reserved": 0, "rental_uris": {"android": "https://dc.lft.to/lastmile_qr_scan", "ios": "https://dc.lft.to/lastmile_qr_scan"}, "fusion_lon": 0.0}, {"lat": 38.899506, "is_disabled": 0, "type": "electric_scooter", "lon": -77.04076416666666, "bike_id": "c4907f0015bd118f355714837a49f2d0", "fusion_lat": 0.0, "name": "c4907f0015bd118f355714837a49f2d0", "is_reserved": 0, "rental_uris": {"android": "https://dc.lft.to/lastmile_qr_scan", "ios": "https://dc.lft.to/lastmile_qr_scan"}, "fusion_lon": 0.0}, {"lat": 38.95358183333333, "is_disabled": 0, "type": "electric_bike", "lon": -76.980945, "bike_id": "23276f36d6abf1061974f3a511fa4af3", "fusion_lat": 0.0, "name": "23276f36d6abf1061974f3a511fa4af3", "is_reserved": 0, "rental_uris": {"android": "https://dc.lft.to/lastmile_qr_scan", "ios": "https://dc.lft.to/lastmile_qr_scan"}, "fusion_lon": 0.0}, {"lat": 38.898959, "is_disabled": 0, "type": "electric_scooter", "lon": -76.98423866666667, "bike_id": "6d230854227988c812c320815b35443b", "fusion_lat": 0.0, "name": "6d230854227988c812c320815b35443b", "is_reserved": 0, "rental_uris": {"android": "https://dc.lft.to/lastmile_qr_scan", "ios": "https://dc.lft.to/lastmile_qr_scan"}, "fusion_lon": 0.0}, {"lat": 38.896852, "is_disabled": 0, "type": "electric_scooter", "lon": -76.93609666666667, "bike_id": "316f4b710bbf91b04cc1456d175541c0", "fusion_lat": 0.0, "name": "316f4b710bbf91b04cc1456d175541c0", "is_reserved": 0, "rental_uris": {"android": "https://dc.lft.to/lastmile_qr_scan", "ios": "https://dc.lft.to/lastmile_qr_scan"}, "fusion_lon": 0.0}, {"lat": 38.91649916666667, "is_disabled": 0, "type": "electric_scooter", "lon": -77.015892, "bike_id": "bb819267a2131185d46d98681dac6117", "fusion_lat": 0.0, "name": "bb819267a2131185d46d98681dac6117", "is_reserved": 0, "rental_uris": {"android": "https://dc.lft.to/lastmile_qr_scan", "ios": "https://dc.lft.to/lastmile_qr_scan"}, "fusion_lon": 0.0}, {"lat": 38.91422266666667, "is_disabled": 0, "type": "electric_scooter", "lon": -77.04156933333333, "bike_id": "9705f8cbb866887685bf1f809d3bb866", "fusion_lat": 0.0, "name": "9705f8cbb866887685bf1f809d3bb866", "is_reserved": 0, "rental_uris": {"android": "https://dc.lft.to/lastmile_qr_scan", "ios": "https://dc.lft.to/lastmile_qr_scan"}, "fusion_lon": 0.0}, {"lat": 38.90728033333333, "is_disabled": 0, "type": "electric_scooter", "lon": -77.02540666666667, "bike_id": "3e24dd0e912e8e010d37d8336c5976af", "fusion_lat": 0.0, "name": "3e24dd0e912e8e010d37d8336c5976af", "is_reserved": 0, "rental_uris": {"android": "https://dc.lft.to/lastmile_qr_scan", "ios": "https://dc.lft.to/lastmile_qr_scan"}, "fusion_lon": 0.0}, {"lat": 38.913554166666664, "is_disabled": 0, "type": "electric_scooter", "lon": -77.0458185, "bike_id": "3989fc0fa6394ee25e4c05fbf5bce064", "fusion_lat": 0.0, "name": "3989fc0fa6394ee25e4c05fbf5bce064", "is_reserved": 0, "rental_uris": {"android": "https://dc.lft.to/lastmile_qr_scan", "ios": "https://dc.lft.to/lastmile_qr_scan"}, "fusion_lon": 0.0}, {"lat": 38.8872025, "is_disabled": 0, "type": "electric_scooter", "lon": -76.95474966666667, "bike_id": "153ac3a099790551f7abfa8680b16ccb", "fusion_lat": 0.0, "name": "153ac3a099790551f7abfa8680b16ccb", "is_reserved": 0, "rental_uris": {"android": "https://dc.lft.to/lastmile_qr_scan", "ios": "https://dc.lft.to/lastmile_qr_scan"}, "fusion_lon": 0.0}, {"lat": 38.871843, "is_disabled": 0, "type": "electric_bike", "lon": -77.005972, "bike_id": "c626dd0747998819bde4d407f306317d", "fusion_lat": 0.0, "name": "c626dd0747998819bde4d407f306317d", "is_reserved": 0, "rental_uris": {"android": "https://dc.lft.to/lastmile_qr_scan", "ios": "https://dc.lft.to/lastmile_qr_scan"}, "fusion_lon": 0.0}, {"lat": 38.89917466666667, "is_disabled": 0, "type": "electric_scooter", "lon": -77.0137795, "bike_id": "4c12495c758b2d906a3fbfe9f1e5e002", "fusion_lat": 0.0, "name": "4c12495c758b2d906a3fbfe9f1e5e002", "is_reserved": 0, "rental_uris": {"android": "https://dc.lft.to/lastmile_qr_scan", "ios": "https://dc.lft.to/lastmile_qr_scan"}, "fusion_lon": 0.0}, {"lat": 38.909750333333335, "is_disabled": 0, "type": "electric_scooter", "lon": -77.02165483333333, "bike_id": "226c4ffa8573f46478244f01338b1c08", "fusion_lat": 0.0, "name": "226c4ffa8573f46478244f01338b1c08", "is_reserved": 0, "rental_uris": {"android": "https://dc.lft.to/lastmile_qr_scan", "ios": "https://dc.lft.to/lastmile_qr_scan"}, "fusion_lon": 0.0}, {"lat": 38.89844733333334, "is_disabled": 0, "type": "electric_scooter", "lon": -77.0296855, "bike_id": "36257b1997be7064a51b4692b1b2743c", "fusion_lat": 0.0, "name": "36257b1997be7064a51b4692b1b2743c", "is_reserved": 0, "rental_uris": {"android": "https://dc.lft.to/lastmile_qr_scan", "ios": "https://dc.lft.to/lastmile_qr_scan"}, "fusion_lon": 0.0}, {"lat": 38.8834125, "is_disabled": 0, "type": "electric_scooter", "lon": -77.03145366666666, "bike_id": "a074d0738eafcd5a927837211ec97c69", "fusion_lat": 0.0, "name": "a074d0738eafcd5a927837211ec97c69", "is_reserved": 0, "rental_uris": {"android": "https://dc.lft.to/lastmile_qr_scan", "ios": "https://dc.lft.to/lastmile_qr_scan"}, "fusion_lon": 0.0}, {"lat": 38.92103983333333, "is_disabled": 0, "type": "electric_scooter", "lon": -77.02517183333333, "bike_id": "9ab4aa52faafaf1f7f03c4d59ca4f271", "fusion_lat": 0.0, "name": "9ab4aa52faafaf1f7f03c4d59ca4f271", "is_reserved": 0, "rental_uris": {"android": "https://dc.lft.to/lastmile_qr_scan", "ios": "https://dc.lft.to/lastmile_qr_scan"}, "fusion_lon": 0.0}, {"lat": 38.861076833333335, "is_disabled": 0, "type": "electric_scooter", "lon": -76.98354316666666, "bike_id": "59bbf32a5501eac188302b8f29dacac1", "fusion_lat": 0.0, "name": "59bbf32a5501eac188302b8f29dacac1", "is_reserved": 0, "rental_uris": {"android": "https://dc.lft.to/lastmile_qr_scan", "ios": "https://dc.lft.to/lastmile_qr_scan"}, "fusion_lon": 0.0}, {"lat": 38.9154955, "is_disabled": 0, "type": "electric_scooter", "lon": -77.0383375, "bike_id": "953deb339d245a859fe086b9f21aee03", "fusion_lat": 0.0, "name": "953deb339d245a859fe086b9f21aee03", "is_reserved": 0, "rental_uris": {"android": "https://dc.lft.to/lastmile_qr_scan", "ios": "https://dc.lft.to/lastmile_qr_scan"}, "fusion_lon": 0.0}, {"lat": 38.89748766666666, "is_disabled": 0, "type": "electric_scooter", "lon": -77.05515016666666, "bike_id": "6d4d7a18cf471498d92516695da4df12", "fusion_lat": 0.0, "name": "6d4d7a18cf471498d92516695da4df12", "is_reserved": 0, "rental_uris": {"android": "https://dc.lft.to/lastmile_qr_scan", "ios": "https://dc.lft.to/lastmile_qr_scan"}, "fusion_lon": 0.0}, {"lat": 38.900959, "is_disabled": 0, "type": "electric_scooter", "lon": -77.04981566666666, "bike_id": "e246577033452e0aeaaf90155c5061f3", "fusion_lat": 0.0, "name": "e246577033452e0aeaaf90155c5061f3", "is_reserved": 0, "rental_uris": {"android": "https://dc.lft.to/lastmile_qr_scan", "ios": "https://dc.lft.to/lastmile_qr_scan"}, "fusion_lon": 0.0}, {"lat": 38.91336866666666, "is_disabled": 0, "type": "electric_scooter", "lon": -77.00220616666667, "bike_id": "83aa33fef34a0affc35b1a4989cd307a", "fusion_lat": 0.0, "name": "83aa33fef34a0affc35b1a4989cd307a", "is_reserved": 0, "rental_uris": {"android": "https://dc.lft.to/lastmile_qr_scan", "ios": "https://dc.lft.to/lastmile_qr_scan"}, "fusion_lon": 0.0}, {"lat": 38.908317, "is_disabled": 0, "type": "electric_scooter", "lon": -76.99702583333334, "bike_id": "bd163b96612b42b6c5430fc3d264d179", "fusion_lat": 0.0, "name": "bd163b96612b42b6c5430fc3d264d179", "is_reserved": 0, "rental_uris": {"android": "https://dc.lft.to/lastmile_qr_scan", "ios": "https://dc.lft.to/lastmile_qr_scan"}, "fusion_lon": 0.0}, {"lat": 38.92391033333333, "is_disabled": 0, "type": "electric_scooter", "lon": -77.00066733333334, "bike_id": "c8a006ba7fd0d2ccf26e32ac59975f52", "fusion_lat": 0.0, "name": "c8a006ba7fd0d2ccf26e32ac59975f52", "is_reserved": 0, "rental_uris": {"android": "https://dc.lft.to/lastmile_qr_scan", "ios": "https://dc.lft.to/lastmile_qr_scan"}, "fusion_lon": 0.0}, {"lat": 38.91011, "is_disabled": 0, "type": "electric_scooter", "lon": -76.99391533333333, "bike_id": "71653cb885918b9306e5c231f417b8c9", "fusion_lat": 0.0, "name": "71653cb885918b9306e5c231f417b8c9", "is_reserved": 0, "rental_uris": {"android": "https://dc.lft.to/lastmile_qr_scan", "ios": "https://dc.lft.to/lastmile_qr_scan"}, "fusion_lon": 0.0}, {"lat": 38.9042085, "is_disabled": 0, "type": "electric_scooter", "lon": -77.02498583333333, "bike_id": "e7bd501a21d3e0ed7a0377e8fb07b1c1", "fusion_lat": 0.0, "name": "e7bd501a21d3e0ed7a0377e8fb07b1c1", "is_reserved": 0, "rental_uris": {"android": "https://dc.lft.to/lastmile_qr_scan", "ios": "https://dc.lft.to/lastmile_qr_scan"}, "fusion_lon": 0.0}, {"lat": 38.923434, "is_disabled": 0, "type": "electric_scooter", "lon": -77.01901633333334, "bike_id": "dde2aa1f0e42b01fd81de516f5dd562e", "fusion_lat": 0.0, "name": "dde2aa1f0e42b01fd81de516f5dd562e", "is_reserved": 0, "rental_uris": {"android": "https://dc.lft.to/lastmile_qr_scan", "ios": "https://dc.lft.to/lastmile_qr_scan"}, "fusion_lon": 0.0}, {"lat": 38.84591316666667, "is_disabled": 0, "type": "electric_bike", "lon": -77.0768045, "bike_id": "04ed38f2a56f5add64e3ba768cd65f45", "fusion_lat": 0.0, "name": "04ed38f2a56f5add64e3ba768cd65f45", "is_reserved": 0, "rental_uris": {"android": "https://dc.lft.to/lastmile_qr_scan", "ios": "https://dc.lft.to/lastmile_qr_scan"}, "fusion_lon": 0.0}, {"lat": 38.866177666666665, "is_disabled": 0, "type": "electric_scooter", "lon": -76.986657, "bike_id": "06f7e5cbc4000e6f90eb273fe9455127", "fusion_lat": 0.0, "name": "06f7e5cbc4000e6f90eb273fe9455127", "is_reserved": 0, "rental_uris": {"android": "https://dc.lft.to/lastmile_qr_scan", "ios": "https://dc.lft.to/lastmile_qr_scan"}, "fusion_lon": 0.0}, {"lat": 38.909675166666666, "is_disabled": 0, "type": "electric_scooter", "lon": -77.04819966666666, "bike_id": "2ac7c16a299ab7ade2af7a90a941ea51", "fusion_lat": 0.0, "name": "2ac7c16a299ab7ade2af7a90a941ea51", "is_reserved": 0, "rental_uris": {"android": "https://dc.lft.to/lastmile_qr_scan", "ios": "https://dc.lft.to/lastmile_qr_scan"}, "fusion_lon": 0.0}, {"lat": 38.8849615, "is_disabled": 0, "type": "electric_scooter", "lon": -77.00710833333333, "bike_id": "ded91245dd1d9a7759df7c85384c9297", "fusion_lat": 0.0, "name": "ded91245dd1d9a7759df7c85384c9297", "is_reserved": 0, "rental_uris": {"android": "https://dc.lft.to/lastmile_qr_scan", "ios": "https://dc.lft.to/lastmile_qr_scan"}, "fusion_lon": 0.0}, {"lat": 38.9184645, "is_disabled": 0, "type": "electric_scooter", "lon": -77.03216633333334, "bike_id": "3be460c26ecbf9b8ede2964005ef69bc", "fusion_lat": 0.0, "name": "3be460c26ecbf9b8ede2964005ef69bc", "is_reserved": 0, "rental_uris": {"android": "https://dc.lft.to/lastmile_qr_scan", "ios": "https://dc.lft.to/lastmile_qr_scan"}, "fusion_lon": 0.0}, {"lat": 38.906396, "is_disabled": 0, "type": "electric_scooter", "lon": -77.01367633333334, "bike_id": "346b634bb245b6c282f1611e3113d0e4", "fusion_lat": 0.0, "name": "346b634bb245b6c282f1611e3113d0e4", "is_reserved": 0, "rental_uris": {"android": "https://dc.lft.to/lastmile_qr_scan", "ios": "https://dc.lft.to/lastmile_qr_scan"}, "fusion_lon": 0.0}, {"lat": 38.88515483333333, "is_disabled": 0, "type": "electric_scooter", "lon": -77.01067566666667, "bike_id": "3016ff0c07449dd399b880bf363b2022", "fusion_lat": 0.0, "name": "3016ff0c07449dd399b880bf363b2022", "is_reserved": 0, "rental_uris": {"android": "https://dc.lft.to/lastmile_qr_scan", "ios": "https://dc.lft.to/lastmile_qr_scan"}, "fusion_lon": 0.0}, {"lat": 38.93985266666667, "is_disabled": 0, "type": "electric_scooter", "lon": -77.02961633333334, "bike_id": "be753fd44a1f9a33dc5a92b8a45a0f7f", "fusion_lat": 0.0, "name": "be753fd44a1f9a33dc5a92b8a45a0f7f", "is_reserved": 0, "rental_uris": {"android": "https://dc.lft.to/lastmile_qr_scan", "ios": "https://dc.lft.to/lastmile_qr_scan"}, "fusion_lon": 0.0}, {"lat": 38.905619333333334, "is_disabled": 0, "type": "electric_scooter", "lon": -77.04665166666666, "bike_id": "536db0724907da0fbda3d8bc45637011", "fusion_lat": 0.0, "name": "536db0724907da0fbda3d8bc45637011", "is_reserved": 0, "rental_uris": {"android": "https://dc.lft.to/lastmile_qr_scan", "ios": "https://dc.lft.to/lastmile_qr_scan"}, "fusion_lon": 0.0}, {"lat": 38.89251066666667, "is_disabled": 0, "type": "electric_scooter", "lon": -77.02204666666667, "bike_id": "256d77b2e300d22196b92d2b242023d0", "fusion_lat": 0.0, "name": "256d77b2e300d22196b92d2b242023d0", "is_reserved": 0, "rental_uris": {"android": "https://dc.lft.to/lastmile_qr_scan", "ios": "https://dc.lft.to/lastmile_qr_scan"}, "fusion_lon": 0.0}, {"lat": 38.81432933333333, "is_disabled": 0, "type": "electric_bike", "lon": -77.11891733333333, "bike_id": "5021dfd74d1929b52043ecb80351ef0a", "fusion_lat": 0.0, "name": "5021dfd74d1929b52043ecb80351ef0a", "is_reserved": 0, "rental_uris": {"android": "https://dc.lft.to/lastmile_qr_scan", "ios": "https://dc.lft.to/lastmile_qr_scan"}, "fusion_lon": 0.0}, {"lat": 38.93242866666667, "is_disabled": 0, "type": "electric_scooter", "lon": -77.0326485, "bike_id": "416c986df34a6bdbb933e939a279e37f", "fusion_lat": 0.0, "name": "416c986df34a6bdbb933e939a279e37f", "is_reserved": 0, "rental_uris": {"android": "https://dc.lft.to/lastmile_qr_scan", "ios": "https://dc.lft.to/lastmile_qr_scan"}, "fusion_lon": 0.0}, {"lat": 38.924571666666665, "is_disabled": 0, "type": "electric_scooter", "lon": -77.03300366666667, "bike_id": "dc907314bee7d187e3f431e1ebeb1f8d", "fusion_lat": 0.0, "name": "dc907314bee7d187e3f431e1ebeb1f8d", "is_reserved": 0, "rental_uris": {"android": "https://dc.lft.to/lastmile_qr_scan", "ios": "https://dc.lft.to/lastmile_qr_scan"}, "fusion_lon": 0.0}, {"lat": 38.918036666666666, "is_disabled": 0, "type": "electric_scooter", "lon": -77.03197883333333, "bike_id": "938b93ba70b44209bd1549092b80afad", "fusion_lat": 0.0, "name": "938b93ba70b44209bd1549092b80afad", "is_reserved": 0, "rental_uris": {"android": "https://dc.lft.to/lastmile_qr_scan", "ios": "https://dc.lft.to/lastmile_qr_scan"}, "fusion_lon": 0.0}, {"lat": 38.903785166666665, "is_disabled": 0, "type": "electric_scooter", "lon": -77.002702, "bike_id": "f728d18e5cb362e3bfb717a634f86594", "fusion_lat": 0.0, "name": "f728d18e5cb362e3bfb717a634f86594", "is_reserved": 0, "rental_uris": {"android": "https://dc.lft.to/lastmile_qr_scan", "ios": "https://dc.lft.to/lastmile_qr_scan"}, "fusion_lon": 0.0}, {"lat": 38.92157433333333, "is_disabled": 0, "type": "electric_scooter", "lon": -77.033739, "bike_id": "a79f877ede27f0c32e8dc29cf405c151", "fusion_lat": 0.0, "name": "a79f877ede27f0c32e8dc29cf405c151", "is_reserved": 0, "rental_uris": {"android": "https://dc.lft.to/lastmile_qr_scan", "ios": "https://dc.lft.to/lastmile_qr_scan"}, "fusion_lon": 0.0}, {"lat": 38.93265816666667, "is_disabled": 0, "type": "electric_scooter", "lon": -77.03281016666666, "bike_id": "c4558bc6a8174ccc36747ad06f43cd3a", "fusion_lat": 0.0, "name": "c4558bc6a8174ccc36747ad06f43cd3a", "is_reserved": 0, "rental_uris": {"android": "https://dc.lft.to/lastmile_qr_scan", "ios": "https://dc.lft.to/lastmile_qr_scan"}, "fusion_lon": 0.0}, {"lat": 38.89757933333333, "is_disabled": 0, "type": "electric_scooter", "lon": -77.01859383333333, "bike_id": "5175ec9581e7d612655d960bead09b3d", "fusion_lat": 0.0, "name": "5175ec9581e7d612655d960bead09b3d", "is_reserved": 0, "rental_uris": {"android": "https://dc.lft.to/lastmile_qr_scan", "ios": "https://dc.lft.to/lastmile_qr_scan"}, "fusion_lon": 0.0}, {"lat": 38.91710483333333, "is_disabled": 0, "type": "electric_scooter", "lon": -77.03220416666667, "bike_id": "fe14b1a1156c0a122ca5f1e87071c742", "fusion_lat": 0.0, "name": "fe14b1a1156c0a122ca5f1e87071c742", "is_reserved": 0, "rental_uris": {"android": "https://dc.lft.to/lastmile_qr_scan", "ios": "https://dc.lft.to/lastmile_qr_scan"}, "fusion_lon": 0.0}, {"lat": 38.92039166666667, "is_disabled": 0, "type": "electric_scooter", "lon": -77.0385615, "bike_id": "e6f1aaaa6c1e046eaccd2ae958e2c490", "fusion_lat": 0.0, "name": "e6f1aaaa6c1e046eaccd2ae958e2c490", "is_reserved": 0, "rental_uris": {"android": "https://dc.lft.to/lastmile_qr_scan", "ios": "https://dc.lft.to/lastmile_qr_scan"}, "fusion_lon": 0.0}, {"lat": 38.867936666666665, "is_disabled": 0, "type": "electric_scooter", "lon": -76.96569016666666, "bike_id": "c6247757f0553fa2a89bc071a625c8fe", "fusion_lat": 0.0, "name": "c6247757f0553fa2a89bc071a625c8fe", "is_reserved": 0, "rental_uris": {"android": "https://dc.lft.to/lastmile_qr_scan", "ios": "https://dc.lft.to/lastmile_qr_scan"}, "fusion_lon": 0.0}, {"lat": 38.905306833333334, "is_disabled": 0, "type": "electric_scooter", "lon": -76.98619766666667, "bike_id": "dfd7a61d4286334e4eb2f2272cf7f6cd", "fusion_lat": 0.0, "name": "dfd7a61d4286334e4eb2f2272cf7f6cd", "is_reserved": 0, "rental_uris": {"android": "https://dc.lft.to/lastmile_qr_scan", "ios": "https://dc.lft.to/lastmile_qr_scan"}, "fusion_lon": 0.0}, {"lat": 38.86664566666666, "is_disabled": 0, "type": "electric_scooter", "lon": -76.988848, "bike_id": "226addb765ce992e9768ee21243491ef", "fusion_lat": 0.0, "name": "226addb765ce992e9768ee21243491ef", "is_reserved": 0, "rental_uris": {"android": "https://dc.lft.to/lastmile_qr_scan", "ios": "https://dc.lft.to/lastmile_qr_scan"}, "fusion_lon": 0.0}, {"lat": 38.90691833333333, "is_disabled": 0, "type": "electric_scooter", "lon": -77.06258216666667, "bike_id": "c69d64c2b31f8cd0d2ff5f8dc9e66d11", "fusion_lat": 0.0, "name": "c69d64c2b31f8cd0d2ff5f8dc9e66d11", "is_reserved": 0, "rental_uris": {"android": "https://dc.lft.to/lastmile_qr_scan", "ios": "https://dc.lft.to/lastmile_qr_scan"}, "fusion_lon": 0.0}, {"lat": 38.900404333333334, "is_disabled": 0, "type": "electric_scooter", "lon": -77.001963, "bike_id": "a230ff74de6205861bfeba6e5e51bbbf", "fusion_lat": 0.0, "name": "a230ff74de6205861bfeba6e5e51bbbf", "is_reserved": 0, "rental_uris": {"android": "https://dc.lft.to/lastmile_qr_scan", "ios": "https://dc.lft.to/lastmile_qr_scan"}, "fusion_lon": 0.0}, {"lat": 38.921904833333336, "is_disabled": 0, "type": "electric_scooter", "lon": -77.04707366666666, "bike_id": "8d27dcd5b81f8b0cc8085506c0d41208", "fusion_lat": 0.0, "name": "8d27dcd5b81f8b0cc8085506c0d41208", "is_reserved": 0, "rental_uris": {"android": "https://dc.lft.to/lastmile_qr_scan", "ios": "https://dc.lft.to/lastmile_qr_scan"}, "fusion_lon": 0.0}, {"lat": 38.9540565, "is_disabled": 0, "type": "electric_scooter", "lon": -77.02746766666667, "bike_id": "cb72bc00dd9b35f3ce51b66934ab1a27", "fusion_lat": 0.0, "name": "cb72bc00dd9b35f3ce51b66934ab1a27", "is_reserved": 0, "rental_uris": {"android": "https://dc.lft.to/lastmile_qr_scan", "ios": "https://dc.lft.to/lastmile_qr_scan"}, "fusion_lon": 0.0}, {"lat": 38.92287983333333, "is_disabled": 0, "type": "electric_scooter", "lon": -77.02426333333334, "bike_id": "ded5d0f190bf323374c65850439a6028", "fusion_lat": 0.0, "name": "ded5d0f190bf323374c65850439a6028", "is_reserved": 0, "rental_uris": {"android": "https://dc.lft.to/lastmile_qr_scan", "ios": "https://dc.lft.to/lastmile_qr_scan"}, "fusion_lon": 0.0}, {"lat": 38.95199266666667, "is_disabled": 0, "type": "electric_bike", "lon": -76.96721316666667, "bike_id": "2a1e3338323ef7c0795921c00f266b60", "fusion_lat": 0.0, "name": "2a1e3338323ef7c0795921c00f266b60", "is_reserved": 0, "rental_uris": {"android": "https://dc.lft.to/lastmile_qr_scan", "ios": "https://dc.lft.to/lastmile_qr_scan"}, "fusion_lon": 0.0}, {"lat": 38.9014995, "is_disabled": 0, "type": "electric_scooter", "lon": -77.0417515, "bike_id": "f1bfac9085549a72fff9c06f79ce5851", "fusion_lat": 0.0, "name": "f1bfac9085549a72fff9c06f79ce5851", "is_reserved": 0, "rental_uris": {"android": "https://dc.lft.to/lastmile_qr_scan", "ios": "https://dc.lft.to/lastmile_qr_scan"}, "fusion_lon": 0.0}, {"lat": 38.903539333333335, "is_disabled": 0, "type": "electric_scooter", "lon": -77.0109645, "bike_id": "a97134e983f57b8f5be3b7470e7f336f", "fusion_lat": 0.0, "name": "a97134e983f57b8f5be3b7470e7f336f", "is_reserved": 0, "rental_uris": {"android": "https://dc.lft.to/lastmile_qr_scan", "ios": "https://dc.lft.to/lastmile_qr_scan"}, "fusion_lon": 0.0}, {"lat": 38.86240266666667, "is_disabled": 0, "type": "electric_scooter", "lon": -76.99543283333334, "bike_id": "e96ea2ec7cfc1b77d1a053a99c11b052", "fusion_lat": 0.0, "name": "e96ea2ec7cfc1b77d1a053a99c11b052", "is_reserved": 0, "rental_uris": {"android": "https://dc.lft.to/lastmile_qr_scan", "ios": "https://dc.lft.to/lastmile_qr_scan"}, "fusion_lon": 0.0}, {"lat": 38.86392583333333, "is_disabled": 0, "type": "electric_bike", "lon": -76.98989633333333, "bike_id": "a13ad9dd4d755eaf7bfcb48ae8736db5", "fusion_lat": 0.0, "name": "a13ad9dd4d755eaf7bfcb48ae8736db5", "is_reserved": 0, "rental_uris": {"android": "https://dc.lft.to/lastmile_qr_scan", "ios": "https://dc.lft.to/lastmile_qr_scan"}, "fusion_lon": 0.0}, {"lat": 38.85328616666666, "is_disabled": 0, "type": "electric_bike", "lon": -76.9800265, "bike_id": "b21b0dcbcde419136ff28b36debd0751", "fusion_lat": 0.0, "name": "b21b0dcbcde419136ff28b36debd0751", "is_reserved": 0, "rental_uris": {"android": "https://dc.lft.to/lastmile_qr_scan", "ios": "https://dc.lft.to/lastmile_qr_scan"}, "fusion_lon": 0.0}, {"lat": 38.906842833333336, "is_disabled": 0, "type": "electric_scooter", "lon": -77.06353916666667, "bike_id": "e7bea8282781ad3c28ad33a951eb0f76", "fusion_lat": 0.0, "name": "e7bea8282781ad3c28ad33a951eb0f76", "is_reserved": 0, "rental_uris": {"android": "https://dc.lft.to/lastmile_qr_scan", "ios": "https://dc.lft.to/lastmile_qr_scan"}, "fusion_lon": 0.0}, {"lat": 38.927983, "is_disabled": 0, "type": "electric_scooter", "lon": -77.05530433333334, "bike_id": "8af2947961e0ca071a6bd6842de99bf6", "fusion_lat": 0.0, "name": "8af2947961e0ca071a6bd6842de99bf6", "is_reserved": 0, "rental_uris": {"android": "https://dc.lft.to/lastmile_qr_scan", "ios": "https://dc.lft.to/lastmile_qr_scan"}, "fusion_lon": 0.0}, {"lat": 38.93317366666667, "is_disabled": 0, "type": "electric_scooter", "lon": -77.03276483333333, "bike_id": "2c7eaeb99f309716216af83ac1a12021", "fusion_lat": 0.0, "name": "2c7eaeb99f309716216af83ac1a12021", "is_reserved": 0, "rental_uris": {"android": "https://dc.lft.to/lastmile_qr_scan", "ios": "https://dc.lft.to/lastmile_qr_scan"}, "fusion_lon": 0.0}, {"lat": 38.89228816666667, "is_disabled": 0, "type": "electric_bike", "lon": -77.0332665, "bike_id": "c1a491a3f0f6ca6e5d7aeb2801761e48", "fusion_lat": 0.0, "name": "c1a491a3f0f6ca6e5d7aeb2801761e48", "is_reserved": 0, "rental_uris": {"android": "https://dc.lft.to/lastmile_qr_scan", "ios": "https://dc.lft.to/lastmile_qr_scan"}, "fusion_lon": 0.0}, {"lat": 39.00025216666667, "is_disabled": 0, "type": "electric_bike", "lon": -76.91080533333333, "bike_id": "0fc4abdc2c9e4e33e460bc13886ff840", "fusion_lat": 0.0, "name": "0fc4abdc2c9e4e33e460bc13886ff840", "is_reserved": 0, "rental_uris": {"android": "https://dc.lft.to/lastmile_qr_scan", "ios": "https://dc.lft.to/lastmile_qr_scan"}, "fusion_lon": 0.0}, {"lat": 38.8908155, "is_disabled": 0, "type": "electric_scooter", "lon": -77.04042833333334, "bike_id": "fad607a4b39fcebe2172d2bd9e25d2c2", "fusion_lat": 0.0, "name": "fad607a4b39fcebe2172d2bd9e25d2c2", "is_reserved": 0, "rental_uris": {"android": "https://dc.lft.to/lastmile_qr_scan", "ios": "https://dc.lft.to/lastmile_qr_scan"}, "fusion_lon": 0.0}, {"lat": 38.92104333333333, "is_disabled": 0, "type": "electric_scooter", "lon": -77.025094, "bike_id": "4cd89b1e44e09af34927b3bc24dea750", "fusion_lat": 0.0, "name": "4cd89b1e44e09af34927b3bc24dea750", "is_reserved": 0, "rental_uris": {"android": "https://dc.lft.to/lastmile_qr_scan", "ios": "https://dc.lft.to/lastmile_qr_scan"}, "fusion_lon": 0.0}, {"lat": 38.92805516666667, "is_disabled": 0, "type": "electric_scooter", "lon": -77.04316016666667, "bike_id": "a6abd3334e3ba89ebad7c3616dc31988", "fusion_lat": 0.0, "name": "a6abd3334e3ba89ebad7c3616dc31988", "is_reserved": 0, "rental_uris": {"android": "https://dc.lft.to/lastmile_qr_scan", "ios": "https://dc.lft.to/lastmile_qr_scan"}, "fusion_lon": 0.0}, {"lat": 38.9172485, "is_disabled": 0, "type": "electric_scooter", "lon": -77.02705916666666, "bike_id": "8c388f9f9ee9035369dd36f21fdd3e15", "fusion_lat": 0.0, "name": "8c388f9f9ee9035369dd36f21fdd3e15", "is_reserved": 0, "rental_uris": {"android": "https://dc.lft.to/lastmile_qr_scan", "ios": "https://dc.lft.to/lastmile_qr_scan"}, "fusion_lon": 0.0}, {"lat": 38.85516283333333, "is_disabled": 0, "type": "electric_bike", "lon": -77.12016833333334, "bike_id": "3b9119a8a67284a34ddf4b7566559728", "fusion_lat": 0.0, "name": "3b9119a8a67284a34ddf4b7566559728", "is_reserved": 0, "rental_uris": {"android": "https://dc.lft.to/lastmile_qr_scan", "ios": "https://dc.lft.to/lastmile_qr_scan"}, "fusion_lon": 0.0}, {"lat": 38.909672, "is_disabled": 0, "type": "electric_scooter", "lon": -77.02387283333333, "bike_id": "cdfbb8d84628f1715d15061a037fa317", "fusion_lat": 0.0, "name": "cdfbb8d84628f1715d15061a037fa317", "is_reserved": 0, "rental_uris": {"android": "https://dc.lft.to/lastmile_qr_scan", "ios": "https://dc.lft.to/lastmile_qr_scan"}, "fusion_lon": 0.0}, {"lat": 38.8976015, "is_disabled": 0, "type": "electric_scooter", "lon": -77.02591216666667, "bike_id": "12792a1c06fcac464e3bc6a1a6366063", "fusion_lat": 0.0, "name": "12792a1c06fcac464e3bc6a1a6366063", "is_reserved": 0, "rental_uris": {"android": "https://dc.lft.to/lastmile_qr_scan", "ios": "https://dc.lft.to/lastmile_qr_scan"}, "fusion_lon": 0.0}, {"lat": 38.90872566666667, "is_disabled": 0, "type": "electric_scooter", "lon": -77.06669916666667, "bike_id": "bff7e0955c87a5a9ac5b8bb098ba4e3c", "fusion_lat": 0.0, "name": "bff7e0955c87a5a9ac5b8bb098ba4e3c", "is_reserved": 0, "rental_uris": {"android": "https://dc.lft.to/lastmile_qr_scan", "ios": "https://dc.lft.to/lastmile_qr_scan"}, "fusion_lon": 0.0}, {"lat": 38.91715216666667, "is_disabled": 0, "type": "electric_scooter", "lon": -77.02590933333333, "bike_id": "5405715ab82496a191f7e2077791a8f0", "fusion_lat": 0.0, "name": "5405715ab82496a191f7e2077791a8f0", "is_reserved": 0, "rental_uris": {"android": "https://dc.lft.to/lastmile_qr_scan", "ios": "https://dc.lft.to/lastmile_qr_scan"}, "fusion_lon": 0.0}, {"lat": 38.91462533333333, "is_disabled": 0, "type": "electric_scooter", "lon": -77.0220945, "bike_id": "665d337a625b16b0953c5b41cecaf97b", "fusion_lat": 0.0, "name": "665d337a625b16b0953c5b41cecaf97b", "is_reserved": 0, "rental_uris": {"android": "https://dc.lft.to/lastmile_qr_scan", "ios": "https://dc.lft.to/lastmile_qr_scan"}, "fusion_lon": 0.0}, {"lat": 38.917091166666665, "is_disabled": 0, "type": "electric_scooter", "lon": -77.03557166666667, "bike_id": "6cbb17b8050b66fc2ce9a6a81d2f4b87", "fusion_lat": 0.0, "name": "6cbb17b8050b66fc2ce9a6a81d2f4b87", "is_reserved": 0, "rental_uris": {"android": "https://dc.lft.to/lastmile_qr_scan", "ios": "https://dc.lft.to/lastmile_qr_scan"}, "fusion_lon": 0.0}, {"lat": 38.93678666666667, "is_disabled": 0, "type": "electric_scooter", "lon": -77.035721, "bike_id": "81c1dea8a779b49578fe1e34ef2af7f6", "fusion_lat": 0.0, "name": "81c1dea8a779b49578fe1e34ef2af7f6", "is_reserved": 0, "rental_uris": {"android": "https://dc.lft.to/lastmile_qr_scan", "ios": "https://dc.lft.to/lastmile_qr_scan"}, "fusion_lon": 0.0}, {"lat": 38.923271, "is_disabled": 0, "type": "electric_scooter", "lon": -77.03903783333334, "bike_id": "1bfa5f1d7ac2080a8f7798b2a4a91e4c", "fusion_lat": 0.0, "name": "1bfa5f1d7ac2080a8f7798b2a4a91e4c", "is_reserved": 0, "rental_uris": {"android": "https://dc.lft.to/lastmile_qr_scan", "ios": "https://dc.lft.to/lastmile_qr_scan"}, "fusion_lon": 0.0}, {"lat": 38.907552833333334, "is_disabled": 0, "type": "electric_scooter", "lon": -76.99874366666667, "bike_id": "9fee1bd71eb9d3c7c4fdf62f2f0bea19", "fusion_lat": 0.0, "name": "9fee1bd71eb9d3c7c4fdf62f2f0bea19", "is_reserved": 0, "rental_uris": {"android": "https://dc.lft.to/lastmile_qr_scan", "ios": "https://dc.lft.to/lastmile_qr_scan"}, "fusion_lon": 0.0}, {"lat": 38.928996833333336, "is_disabled": 0, "type": "electric_scooter", "lon": -77.0325195, "bike_id": "f345869eb5a8cf44c7a9d86f262f38df", "fusion_lat": 0.0, "name": "f345869eb5a8cf44c7a9d86f262f38df", "is_reserved": 0, "rental_uris": {"android": "https://dc.lft.to/lastmile_qr_scan", "ios": "https://dc.lft.to/lastmile_qr_scan"}, "fusion_lon": 0.0}, {"lat": 38.929037666666666, "is_disabled": 0, "type": "electric_scooter", "lon": -77.03246866666667, "bike_id": "d186464d2d3f33305da483e90c9c56e6", "fusion_lat": 0.0, "name": "d186464d2d3f33305da483e90c9c56e6", "is_reserved": 0, "rental_uris": {"android": "https://dc.lft.to/lastmile_qr_scan", "ios": "https://dc.lft.to/lastmile_qr_scan"}, "fusion_lon": 0.0}, {"lat": 38.9220555, "is_disabled": 0, "type": "electric_scooter", "lon": -77.04249166666666, "bike_id": "c745c5f3f68baa71b77078379978afba", "fusion_lat": 0.0, "name": "c745c5f3f68baa71b77078379978afba", "is_reserved": 0, "rental_uris": {"android": "https://dc.lft.to/lastmile_qr_scan", "ios": "https://dc.lft.to/lastmile_qr_scan"}, "fusion_lon": 0.0}, {"lat": 38.885141833333336, "is_disabled": 0, "type": "electric_scooter", "lon": -77.005685, "bike_id": "e999ad7baac251d354b2b801c1bb319f", "fusion_lat": 0.0, "name": "e999ad7baac251d354b2b801c1bb319f", "is_reserved": 0, "rental_uris": {"android": "https://dc.lft.to/lastmile_qr_scan", "ios": "https://dc.lft.to/lastmile_qr_scan"}, "fusion_lon": 0.0}, {"lat": 38.8951685, "is_disabled": 0, "type": "electric_scooter", "lon": -77.04354583333334, "bike_id": "fb8714f7aedbe0e6218c642a931f8f40", "fusion_lat": 0.0, "name": "fb8714f7aedbe0e6218c642a931f8f40", "is_reserved": 0, "rental_uris": {"android": "https://dc.lft.to/lastmile_qr_scan", "ios": "https://dc.lft.to/lastmile_qr_scan"}, "fusion_lon": 0.0}, {"lat": 38.907258666666664, "is_disabled": 0, "type": "electric_scooter", "lon": -77.04826483333333, "bike_id": "c0ea4feb213570d4706de1d59203d77a", "fusion_lat": 0.0, "name": "c0ea4feb213570d4706de1d59203d77a", "is_reserved": 0, "rental_uris": {"android": "https://dc.lft.to/lastmile_qr_scan", "ios": "https://dc.lft.to/lastmile_qr_scan"}, "fusion_lon": 0.0}, {"lat": 39.030503333333336, "is_disabled": 0, "type": "electric_bike", "lon": -77.09479116666667, "bike_id": "e1fbad52c0fcbfad52ef915464bf0e6b", "fusion_lat": 0.0, "name": "e1fbad52c0fcbfad52ef915464bf0e6b", "is_reserved": 0, "rental_uris": {"android": "https://dc.lft.to/lastmile_qr_scan", "ios": "https://dc.lft.to/lastmile_qr_scan"}, "fusion_lon": 0.0}, {"lat": 38.921843, "is_disabled": 0, "type": "electric_scooter", "lon": -77.04227866666666, "bike_id": "acb3cfaacec8da3131c005931f5b55dd", "fusion_lat": 0.0, "name": "acb3cfaacec8da3131c005931f5b55dd", "is_reserved": 0, "rental_uris": {"android": "https://dc.lft.to/lastmile_qr_scan", "ios": "https://dc.lft.to/lastmile_qr_scan"}, "fusion_lon": 0.0}, {"lat": 38.90973833333334, "is_disabled": 0, "type": "electric_scooter", "lon": -77.04518716666666, "bike_id": "f28c75ca388a3fadcf5fe94a4a1c2bf5", "fusion_lat": 0.0, "name": "f28c75ca388a3fadcf5fe94a4a1c2bf5", "is_reserved": 0, "rental_uris": {"android": "https://dc.lft.to/lastmile_qr_scan", "ios": "https://dc.lft.to/lastmile_qr_scan"}, "fusion_lon": 0.0}, {"lat": 38.90458183333333, "is_disabled": 0, "type": "electric_scooter", "lon": -77.00769283333334, "bike_id": "72daaf8483e55e85aa6fb15003368126", "fusion_lat": 0.0, "name": "72daaf8483e55e85aa6fb15003368126", "is_reserved": 0, "rental_uris": {"android": "https://dc.lft.to/lastmile_qr_scan", "ios": "https://dc.lft.to/lastmile_qr_scan"}, "fusion_lon": 0.0}, {"lat": 38.93872016666667, "is_disabled": 0, "type": "electric_scooter", "lon": -77.0322195, "bike_id": "5f5baf9d733c395192ad5b0d52b5cf98", "fusion_lat": 0.0, "name": "5f5baf9d733c395192ad5b0d52b5cf98", "is_reserved": 0, "rental_uris": {"android": "https://dc.lft.to/lastmile_qr_scan", "ios": "https://dc.lft.to/lastmile_qr_scan"}, "fusion_lon": 0.0}, {"lat": 38.910625333333336, "is_disabled": 0, "type": "electric_scooter", "lon": -77.04572783333333, "bike_id": "a772e4119bc931261ac4bc6ae3ccdca6", "fusion_lat": 0.0, "name": "a772e4119bc931261ac4bc6ae3ccdca6", "is_reserved": 0, "rental_uris": {"android": "https://dc.lft.to/lastmile_qr_scan", "ios": "https://dc.lft.to/lastmile_qr_scan"}, "fusion_lon": 0.0}, {"lat": 38.90268016666667, "is_disabled": 0, "type": "electric_scooter", "lon": -77.01752616666667, "bike_id": "17970298319f4ddbea1dea7d922ea9d9", "fusion_lat": 0.0, "name": "17970298319f4ddbea1dea7d922ea9d9", "is_reserved": 0, "rental_uris": {"android": "https://dc.lft.to/lastmile_qr_scan", "ios": "https://dc.lft.to/lastmile_qr_scan"}, "fusion_lon": 0.0}, {"lat": 38.8924975, "is_disabled": 0, "type": "electric_scooter", "lon": -77.02002716666667, "bike_id": "40c6d632548b54a8622dc1c0a1dbe515", "fusion_lat": 0.0, "name": "40c6d632548b54a8622dc1c0a1dbe515", "is_reserved": 0, "rental_uris": {"android": "https://dc.lft.to/lastmile_qr_scan", "ios": "https://dc.lft.to/lastmile_qr_scan"}, "fusion_lon": 0.0}, {"lat": 38.901517166666665, "is_disabled": 0, "type": "electric_scooter", "lon": -77.04187333333333, "bike_id": "6e24f5d3cd1395b694ce2b6ce8f684bd", "fusion_lat": 0.0, "name": "6e24f5d3cd1395b694ce2b6ce8f684bd", "is_reserved": 0, "rental_uris": {"android": "https://dc.lft.to/lastmile_qr_scan", "ios": "https://dc.lft.to/lastmile_qr_scan"}, "fusion_lon": 0.0}, {"lat": 38.90019916666667, "is_disabled": 0, "type": "electric_scooter", "lon": -76.99869316666667, "bike_id": "a9443b54f271a9415462e57b80ad9309", "fusion_lat": 0.0, "name": "a9443b54f271a9415462e57b80ad9309", "is_reserved": 0, "rental_uris": {"android": "https://dc.lft.to/lastmile_qr_scan", "ios": "https://dc.lft.to/lastmile_qr_scan"}, "fusion_lon": 0.0}, {"lat": 38.9264165, "is_disabled": 0, "type": "electric_scooter", "lon": -77.03615, "bike_id": "1bb21831774782078974063203ed0558", "fusion_lat": 0.0, "name": "1bb21831774782078974063203ed0558", "is_reserved": 0, "rental_uris": {"android": "https://dc.lft.to/lastmile_qr_scan", "ios": "https://dc.lft.to/lastmile_qr_scan"}, "fusion_lon": 0.0}, {"lat": 38.896175166666666, "is_disabled": 0, "type": "electric_scooter", "lon": -76.95598566666666, "bike_id": "fed88553ca1e235fa38c7bd8019f470c", "fusion_lat": 0.0, "name": "fed88553ca1e235fa38c7bd8019f470c", "is_reserved": 0, "rental_uris": {"android": "https://dc.lft.to/lastmile_qr_scan", "ios": "https://dc.lft.to/lastmile_qr_scan"}, "fusion_lon": 0.0}, {"lat": 38.91888983333333, "is_disabled": 0, "type": "electric_scooter", "lon": -77.03918316666666, "bike_id": "1d23e1a7f41e551ec118d5ca79b4642b", "fusion_lat": 0.0, "name": "1d23e1a7f41e551ec118d5ca79b4642b", "is_reserved": 0, "rental_uris": {"android": "https://dc.lft.to/lastmile_qr_scan", "ios": "https://dc.lft.to/lastmile_qr_scan"}, "fusion_lon": 0.0}, {"lat": 38.933536833333335, "is_disabled": 0, "type": "electric_scooter", "lon": -77.05699133333333, "bike_id": "247f840181d4a83db70bf609bc88fcb8", "fusion_lat": 0.0, "name": "247f840181d4a83db70bf609bc88fcb8", "is_reserved": 0, "rental_uris": {"android": "https://dc.lft.to/lastmile_qr_scan", "ios": "https://dc.lft.to/lastmile_qr_scan"}, "fusion_lon": 0.0}, {"lat": 38.8866315, "is_disabled": 0, "type": "electric_bike", "lon": -77.16228133333334, "bike_id": "221eaf159b1d529e8c419d8c5f27ee99", "fusion_lat": 0.0, "name": "221eaf159b1d529e8c419d8c5f27ee99", "is_reserved": 0, "rental_uris": {"android": "https://dc.lft.to/lastmile_qr_scan", "ios": "https://dc.lft.to/lastmile_qr_scan"}, "fusion_lon": 0.0}, {"lat": 38.917091166666665, "is_disabled": 0, "type": "electric_scooter", "lon": -77.03860833333333, "bike_id": "e78fede5d7cd3fc0a96d751a483e7a4f", "fusion_lat": 0.0, "name": "e78fede5d7cd3fc0a96d751a483e7a4f", "is_reserved": 0, "rental_uris": {"android": "https://dc.lft.to/lastmile_qr_scan", "ios": "https://dc.lft.to/lastmile_qr_scan"}, "fusion_lon": 0.0}, {"lat": 38.921529166666666, "is_disabled": 0, "type": "electric_scooter", "lon": -77.03506716666666, "bike_id": "fbf2331eba4b24e634dfa5fda42a8f87", "fusion_lat": 0.0, "name": "fbf2331eba4b24e634dfa5fda42a8f87", "is_reserved": 0, "rental_uris": {"android": "https://dc.lft.to/lastmile_qr_scan", "ios": "https://dc.lft.to/lastmile_qr_scan"}, "fusion_lon": 0.0}, {"lat": 38.9198, "is_disabled": 0, "type": "electric_scooter", "lon": -77.0134915, "bike_id": "73e27e2bd0064a1966047e67fd640d1a", "fusion_lat": 0.0, "name": "73e27e2bd0064a1966047e67fd640d1a", "is_reserved": 0, "rental_uris": {"android": "https://dc.lft.to/lastmile_qr_scan", "ios": "https://dc.lft.to/lastmile_qr_scan"}, "fusion_lon": 0.0}, {"lat": 38.91753583333333, "is_disabled": 0, "type": "electric_scooter", "lon": -77.03658033333333, "bike_id": "258de7177f3a17f100ac055aea96967f", "fusion_lat": 0.0, "name": "258de7177f3a17f100ac055aea96967f", "is_reserved": 0, "rental_uris": {"android": "https://dc.lft.to/lastmile_qr_scan", "ios": "https://dc.lft.to/lastmile_qr_scan"}, "fusion_lon": 0.0}, {"lat": 38.903976, "is_disabled": 0, "type": "electric_scooter", "lon": -77.05379533333333, "bike_id": "dee72e0ae0cc878ff98c614f001346d7", "fusion_lat": 0.0, "name": "dee72e0ae0cc878ff98c614f001346d7", "is_reserved": 0, "rental_uris": {"android": "https://dc.lft.to/lastmile_qr_scan", "ios": "https://dc.lft.to/lastmile_qr_scan"}, "fusion_lon": 0.0}, {"lat": 38.917701666666666, "is_disabled": 0, "type": "electric_scooter", "lon": -77.040614, "bike_id": "52bcc7062e17012a182864394eae9c1b", "fusion_lat": 0.0, "name": "52bcc7062e17012a182864394eae9c1b", "is_reserved": 0, "rental_uris": {"android": "https://dc.lft.to/lastmile_qr_scan", "ios": "https://dc.lft.to/lastmile_qr_scan"}, "fusion_lon": 0.0}, {"lat": 38.900624666666666, "is_disabled": 0, "type": "electric_scooter", "lon": -77.02596966666667, "bike_id": "8fb93ee453441f3a94bd11fe4ebc2335", "fusion_lat": 0.0, "name": "8fb93ee453441f3a94bd11fe4ebc2335", "is_reserved": 0, "rental_uris": {"android": "https://dc.lft.to/lastmile_qr_scan", "ios": "https://dc.lft.to/lastmile_qr_scan"}, "fusion_lon": 0.0}, {"lat": 38.91608933333333, "is_disabled": 0, "type": "electric_scooter", "lon": -77.02182016666667, "bike_id": "84fb8d1feac3c4c54dad993c0180d9ad", "fusion_lat": 0.0, "name": "84fb8d1feac3c4c54dad993c0180d9ad", "is_reserved": 0, "rental_uris": {"android": "https://dc.lft.to/lastmile_qr_scan", "ios": "https://dc.lft.to/lastmile_qr_scan"}, "fusion_lon": 0.0}, {"lat": 38.8901, "is_disabled": 0, "type": "electric_scooter", "lon": -76.9374625, "bike_id": "c4f1f2c70e10010a56f39bec311f72a4", "fusion_lat": 0.0, "name": "c4f1f2c70e10010a56f39bec311f72a4", "is_reserved": 0, "rental_uris": {"android": "https://dc.lft.to/lastmile_qr_scan", "ios": "https://dc.lft.to/lastmile_qr_scan"}, "fusion_lon": 0.0}, {"lat": 38.90023083333333, "is_disabled": 0, "type": "electric_scooter", "lon": -77.044772, "bike_id": "0b32e94843ae4af849bdbe2b87b2ce85", "fusion_lat": 0.0, "name": "0b32e94843ae4af849bdbe2b87b2ce85", "is_reserved": 0, "rental_uris": {"android": "https://dc.lft.to/lastmile_qr_scan", "ios": "https://dc.lft.to/lastmile_qr_scan"}, "fusion_lon": 0.0},