{"data": {"bikes": [{"fusion_lat": 0.0, "fusion_lon": 0.0, "lat": 38.919946333333336, "type": "electric_scooter", "rental_uris": {"android": "https://dc.lft.to/lastmile_qr_scan", "ios": "https://dc.lft.to/lastmile_qr_scan"}, "is_reserved": 0, "lon": -77.037913, "name": "91fc6bcc96f2aaeed8344c332b22456e", "bike_id": "91fc6bcc96f2aaeed8344c332b22456e", "is_disabled": 0}, {"fusion_lat": 0.0, "fusion_lon": 0.0, "lat": 38.914900333333335, "type": "electric_scooter", "rental_uris": {"android": "https://dc.lft.to/lastmile_qr_scan", "ios": "https://dc.lft.to/lastmile_qr_scan"}, "is_reserved": 0, "lon": -77.02582216666667, "name": "272de083c4cc07f0f7a4acaa6ff64214", "bike_id": "272de083c4cc07f0f7a4acaa6ff64214", "is_disabled": 0}, {"fusion_lat": 0.0, "fusion_lon": 0.0, "lat": 38.916956, "type": "electric_scooter", "rental_uris": {"android": "https://dc.lft.to/lastmile_qr_scan", "ios": "https://dc.lft.to/lastmile_qr_scan"}, "is_reserved": 0, "lon": -77.0349155, "name": "2df52bc98535317bccf0b3d6f5e64945", "bike_id": "2df52bc98535317bccf0b3d6f5e64945", "is_disabled": 0}, {"fusion_lat": 0.0, "fusion_lon": 0.0, "lat": 38.91622383333333, "type": "electric_scooter", "rental_uris": {"android": "https://dc.lft.to/lastmile_qr_scan", "ios": "https://dc.lft.to/lastmile_qr_scan"}, "is_reserved": 0, "lon": -77.04172283333334, "name": "83f2d33c673f4f354362f18b2b5f7aab", "bike_id": "83f2d33c673f4f354362f18b2b5f7aab", "is_disabled": 0}, {"fusion_lat": 0.0, "fusion_lon": 0.0, "lat": 38.914185833333335, "type": "electric_scooter", "rental_uris": {"android": "https://dc.lft.to/lastmile_qr_scan", "ios": "https://dc.lft.to/lastmile_qr_scan"}, "is_reserved": 0, "lon": -77.0280965, "name": "bb3b0dac6d2238423e9ccfb3eef45f8c", "bike_id": "bb3b0dac6d2238423e9ccfb3eef45f8c", "is_disabled": 0}, {"fusion_lat": 0.0, "fusion_lon": 0.0, "lat": 38.8960665, "type": "electric_scooter", "rental_uris": {"android": "https://dc.lft.to/lastmile_qr_scan", "ios": "https://dc.lft.to/lastmile_qr_scan"}, "is_reserved": 0, "lon": -77.04442966666667, "name": "7c52fb2a1c4f2c70ffe7980f1d3376a2", "bike_id": "7c52fb2a1c4f2c70ffe7980f1d3376a2", "is_disabled": 0}, {"fusion_lat": 0.0, "fusion_lon": 0.0, "lat": 39.024352666666665, "type": "electric_bike", "rental_uris": {"android": "https://dc.lft.to/lastmile_qr_scan", "ios": "https://dc.lft.to/lastmile_qr_scan"}, "is_reserved": 0, "lon": -77.13097383333333, "name": "e7fbe144ccbdbf093977050ad491658c", "bike_id": "e7fbe144ccbdbf093977050ad491658c", "is_disabled": 0}, {"fusion_lat": 0.0, "fusion_lon": 0.0, "lat": 38.9315195, "type": "electric_scooter", "rental_uris": {"android": "https://dc.lft.to/lastmile_qr_scan", "ios": "https://dc.lft.to/lastmile_qr_scan"}, "is_reserved": 0, "lon": -77.038336, "name": "d1006692dee7077d4ca56a7d80c01458", "bike_id": "d1006692dee7077d4ca56a7d80c01458", "is_disabled": 0}, {"fusion_lat": 0.0, "fusion_lon": 0.0, "lat": 38.899914833333334, "type": "electric_scooter", "rental_uris": {"android": "https://dc.lft.to/lastmile_qr_scan", "ios": "https://dc.lft.to/lastmile_qr_scan"}, "is_reserved": 0, "lon": -77.04573866666667, "name": "eb6d45e5cd764928c9e486a400ad5690", "bike_id": "eb6d45e5cd764928c9e486a400ad5690", "is_disabled": 0}, {"fusion_lat": 0.0, "fusion_lon": 0.0, "lat": 38.923764166666665, "type": "electric_scooter", "rental_uris": {"android": "https://dc.lft.to/lastmile_qr_scan", "ios": "https://dc.lft.to/lastmile_qr_scan"}, "is_reserved": 0, "lon": -77.051493, "name": "db731b85e1a91c596c80fbc75ac46ed3", "bike_id": "db731b85e1a91c596c80fbc75ac46ed3", "is_disabled": 0}, {"fusion_lat": 0.0, "fusion_lon": 0.0, "lat": 38.92156683333333, "type": "electric_scooter", "rental_uris": {"android": "https://dc.lft.to/lastmile_qr_scan", "ios": "https://dc.lft.to/lastmile_qr_scan"}, "is_reserved": 0, "lon": -77.03384533333333, "name": "17b7fed7fa1eea6afe0f1529e106cdab", "bike_id": "17b7fed7fa1eea6afe0f1529e106cdab", "is_disabled": 0}, {"fusion_lat": 0.0, "fusion_lon": 0.0, "lat": 38.884712666666665, "type": "electric_bike", "rental_uris": {"android": "https://dc.lft.to/lastmile_qr_scan", "ios": "https://dc.lft.to/lastmile_qr_scan"}, "is_reserved": 0, "lon": -76.95659933333333, "name": "6801735214493a5729181b1d5cf3b0b8", "bike_id": "6801735214493a5729181b1d5cf3b0b8", "is_disabled": 0}, {"fusion_lat": 0.0, "fusion_lon": 0.0, "lat": 38.9104615, "type": "electric_scooter", "rental_uris": {"android": "https://dc.lft.to/lastmile_qr_scan", "ios": "https://dc.lft.to/lastmile_qr_scan"}, "is_reserved": 0, "lon": -77.04346166666667, "name": "35970557c74010632fce8e1c41d1dd4e", "bike_id": "35970557c74010632fce8e1c41d1dd4e", "is_disabled": 0}, {"fusion_lat": 0.0, "fusion_lon": 0.0, "lat": 39.03428183333333, "type": "electric_bike", "rental_uris": {"android": "https://dc.lft.to/lastmile_qr_scan", "ios": "https://dc.lft.to/lastmile_qr_scan"}, "is_reserved": 0, "lon": -77.04290733333333, "name": "028c4cb2f8083ce2cc9b624bf836ee06", "bike_id": "028c4cb2f8083ce2cc9b624bf836ee06", "is_disabled": 0}, {"fusion_lat": 0.0, "fusion_lon": 0.0, "lat": 38.877579, "type": "electric_scooter", "rental_uris": {"android": "https://dc.lft.to/lastmile_qr_scan", "ios": "https://dc.lft.to/lastmile_qr_scan"}, "is_reserved": 0, "lon": -76.98679466666667, "name": "f56cc998598d28ce58ce351745ba8588", "bike_id": "f56cc998598d28ce58ce351745ba8588", "is_disabled": 0}, {"fusion_lat": 0.0, "fusion_lon": 0.0, "lat": 38.916971, "type": "electric_scooter", "rental_uris": {"android": "https://dc.lft.to/lastmile_qr_scan", "ios": "https://dc.lft.to/lastmile_qr_scan"}, "is_reserved": 0, "lon": -77.04109066666666, "name": "afcd33a845abd4611d86d99e71315474", "bike_id": "afcd33a845abd4611d86d99e71315474", "is_disabled": 0}, {"fusion_lat": 0.0, "fusion_lon": 0.0, "lat": 38.902173, "type": "electric_scooter", "rental_uris": {"android": "https://dc.lft.to/lastmile_qr_scan", "ios": "https://dc.lft.to/lastmile_qr_scan"}, "is_reserved": 0, "lon": -77.03772266666667, "name": "83b4f97b1700d27671bb8496dfd75d7f", "bike_id": "83b4f97b1700d27671bb8496dfd75d7f", "is_disabled": 0}, {"fusion_lat": 0.0, "fusion_lon": 0.0, "lat": 38.8768645, "type": "electric_scooter", "rental_uris": {"android": "https://dc.lft.to/lastmile_qr_scan", "ios": "https://dc.lft.to/lastmile_qr_scan"}, "is_reserved": 0, "lon": -77.0006475, "name": "2c555f8ff9b00446583d1ecc044d6008", "bike_id": "2c555f8ff9b00446583d1ecc044d6008", "is_disabled": 0}, {"fusion_lat": 0.0, "fusion_lon": 0.0, "lat": 38.9286275, "type": "electric_scooter", "rental_uris": {"android": "https://dc.lft.to/lastmile_qr_scan", "ios": "https://dc.lft.to/lastmile_qr_scan"}, "is_reserved": 0, "lon": -77.02768516666667, "name": "c76ad1856e8fee8d70d79f3203dc7cef", "bike_id": "c76ad1856e8fee8d70d79f3203dc7cef", "is_disabled": 0}, {"fusion_lat": 0.0, "fusion_lon": 0.0, "lat": 38.905067833333334, "type": "electric_scooter", "rental_uris": {"android": "https://dc.lft.to/lastmile_qr_scan", "ios": "https://dc.lft.to/lastmile_qr_scan"}, "is_reserved": 0, "lon": -77.04339716666667, "name": "35e5845b63fbd74d2a3189eff042d2e8", "bike_id": "35e5845b63fbd74d2a3189eff042d2e8", "is_disabled": 0}, {"fusion_lat": 0.0, "fusion_lon": 0.0, "lat": 38.92739233333333, "type": "electric_scooter", "rental_uris": {"android": "https://dc.lft.to/lastmile_qr_scan", "ios": "https://dc.lft.to/lastmile_qr_scan"}, "is_reserved": 0, "lon": -77.022946, "name": "694b74d696db927f6aacdf6635df1dcc", "bike_id": "694b74d696db927f6aacdf6635df1dcc", "is_disabled": 0}, {"fusion_lat": 0.0, "fusion_lon": 0.0, "lat": 38.923150666666665, "type": "electric_scooter", "rental_uris": {"android": "https://dc.lft.to/lastmile_qr_scan", "ios": "https://dc.lft.to/lastmile_qr_scan"}, "is_reserved": 0, "lon": -77.0461795, "name": "dcc73585311e5cf353fe95f7c25eb877", "bike_id": "dcc73585311e5cf353fe95f7c25eb877", "is_disabled": 0}, {"fusion_lat": 0.0, "fusion_lon": 0.0, "lat": 38.891672666666665, "type": "electric_scooter", "rental_uris": {"android": "https://dc.lft.to/lastmile_qr_scan", "ios": "https://dc.lft.to/lastmile_qr_scan"}, "is_reserved": 0, "lon": -76.99939516666667, "name": "48a7603dde9e91dc0ee6b2e635b04413", "bike_id": "48a7603dde9e91dc0ee6b2e635b04413", "is_disabled": 0}, {"fusion_lat": 0.0, "fusion_lon": 0.0, "lat": 38.90570433333333, "type": "electric_scooter", "rental_uris": {"android": "https://dc.lft.to/lastmile_qr_scan", "ios": "https://dc.lft.to/lastmile_qr_scan"}, "is_reserved": 0, "lon": -76.97782216666667, "name": "50c1aac8cbb93262d0c4c115da265420", "bike_id": "50c1aac8cbb93262d0c4c115da265420", "is_disabled": 0}, {"fusion_lat": 0.0, "fusion_lon": 0.0, "lat": 38.8324485, "type": "electric_bike", "rental_uris": {"android": "https://dc.lft.to/lastmile_qr_scan", "ios": "https://dc.lft.to/lastmile_qr_scan"}, "is_reserved": 0, "lon": -76.94628966666667, "name": "4bc6b79be9cff077e3ca00e8233341ab", "bike_id": "4bc6b79be9cff077e3ca00e8233341ab", "is_disabled": 0}, {"fusion_lat": 0.0, "fusion_lon": 0.0, "lat": 38.91559133333333, "type": "electric_scooter", "rental_uris": {"android": "https://dc.lft.to/lastmile_qr_scan", "ios": "https://dc.lft.to/lastmile_qr_scan"}, "is_reserved": 0, "lon": -77.02399833333334, "name": "41879360c81a3767cf7367f15e9b8149", "bike_id": "41879360c81a3767cf7367f15e9b8149", "is_disabled": 0}, {"fusion_lat": 0.0, "fusion_lon": 0.0, "lat": 38.867018333333334, "type": "electric_scooter", "rental_uris": {"android": "https://dc.lft.to/lastmile_qr_scan", "ios": "https://dc.lft.to/lastmile_qr_scan"}, "is_reserved": 0, "lon": -76.98704466666666, "name": "7de4857b282028e30655c6c0837b5321", "bike_id": "7de4857b282028e30655c6c0837b5321", "is_disabled": 0}, {"fusion_lat": 0.0, "fusion_lon": 0.0, "lat": 38.898677666666664, "type": "electric_scooter", "rental_uris": {"android": "https://dc.lft.to/lastmile_qr_scan", "ios": "https://dc.lft.to/lastmile_qr_scan"}, "is_reserved": 0, "lon": -76.94637466666667, "name": "3b83daf88841e76fdc6b64d7433b9803", "bike_id": "3b83daf88841e76fdc6b64d7433b9803", "is_disabled": 0}, {"fusion_lat": 0.0, "fusion_lon": 0.0, "lat": 38.903685, "type": "electric_scooter", "rental_uris": {"android": "https://dc.lft.to/lastmile_qr_scan", "ios": "https://dc.lft.to/lastmile_qr_scan"}, "is_reserved": 0, "lon": -77.04505833333333, "name": "0c752d6ca17eee67c9a85f703040143c", "bike_id": "0c752d6ca17eee67c9a85f703040143c", "is_disabled": 0}, {"fusion_lat": 0.0, "fusion_lon": 0.0, "lat": 38.923639, "type": "electric_scooter", "rental_uris": {"android": "https://dc.lft.to/lastmile_qr_scan", "ios": "https://dc.lft.to/lastmile_qr_scan"}, "is_reserved": 0, "lon": -77.051301, "name": "ee403e75ce685c5fecdaf83fa7060111", "bike_id": "ee403e75ce685c5fecdaf83fa7060111", "is_disabled": 0}, {"fusion_lat": 0.0, "fusion_lon": 0.0, "lat": 38.902619333333334, "type": "electric_scooter", "rental_uris": {"android": "https://dc.lft.to/lastmile_qr_scan", "ios": "https://dc.lft.to/lastmile_qr_scan"}, "is_reserved": 0, "lon": -77.03065283333333, "name": "f00ce48719252c9037ef09baf8274705", "bike_id": "f00ce48719252c9037ef09baf8274705", "is_disabled": 0}, {"fusion_lat": 0.0, "fusion_lon": 0.0, "lat": 38.978607, "type": "electric_bike", "rental_uris": {"android": "https://dc.lft.to/lastmile_qr_scan", "ios": "https://dc.lft.to/lastmile_qr_scan"}, "is_reserved": 0, "lon": -76.94042966666666, "name": "ce97ffeb67fdee3670d0e7461527562f", "bike_id": "ce97ffeb67fdee3670d0e7461527562f", "is_disabled": 0}, {"fusion_lat": 0.0, "fusion_lon": 0.0, "lat": 38.917420666666665, "type": "electric_scooter", "rental_uris": {"android": "https://dc.lft.to/lastmile_qr_scan", "ios": "https://dc.lft.to/lastmile_qr_scan"}, "is_reserved": 0, "lon": -77.03450316666667, "name": "7f13808e5e2f90a5e51e54881308aaf7", "bike_id": "7f13808e5e2f90a5e51e54881308aaf7", "is_disabled": 0}, {"fusion_lat": 0.0, "fusion_lon": 0.0, "lat": 38.895898, "type": "electric_scooter", "rental_uris": {"android": "https://dc.lft.to/lastmile_qr_scan", "ios": "https://dc.lft.to/lastmile_qr_scan"}, "is_reserved": 0, "lon": -77.03959133333333, "name": "bb058693366e2fff6319c6a9e333dd65", "bike_id": "bb058693366e2fff6319c6a9e333dd65", "is_disabled": 0}, {"fusion_lat": 0.0, "fusion_lon": 0.0, "lat": 38.901038666666665, "type": "electric_scooter", "rental_uris": {"android": "https://dc.lft.to/lastmile_qr_scan", "ios": "https://dc.lft.to/lastmile_qr_scan"}, "is_reserved": 0, "lon": -77.027181, "name": "b208dd0275fd62ed5dc5c77b4d16e1d1", "bike_id": "b208dd0275fd62ed5dc5c77b4d16e1d1", "is_disabled": 0}, {"fusion_lat": 0.0, "fusion_lon": 0.0, "lat": 38.933862, "type": "electric_bike", "rental_uris": {"android": "https://dc.lft.to/lastmile_qr_scan", "ios": "https://dc.lft.to/lastmile_qr_scan"}, "is_reserved": 0, "lon": -76.99509216666667, "name": "54a2223b4364fb70ac159f9c8f88f0a2", "bike_id": "54a2223b4364fb70ac159f9c8f88f0a2", "is_disabled": 0}, {"fusion_lat": 0.0, "fusion_lon": 0.0, "lat": 38.9069635, "type": "electric_scooter", "rental_uris": {"android": "https://dc.lft.to/lastmile_qr_scan", "ios": "https://dc.lft.to/lastmile_qr_scan"}, "is_reserved": 0, "lon": -77.035847, "name": "dd0b672a904c888abbf23102d058f309", "bike_id": "dd0b672a904c888abbf23102d058f309", "is_disabled": 0}, {"fusion_lat": 0.0, "fusion_lon": 0.0, "lat": 38.93579783333333, "type": "electric_scooter", "rental_uris": {"android": "https://dc.lft.to/lastmile_qr_scan", "ios": "https://dc.lft.to/lastmile_qr_scan"}, "is_reserved": 0, "lon": -77.01973133333334, "name": "ac2ddffe5210d16238b22be37d28c939", "bike_id": "ac2ddffe5210d16238b22be37d28c939", "is_disabled": 0}, {"fusion_lat": 0.0, "fusion_lon": 0.0, "lat": 38.88119583333334, "type": "electric_scooter", "rental_uris": {"android": "https://dc.lft.to/lastmile_qr_scan", "ios": "https://dc.lft.to/lastmile_qr_scan"}, "is_reserved": 0, "lon": -77.023882, "name": "2f31bb6e820f305119112e33745aa55b", "bike_id": "2f31bb6e820f305119112e33745aa55b", "is_disabled": 0}, {"fusion_lat": 0.0, "fusion_lon": 0.0, "lat": 38.91342366666667, "type": "electric_scooter", "rental_uris": {"android": "https://dc.lft.to/lastmile_qr_scan", "ios": "https://dc.lft.to/lastmile_qr_scan"}, "is_reserved": 0, "lon": -77.0422915, "name": "36af3183a696e05ef7fbb2d43d4c7c8b", "bike_id": "36af3183a696e05ef7fbb2d43d4c7c8b", "is_disabled": 0}, {"fusion_lat": 0.0, "fusion_lon": 0.0, "lat": 38.90074166666667, "type": "electric_scooter", "rental_uris": {"android": "https://dc.lft.to/lastmile_qr_scan", "ios": "https://dc.lft.to/lastmile_qr_scan"}, "is_reserved": 0, "lon": -77.04685016666667, "name": "624ff417b4b5e50bdbe4384df1b812d8", "bike_id": "624ff417b4b5e50bdbe4384df1b812d8", "is_disabled": 0}, {"fusion_lat": 0.0, "fusion_lon": 0.0, "lat": 38.892243, "type": "electric_scooter", "rental_uris": {"android": "https://dc.lft.to/lastmile_qr_scan", "ios": "https://dc.lft.to/lastmile_qr_scan"}, "is_reserved": 0, "lon": -77.0464985, "name": "cacb30dda9adcd5b00ef5ad76b5189d5", "bike_id": "cacb30dda9adcd5b00ef5ad76b5189d5", "is_disabled": 0}, {"fusion_lat": 0.0, "fusion_lon": 0.0, "lat": 38.908956833333335, "type": "electric_scooter", "rental_uris": {"android": "https://dc.lft.to/lastmile_qr_scan", "ios": "https://dc.lft.to/lastmile_qr_scan"}, "is_reserved": 0, "lon": -77.02310383333334, "name": "fd61c62d7061fa2360a21deea63c9971", "bike_id": "fd61c62d7061fa2360a21deea63c9971", "is_disabled": 0}, {"fusion_lat": 0.0, "fusion_lon": 0.0, "lat": 38.896123, "type": "electric_bike", "rental_uris": {"android": "https://dc.lft.to/lastmile_qr_scan", "ios": "https://dc.lft.to/lastmile_qr_scan"}, "is_reserved": 0, "lon": -76.907326, "name": "d0c56790c933de9ed709368086b447cb", "bike_id": "d0c56790c933de9ed709368086b447cb", "is_disabled": 0}, {"fusion_lat": 0.0, "fusion_lon": 0.0, "lat": 38.8973875, "type": "electric_scooter", "rental_uris": {"android": "https://dc.lft.to/lastmile_qr_scan", "ios": "https://dc.lft.to/lastmile_qr_scan"}, "is_reserved": 0, "lon": -77.03177716666667, "name": "42180524bc3526629963184f916051b0", "bike_id": "42180524bc3526629963184f916051b0", "is_disabled": 0}, {"fusion_lat": 0.0, "fusion_lon": 0.0, "lat": 38.914139166666665, "type": "electric_scooter", "rental_uris": {"android": "https://dc.lft.to/lastmile_qr_scan", "ios": "https://dc.lft.to/lastmile_qr_scan"}, "is_reserved": 0, "lon": -77.02585016666667, "name": "2893b28ff6342176b7f1fd6208012998", "bike_id": "2893b28ff6342176b7f1fd6208012998", "is_disabled": 0}, {"fusion_lat": 0.0, "fusion_lon": 0.0, "lat": 38.893663833333335, "type": "electric_scooter", "rental_uris": {"android": "https://dc.lft.to/lastmile_qr_scan", "ios": "https://dc.lft.to/lastmile_qr_scan"}, "is_reserved": 0, "lon": -76.947006, "name": "5ba1ade4d7739169bd308e9275dbc705", "bike_id": "5ba1ade4d7739169bd308e9275dbc705", "is_disabled": 0}, {"fusion_lat": 0.0, "fusion_lon": 0.0, "lat": 38.9057045, "type": "electric_scooter", "rental_uris": {"android": "https://dc.lft.to/lastmile_qr_scan", "ios": "https://dc.lft.to/lastmile_qr_scan"}, "is_reserved": 0, "lon": -77.0486655, "name": "ba99bb52db69d4a54773bad9612eee30", "bike_id": "ba99bb52db69d4a54773bad9612eee30", "is_disabled": 0}, {"fusion_lat": 0.0, "fusion_lon": 0.0, "lat": 38.934896333333334, "type": "electric_scooter", "rental_uris": {"android": "https://dc.lft.to/lastmile_qr_scan", "ios": "https://dc.lft.to/lastmile_qr_scan"}, "is_reserved": 0, "lon": -77.02604883333333, "name": "e96136f5ef7b0011582b902961f4934a", "bike_id": "e96136f5ef7b0011582b902961f4934a", "is_disabled": 0}, {"fusion_lat": 0.0, "fusion_lon": 0.0, "lat": 38.904703833333336, "type": "electric_scooter", "rental_uris": {"android": "https://dc.lft.to/lastmile_qr_scan", "ios": "https://dc.lft.to/lastmile_qr_scan"}, "is_reserved": 0, "lon": -77.03566333333333, "name": "f8980d976f67a3e1b7182e5a4bbae6f4", "bike_id": "f8980d976f67a3e1b7182e5a4bbae6f4", "is_disabled": 0}, {"fusion_lat": 0.0, "fusion_lon": 0.0, "lat": 38.92320816666667, "type": "electric_scooter", "rental_uris": {"android": "https://dc.lft.to/lastmile_qr_scan", "ios": "https://dc.lft.to/lastmile_qr_scan"}, "is_reserved": 0, "lon": -77.04344166666667, "name": "63e30502cdd1eba7612c7c0488bee531", "bike_id": "63e30502cdd1eba7612c7c0488bee531", "is_disabled": 0}, {"fusion_lat": 0.0, "fusion_lon": 0.0, "lat": 38.87579366666667, "type": "electric_bike", "rental_uris": {"android": "https://dc.lft.to/lastmile_qr_scan", "ios": "https://dc.lft.to/lastmile_qr_scan"}, "is_reserved": 0, "lon": -77.23409483333333, "name": "3c5c5aceda9b3c32be25347f7010d039", "bike_id": "3c5c5aceda9b3c32be25347f7010d039", "is_disabled": 0}, {"fusion_lat": 0.0, "fusion_lon": 0.0, "lat": 38.865306333333336, "type": "electric_scooter", "rental_uris": {"android": "https://dc.lft.to/lastmile_qr_scan", "ios": "https://dc.lft.to/lastmile_qr_scan"}, "is_reserved": 0, "lon": -76.98967633333334, "name": "663a163d57ca05b38f720b054fac4db2", "bike_id": "663a163d57ca05b38f720b054fac4db2", "is_disabled": 0}, {"fusion_lat": 0.0, "fusion_lon": 0.0, "lat": 38.944131, "type": "electric_scooter", "rental_uris": {"android": "https://dc.lft.to/lastmile_qr_scan", "ios": "https://dc.lft.to/lastmile_qr_scan"}, "is_reserved": 0, "lon": -77.02615566666667, "name": "cc58ee713c57ad0dc44e0e24ac5ba267", "bike_id": "cc58ee713c57ad0dc44e0e24ac5ba267", "is_disabled": 0}, {"fusion_lat": 0.0, "fusion_lon": 0.0, "lat": 38.874990333333336, "type": "electric_scooter", "rental_uris": {"android": "https://dc.lft.to/lastmile_qr_scan", "ios": "https://dc.lft.to/lastmile_qr_scan"}, "is_reserved": 0, "lon": -77.001364, "name": "69fee6ad2b60837f29af1b80bb2e0743", "bike_id": "69fee6ad2b60837f29af1b80bb2e0743", "is_disabled": 0}, {"fusion_lat": 0.0, "fusion_lon": 0.0, "lat": 38.92368316666666, "type": "electric_scooter", "rental_uris": {"android": "https://dc.lft.to/lastmile_qr_scan", "ios": "https://dc.lft.to/lastmile_qr_scan"}, "is_reserved": 0, "lon": -77.04118866666667, "name": "291e8785e19c62b6e52bf3ff1e3f46d8", "bike_id": "291e8785e19c62b6e52bf3ff1e3f46d8", "is_disabled": 0}, {"fusion_lat": 0.0, "fusion_lon": 0.0, "lat": 38.905410833333335, "type": "electric_scooter", "rental_uris": {"android": "https://dc.lft.to/lastmile_qr_scan", "ios": "https://dc.lft.to/lastmile_qr_scan"}, "is_reserved": 0, "lon": -77.05058833333334, "name": "5f79a9c9be7dc200c7342e88fcc89cb0", "bike_id": "5f79a9c9be7dc200c7342e88fcc89cb0", "is_disabled": 0}, {"fusion_lat": 0.0, "fusion_lon": 0.0, "lat": 38.90001216666667, "type": "electric_scooter", "rental_uris": {"android": "https://dc.lft.to/lastmile_qr_scan", "ios": "https://dc.lft.to/lastmile_qr_scan"}, "is_reserved": 0, "lon": -77.02462433333334, "name": "6617bb255e491f3dcc50ea1ddc857515", "bike_id": "6617bb255e491f3dcc50ea1ddc857515", "is_disabled": 0}, {"fusion_lat": 0.0, "fusion_lon": 0.0, "lat": 38.90395483333333, "type": "electric_scooter", "rental_uris": {"android": "https://dc.lft.to/lastmile_qr_scan", "ios": "https://dc.lft.to/lastmile_qr_scan"}, "is_reserved": 0, "lon": -77.03857083333334, "name": "690e58702a5e185ec0c017c81d1ea826", "bike_id": "690e58702a5e185ec0c017c81d1ea826", "is_disabled": 0}, {"fusion_lat": 0.0, "fusion_lon": 0.0, "lat": 38.925124833333335, "type": "electric_scooter", "rental_uris": {"android": "https://dc.lft.to/lastmile_qr_scan", "ios": "https://dc.lft.to/lastmile_qr_scan"}, "is_reserved": 0, "lon": -77.052239, "name": "34bc07d03ed52f92bab79242d82ad1a8", "bike_id": "34bc07d03ed52f92bab79242d82ad1a8", "is_disabled": 0}, {"fusion_lat": 0.0, "fusion_lon": 0.0, "lat": 38.90157766666667, "type": "electric_scooter", "rental_uris": {"android": "https://dc.lft.to/lastmile_qr_scan", "ios": "https://dc.lft.to/lastmile_qr_scan"}, "is_reserved": 0, "lon": -77.03364183333333, "name": "d49f5ed278b9ec55c739f8e01a0a66a2", "bike_id": "d49f5ed278b9ec55c739f8e01a0a66a2", "is_disabled": 0}, {"fusion_lat": 0.0, "fusion_lon": 0.0, "lat": 38.88537383333333, "type": "electric_scooter", "rental_uris": {"android": "https://dc.lft.to/lastmile_qr_scan", "ios": "https://dc.lft.to/lastmile_qr_scan"}, "is_reserved": 0, "lon": -76.98269083333334, "name": "45f8fc840415468189a338638187e7d6", "bike_id": "45f8fc840415468189a338638187e7d6", "is_disabled": 0}, {"fusion_lat": 0.0, "fusion_lon": 0.0, "lat": 38.916163, "type": "electric_scooter", "rental_uris": {"android": "https://dc.lft.to/lastmile_qr_scan", "ios": "https://dc.lft.to/lastmile_qr_scan"}, "is_reserved": 0, "lon": -77.03088683333333, "name": "56df3ecac9176a492832fd34f64ea258", "bike_id": "56df3ecac9176a492832fd34f64ea258", "is_disabled": 0}, {"fusion_lat": 0.0, "fusion_lon": 0.0, "lat": 38.9024205, "type": "electric_scooter", "rental_uris": {"android": "https://dc.lft.to/lastmile_qr_scan", "ios": "https://dc.lft.to/lastmile_qr_scan"}, "is_reserved": 0, "lon": -77.0302555, "name": "d4863fa90c0d066bd2d76093d5fdbd0f", "bike_id": "d4863fa90c0d066bd2d76093d5fdbd0f", "is_disabled": 0}, {"fusion_lat": 0.0, "fusion_lon": 0.0, "lat": 38.9226435, "type": "electric_scooter", "rental_uris": {"android": "https://dc.lft.to/lastmile_qr_scan", "ios": "https://dc.lft.to/lastmile_qr_scan"}, "is_reserved": 0, "lon": -77.036651, "name": "6c7b38d3889e075cc29ce0ab6cf5a055", "bike_id": "6c7b38d3889e075cc29ce0ab6cf5a055", "is_disabled": 0}, {"fusion_lat": 0.0, "fusion_lon": 0.0, "lat": 38.90809433333333, "type": "electric_scooter", "rental_uris": {"android": "https://dc.lft.to/lastmile_qr_scan", "ios": "https://dc.lft.to/lastmile_qr_scan"}, "is_reserved": 0, "lon": -77.03862083333334, "name": "674cf18ab673a566298ff63ff8b33e38", "bike_id": "674cf18ab673a566298ff63ff8b33e38", "is_disabled": 0}, {"fusion_lat": 0.0, "fusion_lon": 0.0, "lat": 38.862223666666665, "type": "electric_scooter", "rental_uris": {"android": "https://dc.lft.to/lastmile_qr_scan", "ios": "https://dc.lft.to/lastmile_qr_scan"}, "is_reserved": 0, "lon": -76.994567, "name": "a81e9f7718b68fe704713972b956c2fe", "bike_id": "a81e9f7718b68fe704713972b956c2fe", "is_disabled": 0}, {"fusion_lat": 0.0, "fusion_lon": 0.0, "lat": 38.91673883333333, "type": "electric_scooter", "rental_uris": {"android": "https://dc.lft.to/lastmile_qr_scan", "ios": "https://dc.lft.to/lastmile_qr_scan"}, "is_reserved": 0, "lon": -77.02385816666667, "name": "9b236b1967ebdda8002735c0cce9d6ee", "bike_id": "9b236b1967ebdda8002735c0cce9d6ee", "is_disabled": 0}, {"fusion_lat": 0.0, "fusion_lon": 0.0, "lat": 38.902776, "type": "electric_scooter", "rental_uris": {"android": "https://dc.lft.to/lastmile_qr_scan", "ios": "https://dc.lft.to/lastmile_qr_scan"}, "is_reserved": 0, "lon": -77.01736766666667, "name": "5b8ac2039a0e16c816e4a4475f0af910", "bike_id": "5b8ac2039a0e16c816e4a4475f0af910", "is_disabled": 0}, {"fusion_lat": 0.0, "fusion_lon": 0.0, "lat": 38.9223795, "type": "electric_scooter", "rental_uris": {"android": "https://dc.lft.to/lastmile_qr_scan", "ios": "https://dc.lft.to/lastmile_qr_scan"}, "is_reserved": 0, "lon": -77.01817133333333, "name": "7243aad0fb6cb6ec3a3321c01df7491b", "bike_id": "7243aad0fb6cb6ec3a3321c01df7491b", "is_disabled": 0}, {"fusion_lat": 0.0, "fusion_lon": 0.0, "lat": 38.9037895, "type": "electric_scooter", "rental_uris": {"android": "https://dc.lft.to/lastmile_qr_scan", "ios": "https://dc.lft.to/lastmile_qr_scan"}, "is_reserved": 0, "lon": -77.02208433333334, "name": "a21ed9254341718c3edb67472d5ed6d8", "bike_id": "a21ed9254341718c3edb67472d5ed6d8", "is_disabled": 0}, {"fusion_lat": 0.0, "fusion_lon": 0.0, "lat": 38.933584, "type": "electric_scooter", "rental_uris": {"android": "https://dc.lft.to/lastmile_qr_scan", "ios": "https://dc.lft.to/lastmile_qr_scan"}, "is_reserved": 0, "lon": -77.04123816666667, "name": "d894743e1e4d8e9a52eeec2e7be8a843", "bike_id": "d894743e1e4d8e9a52eeec2e7be8a843", "is_disabled": 0}, {"fusion_lat": 0.0, "fusion_lon": 0.0, "lat": 38.90233116666667, "type": "electric_scooter", "rental_uris": {"android": "https://dc.lft.to/lastmile_qr_scan", "ios": "https://dc.lft.to/lastmile_qr_scan"}, "is_reserved": 0, "lon": -77.02931783333334, "name": "9538f5c4bce801fdf494a25e528602b3", "bike_id": "9538f5c4bce801fdf494a25e528602b3", "is_disabled": 0}, {"fusion_lat": 0.0, "fusion_lon": 0.0, "lat": 38.866930333333336, "type": "electric_scooter", "rental_uris": {"android": "https://dc.lft.to/lastmile_qr_scan", "ios": "https://dc.lft.to/lastmile_qr_scan"}, "is_reserved": 0, "lon": -76.98540283333334, "name": "eb5ba6ebf3ec114fa41c120fe55a6d37", "bike_id": "eb5ba6ebf3ec114fa41c120fe55a6d37", "is_disabled": 0}, {"fusion_lat": 0.0, "fusion_lon": 0.0, "lat": 38.908289, "type": "electric_scooter", "rental_uris": {"android": "https://dc.lft.to/lastmile_qr_scan", "ios": "https://dc.lft.to/lastmile_qr_scan"}, "is_reserved": 0, "lon": -77.021905, "name": "bf08728d9365c428b96560b610a78b47", "bike_id": "bf08728d9365c428b96560b610a78b47", "is_disabled": 0}, {"fusion_lat": 0.0, "fusion_lon": 0.0, "lat": 38.91458933333333, "type": "electric_scooter", "rental_uris": {"android": "https://dc.lft.to/lastmile_qr_scan", "ios": "https://dc.lft.to/lastmile_qr_scan"}, "is_reserved": 0, "lon": -77.02171183333333, "name": "5c7fc6a0f24c760323e12c95efacb328", "bike_id": "5c7fc6a0f24c760323e12c95efacb328", "is_disabled": 0}, {"fusion_lat": 0.0, "fusion_lon": 0.0, "lat": 38.815128666666666, "type": "electric_bike", "rental_uris": {"android": "https://dc.lft.to/lastmile_qr_scan", "ios": "https://dc.lft.to/lastmile_qr_scan"}, "is_reserved": 0, "lon": -77.12659783333334, "name": "f02f28fe3a9fafd7e1b3f77ee4915453", "bike_id": "f02f28fe3a9fafd7e1b3f77ee4915453", "is_disabled": 0}, {"fusion_lat": 0.0, "fusion_lon": 0.0, "lat": 38.873797, "type": "electric_scooter", "rental_uris": {"android": "https://dc.lft.to/lastmile_qr_scan", "ios": "https://dc.lft.to/lastmile_qr_scan"}, "is_reserved": 0, "lon": -77.0016085, "name": "eeea01eed16a81eba8794247f0afd68f", "bike_id": "eeea01eed16a81eba8794247f0afd68f", "is_disabled": 0}, {"fusion_lat": 0.0, "fusion_lon": 0.0, "lat": 38.8925435, "type": "electric_scooter", "rental_uris": {"android": "https://dc.lft.to/lastmile_qr_scan", "ios": "https://dc.lft.to/lastmile_qr_scan"}, "is_reserved": 0, "lon": -77.031806, "name": "892399fa84ece79c0d97f2f15c4b3ded", "bike_id": "892399fa84ece79c0d97f2f15c4b3ded", "is_disabled": 0}, {"fusion_lat": 0.0, "fusion_lon": 0.0, "lat": 38.7947255, "type": "electric_bike", "rental_uris": {"android": "https://dc.lft.to/lastmile_qr_scan", "ios": "https://dc.lft.to/lastmile_qr_scan"}, "is_reserved": 0, "lon": -76.99241366666666, "name": "9d57040c24a9ed7c2815819b3afb4e77", "bike_id": "9d57040c24a9ed7c2815819b3afb4e77", "is_disabled": 0}, {"fusion_lat": 0.0, "fusion_lon": 0.0, "lat": 38.909637333333336, "type": "electric_scooter", "rental_uris": {"android": "https://dc.lft.to/lastmile_qr_scan", "ios": "https://dc.lft.to/lastmile_qr_scan"}, "is_reserved": 0, "lon": -77.04458216666667, "name": "6f967590a8320602b11882852b76724d", "bike_id": "6f967590a8320602b11882852b76724d", "is_disabled": 0}, {"fusion_lat": 0.0, "fusion_lon": 0.0, "lat": 38.895836833333334, "type": "electric_scooter", "rental_uris": {"android": "https://dc.lft.to/lastmile_qr_scan", "ios": "https://dc.lft.to/lastmile_qr_scan"}, "is_reserved": 0, "lon": -76.98180733333334, "name": "1fe16fd79f4f2c1a46c3f036282107de", "bike_id": "1fe16fd79f4f2c1a46c3f036282107de", "is_disabled": 0}, {"fusion_lat": 0.0, "fusion_lon": 0.0, "lat": 38.929285666666665, "type": "electric_bike", "rental_uris": {"android": "https://dc.lft.to/lastmile_qr_scan", "ios": "https://dc.lft.to/lastmile_qr_scan"}, "is_reserved": 0, "lon": -77.03275333333333, "name": "2d80615f4b44719a10332665d1140c08", "bike_id": "2d80615f4b44719a10332665d1140c08", "is_disabled": 0}, {"fusion_lat": 0.0, "fusion_lon": 0.0, "lat": 38.898643166666666, "type": "electric_scooter", "rental_uris": {"android": "https://dc.lft.to/lastmile_qr_scan", "ios": "https://dc.lft.to/lastmile_qr_scan"}, "is_reserved": 0, "lon": -76.94636416666667, "name": "0e58b1db786d977a4385b8a661c5f83e", "bike_id": "0e58b1db786d977a4385b8a661c5f83e", "is_disabled": 0}, {"fusion_lat": 0.0, "fusion_lon": 0.0, "lat": 38.924717666666666, "type": "electric_scooter", "rental_uris": {"android": "https://dc.lft.to/lastmile_qr_scan", "ios": "https://dc.lft.to/lastmile_qr_scan"}, "is_reserved": 0, "lon": -77.022222, "name": "b8a46357beb9c4a40ee93745fc426463", "bike_id": "b8a46357beb9c4a40ee93745fc426463", "is_disabled": 0}, {"fusion_lat": 0.0, "fusion_lon": 0.0, "lat": 38.90866416666667, "type": "electric_scooter", "rental_uris": {"android": "https://dc.lft.to/lastmile_qr_scan", "ios": "https://dc.lft.to/lastmile_qr_scan"}, "is_reserved": 0, "lon": -76.93336733333334, "name": "ba602c8d2eecc0b73bdd86b8d8d9ac7d", "bike_id": "ba602c8d2eecc0b73bdd86b8d8d9ac7d", "is_disabled": 0}, {"fusion_lat": 0.0, "fusion_lon": 0.0, "lat": 38.90828166666667, "type": "electric_scooter", "rental_uris": {"android": "https://dc.lft.to/lastmile_qr_scan", "ios": "https://dc.lft.to/lastmile_qr_scan"}, "is_reserved": 0, "lon": -77.03674466666666, "name": "99064f74b5d22c0ec574d2f91f50e2a4", "bike_id": "99064f74b5d22c0ec574d2f91f50e2a4", "is_disabled": 0}, {"fusion_lat": 0.0, "fusion_lon": 0.0, "lat": 38.88421733333333, "type": "electric_scooter", "rental_uris": {"android": "https://dc.lft.to/lastmile_qr_scan", "ios": "https://dc.lft.to/lastmile_qr_scan"}, "is_reserved": 0, "lon": -76.99698166666667, "name": "76129ac17e6d327d261cf02a0b6ab0f3", "bike_id": "76129ac17e6d327d261cf02a0b6ab0f3", "is_disabled": 0}, {"fusion_lat": 0.0, "fusion_lon": 0.0, "lat": 38.922719, "type": "electric_scooter", "rental_uris": {"android": "https://dc.lft.to/lastmile_qr_scan", "ios": "https://dc.lft.to/lastmile_qr_scan"}, "is_reserved": 0, "lon": -77.01820966666666, "name": "17c99f8aa1caf7df0d742dcec4c2c43a", "bike_id": "17c99f8aa1caf7df0d742dcec4c2c43a", "is_disabled": 0}, {"fusion_lat": 0.0, "fusion_lon": 0.0, "lat": 38.938767666666664, "type": "electric_scooter", "rental_uris": {"android": "https://dc.lft.to/lastmile_qr_scan", "ios": "https://dc.lft.to/lastmile_qr_scan"}, "is_reserved": 0, "lon": -77.033855, "name": "f8a32daffca1b2307cb48be86ca27931", "bike_id": "f8a32daffca1b2307cb48be86ca27931", "is_disabled": 0}, {"fusion_lat": 0.0, "fusion_lon": 0.0, "lat": 38.8964375, "type": "electric_scooter", "rental_uris": {"android": "https://dc.lft.to/lastmile_qr_scan", "ios": "https://dc.lft.to/lastmile_qr_scan"}, "is_reserved": 0, "lon": -77.02252916666667, "name": "6a7d5b4520ab2bb4bfbe03e18c209c1f", "bike_id": "6a7d5b4520ab2bb4bfbe03e18c209c1f", "is_disabled": 0}, {"fusion_lat": 0.0, "fusion_lon": 0.0, "lat": 38.8826055, "type": "electric_scooter", "rental_uris": {"android": "https://dc.lft.to/lastmile_qr_scan", "ios": "https://dc.lft.to/lastmile_qr_scan"}, "is_reserved": 0, "lon": -76.93557816666667, "name": "70084f3b8db6411d448b379737ada1d2", "bike_id": "70084f3b8db6411d448b379737ada1d2", "is_disabled": 0}, {"fusion_lat": 0.0, "fusion_lon": 0.0, "lat": 38.90728716666667, "type": "electric_scooter", "rental_uris": {"android": "https://dc.lft.to/lastmile_qr_scan", "ios": "https://dc.lft.to/lastmile_qr_scan"}, "is_reserved": 0, "lon": -77.0237075, "name": "74c36e42f528875fe0c090f5584b4fa7", "bike_id": "74c36e42f528875fe0c090f5584b4fa7", "is_disabled": 0}, {"fusion_lat": 0.0, "fusion_lon": 0.0, "lat": 38.9085435, "type": "electric_scooter", "rental_uris": {"android": "https://dc.lft.to/lastmile_qr_scan", "ios": "https://dc.lft.to/lastmile_qr_scan"}, "is_reserved": 0, "lon": -76.9979795, "name": "121dc23b740d1ad42a5e9bd1cc188128", "bike_id": "121dc23b740d1ad42a5e9bd1cc188128", "is_disabled": 0}, {"fusion_lat": 0.0, "fusion_lon": 0.0, "lat": 38.90582933333334, "type": "electric_scooter", "rental_uris": {"android": "https://dc.lft.to/lastmile_qr_scan", "ios": "https://dc.lft.to/lastmile_qr_scan"}, "is_reserved": 0, "lon": -77.05706366666666, "name": "42fd807fa0f21b905ae60b98ab5ac341", "bike_id": "42fd807fa0f21b905ae60b98ab5ac341", "is_disabled": 0}, {"fusion_lat": 0.0, "fusion_lon": 0.0, "lat": 38.9075515, "type": "electric_scooter", "rental_uris": {"android": "https://dc.lft.to/lastmile_qr_scan", "ios": "https://dc.lft.to/lastmile_qr_scan"}, "is_reserved": 0, "lon": -77.03600283333333, "name": "694395c32c74203ec84b25aa50b5f059", "bike_id": "694395c32c74203ec84b25aa50b5f059", "is_disabled": 0}, {"fusion_lat": 0.0, "fusion_lon": 0.0, "lat": 38.876565166666666, "type": "electric_scooter", "rental_uris": {"android": "https://dc.lft.to/lastmile_qr_scan", "ios": "https://dc.lft.to/lastmile_qr_scan"}, "is_reserved": 0, "lon": -77.0045785, "name": "221db3f289e1cac26d86f3de2ba4bc13", "bike_id": "221db3f289e1cac26d86f3de2ba4bc13", "is_disabled": 0}, {"fusion_lat": 0.0, "fusion_lon": 0.0, "lat": 38.860079, "type": "electric_scooter", "rental_uris": {"android": "https://dc.lft.to/lastmile_qr_scan", "ios": "https://dc.lft.to/lastmile_qr_scan"}, "is_reserved": 0, "lon": -76.99657783333333, "name": "c0e1934715cfb156af5b39a5bcba9e02", "bike_id": "c0e1934715cfb156af5b39a5bcba9e02", "is_disabled": 0}, {"fusion_lat": 0.0, "fusion_lon": 0.0, "lat": 38.9157045, "type": "electric_scooter", "rental_uris": {"android": "https://dc.lft.to/lastmile_qr_scan", "ios": "https://dc.lft.to/lastmile_qr_scan"}, "is_reserved": 0, "lon": -77.03181916666666, "name": "909c410e90c9dcc41d9327481e730732", "bike_id": "909c410e90c9dcc41d9327481e730732", "is_disabled": 0}, {"fusion_lat": 0.0, "fusion_lon": 0.0, "lat": 38.8754855, "type": "electric_scooter", "rental_uris": {"android": "https://dc.lft.to/lastmile_qr_scan", "ios": "https://dc.lft.to/lastmile_qr_scan"}, "is_reserved": 0, "lon": -77.00070883333333, "name": "c40eab4e076263595e9c939dbe8a8b83", "bike_id": "c40eab4e076263595e9c939dbe8a8b83", "is_disabled": 0}, {"fusion_lat": 0.0, "fusion_lon": 0.0, "lat": 38.9041865, "type": "electric_scooter", "rental_uris": {"android": "https://dc.lft.to/lastmile_qr_scan", "ios": "https://dc.lft.to/lastmile_qr_scan"}, "is_reserved": 0, "lon": -77.05334633333334, "name": "3f0ad14f7db291917b171c82b317ff10", "bike_id": "3f0ad14f7db291917b171c82b317ff10", "is_disabled": 0}, {"fusion_lat": 0.0, "fusion_lon": 0.0, "lat": 38.88741266666667, "type": "electric_scooter", "rental_uris": {"android": "https://dc.lft.to/lastmile_qr_scan", "ios": "https://dc.lft.to/lastmile_qr_scan"}, "is_reserved": 0, "lon": -77.01531416666667, "name": "efa768d147ac8e25113312fe31db0961", "bike_id": "efa768d147ac8e25113312fe31db0961", "is_disabled": 0}, {"fusion_lat": 0.0, "fusion_lon": 0.0, "lat": 38.945422666666666, "type": "electric_scooter", "rental_uris": {"android": "https://dc.lft.to/lastmile_qr_scan", "ios": "https://dc.lft.to/lastmile_qr_scan"}, "is_reserved": 0, "lon": -77.079602, "name": "53a4525d6edee6b7edb99e62feae5ab0", "bike_id": "53a4525d6edee6b7edb99e62feae5ab0", "is_disabled": 0}, {"fusion_lat": 0.0, "fusion_lon": 0.0, "lat": 38.908782, "type": "electric_scooter", "rental_uris": {"android": "https://dc.lft.to/lastmile_qr_scan", "ios": "https://dc.lft.to/lastmile_qr_scan"}, "is_reserved": 0, "lon": -77.03182883333334, "name": "169c9b402fd8190526ba8c350325b92c", "bike_id": "169c9b402fd8190526ba8c350325b92c", "is_disabled": 0}, {"fusion_lat": 0.0, "fusion_lon": 0.0, "lat": 38.87648216666667, "type": "electric_scooter", "rental_uris": {"android": "https://dc.lft.to/lastmile_qr_scan", "ios": "https://dc.lft.to/lastmile_qr_scan"}, "is_reserved": 0, "lon": -77.00434783333333, "name": "e4be61ea1a37ce2189ed8db00dfb7969", "bike_id": "e4be61ea1a37ce2189ed8db00dfb7969", "is_disabled": 0}, {"fusion_lat": 0.0, "fusion_lon": 0.0, "lat": 38.845274833333335, "type": "electric_bike", "rental_uris": {"android": "https://dc.lft.to/lastmile_qr_scan", "ios": "https://dc.lft.to/lastmile_qr_scan"}, "is_reserved": 0, "lon": -76.973969, "name": "0b6e9f261f61d9dc76dda06c301e2709", "bike_id": "0b6e9f261f61d9dc76dda06c301e2709", "is_disabled": 0}, {"fusion_lat": 0.0, "fusion_lon": 0.0, "lat": 38.919421166666666, "type": "electric_scooter", "rental_uris": {"android": "https://dc.lft.to/lastmile_qr_scan", "ios": "https://dc.lft.to/lastmile_qr_scan"}, "is_reserved": 0, "lon": -77.04796183333333, "name": "9eb107ce443a96a4a4258cee45331d01", "bike_id": "9eb107ce443a96a4a4258cee45331d01", "is_disabled": 0}, {"fusion_lat": 0.0, "fusion_lon": 0.0, "lat": 38.91559783333334, "type": "electric_scooter", "rental_uris": {"android": "https://dc.lft.to/lastmile_qr_scan", "ios": "https://dc.lft.to/lastmile_qr_scan"}, "is_reserved": 0, "lon": -77.03146216666667, "name": "086bdba2605f06d1ac61c0a26671ba45", "bike_id": "086bdba2605f06d1ac61c0a26671ba45", "is_disabled": 0}, {"fusion_lat": 0.0, "fusion_lon": 0.0, "lat": 38.9022005, "type": "electric_scooter", "rental_uris": {"android": "https://dc.lft.to/lastmile_qr_scan", "ios": "https://dc.lft.to/lastmile_qr_scan"}, "is_reserved": 0, "lon": -77.047741, "name": "3ed234953ce116211eeaf9fe0228815c", "bike_id": "3ed234953ce116211eeaf9fe0228815c", "is_disabled": 0}, {"fusion_lat": 0.0, "fusion_lon": 0.0, "lat": 38.8945645, "type": "electric_scooter", "rental_uris": {"android": "https://dc.lft.to/lastmile_qr_scan", "ios": "https://dc.lft.to/lastmile_qr_scan"}, "is_reserved": 0, "lon": -77.046748, "name": "a4994464d33414f9d01315f05c718009", "bike_id": "a4994464d33414f9d01315f05c718009", "is_disabled": 0}, {"fusion_lat": 0.0, "fusion_lon": 0.0, "lat": 38.91293, "type": "electric_scooter", "rental_uris": {"android": "https://dc.lft.to/lastmile_qr_scan", "ios": "https://dc.lft.to/lastmile_qr_scan"}, "is_reserved": 0, "lon": -77.023828, "name": "d9ee2af5875a4112b6f7e8c0af72353b", "bike_id": "d9ee2af5875a4112b6f7e8c0af72353b", "is_disabled": 0}, {"fusion_lat": 0.0, "fusion_lon": 0.0, "lat": 38.917493, "type": "electric_scooter", "rental_uris": {"android": "https://dc.lft.to/lastmile_qr_scan", "ios": "https://dc.lft.to/lastmile_qr_scan"}, "is_reserved": 0, "lon": -77.01081083333334, "name": "89a763a1db45a2811b150a272bfd7f7d", "bike_id": "89a763a1db45a2811b150a272bfd7f7d", "is_disabled": 0}, {"fusion_lat": 0.0, "fusion_lon": 0.0, "lat": 38.915729, "type": "electric_scooter", "rental_uris": {"android": "https://dc.lft.to/lastmile_qr_scan", "ios": "https://dc.lft.to/lastmile_qr_scan"}, "is_reserved": 0, "lon": -77.01581916666666, "name": "7bf60d93d7c9e45e2d29261d7c31a94b", "bike_id": "7bf60d93d7c9e45e2d29261d7c31a94b", "is_disabled": 0}, {"fusion_lat": 0.0, "fusion_lon": 0.0, "lat": 38.91011266666667, "type": "electric_scooter", "rental_uris": {"android": "https://dc.lft.to/lastmile_qr_scan", "ios": "https://dc.lft.to/lastmile_qr_scan"}, "is_reserved": 0, "lon": -77.03465316666667, "name": "9a45a5ae2edd9e991fca9a5485f6d41f", "bike_id": "9a45a5ae2edd9e991fca9a5485f6d41f", "is_disabled": 0}, {"fusion_lat": 0.0, "fusion_lon": 0.0, "lat": 38.909494, "type": "electric_scooter", "rental_uris": {"android": "https://dc.lft.to/lastmile_qr_scan", "ios": "https://dc.lft.to/lastmile_qr_scan"}, "is_reserved": 0, "lon": -77.03439616666667, "name": "b45dc679bbb9ef314e6925105eeaef83", "bike_id": "b45dc679bbb9ef314e6925105eeaef83", "is_disabled": 0}, {"fusion_lat": 0.0, "fusion_lon": 0.0, "lat": 38.899987833333334, "type": "electric_scooter", "rental_uris": {"android": "https://dc.lft.to/lastmile_qr_scan", "ios": "https://dc.lft.to/lastmile_qr_scan"}, "is_reserved": 0, "lon": -77.02936383333333, "name": "ae699b38bb6aeba27b0c37d0f1ef8bdb", "bike_id": "ae699b38bb6aeba27b0c37d0f1ef8bdb", "is_disabled": 0}, {"fusion_lat": 0.0, "fusion_lon": 0.0, "lat": 38.90468333333333, "type": "electric_scooter", "rental_uris": {"android": "https://dc.lft.to/lastmile_qr_scan", "ios": "https://dc.lft.to/lastmile_qr_scan"}, "is_reserved": 0, "lon": -77.03890433333333, "name": "f52cf0b41734e38117accd39cca09199", "bike_id": "f52cf0b41734e38117accd39cca09199", "is_disabled": 0}, {"fusion_lat": 0.0, "fusion_lon": 0.0, "lat": 38.905581, "type": "electric_scooter", "rental_uris": {"android": "https://dc.lft.to/lastmile_qr_scan", "ios": "https://dc.lft.to/lastmile_qr_scan"}, "is_reserved": 0, "lon": -77.02174366666667, "name": "75ee51af05848994dba218300fca497d", "bike_id": "75ee51af05848994dba218300fca497d", "is_disabled": 0}, {"fusion_lat": 0.0, "fusion_lon": 0.0, "lat": 38.878856666666664, "type": "electric_bike", "rental_uris": {"android": "https://dc.lft.to/lastmile_qr_scan", "ios": "https://dc.lft.to/lastmile_qr_scan"}, "is_reserved": 0, "lon": -77.09610333333333, "name": "8c75dd98c913eb8277ecf10f5eb8c6ef", "bike_id": "8c75dd98c913eb8277ecf10f5eb8c6ef", "is_disabled": 0}, {"fusion_lat": 0.0, "fusion_lon": 0.0, "lat": 38.918168333333334, "type": "electric_scooter", "rental_uris": {"android": "https://dc.lft.to/lastmile_qr_scan", "ios": "https://dc.lft.to/lastmile_qr_scan"}, "is_reserved": 0, "lon": -77.00952166666667, "name": "feaf4865baf7ced6229d14048c0478cf", "bike_id": "feaf4865baf7ced6229d14048c0478cf", "is_disabled": 0}, {"fusion_lat": 0.0, "fusion_lon": 0.0, "lat": 38.940929, "type": "electric_scooter", "rental_uris": {"android": "https://dc.lft.to/lastmile_qr_scan", "ios": "https://dc.lft.to/lastmile_qr_scan"}, "is_reserved": 0, "lon": -77.02493016666666, "name": "3173087a463b0d443e907904dda83033", "bike_id": "3173087a463b0d443e907904dda83033", "is_disabled": 0}, {"fusion_lat": 0.0, "fusion_lon": 0.0, "lat": 38.956000833333334, "type": "electric_scooter", "rental_uris": {"android": "https://dc.lft.to/lastmile_qr_scan", "ios": "https://dc.lft.to/lastmile_qr_scan"}, "is_reserved": 0, "lon": -77.0273105, "name": "52a6eb8dfe764803d6e026a9d670a607", "bike_id": "52a6eb8dfe764803d6e026a9d670a607", "is_disabled": 0}, {"fusion_lat": 0.0, "fusion_lon": 0.0, "lat": 38.89633633333333, "type": "electric_scooter", "rental_uris": {"android": "https://dc.lft.to/lastmile_qr_scan", "ios": "https://dc.lft.to/lastmile_qr_scan"}, "is_reserved": 0, "lon": -77.0400665, "name": "d08a1ad8719f1e6510bf4b063e193bc6", "bike_id": "d08a1ad8719f1e6510bf4b063e193bc6", "is_disabled": 0}, {"fusion_lat": 0.0, "fusion_lon": 0.0, "lat": 38.907451, "type": "electric_scooter", "rental_uris": {"android": "https://dc.lft.to/lastmile_qr_scan", "ios": "https://dc.lft.to/lastmile_qr_scan"}, "is_reserved": 0, "lon": -77.04538266666667, "name": "0ce7d28ec463d17f879f924386a2d500", "bike_id": "0ce7d28ec463d17f879f924386a2d500", "is_disabled": 0}, {"fusion_lat": 0.0, "fusion_lon": 0.0, "lat": 38.91909416666667, "type": "electric_scooter", "rental_uris": {"android": "https://dc.lft.to/lastmile_qr_scan", "ios": "https://dc.lft.to/lastmile_qr_scan"}, "is_reserved": 0, "lon": -77.02084333333333, "name": "b9825330de4275d5c0853be5f8a01003", "bike_id": "b9825330de4275d5c0853be5f8a01003", "is_disabled": 0}, {"fusion_lat": 0.0, "fusion_lon": 0.0, "lat": 38.924672666666666, "type": "electric_scooter", "rental_uris": {"android": "https://dc.lft.to/lastmile_qr_scan", "ios": "https://dc.lft.to/lastmile_qr_scan"}, "is_reserved": 0, "lon": -77.02152166666667, "name": "e2795def41c5365a5569668c2d0cada1", "bike_id": "e2795def41c5365a5569668c2d0cada1", "is_disabled": 0}, {"fusion_lat": 0.0, "fusion_lon": 0.0, "lat": 38.93523066666667, "type": "electric_scooter", "rental_uris": {"android": "https://dc.lft.to/lastmile_qr_scan", "ios": "https://dc.lft.to/lastmile_qr_scan"}, "is_reserved": 0, "lon": -77.0308145, "name": "216d5fba56cc9c90088bc429810a7d97", "bike_id": "216d5fba56cc9c90088bc429810a7d97", "is_disabled": 0}, {"fusion_lat": 0.0, "fusion_lon": 0.0, "lat": 38.926131166666664, "type": "electric_scooter", "rental_uris": {"android": "https://dc.lft.to/lastmile_qr_scan", "ios": "https://dc.lft.to/lastmile_qr_scan"}, "is_reserved": 0, "lon": -77.03958733333333, "name": "24fac91f241beb2bd6d5cffd9352c90b", "bike_id": "24fac91f241beb2bd6d5cffd9352c90b", "is_disabled": 0}, {"fusion_lat": 0.0, "fusion_lon": 0.0, "lat": 38.80977, "type": "electric_bike", "rental_uris": {"android": "https://dc.lft.to/lastmile_qr_scan", "ios": "https://dc.lft.to/lastmile_qr_scan"}, "is_reserved": 0, "lon": -77.08623333333334, "name": "912a3468e6503903186b0969f81d3be0", "bike_id": "912a3468e6503903186b0969f81d3be0", "is_disabled": 0}, {"fusion_lat": 0.0, "fusion_lon": 0.0, "lat": 38.89989533333333, "type": "electric_scooter", "rental_uris": {"android": "https://dc.lft.to/lastmile_qr_scan", "ios": "https://dc.lft.to/lastmile_qr_scan"}, "is_reserved": 0, "lon": -77.0510145, "name": "fd8f594717c6a4fda4f20f1afeb9f94e", "bike_id": "fd8f594717c6a4fda4f20f1afeb9f94e", "is_disabled": 0}, {"fusion_lat": 0.0, "fusion_lon": 0.0, "lat": 38.892197833333334, "type": "electric_scooter", "rental_uris": {"android": "https://dc.lft.to/lastmile_qr_scan", "ios": "https://dc.lft.to/lastmile_qr_scan"}, "is_reserved": 0, "lon": -77.02220633333333, "name": "0f8d3d3f3d4c51314f3a6cde6e517c1f", "bike_id": "0f8d3d3f3d4c51314f3a6cde6e517c1f", "is_disabled": 0}, {"fusion_lat": 0.0, "fusion_lon": 0.0, "lat": 38.89998583333333, "type": "electric_scooter", "rental_uris": {"android": "https://dc.lft.to/lastmile_qr_scan", "ios": "https://dc.lft.to/lastmile_qr_scan"}, "is_reserved": 0, "lon": -77.03174733333333, "name": "3cc88d50023a1babefec59e237a7c3e9", "bike_id": "3cc88d50023a1babefec59e237a7c3e9", "is_disabled": 0}, {"fusion_lat": 0.0, "fusion_lon": 0.0, "lat": 38.91028583333333, "type": "electric_scooter", "rental_uris": {"android": "https://dc.lft.to/lastmile_qr_scan", "ios": "https://dc.lft.to/lastmile_qr_scan"}, "is_reserved": 0, "lon": -77.0316985, "name": "e037e43aafe7363300af56a596c31cec", "bike_id": "e037e43aafe7363300af56a596c31cec", "is_disabled": 0}, {"fusion_lat": 0.0, "fusion_lon": 0.0, "lat": 38.886577833333334, "type": "electric_scooter", "rental_uris": {"android": "https://dc.lft.to/lastmile_qr_scan", "ios": "https://dc.lft.to/lastmile_qr_scan"}, "is_reserved": 0, "lon": -77.02830066666667, "name": "e5ea2d30053ff8293027e1cbf2ea5a5f", "bike_id": "e5ea2d30053ff8293027e1cbf2ea5a5f", "is_disabled": 0}, {"fusion_lat": 0.0, "fusion_lon": 0.0, "lat": 38.898766333333334, "type": "electric_scooter", "rental_uris": {"android": "https://dc.lft.to/lastmile_qr_scan", "ios": "https://dc.lft.to/lastmile_qr_scan"}, "is_reserved": 0, "lon": -77.0327955, "name": "929b83ac0ab6cfb41f8779ab28e2703d", "bike_id": "929b83ac0ab6cfb41f8779ab28e2703d", "is_disabled": 0}, {"fusion_lat": 0.0, "fusion_lon": 0.0, "lat": 38.938301, "type": "electric_bike", "rental_uris": {"android": "https://dc.lft.to/lastmile_qr_scan", "ios": "https://dc.lft.to/lastmile_qr_scan"}, "is_reserved": 0, "lon": -76.943151, "name": "f8f117b86aa0646774ff102e5b80144a", "bike_id": "f8f117b86aa0646774ff102e5b80144a", "is_disabled": 0}, {"fusion_lat": 0.0, "fusion_lon": 0.0, "lat": 38.91690716666667, "type": "electric_scooter", "rental_uris": {"android": "https://dc.lft.to/lastmile_qr_scan", "ios": "https://dc.lft.to/lastmile_qr_scan"}, "is_reserved": 0, "lon": -77.0259585, "name": "87ef4ac4ff6eacc0617cf39202811981", "bike_id": "87ef4ac4ff6eacc0617cf39202811981", "is_disabled": 0}, {"fusion_lat": 0.0, "fusion_lon": 0.0, "lat": 38.922329500000004, "type": "electric_scooter", "rental_uris": {"android": "https://dc.lft.to/lastmile_qr_scan", "ios": "https://dc.lft.to/lastmile_qr_scan"}, "is_reserved": 0, "lon": -77.02331066666666, "name": "e0cc5d8fedc4e54c218da8db635e590c", "bike_id": "e0cc5d8fedc4e54c218da8db635e590c", "is_disabled": 0}, {"fusion_lat": 0.0, "fusion_lon": 0.0, "lat": 38.99675116666667, "type": "electric_bike", "rental_uris": {"android": "https://dc.lft.to/lastmile_qr_scan", "ios": "https://dc.lft.to/lastmile_qr_scan"}, "is_reserved": 0, "lon": -77.03782016666666, "name": "e8a4b353be940c9d9b6d1903412545de", "bike_id": "e8a4b353be940c9d9b6d1903412545de", "is_disabled": 0}, {"fusion_lat": 0.0, "fusion_lon": 0.0, "lat": 38.920573, "type": "electric_scooter", "rental_uris": {"android": "https://dc.lft.to/lastmile_qr_scan", "ios": "https://dc.lft.to/lastmile_qr_scan"}, "is_reserved": 0, "lon": -77.03190683333334, "name": "578a1dd8a1f04b7d20565f05dd7e28f3", "bike_id": "578a1dd8a1f04b7d20565f05dd7e28f3", "is_disabled": 0}, {"fusion_lat": 0.0, "fusion_lon": 0.0, "lat": 38.91564783333333, "type": "electric_scooter", "rental_uris": {"android": "https://dc.lft.to/lastmile_qr_scan", "ios": "https://dc.lft.to/lastmile_qr_scan"}, "is_reserved": 0, "lon": -77.02273816666667, "name": "aafdb32cf6004b9642f7433747c16db7", "bike_id": "aafdb32cf6004b9642f7433747c16db7", "is_disabled": 0}, {"fusion_lat": 0.0, "fusion_lon": 0.0, "lat": 38.92312166666667, "type": "electric_scooter", "rental_uris": {"android": "https://dc.lft.to/lastmile_qr_scan", "ios": "https://dc.lft.to/lastmile_qr_scan"}, "is_reserved": 0, "lon": -77.04215733333334, "name": "f03d674ee8058685c637a610d664c7e1", "bike_id": "f03d674ee8058685c637a610d664c7e1", "is_disabled": 0}, {"fusion_lat": 0.0, "fusion_lon": 0.0, "lat": 38.902330666666664, "type": "electric_scooter", "rental_uris": {"android": "https://dc.lft.to/lastmile_qr_scan", "ios": "https://dc.lft.to/lastmile_qr_scan"}, "is_reserved": 0, "lon": -77.03830083333334, "name": "f107298b496ca8a33b1fd25cefa5260d", "bike_id": "f107298b496ca8a33b1fd25cefa5260d", "is_disabled": 0}, {"fusion_lat": 0.0, "fusion_lon": 0.0, "lat": 38.918439, "type": "electric_scooter", "rental_uris": {"android": "https://dc.lft.to/lastmile_qr_scan", "ios": "https://dc.lft.to/lastmile_qr_scan"}, "is_reserved": 0, "lon": -77.04824016666667, "name": "84adf3f1e01c7a54f6523779e5146f5b", "bike_id": "84adf3f1e01c7a54f6523779e5146f5b", "is_disabled": 0}, {"fusion_lat": 0.0, "fusion_lon": 0.0, "lat": 38.922362, "type": "electric_scooter", "rental_uris": {"android": "https://dc.lft.to/lastmile_qr_scan", "ios": "https://dc.lft.to/lastmile_qr_scan"}, "is_reserved": 0, "lon": -77.02822266666666, "name": "f3cb15145bf1f8c9245730adc2e13a65", "bike_id": "f3cb15145bf1f8c9245730adc2e13a65", "is_disabled": 0}, {"fusion_lat": 0.0, "fusion_lon": 0.0, "lat": 38.90579283333334, "type": "electric_scooter", "rental_uris": {"android": "https://dc.lft.to/lastmile_qr_scan", "ios": "https://dc.lft.to/lastmile_qr_scan"}, "is_reserved": 0, "lon": -77.00645333333334, "name": "8e9b1983861be81d2d76299bfadeb6c5", "bike_id": "8e9b1983861be81d2d76299bfadeb6c5", "is_disabled": 0}, {"fusion_lat": 0.0, "fusion_lon": 0.0, "lat": 38.92452316666667, "type": "electric_scooter", "rental_uris": {"android": "https://dc.lft.to/lastmile_qr_scan", "ios": "https://dc.lft.to/lastmile_qr_scan"}, "is_reserved": 0, "lon": -77.03299, "name": "247edcdfa7503c34bbef7c7426b2e5a9", "bike_id": "247edcdfa7503c34bbef7c7426b2e5a9", "is_disabled": 0}, {"fusion_lat": 0.0, "fusion_lon": 0.0, "lat": 38.90144, "type": "electric_scooter", "rental_uris": {"android": "https://dc.lft.to/lastmile_qr_scan", "ios": "https://dc.lft.to/lastmile_qr_scan"}, "is_reserved": 0, "lon": -77.032549, "name": "ca6745da1cfabaeebd0b486cc0835029", "bike_id": "ca6745da1cfabaeebd0b486cc0835029", "is_disabled": 0}, {"fusion_lat": 0.0, "fusion_lon": 0.0, "lat": 39.05103316666667, "type": "electric_bike", "rental_uris": {"android": "https://dc.lft.to/lastmile_qr_scan", "ios": "https://dc.lft.to/lastmile_qr_scan"}, "is_reserved": 0, "lon": -77.11733116666667, "name": "4e9fa0f709be031011535f2a68da5286", "bike_id": "4e9fa0f709be031011535f2a68da5286", "is_disabled": 0}, {"fusion_lat": 0.0, "fusion_lon": 0.0, "lat": 38.90205483333333, "type": "electric_scooter", "rental_uris": {"android": "https://dc.lft.to/lastmile_qr_scan", "ios": "https://dc.lft.to/lastmile_qr_scan"}, "is_reserved": 0, "lon": -77.04178016666667, "name": "4a9f6e42db271baa0fbe2954399d15ea", "bike_id": "4a9f6e42db271baa0fbe2954399d15ea", "is_disabled": 0}, {"fusion_lat": 0.0, "fusion_lon": 0.0, "lat": 38.992268833333334, "type": "electric_scooter", "rental_uris": {"android": "https://dc.lft.to/lastmile_qr_scan", "ios": "https://dc.lft.to/lastmile_qr_scan"}, "is_reserved": 0, "lon": -77.03586416666667, "name": "28bbe6586692ee4b3c42e1e3413ce9cd", "bike_id": "28bbe6586692ee4b3c42e1e3413ce9cd", "is_disabled": 0}, {"fusion_lat": 0.0, "fusion_lon": 0.0, "lat": 38.909132166666666, "type": "electric_scooter", "rental_uris": {"android": "https://dc.lft.to/lastmile_qr_scan", "ios": "https://dc.lft.to/lastmile_qr_scan"}, "is_reserved": 0, "lon": -77.03210616666667, "name": "4ced5a8f88d757b38f27494303d7bbd2", "bike_id": "4ced5a8f88d757b38f27494303d7bbd2", "is_disabled": 0}, {"fusion_lat": 0.0, "fusion_lon": 0.0, "lat": 38.8840005, "type": "electric_bike", "rental_uris": {"android": "https://dc.lft.to/lastmile_qr_scan", "ios": "https://dc.lft.to/lastmile_qr_scan"}, "is_reserved": 0, "lon": -76.960495, "name": "0fac4a34d521c4d1160e2620a1437ad2", "bike_id": "0fac4a34d521c4d1160e2620a1437ad2", "is_disabled": 0}, {"fusion_lat": 0.0, "fusion_lon": 0.0, "lat": 38.89107966666667, "type": "electric_scooter", "rental_uris": {"android": "https://dc.lft.to/lastmile_qr_scan", "ios": "https://dc.lft.to/lastmile_qr_scan"}, "is_reserved": 0, "lon": -77.00195533333333, "name": "853c26abd641eb81aab275a2b72b7dba", "bike_id": "853c26abd641eb81aab275a2b72b7dba", "is_disabled": 0}, {"fusion_lat": 0.0, "fusion_lon": 0.0, "lat": 38.90270616666667, "type": "electric_scooter", "rental_uris": {"android": "https://dc.lft.to/lastmile_qr_scan", "ios": "https://dc.lft.to/lastmile_qr_scan"}, "is_reserved": 0, "lon": -77.03856166666667, "name": "d6b5e06709150d2eab3f27ab0e82bbf4", "bike_id": "d6b5e06709150d2eab3f27ab0e82bbf4", "is_disabled": 0}, {"fusion_lat": 0.0, "fusion_lon": 0.0, "lat": 38.91815233333333, "type": "electric_scooter", "rental_uris": {"android": "https://dc.lft.to/lastmile_qr_scan", "ios": "https://dc.lft.to/lastmile_qr_scan"}, "is_reserved": 0, "lon": -77.03979, "name": "2cd09e3066cdb331ea8500f6a095fa3c", "bike_id": "2cd09e3066cdb331ea8500f6a095fa3c", "is_disabled": 0}, {"fusion_lat": 0.0, "fusion_lon": 0.0, "lat": 38.8961235, "type": "electric_scooter", "rental_uris": {"android": "https://dc.lft.to/lastmile_qr_scan", "ios": "https://dc.lft.to/lastmile_qr_scan"}, "is_reserved": 0, "lon": -77.0444095, "name": "4546764eaccd65bab3360beea7c7ee1e", "bike_id": "4546764eaccd65bab3360beea7c7ee1e", "is_disabled": 0}, {"fusion_lat": 0.0, "fusion_lon": 0.0, "lat": 38.908738666666665, "type": "electric_scooter", "rental_uris": {"android": "https://dc.lft.to/lastmile_qr_scan", "ios": "https://dc.lft.to/lastmile_qr_scan"}, "is_reserved": 0, "lon": -77.0405465, "name": "b0784694e882bd0a16837b2f5405cbbb", "bike_id": "b0784694e882bd0a16837b2f5405cbbb", "is_disabled": 0}, {"fusion_lat": 0.0, "fusion_lon": 0.0, "lat": 38.898379166666665, "type": "electric_scooter", "rental_uris": {"android": "https://dc.lft.to/lastmile_qr_scan", "ios": "https://dc.lft.to/lastmile_qr_scan"}, "is_reserved": 0, "lon": -77.01947833333334, "name": "2fb19276406d7de00154d8c0b4340041", "bike_id": "2fb19276406d7de00154d8c0b4340041", "is_disabled": 0}, {"fusion_lat": 0.0, "fusion_lon": 0.0, "lat": 38.9034525, "type": "electric_scooter", "rental_uris": {"android": "https://dc.lft.to/lastmile_qr_scan", "ios": "https://dc.lft.to/lastmile_qr_scan"}, "is_reserved": 0, "lon": -76.97609433333334, "name": "9a805333bc3f176d7a5c37bdcd99b9b5", "bike_id": "9a805333bc3f176d7a5c37bdcd99b9b5", "is_disabled": 0}, {"fusion_lat": 0.0, "fusion_lon": 0.0, "lat": 38.91636033333333, "type": "electric_scooter", "rental_uris": {"android": "https://dc.lft.to/lastmile_qr_scan", "ios": "https://dc.lft.to/lastmile_qr_scan"}, "is_reserved": 0, "lon": -77.04563016666667, "name": "7c23ae94741a939215dd266665177577", "bike_id": "7c23ae94741a939215dd266665177577", "is_disabled": 0}, {"fusion_lat": 0.0, "fusion_lon": 0.0, "lat": 38.92444616666667, "type": "electric_scooter", "rental_uris": {"android": "https://dc.lft.to/lastmile_qr_scan", "ios": "https://dc.lft.to/lastmile_qr_scan"}, "is_reserved": 0, "lon": -77.03401683333334, "name": "683c17091eb756c27cffb586bf052ac8", "bike_id": "683c17091eb756c27cffb586bf052ac8", "is_disabled": 0}, {"fusion_lat": 0.0, "fusion_lon": 0.0, "lat": 38.871760333333334, "type": "electric_scooter", "rental_uris": {"android": "https://dc.lft.to/lastmile_qr_scan", "ios": "https://dc.lft.to/lastmile_qr_scan"}, "is_reserved": 0, "lon": -77.00623533333334, "name": "150e27b4ba73586575107a8ff0709011", "bike_id": "150e27b4ba73586575107a8ff0709011", "is_disabled": 0}, {"fusion_lat": 0.0, "fusion_lon": 0.0, "lat": 38.893654166666664, "type": "electric_scooter", "rental_uris": {"android": "https://dc.lft.to/lastmile_qr_scan", "ios": "https://dc.lft.to/lastmile_qr_scan"}, "is_reserved": 0, "lon": -76.98433683333333, "name": "4c7b7d2aa281626406d7cb1607caced5", "bike_id": "4c7b7d2aa281626406d7cb1607caced5", "is_disabled": 0}, {"fusion_lat": 0.0, "fusion_lon": 0.0, "lat": 38.91346933333333, "type": "electric_scooter", "rental_uris": {"android": "https://dc.lft.to/lastmile_qr_scan", "ios": "https://dc.lft.to/lastmile_qr_scan"}, "is_reserved": 0, "lon": -77.02757216666667, "name": "0ffb12e0bdad1831f6108ad499f89ea1", "bike_id": "0ffb12e0bdad1831f6108ad499f89ea1", "is_disabled": 0}, {"fusion_lat": 0.0, "fusion_lon": 0.0, "lat": 38.8984205, "type": "electric_scooter", "rental_uris": {"android": "https://dc.lft.to/lastmile_qr_scan", "ios": "https://dc.lft.to/lastmile_qr_scan"}, "is_reserved": 0, "lon": -77.04831066666667, "name": "f77b1aa0448cec32481d811d72a67ac7", "bike_id": "f77b1aa0448cec32481d811d72a67ac7", "is_disabled": 0}, {"fusion_lat": 0.0, "fusion_lon": 0.0, "lat": 38.899857833333336, "type": "electric_scooter", "rental_uris": {"android": "https://dc.lft.to/lastmile_qr_scan", "ios": "https://dc.lft.to/lastmile_qr_scan"}, "is_reserved": 0, "lon": -77.02699966666667, "name": "978df141a596ec42b814e4b9f3cfcb65", "bike_id": "978df141a596ec42b814e4b9f3cfcb65", "is_disabled": 0}, {"fusion_lat": 0.0, "fusion_lon": 0.0, "lat": 38.892216833333336, "type": "electric_scooter", "rental_uris": {"android": "https://dc.lft.to/lastmile_qr_scan", "ios": "https://dc.lft.to/lastmile_qr_scan"}, "is_reserved": 0, "lon": -77.0253805, "name": "9c6fa001bfc411f0c226b3bfae2cf846", "bike_id": "9c6fa001bfc411f0c226b3bfae2cf846", "is_disabled": 0}, {"fusion_lat": 0.0, "fusion_lon": 0.0, "lat": 38.87299983333333, "type": "electric_bike", "rental_uris": {"android": "https://dc.lft.to/lastmile_qr_scan", "ios": "https://dc.lft.to/lastmile_qr_scan"}, "is_reserved": 0, "lon": -77.139189, "name": "42ba17a8637fbd6e72b72e5ab4a288d0", "bike_id": "42ba17a8637fbd6e72b72e5ab4a288d0", "is_disabled": 0}, {"fusion_lat": 0.0, "fusion_lon": 0.0, "lat": 38.90518083333333, "type": "electric_scooter", "rental_uris": {"android": "https://dc.lft.to/lastmile_qr_scan", "ios": "https://dc.lft.to/lastmile_qr_scan"}, "is_reserved": 0, "lon": -76.994676, "name": "78311a859a413555c244124f38c85e5a", "bike_id": "78311a859a413555c244124f38c85e5a", "is_disabled": 0}, {"fusion_lat": 0.0, "fusion_lon": 0.0, "lat": 38.83892, "type": "electric_scooter", "rental_uris": {"android": "https://dc.lft.to/lastmile_qr_scan", "ios": "https://dc.lft.to/lastmile_qr_scan"}, "is_reserved": 0, "lon": -77.00061866666667, "name": "c45e5365fb4600a91bb649190428f680", "bike_id": "c45e5365fb4600a91bb649190428f680", "is_disabled": 0}, {"fusion_lat": 0.0, "fusion_lon": 0.0, "lat": 38.938844833333334, "type": "electric_scooter", "rental_uris": {"android": "https://dc.lft.to/lastmile_qr_scan", "ios": "https://dc.lft.to/lastmile_qr_scan"}, "is_reserved": 0, "lon": -77.02484733333333, "name": "cc689cbaae94441cd32152c0d3275d60", "bike_id": "cc689cbaae94441cd32152c0d3275d60", "is_disabled": 0}, {"fusion_lat": 0.0, "fusion_lon": 0.0, "lat": 38.93607766666667, "type": "electric_scooter", "rental_uris": {"android": "https://dc.lft.to/lastmile_qr_scan", "ios": "https://dc.lft.to/lastmile_qr_scan"}, "is_reserved": 0, "lon": -77.058575, "name": "b9baebbc713ac3b9c8c077611a74cde5", "bike_id": "b9baebbc713ac3b9c8c077611a74cde5", "is_disabled": 0}, {"fusion_lat": 0.0, "fusion_lon": 0.0, "lat": 38.900134333333334, "type": "electric_scooter", "rental_uris": {"android": "https://dc.lft.to/lastmile_qr_scan", "ios": "https://dc.lft.to/lastmile_qr_scan"}, "is_reserved": 0, "lon": -76.98771533333333, "name": "3df0c03c09ebf22af68346c7a9265989", "bike_id": "3df0c03c09ebf22af68346c7a9265989", "is_disabled": 0}, {"fusion_lat": 0.0, "fusion_lon": 0.0, "lat": 38.89877216666667, "type": "electric_scooter", "rental_uris": {"android": "https://dc.lft.to/lastmile_qr_scan", "ios": "https://dc.lft.to/lastmile_qr_scan"}, "is_reserved": 0, "lon": -77.04666683333333, "name": "0e2640c96802c6a3c6fc3fa1c259b13a", "bike_id": "0e2640c96802c6a3c6fc3fa1c259b13a", "is_disabled": 0}, {"fusion_lat": 0.0, "fusion_lon": 0.0, "lat": 38.91042816666667, "type": "electric_scooter", "rental_uris": {"android": "https://dc.lft.to/lastmile_qr_scan", "ios": "https://dc.lft.to/lastmile_qr_scan"}, "is_reserved": 0, "lon": -77.03203583333334, "name": "53e2f719b2c9a95b853c896ac49c8c6f", "bike_id": "53e2f719b2c9a95b853c896ac49c8c6f", "is_disabled": 0}, {"fusion_lat": 0.0, "fusion_lon": 0.0, "lat": 38.89832366666667, "type": "electric_scooter", "rental_uris": {"android": "https://dc.lft.to/lastmile_qr_scan", "ios": "https://dc.lft.to/lastmile_qr_scan"}, "is_reserved": 0, "lon": -77.03347416666666, "name": "67c5cf0f7df4b2ff6bd7c0250449d8d6", "bike_id": "67c5cf0f7df4b2ff6bd7c0250449d8d6", "is_disabled": 0}, {"fusion_lat": 0.0, "fusion_lon": 0.0, "lat": 38.884943166666666, "type": "electric_scooter", "rental_uris": {"android": "https://dc.lft.to/lastmile_qr_scan", "ios": "https://dc.lft.to/lastmile_qr_scan"}, "is_reserved": 0, "lon": -77.00711533333333, "name": "4fdfbb9e46314bd68f5567fb53b674d7", "bike_id": "4fdfbb9e46314bd68f5567fb53b674d7", "is_disabled": 0}, {"fusion_lat": 0.0, "fusion_lon": 0.0, "lat": 38.90247933333333, "type": "electric_scooter", "rental_uris": {"android": "https://dc.lft.to/lastmile_qr_scan", "ios": "https://dc.lft.to/lastmile_qr_scan"}, "is_reserved": 0, "lon": -76.93763216666666, "name": "fd4106a1a8638d3e491133663833fd8b", "bike_id": "fd4106a1a8638d3e491133663833fd8b", "is_disabled": 0}, {"fusion_lat": 0.0, "fusion_lon": 0.0, "lat": 38.9190355, "type": "electric_scooter", "rental_uris": {"android": "https://dc.lft.to/lastmile_qr_scan", "ios": "https://dc.lft.to/lastmile_qr_scan"}, "is_reserved": 0, "lon": -77.041597, "name": "58095374e5857750a105f423fd43dcaf", "bike_id": "58095374e5857750a105f423fd43dcaf", "is_disabled": 0}, {"fusion_lat": 0.0, "fusion_lon": 0.0, "lat": 38.9358015, "type": "electric_scooter", "rental_uris": {"android": "https://dc.lft.to/lastmile_qr_scan", "ios": "https://dc.lft.to/lastmile_qr_scan"}, "is_reserved": 0, "lon": -77.03256, "name": "c69d77e1ef889a2c78ba21103ed186bc", "bike_id": "c69d77e1ef889a2c78ba21103ed186bc", "is_disabled": 0}, {"fusion_lat": 0.0, "fusion_lon": 0.0, "lat": 38.9953725, "type": "electric_bike", "rental_uris": {"android": "https://dc.lft.to/lastmile_qr_scan", "ios": "https://dc.lft.to/lastmile_qr_scan"}, "is_reserved": 0, "lon": -77.06943816666667, "name": "e9379e7c210d6691d5594884d71759ec", "bike_id": "e9379e7c210d6691d5594884d71759ec", "is_disabled": 0}, {"fusion_lat": 0.0, "fusion_lon": 0.0, "lat": 38.908721, "type": "electric_scooter", "rental_uris": {"android": "https://dc.lft.to/lastmile_qr_scan", "ios": "https://dc.lft.to/lastmile_qr_scan"}, "is_reserved": 0, "lon": -76.997917, "name": "94ba7335cedd8b93f899a32f43ebdf5c", "bike_id": "94ba7335cedd8b93f899a32f43ebdf5c", "is_disabled": 0}, {"fusion_lat": 0.0, "fusion_lon": 0.0, "lat": 38.9097305, "type": "electric_scooter", "rental_uris": {"android": "https://dc.lft.to/lastmile_qr_scan", "ios": "https://dc.lft.to/lastmile_qr_scan"}, "is_reserved": 0, "lon": -77.0423575, "name": "e722a7051be11aded69926f8eb0b666a", "bike_id": "e722a7051be11aded69926f8eb0b666a", "is_disabled": 0}, {"fusion_lat": 0.0, "fusion_lon": 0.0, "lat": 38.92046633333333, "type": "electric_scooter", "rental_uris": {"android": "https://dc.lft.to/lastmile_qr_scan", "ios": "https://dc.lft.to/lastmile_qr_scan"}, "is_reserved": 0, "lon": -77.0418175, "name": "d1172d068ef6915c97fcb68200fdf9f8", "bike_id": "d1172d068ef6915c97fcb68200fdf9f8", "is_disabled": 0}, {"fusion_lat": 0.0, "fusion_lon": 0.0, "lat": 38.9141725, "type": "electric_scooter", "rental_uris": {"android": "https://dc.lft.to/lastmile_qr_scan", "ios": "https://dc.lft.to/lastmile_qr_scan"}, "is_reserved": 0, "lon": -77.02273216666667, "name": "cef9cbe0a28fdb2f1562d4e934114e7b", "bike_id": "cef9cbe0a28fdb2f1562d4e934114e7b", "is_disabled": 0}, {"fusion_lat": 0.0, "fusion_lon": 0.0, "lat": 38.8963095, "type": "electric_scooter", "rental_uris": {"android": "https://dc.lft.to/lastmile_qr_scan", "ios": "https://dc.lft.to/lastmile_qr_scan"}, "is_reserved": 0, "lon": -76.98305716666667, "name": "8ddd5e838d2c7990ef8f76547c72a774", "bike_id": "8ddd5e838d2c7990ef8f76547c72a774", "is_disabled": 0}, {"fusion_lat": 0.0, "fusion_lon": 0.0, "lat": 38.87940583333334, "type": "electric_scooter", "rental_uris": {"android": "https://dc.lft.to/lastmile_qr_scan", "ios": "https://dc.lft.to/lastmile_qr_scan"}, "is_reserved": 0, "lon": -77.02155266666666, "name": "fafb009b0afd57299cfbe25a0a82a31b", "bike_id": "fafb009b0afd57299cfbe25a0a82a31b", "is_disabled": 0}, {"fusion_lat": 0.0, "fusion_lon": 0.0, "lat": 38.9008185, "type": "electric_scooter", "rental_uris": {"android": "https://dc.lft.to/lastmile_qr_scan", "ios": "https://dc.lft.to/lastmile_qr_scan"}, "is_reserved": 0, "lon": -77.0466255, "name": "8f74bf291a386feb938e3a52186cd6d8", "bike_id": "8f74bf291a386feb938e3a52186cd6d8", "is_disabled": 0}, {"fusion_lat": 0.0, "fusion_lon": 0.0, "lat": 38.9204195, "type": "electric_scooter", "rental_uris": {"android": "https://dc.lft.to/lastmile_qr_scan", "ios": "https://dc.lft.to/lastmile_qr_scan"}, "is_reserved": 0, "lon": -77.0167465, "name": "ca826a45428369953db8f4e92f201450", "bike_id": "ca826a45428369953db8f4e92f201450", "is_disabled": 0}, {"fusion_lat": 0.0, "fusion_lon": 0.0, "lat": 38.900152, "type": "electric_scooter", "rental_uris": {"android": "https://dc.lft.to/lastmile_qr_scan", "ios": "https://dc.lft.to/lastmile_qr_scan"}, "is_reserved": 0, "lon": -77.04145866666667, "name": "1456df621a24f10f8a0e15f30c11c574", "bike_id": "1456df621a24f10f8a0e15f30c11c574", "is_disabled": 0}, {"fusion_lat": 0.0, "fusion_lon": 0.0, "lat": 38.92277883333333, "type": "electric_scooter", "rental_uris": {"android": "https://dc.lft.to/lastmile_qr_scan", "ios": "https://dc.lft.to/lastmile_qr_scan"}, "is_reserved": 0, "lon": -77.04235883333334, "name": "d86c1d0a55ef55e2693f690fa4839d78", "bike_id": "d86c1d0a55ef55e2693f690fa4839d78", "is_disabled": 0}, {"fusion_lat": 0.0, "fusion_lon": 0.0, "lat": 38.894658666666665, "type": "electric_scooter", "rental_uris": {"android": "https://dc.lft.to/lastmile_qr_scan", "ios": "https://dc.lft.to/lastmile_qr_scan"}, "is_reserved": 0, "lon": -77.003424, "name": "d503d903a4e511d71424509be06532bb", "bike_id": "d503d903a4e511d71424509be06532bb", "is_disabled": 0}, {"fusion_lat": 0.0, "fusion_lon": 0.0, "lat": 38.89426866666667, "type": "electric_scooter", "rental_uris": {"android": "https://dc.lft.to/lastmile_qr_scan", "ios": "https://dc.lft.to/lastmile_qr_scan"}, "is_reserved": 0, "lon": -77.02084316666667, "name": "a6116acaefa071d31a2f6f1eabd811c1", "bike_id": "a6116acaefa071d31a2f6f1eabd811c1", "is_disabled": 0}, {"fusion_lat": 0.0, "fusion_lon": 0.0, "lat": 38.9216475, "type": "electric_scooter", "rental_uris": {"android": "https://dc.lft.to/lastmile_qr_scan", "ios": "https://dc.lft.to/lastmile_qr_scan"}, "is_reserved": 0, "lon": -77.03316133333334, "name": "1be1dc593ba79a460188790a5b9092ca", "bike_id": "1be1dc593ba79a460188790a5b9092ca", "is_disabled": 0}, {"fusion_lat": 0.0, "fusion_lon": 0.0, "lat": 38.916374833333336, "type": "electric_scooter", "rental_uris": {"android": "https://dc.lft.to/lastmile_qr_scan", "ios": "https://dc.lft.to/lastmile_qr_scan"}, "is_reserved": 0, "lon": -77.0316965, "name": "bc12cafb83b2e9d4861af9cbd2fa856e", "bike_id": "bc12cafb83b2e9d4861af9cbd2fa856e", "is_disabled": 0}, {"fusion_lat": 0.0, "fusion_lon": 0.0, "lat": 38.937014833333336, "type": "electric_scooter", "rental_uris": {"android": "https://dc.lft.to/lastmile_qr_scan", "ios": "https://dc.lft.to/lastmile_qr_scan"}, "is_reserved": 0, "lon": -77.05597516666667, "name": "cfae7f49ed9bbf1a371b5e9a52ee77a6", "bike_id": "cfae7f49ed9bbf1a371b5e9a52ee77a6", "is_disabled": 0}, {"fusion_lat": 0.0, "fusion_lon": 0.0, "lat": 38.90963033333333, "type": "electric_scooter", "rental_uris": {"android": "https://dc.lft.to/lastmile_qr_scan", "ios": "https://dc.lft.to/lastmile_qr_scan"}, "is_reserved": 0, "lon": -77.0328525, "name": "866b74d45c028c364cdf4730d29887f9", "bike_id": "866b74d45c028c364cdf4730d29887f9", "is_disabled": 0}, {"fusion_lat": 0.0, "fusion_lon": 0.0, "lat": 38.930567333333336, "type": "electric_scooter", "rental_uris": {"android": "https://dc.lft.to/lastmile_qr_scan", "ios": "https://dc.lft.to/lastmile_qr_scan"}, "is_reserved": 0, "lon": -77.03368166666667, "name": "8bdf9eacbb4ba66320c6fb0c3bba7219", "bike_id": "8bdf9eacbb4ba66320c6fb0c3bba7219", "is_disabled": 0}, {"fusion_lat": 0.0, "fusion_lon": 0.0, "lat": 38.89526016666667, "type": "electric_scooter", "rental_uris": {"android": "https://dc.lft.to/lastmile_qr_scan", "ios": "https://dc.lft.to/lastmile_qr_scan"}, "is_reserved": 0, "lon": -77.00339833333334, "name": "c40a9d2cef2c6551d5a9adf689ae07cc", "bike_id": "c40a9d2cef2c6551d5a9adf689ae07cc", "is_disabled": 0}, {"fusion_lat": 0.0, "fusion_lon": 0.0, "lat": 38.89368983333333, "type": "electric_scooter", "rental_uris": {"android": "https://dc.lft.to/lastmile_qr_scan", "ios": "https://dc.lft.to/lastmile_qr_scan"}, "is_reserved": 0, "lon": -77.01977333333333, "name": "677e641f17e1043cf23dceef9c91aacb", "bike_id": "677e641f17e1043cf23dceef9c91aacb", "is_disabled": 0}, {"fusion_lat": 0.0, "fusion_lon": 0.0, "lat": 38.9066045, "type": "electric_scooter", "rental_uris": {"android": "https://dc.lft.to/lastmile_qr_scan", "ios": "https://dc.lft.to/lastmile_qr_scan"}, "is_reserved": 0, "lon": -77.02800066666667, "name": "a837ae9e5e6f91802b51e5445ab61ff8", "bike_id": "a837ae9e5e6f91802b51e5445ab61ff8", "is_disabled": 0}, {"fusion_lat": 0.0, "fusion_lon": 0.0, "lat": 38.91792316666667, "type": "electric_scooter", "rental_uris": {"android": "https://dc.lft.to/lastmile_qr_scan", "ios": "https://dc.lft.to/lastmile_qr_scan"}, "is_reserved": 0, "lon": -77.04978133333333, "name": "497eda2ff50597894d43d7c87946a240", "bike_id": "497eda2ff50597894d43d7c87946a240", "is_disabled": 0}, {"fusion_lat": 0.0, "fusion_lon": 0.0, "lat": 38.867257, "type": "electric_scooter", "rental_uris": {"android": "https://dc.lft.to/lastmile_qr_scan", "ios": "https://dc.lft.to/lastmile_qr_scan"}, "is_reserved": 0, "lon": -76.98694733333333, "name": "23cd70483f2df90b4c0093ae51e8369f", "bike_id": "23cd70483f2df90b4c0093ae51e8369f", "is_disabled": 0}, {"fusion_lat": 0.0, "fusion_lon": 0.0, "lat": 38.92267616666667, "type": "electric_scooter", "rental_uris": {"android": "https://dc.lft.to/lastmile_qr_scan", "ios": "https://dc.lft.to/lastmile_qr_scan"}, "is_reserved": 0, "lon": -77.01910766666667, "name": "5ca2d7356601552866d57253bafab778", "bike_id": "5ca2d7356601552866d57253bafab778", "is_disabled": 0}, {"fusion_lat": 0.0, "fusion_lon": 0.0, "lat": 38.90014166666667, "type": "electric_scooter", "rental_uris": {"android": "https://dc.lft.to/lastmile_qr_scan", "ios": "https://dc.lft.to/lastmile_qr_scan"}, "is_reserved": 0, "lon": -77.030389, "name": "ca89efc3b321357369fddf41c2ab6269", "bike_id": "ca89efc3b321357369fddf41c2ab6269", "is_disabled": 0}, {"fusion_lat": 0.0, "fusion_lon": 0.0, "lat": 38.88134866666667, "type": "electric_scooter", "rental_uris": {"android": "https://dc.lft.to/lastmile_qr_scan", "ios": "https://dc.lft.to/lastmile_qr_scan"}, "is_reserved": 0, "lon": -77.02712666666666, "name": "556a7a7eb68c7aae5e495bb045fe5875", "bike_id": "556a7a7eb68c7aae5e495bb045fe5875", "is_disabled": 0}, {"fusion_lat": 0.0, "fusion_lon": 0.0, "lat": 38.922348166666666, "type": "electric_scooter", "rental_uris": {"android": "https://dc.lft.to/lastmile_qr_scan", "ios": "https://dc.lft.to/lastmile_qr_scan"}, "is_reserved": 0, "lon": -77.04264683333334, "name": "fe284f850d5f2f7e10e7a073edcee247", "bike_id": "fe284f850d5f2f7e10e7a073edcee247", "is_disabled": 0}, {"fusion_lat": 0.0, "fusion_lon": 0.0, "lat": 38.877310333333334, "type": "electric_scooter", "rental_uris": {"android": "https://dc.lft.to/lastmile_qr_scan", "ios": "https://dc.lft.to/lastmile_qr_scan"}, "is_reserved": 0, "lon": -77.00349816666666, "name": "2c929b5f8c0055e2116fd9c36a0601cb", "bike_id": "2c929b5f8c0055e2116fd9c36a0601cb", "is_disabled": 0}, {"fusion_lat": 0.0, "fusion_lon": 0.0, "lat": 38.8738285, "type": "electric_scooter", "rental_uris": {"android": "https://dc.lft.to/lastmile_qr_scan", "ios": "https://dc.lft.to/lastmile_qr_scan"}, "is_reserved": 0, "lon": -77.04349916666666, "name": "7f908d1d0dc7abec65a6f2a35fdc9ca1", "bike_id": "7f908d1d0dc7abec65a6f2a35fdc9ca1", "is_disabled": 0}, {"fusion_lat": 0.0, "fusion_lon": 0.0, "lat": 38.903845833333335, "type": "electric_scooter", "rental_uris": {"android": "https://dc.lft.to/lastmile_qr_scan", "ios": "https://dc.lft.to/lastmile_qr_scan"}, "is_reserved": 0, "lon": -77.03448166666666, "name": "20ff410e7014df69f45a4b29c5a09d0a", "bike_id": "20ff410e7014df69f45a4b29c5a09d0a", "is_disabled": 0}, {"fusion_lat": 0.0, "fusion_lon": 0.0, "lat": 38.92876833333333, "type": "electric_scooter", "rental_uris": {"android": "https://dc.lft.to/lastmile_qr_scan", "ios": "https://dc.lft.to/lastmile_qr_scan"}, "is_reserved": 0, "lon": -77.03312016666666, "name": "0ead2d5b7b075ee89641a2d2427b593d", "bike_id": "0ead2d5b7b075ee89641a2d2427b593d", "is_disabled": 0}, {"fusion_lat": 0.0, "fusion_lon": 0.0, "lat": 38.90739033333333, "type": "electric_scooter", "rental_uris": {"android": "https://dc.lft.to/lastmile_qr_scan", "ios": "https://dc.lft.to/lastmile_qr_scan"}, "is_reserved": 0, "lon": -77.045381, "name": "3cb35f8bbde014cf8b916a7aa21080cc", "bike_id": "3cb35f8bbde014cf8b916a7aa21080cc", "is_disabled": 0}, {"fusion_lat": 0.0, "fusion_lon": 0.0, "lat": 38.92269433333333, "type": "electric_scooter", "rental_uris": {"android": "https://dc.lft.to/lastmile_qr_scan", "ios": "https://dc.lft.to/lastmile_qr_scan"}, "is_reserved": 0, "lon": -77.036713, "name": "221616d35220bff70664529ef391ca51", "bike_id": "221616d35220bff70664529ef391ca51", "is_disabled": 0}, {"fusion_lat": 0.0, "fusion_lon": 0.0, "lat": 38.945580666666665, "type": "electric_scooter", "rental_uris": {"android": "https://dc.lft.to/lastmile_qr_scan", "ios": "https://dc.lft.to/lastmile_qr_scan"}, "is_reserved": 0, "lon": -77.02528633333333, "name": "69c5e6fa345d630150a59a405891322c", "bike_id": "69c5e6fa345d630150a59a405891322c", "is_disabled": 0}, {"fusion_lat": 0.0, "fusion_lon": 0.0, "lat": 38.89451533333333, "type": "electric_scooter", "rental_uris": {"android": "https://dc.lft.to/lastmile_qr_scan", "ios": "https://dc.lft.to/lastmile_qr_scan"}, "is_reserved": 0, "lon": -77.02408183333333, "name": "137b161dbb9ad0834a73ec87c7a2a3fc", "bike_id": "137b161dbb9ad0834a73ec87c7a2a3fc", "is_disabled": 0}, {"fusion_lat": 0.0, "fusion_lon": 0.0, "lat": 38.9278535, "type": "electric_scooter", "rental_uris": {"android": "https://dc.lft.to/lastmile_qr_scan", "ios": "https://dc.lft.to/lastmile_qr_scan"}, "is_reserved": 0, "lon": -77.02076416666667, "name": "59c89fe5b86f5202b57f7427e808759e", "bike_id": "59c89fe5b86f5202b57f7427e808759e", "is_disabled": 0}, {"fusion_lat": 0.0, "fusion_lon": 0.0, "lat": 38.91671016666667, "type": "electric_scooter", "rental_uris": {"android": "https://dc.lft.to/lastmile_qr_scan", "ios": "https://dc.lft.to/lastmile_qr_scan"}, "is_reserved": 0, "lon": -77.03694616666667, "name": "65def3abdf2615feaebfa120724a0a65", "bike_id": "65def3abdf2615feaebfa120724a0a65", "is_disabled": 0}, {"fusion_lat": 0.0, "fusion_lon": 0.0, "lat": 38.86248416666667, "type": "electric_scooter", "rental_uris": {"android": "https://dc.lft.to/lastmile_qr_scan", "ios": "https://dc.lft.to/lastmile_qr_scan"}, "is_reserved": 0, "lon": -76.99496716666667, "name": "2809b4aa67fdd97f441eff46744b8dae", "bike_id": "2809b4aa67fdd97f441eff46744b8dae", "is_disabled": 0}, {"fusion_lat": 0.0, "fusion_lon": 0.0, "lat": 38.905044833333335, "type": "electric_scooter", "rental_uris": {"android": "https://dc.lft.to/lastmile_qr_scan", "ios": "https://dc.lft.to/lastmile_qr_scan"}, "is_reserved": 0, "lon": -76.97951916666666, "name": "e7b7db8e1a37a051d5080c6752da39b8", "bike_id": "e7b7db8e1a37a051d5080c6752da39b8", "is_disabled": 0}, {"fusion_lat": 0.0, "fusion_lon": 0.0, "lat": 38.88726066666667, "type": "electric_scooter", "rental_uris": {"android": "https://dc.lft.to/lastmile_qr_scan", "ios": "https://dc.lft.to/lastmile_qr_scan"}, "is_reserved": 0, "lon": -77.001766, "name": "2db074fd7995ad9bf8200d789eab68f5", "bike_id": "2db074fd7995ad9bf8200d789eab68f5", "is_disabled": 0}, {"fusion_lat": 0.0, "fusion_lon": 0.0, "lat": 38.91425366666667, "type": "electric_scooter", "rental_uris": {"android": "https://dc.lft.to/lastmile_qr_scan", "ios": "https://dc.lft.to/lastmile_qr_scan"}, "is_reserved": 0, "lon": -77.01980066666667, "name": "30ac7b51c87b423c3cbdeb2a57842759", "bike_id": "30ac7b51c87b423c3cbdeb2a57842759", "is_disabled": 0}, {"fusion_lat": 0.0, "fusion_lon": 0.0, "lat": 38.93063716666666, "type": "electric_scooter", "rental_uris": {"android": "https://dc.lft.to/lastmile_qr_scan", "ios": "https://dc.lft.to/lastmile_qr_scan"}, "is_reserved": 0, "lon": -77.036358, "name": "74bba11ada20b0083ac07ca5c2f94ceb", "bike_id": "74bba11ada20b0083ac07ca5c2f94ceb", "is_disabled": 0}, {"fusion_lat": 0.0, "fusion_lon": 0.0, "lat": 38.880375666666666, "type": "electric_scooter", "rental_uris": {"android": "https://dc.lft.to/lastmile_qr_scan", "ios": "https://dc.lft.to/lastmile_qr_scan"}, "is_reserved": 0, "lon": -77.019777, "name": "cb3fcff5cc36f97ad65da0bf93757ca5", "bike_id": "cb3fcff5cc36f97ad65da0bf93757ca5", "is_disabled": 0}, {"fusion_lat": 0.0, "fusion_lon": 0.0, "lat": 38.921573, "type": "electric_scooter", "rental_uris": {"android": "https://dc.lft.to/lastmile_qr_scan", "ios": "https://dc.lft.to/lastmile_qr_scan"}, "is_reserved": 0, "lon": -77.02093916666666, "name": "e040ae17a1c5a304018aec1078de1f35", "bike_id": "e040ae17a1c5a304018aec1078de1f35", "is_disabled": 0}, {"fusion_lat": 0.0, "fusion_lon": 0.0, "lat": 38.967379666666666, "type": "electric_bike", "rental_uris": {"android": "https://dc.lft.to/lastmile_qr_scan", "ios": "https://dc.lft.to/lastmile_qr_scan"}, "is_reserved": 0, "lon": -76.96042833333334, "name": "35af11327811fcd5cd39d556a8c6aef8", "bike_id": "35af11327811fcd5cd39d556a8c6aef8", "is_disabled": 0}, {"fusion_lat": 0.0, "fusion_lon": 0.0, "lat": 38.863764, "type": "electric_scooter", "rental_uris": {"android": "https://dc.lft.to/lastmile_qr_scan", "ios": "https://dc.lft.to/lastmile_qr_scan"}, "is_reserved": 0, "lon": -76.99061433333334, "name": "dc06a9f613932e71aa9b82e0e94f75e7", "bike_id": "dc06a9f613932e71aa9b82e0e94f75e7", "is_disabled": 0}, {"fusion_lat": 0.0, "fusion_lon": 0.0, "lat": 38.914159833333336, "type": "electric_scooter", "rental_uris": {"android": "https://dc.lft.to/lastmile_qr_scan", "ios": "https://dc.lft.to/lastmile_qr_scan"}, "is_reserved": 0, "lon": -77.02114383333333, "name": "84aa35a27832f0cb100cfb3ac53ae1e2", "bike_id": "84aa35a27832f0cb100cfb3ac53ae1e2", "is_disabled": 0}, {"fusion_lat": 0.0, "fusion_lon": 0.0, "lat": 38.9031845, "type": "electric_scooter", "rental_uris": {"android": "https://dc.lft.to/lastmile_qr_scan", "ios": "https://dc.lft.to/lastmile_qr_scan"}, "is_reserved": 0, "lon": -77.04892516666666, "name": "b558c2e58cf3b8650fc83a2bcb72e051", "bike_id": "b558c2e58cf3b8650fc83a2bcb72e051", "is_disabled": 0}, {"fusion_lat": 0.0, "fusion_lon": 0.0, "lat": 38.93216016666667, "type": "electric_scooter", "rental_uris": {"android": "https://dc.lft.to/lastmile_qr_scan", "ios": "https://dc.lft.to/lastmile_qr_scan"}, "is_reserved": 0, "lon": -77.0336885, "name": "dba585045b530189f5ff72a48afed0e8", "bike_id": "dba585045b530189f5ff72a48afed0e8", "is_disabled": 0}, {"fusion_lat": 0.0, "fusion_lon": 0.0, "lat": 38.903914666666665, "type": "electric_scooter", "rental_uris": {"android": "https://dc.lft.to/lastmile_qr_scan", "ios": "https://dc.lft.to/lastmile_qr_scan"}, "is_reserved": 0, "lon": -76.98942116666667, "name": "0ab6bedb4365a9883a07d496efb0ef11", "bike_id": "0ab6bedb4365a9883a07d496efb0ef11", "is_disabled": 0}, {"fusion_lat": 0.0, "fusion_lon": 0.0, "lat": 38.887147166666665, "type": "electric_scooter", "rental_uris": {"android": "https://dc.lft.to/lastmile_qr_scan", "ios": "https://dc.lft.to/lastmile_qr_scan"}, "is_reserved": 0, "lon": -77.017733, "name": "9b76da9d1456a98bf8a0b2479018d3ca", "bike_id": "9b76da9d1456a98bf8a0b2479018d3ca", "is_disabled": 0}, {"fusion_lat": 0.0, "fusion_lon": 0.0, "lat": 38.90468583333333, "type": "electric_scooter", "rental_uris": {"android": "https://dc.lft.to/lastmile_qr_scan", "ios": "https://dc.lft.to/lastmile_qr_scan"}, "is_reserved": 0, "lon": -77.01935916666666, "name": "f7e44e5375be4c95b57dfc7142fd218b", "bike_id": "f7e44e5375be4c95b57dfc7142fd218b", "is_disabled": 0}, {"fusion_lat": 0.0, "fusion_lon": 0.0, "lat": 38.898238666666664, "type": "electric_scooter", "rental_uris": {"android": "https://dc.lft.to/lastmile_qr_scan", "ios": "https://dc.lft.to/lastmile_qr_scan"}, "is_reserved": 0, "lon": -77.033269, "name": "c854f22b2509ba9222dfac6394876343", "bike_id": "c854f22b2509ba9222dfac6394876343", "is_disabled": 0}, {"fusion_lat": 0.0, "fusion_lon": 0.0, "lat": 38.91949683333333, "type": "electric_scooter", "rental_uris": {"android": "https://dc.lft.to/lastmile_qr_scan", "ios": "https://dc.lft.to/lastmile_qr_scan"}, "is_reserved": 0, "lon": -77.02503716666666, "name": "b759d18eb221ccbaef9e15d6420ce4ff", "bike_id": "b759d18eb221ccbaef9e15d6420ce4ff", "is_disabled": 0}, {"fusion_lat": 0.0, "fusion_lon": 0.0, "lat": 38.90120916666667, "type": "electric_scooter", "rental_uris": {"android": "https://dc.lft.to/lastmile_qr_scan", "ios": "https://dc.lft.to/lastmile_qr_scan"}, "is_reserved": 0, "lon": -77.03192466666667, "name": "10e94e0b7d72462428a00175bb1dfafa", "bike_id": "10e94e0b7d72462428a00175bb1dfafa", "is_disabled": 0}, {"fusion_lat": 0.0, "fusion_lon": 0.0, "lat": 38.9098685, "type": "electric_scooter", "rental_uris": {"android": "https://dc.lft.to/lastmile_qr_scan", "ios": "https://dc.lft.to/lastmile_qr_scan"}, "is_reserved": 0, "lon": -77.04259566666667, "name": "1253f95d4d94fb847e300307e31a7f5e", "bike_id": "1253f95d4d94fb847e300307e31a7f5e", "is_disabled": 0}, {"fusion_lat": 0.0, "fusion_lon": 0.0, "lat": 38.8849955, "type": "electric_scooter", "rental_uris": {"android": "https://dc.lft.to/lastmile_qr_scan", "ios": "https://dc.lft.to/lastmile_qr_scan"}, "is_reserved": 0, "lon": -77.007262, "name": "4d4b1cd8196ac01bdfbb3182204ab776", "bike_id": "4d4b1cd8196ac01bdfbb3182204ab776", "is_disabled": 0}, {"fusion_lat": 0.0, "fusion_lon": 0.0, "lat": 38.89298766666667, "type": "electric_scooter", "rental_uris": {"android": "https://dc.lft.to/lastmile_qr_scan", "ios": "https://dc.lft.to/lastmile_qr_scan"}, "is_reserved": 0, "lon": -77.04502783333334, "name": "536d781e1a459ca84acb5568e5cb1d16", "bike_id": "536d781e1a459ca84acb5568e5cb1d16", "is_disabled": 0}, {"fusion_lat": 0.0, "fusion_lon": 0.0, "lat": 38.87819433333333, "type": "electric_scooter", "rental_uris": {"android": "https://dc.lft.to/lastmile_qr_scan", "ios": "https://dc.lft.to/lastmile_qr_scan"}, "is_reserved": 0, "lon": -76.97165, "name": "f5fc49af31718321cdb3ab3318773e1f", "bike_id": "f5fc49af31718321cdb3ab3318773e1f", "is_disabled": 0}, {"fusion_lat": 0.0, "fusion_lon": 0.0, "lat": 38.906411, "type": "electric_scooter", "rental_uris": {"android": "https://dc.lft.to/lastmile_qr_scan", "ios": "https://dc.lft.to/lastmile_qr_scan"}, "is_reserved": 0, "lon": -77.07015333333334, "name": "93fe1da605d224a8b4f2de0542e21103", "bike_id": "93fe1da605d224a8b4f2de0542e21103", "is_disabled": 0}, {"fusion_lat": 0.0, "fusion_lon": 0.0, "lat": 38.99095466666667, "type": "electric_bike", "rental_uris": {"android": "https://dc.lft.to/lastmile_qr_scan", "ios": "https://dc.lft.to/lastmile_qr_scan"}, "is_reserved": 0, "lon": -76.99366933333333, "name": "f1543047f25cc53a23bc1bddd50e6cf0", "bike_id": "f1543047f25cc53a23bc1bddd50e6cf0", "is_disabled": 0}, {"fusion_lat": 0.0, "fusion_lon": 0.0, "lat": 38.92855383333333, "type": "electric_scooter", "rental_uris": {"android": "https://dc.lft.to/lastmile_qr_scan", "ios": "https://dc.lft.to/lastmile_qr_scan"}, "is_reserved": 0, "lon": -77.03288033333334, "name": "d399a5a07ed2285a4a8b2c9e8d3fb6c4", "bike_id": "d399a5a07ed2285a4a8b2c9e8d3fb6c4", "is_disabled": 0}, {"fusion_lat": 0.0, "fusion_lon": 0.0, "lat": 38.926307, "type": "electric_scooter", "rental_uris": {"android": "https://dc.lft.to/lastmile_qr_scan", "ios": "https://dc.lft.to/lastmile_qr_scan"}, "is_reserved": 0, "lon": -77.03790733333334, "name": "db690044dac604b1f67c58151384df73", "bike_id": "db690044dac604b1f67c58151384df73", "is_disabled": 0}, {"fusion_lat": 0.0, "fusion_lon": 0.0, "lat": 38.91670216666667, "type": "electric_scooter", "rental_uris": {"android": "https://dc.lft.to/lastmile_qr_scan", "ios": "https://dc.lft.to/lastmile_qr_scan"}, "is_reserved": 0, "lon": -76.981746, "name": "4b0470052b2701abb2cfaa8cf04edd54", "bike_id": "4b0470052b2701abb2cfaa8cf04edd54", "is_disabled": 0}, {"fusion_lat": 0.0, "fusion_lon": 0.0, "lat": 38.9266325, "type": "electric_scooter", "rental_uris": {"android": "https://dc.lft.to/lastmile_qr_scan", "ios": "https://dc.lft.to/lastmile_qr_scan"}, "is_reserved": 0, "lon": -77.03732233333334, "name": "82417dae9b64ea8b068f0390252d56da", "bike_id": "82417dae9b64ea8b068f0390252d56da", "is_disabled": 0}, {"fusion_lat": 0.0, "fusion_lon": 0.0, "lat": 38.90294883333333, "type": "electric_scooter", "rental_uris": {"android": "https://dc.lft.to/lastmile_qr_scan", "ios": "https://dc.lft.to/lastmile_qr_scan"}, "is_reserved": 0, "lon": -77.04678316666667, "name": "f668fc14dc800802c1bcc54fd8a840e2", "bike_id": "f668fc14dc800802c1bcc54fd8a840e2", "is_disabled": 0}, {"fusion_lat": 0.0, "fusion_lon": 0.0, "lat": 38.93439, "type": "electric_scooter", "rental_uris": {"android": "https://dc.lft.to/lastmile_qr_scan", "ios": "https://dc.lft.to/lastmile_qr_scan"}, "is_reserved": 0, "lon": -77.03285266666667, "name": "1d0d8c1fa88c07e33b69f61a5c407136", "bike_id": "1d0d8c1fa88c07e33b69f61a5c407136", "is_disabled": 0}, {"fusion_lat": 0.0, "fusion_lon": 0.0, "lat": 38.9170245, "type": "electric_scooter", "rental_uris": {"android": "https://dc.lft.to/lastmile_qr_scan", "ios": "https://dc.lft.to/lastmile_qr_scan"}, "is_reserved": 0, "lon": -77.03584766666667, "name": "6ca6ee058ded7d8904d38e9871b248bf", "bike_id": "6ca6ee058ded7d8904d38e9871b248bf", "is_disabled": 0}, {"fusion_lat": 0.0, "fusion_lon": 0.0, "lat": 38.881209166666665, "type": "electric_scooter", "rental_uris": {"android": "https://dc.lft.to/lastmile_qr_scan", "ios": "https://dc.lft.to/lastmile_qr_scan"}, "is_reserved": 0, "lon": -77.016699, "name": "02f6f89c54f6efdb1178e7501a8d3e6d", "bike_id": "02f6f89c54f6efdb1178e7501a8d3e6d", "is_disabled": 0}, {"fusion_lat": 0.0, "fusion_lon": 0.0, "lat": 38.92560316666667, "type": "electric_scooter", "rental_uris": {"android": "https://dc.lft.to/lastmile_qr_scan", "ios": "https://dc.lft.to/lastmile_qr_scan"}, "is_reserved": 0, "lon": -77.0376125, "name": "205f197dfb9197619375a298348060f1", "bike_id": "205f197dfb9197619375a298348060f1", "is_disabled": 0}, {"fusion_lat": 0.0, "fusion_lon": 0.0, "lat": 38.90289583333333, "type": "electric_scooter", "rental_uris": {"android": "https://dc.lft.to/lastmile_qr_scan", "ios": "https://dc.lft.to/lastmile_qr_scan"}, "is_reserved": 0, "lon": -77.0333215, "name": "3d74ccdd72ad48737ad72f1ad7186d2b", "bike_id": "3d74ccdd72ad48737ad72f1ad7186d2b", "is_disabled": 0}, {"fusion_lat": 0.0, "fusion_lon": 0.0, "lat": 38.917727166666666, "type": "electric_scooter", "rental_uris": {"android": "https://dc.lft.to/lastmile_qr_scan", "ios": "https://dc.lft.to/lastmile_qr_scan"}, "is_reserved": 0, "lon": -77.01497016666667, "name": "9663cb7c22423b07ec6c04bd582e9cba", "bike_id": "9663cb7c22423b07ec6c04bd582e9cba", "is_disabled": 0}, {"fusion_lat": 0.0, "fusion_lon": 0.0, "lat": 38.936750333333336, "type": "electric_bike", "rental_uris": {"android": "https://dc.lft.to/lastmile_qr_scan", "ios": "https://dc.lft.to/lastmile_qr_scan"}, "is_reserved": 0, "lon": -76.9906305, "name": "f075226ea6b23511837bdb63bd6b7529", "bike_id": "f075226ea6b23511837bdb63bd6b7529", "is_disabled": 0}, {"fusion_lat": 0.0, "fusion_lon": 0.0, "lat": 38.899116166666666, "type": "electric_scooter", "rental_uris": {"android": "https://dc.lft.to/lastmile_qr_scan", "ios": "https://dc.lft.to/lastmile_qr_scan"}, "is_reserved": 0, "lon": -77.044738, "name": "508c6e018ac536c0e6aa2bbb9344df70", "bike_id": "508c6e018ac536c0e6aa2bbb9344df70", "is_disabled": 0}, {"fusion_lat": 0.0, "fusion_lon": 0.0, "lat": 38.908014, "type": "electric_scooter", "rental_uris": {"android": "https://dc.lft.to/lastmile_qr_scan", "ios": "https://dc.lft.to/lastmile_qr_scan"}, "is_reserved": 0, "lon": -77.04173616666667, "name": "074c701aab9453a65ec4a251e3bcc9d2", "bike_id": "074c701aab9453a65ec4a251e3bcc9d2", "is_disabled": 0}, {"fusion_lat": 0.0, "fusion_lon": 0.0, "lat": 38.901337, "type": "electric_scooter", "rental_uris": {"android": "https://dc.lft.to/lastmile_qr_scan", "ios": "https://dc.lft.to/lastmile_qr_scan"}, "is_reserved": 0, "lon": -77.0300085, "name": "384bedc3fc3a4b281973d96fecc3ec36", "bike_id": "384bedc3fc3a4b281973d96fecc3ec36", "is_disabled": 0}, {"fusion_lat": 0.0, "fusion_lon": 0.0, "lat": 38.89762066666667, "type": "electric_scooter", "rental_uris": {"android": "https://dc.lft.to/lastmile_qr_scan", "ios": "https://dc.lft.to/lastmile_qr_scan"}, "is_reserved": 0, "lon": -77.02991683333333, "name": "fe6e4106ecd5af401c534e7fac41c74e", "bike_id": "fe6e4106ecd5af401c534e7fac41c74e", "is_disabled": 0}, {"fusion_lat": 0.0, "fusion_lon": 0.0, "lat": 38.922529, "type": "electric_scooter", "rental_uris": {"android": "https://dc.lft.to/lastmile_qr_scan", "ios": "https://dc.lft.to/lastmile_qr_scan"}, "is_reserved": 0, "lon": -77.04243666666666, "name": "bfd2e70fb6553dcb14ecd55502382b86", "bike_id": "bfd2e70fb6553dcb14ecd55502382b86", "is_disabled": 0}, {"fusion_lat": 0.0, "fusion_lon": 0.0, "lat": 38.924193333333335, "type": "electric_scooter", "rental_uris": {"android": "https://dc.lft.to/lastmile_qr_scan", "ios": "https://dc.lft.to/lastmile_qr_scan"}, "is_reserved": 0, "lon": -77.01942116666666, "name": "156e0dced3f43c680bb0d878c8476295", "bike_id": "156e0dced3f43c680bb0d878c8476295", "is_disabled": 0}, {"fusion_lat": 0.0, "fusion_lon": 0.0, "lat": 38.928956166666666, "type": "electric_scooter", "rental_uris": {"android": "https://dc.lft.to/lastmile_qr_scan", "ios": "https://dc.lft.to/lastmile_qr_scan"}, "is_reserved": 0, "lon": -77.01646716666667, "name": "f70ba3556dba2f766b2ca3ba009f25f0", "bike_id": "f70ba3556dba2f766b2ca3ba009f25f0", "is_disabled": 0}, {"fusion_lat": 0.0, "fusion_lon": 0.0, "lat": 38.93167116666667, "type": "electric_scooter", "rental_uris": {"android": "https://dc.lft.to/lastmile_qr_scan", "ios": "https://dc.lft.to/lastmile_qr_scan"}, "is_reserved": 0, "lon": -77.0361595, "name": "82703d71e1afd735ec64009208c88531", "bike_id": "82703d71e1afd735ec64009208c88531", "is_disabled": 0}, {"fusion_lat": 0.0, "fusion_lon": 0.0, "lat": 38.884124, "type": "electric_scooter", "rental_uris": {"android": "https://dc.lft.to/lastmile_qr_scan", "ios": "https://dc.lft.to/lastmile_qr_scan"}, "is_reserved": 0, "lon": -76.94822433333333, "name": "28f4f5f29cff591a4c7deab58405761d", "bike_id": "28f4f5f29cff591a4c7deab58405761d", "is_disabled": 0}, {"fusion_lat": 0.0, "fusion_lon": 0.0, "lat": 38.8988465, "type": "electric_scooter", "rental_uris": {"android": "https://dc.lft.to/lastmile_qr_scan", "ios": "https://dc.lft.to/lastmile_qr_scan"}, "is_reserved": 0, "lon": -76.9317855, "name": "f61ef51fdb6b4b93b3cd7176767d46b3", "bike_id": "f61ef51fdb6b4b93b3cd7176767d46b3", "is_disabled": 0}, {"fusion_lat": 0.0, "fusion_lon": 0.0, "lat": 38.891979666666664, "type": "electric_scooter", "rental_uris": {"android": "https://dc.lft.to/lastmile_qr_scan", "ios": "https://dc.lft.to/lastmile_qr_scan"}, "is_reserved": 0, "lon": -77.023816, "name": "9c6cd4494a1ed9da8b55f5dbb3139b8e", "bike_id": "9c6cd4494a1ed9da8b55f5dbb3139b8e", "is_disabled": 0}, {"fusion_lat": 0.0, "fusion_lon": 0.0, "lat": 38.830991, "type": "electric_bike", "rental_uris": {"android": "https://dc.lft.to/lastmile_qr_scan", "ios": "https://dc.lft.to/lastmile_qr_scan"}, "is_reserved": 0, "lon": -77.04288033333333, "name": "c70f51a2efd840a8609ea374e8283492", "bike_id": "c70f51a2efd840a8609ea374e8283492", "is_disabled": 0}, {"fusion_lat": 0.0, "fusion_lon": 0.0, "lat": 38.8963035, "type": "electric_scooter", "rental_uris": {"android": "https://dc.lft.to/lastmile_qr_scan", "ios": "https://dc.lft.to/lastmile_qr_scan"}, "is_reserved": 0, "lon": -77.0261825, "name": "2ee359e8a7b3ef026efa27f8256d54a5", "bike_id": "2ee359e8a7b3ef026efa27f8256d54a5", "is_disabled": 0}, {"fusion_lat": 0.0, "fusion_lon": 0.0, "lat": 38.92870716666667, "type": "electric_scooter", "rental_uris": {"android": "https://dc.lft.to/lastmile_qr_scan", "ios": "https://dc.lft.to/lastmile_qr_scan"}, "is_reserved": 0, "lon": -77.0324725, "name": "0e31c9a6875ff3985d2f733f3933bf22", "bike_id": "0e31c9a6875ff3985d2f733f3933bf22", "is_disabled": 0}, {"fusion_lat": 0.0, "fusion_lon": 0.0, "lat": 39.056366, "type": "electric_bike", "rental_uris": {"android": "https://dc.lft.to/lastmile_qr_scan", "ios": "https://dc.lft.to/lastmile_qr_scan"}, "is_reserved": 0, "lon": -77.125228, "name": "9ebd337d9eb9d9822c9692779cc4b036", "bike_id": "9ebd337d9eb9d9822c9692779cc4b036", "is_disabled": 0}, {"fusion_lat": 0.0, "fusion_lon": 0.0, "lat": 38.90400566666667, "type": "electric_scooter", "rental_uris": {"android": "https://dc.lft.to/lastmile_qr_scan", "ios": "https://dc.lft.to/lastmile_qr_scan"}, "is_reserved": 0, "lon": -77.064989, "name": "287673dc2bed4af6f80d4d5b81d12ee0", "bike_id": "287673dc2bed4af6f80d4d5b81d12ee0", "is_disabled": 0}, {"fusion_lat": 0.0, "fusion_lon": 0.0, "lat": 38.89858783333333, "type": "electric_scooter", "rental_uris": {"android": "https://dc.lft.to/lastmile_qr_scan", "ios": "https://dc.lft.to/lastmile_qr_scan"}, "is_reserved": 0, "lon": -76.946371, "name": "42666387e4d07d2e1ca1ba02854a8c0e", "bike_id": "42666387e4d07d2e1ca1ba02854a8c0e", "is_disabled": 0}, {"fusion_lat": 0.0, "fusion_lon": 0.0, "lat": 38.90548066666667, "type": "electric_scooter", "rental_uris": {"android": "https://dc.lft.to/lastmile_qr_scan", "ios": "https://dc.lft.to/lastmile_qr_scan"}, "is_reserved": 0, "lon": -77.04163933333334, "name": "1103c4f56f74a6a1bbc7fa7d42f44f25", "bike_id": "1103c4f56f74a6a1bbc7fa7d42f44f25", "is_disabled": 0}, {"fusion_lat": 0.0, "fusion_lon": 0.0, "lat": 38.93367833333333, "type": "electric_scooter", "rental_uris": {"android": "https://dc.lft.to/lastmile_qr_scan", "ios": "https://dc.lft.to/lastmile_qr_scan"}, "is_reserved": 0, "lon": -77.05723383333333, "name": "158ae3783c79cdcfc46fd2a95f962e52", "bike_id": "158ae3783c79cdcfc46fd2a95f962e52", "is_disabled": 0}, {"fusion_lat": 0.0, "fusion_lon": 0.0, "lat": 38.935830333333335, "type": "electric_scooter", "rental_uris": {"android": "https://dc.lft.to/lastmile_qr_scan", "ios": "https://dc.lft.to/lastmile_qr_scan"}, "is_reserved": 0, "lon": -77.03756983333334, "name": "59fa61abfefc9ee2e576deb2055c2a9b", "bike_id": "59fa61abfefc9ee2e576deb2055c2a9b", "is_disabled": 0}, {"fusion_lat": 0.0, "fusion_lon": 0.0, "lat": 38.90258633333333, "type": "electric_scooter", "rental_uris": {"android": "https://dc.lft.to/lastmile_qr_scan", "ios": "https://dc.lft.to/lastmile_qr_scan"}, "is_reserved": 0, "lon": -77.046505, "name": "371fcfa2286bbc285a14ddfda6515f8a", "bike_id": "371fcfa2286bbc285a14ddfda6515f8a", "is_disabled": 0}, {"fusion_lat": 0.0, "fusion_lon": 0.0, "lat": 38.91553483333333, "type": "electric_scooter", "rental_uris": {"android": "https://dc.lft.to/lastmile_qr_scan", "ios": "https://dc.lft.to/lastmile_qr_scan"}, "is_reserved": 0, "lon": -77.02411083333334, "name": "bd746d3b9a9d6cc5d48d0f3a37d5d543", "bike_id": "bd746d3b9a9d6cc5d48d0f3a37d5d543", "is_disabled": 0}, {"fusion_lat": 0.0, "fusion_lon": 0.0, "lat": 38.914021166666664, "type": "electric_scooter", "rental_uris": {"android": "https://dc.lft.to/lastmile_qr_scan", "ios": "https://dc.lft.to/lastmile_qr_scan"}, "is_reserved": 0, "lon": -77.02155283333333, "name": "4facee0e175362d24159ccd2b7fb6702", "bike_id": "4facee0e175362d24159ccd2b7fb6702", "is_disabled": 0}, {"fusion_lat": 0.0, "fusion_lon": 0.0, "lat": 38.90565633333333, "type": "electric_scooter", "rental_uris": {"android": "https://dc.lft.to/lastmile_qr_scan", "ios": "https://dc.lft.to/lastmile_qr_scan"}, "is_reserved": 0, "lon": -77.032354, "name": "3646fb34474785bb80b27c3607e26233", "bike_id": "3646fb34474785bb80b27c3607e26233", "is_disabled": 0}, {"fusion_lat": 0.0, "fusion_lon": 0.0, "lat": 38.94334933333333, "type": "electric_scooter", "rental_uris": {"android": "https://dc.lft.to/lastmile_qr_scan", "ios": "https://dc.lft.to/lastmile_qr_scan"}, "is_reserved": 0, "lon": -77.0606015, "name": "52ef7515a558535e7c5d9c9558ec5d9c", "bike_id": "52ef7515a558535e7c5d9c9558ec5d9c", "is_disabled": 0}, {"fusion_lat": 0.0, "fusion_lon": 0.0, "lat": 38.90864033333333, "type": "electric_scooter", "rental_uris": {"android": "https://dc.lft.to/lastmile_qr_scan", "ios": "https://dc.lft.to/lastmile_qr_scan"}, "is_reserved": 0, "lon": -77.024553, "name": "181a8d59ec8f63d2c445375cf62be2e1", "bike_id": "181a8d59ec8f63d2c445375cf62be2e1", "is_disabled": 0}, {"fusion_lat": 0.0, "fusion_lon": 0.0, "lat": 38.921074833333336, "type": "electric_scooter", "rental_uris": {"android": "https://dc.lft.to/lastmile_qr_scan", "ios": "https://dc.lft.to/lastmile_qr_scan"}, "is_reserved": 0, "lon": -77.04197716666667, "name": "6ee5718ee50f94dc3ffc219d0f52206b", "bike_id": "6ee5718ee50f94dc3ffc219d0f52206b", "is_disabled": 0}, {"fusion_lat": 0.0, "fusion_lon": 0.0, "lat": 38.861396666666664, "type": "electric_scooter", "rental_uris": {"android": "https://dc.lft.to/lastmile_qr_scan", "ios": "https://dc.lft.to/lastmile_qr_scan"}, "is_reserved": 0, "lon": -76.97160716666667, "name": "8ffaa50171abc2332dbbfc648a9e5701", "bike_id": "8ffaa50171abc2332dbbfc648a9e5701", "is_disabled": 0},