{"data": {"bikes": [{"bike_id": "1d120a078f5e26b829c5f0d9655d57d9", "type": "electric_scooter", "is_disabled": 0, "lat": 38.933622166666666, "rental_uris": {"ios": "https://dc.lft.to/lastmile_qr_scan", "android": "https://dc.lft.to/lastmile_qr_scan"}, "is_reserved": 0, "fusion_lon": 0.0, "fusion_lat": 0.0, "lon": -77.02649383333333, "name": "1d120a078f5e26b829c5f0d9655d57d9"}, {"bike_id": "9f8f59c9e66a44129ff1d85d43a8d476", "type": "electric_bike", "is_disabled": 0, "lat": 38.899983666666664, "rental_uris": {"ios": "https://dc.lft.to/lastmile_qr_scan", "android": "https://dc.lft.to/lastmile_qr_scan"}, "is_reserved": 0, "fusion_lon": 0.0, "fusion_lat": 0.0, "lon": -77.00623083333333, "name": "9f8f59c9e66a44129ff1d85d43a8d476"}, {"bike_id": "d993db21f50226610b54d7538e4a9993", "type": "electric_scooter", "is_disabled": 0, "lat": 38.92480783333333, "rental_uris": {"ios": "https://dc.lft.to/lastmile_qr_scan", "android": "https://dc.lft.to/lastmile_qr_scan"}, "is_reserved": 0, "fusion_lon": 0.0, "fusion_lat": 0.0, "lon": -77.03177533333333, "name": "d993db21f50226610b54d7538e4a9993"}, {"bike_id": "5ea2e9e212ab176bfa5dd8ca14727334", "type": "electric_bike", "is_disabled": 0, "lat": 38.9876795, "rental_uris": {"ios": "https://dc.lft.to/lastmile_qr_scan", "android": "https://dc.lft.to/lastmile_qr_scan"}, "is_reserved": 0, "fusion_lon": 0.0, "fusion_lat": 0.0, "lon": -77.140626, "name": "5ea2e9e212ab176bfa5dd8ca14727334"}, {"bike_id": "3a93c30fadcb3f50e781861642c496d1", "type": "electric_scooter", "is_disabled": 0, "lat": 38.90078283333333, "rental_uris": {"ios": "https://dc.lft.to/lastmile_qr_scan", "android": "https://dc.lft.to/lastmile_qr_scan"}, "is_reserved": 0, "fusion_lon": 0.0, "fusion_lat": 0.0, "lon": -77.01732766666667, "name": "3a93c30fadcb3f50e781861642c496d1"}, {"bike_id": "677edb62bca571d586ce45b8f4c738ff", "type": "electric_scooter", "is_disabled": 0, "lat": 38.92332716666667, "rental_uris": {"ios": "https://dc.lft.to/lastmile_qr_scan", "android": "https://dc.lft.to/lastmile_qr_scan"}, "is_reserved": 0, "fusion_lon": 0.0, "fusion_lat": 0.0, "lon": -77.008921, "name": "677edb62bca571d586ce45b8f4c738ff"}, {"bike_id": "3275b51b4625e1ee7db1973bfaf767b0", "type": "electric_scooter", "is_disabled": 0, "lat": 38.91653816666667, "rental_uris": {"ios": "https://dc.lft.to/lastmile_qr_scan", "android": "https://dc.lft.to/lastmile_qr_scan"}, "is_reserved": 0, "fusion_lon": 0.0, "fusion_lat": 0.0, "lon": -76.979112, "name": "3275b51b4625e1ee7db1973bfaf767b0"}, {"bike_id": "a9e3339243da58759029aa8b194125e1", "type": "electric_scooter", "is_disabled": 0, "lat": 38.90279683333333, "rental_uris": {"ios": "https://dc.lft.to/lastmile_qr_scan", "android": "https://dc.lft.to/lastmile_qr_scan"}, "is_reserved": 0, "fusion_lon": 0.0, "fusion_lat": 0.0, "lon": -77.04862966666667, "name": "a9e3339243da58759029aa8b194125e1"}, {"bike_id": "c04694dbba878a61a813824d8e5be449", "type": "electric_bike", "is_disabled": 0, "lat": 38.820002333333335, "rental_uris": {"ios": "https://dc.lft.to/lastmile_qr_scan", "android": "https://dc.lft.to/lastmile_qr_scan"}, "is_reserved": 0, "fusion_lon": 0.0, "fusion_lat": 0.0, "lon": -76.99814916666666, "name": "c04694dbba878a61a813824d8e5be449"}, {"bike_id": "1a0cbd37fac1974fc1cb84ada7444df6", "type": "electric_scooter", "is_disabled": 0, "lat": 38.916480666666665, "rental_uris": {"ios": "https://dc.lft.to/lastmile_qr_scan", "android": "https://dc.lft.to/lastmile_qr_scan"}, "is_reserved": 0, "fusion_lon": 0.0, "fusion_lat": 0.0, "lon": -77.0242105, "name": "1a0cbd37fac1974fc1cb84ada7444df6"}, {"bike_id": "b24ae82c0382a882376cb19c2f744f86", "type": "electric_scooter", "is_disabled": 0, "lat": 38.917124333333334, "rental_uris": {"ios": "https://dc.lft.to/lastmile_qr_scan", "android": "https://dc.lft.to/lastmile_qr_scan"}, "is_reserved": 0, "fusion_lon": 0.0, "fusion_lat": 0.0, "lon": -77.03492566666667, "name": "b24ae82c0382a882376cb19c2f744f86"}, {"bike_id": "de1e0afaa8889af054edeccc68c4c45b", "type": "electric_bike", "is_disabled": 0, "lat": 39.057848666666665, "rental_uris": {"ios": "https://dc.lft.to/lastmile_qr_scan", "android": "https://dc.lft.to/lastmile_qr_scan"}, "is_reserved": 0, "fusion_lon": 0.0, "fusion_lat": 0.0, "lon": -77.15018583333334, "name": "de1e0afaa8889af054edeccc68c4c45b"}, {"bike_id": "60afc899052b5f0be58874ca3e22c362", "type": "electric_scooter", "is_disabled": 0, "lat": 38.916896, "rental_uris": {"ios": "https://dc.lft.to/lastmile_qr_scan", "android": "https://dc.lft.to/lastmile_qr_scan"}, "is_reserved": 0, "fusion_lon": 0.0, "fusion_lat": 0.0, "lon": -77.0251765, "name": "60afc899052b5f0be58874ca3e22c362"}, {"bike_id": "ef5d2149e901b80b14ae9c5d5af5d393", "type": "electric_scooter", "is_disabled": 0, "lat": 38.9184645, "rental_uris": {"ios": "https://dc.lft.to/lastmile_qr_scan", "android": "https://dc.lft.to/lastmile_qr_scan"}, "is_reserved": 0, "fusion_lon": 0.0, "fusion_lat": 0.0, "lon": -76.965594, "name": "ef5d2149e901b80b14ae9c5d5af5d393"}, {"bike_id": "85fc509e66201663af4477f10b7ccf38", "type": "electric_scooter", "is_disabled": 0, "lat": 38.856962, "rental_uris": {"ios": "https://dc.lft.to/lastmile_qr_scan", "android": "https://dc.lft.to/lastmile_qr_scan"}, "is_reserved": 0, "fusion_lon": 0.0, "fusion_lat": 0.0, "lon": -76.98962316666666, "name": "85fc509e66201663af4477f10b7ccf38"}, {"bike_id": "1ed9003ec9af312a9b5621bc8a18063c", "type": "electric_scooter", "is_disabled": 0, "lat": 38.90117033333333, "rental_uris": {"ios": "https://dc.lft.to/lastmile_qr_scan", "android": "https://dc.lft.to/lastmile_qr_scan"}, "is_reserved": 0, "fusion_lon": 0.0, "fusion_lat": 0.0, "lon": -77.0280255, "name": "1ed9003ec9af312a9b5621bc8a18063c"}, {"bike_id": "dca1c603fdfdf359a2adec0d3c8fa7f9", "type": "electric_scooter", "is_disabled": 0, "lat": 38.91843683333333, "rental_uris": {"ios": "https://dc.lft.to/lastmile_qr_scan", "android": "https://dc.lft.to/lastmile_qr_scan"}, "is_reserved": 0, "fusion_lon": 0.0, "fusion_lat": 0.0, "lon": -76.96557366666667, "name": "dca1c603fdfdf359a2adec0d3c8fa7f9"}, {"bike_id": "13c29a6e4b71470aeb46dd778fbff6af", "type": "electric_scooter", "is_disabled": 0, "lat": 38.90528583333333, "rental_uris": {"ios": "https://dc.lft.to/lastmile_qr_scan", "android": "https://dc.lft.to/lastmile_qr_scan"}, "is_reserved": 0, "fusion_lon": 0.0, "fusion_lat": 0.0, "lon": -77.050143, "name": "13c29a6e4b71470aeb46dd778fbff6af"}, {"bike_id": "71e97c3099205f05fae55fa053aa2517", "type": "electric_scooter", "is_disabled": 0, "lat": 38.90262583333333, "rental_uris": {"ios": "https://dc.lft.to/lastmile_qr_scan", "android": "https://dc.lft.to/lastmile_qr_scan"}, "is_reserved": 0, "fusion_lon": 0.0, "fusion_lat": 0.0, "lon": -77.03008983333334, "name": "71e97c3099205f05fae55fa053aa2517"}, {"bike_id": "73ed5115a9082dc1e9844e479f79a7be", "type": "electric_scooter", "is_disabled": 0, "lat": 38.903381333333336, "rental_uris": {"ios": "https://dc.lft.to/lastmile_qr_scan", "android": "https://dc.lft.to/lastmile_qr_scan"}, "is_reserved": 0, "fusion_lon": 0.0, "fusion_lat": 0.0, "lon": -77.01628266666667, "name": "73ed5115a9082dc1e9844e479f79a7be"}, {"bike_id": "d5df6e4e5805fc6027828d82c01d0f3a", "type": "electric_scooter", "is_disabled": 0, "lat": 38.900709, "rental_uris": {"ios": "https://dc.lft.to/lastmile_qr_scan", "android": "https://dc.lft.to/lastmile_qr_scan"}, "is_reserved": 0, "fusion_lon": 0.0, "fusion_lat": 0.0, "lon": -76.99015883333334, "name": "d5df6e4e5805fc6027828d82c01d0f3a"}, {"bike_id": "e78f42bb173de16a6d7165f2e3bd1434", "type": "electric_scooter", "is_disabled": 0, "lat": 38.85199683333333, "rental_uris": {"ios": "https://dc.lft.to/lastmile_qr_scan", "android": "https://dc.lft.to/lastmile_qr_scan"}, "is_reserved": 0, "fusion_lon": 0.0, "fusion_lat": 0.0, "lon": -76.98561183333334, "name": "e78f42bb173de16a6d7165f2e3bd1434"}, {"bike_id": "43ed7bc7d4baae7736b5cec43a6be563", "type": "electric_scooter", "is_disabled": 0, "lat": 38.87112366666667, "rental_uris": {"ios": "https://dc.lft.to/lastmile_qr_scan", "android": "https://dc.lft.to/lastmile_qr_scan"}, "is_reserved": 0, "fusion_lon": 0.0, "fusion_lat": 0.0, "lon": -76.9824625, "name": "43ed7bc7d4baae7736b5cec43a6be563"}, {"bike_id": "599d078bb246647d0d17b785f979709c", "type": "electric_scooter", "is_disabled": 0, "lat": 38.90381216666667, "rental_uris": {"ios": "https://dc.lft.to/lastmile_qr_scan", "android": "https://dc.lft.to/lastmile_qr_scan"}, "is_reserved": 0, "fusion_lon": 0.0, "fusion_lat": 0.0, "lon": -77.00892966666666, "name": "599d078bb246647d0d17b785f979709c"}, {"bike_id": "28e4d00a5c404c98f2e249d1e36b484b", "type": "electric_scooter", "is_disabled": 0, "lat": 38.87448033333333, "rental_uris": {"ios": "https://dc.lft.to/lastmile_qr_scan", "android": "https://dc.lft.to/lastmile_qr_scan"}, "is_reserved": 0, "fusion_lon": 0.0, "fusion_lat": 0.0, "lon": -77.00927366666667, "name": "28e4d00a5c404c98f2e249d1e36b484b"}, {"bike_id": "4d139fe1eb458c19336daabfe5b1f184", "type": "electric_scooter", "is_disabled": 0, "lat": 38.87629483333333, "rental_uris": {"ios": "https://dc.lft.to/lastmile_qr_scan", "android": "https://dc.lft.to/lastmile_qr_scan"}, "is_reserved": 0, "fusion_lon": 0.0, "fusion_lat": 0.0, "lon": -76.96526866666666, "name": "4d139fe1eb458c19336daabfe5b1f184"}, {"bike_id": "b8c0289dbdf970b527e9ad37dd462ed5", "type": "electric_scooter", "is_disabled": 0, "lat": 38.9303155, "rental_uris": {"ios": "https://dc.lft.to/lastmile_qr_scan", "android": "https://dc.lft.to/lastmile_qr_scan"}, "is_reserved": 0, "fusion_lon": 0.0, "fusion_lat": 0.0, "lon": -77.02971183333334, "name": "b8c0289dbdf970b527e9ad37dd462ed5"}, {"bike_id": "c7fd78e900fc57b9aed8c7c745db9ad5", "type": "electric_scooter", "is_disabled": 0, "lat": 38.90692266666667, "rental_uris": {"ios": "https://dc.lft.to/lastmile_qr_scan", "android": "https://dc.lft.to/lastmile_qr_scan"}, "is_reserved": 0, "fusion_lon": 0.0, "fusion_lat": 0.0, "lon": -77.04493216666667, "name": "c7fd78e900fc57b9aed8c7c745db9ad5"}, {"bike_id": "9ad7f875fc736e4debdd286bd2fda760", "type": "electric_scooter", "is_disabled": 0, "lat": 38.92054366666667, "rental_uris": {"ios": "https://dc.lft.to/lastmile_qr_scan", "android": "https://dc.lft.to/lastmile_qr_scan"}, "is_reserved": 0, "fusion_lon": 0.0, "fusion_lat": 0.0, "lon": -76.99874483333333, "name": "9ad7f875fc736e4debdd286bd2fda760"}, {"bike_id": "e8cfd34830a34cf542a7e3554fb017be", "type": "electric_scooter", "is_disabled": 0, "lat": 38.956108, "rental_uris": {"ios": "https://dc.lft.to/lastmile_qr_scan", "android": "https://dc.lft.to/lastmile_qr_scan"}, "is_reserved": 0, "fusion_lon": 0.0, "fusion_lat": 0.0, "lon": -77.0101655, "name": "e8cfd34830a34cf542a7e3554fb017be"}, {"bike_id": "b01b9cb2c5fefb9def3c7a32c2dbbfa7", "type": "electric_scooter", "is_disabled": 0, "lat": 38.90235533333333, "rental_uris": {"ios": "https://dc.lft.to/lastmile_qr_scan", "android": "https://dc.lft.to/lastmile_qr_scan"}, "is_reserved": 0, "fusion_lon": 0.0, "fusion_lat": 0.0, "lon": -77.0534295, "name": "b01b9cb2c5fefb9def3c7a32c2dbbfa7"}, {"bike_id": "d22c1b607167c5c4d85087a691c5b7a2", "type": "electric_scooter", "is_disabled": 0, "lat": 38.93951916666666, "rental_uris": {"ios": "https://dc.lft.to/lastmile_qr_scan", "android": "https://dc.lft.to/lastmile_qr_scan"}, "is_reserved": 0, "fusion_lon": 0.0, "fusion_lat": 0.0, "lon": -77.0608035, "name": "d22c1b607167c5c4d85087a691c5b7a2"}, {"bike_id": "00c3276c4f4a05de31bde5ce2188cb2b", "type": "electric_scooter", "is_disabled": 0, "lat": 38.876488333333334, "rental_uris": {"ios": "https://dc.lft.to/lastmile_qr_scan", "android": "https://dc.lft.to/lastmile_qr_scan"}, "is_reserved": 0, "fusion_lon": 0.0, "fusion_lat": 0.0, "lon": -77.008261, "name": "00c3276c4f4a05de31bde5ce2188cb2b"}, {"bike_id": "32a09bd6361f1314ae27d33ad8afb6de", "type": "electric_scooter", "is_disabled": 0, "lat": 38.94010516666667, "rental_uris": {"ios": "https://dc.lft.to/lastmile_qr_scan", "android": "https://dc.lft.to/lastmile_qr_scan"}, "is_reserved": 0, "fusion_lon": 0.0, "fusion_lat": 0.0, "lon": -77.02645916666667, "name": "32a09bd6361f1314ae27d33ad8afb6de"}, {"bike_id": "24766ef8caa159cdc8f8c528c270a3d4", "type": "electric_scooter", "is_disabled": 0, "lat": 38.917238833333336, "rental_uris": {"ios": "https://dc.lft.to/lastmile_qr_scan", "android": "https://dc.lft.to/lastmile_qr_scan"}, "is_reserved": 0, "fusion_lon": 0.0, "fusion_lat": 0.0, "lon": -77.01911666666666, "name": "24766ef8caa159cdc8f8c528c270a3d4"}, {"bike_id": "0fd090153f7508e1ee3e30d442100d2f", "type": "electric_scooter", "is_disabled": 0, "lat": 38.9137885, "rental_uris": {"ios": "https://dc.lft.to/lastmile_qr_scan", "android": "https://dc.lft.to/lastmile_qr_scan"}, "is_reserved": 0, "fusion_lon": 0.0, "fusion_lat": 0.0, "lon": -77.01711433333334, "name": "0fd090153f7508e1ee3e30d442100d2f"}, {"bike_id": "baa9f741f073497680b0f09f6c8daf52", "type": "electric_scooter", "is_disabled": 0, "lat": 38.92738, "rental_uris": {"ios": "https://dc.lft.to/lastmile_qr_scan", "android": "https://dc.lft.to/lastmile_qr_scan"}, "is_reserved": 0, "fusion_lon": 0.0, "fusion_lat": 0.0, "lon": -77.03428783333334, "name": "baa9f741f073497680b0f09f6c8daf52"}, {"bike_id": "1cb1c0f4c89384d9842be190a30a2023", "type": "electric_bike", "is_disabled": 0, "lat": 38.90867216666667, "rental_uris": {"ios": "https://dc.lft.to/lastmile_qr_scan", "android": "https://dc.lft.to/lastmile_qr_scan"}, "is_reserved": 0, "fusion_lon": 0.0, "fusion_lat": 0.0, "lon": -76.99135133333333, "name": "1cb1c0f4c89384d9842be190a30a2023"}, {"bike_id": "ab7d2c43d3ab46a3fb000513a18ecf71", "type": "electric_scooter", "is_disabled": 0, "lat": 38.918415833333334, "rental_uris": {"ios": "https://dc.lft.to/lastmile_qr_scan", "android": "https://dc.lft.to/lastmile_qr_scan"}, "is_reserved": 0, "fusion_lon": 0.0, "fusion_lat": 0.0, "lon": -76.96552416666667, "name": "ab7d2c43d3ab46a3fb000513a18ecf71"}, {"bike_id": "780bcf2770cf3f3348a8424070f0191a", "type": "electric_scooter", "is_disabled": 0, "lat": 38.879008166666665, "rental_uris": {"ios": "https://dc.lft.to/lastmile_qr_scan", "android": "https://dc.lft.to/lastmile_qr_scan"}, "is_reserved": 0, "fusion_lon": 0.0, "fusion_lat": 0.0, "lon": -77.02199616666667, "name": "780bcf2770cf3f3348a8424070f0191a"}, {"bike_id": "c0df4108dc4de9285a8b86639b734f5c", "type": "electric_scooter", "is_disabled": 0, "lat": 38.910945166666664, "rental_uris": {"ios": "https://dc.lft.to/lastmile_qr_scan", "android": "https://dc.lft.to/lastmile_qr_scan"}, "is_reserved": 0, "fusion_lon": 0.0, "fusion_lat": 0.0, "lon": -77.04217683333333, "name": "c0df4108dc4de9285a8b86639b734f5c"}, {"bike_id": "7e68b915fff344834725aaf16b362e12", "type": "electric_scooter", "is_disabled": 0, "lat": 38.914126333333336, "rental_uris": {"ios": "https://dc.lft.to/lastmile_qr_scan", "android": "https://dc.lft.to/lastmile_qr_scan"}, "is_reserved": 0, "fusion_lon": 0.0, "fusion_lat": 0.0, "lon": -77.03225066666667, "name": "7e68b915fff344834725aaf16b362e12"}, {"bike_id": "74ccbc35e3e5a8c0240ca37d8e74486f", "type": "electric_scooter", "is_disabled": 0, "lat": 38.880237666666666, "rental_uris": {"ios": "https://dc.lft.to/lastmile_qr_scan", "android": "https://dc.lft.to/lastmile_qr_scan"}, "is_reserved": 0, "fusion_lon": 0.0, "fusion_lat": 0.0, "lon": -77.01005433333333, "name": "74ccbc35e3e5a8c0240ca37d8e74486f"}, {"bike_id": "ae28983b21ae767c3608ffd603b5a932", "type": "electric_scooter", "is_disabled": 0, "lat": 38.92851183333333, "rental_uris": {"ios": "https://dc.lft.to/lastmile_qr_scan", "android": "https://dc.lft.to/lastmile_qr_scan"}, "is_reserved": 0, "fusion_lon": 0.0, "fusion_lat": 0.0, "lon": -77.03305366666666, "name": "ae28983b21ae767c3608ffd603b5a932"}, {"bike_id": "8b2eb1a7e9900dba70acfc09649e8695", "type": "electric_scooter", "is_disabled": 0, "lat": 38.91681883333333, "rental_uris": {"ios": "https://dc.lft.to/lastmile_qr_scan", "android": "https://dc.lft.to/lastmile_qr_scan"}, "is_reserved": 0, "fusion_lon": 0.0, "fusion_lat": 0.0, "lon": -77.02879416666667, "name": "8b2eb1a7e9900dba70acfc09649e8695"}, {"bike_id": "796e594051c291c26847d31ac15c81f6", "type": "electric_scooter", "is_disabled": 0, "lat": 38.8764705, "rental_uris": {"ios": "https://dc.lft.to/lastmile_qr_scan", "android": "https://dc.lft.to/lastmile_qr_scan"}, "is_reserved": 0, "fusion_lon": 0.0, "fusion_lat": 0.0, "lon": -76.965095, "name": "796e594051c291c26847d31ac15c81f6"}, {"bike_id": "6495b5e3a9417151f29a897d0f8b39e0", "type": "electric_scooter", "is_disabled": 0, "lat": 38.92249616666667, "rental_uris": {"ios": "https://dc.lft.to/lastmile_qr_scan", "android": "https://dc.lft.to/lastmile_qr_scan"}, "is_reserved": 0, "fusion_lon": 0.0, "fusion_lat": 0.0, "lon": -77.04274066666666, "name": "6495b5e3a9417151f29a897d0f8b39e0"}, {"bike_id": "442d311b547f59a09e04c3c0583c0f5d", "type": "electric_scooter", "is_disabled": 0, "lat": 38.89976266666667, "rental_uris": {"ios": "https://dc.lft.to/lastmile_qr_scan", "android": "https://dc.lft.to/lastmile_qr_scan"}, "is_reserved": 0, "fusion_lon": 0.0, "fusion_lat": 0.0, "lon": -77.02167633333333, "name": "442d311b547f59a09e04c3c0583c0f5d"}, {"bike_id": "dba573ef7e3bf5e8099309138f94bb01", "type": "electric_scooter", "is_disabled": 0, "lat": 38.92845483333333, "rental_uris": {"ios": "https://dc.lft.to/lastmile_qr_scan", "android": "https://dc.lft.to/lastmile_qr_scan"}, "is_reserved": 0, "fusion_lon": 0.0, "fusion_lat": 0.0, "lon": -77.01419166666666, "name": "dba573ef7e3bf5e8099309138f94bb01"}, {"bike_id": "971fb9c83f8899e48f6b8361bdda7296", "type": "electric_scooter", "is_disabled": 0, "lat": 38.89566383333333, "rental_uris": {"ios": "https://dc.lft.to/lastmile_qr_scan", "android": "https://dc.lft.to/lastmile_qr_scan"}, "is_reserved": 0, "fusion_lon": 0.0, "fusion_lat": 0.0, "lon": -76.93030633333333, "name": "971fb9c83f8899e48f6b8361bdda7296"}, {"bike_id": "ef5f0aafa064673086c15b8180b2b5db", "type": "electric_scooter", "is_disabled": 0, "lat": 38.92175566666667, "rental_uris": {"ios": "https://dc.lft.to/lastmile_qr_scan", "android": "https://dc.lft.to/lastmile_qr_scan"}, "is_reserved": 0, "fusion_lon": 0.0, "fusion_lat": 0.0, "lon": -77.02663966666667, "name": "ef5f0aafa064673086c15b8180b2b5db"}, {"bike_id": "3dc09587868f7557fe97bb4839f0f1dc", "type": "electric_scooter", "is_disabled": 0, "lat": 38.9095555, "rental_uris": {"ios": "https://dc.lft.to/lastmile_qr_scan", "android": "https://dc.lft.to/lastmile_qr_scan"}, "is_reserved": 0, "fusion_lon": 0.0, "fusion_lat": 0.0, "lon": -77.01434633333334, "name": "3dc09587868f7557fe97bb4839f0f1dc"}, {"bike_id": "86e3fddb2bca71f99801aca9c24ed3e8", "type": "electric_scooter", "is_disabled": 0, "lat": 38.92882683333333, "rental_uris": {"ios": "https://dc.lft.to/lastmile_qr_scan", "android": "https://dc.lft.to/lastmile_qr_scan"}, "is_reserved": 0, "fusion_lon": 0.0, "fusion_lat": 0.0, "lon": -77.03255983333334, "name": "86e3fddb2bca71f99801aca9c24ed3e8"}, {"bike_id": "43af393f1943f8aacbb0d1d86a748618", "type": "electric_scooter", "is_disabled": 0, "lat": 38.90080316666667, "rental_uris": {"ios": "https://dc.lft.to/lastmile_qr_scan", "android": "https://dc.lft.to/lastmile_qr_scan"}, "is_reserved": 0, "fusion_lon": 0.0, "fusion_lat": 0.0, "lon": -77.01840533333333, "name": "43af393f1943f8aacbb0d1d86a748618"}, {"bike_id": "8fd64fc1261c4e5ad703a6b0b08d4499", "type": "electric_scooter", "is_disabled": 0, "lat": 38.93991833333333, "rental_uris": {"ios": "https://dc.lft.to/lastmile_qr_scan", "android": "https://dc.lft.to/lastmile_qr_scan"}, "is_reserved": 0, "fusion_lon": 0.0, "fusion_lat": 0.0, "lon": -77.01697633333333, "name": "8fd64fc1261c4e5ad703a6b0b08d4499"}, {"bike_id": "1e1f9c68a4d1b9d0c22db8664f3396fc", "type": "electric_scooter", "is_disabled": 0, "lat": 38.918370833333334, "rental_uris": {"ios": "https://dc.lft.to/lastmile_qr_scan", "android": "https://dc.lft.to/lastmile_qr_scan"}, "is_reserved": 0, "fusion_lon": 0.0, "fusion_lat": 0.0, "lon": -76.9655285, "name": "1e1f9c68a4d1b9d0c22db8664f3396fc"}, {"bike_id": "9f28c1c8a760d77999b03e70109e5656", "type": "electric_scooter", "is_disabled": 0, "lat": 38.910312833333336, "rental_uris": {"ios": "https://dc.lft.to/lastmile_qr_scan", "android": "https://dc.lft.to/lastmile_qr_scan"}, "is_reserved": 0, "fusion_lon": 0.0, "fusion_lat": 0.0, "lon": -77.0383835, "name": "9f28c1c8a760d77999b03e70109e5656"}, {"bike_id": "47bedd6626583f75ef07e34aadeafb85", "type": "electric_bike", "is_disabled": 0, "lat": 38.832406166666665, "rental_uris": {"ios": "https://dc.lft.to/lastmile_qr_scan", "android": "https://dc.lft.to/lastmile_qr_scan"}, "is_reserved": 0, "fusion_lon": 0.0, "fusion_lat": 0.0, "lon": -76.94626016666666, "name": "47bedd6626583f75ef07e34aadeafb85"}, {"bike_id": "444a51ad6e95b6ad64b51f3b2642e413", "type": "electric_scooter", "is_disabled": 0, "lat": 38.905666833333335, "rental_uris": {"ios": "https://dc.lft.to/lastmile_qr_scan", "android": "https://dc.lft.to/lastmile_qr_scan"}, "is_reserved": 0, "fusion_lon": 0.0, "fusion_lat": 0.0, "lon": -76.97783, "name": "444a51ad6e95b6ad64b51f3b2642e413"}, {"bike_id": "0fdf4b656df093b59e1e97cbccb3dc4c", "type": "electric_scooter", "is_disabled": 0, "lat": 38.877594, "rental_uris": {"ios": "https://dc.lft.to/lastmile_qr_scan", "android": "https://dc.lft.to/lastmile_qr_scan"}, "is_reserved": 0, "fusion_lon": 0.0, "fusion_lat": 0.0, "lon": -76.98686, "name": "0fdf4b656df093b59e1e97cbccb3dc4c"}, {"bike_id": "2a20df690b6521704ac32c59d944fb28", "type": "electric_scooter", "is_disabled": 0, "lat": 38.903780833333336, "rental_uris": {"ios": "https://dc.lft.to/lastmile_qr_scan", "android": "https://dc.lft.to/lastmile_qr_scan"}, "is_reserved": 0, "fusion_lon": 0.0, "fusion_lat": 0.0, "lon": -77.0322495, "name": "2a20df690b6521704ac32c59d944fb28"}, {"bike_id": "a42290045281b3cd0aef0189c2067cfa", "type": "electric_scooter", "is_disabled": 0, "lat": 38.918473, "rental_uris": {"ios": "https://dc.lft.to/lastmile_qr_scan", "android": "https://dc.lft.to/lastmile_qr_scan"}, "is_reserved": 0, "fusion_lon": 0.0, "fusion_lat": 0.0, "lon": -77.02529833333334, "name": "a42290045281b3cd0aef0189c2067cfa"}, {"bike_id": "c7b6f88a3b5def7d1d0ed4513478d444", "type": "electric_scooter", "is_disabled": 0, "lat": 38.9027625, "rental_uris": {"ios": "https://dc.lft.to/lastmile_qr_scan", "android": "https://dc.lft.to/lastmile_qr_scan"}, "is_reserved": 0, "fusion_lon": 0.0, "fusion_lat": 0.0, "lon": -76.9703715, "name": "c7b6f88a3b5def7d1d0ed4513478d444"}, {"bike_id": "ad2172577d878167090f2d8e735a1557", "type": "electric_scooter", "is_disabled": 0, "lat": 38.887719833333335, "rental_uris": {"ios": "https://dc.lft.to/lastmile_qr_scan", "android": "https://dc.lft.to/lastmile_qr_scan"}, "is_reserved": 0, "fusion_lon": 0.0, "fusion_lat": 0.0, "lon": -77.01726116666667, "name": "ad2172577d878167090f2d8e735a1557"}, {"bike_id": "f1de3cdf11bce91651503c0f63584fb6", "type": "electric_scooter", "is_disabled": 0, "lat": 38.925951833333336, "rental_uris": {"ios": "https://dc.lft.to/lastmile_qr_scan", "android": "https://dc.lft.to/lastmile_qr_scan"}, "is_reserved": 0, "fusion_lon": 0.0, "fusion_lat": 0.0, "lon": -77.0731295, "name": "f1de3cdf11bce91651503c0f63584fb6"}, {"bike_id": "bf8bb7731c9c8492aeed0362279e96bd", "type": "electric_scooter", "is_disabled": 0, "lat": 38.92371033333333, "rental_uris": {"ios": "https://dc.lft.to/lastmile_qr_scan", "android": "https://dc.lft.to/lastmile_qr_scan"}, "is_reserved": 0, "fusion_lon": 0.0, "fusion_lat": 0.0, "lon": -77.051513, "name": "bf8bb7731c9c8492aeed0362279e96bd"}, {"bike_id": "7c4373f81a518c25ce171db7a9de2a99", "type": "electric_scooter", "is_disabled": 0, "lat": 38.9112335, "rental_uris": {"ios": "https://dc.lft.to/lastmile_qr_scan", "android": "https://dc.lft.to/lastmile_qr_scan"}, "is_reserved": 0, "fusion_lon": 0.0, "fusion_lat": 0.0, "lon": -77.032093, "name": "7c4373f81a518c25ce171db7a9de2a99"}, {"bike_id": "82aba6cfaacd050cbe9b912bccdb2532", "type": "electric_scooter", "is_disabled": 0, "lat": 38.9265575, "rental_uris": {"ios": "https://dc.lft.to/lastmile_qr_scan", "android": "https://dc.lft.to/lastmile_qr_scan"}, "is_reserved": 0, "fusion_lon": 0.0, "fusion_lat": 0.0, "lon": -77.02415333333333, "name": "82aba6cfaacd050cbe9b912bccdb2532"}, {"bike_id": "a311dafada03519386338b026de346cc", "type": "electric_scooter", "is_disabled": 0, "lat": 38.92154583333333, "rental_uris": {"ios": "https://dc.lft.to/lastmile_qr_scan", "android": "https://dc.lft.to/lastmile_qr_scan"}, "is_reserved": 0, "fusion_lon": 0.0, "fusion_lat": 0.0, "lon": -77.03515766666666, "name": "a311dafada03519386338b026de346cc"}, {"bike_id": "a315c0fd511c753e7fbe80e1e7b51453", "type": "electric_scooter", "is_disabled": 0, "lat": 38.924927, "rental_uris": {"ios": "https://dc.lft.to/lastmile_qr_scan", "android": "https://dc.lft.to/lastmile_qr_scan"}, "is_reserved": 0, "fusion_lon": 0.0, "fusion_lat": 0.0, "lon": -77.024471, "name": "a315c0fd511c753e7fbe80e1e7b51453"}, {"bike_id": "ca8e9d1ebc5fbd042fac20b3de9b2388", "type": "electric_scooter", "is_disabled": 0, "lat": 38.9176435, "rental_uris": {"ios": "https://dc.lft.to/lastmile_qr_scan", "android": "https://dc.lft.to/lastmile_qr_scan"}, "is_reserved": 0, "fusion_lon": 0.0, "fusion_lat": 0.0, "lon": -77.0228575, "name": "ca8e9d1ebc5fbd042fac20b3de9b2388"}, {"bike_id": "edf957546cfaddd8b393ee5937ced2f4", "type": "electric_scooter", "is_disabled": 0, "lat": 38.9654405, "rental_uris": {"ios": "https://dc.lft.to/lastmile_qr_scan", "android": "https://dc.lft.to/lastmile_qr_scan"}, "is_reserved": 0, "fusion_lon": 0.0, "fusion_lat": 0.0, "lon": -77.03616566666666, "name": "edf957546cfaddd8b393ee5937ced2f4"}, {"bike_id": "af1f2bec1064e615f5fb976bd6c45e7f", "type": "electric_scooter", "is_disabled": 0, "lat": 38.91897066666667, "rental_uris": {"ios": "https://dc.lft.to/lastmile_qr_scan", "android": "https://dc.lft.to/lastmile_qr_scan"}, "is_reserved": 0, "fusion_lon": 0.0, "fusion_lat": 0.0, "lon": -77.03135383333333, "name": "af1f2bec1064e615f5fb976bd6c45e7f"}, {"bike_id": "6b58fb91662c8a1f38b627e1790c6876", "type": "electric_scooter", "is_disabled": 0, "lat": 38.91688833333333, "rental_uris": {"ios": "https://dc.lft.to/lastmile_qr_scan", "android": "https://dc.lft.to/lastmile_qr_scan"}, "is_reserved": 0, "fusion_lon": 0.0, "fusion_lat": 0.0, "lon": -77.03772883333333, "name": "6b58fb91662c8a1f38b627e1790c6876"}, {"bike_id": "0634480d1ae3c36ef195326717dda177", "type": "electric_scooter", "is_disabled": 0, "lat": 38.916908166666666, "rental_uris": {"ios": "https://dc.lft.to/lastmile_qr_scan", "android": "https://dc.lft.to/lastmile_qr_scan"}, "is_reserved": 0, "fusion_lon": 0.0, "fusion_lat": 0.0, "lon": -77.0317125, "name": "0634480d1ae3c36ef195326717dda177"}, {"bike_id": "bc0b0f9e01e45a076e55060fbf3bb8ef", "type": "electric_scooter", "is_disabled": 0, "lat": 38.915438, "rental_uris": {"ios": "https://dc.lft.to/lastmile_qr_scan", "android": "https://dc.lft.to/lastmile_qr_scan"}, "is_reserved": 0, "fusion_lon": 0.0, "fusion_lat": 0.0, "lon": -77.02216033333333, "name": "bc0b0f9e01e45a076e55060fbf3bb8ef"}, {"bike_id": "61abdf5f20d93e63fcf99c642bf548ea", "type": "electric_scooter", "is_disabled": 0, "lat": 38.90200983333333, "rental_uris": {"ios": "https://dc.lft.to/lastmile_qr_scan", "android": "https://dc.lft.to/lastmile_qr_scan"}, "is_reserved": 0, "fusion_lon": 0.0, "fusion_lat": 0.0, "lon": -77.040924, "name": "61abdf5f20d93e63fcf99c642bf548ea"}, {"bike_id": "081f90b4d55c2622d14596b0d5e8a6ce", "type": "electric_scooter", "is_disabled": 0, "lat": 38.900098166666666, "rental_uris": {"ios": "https://dc.lft.to/lastmile_qr_scan", "android": "https://dc.lft.to/lastmile_qr_scan"}, "is_reserved": 0, "fusion_lon": 0.0, "fusion_lat": 0.0, "lon": -76.98542433333333, "name": "081f90b4d55c2622d14596b0d5e8a6ce"}, {"bike_id": "936fc8638d4f2dcb0076a63df91c24ab", "type": "electric_scooter", "is_disabled": 0, "lat": 38.87419216666667, "rental_uris": {"ios": "https://dc.lft.to/lastmile_qr_scan", "android": "https://dc.lft.to/lastmile_qr_scan"}, "is_reserved": 0, "fusion_lon": 0.0, "fusion_lat": 0.0, "lon": -77.000495, "name": "936fc8638d4f2dcb0076a63df91c24ab"}, {"bike_id": "32ff1b0661b3218191ae0b45f6ddc4a2", "type": "electric_scooter", "is_disabled": 0, "lat": 38.915695666666664, "rental_uris": {"ios": "https://dc.lft.to/lastmile_qr_scan", "android": "https://dc.lft.to/lastmile_qr_scan"}, "is_reserved": 0, "fusion_lon": 0.0, "fusion_lat": 0.0, "lon": -77.01958, "name": "32ff1b0661b3218191ae0b45f6ddc4a2"}, {"bike_id": "c997b935caac02ebc8ac8c647de36e84", "type": "electric_scooter", "is_disabled": 0, "lat": 38.921031666666664, "rental_uris": {"ios": "https://dc.lft.to/lastmile_qr_scan", "android": "https://dc.lft.to/lastmile_qr_scan"}, "is_reserved": 0, "fusion_lon": 0.0, "fusion_lat": 0.0, "lon": -77.04698233333333, "name": "c997b935caac02ebc8ac8c647de36e84"}, {"bike_id": "d44217b5edf26531301f624a05e2477f", "type": "electric_scooter", "is_disabled": 0, "lat": 38.897338833333336, "rental_uris": {"ios": "https://dc.lft.to/lastmile_qr_scan", "android": "https://dc.lft.to/lastmile_qr_scan"}, "is_reserved": 0, "fusion_lon": 0.0, "fusion_lat": 0.0, "lon": -77.02461416666667, "name": "d44217b5edf26531301f624a05e2477f"}, {"bike_id": "f9851fac339c5973eaba0308218609de", "type": "electric_bike", "is_disabled": 0, "lat": 38.859348833333335, "rental_uris": {"ios": "https://dc.lft.to/lastmile_qr_scan", "android": "https://dc.lft.to/lastmile_qr_scan"}, "is_reserved": 0, "fusion_lon": 0.0, "fusion_lat": 0.0, "lon": -77.11834516666667, "name": "f9851fac339c5973eaba0308218609de"}, {"bike_id": "2255362958312db2fa91b69d02cfee72", "type": "electric_scooter", "is_disabled": 0, "lat": 38.88732916666667, "rental_uris": {"ios": "https://dc.lft.to/lastmile_qr_scan", "android": "https://dc.lft.to/lastmile_qr_scan"}, "is_reserved": 0, "fusion_lon": 0.0, "fusion_lat": 0.0, "lon": -77.03184, "name": "2255362958312db2fa91b69d02cfee72"}, {"bike_id": "6ae7ada0905f28bea2fc1661a339ad4c", "type": "electric_bike", "is_disabled": 0, "lat": 38.82364883333334, "rental_uris": {"ios": "https://dc.lft.to/lastmile_qr_scan", "android": "https://dc.lft.to/lastmile_qr_scan"}, "is_reserved": 0, "fusion_lon": 0.0, "fusion_lat": 0.0, "lon": -77.00221783333333, "name": "6ae7ada0905f28bea2fc1661a339ad4c"}, {"bike_id": "9e7617ad5b69c48a91818a7f32c0b510", "type": "electric_scooter", "is_disabled": 0, "lat": 38.880519666666665, "rental_uris": {"ios": "https://dc.lft.to/lastmile_qr_scan", "android": "https://dc.lft.to/lastmile_qr_scan"}, "is_reserved": 0, "fusion_lon": 0.0, "fusion_lat": 0.0, "lon": -76.93218166666666, "name": "9e7617ad5b69c48a91818a7f32c0b510"}, {"bike_id": "218eecdea35258aac69a1fdc9589e627", "type": "electric_scooter", "is_disabled": 0, "lat": 38.8602255, "rental_uris": {"ios": "https://dc.lft.to/lastmile_qr_scan", "android": "https://dc.lft.to/lastmile_qr_scan"}, "is_reserved": 0, "fusion_lon": 0.0, "fusion_lat": 0.0, "lon": -76.9968435, "name": "218eecdea35258aac69a1fdc9589e627"}, {"bike_id": "82c1b57d912bd255c3a557c8c3bb0c46", "type": "electric_scooter", "is_disabled": 0, "lat": 38.91870383333333, "rental_uris": {"ios": "https://dc.lft.to/lastmile_qr_scan", "android": "https://dc.lft.to/lastmile_qr_scan"}, "is_reserved": 0, "fusion_lon": 0.0, "fusion_lat": 0.0, "lon": -77.04762, "name": "82c1b57d912bd255c3a557c8c3bb0c46"}, {"bike_id": "e9c7906925ba233a32367e9335404bac", "type": "electric_scooter", "is_disabled": 0, "lat": 38.8921515, "rental_uris": {"ios": "https://dc.lft.to/lastmile_qr_scan", "android": "https://dc.lft.to/lastmile_qr_scan"}, "is_reserved": 0, "fusion_lon": 0.0, "fusion_lat": 0.0, "lon": -77.03979283333334, "name": "e9c7906925ba233a32367e9335404bac"}, {"bike_id": "eb4f1df6576844173f031f6fa0b8b972", "type": "electric_scooter", "is_disabled": 0, "lat": 38.920546, "rental_uris": {"ios": "https://dc.lft.to/lastmile_qr_scan", "android": "https://dc.lft.to/lastmile_qr_scan"}, "is_reserved": 0, "fusion_lon": 0.0, "fusion_lat": 0.0, "lon": -77.0425295, "name": "eb4f1df6576844173f031f6fa0b8b972"}, {"bike_id": "3b1b13a24fba3ad2724896d654895a5e", "type": "electric_bike", "is_disabled": 0, "lat": 38.879841666666664, "rental_uris": {"ios": "https://dc.lft.to/lastmile_qr_scan", "android": "https://dc.lft.to/lastmile_qr_scan"}, "is_reserved": 0, "fusion_lon": 0.0, "fusion_lat": 0.0, "lon": -76.9160125, "name": "3b1b13a24fba3ad2724896d654895a5e"}, {"bike_id": "fc8e86acbdf81bb6cd96eccddee9cb41", "type": "electric_scooter", "is_disabled": 0, "lat": 38.916464833333336, "rental_uris": {"ios": "https://dc.lft.to/lastmile_qr_scan", "android": "https://dc.lft.to/lastmile_qr_scan"}, "is_reserved": 0, "fusion_lon": 0.0, "fusion_lat": 0.0, "lon": -77.02181833333333, "name": "fc8e86acbdf81bb6cd96eccddee9cb41"}, {"bike_id": "de25b91fcd7674a4a897d15f02b99eb9", "type": "electric_scooter", "is_disabled": 0, "lat": 38.89217416666666, "rental_uris": {"ios": "https://dc.lft.to/lastmile_qr_scan", "android": "https://dc.lft.to/lastmile_qr_scan"}, "is_reserved": 0, "fusion_lon": 0.0, "fusion_lat": 0.0, "lon": -77.04310683333334, "name": "de25b91fcd7674a4a897d15f02b99eb9"}, {"bike_id": "2875ccbc91213445454a75bfb74b1d1a", "type": "electric_scooter", "is_disabled": 0, "lat": 38.888535, "rental_uris": {"ios": "https://dc.lft.to/lastmile_qr_scan", "android": "https://dc.lft.to/lastmile_qr_scan"}, "is_reserved": 0, "fusion_lon": 0.0, "fusion_lat": 0.0, "lon": -77.00052916666667, "name": "2875ccbc91213445454a75bfb74b1d1a"}, {"bike_id": "478a1cb4c3f9879d9ee02c4c42b00c83", "type": "electric_scooter", "is_disabled": 0, "lat": 38.921469, "rental_uris": {"ios": "https://dc.lft.to/lastmile_qr_scan", "android": "https://dc.lft.to/lastmile_qr_scan"}, "is_reserved": 0, "fusion_lon": 0.0, "fusion_lat": 0.0, "lon": -77.03870183333333, "name": "478a1cb4c3f9879d9ee02c4c42b00c83"}, {"bike_id": "8ae8d795f322fcafe6a6a784432c9ea3", "type": "electric_scooter", "is_disabled": 0, "lat": 38.89206733333333, "rental_uris": {"ios": "https://dc.lft.to/lastmile_qr_scan", "android": "https://dc.lft.to/lastmile_qr_scan"}, "is_reserved": 0, "fusion_lon": 0.0, "fusion_lat": 0.0, "lon": -76.999382, "name": "8ae8d795f322fcafe6a6a784432c9ea3"}, {"bike_id": "1d1e1ac56170ca493ae8ca1bf3b32493", "type": "electric_scooter", "is_disabled": 0, "lat": 38.91114916666667, "rental_uris": {"ios": "https://dc.lft.to/lastmile_qr_scan", "android": "https://dc.lft.to/lastmile_qr_scan"}, "is_reserved": 0, "fusion_lon": 0.0, "fusion_lat": 0.0, "lon": -77.0224, "name": "1d1e1ac56170ca493ae8ca1bf3b32493"}, {"bike_id": "55c38a883c7a56dff92847da95d31a84", "type": "electric_scooter", "is_disabled": 0, "lat": 38.919635166666666, "rental_uris": {"ios": "https://dc.lft.to/lastmile_qr_scan", "android": "https://dc.lft.to/lastmile_qr_scan"}, "is_reserved": 0, "fusion_lon": 0.0, "fusion_lat": 0.0, "lon": -77.014451, "name": "55c38a883c7a56dff92847da95d31a84"}, {"bike_id": "ea66529d1272c77feba1616be0f8f9ad", "type": "electric_scooter", "is_disabled": 0, "lat": 38.917253, "rental_uris": {"ios": "https://dc.lft.to/lastmile_qr_scan", "android": "https://dc.lft.to/lastmile_qr_scan"}, "is_reserved": 0, "fusion_lon": 0.0, "fusion_lat": 0.0, "lon": -77.02890716666667, "name": "ea66529d1272c77feba1616be0f8f9ad"}, {"bike_id": "529668a09d9e6566bfbf75a2465510f0", "type": "electric_scooter", "is_disabled": 0, "lat": 38.89473616666667, "rental_uris": {"ios": "https://dc.lft.to/lastmile_qr_scan", "android": "https://dc.lft.to/lastmile_qr_scan"}, "is_reserved": 0, "fusion_lon": 0.0, "fusion_lat": 0.0, "lon": -76.99488983333333, "name": "529668a09d9e6566bfbf75a2465510f0"}, {"bike_id": "0ac7d34ba8f5fa0edf5197c454b12993", "type": "electric_bike", "is_disabled": 0, "lat": 39.014771333333336, "rental_uris": {"ios": "https://dc.lft.to/lastmile_qr_scan", "android": "https://dc.lft.to/lastmile_qr_scan"}, "is_reserved": 0, "fusion_lon": 0.0, "fusion_lat": 0.0, "lon": -77.05498483333334, "name": "0ac7d34ba8f5fa0edf5197c454b12993"}, {"bike_id": "db7819269a1da4e1cb1e68351e695857", "type": "electric_scooter", "is_disabled": 0, "lat": 38.905903, "rental_uris": {"ios": "https://dc.lft.to/lastmile_qr_scan", "android": "https://dc.lft.to/lastmile_qr_scan"}, "is_reserved": 0, "fusion_lon": 0.0, "fusion_lat": 0.0, "lon": -77.003502, "name": "db7819269a1da4e1cb1e68351e695857"}, {"bike_id": "09230240dcc59f5ad0a307bdfe5aedcf", "type": "electric_scooter", "is_disabled": 0, "lat": 38.89839216666667, "rental_uris": {"ios": "https://dc.lft.to/lastmile_qr_scan", "android": "https://dc.lft.to/lastmile_qr_scan"}, "is_reserved": 0, "fusion_lon": 0.0, "fusion_lat": 0.0, "lon": -76.94638, "name": "09230240dcc59f5ad0a307bdfe5aedcf"}, {"bike_id": "145204b08c07fd42f7d57ef2f0f206ac", "type": "electric_bike", "is_disabled": 0, "lat": 38.908673, "rental_uris": {"ios": "https://dc.lft.to/lastmile_qr_scan", "android": "https://dc.lft.to/lastmile_qr_scan"}, "is_reserved": 0, "fusion_lon": 0.0, "fusion_lat": 0.0, "lon": -77.07649, "name": "145204b08c07fd42f7d57ef2f0f206ac"}, {"bike_id": "01fe9d1d9c42ed2423a421e17b77cedd", "type": "electric_scooter", "is_disabled": 0, "lat": 38.916411333333336, "rental_uris": {"ios": "https://dc.lft.to/lastmile_qr_scan", "android": "https://dc.lft.to/lastmile_qr_scan"}, "is_reserved": 0, "fusion_lon": 0.0, "fusion_lat": 0.0, "lon": -77.022592, "name": "01fe9d1d9c42ed2423a421e17b77cedd"}, {"bike_id": "1b01d872dd07585d132f1c65816bce77", "type": "electric_scooter", "is_disabled": 0, "lat": 38.90217833333333, "rental_uris": {"ios": "https://dc.lft.to/lastmile_qr_scan", "android": "https://dc.lft.to/lastmile_qr_scan"}, "is_reserved": 0, "fusion_lon": 0.0, "fusion_lat": 0.0, "lon": -77.02320666666667, "name": "1b01d872dd07585d132f1c65816bce77"}, {"bike_id": "2940948ac353079c45efadf845fa4e19", "type": "electric_scooter", "is_disabled": 0, "lat": 38.88962633333333, "rental_uris": {"ios": "https://dc.lft.to/lastmile_qr_scan", "android": "https://dc.lft.to/lastmile_qr_scan"}, "is_reserved": 0, "fusion_lon": 0.0, "fusion_lat": 0.0, "lon": -77.02823416666666, "name": "2940948ac353079c45efadf845fa4e19"}, {"bike_id": "98a779b37c0d6379aca7d3cf913dcb59", "type": "electric_scooter", "is_disabled": 0, "lat": 38.89605316666667, "rental_uris": {"ios": "https://dc.lft.to/lastmile_qr_scan", "android": "https://dc.lft.to/lastmile_qr_scan"}, "is_reserved": 0, "fusion_lon": 0.0, "fusion_lat": 0.0, "lon": -77.04491183333333, "name": "98a779b37c0d6379aca7d3cf913dcb59"}, {"bike_id": "9b2ae51cedb1019f6710bee7978eb801", "type": "electric_scooter", "is_disabled": 0, "lat": 38.911368333333336, "rental_uris": {"ios": "https://dc.lft.to/lastmile_qr_scan", "android": "https://dc.lft.to/lastmile_qr_scan"}, "is_reserved": 0, "fusion_lon": 0.0, "fusion_lat": 0.0, "lon": -76.99012583333334, "name": "9b2ae51cedb1019f6710bee7978eb801"}, {"bike_id": "2820e1dfe5fb4487ec16ccd02fe51ed7", "type": "electric_scooter", "is_disabled": 0, "lat": 38.91837233333333, "rental_uris": {"ios": "https://dc.lft.to/lastmile_qr_scan", "android": "https://dc.lft.to/lastmile_qr_scan"}, "is_reserved": 0, "fusion_lon": 0.0, "fusion_lat": 0.0, "lon": -76.965528, "name": "2820e1dfe5fb4487ec16ccd02fe51ed7"}, {"bike_id": "9d76ec6dbd732e06b7179936dd6ae2c6", "type": "electric_scooter", "is_disabled": 0, "lat": 38.91804966666667, "rental_uris": {"ios": "https://dc.lft.to/lastmile_qr_scan", "android": "https://dc.lft.to/lastmile_qr_scan"}, "is_reserved": 0, "fusion_lon": 0.0, "fusion_lat": 0.0, "lon": -77.0252685, "name": "9d76ec6dbd732e06b7179936dd6ae2c6"}, {"bike_id": "9da6e93328ab38d3f6ff422a359fbd6c", "type": "electric_scooter", "is_disabled": 0, "lat": 38.9184405, "rental_uris": {"ios": "https://dc.lft.to/lastmile_qr_scan", "android": "https://dc.lft.to/lastmile_qr_scan"}, "is_reserved": 0, "fusion_lon": 0.0, "fusion_lat": 0.0, "lon": -76.965545, "name": "9da6e93328ab38d3f6ff422a359fbd6c"}, {"bike_id": "a8ab5d86a9664d2aad797e4d37a9fe2b", "type": "electric_bike", "is_disabled": 0, "lat": 38.872995333333336, "rental_uris": {"ios": "https://dc.lft.to/lastmile_qr_scan", "android": "https://dc.lft.to/lastmile_qr_scan"}, "is_reserved": 0, "fusion_lon": 0.0, "fusion_lat": 0.0, "lon": -77.139301, "name": "a8ab5d86a9664d2aad797e4d37a9fe2b"}, {"bike_id": "1321f49571ca439126bf6ce3217b2672", "type": "electric_scooter", "is_disabled": 0, "lat": 38.917019833333335, "rental_uris": {"ios": "https://dc.lft.to/lastmile_qr_scan", "android": "https://dc.lft.to/lastmile_qr_scan"}, "is_reserved": 0, "fusion_lon": 0.0, "fusion_lat": 0.0, "lon": -77.03170683333333, "name": "1321f49571ca439126bf6ce3217b2672"}, {"bike_id": "7aac1ae7a3e7b8fd9450904cefdc6616", "type": "electric_bike", "is_disabled": 0, "lat": 38.905168333333336, "rental_uris": {"ios": "https://dc.lft.to/lastmile_qr_scan", "android": "https://dc.lft.to/lastmile_qr_scan"}, "is_reserved": 0, "fusion_lon": 0.0, "fusion_lat": 0.0, "lon": -77.06792233333333, "name": "7aac1ae7a3e7b8fd9450904cefdc6616"}, {"bike_id": "d59f08774c15e662bf7e6f35f12db05d", "type": "electric_scooter", "is_disabled": 0, "lat": 38.9156565, "rental_uris": {"ios": "https://dc.lft.to/lastmile_qr_scan", "android": "https://dc.lft.to/lastmile_qr_scan"}, "is_reserved": 0, "fusion_lon": 0.0, "fusion_lat": 0.0, "lon": -77.02712516666666, "name": "d59f08774c15e662bf7e6f35f12db05d"}, {"bike_id": "0621e121dc7b6e38f35f03e80f000f56", "type": "electric_scooter", "is_disabled": 0, "lat": 38.9242685, "rental_uris": {"ios": "https://dc.lft.to/lastmile_qr_scan", "android": "https://dc.lft.to/lastmile_qr_scan"}, "is_reserved": 0, "fusion_lon": 0.0, "fusion_lat": 0.0, "lon": -77.042501, "name": "0621e121dc7b6e38f35f03e80f000f56"}, {"bike_id": "8f6630c0501e4603f207fe6f53e34842", "type": "electric_scooter", "is_disabled": 0, "lat": 38.863738166666664, "rental_uris": {"ios": "https://dc.lft.to/lastmile_qr_scan", "android": "https://dc.lft.to/lastmile_qr_scan"}, "is_reserved": 0, "fusion_lon": 0.0, "fusion_lat": 0.0, "lon": -76.99061983333333, "name": "8f6630c0501e4603f207fe6f53e34842"}, {"bike_id": "4a4c3e8f0a3200d6ce9a9a9f33017e08", "type": "electric_scooter", "is_disabled": 0, "lat": 38.907203833333334, "rental_uris": {"ios": "https://dc.lft.to/lastmile_qr_scan", "android": "https://dc.lft.to/lastmile_qr_scan"}, "is_reserved": 0, "fusion_lon": 0.0, "fusion_lat": 0.0, "lon": -77.0254745, "name": "4a4c3e8f0a3200d6ce9a9a9f33017e08"}, {"bike_id": "1856afb2d306379680e08de85f44cae9", "type": "electric_scooter", "is_disabled": 0, "lat": 38.865042333333335, "rental_uris": {"ios": "https://dc.lft.to/lastmile_qr_scan", "android": "https://dc.lft.to/lastmile_qr_scan"}, "is_reserved": 0, "fusion_lon": 0.0, "fusion_lat": 0.0, "lon": -76.99003116666667, "name": "1856afb2d306379680e08de85f44cae9"}, {"bike_id": "f36afdb1a3ae5fb51a6e823cc6d26502", "type": "electric_scooter", "is_disabled": 0, "lat": 38.927094833333335, "rental_uris": {"ios": "https://dc.lft.to/lastmile_qr_scan", "android": "https://dc.lft.to/lastmile_qr_scan"}, "is_reserved": 0, "fusion_lon": 0.0, "fusion_lat": 0.0, "lon": -77.0209705, "name": "f36afdb1a3ae5fb51a6e823cc6d26502"}, {"bike_id": "045b620b8c46d9ea69d546282e76071b", "type": "electric_scooter", "is_disabled": 0, "lat": 38.886999833333334, "rental_uris": {"ios": "https://dc.lft.to/lastmile_qr_scan", "android": "https://dc.lft.to/lastmile_qr_scan"}, "is_reserved": 0, "fusion_lon": 0.0, "fusion_lat": 0.0, "lon": -77.013772, "name": "045b620b8c46d9ea69d546282e76071b"}, {"bike_id": "7f08ea9f42157d09244325234d14741d", "type": "electric_scooter", "is_disabled": 0, "lat": 38.92856233333333, "rental_uris": {"ios": "https://dc.lft.to/lastmile_qr_scan", "android": "https://dc.lft.to/lastmile_qr_scan"}, "is_reserved": 0, "fusion_lon": 0.0, "fusion_lat": 0.0, "lon": -77.0360695, "name": "7f08ea9f42157d09244325234d14741d"}, {"bike_id": "b453d6fc0f929e7b1255b5a56718e3af", "type": "electric_scooter", "is_disabled": 0, "lat": 38.939046166666664, "rental_uris": {"ios": "https://dc.lft.to/lastmile_qr_scan", "android": "https://dc.lft.to/lastmile_qr_scan"}, "is_reserved": 0, "fusion_lon": 0.0, "fusion_lat": 0.0, "lon": -77.06051916666667, "name": "b453d6fc0f929e7b1255b5a56718e3af"}, {"bike_id": "4289169230825cd3b32d1c55ea1d2a7e", "type": "electric_scooter", "is_disabled": 0, "lat": 38.91642983333333, "rental_uris": {"ios": "https://dc.lft.to/lastmile_qr_scan", "android": "https://dc.lft.to/lastmile_qr_scan"}, "is_reserved": 0, "fusion_lon": 0.0, "fusion_lat": 0.0, "lon": -77.04816766666667, "name": "4289169230825cd3b32d1c55ea1d2a7e"}, {"bike_id": "99f61254ab6b9b22b7acf3f0d836d80d", "type": "electric_scooter", "is_disabled": 0, "lat": 38.882897666666665, "rental_uris": {"ios": "https://dc.lft.to/lastmile_qr_scan", "android": "https://dc.lft.to/lastmile_qr_scan"}, "is_reserved": 0, "fusion_lon": 0.0, "fusion_lat": 0.0, "lon": -76.99499616666667, "name": "99f61254ab6b9b22b7acf3f0d836d80d"}, {"bike_id": "d1f6e1d5c91f78aa417c9eb329ff33d8", "type": "electric_scooter", "is_disabled": 0, "lat": 38.912009, "rental_uris": {"ios": "https://dc.lft.to/lastmile_qr_scan", "android": "https://dc.lft.to/lastmile_qr_scan"}, "is_reserved": 0, "fusion_lon": 0.0, "fusion_lat": 0.0, "lon": -77.02107416666666, "name": "d1f6e1d5c91f78aa417c9eb329ff33d8"}, {"bike_id": "5d4f1b801e32f071a0a1135f42fb02b7", "type": "electric_scooter", "is_disabled": 0, "lat": 38.91841866666667, "rental_uris": {"ios": "https://dc.lft.to/lastmile_qr_scan", "android": "https://dc.lft.to/lastmile_qr_scan"}, "is_reserved": 0, "fusion_lon": 0.0, "fusion_lat": 0.0, "lon": -77.0386115, "name": "5d4f1b801e32f071a0a1135f42fb02b7"}, {"bike_id": "2ecb659347a5ae5e0f9ea334d23dac21", "type": "electric_scooter", "is_disabled": 0, "lat": 38.9245655, "rental_uris": {"ios": "https://dc.lft.to/lastmile_qr_scan", "android": "https://dc.lft.to/lastmile_qr_scan"}, "is_reserved": 0, "fusion_lon": 0.0, "fusion_lat": 0.0, "lon": -77.04095216666667, "name": "2ecb659347a5ae5e0f9ea334d23dac21"}, {"bike_id": "488158873fc6d98aaade376e0a019f92", "type": "electric_scooter", "is_disabled": 0, "lat": 38.92290783333333, "rental_uris": {"ios": "https://dc.lft.to/lastmile_qr_scan", "android": "https://dc.lft.to/lastmile_qr_scan"}, "is_reserved": 0, "fusion_lon": 0.0, "fusion_lat": 0.0, "lon": -77.04172766666667, "name": "488158873fc6d98aaade376e0a019f92"}, {"bike_id": "71df7000fc2c488327da5159d4b41df9", "type": "electric_scooter", "is_disabled": 0, "lat": 38.9328755, "rental_uris": {"ios": "https://dc.lft.to/lastmile_qr_scan", "android": "https://dc.lft.to/lastmile_qr_scan"}, "is_reserved": 0, "fusion_lon": 0.0, "fusion_lat": 0.0, "lon": -77.04036333333333, "name": "71df7000fc2c488327da5159d4b41df9"}, {"bike_id": "99a82f4763c631a8c77c8599625bb138", "type": "electric_bike", "is_disabled": 0, "lat": 38.908271666666664, "rental_uris": {"ios": "https://dc.lft.to/lastmile_qr_scan", "android": "https://dc.lft.to/lastmile_qr_scan"}, "is_reserved": 0, "fusion_lon": 0.0, "fusion_lat": 0.0, "lon": -76.94162283333333, "name": "99a82f4763c631a8c77c8599625bb138"}, {"bike_id": "9e539442ce94bf2408c86fa4542c4efd", "type": "electric_scooter", "is_disabled": 0, "lat": 38.91927666666667, "rental_uris": {"ios": "https://dc.lft.to/lastmile_qr_scan", "android": "https://dc.lft.to/lastmile_qr_scan"}, "is_reserved": 0, "fusion_lon": 0.0, "fusion_lat": 0.0, "lon": -77.02600933333333, "name": "9e539442ce94bf2408c86fa4542c4efd"}, {"bike_id": "723a91c1d9bd1c65764112a5b35bae34", "type": "electric_scooter", "is_disabled": 0, "lat": 38.90554433333333, "rental_uris": {"ios": "https://dc.lft.to/lastmile_qr_scan", "android": "https://dc.lft.to/lastmile_qr_scan"}, "is_reserved": 0, "fusion_lon": 0.0, "fusion_lat": 0.0, "lon": -77.0056315, "name": "723a91c1d9bd1c65764112a5b35bae34"}, {"bike_id": "4eea08e69b069c665ea28a67d3c77b56", "type": "electric_scooter", "is_disabled": 0, "lat": 38.862409666666665, "rental_uris": {"ios": "https://dc.lft.to/lastmile_qr_scan", "android": "https://dc.lft.to/lastmile_qr_scan"}, "is_reserved": 0, "fusion_lon": 0.0, "fusion_lat": 0.0, "lon": -76.99268833333333, "name": "4eea08e69b069c665ea28a67d3c77b56"}, {"bike_id": "a6c8db4b4ba107e136877ece1b58a0e3", "type": "electric_scooter", "is_disabled": 0, "lat": 38.921517333333334, "rental_uris": {"ios": "https://dc.lft.to/lastmile_qr_scan", "android": "https://dc.lft.to/lastmile_qr_scan"}, "is_reserved": 0, "fusion_lon": 0.0, "fusion_lat": 0.0, "lon": -77.03341133333333, "name": "a6c8db4b4ba107e136877ece1b58a0e3"}, {"bike_id": "5a40e6623cb613464c25a3540335cdb1", "type": "electric_scooter", "is_disabled": 0, "lat": 38.915978333333335, "rental_uris": {"ios": "https://dc.lft.to/lastmile_qr_scan", "android": "https://dc.lft.to/lastmile_qr_scan"}, "is_reserved": 0, "fusion_lon": 0.0, "fusion_lat": 0.0, "lon": -77.03992, "name": "5a40e6623cb613464c25a3540335cdb1"}, {"bike_id": "59707941ef41a66b0f604092c9f9ac65", "type": "electric_bike", "is_disabled": 0, "lat": 38.94368633333333, "rental_uris": {"ios": "https://dc.lft.to/lastmile_qr_scan", "android": "https://dc.lft.to/lastmile_qr_scan"}, "is_reserved": 0, "fusion_lon": 0.0, "fusion_lat": 0.0, "lon": -77.00351, "name": "59707941ef41a66b0f604092c9f9ac65"}, {"bike_id": "69eb144c725d81fe591af8043c5cf319", "type": "electric_scooter", "is_disabled": 0, "lat": 38.9398375, "rental_uris": {"ios": "https://dc.lft.to/lastmile_qr_scan", "android": "https://dc.lft.to/lastmile_qr_scan"}, "is_reserved": 0, "fusion_lon": 0.0, "fusion_lat": 0.0, "lon": -77.02875483333334, "name": "69eb144c725d81fe591af8043c5cf319"}, {"bike_id": "e7e260741500ede64c12439d28951932", "type": "electric_scooter", "is_disabled": 0, "lat": 38.907878, "rental_uris": {"ios": "https://dc.lft.to/lastmile_qr_scan", "android": "https://dc.lft.to/lastmile_qr_scan"}, "is_reserved": 0, "fusion_lon": 0.0, "fusion_lat": 0.0, "lon": -76.994361, "name": "e7e260741500ede64c12439d28951932"}, {"bike_id": "9427234ec35f0f1b8bdebadc13196e62", "type": "electric_scooter", "is_disabled": 0, "lat": 38.94613433333333, "rental_uris": {"ios": "https://dc.lft.to/lastmile_qr_scan", "android": "https://dc.lft.to/lastmile_qr_scan"}, "is_reserved": 0, "fusion_lon": 0.0, "fusion_lat": 0.0, "lon": -77.02270583333333, "name": "9427234ec35f0f1b8bdebadc13196e62"}, {"bike_id": "34fd37fa4f731ecbbb59c4e2d231ba15", "type": "electric_scooter", "is_disabled": 0, "lat": 38.92700083333333, "rental_uris": {"ios": "https://dc.lft.to/lastmile_qr_scan", "android": "https://dc.lft.to/lastmile_qr_scan"}, "is_reserved": 0, "fusion_lon": 0.0, "fusion_lat": 0.0, "lon": -77.02071633333334, "name": "34fd37fa4f731ecbbb59c4e2d231ba15"}, {"bike_id": "eb26f2b550f32cca4234e7a4a152c681", "type": "electric_scooter", "is_disabled": 0, "lat": 38.933196, "rental_uris": {"ios": "https://dc.lft.to/lastmile_qr_scan", "android": "https://dc.lft.to/lastmile_qr_scan"}, "is_reserved": 0, "fusion_lon": 0.0, "fusion_lat": 0.0, "lon": -77.02393766666667, "name": "eb26f2b550f32cca4234e7a4a152c681"}, {"bike_id": "b66f64e4c0116e6a12ee78e03dee155e", "type": "electric_scooter", "is_disabled": 0, "lat": 38.86621983333333, "rental_uris": {"ios": "https://dc.lft.to/lastmile_qr_scan", "android": "https://dc.lft.to/lastmile_qr_scan"}, "is_reserved": 0, "fusion_lon": 0.0, "fusion_lat": 0.0, "lon": -76.9871885, "name": "b66f64e4c0116e6a12ee78e03dee155e"}, {"bike_id": "a181a4f023d8f2bc8c8913e0e9ae06f8", "type": "electric_scooter", "is_disabled": 0, "lat": 38.90554916666667, "rental_uris": {"ios": "https://dc.lft.to/lastmile_qr_scan", "android": "https://dc.lft.to/lastmile_qr_scan"}, "is_reserved": 0, "fusion_lon": 0.0, "fusion_lat": 0.0, "lon": -77.02189983333334, "name": "a181a4f023d8f2bc8c8913e0e9ae06f8"}, {"bike_id": "7b9a6b749868a0aa8c7eb5e169d66f83", "type": "electric_scooter", "is_disabled": 0, "lat": 38.894833, "rental_uris": {"ios": "https://dc.lft.to/lastmile_qr_scan", "android": "https://dc.lft.to/lastmile_qr_scan"}, "is_reserved": 0, "fusion_lon": 0.0, "fusion_lat": 0.0, "lon": -76.98789733333334, "name": "7b9a6b749868a0aa8c7eb5e169d66f83"}, {"bike_id": "51d9ee223ef52b65b7b253081592f572", "type": "electric_scooter", "is_disabled": 0, "lat": 38.8580775, "rental_uris": {"ios": "https://dc.lft.to/lastmile_qr_scan", "android": "https://dc.lft.to/lastmile_qr_scan"}, "is_reserved": 0, "fusion_lon": 0.0, "fusion_lat": 0.0, "lon": -76.9892605, "name": "51d9ee223ef52b65b7b253081592f572"}, {"bike_id": "5999bf11d5f17c3817ad5dd90103c58f", "type": "electric_scooter", "is_disabled": 0, "lat": 38.87067116666667, "rental_uris": {"ios": "https://dc.lft.to/lastmile_qr_scan", "android": "https://dc.lft.to/lastmile_qr_scan"}, "is_reserved": 0, "fusion_lon": 0.0, "fusion_lat": 0.0, "lon": -76.98137283333334, "name": "5999bf11d5f17c3817ad5dd90103c58f"}, {"bike_id": "2439c1ceff5c78b115828fad38f76aee", "type": "electric_scooter", "is_disabled": 0, "lat": 38.89290666666667, "rental_uris": {"ios": "https://dc.lft.to/lastmile_qr_scan", "android": "https://dc.lft.to/lastmile_qr_scan"}, "is_reserved": 0, "fusion_lon": 0.0, "fusion_lat": 0.0, "lon": -77.02022466666666, "name": "2439c1ceff5c78b115828fad38f76aee"}, {"bike_id": "e852737e46c0cdf21c7bc4b567b62224", "type": "electric_scooter", "is_disabled": 0, "lat": 38.8930325, "rental_uris": {"ios": "https://dc.lft.to/lastmile_qr_scan", "android": "https://dc.lft.to/lastmile_qr_scan"}, "is_reserved": 0, "fusion_lon": 0.0, "fusion_lat": 0.0, "lon": -77.02020166666667, "name": "e852737e46c0cdf21c7bc4b567b62224"}, {"bike_id": "b0e4a7ca96263922405d8a66fe781b3c", "type": "electric_scooter", "is_disabled": 0, "lat": 38.908622333333334, "rental_uris": {"ios": "https://dc.lft.to/lastmile_qr_scan", "android": "https://dc.lft.to/lastmile_qr_scan"}, "is_reserved": 0, "fusion_lon": 0.0, "fusion_lat": 0.0, "lon": -76.99949916666667, "name": "b0e4a7ca96263922405d8a66fe781b3c"}, {"bike_id": "3c0c2f571bdb689144608577b5947501", "type": "electric_scooter", "is_disabled": 0, "lat": 38.88635133333333, "rental_uris": {"ios": "https://dc.lft.to/lastmile_qr_scan", "android": "https://dc.lft.to/lastmile_qr_scan"}, "is_reserved": 0, "fusion_lon": 0.0, "fusion_lat": 0.0, "lon": -77.01375316666666, "name": "3c0c2f571bdb689144608577b5947501"}, {"bike_id": "ddcfee973b56b13ade1dae7e61c33dd1", "type": "electric_scooter", "is_disabled": 0, "lat": 38.935051, "rental_uris": {"ios": "https://dc.lft.to/lastmile_qr_scan", "android": "https://dc.lft.to/lastmile_qr_scan"}, "is_reserved": 0, "fusion_lon": 0.0, "fusion_lat": 0.0, "lon": -77.025472, "name": "ddcfee973b56b13ade1dae7e61c33dd1"}, {"bike_id": "74a611b13475337c522bb8a7e240e0cf", "type": "electric_scooter", "is_disabled": 0, "lat": 38.916965833333336, "rental_uris": {"ios": "https://dc.lft.to/lastmile_qr_scan", "android": "https://dc.lft.to/lastmile_qr_scan"}, "is_reserved": 0, "fusion_lon": 0.0, "fusion_lat": 0.0, "lon": -77.02904066666666, "name": "74a611b13475337c522bb8a7e240e0cf"}, {"bike_id": "2869844fdc3944975bff0f03d9774199", "type": "electric_scooter", "is_disabled": 0, "lat": 38.899650333333334, "rental_uris": {"ios": "https://dc.lft.to/lastmile_qr_scan", "android": "https://dc.lft.to/lastmile_qr_scan"}, "is_reserved": 0, "fusion_lon": 0.0, "fusion_lat": 0.0, "lon": -76.98309266666666, "name": "2869844fdc3944975bff0f03d9774199"}, {"bike_id": "b7b945f788bac0457d03aecd9269df59", "type": "electric_scooter", "is_disabled": 0, "lat": 38.90712966666667, "rental_uris": {"ios": "https://dc.lft.to/lastmile_qr_scan", "android": "https://dc.lft.to/lastmile_qr_scan"}, "is_reserved": 0, "fusion_lon": 0.0, "fusion_lat": 0.0, "lon": -77.02625633333334, "name": "b7b945f788bac0457d03aecd9269df59"}, {"bike_id": "c471d994a5d744e6e6814f8aa09340e8", "type": "electric_scooter", "is_disabled": 0, "lat": 38.940726, "rental_uris": {"ios": "https://dc.lft.to/lastmile_qr_scan", "android": "https://dc.lft.to/lastmile_qr_scan"}, "is_reserved": 0, "fusion_lon": 0.0, "fusion_lat": 0.0, "lon": -77.0611345, "name": "c471d994a5d744e6e6814f8aa09340e8"}, {"bike_id": "bef8e8f8eeb5cad3624e678bd22714a2", "type": "electric_scooter", "is_disabled": 0, "lat": 38.910349, "rental_uris": {"ios": "https://dc.lft.to/lastmile_qr_scan", "android": "https://dc.lft.to/lastmile_qr_scan"}, "is_reserved": 0, "fusion_lon": 0.0, "fusion_lat": 0.0, "lon": -77.038044, "name": "bef8e8f8eeb5cad3624e678bd22714a2"}, {"bike_id": "474874debd25301867c0dc8979481445", "type": "electric_scooter", "is_disabled": 0, "lat": 38.8923055, "rental_uris": {"ios": "https://dc.lft.to/lastmile_qr_scan", "android": "https://dc.lft.to/lastmile_qr_scan"}, "is_reserved": 0, "fusion_lon": 0.0, "fusion_lat": 0.0, "lon": -77.05003766666667, "name": "474874debd25301867c0dc8979481445"}, {"bike_id": "308a15fa07e3b48d96d205ae6bd49388", "type": "electric_scooter", "is_disabled": 0, "lat": 38.91657083333333, "rental_uris": {"ios": "https://dc.lft.to/lastmile_qr_scan", "android": "https://dc.lft.to/lastmile_qr_scan"}, "is_reserved": 0, "fusion_lon": 0.0, "fusion_lat": 0.0, "lon": -77.023844, "name": "308a15fa07e3b48d96d205ae6bd49388"}, {"bike_id": "ca4e0a83af970b37a0b844ff393a05e5", "type": "electric_scooter", "is_disabled": 0, "lat": 38.90785316666667, "rental_uris": {"ios": "https://dc.lft.to/lastmile_qr_scan", "android": "https://dc.lft.to/lastmile_qr_scan"}, "is_reserved": 0, "fusion_lon": 0.0, "fusion_lat": 0.0, "lon": -77.041744, "name": "ca4e0a83af970b37a0b844ff393a05e5"}, {"bike_id": "a48d43139f8c502b36bf7ad6cb93a80b", "type": "electric_scooter", "is_disabled": 0, "lat": 38.942917, "rental_uris": {"ios": "https://dc.lft.to/lastmile_qr_scan", "android": "https://dc.lft.to/lastmile_qr_scan"}, "is_reserved": 0, "fusion_lon": 0.0, "fusion_lat": 0.0, "lon": -77.02176266666666, "name": "a48d43139f8c502b36bf7ad6cb93a80b"}, {"bike_id": "7f112c4572b96798610f799d068d497f", "type": "electric_scooter", "is_disabled": 0, "lat": 38.9024835, "rental_uris": {"ios": "https://dc.lft.to/lastmile_qr_scan", "android": "https://dc.lft.to/lastmile_qr_scan"}, "is_reserved": 0, "fusion_lon": 0.0, "fusion_lat": 0.0, "lon": -77.029626, "name": "7f112c4572b96798610f799d068d497f"}, {"bike_id": "3f82f65079fe9ad06463d95b035b4440", "type": "electric_scooter", "is_disabled": 0, "lat": 38.8949805, "rental_uris": {"ios": "https://dc.lft.to/lastmile_qr_scan", "android": "https://dc.lft.to/lastmile_qr_scan"}, "is_reserved": 0, "fusion_lon": 0.0, "fusion_lat": 0.0, "lon": -77.010929, "name": "3f82f65079fe9ad06463d95b035b4440"}, {"bike_id": "038cec0e8a20ae81d6c10e3ebd94688a", "type": "electric_scooter", "is_disabled": 0, "lat": 38.91893916666667, "rental_uris": {"ios": "https://dc.lft.to/lastmile_qr_scan", "android": "https://dc.lft.to/lastmile_qr_scan"}, "is_reserved": 0, "fusion_lon": 0.0, "fusion_lat": 0.0, "lon": -77.03703833333333, "name": "038cec0e8a20ae81d6c10e3ebd94688a"}, {"bike_id": "13aecea2963adc843f296ef875672bfc", "type": "electric_scooter", "is_disabled": 0, "lat": 38.912403166666664, "rental_uris": {"ios": "https://dc.lft.to/lastmile_qr_scan", "android": "https://dc.lft.to/lastmile_qr_scan"}, "is_reserved": 0, "fusion_lon": 0.0, "fusion_lat": 0.0, "lon": -77.02222816666666, "name": "13aecea2963adc843f296ef875672bfc"}, {"bike_id": "9144d2d45c592a8864a74c22eff3cab3", "type": "electric_scooter", "is_disabled": 0, "lat": 38.902289333333336, "rental_uris": {"ios": "https://dc.lft.to/lastmile_qr_scan", "android": "https://dc.lft.to/lastmile_qr_scan"}, "is_reserved": 0, "fusion_lon": 0.0, "fusion_lat": 0.0, "lon": -77.02980033333333, "name": "9144d2d45c592a8864a74c22eff3cab3"}, {"bike_id": "489ec5539a0423c6a459545e42c18a0e", "type": "electric_scooter", "is_disabled": 0, "lat": 38.91631683333333, "rental_uris": {"ios": "https://dc.lft.to/lastmile_qr_scan", "android": "https://dc.lft.to/lastmile_qr_scan"}, "is_reserved": 0, "fusion_lon": 0.0, "fusion_lat": 0.0, "lon": -77.02564766666667, "name": "489ec5539a0423c6a459545e42c18a0e"}, {"bike_id": "b85d0a42771051783d7fe4b736634fde", "type": "electric_scooter", "is_disabled": 0, "lat": 38.89731183333333, "rental_uris": {"ios": "https://dc.lft.to/lastmile_qr_scan", "android": "https://dc.lft.to/lastmile_qr_scan"}, "is_reserved": 0, "fusion_lon": 0.0, "fusion_lat": 0.0, "lon": -76.947244, "name": "b85d0a42771051783d7fe4b736634fde"}, {"bike_id": "20b4ba3d129cfc3121fa99c3749a04a7", "type": "electric_scooter", "is_disabled": 0, "lat": 38.91737466666667, "rental_uris": {"ios": "https://dc.lft.to/lastmile_qr_scan", "android": "https://dc.lft.to/lastmile_qr_scan"}, "is_reserved": 0, "fusion_lon": 0.0, "fusion_lat": 0.0, "lon": -77.03200466666667, "name": "20b4ba3d129cfc3121fa99c3749a04a7"}, {"bike_id": "ab0fb0bcb1e7e341edf227356e02eb1e", "type": "electric_scooter", "is_disabled": 0, "lat": 38.90133866666667, "rental_uris": {"ios": "https://dc.lft.to/lastmile_qr_scan", "android": "https://dc.lft.to/lastmile_qr_scan"}, "is_reserved": 0, "fusion_lon": 0.0, "fusion_lat": 0.0, "lon": -77.02022333333333, "name": "ab0fb0bcb1e7e341edf227356e02eb1e"}, {"bike_id": "c904949e98a7e96eddcac55e61e02ef0", "type": "electric_scooter", "is_disabled": 0, "lat": 38.90059266666667, "rental_uris": {"ios": "https://dc.lft.to/lastmile_qr_scan", "android": "https://dc.lft.to/lastmile_qr_scan"}, "is_reserved": 0, "fusion_lon": 0.0, "fusion_lat": 0.0, "lon": -77.05017983333333, "name": "c904949e98a7e96eddcac55e61e02ef0"}, {"bike_id": "96337314cb1c340f635f889fc8cb3656", "type": "electric_scooter", "is_disabled": 0, "lat": 38.91680433333333, "rental_uris": {"ios": "https://dc.lft.to/lastmile_qr_scan", "android": "https://dc.lft.to/lastmile_qr_scan"}, "is_reserved": 0, "fusion_lon": 0.0, "fusion_lat": 0.0, "lon": -77.02921483333333, "name": "96337314cb1c340f635f889fc8cb3656"}, {"bike_id": "297570632617a1f447dfd527d0121318", "type": "electric_scooter", "is_disabled": 0, "lat": 38.9066895, "rental_uris": {"ios": "https://dc.lft.to/lastmile_qr_scan", "android": "https://dc.lft.to/lastmile_qr_scan"}, "is_reserved": 0, "fusion_lon": 0.0, "fusion_lat": 0.0, "lon": -77.02702183333334, "name": "297570632617a1f447dfd527d0121318"}, {"bike_id": "3f6345e5ed4162856055fab0ae826043", "type": "electric_scooter", "is_disabled": 0, "lat": 38.933962666666666, "rental_uris": {"ios": "https://dc.lft.to/lastmile_qr_scan", "android": "https://dc.lft.to/lastmile_qr_scan"}, "is_reserved": 0, "fusion_lon": 0.0, "fusion_lat": 0.0, "lon": -77.05744316666667, "name": "3f6345e5ed4162856055fab0ae826043"}, {"bike_id": "aa87d5df6f02f90ae400ff91d3d212c9", "type": "electric_scooter", "is_disabled": 0, "lat": 38.964390333333334, "rental_uris": {"ios": "https://dc.lft.to/lastmile_qr_scan", "android": "https://dc.lft.to/lastmile_qr_scan"}, "is_reserved": 0, "fusion_lon": 0.0, "fusion_lat": 0.0, "lon": -77.02075433333333, "name": "aa87d5df6f02f90ae400ff91d3d212c9"}, {"bike_id": "b4f172a94f033c8727d73b37a27afe96", "type": "electric_scooter", "is_disabled": 0, "lat": 38.90142266666667, "rental_uris": {"ios": "https://dc.lft.to/lastmile_qr_scan", "android": "https://dc.lft.to/lastmile_qr_scan"}, "is_reserved": 0, "fusion_lon": 0.0, "fusion_lat": 0.0, "lon": -77.022809, "name": "b4f172a94f033c8727d73b37a27afe96"}, {"bike_id": "799a2c4bc3358d9c89aa437ef8509b35", "type": "electric_scooter", "is_disabled": 0, "lat": 38.9005335, "rental_uris": {"ios": "https://dc.lft.to/lastmile_qr_scan", "android": "https://dc.lft.to/lastmile_qr_scan"}, "is_reserved": 0, "fusion_lon": 0.0, "fusion_lat": 0.0, "lon": -76.99754933333334, "name": "799a2c4bc3358d9c89aa437ef8509b35"}, {"bike_id": "eee65665063cc1a146d339bbf344d578", "type": "electric_scooter", "is_disabled": 0, "lat": 38.92370316666667, "rental_uris": {"ios": "https://dc.lft.to/lastmile_qr_scan", "android": "https://dc.lft.to/lastmile_qr_scan"}, "is_reserved": 0, "fusion_lon": 0.0, "fusion_lat": 0.0, "lon": -77.04313366666666, "name": "eee65665063cc1a146d339bbf344d578"}, {"bike_id": "c3874581133a25d6f31686e88d57b2a1", "type": "electric_scooter", "is_disabled": 0, "lat": 38.907431833333334, "rental_uris": {"ios": "https://dc.lft.to/lastmile_qr_scan", "android": "https://dc.lft.to/lastmile_qr_scan"}, "is_reserved": 0, "fusion_lon": 0.0, "fusion_lat": 0.0, "lon": -77.04150133333333, "name": "c3874581133a25d6f31686e88d57b2a1"}, {"bike_id": "e736d553832a2e7aa2c7510abb048677", "type": "electric_scooter", "is_disabled": 0, "lat": 38.87472966666667, "rental_uris": {"ios": "https://dc.lft.to/lastmile_qr_scan", "android": "https://dc.lft.to/lastmile_qr_scan"}, "is_reserved": 0, "fusion_lon": 0.0, "fusion_lat": 0.0, "lon": -77.01069416666667, "name": "e736d553832a2e7aa2c7510abb048677"}, {"bike_id": "f65963a747a57413cfa0b0a4644f7b0f", "type": "electric_bike", "is_disabled": 0, "lat": 38.87881516666667, "rental_uris": {"ios": "https://dc.lft.to/lastmile_qr_scan", "android": "https://dc.lft.to/lastmile_qr_scan"}, "is_reserved": 0, "fusion_lon": 0.0, "fusion_lat": 0.0, "lon": -77.09618266666666, "name": "f65963a747a57413cfa0b0a4644f7b0f"}, {"bike_id": "41ce90490b7f16b14a0024a64f9b3a76", "type": "electric_scooter", "is_disabled": 0, "lat": 38.903220833333336, "rental_uris": {"ios": "https://dc.lft.to/lastmile_qr_scan", "android": "https://dc.lft.to/lastmile_qr_scan"}, "is_reserved": 0, "fusion_lon": 0.0, "fusion_lat": 0.0, "lon": -77.0289685, "name": "41ce90490b7f16b14a0024a64f9b3a76"}, {"bike_id": "94d7d7abd077a7f1afdd0d032461f0a3", "type": "electric_scooter", "is_disabled": 0, "lat": 38.91551466666667, "rental_uris": {"ios": "https://dc.lft.to/lastmile_qr_scan", "android": "https://dc.lft.to/lastmile_qr_scan"}, "is_reserved": 0, "fusion_lon": 0.0, "fusion_lat": 0.0, "lon": -77.03218283333334, "name": "94d7d7abd077a7f1afdd0d032461f0a3"}, {"bike_id": "846a33a5fa821e742cbe2d3268b41a0b", "type": "electric_scooter", "is_disabled": 0, "lat": 38.90959333333333, "rental_uris": {"ios": "https://dc.lft.to/lastmile_qr_scan", "android": "https://dc.lft.to/lastmile_qr_scan"}, "is_reserved": 0, "fusion_lon": 0.0, "fusion_lat": 0.0, "lon": -77.03638616666667, "name": "846a33a5fa821e742cbe2d3268b41a0b"}, {"bike_id": "12d9044c252f4ab56d7fbf6635895d27", "type": "electric_scooter", "is_disabled": 0, "lat": 38.9218685, "rental_uris": {"ios": "https://dc.lft.to/lastmile_qr_scan", "android": "https://dc.lft.to/lastmile_qr_scan"}, "is_reserved": 0, "fusion_lon": 0.0, "fusion_lat": 0.0, "lon": -77.01972866666667, "name": "12d9044c252f4ab56d7fbf6635895d27"}, {"bike_id": "7b02072a06101c84dadd0ffdeed9fac4", "type": "electric_scooter", "is_disabled": 0, "lat": 38.922150333333335, "rental_uris": {"ios": "https://dc.lft.to/lastmile_qr_scan", "android": "https://dc.lft.to/lastmile_qr_scan"}, "is_reserved": 0, "fusion_lon": 0.0, "fusion_lat": 0.0, "lon": -77.032979, "name": "7b02072a06101c84dadd0ffdeed9fac4"}, {"bike_id": "87dcc61c1b832ba99f5d21b1f0b8ae1c", "type": "electric_scooter", "is_disabled": 0, "lat": 38.8762125, "rental_uris": {"ios": "https://dc.lft.to/lastmile_qr_scan", "android": "https://dc.lft.to/lastmile_qr_scan"}, "is_reserved": 0, "fusion_lon": 0.0, "fusion_lat": 0.0, "lon": -77.0007625, "name": "87dcc61c1b832ba99f5d21b1f0b8ae1c"}, {"bike_id": "16b1bd886045ffee1a6781d74fe03be7", "type": "electric_scooter", "is_disabled": 0, "lat": 38.918322333333336, "rental_uris": {"ios": "https://dc.lft.to/lastmile_qr_scan", "android": "https://dc.lft.to/lastmile_qr_scan"}, "is_reserved": 0, "fusion_lon": 0.0, "fusion_lat": 0.0, "lon": -76.96545783333333, "name": "16b1bd886045ffee1a6781d74fe03be7"}, {"bike_id": "eb896ef454f0c76b2d36d2cc0aca94d6", "type": "electric_scooter", "is_disabled": 0, "lat": 38.928321, "rental_uris": {"ios": "https://dc.lft.to/lastmile_qr_scan", "android": "https://dc.lft.to/lastmile_qr_scan"}, "is_reserved": 0, "fusion_lon": 0.0, "fusion_lat": 0.0, "lon": -77.05505766666667, "name": "eb896ef454f0c76b2d36d2cc0aca94d6"}, {"bike_id": "654c979a57f5e5fab23f0d60e05b8993", "type": "electric_scooter", "is_disabled": 0, "lat": 38.9111725, "rental_uris": {"ios": "https://dc.lft.to/lastmile_qr_scan", "android": "https://dc.lft.to/lastmile_qr_scan"}, "is_reserved": 0, "fusion_lon": 0.0, "fusion_lat": 0.0, "lon": -77.03783133333333, "name": "654c979a57f5e5fab23f0d60e05b8993"}, {"bike_id": "e812826463cc90a1cd513ec14a69c088", "type": "electric_scooter", "is_disabled": 0, "lat": 38.917503333333336, "rental_uris": {"ios": "https://dc.lft.to/lastmile_qr_scan", "android": "https://dc.lft.to/lastmile_qr_scan"}, "is_reserved": 0, "fusion_lon": 0.0, "fusion_lat": 0.0, "lon": -77.038627, "name": "e812826463cc90a1cd513ec14a69c088"}, {"bike_id": "3083d683e18f5ec69c955ca98c1fd53c", "type": "electric_scooter", "is_disabled": 0, "lat": 38.894726, "rental_uris": {"ios": "https://dc.lft.to/lastmile_qr_scan", "android": "https://dc.lft.to/lastmile_qr_scan"}, "is_reserved": 0, "fusion_lon": 0.0, "fusion_lat": 0.0, "lon": -77.01997983333334, "name": "3083d683e18f5ec69c955ca98c1fd53c"}, {"bike_id": "1d4a8e05f15b732b19ae591786bbf3fc", "type": "electric_scooter", "is_disabled": 0, "lat": 38.90306666666667, "rental_uris": {"ios": "https://dc.lft.to/lastmile_qr_scan", "android": "https://dc.lft.to/lastmile_qr_scan"}, "is_reserved": 0, "fusion_lon": 0.0, "fusion_lat": 0.0, "lon": -77.05182616666667, "name": "1d4a8e05f15b732b19ae591786bbf3fc"}, {"bike_id": "c5a5e07e27df0db7685454a4bcef765e", "type": "electric_scooter", "is_disabled": 0, "lat": 38.90969466666667, "rental_uris": {"ios": "https://dc.lft.to/lastmile_qr_scan", "android": "https://dc.lft.to/lastmile_qr_scan"}, "is_reserved": 0, "fusion_lon": 0.0, "fusion_lat": 0.0, "lon": -77.038594, "name": "c5a5e07e27df0db7685454a4bcef765e"}, {"bike_id": "a053413d8f3ea57a8d1e2c765fe1c6c2", "type": "electric_scooter", "is_disabled": 0, "lat": 38.92790633333333, "rental_uris": {"ios": "https://dc.lft.to/lastmile_qr_scan", "android": "https://dc.lft.to/lastmile_qr_scan"}, "is_reserved": 0, "fusion_lon": 0.0, "fusion_lat": 0.0, "lon": -77.04333033333333, "name": "a053413d8f3ea57a8d1e2c765fe1c6c2"}, {"bike_id": "e9cc9f58217886c4b50e81e1b6baaed1", "type": "electric_bike", "is_disabled": 0, "lat": 38.897407666666666, "rental_uris": {"ios": "https://dc.lft.to/lastmile_qr_scan", "android": "https://dc.lft.to/lastmile_qr_scan"}, "is_reserved": 0, "fusion_lon": 0.0, "fusion_lat": 0.0, "lon": -76.92049016666667, "name": "e9cc9f58217886c4b50e81e1b6baaed1"}, {"bike_id": "e0b7a2258264b19960580d178447c4d3", "type": "electric_scooter", "is_disabled": 0, "lat": 38.908663833333335, "rental_uris": {"ios": "https://dc.lft.to/lastmile_qr_scan", "android": "https://dc.lft.to/lastmile_qr_scan"}, "is_reserved": 0, "fusion_lon": 0.0, "fusion_lat": 0.0, "lon": -76.99807366666667, "name": "e0b7a2258264b19960580d178447c4d3"}, {"bike_id": "eb07fe411a5cdd68e1f78bc6850dfbff", "type": "electric_scooter", "is_disabled": 0, "lat": 38.91826416666667, "rental_uris": {"ios": "https://dc.lft.to/lastmile_qr_scan", "android": "https://dc.lft.to/lastmile_qr_scan"}, "is_reserved": 0, "fusion_lon": 0.0, "fusion_lat": 0.0, "lon": -77.04945516666666, "name": "eb07fe411a5cdd68e1f78bc6850dfbff"}, {"bike_id": "cbc90a1d3e575e9323a817da63ac76d8", "type": "electric_scooter", "is_disabled": 0, "lat": 38.94303883333333, "rental_uris": {"ios": "https://dc.lft.to/lastmile_qr_scan", "android": "https://dc.lft.to/lastmile_qr_scan"}, "is_reserved": 0, "fusion_lon": 0.0, "fusion_lat": 0.0, "lon": -77.06209083333333, "name": "cbc90a1d3e575e9323a817da63ac76d8"}, {"bike_id": "46b91078408989511f4a872e9eddf210", "type": "electric_scooter", "is_disabled": 0, "lat": 38.866833, "rental_uris": {"ios": "https://dc.lft.to/lastmile_qr_scan", "android": "https://dc.lft.to/lastmile_qr_scan"}, "is_reserved": 0, "fusion_lon": 0.0, "fusion_lat": 0.0, "lon": -76.98582266666666, "name": "46b91078408989511f4a872e9eddf210"}, {"bike_id": "ec7a0b461d75693e85c253cffc76cd74", "type": "electric_scooter", "is_disabled": 0, "lat": 38.957332, "rental_uris": {"ios": "https://dc.lft.to/lastmile_qr_scan", "android": "https://dc.lft.to/lastmile_qr_scan"}, "is_reserved": 0, "fusion_lon": 0.0, "fusion_lat": 0.0, "lon": -77.02407216666667, "name": "ec7a0b461d75693e85c253cffc76cd74"}, {"bike_id": "c630d2b530b8638b583a0d83824aaa25", "type": "electric_scooter", "is_disabled": 0, "lat": 38.89831516666667, "rental_uris": {"ios": "https://dc.lft.to/lastmile_qr_scan", "android": "https://dc.lft.to/lastmile_qr_scan"}, "is_reserved": 0, "fusion_lon": 0.0, "fusion_lat": 0.0, "lon": -76.9195605, "name": "c630d2b530b8638b583a0d83824aaa25"}, {"bike_id": "fe1d4c7b23998c76f9d3e8e6c3f9e048", "type": "electric_scooter", "is_disabled": 0, "lat": 38.92318683333333, "rental_uris": {"ios": "https://dc.lft.to/lastmile_qr_scan", "android": "https://dc.lft.to/lastmile_qr_scan"}, "is_reserved": 0, "fusion_lon": 0.0, "fusion_lat": 0.0, "lon": -77.02129383333333, "name": "fe1d4c7b23998c76f9d3e8e6c3f9e048"}, {"bike_id": "032fcc7a54660bbea37322a2b6948f9c", "type": "electric_scooter", "is_disabled": 0, "lat": 38.9428705, "rental_uris": {"ios": "https://dc.lft.to/lastmile_qr_scan", "android": "https://dc.lft.to/lastmile_qr_scan"}, "is_reserved": 0, "fusion_lon": 0.0, "fusion_lat": 0.0, "lon": -77.03622966666667, "name": "032fcc7a54660bbea37322a2b6948f9c"}, {"bike_id": "7ff56732be11eb8e1d9f87fcc02bd763", "type": "electric_scooter", "is_disabled": 0, "lat": 38.890794666666665, "rental_uris": {"ios": "https://dc.lft.to/lastmile_qr_scan", "android": "https://dc.lft.to/lastmile_qr_scan"}, "is_reserved": 0, "fusion_lon": 0.0, "fusion_lat": 0.0, "lon": -76.9994515, "name": "7ff56732be11eb8e1d9f87fcc02bd763"}, {"bike_id": "9b25f454bc085f26cf04b81158e1098e", "type": "electric_scooter", "is_disabled": 0, "lat": 38.9010895, "rental_uris": {"ios": "https://dc.lft.to/lastmile_qr_scan", "android": "https://dc.lft.to/lastmile_qr_scan"}, "is_reserved": 0, "fusion_lon": 0.0, "fusion_lat": 0.0, "lon": -77.02190216666666, "name": "9b25f454bc085f26cf04b81158e1098e"}, {"bike_id": "fa025088b4b73b230c31d65e7ed23586", "type": "electric_scooter", "is_disabled": 0, "lat": 38.923128166666665, "rental_uris": {"ios": "https://dc.lft.to/lastmile_qr_scan", "android": "https://dc.lft.to/lastmile_qr_scan"}, "is_reserved": 0, "fusion_lon": 0.0, "fusion_lat": 0.0, "lon": -77.0402615, "name": "fa025088b4b73b230c31d65e7ed23586"}, {"bike_id": "fb4d804835c0266db1ecd123c6ebd185", "type": "electric_scooter", "is_disabled": 0, "lat": 38.91812133333333, "rental_uris": {"ios": "https://dc.lft.to/lastmile_qr_scan", "android": "https://dc.lft.to/lastmile_qr_scan"}, "is_reserved": 0, "fusion_lon": 0.0, "fusion_lat": 0.0, "lon": -77.02486766666667, "name": "fb4d804835c0266db1ecd123c6ebd185"}, {"bike_id": "5bd4753f090d9d9c28d38f769177a47d", "type": "electric_scooter", "is_disabled": 0, "lat": 38.92679166666667, "rental_uris": {"ios": "https://dc.lft.to/lastmile_qr_scan", "android": "https://dc.lft.to/lastmile_qr_scan"}, "is_reserved": 0, "fusion_lon": 0.0, "fusion_lat": 0.0, "lon": -77.03564566666667, "name": "5bd4753f090d9d9c28d38f769177a47d"}, {"bike_id": "200776cc38e72d75c2d62a1f64a97f2b", "type": "electric_scooter", "is_disabled": 0, "lat": 38.883846166666665, "rental_uris": {"ios": "https://dc.lft.to/lastmile_qr_scan", "android": "https://dc.lft.to/lastmile_qr_scan"}, "is_reserved": 0, "fusion_lon": 0.0, "fusion_lat": 0.0, "lon": -77.01768333333334, "name": "200776cc38e72d75c2d62a1f64a97f2b"}, {"bike_id": "84491c3f60394fb59b6e95ebdfaf6068", "type": "electric_bike", "is_disabled": 0, "lat": 38.904659333333335, "rental_uris": {"ios": "https://dc.lft.to/lastmile_qr_scan", "android": "https://dc.lft.to/lastmile_qr_scan"}, "is_reserved": 0, "fusion_lon": 0.0, "fusion_lat": 0.0, "lon": -77.06761016666667, "name": "84491c3f60394fb59b6e95ebdfaf6068"}, {"bike_id": "3c1913f1db18c13eb2a611c2abf2d0d9", "type": "electric_scooter", "is_disabled": 0, "lat": 38.917028, "rental_uris": {"ios": "https://dc.lft.to/lastmile_qr_scan", "android": "https://dc.lft.to/lastmile_qr_scan"}, "is_reserved": 0, "fusion_lon": 0.0, "fusion_lat": 0.0, "lon": -77.09579183333334, "name": "3c1913f1db18c13eb2a611c2abf2d0d9"}, {"bike_id": "4097a4af13761b4830da142c28e0e6b9", "type": "electric_scooter", "is_disabled": 0, "lat": 38.927701166666665, "rental_uris": {"ios": "https://dc.lft.to/lastmile_qr_scan", "android": "https://dc.lft.to/lastmile_qr_scan"}, "is_reserved": 0, "fusion_lon": 0.0, "fusion_lat": 0.0, "lon": -76.98762583333334, "name": "4097a4af13761b4830da142c28e0e6b9"}, {"bike_id": "2801face68025d173e18971a0aa5f6c1", "type": "electric_scooter", "is_disabled": 0, "lat": 38.865032166666666, "rental_uris": {"ios": "https://dc.lft.to/lastmile_qr_scan", "android": "https://dc.lft.to/lastmile_qr_scan"}, "is_reserved": 0, "fusion_lon": 0.0, "fusion_lat": 0.0, "lon": -76.99007383333333, "name": "2801face68025d173e18971a0aa5f6c1"}, {"bike_id": "b58daa9a54ba4ddb9efe57e3c60ae3d6", "type": "electric_scooter", "is_disabled": 0, "lat": 38.91949916666667, "rental_uris": {"ios": "https://dc.lft.to/lastmile_qr_scan", "android": "https://dc.lft.to/lastmile_qr_scan"}, "is_reserved": 0, "fusion_lon": 0.0, "fusion_lat": 0.0, "lon": -77.04159966666667, "name": "b58daa9a54ba4ddb9efe57e3c60ae3d6"}, {"bike_id": "7140b62dfdba7cb5c3b554569d5cddb6", "type": "electric_scooter", "is_disabled": 0, "lat": 38.89870583333333, "rental_uris": {"ios": "https://dc.lft.to/lastmile_qr_scan", "android": "https://dc.lft.to/lastmile_qr_scan"}, "is_reserved": 0, "fusion_lon": 0.0, "fusion_lat": 0.0, "lon": -77.04016216666666, "name": "7140b62dfdba7cb5c3b554569d5cddb6"}, {"bike_id": "0968ef9ac5d728d3886279f958080776", "type": "electric_scooter", "is_disabled": 0, "lat": 38.9232325, "rental_uris": {"ios": "https://dc.lft.to/lastmile_qr_scan", "android": "https://dc.lft.to/lastmile_qr_scan"}, "is_reserved": 0, "fusion_lon": 0.0, "fusion_lat": 0.0, "lon": -77.02974166666667, "name": "0968ef9ac5d728d3886279f958080776"}, {"bike_id": "dc5ef0df4b222130a2286b0366818e38", "type": "electric_scooter", "is_disabled": 0, "lat": 38.92144283333333, "rental_uris": {"ios": "https://dc.lft.to/lastmile_qr_scan", "android": "https://dc.lft.to/lastmile_qr_scan"}, "is_reserved": 0, "fusion_lon": 0.0, "fusion_lat": 0.0, "lon": -77.0344365, "name": "dc5ef0df4b222130a2286b0366818e38"}, {"bike_id": "4c18b745203a1c65859171e57f76a698", "type": "electric_scooter", "is_disabled": 0, "lat": 38.915549166666665, "rental_uris": {"ios": "https://dc.lft.to/lastmile_qr_scan", "android": "https://dc.lft.to/lastmile_qr_scan"}, "is_reserved": 0, "fusion_lon": 0.0, "fusion_lat": 0.0, "lon": -77.03323883333333, "name": "4c18b745203a1c65859171e57f76a698"}, {"bike_id": "410cf550a8b3784cb42f4ce087568182", "type": "electric_scooter", "is_disabled": 0, "lat": 38.91217183333333, "rental_uris": {"ios": "https://dc.lft.to/lastmile_qr_scan", "android": "https://dc.lft.to/lastmile_qr_scan"}, "is_reserved": 0, "fusion_lon": 0.0, "fusion_lat": 0.0, "lon": -77.0271935, "name": "410cf550a8b3784cb42f4ce087568182"}, {"bike_id": "c9a487d60d8a018f3737e118fcdf6d56", "type": "electric_scooter", "is_disabled": 0, "lat": 38.914117833333336, "rental_uris": {"ios": "https://dc.lft.to/lastmile_qr_scan", "android": "https://dc.lft.to/lastmile_qr_scan"}, "is_reserved": 0, "fusion_lon": 0.0, "fusion_lat": 0.0, "lon": -77.04003766666666, "name": "c9a487d60d8a018f3737e118fcdf6d56"}, {"bike_id": "0417e452e5f77ea84a1f87926438c205", "type": "electric_scooter", "is_disabled": 0, "lat": 38.91917866666667, "rental_uris": {"ios": "https://dc.lft.to/lastmile_qr_scan", "android": "https://dc.lft.to/lastmile_qr_scan"}, "is_reserved": 0, "fusion_lon": 0.0, "fusion_lat": 0.0, "lon": -77.03031283333333, "name": "0417e452e5f77ea84a1f87926438c205"}, {"bike_id": "49c8aa9b694c3367185b95965d99c60f", "type": "electric_scooter", "is_disabled": 0, "lat": 38.88301883333333, "rental_uris": {"ios": "https://dc.lft.to/lastmile_qr_scan", "android": "https://dc.lft.to/lastmile_qr_scan"}, "is_reserved": 0, "fusion_lon": 0.0, "fusion_lat": 0.0, "lon": -76.94208916666666, "name": "49c8aa9b694c3367185b95965d99c60f"}, {"bike_id": "14b54a0b3740d833ceda1de065070781", "type": "electric_scooter", "is_disabled": 0, "lat": 38.92701316666667, "rental_uris": {"ios": "https://dc.lft.to/lastmile_qr_scan", "android": "https://dc.lft.to/lastmile_qr_scan"}, "is_reserved": 0, "fusion_lon": 0.0, "fusion_lat": 0.0, "lon": -77.02068816666667, "name": "14b54a0b3740d833ceda1de065070781"}, {"bike_id": "290e5fd710b3dd51575453eada582ec6", "type": "electric_scooter", "is_disabled": 0, "lat": 38.923578, "rental_uris": {"ios": "https://dc.lft.to/lastmile_qr_scan", "android": "https://dc.lft.to/lastmile_qr_scan"}, "is_reserved": 0, "fusion_lon": 0.0, "fusion_lat": 0.0, "lon": -77.07647466666667, "name": "290e5fd710b3dd51575453eada582ec6"}, {"bike_id": "fab98dd243d86dde602581941107235e", "type": "electric_scooter", "is_disabled": 0, "lat": 38.92006, "rental_uris": {"ios": "https://dc.lft.to/lastmile_qr_scan", "android": "https://dc.lft.to/lastmile_qr_scan"}, "is_reserved": 0, "fusion_lon": 0.0, "fusion_lat": 0.0, "lon": -77.01812633333333, "name": "fab98dd243d86dde602581941107235e"}, {"bike_id": "0f15235234c47c1c5c8612eb2ba7f652", "type": "electric_bike", "is_disabled": 0, "lat": 38.969564, "rental_uris": {"ios": "https://dc.lft.to/lastmile_qr_scan", "android": "https://dc.lft.to/lastmile_qr_scan"}, "is_reserved": 0, "fusion_lon": 0.0, "fusion_lat": 0.0, "lon": -76.957534, "name": "0f15235234c47c1c5c8612eb2ba7f652"}, {"bike_id": "c479633b266b8f7ed31846523aa12a2a", "type": "electric_scooter", "is_disabled": 0, "lat": 38.91970666666667, "rental_uris": {"ios": "https://dc.lft.to/lastmile_qr_scan", "android": "https://dc.lft.to/lastmile_qr_scan"}, "is_reserved": 0, "fusion_lon": 0.0, "fusion_lat": 0.0, "lon": -77.03953266666667, "name": "c479633b266b8f7ed31846523aa12a2a"}, {"bike_id": "ccf68d63ee6ad4e712f39c5f4e1f7f96", "type": "electric_scooter", "is_disabled": 0, "lat": 38.85456383333333, "rental_uris": {"ios": "https://dc.lft.to/lastmile_qr_scan", "android": "https://dc.lft.to/lastmile_qr_scan"}, "is_reserved": 0, "fusion_lon": 0.0, "fusion_lat": 0.0, "lon": -76.97239833333333, "name": "ccf68d63ee6ad4e712f39c5f4e1f7f96"}, {"bike_id": "cb0da6c40462d6291aa33fd07f4e6c9d", "type": "electric_scooter", "is_disabled": 0, "lat": 38.9159405, "rental_uris": {"ios": "https://dc.lft.to/lastmile_qr_scan", "android": "https://dc.lft.to/lastmile_qr_scan"}, "is_reserved": 0, "fusion_lon": 0.0, "fusion_lat": 0.0, "lon": -77.00198116666667, "name": "cb0da6c40462d6291aa33fd07f4e6c9d"}, {"bike_id": "d1b8bbdbd417d65743713d81ff243930", "type": "electric_scooter", "is_disabled": 0, "lat": 38.91844716666667, "rental_uris": {"ios": "https://dc.lft.to/lastmile_qr_scan", "android": "https://dc.lft.to/lastmile_qr_scan"}, "is_reserved": 0, "fusion_lon": 0.0, "fusion_lat": 0.0, "lon": -76.965581, "name": "d1b8bbdbd417d65743713d81ff243930"}, {"bike_id": "255f3ed4523f1019572575a90711e85a", "type": "electric_scooter", "is_disabled": 0, "lat": 38.9241825, "rental_uris": {"ios": "https://dc.lft.to/lastmile_qr_scan", "android": "https://dc.lft.to/lastmile_qr_scan"}, "is_reserved": 0, "fusion_lon": 0.0, "fusion_lat": 0.0, "lon": -77.02011266666666, "name": "255f3ed4523f1019572575a90711e85a"}, {"bike_id": "ac2741acddcd9db8a33807e22f16f861", "type": "electric_scooter", "is_disabled": 0, "lat": 38.94722066666667, "rental_uris": {"ios": "https://dc.lft.to/lastmile_qr_scan", "android": "https://dc.lft.to/lastmile_qr_scan"}, "is_reserved": 0, "fusion_lon": 0.0, "fusion_lat": 0.0, "lon": -77.07861383333334, "name": "ac2741acddcd9db8a33807e22f16f861"}, {"bike_id": "1f96e57d108d6f6e1ce0fe7b3471c67f", "type": "electric_scooter", "is_disabled": 0, "lat": 38.9040985, "rental_uris": {"ios": "https://dc.lft.to/lastmile_qr_scan", "android": "https://dc.lft.to/lastmile_qr_scan"}, "is_reserved": 0, "fusion_lon": 0.0, "fusion_lat": 0.0, "lon": -76.97331933333334, "name": "1f96e57d108d6f6e1ce0fe7b3471c67f"}, {"bike_id": "5224a3715deb9e356cf8ac199e4346f3", "type": "electric_scooter", "is_disabled": 0, "lat": 38.915635333333334, "rental_uris": {"ios": "https://dc.lft.to/lastmile_qr_scan", "android": "https://dc.lft.to/lastmile_qr_scan"}, "is_reserved": 0, "fusion_lon": 0.0, "fusion_lat": 0.0, "lon": -77.03124983333333, "name": "5224a3715deb9e356cf8ac199e4346f3"}, {"bike_id": "1516f39a25fc469a42e676d795ca5eb8", "type": "electric_scooter", "is_disabled": 0, "lat": 38.917641833333334, "rental_uris": {"ios": "https://dc.lft.to/lastmile_qr_scan", "android": "https://dc.lft.to/lastmile_qr_scan"}, "is_reserved": 0, "fusion_lon": 0.0, "fusion_lat": 0.0, "lon": -77.03176716666667, "name": "1516f39a25fc469a42e676d795ca5eb8"}, {"bike_id": "724476a44b1e939082654b4d6cc01006", "type": "electric_bike", "is_disabled": 0, "lat": 38.9967875, "rental_uris": {"ios": "https://dc.lft.to/lastmile_qr_scan", "android": "https://dc.lft.to/lastmile_qr_scan"}, "is_reserved": 0, "fusion_lon": 0.0, "fusion_lat": 0.0, "lon": -77.03790683333334, "name": "724476a44b1e939082654b4d6cc01006"}, {"bike_id": "07cf92575ad6ea62b9cf4a03ccc9f356", "type": "electric_bike", "is_disabled": 0, "lat": 38.89611633333333, "rental_uris": {"ios": "https://dc.lft.to/lastmile_qr_scan", "android": "https://dc.lft.to/lastmile_qr_scan"}, "is_reserved": 0, "fusion_lon": 0.0, "fusion_lat": 0.0, "lon": -76.9073925, "name": "07cf92575ad6ea62b9cf4a03ccc9f356"}, {"bike_id": "1604588b1e1965df2751dae8744c81f0", "type": "electric_scooter", "is_disabled": 0, "lat": 38.903957, "rental_uris": {"ios": "https://dc.lft.to/lastmile_qr_scan", "android": "https://dc.lft.to/lastmile_qr_scan"}, "is_reserved": 0, "fusion_lon": 0.0, "fusion_lat": 0.0, "lon": -77.02413066666666, "name": "1604588b1e1965df2751dae8744c81f0"}, {"bike_id": "64d3d6cf682170ac7638078e24099f98", "type": "electric_scooter", "is_disabled": 0, "lat": 38.895975, "rental_uris": {"ios": "https://dc.lft.to/lastmile_qr_scan", "android": "https://dc.lft.to/lastmile_qr_scan"}, "is_reserved": 0, "fusion_lon": 0.0, "fusion_lat": 0.0, "lon": -77.02221033333333, "name": "64d3d6cf682170ac7638078e24099f98"}, {"bike_id": "8b7c049e51a9a870b4dd33e937b03066", "type": "electric_bike", "is_disabled": 0, "lat": 38.849646666666665, "rental_uris": {"ios": "https://dc.lft.to/lastmile_qr_scan", "android": "https://dc.lft.to/lastmile_qr_scan"}, "is_reserved": 0, "fusion_lon": 0.0, "fusion_lat": 0.0, "lon": -77.07761616666667, "name": "8b7c049e51a9a870b4dd33e937b03066"}, {"bike_id": "3a8615ca4a916eb0c4ce8879d3373fc0", "type": "electric_scooter", "is_disabled": 0, "lat": 38.915030333333334, "rental_uris": {"ios": "https://dc.lft.to/lastmile_qr_scan", "android": "https://dc.lft.to/lastmile_qr_scan"}, "is_reserved": 0, "fusion_lon": 0.0, "fusion_lat": 0.0, "lon": -77.01778416666667, "name": "3a8615ca4a916eb0c4ce8879d3373fc0"}, {"bike_id": "d435c4a73ede6d75487a4fff1e904f60", "type": "electric_scooter", "is_disabled": 0, "lat": 38.897261666666665, "rental_uris": {"ios": "https://dc.lft.to/lastmile_qr_scan", "android": "https://dc.lft.to/lastmile_qr_scan"}, "is_reserved": 0, "fusion_lon": 0.0, "fusion_lat": 0.0, "lon": -77.05475983333334, "name": "d435c4a73ede6d75487a4fff1e904f60"}, {"bike_id": "1c86bc823eb53227391314623e7a3b8a", "type": "electric_scooter", "is_disabled": 0, "lat": 38.92242066666667, "rental_uris": {"ios": "https://dc.lft.to/lastmile_qr_scan", "android": "https://dc.lft.to/lastmile_qr_scan"}, "is_reserved": 0, "fusion_lon": 0.0, "fusion_lat": 0.0, "lon": -77.0371405, "name": "1c86bc823eb53227391314623e7a3b8a"}, {"bike_id": "6e54496e58e70505b47c92a69f0976f9", "type": "electric_scooter", "is_disabled": 0, "lat": 38.90405166666667, "rental_uris": {"ios": "https://dc.lft.to/lastmile_qr_scan", "android": "https://dc.lft.to/lastmile_qr_scan"}, "is_reserved": 0, "fusion_lon": 0.0, "fusion_lat": 0.0, "lon": -77.06770666666667, "name": "6e54496e58e70505b47c92a69f0976f9"}, {"bike_id": "9c0982ea2977f82cacb0d4cda5cfc77d", "type": "electric_scooter", "is_disabled": 0, "lat": 38.90405716666667, "rental_uris": {"ios": "https://dc.lft.to/lastmile_qr_scan", "android": "https://dc.lft.to/lastmile_qr_scan"}, "is_reserved": 0, "fusion_lon": 0.0, "fusion_lat": 0.0, "lon": -76.97334616666667, "name": "9c0982ea2977f82cacb0d4cda5cfc77d"}, {"bike_id": "295136001335a7517f0de8d82f75c68b", "type": "electric_scooter", "is_disabled": 0, "lat": 38.866546666666665, "rental_uris": {"ios": "https://dc.lft.to/lastmile_qr_scan", "android": "https://dc.lft.to/lastmile_qr_scan"}, "is_reserved": 0, "fusion_lon": 0.0, "fusion_lat": 0.0, "lon": -76.98886383333334, "name": "295136001335a7517f0de8d82f75c68b"}, {"bike_id": "ae325fe4bffa76a2e8a608e15004cb36", "type": "electric_scooter", "is_disabled": 0, "lat": 38.9170845, "rental_uris": {"ios": "https://dc.lft.to/lastmile_qr_scan", "android": "https://dc.lft.to/lastmile_qr_scan"}, "is_reserved": 0, "fusion_lon": 0.0, "fusion_lat": 0.0, "lon": -77.02964433333334, "name": "ae325fe4bffa76a2e8a608e15004cb36"}, {"bike_id": "b6748b36b0fbf37011824caaabea7fe9", "type": "electric_scooter", "is_disabled": 0, "lat": 38.90360783333333, "rental_uris": {"ios": "https://dc.lft.to/lastmile_qr_scan", "android": "https://dc.lft.to/lastmile_qr_scan"}, "is_reserved": 0, "fusion_lon": 0.0, "fusion_lat": 0.0, "lon": -77.0218335, "name": "b6748b36b0fbf37011824caaabea7fe9"}, {"bike_id": "75978530f63ff9d8c383e4449fde4f32", "type": "electric_scooter", "is_disabled": 0, "lat": 38.92154083333333, "rental_uris": {"ios": "https://dc.lft.to/lastmile_qr_scan", "android": "https://dc.lft.to/lastmile_qr_scan"}, "is_reserved": 0, "fusion_lon": 0.0, "fusion_lat": 0.0, "lon": -77.03343533333333, "name": "75978530f63ff9d8c383e4449fde4f32"}, {"bike_id": "ca2e148829444ca95190bb5874fc5e84", "type": "electric_scooter", "is_disabled": 0, "lat": 38.905738666666664, "rental_uris": {"ios": "https://dc.lft.to/lastmile_qr_scan", "android": "https://dc.lft.to/lastmile_qr_scan"}, "is_reserved": 0, "fusion_lon": 0.0, "fusion_lat": 0.0, "lon": -77.0570945, "name": "ca2e148829444ca95190bb5874fc5e84"}, {"bike_id": "f2f31b163096edb9fc0ddf9203e60141", "type": "electric_scooter", "is_disabled": 0, "lat": 38.9059145, "rental_uris": {"ios": "https://dc.lft.to/lastmile_qr_scan", "android": "https://dc.lft.to/lastmile_qr_scan"}, "is_reserved": 0, "fusion_lon": 0.0, "fusion_lat": 0.0, "lon": -77.02707283333334, "name": "f2f31b163096edb9fc0ddf9203e60141"}, {"bike_id": "4dc6c0b0f8cbb17a7888e10b79e7b0ef", "type": "electric_bike", "is_disabled": 0, "lat": 38.94735583333333, "rental_uris": {"ios": "https://dc.lft.to/lastmile_qr_scan", "android": "https://dc.lft.to/lastmile_qr_scan"}, "is_reserved": 0, "fusion_lon": 0.0, "fusion_lat": 0.0, "lon": -76.99585083333334, "name": "4dc6c0b0f8cbb17a7888e10b79e7b0ef"}, {"bike_id": "60ab128a10c99bb80f2e676a8ca4260d", "type": "electric_scooter", "is_disabled": 0, "lat": 38.895981666666664, "rental_uris": {"ios": "https://dc.lft.to/lastmile_qr_scan", "android": "https://dc.lft.to/lastmile_qr_scan"}, "is_reserved": 0, "fusion_lon": 0.0, "fusion_lat": 0.0, "lon": -77.02634283333333, "name": "60ab128a10c99bb80f2e676a8ca4260d"}, {"bike_id": "13b504dd5880500ee1f7db7456c51ace", "type": "electric_scooter", "is_disabled": 0, "lat": 38.918393333333334, "rental_uris": {"ios": "https://dc.lft.to/lastmile_qr_scan", "android": "https://dc.lft.to/lastmile_qr_scan"}, "is_reserved": 0, "fusion_lon": 0.0, "fusion_lat": 0.0, "lon": -76.96551783333334, "name": "13b504dd5880500ee1f7db7456c51ace"}, {"bike_id": "671b58ae55b37a9c9a2ca241394a64a1", "type": "electric_scooter", "is_disabled": 0, "lat": 38.892213, "rental_uris": {"ios": "https://dc.lft.to/lastmile_qr_scan", "android": "https://dc.lft.to/lastmile_qr_scan"}, "is_reserved": 0, "fusion_lon": 0.0, "fusion_lat": 0.0, "lon": -77.039796, "name": "671b58ae55b37a9c9a2ca241394a64a1"}, {"bike_id": "4e85b24edc4ef1dd948f2f3e1653503c", "type": "electric_scooter", "is_disabled": 0, "lat": 38.920298, "rental_uris": {"ios": "https://dc.lft.to/lastmile_qr_scan", "android": "https://dc.lft.to/lastmile_qr_scan"}, "is_reserved": 0, "fusion_lon": 0.0, "fusion_lat": 0.0, "lon": -77.031243, "name": "4e85b24edc4ef1dd948f2f3e1653503c"}, {"bike_id": "bda9d29c166fa0fae164493bdafc9a2b", "type": "electric_scooter", "is_disabled": 0, "lat": 38.918328833333334, "rental_uris": {"ios": "https://dc.lft.to/lastmile_qr_scan", "android": "https://dc.lft.to/lastmile_qr_scan"}, "is_reserved": 0, "fusion_lon": 0.0, "fusion_lat": 0.0, "lon": -76.96547583333333, "name": "bda9d29c166fa0fae164493bdafc9a2b"}, {"bike_id": "10988b47e14145a57777c85ce1ba191e", "type": "electric_scooter", "is_disabled": 0, "lat": 38.92665566666667, "rental_uris": {"ios": "https://dc.lft.to/lastmile_qr_scan", "android": "https://dc.lft.to/lastmile_qr_scan"}, "is_reserved": 0, "fusion_lon": 0.0, "fusion_lat": 0.0, "lon": -76.99543516666667, "name": "10988b47e14145a57777c85ce1ba191e"}, {"bike_id": "b38c1cefe6bf79639386e0cdd974e964", "type": "electric_scooter", "is_disabled": 0, "lat": 38.92366033333333, "rental_uris": {"ios": "https://dc.lft.to/lastmile_qr_scan", "android": "https://dc.lft.to/lastmile_qr_scan"}, "is_reserved": 0, "fusion_lon": 0.0, "fusion_lat": 0.0, "lon": -77.03133033333333, "name": "b38c1cefe6bf79639386e0cdd974e964"}, {"bike_id": "92a59fb13e52046d1bc426f70e29cd41", "type": "electric_scooter", "is_disabled": 0, "lat": 38.929115, "rental_uris": {"ios": "https://dc.lft.to/lastmile_qr_scan", "android": "https://dc.lft.to/lastmile_qr_scan"}, "is_reserved": 0, "fusion_lon": 0.0, "fusion_lat": 0.0, "lon": -77.03247966666666, "name": "92a59fb13e52046d1bc426f70e29cd41"}, {"bike_id": "9f5522287ee71e622ef22982a9b27594", "type": "electric_scooter", "is_disabled": 0, "lat": 38.923829, "rental_uris": {"ios": "https://dc.lft.to/lastmile_qr_scan", "android": "https://dc.lft.to/lastmile_qr_scan"}, "is_reserved": 0, "fusion_lon": 0.0, "fusion_lat": 0.0, "lon": -77.0314115, "name": "9f5522287ee71e622ef22982a9b27594"}, {"bike_id": "bf70a83411ccae44fc24f870f2af83f8", "type": "electric_scooter", "is_disabled": 0, "lat": 38.90568233333333, "rental_uris": {"ios": "https://dc.lft.to/lastmile_qr_scan", "android": "https://dc.lft.to/lastmile_qr_scan"}, "is_reserved": 0, "fusion_lon": 0.0, "fusion_lat": 0.0, "lon": -77.03101866666667, "name": "bf70a83411ccae44fc24f870f2af83f8"}, {"bike_id": "f5327f46b8c2ae1ee530e425546c3bc8", "type": "electric_scooter", "is_disabled": 0, "lat": 38.90391916666667, "rental_uris": {"ios": "https://dc.lft.to/lastmile_qr_scan", "android": "https://dc.lft.to/lastmile_qr_scan"}, "is_reserved": 0, "fusion_lon": 0.0, "fusion_lat": 0.0, "lon": -77.06293033333333, "name": "f5327f46b8c2ae1ee530e425546c3bc8"}, {"bike_id": "9bbcd0ac9012c64f6ffc8286dd2ed119", "type": "electric_scooter", "is_disabled": 0, "lat": 38.896725833333335, "rental_uris": {"ios": "https://dc.lft.to/lastmile_qr_scan", "android": "https://dc.lft.to/lastmile_qr_scan"}, "is_reserved": 0, "fusion_lon": 0.0, "fusion_lat": 0.0, "lon": -76.93213283333333, "name": "9bbcd0ac9012c64f6ffc8286dd2ed119"}, {"bike_id": "e360313c480df5c98cb1dff9e7fcccd1", "type": "electric_scooter", "is_disabled": 0, "lat": 38.94718733333333, "rental_uris": {"ios": "https://dc.lft.to/lastmile_qr_scan", "android": "https://dc.lft.to/lastmile_qr_scan"}, "is_reserved": 0, "fusion_lon": 0.0, "fusion_lat": 0.0, "lon": -77.065445, "name": "e360313c480df5c98cb1dff9e7fcccd1"}, {"bike_id": "23554bcfb7cc1e8cea8d1b4cf41acea1", "type": "electric_bike", "is_disabled": 0, "lat": 38.85528983333333, "rental_uris": {"ios": "https://dc.lft.to/lastmile_qr_scan", "android": "https://dc.lft.to/lastmile_qr_scan"}, "is_reserved": 0, "fusion_lon": 0.0, "fusion_lat": 0.0, "lon": -77.120228, "name": "23554bcfb7cc1e8cea8d1b4cf41acea1"}, {"bike_id": "005022a81dd1b3c54bca703069379650", "type": "electric_scooter", "is_disabled": 0, "lat": 38.9072295, "rental_uris": {"ios": "https://dc.lft.to/lastmile_qr_scan", "android": "https://dc.lft.to/lastmile_qr_scan"}, "is_reserved": 0, "fusion_lon": 0.0, "fusion_lat": 0.0, "lon": -77.02567933333333, "name": "005022a81dd1b3c54bca703069379650"}, {"bike_id": "17a8ee076868d52adfcf0aee98284161", "type": "electric_scooter", "is_disabled": 0, "lat": 38.912526166666666, "rental_uris": {"ios": "https://dc.lft.to/lastmile_qr_scan", "android": "https://dc.lft.to/lastmile_qr_scan"}, "is_reserved": 0, "fusion_lon": 0.0, "fusion_lat": 0.0, "lon": -77.058807, "name": "17a8ee076868d52adfcf0aee98284161"}, {"bike_id": "cad064f20c0431a0c50a55652e697356", "type": "electric_scooter", "is_disabled": 0, "lat": 38.916320999999996, "rental_uris": {"ios": "https://dc.lft.to/lastmile_qr_scan", "android": "https://dc.lft.to/lastmile_qr_scan"}, "is_reserved": 0, "fusion_lon": 0.0, "fusion_lat": 0.0, "lon": -77.03217433333333, "name": "cad064f20c0431a0c50a55652e697356"}, {"bike_id": "c10d10e48ef2e7565234bfbef632660d", "type": "electric_scooter", "is_disabled": 0, "lat": 38.918344166666664, "rental_uris": {"ios": "https://dc.lft.to/lastmile_qr_scan", "android": "https://dc.lft.to/lastmile_qr_scan"}, "is_reserved": 0, "fusion_lon": 0.0, "fusion_lat": 0.0, "lon": -77.04168616666666, "name": "c10d10e48ef2e7565234bfbef632660d"}, {"bike_id": "57e2b75451c90021a5664aaed26d7529", "type": "electric_bike", "is_disabled": 0, "lat": 38.8556125, "rental_uris": {"ios": "https://dc.lft.to/lastmile_qr_scan", "android": "https://dc.lft.to/lastmile_qr_scan"}, "is_reserved": 0, "fusion_lon": 0.0, "fusion_lat": 0.0, "lon": -77.11318033333333, "name": "57e2b75451c90021a5664aaed26d7529"}, {"bike_id": "139d25e883547da62cf355daacbe0a63", "type": "electric_scooter", "is_disabled": 0, "lat": 38.919194833333336, "rental_uris": {"ios": "https://dc.lft.to/lastmile_qr_scan", "android": "https://dc.lft.to/lastmile_qr_scan"}, "is_reserved": 0, "fusion_lon": 0.0, "fusion_lat": 0.0, "lon": -77.03065966666666, "name": "139d25e883547da62cf355daacbe0a63"}, {"bike_id": "83133f63a4dcaff3de8d83dee3c018b3", "type": "electric_bike", "is_disabled": 0, "lat": 38.992116833333334, "rental_uris": {"ios": "https://dc.lft.to/lastmile_qr_scan", "android": "https://dc.lft.to/lastmile_qr_scan"}, "is_reserved": 0, "fusion_lon": 0.0, "fusion_lat": 0.0, "lon": -76.9444995, "name": "83133f63a4dcaff3de8d83dee3c018b3"}, {"bike_id": "22bfcfab178276ac36368592ffaad6cb", "type": "electric_scooter", "is_disabled": 0, "lat": 38.9157175, "rental_uris": {"ios": "https://dc.lft.to/lastmile_qr_scan", "android": "https://dc.lft.to/lastmile_qr_scan"}, "is_reserved": 0, "fusion_lon": 0.0, "fusion_lat": 0.0, "lon": -77.0392465, "name": "22bfcfab178276ac36368592ffaad6cb"}, {"bike_id": "590f93ec9fe02057972f2751c9e7069b", "type": "electric_bike", "is_disabled": 0, "lat": 38.8548125, "rental_uris": {"ios": "https://dc.lft.to/lastmile_qr_scan", "android": "https://dc.lft.to/lastmile_qr_scan"}, "is_reserved": 0, "fusion_lon": 0.0, "fusion_lat": 0.0, "lon": -77.11602166666667, "name": "590f93ec9fe02057972f2751c9e7069b"}, {"bike_id": "51f6593644ac0a0dfc29bc04f4f77990", "type": "electric_scooter", "is_disabled": 0, "lat": 38.922085333333335, "rental_uris": {"ios": "https://dc.lft.to/lastmile_qr_scan", "android": "https://dc.lft.to/lastmile_qr_scan"}, "is_reserved": 0, "fusion_lon": 0.0, "fusion_lat": 0.0, "lon": -77.04243933333333, "name": "51f6593644ac0a0dfc29bc04f4f77990"}, {"bike_id": "d544a4d2b97b023bbcfdabe7e1c9f2e5", "type": "electric_scooter", "is_disabled": 0, "lat": 38.90096233333333, "rental_uris": {"ios": "https://dc.lft.to/lastmile_qr_scan", "android": "https://dc.lft.to/lastmile_qr_scan"}, "is_reserved": 0, "fusion_lon": 0.0, "fusion_lat": 0.0, "lon": -77.0499585, "name": "d544a4d2b97b023bbcfdabe7e1c9f2e5"}, {"bike_id": "eac0595c4f08113f8775f1b4a843c202", "type": "electric_scooter", "is_disabled": 0, "lat": 38.90889266666667, "rental_uris": {"ios": "https://dc.lft.to/lastmile_qr_scan", "android": "https://dc.lft.to/lastmile_qr_scan"}, "is_reserved": 0, "fusion_lon": 0.0, "fusion_lat": 0.0, "lon": -77.04489666666667, "name": "eac0595c4f08113f8775f1b4a843c202"}, {"bike_id": "fca376bdce65b232d57977755bcf3262", "type": "electric_scooter", "is_disabled": 0, "lat": 38.887098333333334, "rental_uris": {"ios": "https://dc.lft.to/lastmile_qr_scan", "android": "https://dc.lft.to/lastmile_qr_scan"}, "is_reserved": 0, "fusion_lon": 0.0, "fusion_lat": 0.0, "lon": -77.022051, "name": "fca376bdce65b232d57977755bcf3262"}, {"bike_id": "1645d476d541230afa52ac03b9acf26f", "type": "electric_scooter", "is_disabled": 0, "lat": 38.8971285, "rental_uris": {"ios": "https://dc.lft.to/lastmile_qr_scan", "android": "https://dc.lft.to/lastmile_qr_scan"}, "is_reserved": 0, "fusion_lon": 0.0, "fusion_lat": 0.0, "lon": -77.02726216666667, "name": "1645d476d541230afa52ac03b9acf26f"},