{"data": {"bikes": [{"name": "7c2048ed50b9960e6e816eba1cf17562", "lon": -77.0352475, "lat": 38.92733966666667, "type": "electric_scooter", "fusion_lon": 0.0, "is_reserved": 0, "bike_id": "7c2048ed50b9960e6e816eba1cf17562", "fusion_lat": 0.0, "is_disabled": 0, "rental_uris": {"ios": "https://dc.lft.to/lastmile_qr_scan", "android": "https://dc.lft.to/lastmile_qr_scan"}}, {"name": "90bb639d95999af5756e51f4092e9c72", "lon": -77.0419125, "lat": 38.92624383333333, "type": "electric_scooter", "fusion_lon": 0.0, "is_reserved": 0, "bike_id": "90bb639d95999af5756e51f4092e9c72", "fusion_lat": 0.0, "is_disabled": 0, "rental_uris": {"ios": "https://dc.lft.to/lastmile_qr_scan", "android": "https://dc.lft.to/lastmile_qr_scan"}}, {"name": "0ef553be45b6c871f821bafeacc81999", "lon": -76.98092366666667, "lat": 38.881348, "type": "electric_bike", "fusion_lon": 0.0, "is_reserved": 0, "bike_id": "0ef553be45b6c871f821bafeacc81999", "fusion_lat": 0.0, "is_disabled": 0, "rental_uris": {"ios": "https://dc.lft.to/lastmile_qr_scan", "android": "https://dc.lft.to/lastmile_qr_scan"}}, {"name": "a5b1684b61c6509219a6e2a873e09da6", "lon": -76.94632816666666, "lat": 38.89845233333333, "type": "electric_scooter", "fusion_lon": 0.0, "is_reserved": 0, "bike_id": "a5b1684b61c6509219a6e2a873e09da6", "fusion_lat": 0.0, "is_disabled": 0, "rental_uris": {"ios": "https://dc.lft.to/lastmile_qr_scan", "android": "https://dc.lft.to/lastmile_qr_scan"}}, {"name": "5dd8cd3b07e2a62ed765c2d9d94751af", "lon": -77.05630816666667, "lat": 38.92434733333333, "type": "electric_scooter", "fusion_lon": 0.0, "is_reserved": 0, "bike_id": "5dd8cd3b07e2a62ed765c2d9d94751af", "fusion_lat": 0.0, "is_disabled": 0, "rental_uris": {"ios": "https://dc.lft.to/lastmile_qr_scan", "android": "https://dc.lft.to/lastmile_qr_scan"}}, {"name": "1a54113b563e85d5fa5b7c3edcf2d071", "lon": -77.01750583333333, "lat": 38.9209815, "type": "electric_scooter", "fusion_lon": 0.0, "is_reserved": 0, "bike_id": "1a54113b563e85d5fa5b7c3edcf2d071", "fusion_lat": 0.0, "is_disabled": 0, "rental_uris": {"ios": "https://dc.lft.to/lastmile_qr_scan", "android": "https://dc.lft.to/lastmile_qr_scan"}}, {"name": "c117f56dc4bc5937556cdcf63a1fbe8e", "lon": -77.02972383333334, "lat": 38.90523316666667, "type": "electric_scooter", "fusion_lon": 0.0, "is_reserved": 0, "bike_id": "c117f56dc4bc5937556cdcf63a1fbe8e", "fusion_lat": 0.0, "is_disabled": 0, "rental_uris": {"ios": "https://dc.lft.to/lastmile_qr_scan", "android": "https://dc.lft.to/lastmile_qr_scan"}}, {"name": "3fcbcfe9d395bd37adc31b6ccefc1889", "lon": -76.98238683333334, "lat": 38.908928833333334, "type": "electric_scooter", "fusion_lon": 0.0, "is_reserved": 0, "bike_id": "3fcbcfe9d395bd37adc31b6ccefc1889", "fusion_lat": 0.0, "is_disabled": 0, "rental_uris": {"ios": "https://dc.lft.to/lastmile_qr_scan", "android": "https://dc.lft.to/lastmile_qr_scan"}}, {"name": "de7db0077282f5c0be67605941411cfa", "lon": -77.027159, "lat": 38.91816683333333, "type": "electric_scooter", "fusion_lon": 0.0, "is_reserved": 0, "bike_id": "de7db0077282f5c0be67605941411cfa", "fusion_lat": 0.0, "is_disabled": 0, "rental_uris": {"ios": "https://dc.lft.to/lastmile_qr_scan", "android": "https://dc.lft.to/lastmile_qr_scan"}}, {"name": "51bc828799e5add13db3fd1eb53a0dc8", "lon": -77.00177216666667, "lat": 38.90044916666667, "type": "electric_scooter", "fusion_lon": 0.0, "is_reserved": 0, "bike_id": "51bc828799e5add13db3fd1eb53a0dc8", "fusion_lat": 0.0, "is_disabled": 0, "rental_uris": {"ios": "https://dc.lft.to/lastmile_qr_scan", "android": "https://dc.lft.to/lastmile_qr_scan"}}, {"name": "5771bd33981a7c51d1f385a7acc7a42b", "lon": -77.001936, "lat": 38.900365, "type": "electric_scooter", "fusion_lon": 0.0, "is_reserved": 0, "bike_id": "5771bd33981a7c51d1f385a7acc7a42b", "fusion_lat": 0.0, "is_disabled": 0, "rental_uris": {"ios": "https://dc.lft.to/lastmile_qr_scan", "android": "https://dc.lft.to/lastmile_qr_scan"}}, {"name": "40eb9b0948dbdabd36c58eb30e3b4857", "lon": -76.9935205, "lat": 38.84507883333333, "type": "electric_scooter", "fusion_lon": 0.0, "is_reserved": 0, "bike_id": "40eb9b0948dbdabd36c58eb30e3b4857", "fusion_lat": 0.0, "is_disabled": 0, "rental_uris": {"ios": "https://dc.lft.to/lastmile_qr_scan", "android": "https://dc.lft.to/lastmile_qr_scan"}}, {"name": "f1c7e36078b1065ce6a0260a1f9a6c66", "lon": -76.911376, "lat": 38.89422883333334, "type": "electric_scooter", "fusion_lon": 0.0, "is_reserved": 0, "bike_id": "f1c7e36078b1065ce6a0260a1f9a6c66", "fusion_lat": 0.0, "is_disabled": 0, "rental_uris": {"ios": "https://dc.lft.to/lastmile_qr_scan", "android": "https://dc.lft.to/lastmile_qr_scan"}}, {"name": "79cd7619c33045a4c83fc93a06e5fed8", "lon": -77.0229575, "lat": 38.928076, "type": "electric_scooter", "fusion_lon": 0.0, "is_reserved": 0, "bike_id": "79cd7619c33045a4c83fc93a06e5fed8", "fusion_lat": 0.0, "is_disabled": 0, "rental_uris": {"ios": "https://dc.lft.to/lastmile_qr_scan", "android": "https://dc.lft.to/lastmile_qr_scan"}}, {"name": "62b5170f1c7976fadb781c48b6ccf703", "lon": -77.02324, "lat": 38.93061616666667, "type": "electric_scooter", "fusion_lon": 0.0, "is_reserved": 0, "bike_id": "62b5170f1c7976fadb781c48b6ccf703", "fusion_lat": 0.0, "is_disabled": 0, "rental_uris": {"ios": "https://dc.lft.to/lastmile_qr_scan", "android": "https://dc.lft.to/lastmile_qr_scan"}}, {"name": "0d4e081bfd5a9ded9f5f964666a89665", "lon": -77.05423033333334, "lat": 38.90249416666666, "type": "electric_scooter", "fusion_lon": 0.0, "is_reserved": 0, "bike_id": "0d4e081bfd5a9ded9f5f964666a89665", "fusion_lat": 0.0, "is_disabled": 0, "rental_uris": {"ios": "https://dc.lft.to/lastmile_qr_scan", "android": "https://dc.lft.to/lastmile_qr_scan"}}, {"name": "d3a06f726880b7454f1ba2330d468c35", "lon": -76.99851083333333, "lat": 38.88745983333333, "type": "electric_scooter", "fusion_lon": 0.0, "is_reserved": 0, "bike_id": "d3a06f726880b7454f1ba2330d468c35", "fusion_lat": 0.0, "is_disabled": 0, "rental_uris": {"ios": "https://dc.lft.to/lastmile_qr_scan", "android": "https://dc.lft.to/lastmile_qr_scan"}}, {"name": "8164daa1b2438184420e1c3f28f4cd7a", "lon": -76.98369066666666, "lat": 38.91504033333333, "type": "electric_scooter", "fusion_lon": 0.0, "is_reserved": 0, "bike_id": "8164daa1b2438184420e1c3f28f4cd7a", "fusion_lat": 0.0, "is_disabled": 0, "rental_uris": {"ios": "https://dc.lft.to/lastmile_qr_scan", "android": "https://dc.lft.to/lastmile_qr_scan"}}, {"name": "1b42cd8c87cf366ba2b5dd241f1f97ff", "lon": -77.032553, "lat": 38.91191166666667, "type": "electric_scooter", "fusion_lon": 0.0, "is_reserved": 0, "bike_id": "1b42cd8c87cf366ba2b5dd241f1f97ff", "fusion_lat": 0.0, "is_disabled": 0, "rental_uris": {"ios": "https://dc.lft.to/lastmile_qr_scan", "android": "https://dc.lft.to/lastmile_qr_scan"}}, {"name": "b12e9173a091e28f599dbadf0c00afed", "lon": -77.02392583333334, "lat": 38.9196535, "type": "electric_scooter", "fusion_lon": 0.0, "is_reserved": 0, "bike_id": "b12e9173a091e28f599dbadf0c00afed", "fusion_lat": 0.0, "is_disabled": 0, "rental_uris": {"ios": "https://dc.lft.to/lastmile_qr_scan", "android": "https://dc.lft.to/lastmile_qr_scan"}}, {"name": "c7c0668e0f8532a0e9741947894778f8", "lon": -77.00757466666667, "lat": 38.91028033333333, "type": "electric_scooter", "fusion_lon": 0.0, "is_reserved": 0, "bike_id": "c7c0668e0f8532a0e9741947894778f8", "fusion_lat": 0.0, "is_disabled": 0, "rental_uris": {"ios": "https://dc.lft.to/lastmile_qr_scan", "android": "https://dc.lft.to/lastmile_qr_scan"}}, {"name": "660e3357365ae614c5435ddbe29e7764", "lon": -77.03661716666667, "lat": 38.9172875, "type": "electric_scooter", "fusion_lon": 0.0, "is_reserved": 0, "bike_id": "660e3357365ae614c5435ddbe29e7764", "fusion_lat": 0.0, "is_disabled": 0, "rental_uris": {"ios": "https://dc.lft.to/lastmile_qr_scan", "android": "https://dc.lft.to/lastmile_qr_scan"}}, {"name": "569361d67961c067777f7dfb62ac4e8d", "lon": -77.01607466666667, "lat": 38.89964416666667, "type": "electric_scooter", "fusion_lon": 0.0, "is_reserved": 0, "bike_id": "569361d67961c067777f7dfb62ac4e8d", "fusion_lat": 0.0, "is_disabled": 0, "rental_uris": {"ios": "https://dc.lft.to/lastmile_qr_scan", "android": "https://dc.lft.to/lastmile_qr_scan"}}, {"name": "b2b1c33242aa38877d847a485dcd9734", "lon": -77.062891, "lat": 38.9649985, "type": "electric_scooter", "fusion_lon": 0.0, "is_reserved": 0, "bike_id": "b2b1c33242aa38877d847a485dcd9734", "fusion_lat": 0.0, "is_disabled": 0, "rental_uris": {"ios": "https://dc.lft.to/lastmile_qr_scan", "android": "https://dc.lft.to/lastmile_qr_scan"}}, {"name": "1c377691a1e4c56abf95fc97be8dcf1c", "lon": -77.03696666666667, "lat": 38.9356, "type": "electric_bike", "fusion_lon": 0.0, "is_reserved": 0, "bike_id": "1c377691a1e4c56abf95fc97be8dcf1c", "fusion_lat": 0.0, "is_disabled": 0, "rental_uris": {"ios": "https://dc.lft.to/lastmile_qr_scan", "android": "https://dc.lft.to/lastmile_qr_scan"}}, {"name": "f271adb98e49e6e4fd5b4f4833d02f61", "lon": -77.03475183333333, "lat": 38.905649833333335, "type": "electric_scooter", "fusion_lon": 0.0, "is_reserved": 0, "bike_id": "f271adb98e49e6e4fd5b4f4833d02f61", "fusion_lat": 0.0, "is_disabled": 0, "rental_uris": {"ios": "https://dc.lft.to/lastmile_qr_scan", "android": "https://dc.lft.to/lastmile_qr_scan"}}, {"name": "49c0d078b2cfc5d27c376f5e802d6c0c", "lon": -77.187413, "lat": 38.893550166666664, "type": "electric_bike", "fusion_lon": 0.0, "is_reserved": 0, "bike_id": "49c0d078b2cfc5d27c376f5e802d6c0c", "fusion_lat": 0.0, "is_disabled": 0, "rental_uris": {"ios": "https://dc.lft.to/lastmile_qr_scan", "android": "https://dc.lft.to/lastmile_qr_scan"}}, {"name": "1ce37f18ee29caf9f27889e2463e071a", "lon": -77.0294915, "lat": 38.90533833333333, "type": "electric_scooter", "fusion_lon": 0.0, "is_reserved": 0, "bike_id": "1ce37f18ee29caf9f27889e2463e071a", "fusion_lat": 0.0, "is_disabled": 0, "rental_uris": {"ios": "https://dc.lft.to/lastmile_qr_scan", "android": "https://dc.lft.to/lastmile_qr_scan"}}, {"name": "ae3fe3e8a2f1a8b6f50c52d82cafc40d", "lon": -77.05015183333333, "lat": 38.906294, "type": "electric_scooter", "fusion_lon": 0.0, "is_reserved": 0, "bike_id": "ae3fe3e8a2f1a8b6f50c52d82cafc40d", "fusion_lat": 0.0, "is_disabled": 0, "rental_uris": {"ios": "https://dc.lft.to/lastmile_qr_scan", "android": "https://dc.lft.to/lastmile_qr_scan"}}, {"name": "7703bbebae35ec24a64292dedac47596", "lon": -77.03635316666667, "lat": 38.923491166666665, "type": "electric_scooter", "fusion_lon": 0.0, "is_reserved": 0, "bike_id": "7703bbebae35ec24a64292dedac47596", "fusion_lat": 0.0, "is_disabled": 0, "rental_uris": {"ios": "https://dc.lft.to/lastmile_qr_scan", "android": "https://dc.lft.to/lastmile_qr_scan"}}, {"name": "fbaeb7d2a2dc00a974ef74de7e9a10fa", "lon": -77.012002, "lat": 38.87093083333333, "type": "electric_scooter", "fusion_lon": 0.0, "is_reserved": 0, "bike_id": "fbaeb7d2a2dc00a974ef74de7e9a10fa", "fusion_lat": 0.0, "is_disabled": 0, "rental_uris": {"ios": "https://dc.lft.to/lastmile_qr_scan", "android": "https://dc.lft.to/lastmile_qr_scan"}}, {"name": "ba4ae8bb15d3df982940a23fa5abc574", "lon": -77.00188616666667, "lat": 38.900352166666664, "type": "electric_scooter", "fusion_lon": 0.0, "is_reserved": 0, "bike_id": "ba4ae8bb15d3df982940a23fa5abc574", "fusion_lat": 0.0, "is_disabled": 0, "rental_uris": {"ios": "https://dc.lft.to/lastmile_qr_scan", "android": "https://dc.lft.to/lastmile_qr_scan"}}, {"name": "df33aea217e8a411ea82e4894dbf990b", "lon": -77.0387265, "lat": 38.921536, "type": "electric_scooter", "fusion_lon": 0.0, "is_reserved": 0, "bike_id": "df33aea217e8a411ea82e4894dbf990b", "fusion_lat": 0.0, "is_disabled": 0, "rental_uris": {"ios": "https://dc.lft.to/lastmile_qr_scan", "android": "https://dc.lft.to/lastmile_qr_scan"}}, {"name": "d82a4fff220aa87c90c7e23787d04e82", "lon": -77.02186666666667, "lat": 38.90833333333333, "type": "electric_scooter", "fusion_lon": 0.0, "is_reserved": 0, "bike_id": "d82a4fff220aa87c90c7e23787d04e82", "fusion_lat": 0.0, "is_disabled": 0, "rental_uris": {"ios": "https://dc.lft.to/lastmile_qr_scan", "android": "https://dc.lft.to/lastmile_qr_scan"}}, {"name": "49c7367bd972d5be8b4f8d909a126714", "lon": -77.06710033333333, "lat": 38.9506315, "type": "electric_scooter", "fusion_lon": 0.0, "is_reserved": 0, "bike_id": "49c7367bd972d5be8b4f8d909a126714", "fusion_lat": 0.0, "is_disabled": 0, "rental_uris": {"ios": "https://dc.lft.to/lastmile_qr_scan", "android": "https://dc.lft.to/lastmile_qr_scan"}}, {"name": "3bd169f1db3662aaea5a108ad172acb6", "lon": -77.04461466666666, "lat": 38.903901, "type": "electric_scooter", "fusion_lon": 0.0, "is_reserved": 0, "bike_id": "3bd169f1db3662aaea5a108ad172acb6", "fusion_lat": 0.0, "is_disabled": 0, "rental_uris": {"ios": "https://dc.lft.to/lastmile_qr_scan", "android": "https://dc.lft.to/lastmile_qr_scan"}}, {"name": "6763d75cc73f2d24bc159bd7108c1b98", "lon": -77.0020515, "lat": 38.902466, "type": "electric_scooter", "fusion_lon": 0.0, "is_reserved": 0, "bike_id": "6763d75cc73f2d24bc159bd7108c1b98", "fusion_lat": 0.0, "is_disabled": 0, "rental_uris": {"ios": "https://dc.lft.to/lastmile_qr_scan", "android": "https://dc.lft.to/lastmile_qr_scan"}}, {"name": "de763ba28a7b835babdc2514b30649f2", "lon": -77.0349635, "lat": 38.9170885, "type": "electric_scooter", "fusion_lon": 0.0, "is_reserved": 0, "bike_id": "de763ba28a7b835babdc2514b30649f2", "fusion_lat": 0.0, "is_disabled": 0, "rental_uris": {"ios": "https://dc.lft.to/lastmile_qr_scan", "android": "https://dc.lft.to/lastmile_qr_scan"}}, {"name": "f36cb2e66bd1f6cba60afd110a99ed98", "lon": -77.0482625, "lat": 38.900528666666666, "type": "electric_scooter", "fusion_lon": 0.0, "is_reserved": 0, "bike_id": "f36cb2e66bd1f6cba60afd110a99ed98", "fusion_lat": 0.0, "is_disabled": 0, "rental_uris": {"ios": "https://dc.lft.to/lastmile_qr_scan", "android": "https://dc.lft.to/lastmile_qr_scan"}}, {"name": "8ec16d7a0e02fadb3ef5b6f5111c0bf0", "lon": -77.04365883333334, "lat": 38.8922235, "type": "electric_scooter", "fusion_lon": 0.0, "is_reserved": 0, "bike_id": "8ec16d7a0e02fadb3ef5b6f5111c0bf0", "fusion_lat": 0.0, "is_disabled": 0, "rental_uris": {"ios": "https://dc.lft.to/lastmile_qr_scan", "android": "https://dc.lft.to/lastmile_qr_scan"}}, {"name": "885e565f2e49e7d3a3ec6b9f5d1e50bd", "lon": -77.02425683333334, "lat": 38.920954333333334, "type": "electric_scooter", "fusion_lon": 0.0, "is_reserved": 0, "bike_id": "885e565f2e49e7d3a3ec6b9f5d1e50bd", "fusion_lat": 0.0, "is_disabled": 0, "rental_uris": {"ios": "https://dc.lft.to/lastmile_qr_scan", "android": "https://dc.lft.to/lastmile_qr_scan"}}, {"name": "6daeb72d8abab6232c8e8d450fc25883", "lon": -77.03829233333333, "lat": 38.92475433333333, "type": "electric_scooter", "fusion_lon": 0.0, "is_reserved": 0, "bike_id": "6daeb72d8abab6232c8e8d450fc25883", "fusion_lat": 0.0, "is_disabled": 0, "rental_uris": {"ios": "https://dc.lft.to/lastmile_qr_scan", "android": "https://dc.lft.to/lastmile_qr_scan"}}, {"name": "a373f04b9f9aa90328972f36d7699ccc", "lon": -77.03492566666667, "lat": 38.92485716666667, "type": "electric_scooter", "fusion_lon": 0.0, "is_reserved": 0, "bike_id": "a373f04b9f9aa90328972f36d7699ccc", "fusion_lat": 0.0, "is_disabled": 0, "rental_uris": {"ios": "https://dc.lft.to/lastmile_qr_scan", "android": "https://dc.lft.to/lastmile_qr_scan"}}, {"name": "35b745726e7763d9bc0201db2ca87273", "lon": -77.008, "lat": 38.949225, "type": "electric_bike", "fusion_lon": 0.0, "is_reserved": 0, "bike_id": "35b745726e7763d9bc0201db2ca87273", "fusion_lat": 0.0, "is_disabled": 0, "rental_uris": {"ios": "https://dc.lft.to/lastmile_qr_scan", "android": "https://dc.lft.to/lastmile_qr_scan"}}, {"name": "400c7a1eed317043c7fc9e08832f1b65", "lon": -76.97235133333334, "lat": 38.86493933333333, "type": "electric_scooter", "fusion_lon": 0.0, "is_reserved": 0, "bike_id": "400c7a1eed317043c7fc9e08832f1b65", "fusion_lat": 0.0, "is_disabled": 0, "rental_uris": {"ios": "https://dc.lft.to/lastmile_qr_scan", "android": "https://dc.lft.to/lastmile_qr_scan"}}, {"name": "7f858c27e49dd70403ddee56fa4bc4bd", "lon": -77.0296515, "lat": 38.927774166666666, "type": "electric_bike", "fusion_lon": 0.0, "is_reserved": 0, "bike_id": "7f858c27e49dd70403ddee56fa4bc4bd", "fusion_lat": 0.0, "is_disabled": 0, "rental_uris": {"ios": "https://dc.lft.to/lastmile_qr_scan", "android": "https://dc.lft.to/lastmile_qr_scan"}}, {"name": "cd366c51587f1b473c0f6ec05664a864", "lon": -77.032528, "lat": 38.919836, "type": "electric_scooter", "fusion_lon": 0.0, "is_reserved": 0, "bike_id": "cd366c51587f1b473c0f6ec05664a864", "fusion_lat": 0.0, "is_disabled": 0, "rental_uris": {"ios": "https://dc.lft.to/lastmile_qr_scan", "android": "https://dc.lft.to/lastmile_qr_scan"}}, {"name": "ecf638881cb3825d43b09886a2573c4d", "lon": -77.03365933333333, "lat": 38.93590583333334, "type": "electric_scooter", "fusion_lon": 0.0, "is_reserved": 0, "bike_id": "ecf638881cb3825d43b09886a2573c4d", "fusion_lat": 0.0, "is_disabled": 0, "rental_uris": {"ios": "https://dc.lft.to/lastmile_qr_scan", "android": "https://dc.lft.to/lastmile_qr_scan"}}, {"name": "8a132e9b72d6c825e9a42d5a3c0341e6", "lon": -77.04688366666667, "lat": 39.02397033333333, "type": "electric_bike", "fusion_lon": 0.0, "is_reserved": 0, "bike_id": "8a132e9b72d6c825e9a42d5a3c0341e6", "fusion_lat": 0.0, "is_disabled": 0, "rental_uris": {"ios": "https://dc.lft.to/lastmile_qr_scan", "android": "https://dc.lft.to/lastmile_qr_scan"}}, {"name": "da32dece0039d4743ce9807bb5a286e0", "lon": -77.02962983333333, "lat": 38.923247, "type": "electric_scooter", "fusion_lon": 0.0, "is_reserved": 0, "bike_id": "da32dece0039d4743ce9807bb5a286e0", "fusion_lat": 0.0, "is_disabled": 0, "rental_uris": {"ios": "https://dc.lft.to/lastmile_qr_scan", "android": "https://dc.lft.to/lastmile_qr_scan"}}, {"name": "72882abbbbcc202753dbdf60e1c55fd4", "lon": -77.02957316666667, "lat": 38.9053195, "type": "electric_scooter", "fusion_lon": 0.0, "is_reserved": 0, "bike_id": "72882abbbbcc202753dbdf60e1c55fd4", "fusion_lat": 0.0, "is_disabled": 0, "rental_uris": {"ios": "https://dc.lft.to/lastmile_qr_scan", "android": "https://dc.lft.to/lastmile_qr_scan"}}, {"name": "c18a8abd0d6f0d932061d0678c0dff0c", "lon": -77.03301216666667, "lat": 38.95638, "type": "electric_scooter", "fusion_lon": 0.0, "is_reserved": 0, "bike_id": "c18a8abd0d6f0d932061d0678c0dff0c", "fusion_lat": 0.0, "is_disabled": 0, "rental_uris": {"ios": "https://dc.lft.to/lastmile_qr_scan", "android": "https://dc.lft.to/lastmile_qr_scan"}}, {"name": "d552916e30dd2ab7c1b8735bd7cb9bad", "lon": -76.92524916666666, "lat": 38.95919883333333, "type": "electric_bike", "fusion_lon": 0.0, "is_reserved": 0, "bike_id": "d552916e30dd2ab7c1b8735bd7cb9bad", "fusion_lat": 0.0, "is_disabled": 0, "rental_uris": {"ios": "https://dc.lft.to/lastmile_qr_scan", "android": "https://dc.lft.to/lastmile_qr_scan"}}, {"name": "6b87be88065a6e47adfd728e27ea3218", "lon": -76.98992683333333, "lat": 38.863869333333334, "type": "electric_bike", "fusion_lon": 0.0, "is_reserved": 0, "bike_id": "6b87be88065a6e47adfd728e27ea3218", "fusion_lat": 0.0, "is_disabled": 0, "rental_uris": {"ios": "https://dc.lft.to/lastmile_qr_scan", "android": "https://dc.lft.to/lastmile_qr_scan"}}, {"name": "6193d8e280c5ee4b5362f54c882f9efb", "lon": -77.0297365, "lat": 38.916829, "type": "electric_scooter", "fusion_lon": 0.0, "is_reserved": 0, "bike_id": "6193d8e280c5ee4b5362f54c882f9efb", "fusion_lat": 0.0, "is_disabled": 0, "rental_uris": {"ios": "https://dc.lft.to/lastmile_qr_scan", "android": "https://dc.lft.to/lastmile_qr_scan"}}, {"name": "6a66f4a56508711ed05a1cd0d442ff81", "lon": -77.02756916666667, "lat": 38.954239333333334, "type": "electric_scooter", "fusion_lon": 0.0, "is_reserved": 0, "bike_id": "6a66f4a56508711ed05a1cd0d442ff81", "fusion_lat": 0.0, "is_disabled": 0, "rental_uris": {"ios": "https://dc.lft.to/lastmile_qr_scan", "android": "https://dc.lft.to/lastmile_qr_scan"}}, {"name": "2fa8d47e10812b7c7aebbfd83fcee824", "lon": -76.99086883333334, "lat": 38.86236816666667, "type": "electric_bike", "fusion_lon": 0.0, "is_reserved": 0, "bike_id": "2fa8d47e10812b7c7aebbfd83fcee824", "fusion_lat": 0.0, "is_disabled": 0, "rental_uris": {"ios": "https://dc.lft.to/lastmile_qr_scan", "android": "https://dc.lft.to/lastmile_qr_scan"}}, {"name": "0645891e34842a469dd7cfb83e723223", "lon": -77.02389416666666, "lat": 38.90755566666667, "type": "electric_scooter", "fusion_lon": 0.0, "is_reserved": 0, "bike_id": "0645891e34842a469dd7cfb83e723223", "fusion_lat": 0.0, "is_disabled": 0, "rental_uris": {"ios": "https://dc.lft.to/lastmile_qr_scan", "android": "https://dc.lft.to/lastmile_qr_scan"}}, {"name": "3a4aa52e395bf1bf37cd5349b060c466", "lon": -77.05863616666667, "lat": 38.9361175, "type": "electric_scooter", "fusion_lon": 0.0, "is_reserved": 0, "bike_id": "3a4aa52e395bf1bf37cd5349b060c466", "fusion_lat": 0.0, "is_disabled": 0, "rental_uris": {"ios": "https://dc.lft.to/lastmile_qr_scan", "android": "https://dc.lft.to/lastmile_qr_scan"}}, {"name": "65c762f6397a8544fa933a1430cae86a", "lon": -77.02825966666667, "lat": 38.88736433333333, "type": "electric_scooter", "fusion_lon": 0.0, "is_reserved": 0, "bike_id": "65c762f6397a8544fa933a1430cae86a", "fusion_lat": 0.0, "is_disabled": 0, "rental_uris": {"ios": "https://dc.lft.to/lastmile_qr_scan", "android": "https://dc.lft.to/lastmile_qr_scan"}}, {"name": "2a85f4025f6b7359f86c89b49e99e828", "lon": -77.04637583333333, "lat": 38.90285433333333, "type": "electric_scooter", "fusion_lon": 0.0, "is_reserved": 0, "bike_id": "2a85f4025f6b7359f86c89b49e99e828", "fusion_lat": 0.0, "is_disabled": 0, "rental_uris": {"ios": "https://dc.lft.to/lastmile_qr_scan", "android": "https://dc.lft.to/lastmile_qr_scan"}}, {"name": "faa2e6a0d7fd59fdb5023a033355c2fd", "lon": -77.04755333333334, "lat": 38.91764466666667, "type": "electric_scooter", "fusion_lon": 0.0, "is_reserved": 0, "bike_id": "faa2e6a0d7fd59fdb5023a033355c2fd", "fusion_lat": 0.0, "is_disabled": 0, "rental_uris": {"ios": "https://dc.lft.to/lastmile_qr_scan", "android": "https://dc.lft.to/lastmile_qr_scan"}}, {"name": "522a2e81f8743d4f3a24fae0876a2b98", "lon": -77.03212616666667, "lat": 38.921146, "type": "electric_scooter", "fusion_lon": 0.0, "is_reserved": 0, "bike_id": "522a2e81f8743d4f3a24fae0876a2b98", "fusion_lat": 0.0, "is_disabled": 0, "rental_uris": {"ios": "https://dc.lft.to/lastmile_qr_scan", "android": "https://dc.lft.to/lastmile_qr_scan"}}, {"name": "bac2d70c308811c003a2392659ba9ad0", "lon": -77.02212683333333, "lat": 38.91006516666667, "type": "electric_scooter", "fusion_lon": 0.0, "is_reserved": 0, "bike_id": "bac2d70c308811c003a2392659ba9ad0", "fusion_lat": 0.0, "is_disabled": 0, "rental_uris": {"ios": "https://dc.lft.to/lastmile_qr_scan", "android": "https://dc.lft.to/lastmile_qr_scan"}}, {"name": "d4503278f76fe36d104473e0ee688353", "lon": -76.99125966666666, "lat": 38.862043, "type": "electric_scooter", "fusion_lon": 0.0, "is_reserved": 0, "bike_id": "d4503278f76fe36d104473e0ee688353", "fusion_lat": 0.0, "is_disabled": 0, "rental_uris": {"ios": "https://dc.lft.to/lastmile_qr_scan", "android": "https://dc.lft.to/lastmile_qr_scan"}}, {"name": "bc2771f53cbc3b1b3add38fad07c3cfe", "lon": -77.04185183333334, "lat": 38.89288583333333, "type": "electric_scooter", "fusion_lon": 0.0, "is_reserved": 0, "bike_id": "bc2771f53cbc3b1b3add38fad07c3cfe", "fusion_lat": 0.0, "is_disabled": 0, "rental_uris": {"ios": "https://dc.lft.to/lastmile_qr_scan", "android": "https://dc.lft.to/lastmile_qr_scan"}}, {"name": "53e59ac15d3633b4db78f0568a0509ba", "lon": -77.02491083333334, "lat": 38.941847, "type": "electric_scooter", "fusion_lon": 0.0, "is_reserved": 0, "bike_id": "53e59ac15d3633b4db78f0568a0509ba", "fusion_lat": 0.0, "is_disabled": 0, "rental_uris": {"ios": "https://dc.lft.to/lastmile_qr_scan", "android": "https://dc.lft.to/lastmile_qr_scan"}}, {"name": "88db346a2bbb95cb7be353f3bb25c253", "lon": -77.022961, "lat": 38.92808866666667, "type": "electric_scooter", "fusion_lon": 0.0, "is_reserved": 0, "bike_id": "88db346a2bbb95cb7be353f3bb25c253", "fusion_lat": 0.0, "is_disabled": 0, "rental_uris": {"ios": "https://dc.lft.to/lastmile_qr_scan", "android": "https://dc.lft.to/lastmile_qr_scan"}}, {"name": "0b4b4ebfb77e3a1e80dc431f11994114", "lon": -77.0272565, "lat": 38.89499983333333, "type": "electric_scooter", "fusion_lon": 0.0, "is_reserved": 0, "bike_id": "0b4b4ebfb77e3a1e80dc431f11994114", "fusion_lat": 0.0, "is_disabled": 0, "rental_uris": {"ios": "https://dc.lft.to/lastmile_qr_scan", "android": "https://dc.lft.to/lastmile_qr_scan"}}, {"name": "b79bb346f0387a278dc424b3752a325b", "lon": -77.03442416666667, "lat": 38.909716, "type": "electric_scooter", "fusion_lon": 0.0, "is_reserved": 0, "bike_id": "b79bb346f0387a278dc424b3752a325b", "fusion_lat": 0.0, "is_disabled": 0, "rental_uris": {"ios": "https://dc.lft.to/lastmile_qr_scan", "android": "https://dc.lft.to/lastmile_qr_scan"}}, {"name": "bc3456bfe8779950f55c1dbf9ca7621f", "lon": -77.046457, "lat": 38.905521, "type": "electric_scooter", "fusion_lon": 0.0, "is_reserved": 0, "bike_id": "bc3456bfe8779950f55c1dbf9ca7621f", "fusion_lat": 0.0, "is_disabled": 0, "rental_uris": {"ios": "https://dc.lft.to/lastmile_qr_scan", "android": "https://dc.lft.to/lastmile_qr_scan"}}, {"name": "146aee566f55ab7f150d3eb88483de39", "lon": -77.0566985, "lat": 38.928686, "type": "electric_bike", "fusion_lon": 0.0, "is_reserved": 0, "bike_id": "146aee566f55ab7f150d3eb88483de39", "fusion_lat": 0.0, "is_disabled": 0, "rental_uris": {"ios": "https://dc.lft.to/lastmile_qr_scan", "android": "https://dc.lft.to/lastmile_qr_scan"}}, {"name": "54dc651296e33fb1e535bdaf7baab559", "lon": -77.04252266666667, "lat": 38.908804, "type": "electric_scooter", "fusion_lon": 0.0, "is_reserved": 0, "bike_id": "54dc651296e33fb1e535bdaf7baab559", "fusion_lat": 0.0, "is_disabled": 0, "rental_uris": {"ios": "https://dc.lft.to/lastmile_qr_scan", "android": "https://dc.lft.to/lastmile_qr_scan"}}, {"name": "b2ef1bbd8e0e94f1d7104c7d45b74787", "lon": -77.04753666666667, "lat": 38.909668833333335, "type": "electric_scooter", "fusion_lon": 0.0, "is_reserved": 0, "bike_id": "b2ef1bbd8e0e94f1d7104c7d45b74787", "fusion_lat": 0.0, "is_disabled": 0, "rental_uris": {"ios": "https://dc.lft.to/lastmile_qr_scan", "android": "https://dc.lft.to/lastmile_qr_scan"}}, {"name": "b74a28d70c3381d2edc6e16167f4a6be", "lon": -77.010289, "lat": 38.917089, "type": "electric_scooter", "fusion_lon": 0.0, "is_reserved": 0, "bike_id": "b74a28d70c3381d2edc6e16167f4a6be", "fusion_lat": 0.0, "is_disabled": 0, "rental_uris": {"ios": "https://dc.lft.to/lastmile_qr_scan", "android": "https://dc.lft.to/lastmile_qr_scan"}}, {"name": "2a4d707c9d59d6618eb15499d609ffbb", "lon": -77.03993683333333, "lat": 38.91760933333333, "type": "electric_scooter", "fusion_lon": 0.0, "is_reserved": 0, "bike_id": "2a4d707c9d59d6618eb15499d609ffbb", "fusion_lat": 0.0, "is_disabled": 0, "rental_uris": {"ios": "https://dc.lft.to/lastmile_qr_scan", "android": "https://dc.lft.to/lastmile_qr_scan"}}, {"name": "a3c3699fd9ca55785663fea6289df5f0", "lon": -76.99774483333333, "lat": 38.844347, "type": "electric_scooter", "fusion_lon": 0.0, "is_reserved": 0, "bike_id": "a3c3699fd9ca55785663fea6289df5f0", "fusion_lat": 0.0, "is_disabled": 0, "rental_uris": {"ios": "https://dc.lft.to/lastmile_qr_scan", "android": "https://dc.lft.to/lastmile_qr_scan"}}, {"name": "587431134b3678538a0fe634db928c3e", "lon": -77.02091633333333, "lat": 38.9213845, "type": "electric_scooter", "fusion_lon": 0.0, "is_reserved": 0, "bike_id": "587431134b3678538a0fe634db928c3e", "fusion_lat": 0.0, "is_disabled": 0, "rental_uris": {"ios": "https://dc.lft.to/lastmile_qr_scan", "android": "https://dc.lft.to/lastmile_qr_scan"}}, {"name": "22c8c943381c9e42ba0b506010ea8567", "lon": -77.03745316666667, "lat": 38.92916916666667, "type": "electric_scooter", "fusion_lon": 0.0, "is_reserved": 0, "bike_id": "22c8c943381c9e42ba0b506010ea8567", "fusion_lat": 0.0, "is_disabled": 0, "rental_uris": {"ios": "https://dc.lft.to/lastmile_qr_scan", "android": "https://dc.lft.to/lastmile_qr_scan"}}, {"name": "9203a18358ae299bb64b01d733f34266", "lon": -76.94378683333333, "lat": 38.893261333333335, "type": "electric_scooter", "fusion_lon": 0.0, "is_reserved": 0, "bike_id": "9203a18358ae299bb64b01d733f34266", "fusion_lat": 0.0, "is_disabled": 0, "rental_uris": {"ios": "https://dc.lft.to/lastmile_qr_scan", "android": "https://dc.lft.to/lastmile_qr_scan"}}, {"name": "48848983d17c20f9b8d9ac718a94ec2f", "lon": -76.97444683333333, "lat": 38.90446166666667, "type": "electric_scooter", "fusion_lon": 0.0, "is_reserved": 0, "bike_id": "48848983d17c20f9b8d9ac718a94ec2f", "fusion_lat": 0.0, "is_disabled": 0, "rental_uris": {"ios": "https://dc.lft.to/lastmile_qr_scan", "android": "https://dc.lft.to/lastmile_qr_scan"}}, {"name": "3a2a254b40d378fa5da1d10f8fd9e26f", "lon": -77.07307066666667, "lat": 38.86485883333334, "type": "electric_bike", "fusion_lon": 0.0, "is_reserved": 0, "bike_id": "3a2a254b40d378fa5da1d10f8fd9e26f", "fusion_lat": 0.0, "is_disabled": 0, "rental_uris": {"ios": "https://dc.lft.to/lastmile_qr_scan", "android": "https://dc.lft.to/lastmile_qr_scan"}}, {"name": "fca866a83dcb7587458a48a46f3d9cfa", "lon": -76.94959433333334, "lat": 38.8943905, "type": "electric_scooter", "fusion_lon": 0.0, "is_reserved": 0, "bike_id": "fca866a83dcb7587458a48a46f3d9cfa", "fusion_lat": 0.0, "is_disabled": 0, "rental_uris": {"ios": "https://dc.lft.to/lastmile_qr_scan", "android": "https://dc.lft.to/lastmile_qr_scan"}}, {"name": "bc0c9097e1587782e15fefbcf671aec3", "lon": -76.97829383333334, "lat": 38.843719166666666, "type": "electric_bike", "fusion_lon": 0.0, "is_reserved": 0, "bike_id": "bc0c9097e1587782e15fefbcf671aec3", "fusion_lat": 0.0, "is_disabled": 0, "rental_uris": {"ios": "https://dc.lft.to/lastmile_qr_scan", "android": "https://dc.lft.to/lastmile_qr_scan"}}, {"name": "d3548c88c7b37b4b6aa5a0e2ac97affa", "lon": -77.0387125, "lat": 38.93267516666667, "type": "electric_scooter", "fusion_lon": 0.0, "is_reserved": 0, "bike_id": "d3548c88c7b37b4b6aa5a0e2ac97affa", "fusion_lat": 0.0, "is_disabled": 0, "rental_uris": {"ios": "https://dc.lft.to/lastmile_qr_scan", "android": "https://dc.lft.to/lastmile_qr_scan"}}, {"name": "970fd7348a53877eaf2c6c953ff272ef", "lon": -76.9375605, "lat": 38.890456, "type": "electric_scooter", "fusion_lon": 0.0, "is_reserved": 0, "bike_id": "970fd7348a53877eaf2c6c953ff272ef", "fusion_lat": 0.0, "is_disabled": 0, "rental_uris": {"ios": "https://dc.lft.to/lastmile_qr_scan", "android": "https://dc.lft.to/lastmile_qr_scan"}}, {"name": "cca2b7d3db9ded013d3de8ff057df6ff", "lon": -77.03211466666667, "lat": 38.896751, "type": "electric_scooter", "fusion_lon": 0.0, "is_reserved": 0, "bike_id": "cca2b7d3db9ded013d3de8ff057df6ff", "fusion_lat": 0.0, "is_disabled": 0, "rental_uris": {"ios": "https://dc.lft.to/lastmile_qr_scan", "android": "https://dc.lft.to/lastmile_qr_scan"}}, {"name": "e26bf83405fd8033178eff216b5eff88", "lon": -77.00784383333334, "lat": 38.90748833333333, "type": "electric_scooter", "fusion_lon": 0.0, "is_reserved": 0, "bike_id": "e26bf83405fd8033178eff216b5eff88", "fusion_lat": 0.0, "is_disabled": 0, "rental_uris": {"ios": "https://dc.lft.to/lastmile_qr_scan", "android": "https://dc.lft.to/lastmile_qr_scan"}}, {"name": "3b901603900a23fb7cbc716c87da438a", "lon": -77.04335466666667, "lat": 38.91784083333334, "type": "electric_scooter", "fusion_lon": 0.0, "is_reserved": 0, "bike_id": "3b901603900a23fb7cbc716c87da438a", "fusion_lat": 0.0, "is_disabled": 0, "rental_uris": {"ios": "https://dc.lft.to/lastmile_qr_scan", "android": "https://dc.lft.to/lastmile_qr_scan"}}, {"name": "d8896feee663269a1dc505633679b374", "lon": -77.01228983333333, "lat": 38.93109666666667, "type": "electric_scooter", "fusion_lon": 0.0, "is_reserved": 0, "bike_id": "d8896feee663269a1dc505633679b374", "fusion_lat": 0.0, "is_disabled": 0, "rental_uris": {"ios": "https://dc.lft.to/lastmile_qr_scan", "android": "https://dc.lft.to/lastmile_qr_scan"}}, {"name": "b347e30266fd8a59fe00a58ea4aaf192", "lon": -77.02387083333333, "lat": 38.919539, "type": "electric_scooter", "fusion_lon": 0.0, "is_reserved": 0, "bike_id": "b347e30266fd8a59fe00a58ea4aaf192", "fusion_lat": 0.0, "is_disabled": 0, "rental_uris": {"ios": "https://dc.lft.to/lastmile_qr_scan", "android": "https://dc.lft.to/lastmile_qr_scan"}}, {"name": "eaf41e3b6e6fcc582563834eb92d19bf", "lon": -77.01755616666667, "lat": 38.876891666666666, "type": "electric_scooter", "fusion_lon": 0.0, "is_reserved": 0, "bike_id": "eaf41e3b6e6fcc582563834eb92d19bf", "fusion_lat": 0.0, "is_disabled": 0, "rental_uris": {"ios": "https://dc.lft.to/lastmile_qr_scan", "android": "https://dc.lft.to/lastmile_qr_scan"}}, {"name": "4ca2567f3aac8d5a2eac8dd90a26f98a", "lon": -77.0288615, "lat": 38.99890716666667, "type": "electric_bike", "fusion_lon": 0.0, "is_reserved": 0, "bike_id": "4ca2567f3aac8d5a2eac8dd90a26f98a", "fusion_lat": 0.0, "is_disabled": 0, "rental_uris": {"ios": "https://dc.lft.to/lastmile_qr_scan", "android": "https://dc.lft.to/lastmile_qr_scan"}}, {"name": "acb068e342b5d0f2d6f8ae619f6dea53", "lon": -77.04730866666667, "lat": 38.9133895, "type": "electric_scooter", "fusion_lon": 0.0, "is_reserved": 0, "bike_id": "acb068e342b5d0f2d6f8ae619f6dea53", "fusion_lat": 0.0, "is_disabled": 0, "rental_uris": {"ios": "https://dc.lft.to/lastmile_qr_scan", "android": "https://dc.lft.to/lastmile_qr_scan"}}, {"name": "6d384fdaef7ac44ea9153debf9672a75", "lon": -77.0175335, "lat": 38.9038885, "type": "electric_scooter", "fusion_lon": 0.0, "is_reserved": 0, "bike_id": "6d384fdaef7ac44ea9153debf9672a75", "fusion_lat": 0.0, "is_disabled": 0, "rental_uris": {"ios": "https://dc.lft.to/lastmile_qr_scan", "android": "https://dc.lft.to/lastmile_qr_scan"}}, {"name": "8c0d0675ceeb207169b0b6e406fe29b3", "lon": -76.95660716666667, "lat": 38.89618633333333, "type": "electric_scooter", "fusion_lon": 0.0, "is_reserved": 0, "bike_id": "8c0d0675ceeb207169b0b6e406fe29b3", "fusion_lat": 0.0, "is_disabled": 0, "rental_uris": {"ios": "https://dc.lft.to/lastmile_qr_scan", "android": "https://dc.lft.to/lastmile_qr_scan"}}, {"name": "379112a8fa2ce8b8478547addd43e7f1", "lon": -76.96839116666666, "lat": 38.9432565, "type": "electric_bike", "fusion_lon": 0.0, "is_reserved": 0, "bike_id": "379112a8fa2ce8b8478547addd43e7f1", "fusion_lat": 0.0, "is_disabled": 0, "rental_uris": {"ios": "https://dc.lft.to/lastmile_qr_scan", "android": "https://dc.lft.to/lastmile_qr_scan"}}, {"name": "faef310d80431dfbac88497a3ba51754", "lon": -77.00988216666667, "lat": 38.872918166666665, "type": "electric_scooter", "fusion_lon": 0.0, "is_reserved": 0, "bike_id": "faef310d80431dfbac88497a3ba51754", "fusion_lat": 0.0, "is_disabled": 0, "rental_uris": {"ios": "https://dc.lft.to/lastmile_qr_scan", "android": "https://dc.lft.to/lastmile_qr_scan"}}, {"name": "f0a655da72ee089398e61eeae5fdff36", "lon": -77.0342295, "lat": 38.91254216666667, "type": "electric_scooter", "fusion_lon": 0.0, "is_reserved": 0, "bike_id": "f0a655da72ee089398e61eeae5fdff36", "fusion_lat": 0.0, "is_disabled": 0, "rental_uris": {"ios": "https://dc.lft.to/lastmile_qr_scan", "android": "https://dc.lft.to/lastmile_qr_scan"}}, {"name": "7108d94d79aa55f4170117c790f10413", "lon": -76.9734875, "lat": 38.84968166666667, "type": "electric_scooter", "fusion_lon": 0.0, "is_reserved": 0, "bike_id": "7108d94d79aa55f4170117c790f10413", "fusion_lat": 0.0, "is_disabled": 0, "rental_uris": {"ios": "https://dc.lft.to/lastmile_qr_scan", "android": "https://dc.lft.to/lastmile_qr_scan"}}, {"name": "cb35fc43377ef8ea4e831bcb97b7aeaf", "lon": -77.038589, "lat": 38.91557816666667, "type": "electric_scooter", "fusion_lon": 0.0, "is_reserved": 0, "bike_id": "cb35fc43377ef8ea4e831bcb97b7aeaf", "fusion_lat": 0.0, "is_disabled": 0, "rental_uris": {"ios": "https://dc.lft.to/lastmile_qr_scan", "android": "https://dc.lft.to/lastmile_qr_scan"}}, {"name": "c0076a2d8ab5113c707d3cae3a710b0b", "lon": -77.04651566666666, "lat": 39.05500766666667, "type": "electric_bike", "fusion_lon": 0.0, "is_reserved": 0, "bike_id": "c0076a2d8ab5113c707d3cae3a710b0b", "fusion_lat": 0.0, "is_disabled": 0, "rental_uris": {"ios": "https://dc.lft.to/lastmile_qr_scan", "android": "https://dc.lft.to/lastmile_qr_scan"}}, {"name": "54ee6a9f5ff61e6c85ac770900c87c2f", "lon": -77.07319816666667, "lat": 38.92723433333333, "type": "electric_bike", "fusion_lon": 0.0, "is_reserved": 0, "bike_id": "54ee6a9f5ff61e6c85ac770900c87c2f", "fusion_lat": 0.0, "is_disabled": 0, "rental_uris": {"ios": "https://dc.lft.to/lastmile_qr_scan", "android": "https://dc.lft.to/lastmile_qr_scan"}}, {"name": "9a324dc0f3053e008ec2e8441adae88a", "lon": -77.0334265, "lat": 38.92061316666667, "type": "electric_scooter", "fusion_lon": 0.0, "is_reserved": 0, "bike_id": "9a324dc0f3053e008ec2e8441adae88a", "fusion_lat": 0.0, "is_disabled": 0, "rental_uris": {"ios": "https://dc.lft.to/lastmile_qr_scan", "android": "https://dc.lft.to/lastmile_qr_scan"}}, {"name": "7d2781a8134b9e268c864178f9b329dc", "lon": -76.9835835, "lat": 38.89608666666667, "type": "electric_bike", "fusion_lon": 0.0, "is_reserved": 0, "bike_id": "7d2781a8134b9e268c864178f9b329dc", "fusion_lat": 0.0, "is_disabled": 0, "rental_uris": {"ios": "https://dc.lft.to/lastmile_qr_scan", "android": "https://dc.lft.to/lastmile_qr_scan"}}, {"name": "247e64628a95c484bee79e9d92399b4e", "lon": -76.96057133333333, "lat": 38.8840365, "type": "electric_bike", "fusion_lon": 0.0, "is_reserved": 0, "bike_id": "247e64628a95c484bee79e9d92399b4e", "fusion_lat": 0.0, "is_disabled": 0, "rental_uris": {"ios": "https://dc.lft.to/lastmile_qr_scan", "android": "https://dc.lft.to/lastmile_qr_scan"}}, {"name": "c0bda5cfd0ce4790d6b43f67f94b83d1", "lon": -77.058182, "lat": 38.935628, "type": "electric_scooter", "fusion_lon": 0.0, "is_reserved": 0, "bike_id": "c0bda5cfd0ce4790d6b43f67f94b83d1", "fusion_lat": 0.0, "is_disabled": 0, "rental_uris": {"ios": "https://dc.lft.to/lastmile_qr_scan", "android": "https://dc.lft.to/lastmile_qr_scan"}}, {"name": "7bf92a521525b928668281ecaa79ff2f", "lon": -77.07695633333333, "lat": 38.943650833333336, "type": "electric_bike", "fusion_lon": 0.0, "is_reserved": 0, "bike_id": "7bf92a521525b928668281ecaa79ff2f", "fusion_lat": 0.0, "is_disabled": 0, "rental_uris": {"ios": "https://dc.lft.to/lastmile_qr_scan", "android": "https://dc.lft.to/lastmile_qr_scan"}}, {"name": "cddac324594c099659a5b89102671a49", "lon": -77.02300533333333, "lat": 38.927574166666666, "type": "electric_scooter", "fusion_lon": 0.0, "is_reserved": 0, "bike_id": "cddac324594c099659a5b89102671a49", "fusion_lat": 0.0, "is_disabled": 0, "rental_uris": {"ios": "https://dc.lft.to/lastmile_qr_scan", "android": "https://dc.lft.to/lastmile_qr_scan"}}, {"name": "6f935c4d69a1c6c64b19728fb050a583", "lon": -77.02174216666667, "lat": 38.90563516666667, "type": "electric_scooter", "fusion_lon": 0.0, "is_reserved": 0, "bike_id": "6f935c4d69a1c6c64b19728fb050a583", "fusion_lat": 0.0, "is_disabled": 0, "rental_uris": {"ios": "https://dc.lft.to/lastmile_qr_scan", "android": "https://dc.lft.to/lastmile_qr_scan"}}, {"name": "5531263ed8af4b34f04f7373368bd89b", "lon": -76.93753966666667, "lat": 38.890515, "type": "electric_scooter", "fusion_lon": 0.0, "is_reserved": 0, "bike_id": "5531263ed8af4b34f04f7373368bd89b", "fusion_lat": 0.0, "is_disabled": 0, "rental_uris": {"ios": "https://dc.lft.to/lastmile_qr_scan", "android": "https://dc.lft.to/lastmile_qr_scan"}}, {"name": "2172e164152058f01b7c272a53cf8c8d", "lon": -77.02792283333334, "lat": 38.93084916666667, "type": "electric_scooter", "fusion_lon": 0.0, "is_reserved": 0, "bike_id": "2172e164152058f01b7c272a53cf8c8d", "fusion_lat": 0.0, "is_disabled": 0, "rental_uris": {"ios": "https://dc.lft.to/lastmile_qr_scan", "android": "https://dc.lft.to/lastmile_qr_scan"}}, {"name": "6a86684b43a321f61acc0b6ff580a82b", "lon": -76.99517216666666, "lat": 38.8837645, "type": "electric_scooter", "fusion_lon": 0.0, "is_reserved": 0, "bike_id": "6a86684b43a321f61acc0b6ff580a82b", "fusion_lat": 0.0, "is_disabled": 0, "rental_uris": {"ios": "https://dc.lft.to/lastmile_qr_scan", "android": "https://dc.lft.to/lastmile_qr_scan"}}, {"name": "fd2e1be4e7fc6f0c7f1ff4ddb82d318b", "lon": -76.99333566666667, "lat": 38.871437666666665, "type": "electric_scooter", "fusion_lon": 0.0, "is_reserved": 0, "bike_id": "fd2e1be4e7fc6f0c7f1ff4ddb82d318b", "fusion_lat": 0.0, "is_disabled": 0, "rental_uris": {"ios": "https://dc.lft.to/lastmile_qr_scan", "android": "https://dc.lft.to/lastmile_qr_scan"}}, {"name": "c5fd105463665c0d4106cec7f5094c7e", "lon": -76.94797783333334, "lat": 38.89399816666667, "type": "electric_bike", "fusion_lon": 0.0, "is_reserved": 0, "bike_id": "c5fd105463665c0d4106cec7f5094c7e", "fusion_lat": 0.0, "is_disabled": 0, "rental_uris": {"ios": "https://dc.lft.to/lastmile_qr_scan", "android": "https://dc.lft.to/lastmile_qr_scan"}}, {"name": "a021f94190ab76203be247ddf9ec8abf", "lon": -77.01698616666667, "lat": 38.975024833333336, "type": "electric_scooter", "fusion_lon": 0.0, "is_reserved": 0, "bike_id": "a021f94190ab76203be247ddf9ec8abf", "fusion_lat": 0.0, "is_disabled": 0, "rental_uris": {"ios": "https://dc.lft.to/lastmile_qr_scan", "android": "https://dc.lft.to/lastmile_qr_scan"}}, {"name": "321909399f37174e01380fe632e33de5", "lon": -76.98861183333334, "lat": 38.954792166666664, "type": "electric_bike", "fusion_lon": 0.0, "is_reserved": 0, "bike_id": "321909399f37174e01380fe632e33de5", "fusion_lat": 0.0, "is_disabled": 0, "rental_uris": {"ios": "https://dc.lft.to/lastmile_qr_scan", "android": "https://dc.lft.to/lastmile_qr_scan"}}, {"name": "318c55e382b4076534e78c190647f4e3", "lon": -77.0260225, "lat": 38.93142816666666, "type": "electric_scooter", "fusion_lon": 0.0, "is_reserved": 0, "bike_id": "318c55e382b4076534e78c190647f4e3", "fusion_lat": 0.0, "is_disabled": 0, "rental_uris": {"ios": "https://dc.lft.to/lastmile_qr_scan", "android": "https://dc.lft.to/lastmile_qr_scan"}}, {"name": "b1e5f54b7553865ae654adbc029785df", "lon": -77.038453, "lat": 38.9163705, "type": "electric_scooter", "fusion_lon": 0.0, "is_reserved": 0, "bike_id": "b1e5f54b7553865ae654adbc029785df", "fusion_lat": 0.0, "is_disabled": 0, "rental_uris": {"ios": "https://dc.lft.to/lastmile_qr_scan", "android": "https://dc.lft.to/lastmile_qr_scan"}}, {"name": "b010ab7547522112325fb802679c9a44", "lon": -77.1185085, "lat": 38.877336166666666, "type": "electric_bike", "fusion_lon": 0.0, "is_reserved": 0, "bike_id": "b010ab7547522112325fb802679c9a44", "fusion_lat": 0.0, "is_disabled": 0, "rental_uris": {"ios": "https://dc.lft.to/lastmile_qr_scan", "android": "https://dc.lft.to/lastmile_qr_scan"}}, {"name": "20a3c82315358b809b7190f3181d11a6", "lon": -77.02488366666667, "lat": 38.938657, "type": "electric_scooter", "fusion_lon": 0.0, "is_reserved": 0, "bike_id": "20a3c82315358b809b7190f3181d11a6", "fusion_lat": 0.0, "is_disabled": 0, "rental_uris": {"ios": "https://dc.lft.to/lastmile_qr_scan", "android": "https://dc.lft.to/lastmile_qr_scan"}}, {"name": "df1f495694249183593bc623d0c2dd4f", "lon": -77.02099783333334, "lat": 38.931164333333335, "type": "electric_scooter", "fusion_lon": 0.0, "is_reserved": 0, "bike_id": "df1f495694249183593bc623d0c2dd4f", "fusion_lat": 0.0, "is_disabled": 0, "rental_uris": {"ios": "https://dc.lft.to/lastmile_qr_scan", "android": "https://dc.lft.to/lastmile_qr_scan"}}, {"name": "65208aba14934e3a971a194d98ccb4ee", "lon": -76.93543333333334, "lat": 38.95182666666667, "type": "electric_bike", "fusion_lon": 0.0, "is_reserved": 0, "bike_id": "65208aba14934e3a971a194d98ccb4ee", "fusion_lat": 0.0, "is_disabled": 0, "rental_uris": {"ios": "https://dc.lft.to/lastmile_qr_scan", "android": "https://dc.lft.to/lastmile_qr_scan"}}, {"name": "bb0847f01530631894a965e7649c1034", "lon": -77.04691683333333, "lat": 38.892240666666666, "type": "electric_scooter", "fusion_lon": 0.0, "is_reserved": 0, "bike_id": "bb0847f01530631894a965e7649c1034", "fusion_lat": 0.0, "is_disabled": 0, "rental_uris": {"ios": "https://dc.lft.to/lastmile_qr_scan", "android": "https://dc.lft.to/lastmile_qr_scan"}}, {"name": "043e9013d5de1fd8c34f7add31b7a3a2", "lon": -77.0019615, "lat": 38.9078925, "type": "electric_scooter", "fusion_lon": 0.0, "is_reserved": 0, "bike_id": "043e9013d5de1fd8c34f7add31b7a3a2", "fusion_lat": 0.0, "is_disabled": 0, "rental_uris": {"ios": "https://dc.lft.to/lastmile_qr_scan", "android": "https://dc.lft.to/lastmile_qr_scan"}}, {"name": "ce9ec499411e0072afd3c5f696efd23d", "lon": -77.013463, "lat": 38.869744833333336, "type": "electric_scooter", "fusion_lon": 0.0, "is_reserved": 0, "bike_id": "ce9ec499411e0072afd3c5f696efd23d", "fusion_lat": 0.0, "is_disabled": 0, "rental_uris": {"ios": "https://dc.lft.to/lastmile_qr_scan", "android": "https://dc.lft.to/lastmile_qr_scan"}}, {"name": "590ac4bd9242eb798b3285071096e983", "lon": -76.9896775, "lat": 38.882267666666664, "type": "electric_bike", "fusion_lon": 0.0, "is_reserved": 0, "bike_id": "590ac4bd9242eb798b3285071096e983", "fusion_lat": 0.0, "is_disabled": 0, "rental_uris": {"ios": "https://dc.lft.to/lastmile_qr_scan", "android": "https://dc.lft.to/lastmile_qr_scan"}}, {"name": "3fb2ec4a3e66e8c2adf513aa222ade04", "lon": -76.9987245, "lat": 38.900322333333335, "type": "electric_scooter", "fusion_lon": 0.0, "is_reserved": 0, "bike_id": "3fb2ec4a3e66e8c2adf513aa222ade04", "fusion_lat": 0.0, "is_disabled": 0, "rental_uris": {"ios": "https://dc.lft.to/lastmile_qr_scan", "android": "https://dc.lft.to/lastmile_qr_scan"}}, {"name": "1338d5d657379861891595e65234e9ab", "lon": -77.00750933333333, "lat": 38.92678383333333, "type": "electric_scooter", "fusion_lon": 0.0, "is_reserved": 0, "bike_id": "1338d5d657379861891595e65234e9ab", "fusion_lat": 0.0, "is_disabled": 0, "rental_uris": {"ios": "https://dc.lft.to/lastmile_qr_scan", "android": "https://dc.lft.to/lastmile_qr_scan"}}, {"name": "997349d6c4c9d2548ec81cff5d31d1df", "lon": -77.02367733333334, "lat": 38.90222683333333, "type": "electric_scooter", "fusion_lon": 0.0, "is_reserved": 0, "bike_id": "997349d6c4c9d2548ec81cff5d31d1df", "fusion_lat": 0.0, "is_disabled": 0, "rental_uris": {"ios": "https://dc.lft.to/lastmile_qr_scan", "android": "https://dc.lft.to/lastmile_qr_scan"}}, {"name": "5d9f4cbe06f70e9532e393694844c277", "lon": -77.00209883333333, "lat": 38.924529, "type": "electric_scooter", "fusion_lon": 0.0, "is_reserved": 0, "bike_id": "5d9f4cbe06f70e9532e393694844c277", "fusion_lat": 0.0, "is_disabled": 0, "rental_uris": {"ios": "https://dc.lft.to/lastmile_qr_scan", "android": "https://dc.lft.to/lastmile_qr_scan"}}, {"name": "baa89927596549e9c8b71acd162f4b3a", "lon": -77.0249045, "lat": 38.9386695, "type": "electric_scooter", "fusion_lon": 0.0, "is_reserved": 0, "bike_id": "baa89927596549e9c8b71acd162f4b3a", "fusion_lat": 0.0, "is_disabled": 0, "rental_uris": {"ios": "https://dc.lft.to/lastmile_qr_scan", "android": "https://dc.lft.to/lastmile_qr_scan"}}, {"name": "58b2341f14ff9be15e2f9d229ed1aa36", "lon": -76.983669, "lat": 38.915577166666665, "type": "electric_scooter", "fusion_lon": 0.0, "is_reserved": 0, "bike_id": "58b2341f14ff9be15e2f9d229ed1aa36", "fusion_lat": 0.0, "is_disabled": 0, "rental_uris": {"ios": "https://dc.lft.to/lastmile_qr_scan", "android": "https://dc.lft.to/lastmile_qr_scan"}}, {"name": "b37d6b0a75912b4ce1c818d2af099323", "lon": -77.0523515, "lat": 38.923597666666666, "type": "electric_scooter", "fusion_lon": 0.0, "is_reserved": 0, "bike_id": "b37d6b0a75912b4ce1c818d2af099323", "fusion_lat": 0.0, "is_disabled": 0, "rental_uris": {"ios": "https://dc.lft.to/lastmile_qr_scan", "android": "https://dc.lft.to/lastmile_qr_scan"}}, {"name": "66c57a481df580cedeecc9a02a2e4c88", "lon": -77.03050716666667, "lat": 38.926700833333335, "type": "electric_scooter", "fusion_lon": 0.0, "is_reserved": 0, "bike_id": "66c57a481df580cedeecc9a02a2e4c88", "fusion_lat": 0.0, "is_disabled": 0, "rental_uris": {"ios": "https://dc.lft.to/lastmile_qr_scan", "android": "https://dc.lft.to/lastmile_qr_scan"}}, {"name": "32e7d7ffb6e89b13bfe2c56de8e2bf48", "lon": -77.03515683333333, "lat": 38.92157266666667, "type": "electric_scooter", "fusion_lon": 0.0, "is_reserved": 0, "bike_id": "32e7d7ffb6e89b13bfe2c56de8e2bf48", "fusion_lat": 0.0, "is_disabled": 0, "rental_uris": {"ios": "https://dc.lft.to/lastmile_qr_scan", "android": "https://dc.lft.to/lastmile_qr_scan"}}, {"name": "7a09eeebfc8fb40236b4178766c7c44d", "lon": -77.0278985, "lat": 38.95418983333333, "type": "electric_scooter", "fusion_lon": 0.0, "is_reserved": 0, "bike_id": "7a09eeebfc8fb40236b4178766c7c44d", "fusion_lat": 0.0, "is_disabled": 0, "rental_uris": {"ios": "https://dc.lft.to/lastmile_qr_scan", "android": "https://dc.lft.to/lastmile_qr_scan"}}, {"name": "4979c935e27e54454233811283c35afd", "lon": -77.039695, "lat": 38.893496, "type": "electric_scooter", "fusion_lon": 0.0, "is_reserved": 0, "bike_id": "4979c935e27e54454233811283c35afd", "fusion_lat": 0.0, "is_disabled": 0, "rental_uris": {"ios": "https://dc.lft.to/lastmile_qr_scan", "android": "https://dc.lft.to/lastmile_qr_scan"}}, {"name": "dcf71ac50745b6670b1847d01d2245c2", "lon": -77.051256, "lat": 38.923514, "type": "electric_scooter", "fusion_lon": 0.0, "is_reserved": 0, "bike_id": "dcf71ac50745b6670b1847d01d2245c2", "fusion_lat": 0.0, "is_disabled": 0, "rental_uris": {"ios": "https://dc.lft.to/lastmile_qr_scan", "android": "https://dc.lft.to/lastmile_qr_scan"}}, {"name": "e362e5a013ec115740124e73262c14c7", "lon": -77.021036, "lat": 38.921775833333335, "type": "electric_scooter", "fusion_lon": 0.0, "is_reserved": 0, "bike_id": "e362e5a013ec115740124e73262c14c7", "fusion_lat": 0.0, "is_disabled": 0, "rental_uris": {"ios": "https://dc.lft.to/lastmile_qr_scan", "android": "https://dc.lft.to/lastmile_qr_scan"}}, {"name": "f286d3df31fee5780f3acbc559de5cad", "lon": -76.99604466666666, "lat": 38.8857675, "type": "electric_scooter", "fusion_lon": 0.0, "is_reserved": 0, "bike_id": "f286d3df31fee5780f3acbc559de5cad", "fusion_lat": 0.0, "is_disabled": 0, "rental_uris": {"ios": "https://dc.lft.to/lastmile_qr_scan", "android": "https://dc.lft.to/lastmile_qr_scan"}}, {"name": "3d30b25b3f49bfe44c244371270283c1", "lon": -77.00350483333334, "lat": 38.887105166666665, "type": "electric_scooter", "fusion_lon": 0.0, "is_reserved": 0, "bike_id": "3d30b25b3f49bfe44c244371270283c1", "fusion_lat": 0.0, "is_disabled": 0, "rental_uris": {"ios": "https://dc.lft.to/lastmile_qr_scan", "android": "https://dc.lft.to/lastmile_qr_scan"}}, {"name": "a9b7a21e98dbc8df3a16fe6996fe105c", "lon": -76.9981355, "lat": 38.90036716666667, "type": "electric_scooter", "fusion_lon": 0.0, "is_reserved": 0, "bike_id": "a9b7a21e98dbc8df3a16fe6996fe105c", "fusion_lat": 0.0, "is_disabled": 0, "rental_uris": {"ios": "https://dc.lft.to/lastmile_qr_scan", "android": "https://dc.lft.to/lastmile_qr_scan"}}, {"name": "a7a9a82ee116ee2bbcfd520b2e6fb448", "lon": -77.00137183333334, "lat": 38.90515383333333, "type": "electric_scooter", "fusion_lon": 0.0, "is_reserved": 0, "bike_id": "a7a9a82ee116ee2bbcfd520b2e6fb448", "fusion_lat": 0.0, "is_disabled": 0, "rental_uris": {"ios": "https://dc.lft.to/lastmile_qr_scan", "android": "https://dc.lft.to/lastmile_qr_scan"}}, {"name": "5888758174fb69e14a0959b337990fbb", "lon": -77.02363916666667, "lat": 38.925154666666664, "type": "electric_scooter", "fusion_lon": 0.0, "is_reserved": 0, "bike_id": "5888758174fb69e14a0959b337990fbb", "fusion_lat": 0.0, "is_disabled": 0, "rental_uris": {"ios": "https://dc.lft.to/lastmile_qr_scan", "android": "https://dc.lft.to/lastmile_qr_scan"}}, {"name": "3cdfe53a40632289dd88098fa73e243d", "lon": -76.98977966666666, "lat": 38.86514233333333, "type": "electric_scooter", "fusion_lon": 0.0, "is_reserved": 0, "bike_id": "3cdfe53a40632289dd88098fa73e243d", "fusion_lat": 0.0, "is_disabled": 0, "rental_uris": {"ios": "https://dc.lft.to/lastmile_qr_scan", "android": "https://dc.lft.to/lastmile_qr_scan"}}, {"name": "7f8c9e9b3011adc7d8f25901cc3b977c", "lon": -77.03585733333334, "lat": 38.912632, "type": "electric_scooter", "fusion_lon": 0.0, "is_reserved": 0, "bike_id": "7f8c9e9b3011adc7d8f25901cc3b977c", "fusion_lat": 0.0, "is_disabled": 0, "rental_uris": {"ios": "https://dc.lft.to/lastmile_qr_scan", "android": "https://dc.lft.to/lastmile_qr_scan"}}, {"name": "533baf5c2da917e4c54fc03ba29bc36a", "lon": -76.97790783333333, "lat": 38.88864566666667, "type": "electric_bike", "fusion_lon": 0.0, "is_reserved": 0, "bike_id": "533baf5c2da917e4c54fc03ba29bc36a", "fusion_lat": 0.0, "is_disabled": 0, "rental_uris": {"ios": "https://dc.lft.to/lastmile_qr_scan", "android": "https://dc.lft.to/lastmile_qr_scan"}}, {"name": "6c54f78cf546f8b12f1f3c1e00859e07", "lon": -77.02684716666667, "lat": 38.912668, "type": "electric_scooter", "fusion_lon": 0.0, "is_reserved": 0, "bike_id": "6c54f78cf546f8b12f1f3c1e00859e07", "fusion_lat": 0.0, "is_disabled": 0, "rental_uris": {"ios": "https://dc.lft.to/lastmile_qr_scan", "android": "https://dc.lft.to/lastmile_qr_scan"}}, {"name": "29542cd283c2aba780888c836ef39164", "lon": -77.05145, "lat": 38.90541266666666, "type": "electric_scooter", "fusion_lon": 0.0, "is_reserved": 0, "bike_id": "29542cd283c2aba780888c836ef39164", "fusion_lat": 0.0, "is_disabled": 0, "rental_uris": {"ios": "https://dc.lft.to/lastmile_qr_scan", "android": "https://dc.lft.to/lastmile_qr_scan"}}, {"name": "16b433c5f53b4b21cf26f39f4a34b6df", "lon": -77.08186683333334, "lat": 38.855669166666665, "type": "electric_bike", "fusion_lon": 0.0, "is_reserved": 0, "bike_id": "16b433c5f53b4b21cf26f39f4a34b6df", "fusion_lat": 0.0, "is_disabled": 0, "rental_uris": {"ios": "https://dc.lft.to/lastmile_qr_scan", "android": "https://dc.lft.to/lastmile_qr_scan"}}, {"name": "d835d26f6f8313ceacad9aa7f3865224", "lon": -77.0230295, "lat": 38.91794316666667, "type": "electric_scooter", "fusion_lon": 0.0, "is_reserved": 0, "bike_id": "d835d26f6f8313ceacad9aa7f3865224", "fusion_lat": 0.0, "is_disabled": 0, "rental_uris": {"ios": "https://dc.lft.to/lastmile_qr_scan", "android": "https://dc.lft.to/lastmile_qr_scan"}}, {"name": "1d594d8a998592297fc4798c6e54f542", "lon": -76.95187316666667, "lat": 38.9073995, "type": "electric_scooter", "fusion_lon": 0.0, "is_reserved": 0, "bike_id": "1d594d8a998592297fc4798c6e54f542", "fusion_lat": 0.0, "is_disabled": 0, "rental_uris": {"ios": "https://dc.lft.to/lastmile_qr_scan", "android": "https://dc.lft.to/lastmile_qr_scan"}}, {"name": "23dbefeaa52fec042ff4ea00868698d2", "lon": -76.98834916666667, "lat": 38.900435333333334, "type": "electric_scooter", "fusion_lon": 0.0, "is_reserved": 0, "bike_id": "23dbefeaa52fec042ff4ea00868698d2", "fusion_lat": 0.0, "is_disabled": 0, "rental_uris": {"ios": "https://dc.lft.to/lastmile_qr_scan", "android": "https://dc.lft.to/lastmile_qr_scan"}}, {"name": "7c1c56840e64ac7bf1171dea89f8269f", "lon": -76.99947283333333, "lat": 38.84298183333333, "type": "electric_scooter", "fusion_lon": 0.0, "is_reserved": 0, "bike_id": "7c1c56840e64ac7bf1171dea89f8269f", "fusion_lat": 0.0, "is_disabled": 0, "rental_uris": {"ios": "https://dc.lft.to/lastmile_qr_scan", "android": "https://dc.lft.to/lastmile_qr_scan"}}, {"name": "e2899ab7af1800439d775d4d61171d5f", "lon": -77.04336433333333, "lat": 38.89524383333333, "type": "electric_scooter", "fusion_lon": 0.0, "is_reserved": 0, "bike_id": "e2899ab7af1800439d775d4d61171d5f", "fusion_lat": 0.0, "is_disabled": 0, "rental_uris": {"ios": "https://dc.lft.to/lastmile_qr_scan", "android": "https://dc.lft.to/lastmile_qr_scan"}}, {"name": "1e371c9f5c479ffd0bac8acd5da10a1a", "lon": -76.9501835, "lat": 38.8939215, "type": "electric_scooter", "fusion_lon": 0.0, "is_reserved": 0, "bike_id": "1e371c9f5c479ffd0bac8acd5da10a1a", "fusion_lat": 0.0, "is_disabled": 0, "rental_uris": {"ios": "https://dc.lft.to/lastmile_qr_scan", "android": "https://dc.lft.to/lastmile_qr_scan"}}, {"name": "0d58f75d8579557caab58ee6a8661bf4", "lon": -76.985401, "lat": 38.90956333333333, "type": "electric_scooter", "fusion_lon": 0.0, "is_reserved": 0, "bike_id": "0d58f75d8579557caab58ee6a8661bf4", "fusion_lat": 0.0, "is_disabled": 0, "rental_uris": {"ios": "https://dc.lft.to/lastmile_qr_scan", "android": "https://dc.lft.to/lastmile_qr_scan"}}, {"name": "df8059f2335b1cbd3284a0eb91602ca7", "lon": -77.03354333333333, "lat": 38.8862275, "type": "electric_scooter", "fusion_lon": 0.0, "is_reserved": 0, "bike_id": "df8059f2335b1cbd3284a0eb91602ca7", "fusion_lat": 0.0, "is_disabled": 0, "rental_uris": {"ios": "https://dc.lft.to/lastmile_qr_scan", "android": "https://dc.lft.to/lastmile_qr_scan"}}, {"name": "3450571053a0114a92fdba637f7d68c6", "lon": -77.02735916666667, "lat": 38.927685, "type": "electric_scooter", "fusion_lon": 0.0, "is_reserved": 0, "bike_id": "3450571053a0114a92fdba637f7d68c6", "fusion_lat": 0.0, "is_disabled": 0, "rental_uris": {"ios": "https://dc.lft.to/lastmile_qr_scan", "android": "https://dc.lft.to/lastmile_qr_scan"}}, {"name": "4a476184614e7b29c64cbb032f8b2f6f", "lon": -77.02499233333333, "lat": 38.919772333333334, "type": "electric_scooter", "fusion_lon": 0.0, "is_reserved": 0, "bike_id": "4a476184614e7b29c64cbb032f8b2f6f", "fusion_lat": 0.0, "is_disabled": 0, "rental_uris": {"ios": "https://dc.lft.to/lastmile_qr_scan", "android": "https://dc.lft.to/lastmile_qr_scan"}}, {"name": "b6e0786135c6a6d54a4b934e1d16bc4d", "lon": -77.02431683333333, "lat": 38.95632366666667, "type": "electric_scooter", "fusion_lon": 0.0, "is_reserved": 0, "bike_id": "b6e0786135c6a6d54a4b934e1d16bc4d", "fusion_lat": 0.0, "is_disabled": 0, "rental_uris": {"ios": "https://dc.lft.to/lastmile_qr_scan", "android": "https://dc.lft.to/lastmile_qr_scan"}}, {"name": "43d956e3c02885280b70b0b8c489915d", "lon": -76.96464533333334, "lat": 38.93447166666667, "type": "electric_scooter", "fusion_lon": 0.0, "is_reserved": 0, "bike_id": "43d956e3c02885280b70b0b8c489915d", "fusion_lat": 0.0, "is_disabled": 0, "rental_uris": {"ios": "https://dc.lft.to/lastmile_qr_scan", "android": "https://dc.lft.to/lastmile_qr_scan"}}, {"name": "2fb5ed0747c1672d387879f197aa0c0c", "lon": -77.02367583333333, "lat": 38.879242833333336, "type": "electric_scooter", "fusion_lon": 0.0, "is_reserved": 0, "bike_id": "2fb5ed0747c1672d387879f197aa0c0c", "fusion_lat": 0.0, "is_disabled": 0, "rental_uris": {"ios": "https://dc.lft.to/lastmile_qr_scan", "android": "https://dc.lft.to/lastmile_qr_scan"}}, {"name": "0f61bd5e52a955ee520f5e5d3fea65d7", "lon": -77.02210116666667, "lat": 38.905725833333335, "type": "electric_scooter", "fusion_lon": 0.0, "is_reserved": 0, "bike_id": "0f61bd5e52a955ee520f5e5d3fea65d7", "fusion_lat": 0.0, "is_disabled": 0, "rental_uris": {"ios": "https://dc.lft.to/lastmile_qr_scan", "android": "https://dc.lft.to/lastmile_qr_scan"}}, {"name": "d490f1e13cd8b0c67bcf3e5ef17e7fae", "lon": -77.02532766666667, "lat": 38.942632333333336, "type": "electric_scooter", "fusion_lon": 0.0, "is_reserved": 0, "bike_id": "d490f1e13cd8b0c67bcf3e5ef17e7fae", "fusion_lat": 0.0, "is_disabled": 0, "rental_uris": {"ios": "https://dc.lft.to/lastmile_qr_scan", "android": "https://dc.lft.to/lastmile_qr_scan"}}, {"name": "40171cde0eeda13943db60eeda24f948", "lon": -77.03651583333334, "lat": 38.903916333333335, "type": "electric_scooter", "fusion_lon": 0.0, "is_reserved": 0, "bike_id": "40171cde0eeda13943db60eeda24f948", "fusion_lat": 0.0, "is_disabled": 0, "rental_uris": {"ios": "https://dc.lft.to/lastmile_qr_scan", "android": "https://dc.lft.to/lastmile_qr_scan"}}, {"name": "b474a5b5966e7d4dcf7108aa694e28cd", "lon": -77.02887283333334, "lat": 38.913378, "type": "electric_scooter", "fusion_lon": 0.0, "is_reserved": 0, "bike_id": "b474a5b5966e7d4dcf7108aa694e28cd", "fusion_lat": 0.0, "is_disabled": 0, "rental_uris": {"ios": "https://dc.lft.to/lastmile_qr_scan", "android": "https://dc.lft.to/lastmile_qr_scan"}}, {"name": "9f6525f37ed1c334efd808d2d2179487", "lon": -77.08594483333333, "lat": 38.908717333333335, "type": "electric_scooter", "fusion_lon": 0.0, "is_reserved": 0, "bike_id": "9f6525f37ed1c334efd808d2d2179487", "fusion_lat": 0.0, "is_disabled": 0, "rental_uris": {"ios": "https://dc.lft.to/lastmile_qr_scan", "android": "https://dc.lft.to/lastmile_qr_scan"}}, {"name": "6843bfc7e6c2b08b1cb6236670c4288d", "lon": -77.03378433333333, "lat": 38.910444, "type": "electric_scooter", "fusion_lon": 0.0, "is_reserved": 0, "bike_id": "6843bfc7e6c2b08b1cb6236670c4288d", "fusion_lat": 0.0, "is_disabled": 0, "rental_uris": {"ios": "https://dc.lft.to/lastmile_qr_scan", "android": "https://dc.lft.to/lastmile_qr_scan"}}, {"name": "aac76bccd0af53d482046baee97541b6", "lon": -77.0432575, "lat": 38.89224216666667, "type": "electric_scooter", "fusion_lon": 0.0, "is_reserved": 0, "bike_id": "aac76bccd0af53d482046baee97541b6", "fusion_lat": 0.0, "is_disabled": 0, "rental_uris": {"ios": "https://dc.lft.to/lastmile_qr_scan", "android": "https://dc.lft.to/lastmile_qr_scan"}}, {"name": "6cf25716e8bde812375ff8f699289507", "lon": -76.9462265, "lat": 38.8323595, "type": "electric_bike", "fusion_lon": 0.0, "is_reserved": 0, "bike_id": "6cf25716e8bde812375ff8f699289507", "fusion_lat": 0.0, "is_disabled": 0, "rental_uris": {"ios": "https://dc.lft.to/lastmile_qr_scan", "android": "https://dc.lft.to/lastmile_qr_scan"}}, {"name": "3f8cd6bcfabb28820b8e7d434bc0afb3", "lon": -77.0092315, "lat": 38.913385166666664, "type": "electric_scooter", "fusion_lon": 0.0, "is_reserved": 0, "bike_id": "3f8cd6bcfabb28820b8e7d434bc0afb3", "fusion_lat": 0.0, "is_disabled": 0, "rental_uris": {"ios": "https://dc.lft.to/lastmile_qr_scan", "android": "https://dc.lft.to/lastmile_qr_scan"}}, {"name": "75e7ae9f756dfb5c47d6cc10ec633bae", "lon": -77.04981583333333, "lat": 39.062960333333336, "type": "electric_bike", "fusion_lon": 0.0, "is_reserved": 0, "bike_id": "75e7ae9f756dfb5c47d6cc10ec633bae", "fusion_lat": 0.0, "is_disabled": 0, "rental_uris": {"ios": "https://dc.lft.to/lastmile_qr_scan", "android": "https://dc.lft.to/lastmile_qr_scan"}}, {"name": "e81c6780af0f5df36968f5c1dfb13c8a", "lon": -76.942513, "lat": 38.89673916666667, "type": "electric_scooter", "fusion_lon": 0.0, "is_reserved": 0, "bike_id": "e81c6780af0f5df36968f5c1dfb13c8a", "fusion_lat": 0.0, "is_disabled": 0, "rental_uris": {"ios": "https://dc.lft.to/lastmile_qr_scan", "android": "https://dc.lft.to/lastmile_qr_scan"}}, {"name": "66d959e5e31af850a018f98a581f522c", "lon": -77.008933, "lat": 38.924860333333335, "type": "electric_scooter", "fusion_lon": 0.0, "is_reserved": 0, "bike_id": "66d959e5e31af850a018f98a581f522c", "fusion_lat": 0.0, "is_disabled": 0, "rental_uris": {"ios": "https://dc.lft.to/lastmile_qr_scan", "android": "https://dc.lft.to/lastmile_qr_scan"}}, {"name": "8fde02dbcfece462022670ca61562b69", "lon": -77.05756933333333, "lat": 38.925005166666665, "type": "electric_scooter", "fusion_lon": 0.0, "is_reserved": 0, "bike_id": "8fde02dbcfece462022670ca61562b69", "fusion_lat": 0.0, "is_disabled": 0, "rental_uris": {"ios": "https://dc.lft.to/lastmile_qr_scan", "android": "https://dc.lft.to/lastmile_qr_scan"}}, {"name": "4b922d9a20da22a9bdd8e1b57c9eba69", "lon": -77.03528833333333, "lat": 38.92541466666667, "type": "electric_scooter", "fusion_lon": 0.0, "is_reserved": 0, "bike_id": "4b922d9a20da22a9bdd8e1b57c9eba69", "fusion_lat": 0.0, "is_disabled": 0, "rental_uris": {"ios": "https://dc.lft.to/lastmile_qr_scan", "android": "https://dc.lft.to/lastmile_qr_scan"}}, {"name": "62800e3221821cef1a31866a60a6b6b8", "lon": -76.966239, "lat": 38.871055166666665, "type": "electric_scooter", "fusion_lon": 0.0, "is_reserved": 0, "bike_id": "62800e3221821cef1a31866a60a6b6b8", "fusion_lat": 0.0, "is_disabled": 0, "rental_uris": {"ios": "https://dc.lft.to/lastmile_qr_scan", "android": "https://dc.lft.to/lastmile_qr_scan"}}, {"name": "b44a34a80691696a89ffd5bb493105ae", "lon": -77.00127533333334, "lat": 38.905067, "type": "electric_scooter", "fusion_lon": 0.0, "is_reserved": 0, "bike_id": "b44a34a80691696a89ffd5bb493105ae", "fusion_lat": 0.0, "is_disabled": 0, "rental_uris": {"ios": "https://dc.lft.to/lastmile_qr_scan", "android": "https://dc.lft.to/lastmile_qr_scan"}}, {"name": "33cf97e791ed77f0829a440c89162f2e", "lon": -77.03289533333333, "lat": 38.95634033333333, "type": "electric_scooter", "fusion_lon": 0.0, "is_reserved": 0, "bike_id": "33cf97e791ed77f0829a440c89162f2e", "fusion_lat": 0.0, "is_disabled": 0, "rental_uris": {"ios": "https://dc.lft.to/lastmile_qr_scan", "android": "https://dc.lft.to/lastmile_qr_scan"}}, {"name": "60ac22ec7ac91db4a3d2bd76a127720c", "lon": -77.030373, "lat": 38.898413166666664, "type": "electric_scooter", "fusion_lon": 0.0, "is_reserved": 0, "bike_id": "60ac22ec7ac91db4a3d2bd76a127720c", "fusion_lat": 0.0, "is_disabled": 0, "rental_uris": {"ios": "https://dc.lft.to/lastmile_qr_scan", "android": "https://dc.lft.to/lastmile_qr_scan"}}, {"name": "d59883d6ed240efceedf88532333dc1d", "lon": -77.02950116666666, "lat": 38.89635033333333, "type": "electric_scooter", "fusion_lon": 0.0, "is_reserved": 0, "bike_id": "d59883d6ed240efceedf88532333dc1d", "fusion_lat": 0.0, "is_disabled": 0, "rental_uris": {"ios": "https://dc.lft.to/lastmile_qr_scan", "android": "https://dc.lft.to/lastmile_qr_scan"}}, {"name": "92d6144ab79bd864ad73178c12be97dc", "lon": -77.01423216666667, "lat": 38.9057495, "type": "electric_bike", "fusion_lon": 0.0, "is_reserved": 0, "bike_id": "92d6144ab79bd864ad73178c12be97dc", "fusion_lat": 0.0, "is_disabled": 0, "rental_uris": {"ios": "https://dc.lft.to/lastmile_qr_scan", "android": "https://dc.lft.to/lastmile_qr_scan"}}, {"name": "1665bde8fbe3c0fcc2957c5c2617d565", "lon": -77.03416733333333, "lat": 38.919275666666664, "type": "electric_scooter", "fusion_lon": 0.0, "is_reserved": 0, "bike_id": "1665bde8fbe3c0fcc2957c5c2617d565", "fusion_lat": 0.0, "is_disabled": 0, "rental_uris": {"ios": "https://dc.lft.to/lastmile_qr_scan", "android": "https://dc.lft.to/lastmile_qr_scan"}}, {"name": "4489b1c2cadc16595cc722c7a0a9d1b4", "lon": -77.04170566666667, "lat": 38.91674916666667, "type": "electric_scooter", "fusion_lon": 0.0, "is_reserved": 0, "bike_id": "4489b1c2cadc16595cc722c7a0a9d1b4", "fusion_lat": 0.0, "is_disabled": 0, "rental_uris": {"ios": "https://dc.lft.to/lastmile_qr_scan", "android": "https://dc.lft.to/lastmile_qr_scan"}}, {"name": "dfe1a18bcfa456dd63b5e819ded2266d", "lon": -76.99168116666667, "lat": 38.89801666666666, "type": "electric_scooter", "fusion_lon": 0.0, "is_reserved": 0, "bike_id": "dfe1a18bcfa456dd63b5e819ded2266d", "fusion_lat": 0.0, "is_disabled": 0, "rental_uris": {"ios": "https://dc.lft.to/lastmile_qr_scan", "android": "https://dc.lft.to/lastmile_qr_scan"}}, {"name": "e8cc27c9fcab31bf24fb34003800c96e", "lon": -77.02688933333333, "lat": 38.906835666666666, "type": "electric_scooter", "fusion_lon": 0.0, "is_reserved": 0, "bike_id": "e8cc27c9fcab31bf24fb34003800c96e", "fusion_lat": 0.0, "is_disabled": 0, "rental_uris": {"ios": "https://dc.lft.to/lastmile_qr_scan", "android": "https://dc.lft.to/lastmile_qr_scan"}}, {"name": "94c14280dc444a267e85352b66359864", "lon": -77.03475316666666, "lat": 38.90573116666667, "type": "electric_scooter", "fusion_lon": 0.0, "is_reserved": 0, "bike_id": "94c14280dc444a267e85352b66359864", "fusion_lat": 0.0, "is_disabled": 0, "rental_uris": {"ios": "https://dc.lft.to/lastmile_qr_scan", "android": "https://dc.lft.to/lastmile_qr_scan"}}, {"name": "3fd3ae7054e9325bde81a7e9993c8ddb", "lon": -76.95644866666666, "lat": 38.89559233333333, "type": "electric_scooter", "fusion_lon": 0.0, "is_reserved": 0, "bike_id": "3fd3ae7054e9325bde81a7e9993c8ddb", "fusion_lat": 0.0, "is_disabled": 0, "rental_uris": {"ios": "https://dc.lft.to/lastmile_qr_scan", "android": "https://dc.lft.to/lastmile_qr_scan"}}, {"name": "2dc357be89f57e1a5a8a92aebed47211", "lon": -76.96525966666667, "lat": 38.87476516666667, "type": "electric_bike", "fusion_lon": 0.0, "is_reserved": 0, "bike_id": "2dc357be89f57e1a5a8a92aebed47211", "fusion_lat": 0.0, "is_disabled": 0, "rental_uris": {"ios": "https://dc.lft.to/lastmile_qr_scan", "android": "https://dc.lft.to/lastmile_qr_scan"}}, {"name": "091c68c391003ade816fcb4d4b584dc0", "lon": -77.22219466666667, "lat": 38.92856333333334, "type": "electric_bike", "fusion_lon": 0.0, "is_reserved": 0, "bike_id": "091c68c391003ade816fcb4d4b584dc0", "fusion_lat": 0.0, "is_disabled": 0, "rental_uris": {"ios": "https://dc.lft.to/lastmile_qr_scan", "android": "https://dc.lft.to/lastmile_qr_scan"}}, {"name": "ff63dc1fdff6ff3147407fa270515886", "lon": -77.03263833333334, "lat": 38.93263016666667, "type": "electric_scooter", "fusion_lon": 0.0, "is_reserved": 0, "bike_id": "ff63dc1fdff6ff3147407fa270515886", "fusion_lat": 0.0, "is_disabled": 0, "rental_uris": {"ios": "https://dc.lft.to/lastmile_qr_scan", "android": "https://dc.lft.to/lastmile_qr_scan"}}, {"name": "155e5529b5de22539fafc144af8b6f1d", "lon": -77.17838933333333, "lat": 39.088589166666665, "type": "electric_bike", "fusion_lon": 0.0, "is_reserved": 0, "bike_id": "155e5529b5de22539fafc144af8b6f1d", "fusion_lat": 0.0, "is_disabled": 0, "rental_uris": {"ios": "https://dc.lft.to/lastmile_qr_scan", "android": "https://dc.lft.to/lastmile_qr_scan"}}, {"name": "a4fbc26488ddbefb2c6b44de3d9e7599", "lon": -77.03197216666666, "lat": 38.917880833333335, "type": "electric_scooter", "fusion_lon": 0.0, "is_reserved": 0, "bike_id": "a4fbc26488ddbefb2c6b44de3d9e7599", "fusion_lat": 0.0, "is_disabled": 0, "rental_uris": {"ios": "https://dc.lft.to/lastmile_qr_scan", "android": "https://dc.lft.to/lastmile_qr_scan"}}, {"name": "77eb36009580972e3f8251958adda842", "lon": -77.08633316666666, "lat": 38.881870166666666, "type": "electric_bike", "fusion_lon": 0.0, "is_reserved": 0, "bike_id": "77eb36009580972e3f8251958adda842", "fusion_lat": 0.0, "is_disabled": 0, "rental_uris": {"ios": "https://dc.lft.to/lastmile_qr_scan", "android": "https://dc.lft.to/lastmile_qr_scan"}}, {"name": "9645a4169094a45fcea9bd3f711f384c", "lon": -77.00971, "lat": 38.907877666666664, "type": "electric_scooter", "fusion_lon": 0.0, "is_reserved": 0, "bike_id": "9645a4169094a45fcea9bd3f711f384c", "fusion_lat": 0.0, "is_disabled": 0, "rental_uris": {"ios": "https://dc.lft.to/lastmile_qr_scan", "android": "https://dc.lft.to/lastmile_qr_scan"}}, {"name": "376e6e6016aaa59c434d2bf981e228de", "lon": -76.9964265, "lat": 38.9025655, "type": "electric_scooter", "fusion_lon": 0.0, "is_reserved": 0, "bike_id": "376e6e6016aaa59c434d2bf981e228de", "fusion_lat": 0.0, "is_disabled": 0, "rental_uris": {"ios": "https://dc.lft.to/lastmile_qr_scan", "android": "https://dc.lft.to/lastmile_qr_scan"}}, {"name": "98f65fafdd580ee41fc27e2a5e5e883e", "lon": -76.99029766666666, "lat": 38.902895, "type": "electric_scooter", "fusion_lon": 0.0, "is_reserved": 0, "bike_id": "98f65fafdd580ee41fc27e2a5e5e883e", "fusion_lat": 0.0, "is_disabled": 0, "rental_uris": {"ios": "https://dc.lft.to/lastmile_qr_scan", "android": "https://dc.lft.to/lastmile_qr_scan"}}, {"name": "bff63a156021efcd63ac2f55e7abfae5", "lon": -77.1207585, "lat": 38.854207333333335, "type": "electric_bike", "fusion_lon": 0.0, "is_reserved": 0, "bike_id": "bff63a156021efcd63ac2f55e7abfae5", "fusion_lat": 0.0, "is_disabled": 0, "rental_uris": {"ios": "https://dc.lft.to/lastmile_qr_scan", "android": "https://dc.lft.to/lastmile_qr_scan"}}, {"name": "4ef0b7aae6e670210519101bfe944509", "lon": -77.02825833333333, "lat": 38.886246, "type": "electric_scooter", "fusion_lon": 0.0, "is_reserved": 0, "bike_id": "4ef0b7aae6e670210519101bfe944509", "fusion_lat": 0.0, "is_disabled": 0, "rental_uris": {"ios": "https://dc.lft.to/lastmile_qr_scan", "android": "https://dc.lft.to/lastmile_qr_scan"}}, {"name": "92ae2ba6dc0748ddbe34df7d02745c76", "lon": -76.98254266666666, "lat": 38.90453933333333, "type": "electric_scooter", "fusion_lon": 0.0, "is_reserved": 0, "bike_id": "92ae2ba6dc0748ddbe34df7d02745c76", "fusion_lat": 0.0, "is_disabled": 0, "rental_uris": {"ios": "https://dc.lft.to/lastmile_qr_scan", "android": "https://dc.lft.to/lastmile_qr_scan"}}, {"name": "21336932658b5260da5c849441831b9e", "lon": -77.07267816666666, "lat": 38.9351945, "type": "electric_scooter", "fusion_lon": 0.0, "is_reserved": 0, "bike_id": "21336932658b5260da5c849441831b9e", "fusion_lat": 0.0, "is_disabled": 0, "rental_uris": {"ios": "https://dc.lft.to/lastmile_qr_scan", "android": "https://dc.lft.to/lastmile_qr_scan"}}, {"name": "fef1bd8652a6b745538e9110d1a178e2", "lon": -77.00644883333334, "lat": 38.911608, "type": "electric_scooter", "fusion_lon": 0.0, "is_reserved": 0, "bike_id": "fef1bd8652a6b745538e9110d1a178e2", "fusion_lat": 0.0, "is_disabled": 0, "rental_uris": {"ios": "https://dc.lft.to/lastmile_qr_scan", "android": "https://dc.lft.to/lastmile_qr_scan"}}, {"name": "19f82be40c0915dc1fbe8439a1bc144c", "lon": -77.06330516666667, "lat": 38.94424716666666, "type": "electric_scooter", "fusion_lon": 0.0, "is_reserved": 0, "bike_id": "19f82be40c0915dc1fbe8439a1bc144c", "fusion_lat": 0.0, "is_disabled": 0, "rental_uris": {"ios": "https://dc.lft.to/lastmile_qr_scan", "android": "https://dc.lft.to/lastmile_qr_scan"}}, {"name": "d39e12e5e0d03487ab956dded7a4843c", "lon": -77.01819033333334, "lat": 38.922186333333336, "type": "electric_scooter", "fusion_lon": 0.0, "is_reserved": 0, "bike_id": "d39e12e5e0d03487ab956dded7a4843c", "fusion_lat": 0.0, "is_disabled": 0, "rental_uris": {"ios": "https://dc.lft.to/lastmile_qr_scan", "android": "https://dc.lft.to/lastmile_qr_scan"}}, {"name": "845e3bd6ed08c8d50c56fcc85b451b13", "lon": -77.03867316666667, "lat": 38.915525333333335, "type": "electric_scooter", "fusion_lon": 0.0, "is_reserved": 0, "bike_id": "845e3bd6ed08c8d50c56fcc85b451b13", "fusion_lat": 0.0, "is_disabled": 0, "rental_uris": {"ios": "https://dc.lft.to/lastmile_qr_scan", "android": "https://dc.lft.to/lastmile_qr_scan"}}, {"name": "9793cc5f4b7aa216a6c25e4805b06998", "lon": -77.02693283333333, "lat": 38.89626366666667, "type": "electric_scooter", "fusion_lon": 0.0, "is_reserved": 0, "bike_id": "9793cc5f4b7aa216a6c25e4805b06998", "fusion_lat": 0.0, "is_disabled": 0, "rental_uris": {"ios": "https://dc.lft.to/lastmile_qr_scan", "android": "https://dc.lft.to/lastmile_qr_scan"}}, {"name": "84ce57fe9713198ed5faa01956cdf34f", "lon": -77.02527383333333, "lat": 38.914903, "type": "electric_scooter", "fusion_lon": 0.0, "is_reserved": 0, "bike_id": "84ce57fe9713198ed5faa01956cdf34f", "fusion_lat": 0.0, "is_disabled": 0, "rental_uris": {"ios": "https://dc.lft.to/lastmile_qr_scan", "android": "https://dc.lft.to/lastmile_qr_scan"}}, {"name": "5debc21425ac2b98b7f6de162dc1bab9", "lon": -76.988881, "lat": 38.866518, "type": "electric_scooter", "fusion_lon": 0.0, "is_reserved": 0, "bike_id": "5debc21425ac2b98b7f6de162dc1bab9", "fusion_lat": 0.0, "is_disabled": 0, "rental_uris": {"ios": "https://dc.lft.to/lastmile_qr_scan", "android": "https://dc.lft.to/lastmile_qr_scan"}}, {"name": "c594b1c0e6a8d93a639c22ef59e3e8ff", "lon": -77.04800716666666, "lat": 38.892228833333334, "type": "electric_scooter", "fusion_lon": 0.0, "is_reserved": 0, "bike_id": "c594b1c0e6a8d93a639c22ef59e3e8ff", "fusion_lat": 0.0, "is_disabled": 0, "rental_uris": {"ios": "https://dc.lft.to/lastmile_qr_scan", "android": "https://dc.lft.to/lastmile_qr_scan"}}, {"name": "8a2d51e31ef981f82b0aa077f4ade5ad", "lon": -76.93756966666666, "lat": 38.89046616666667, "type": "electric_scooter", "fusion_lon": 0.0, "is_reserved": 0, "bike_id": "8a2d51e31ef981f82b0aa077f4ade5ad", "fusion_lat": 0.0, "is_disabled": 0, "rental_uris": {"ios": "https://dc.lft.to/lastmile_qr_scan", "android": "https://dc.lft.to/lastmile_qr_scan"}}, {"name": "e589a074cad4b2be26fe5a740b91f8f2", "lon": -77.04216933333333, "lat": 38.920756833333336, "type": "electric_bike", "fusion_lon": 0.0, "is_reserved": 0, "bike_id": "e589a074cad4b2be26fe5a740b91f8f2", "fusion_lat": 0.0, "is_disabled": 0, "rental_uris": {"ios": "https://dc.lft.to/lastmile_qr_scan", "android": "https://dc.lft.to/lastmile_qr_scan"}}, {"name": "855ce121f37fc463cf89f38a438149ce", "lon": -77.043165, "lat": 38.9265865, "type": "electric_scooter", "fusion_lon": 0.0, "is_reserved": 0, "bike_id": "855ce121f37fc463cf89f38a438149ce", "fusion_lat": 0.0, "is_disabled": 0, "rental_uris": {"ios": "https://dc.lft.to/lastmile_qr_scan", "android": "https://dc.lft.to/lastmile_qr_scan"}}, {"name": "4d4b9b4527908661ec131dec82bb8bc3", "lon": -77.04072683333334, "lat": 38.9179165, "type": "electric_scooter", "fusion_lon": 0.0, "is_reserved": 0, "bike_id": "4d4b9b4527908661ec131dec82bb8bc3", "fusion_lat": 0.0, "is_disabled": 0, "rental_uris": {"ios": "https://dc.lft.to/lastmile_qr_scan", "android": "https://dc.lft.to/lastmile_qr_scan"}}, {"name": "4cd1547e42995255b310470785147887", "lon": -76.992714, "lat": 38.88637416666667, "type": "electric_scooter", "fusion_lon": 0.0, "is_reserved": 0, "bike_id": "4cd1547e42995255b310470785147887", "fusion_lat": 0.0, "is_disabled": 0, "rental_uris": {"ios": "https://dc.lft.to/lastmile_qr_scan", "android": "https://dc.lft.to/lastmile_qr_scan"}}, {"name": "faf0e3c0bee6230c38415822fbded42a", "lon": -77.0239145, "lat": 38.896298333333334, "type": "electric_scooter", "fusion_lon": 0.0, "is_reserved": 0, "bike_id": "faf0e3c0bee6230c38415822fbded42a", "fusion_lat": 0.0, "is_disabled": 0, "rental_uris": {"ios": "https://dc.lft.to/lastmile_qr_scan", "android": "https://dc.lft.to/lastmile_qr_scan"}}, {"name": "f073189d324810ec20d707582f1146ff", "lon": -77.0320765, "lat": 38.91354716666667, "type": "electric_scooter", "fusion_lon": 0.0, "is_reserved": 0, "bike_id": "f073189d324810ec20d707582f1146ff", "fusion_lat": 0.0, "is_disabled": 0, "rental_uris": {"ios": "https://dc.lft.to/lastmile_qr_scan", "android": "https://dc.lft.to/lastmile_qr_scan"}}, {"name": "00bb71c19d68e727b750c1a7a413969e", "lon": -77.03864066666667, "lat": 38.9154725, "type": "electric_scooter", "fusion_lon": 0.0, "is_reserved": 0, "bike_id": "00bb71c19d68e727b750c1a7a413969e", "fusion_lat": 0.0, "is_disabled": 0, "rental_uris": {"ios": "https://dc.lft.to/lastmile_qr_scan", "android": "https://dc.lft.to/lastmile_qr_scan"}}, {"name": "bd596bb966859a2f37c79e244149202d", "lon": -77.02929583333334, "lat": 38.899160333333334, "type": "electric_scooter", "fusion_lon": 0.0, "is_reserved": 0, "bike_id": "bd596bb966859a2f37c79e244149202d", "fusion_lat": 0.0, "is_disabled": 0, "rental_uris": {"ios": "https://dc.lft.to/lastmile_qr_scan", "android": "https://dc.lft.to/lastmile_qr_scan"}}, {"name": "55856af09ba1f0d96d286c6f2c5471a0", "lon": -77.04866666666666, "lat": 38.90647966666667, "type": "electric_scooter", "fusion_lon": 0.0, "is_reserved": 0, "bike_id": "55856af09ba1f0d96d286c6f2c5471a0", "fusion_lat": 0.0, "is_disabled": 0, "rental_uris": {"ios": "https://dc.lft.to/lastmile_qr_scan", "android": "https://dc.lft.to/lastmile_qr_scan"}}, {"name": "763d38ef08530d674e7736cac1437c7b", "lon": -77.00908183333334, "lat": 38.8820945, "type": "electric_scooter", "fusion_lon": 0.0, "is_reserved": 0, "bike_id": "763d38ef08530d674e7736cac1437c7b", "fusion_lat": 0.0, "is_disabled": 0, "rental_uris": {"ios": "https://dc.lft.to/lastmile_qr_scan", "android": "https://dc.lft.to/lastmile_qr_scan"}}, {"name": "988087ec993dd9791a3f91f0c2dfa216", "lon": -77.02711666666667, "lat": 38.90079266666667, "type": "electric_scooter", "fusion_lon": 0.0, "is_reserved": 0, "bike_id": "988087ec993dd9791a3f91f0c2dfa216", "fusion_lat": 0.0, "is_disabled": 0, "rental_uris": {"ios": "https://dc.lft.to/lastmile_qr_scan", "android": "https://dc.lft.to/lastmile_qr_scan"}}, {"name": "0fdaa8e370c57ba6ea08c3a6d93c14f0", "lon": -77.03650366666666, "lat": 38.93621783333333, "type": "electric_scooter", "fusion_lon": 0.0, "is_reserved": 0, "bike_id": "0fdaa8e370c57ba6ea08c3a6d93c14f0", "fusion_lat": 0.0, "is_disabled": 0, "rental_uris": {"ios": "https://dc.lft.to/lastmile_qr_scan", "android": "https://dc.lft.to/lastmile_qr_scan"}}, {"name": "e9fd870aee533e9fb726d2ce2eb146c5", "lon": -77.04283316666667, "lat": 38.908305166666665, "type": "electric_scooter", "fusion_lon": 0.0, "is_reserved": 0, "bike_id": "e9fd870aee533e9fb726d2ce2eb146c5", "fusion_lat": 0.0, "is_disabled": 0, "rental_uris": {"ios": "https://dc.lft.to/lastmile_qr_scan", "android": "https://dc.lft.to/lastmile_qr_scan"}}, {"name": "8e0bcbb01ee47ea7d070e0fccb7b78d8", "lon": -77.03206583333333, "lat": 38.9178765, "type": "electric_scooter", "fusion_lon": 0.0, "is_reserved": 0, "bike_id": "8e0bcbb01ee47ea7d070e0fccb7b78d8", "fusion_lat": 0.0, "is_disabled": 0, "rental_uris": {"ios": "https://dc.lft.to/lastmile_qr_scan", "android": "https://dc.lft.to/lastmile_qr_scan"}}, {"name": "883e14597f0abce060a30bab57cb61d7", "lon": -77.00197183333333, "lat": 38.900346166666665, "type": "electric_scooter", "fusion_lon": 0.0, "is_reserved": 0, "bike_id": "883e14597f0abce060a30bab57cb61d7", "fusion_lat": 0.0, "is_disabled": 0, "rental_uris": {"ios": "https://dc.lft.to/lastmile_qr_scan", "android": "https://dc.lft.to/lastmile_qr_scan"}}, {"name": "6907d4d63359ccb9984e6fddd98ccf4f", "lon": -77.01747783333333, "lat": 38.8873855, "type": "electric_scooter", "fusion_lon": 0.0, "is_reserved": 0, "bike_id": "6907d4d63359ccb9984e6fddd98ccf4f", "fusion_lat": 0.0, "is_disabled": 0, "rental_uris": {"ios": "https://dc.lft.to/lastmile_qr_scan", "android": "https://dc.lft.to/lastmile_qr_scan"}}, {"name": "e25bd4342e5be48094335cdd3dfef1a9", "lon": -77.04472916666667, "lat": 38.905686833333334, "type": "electric_scooter", "fusion_lon": 0.0, "is_reserved": 0, "bike_id": "e25bd4342e5be48094335cdd3dfef1a9", "fusion_lat": 0.0, "is_disabled": 0, "rental_uris": {"ios": "https://dc.lft.to/lastmile_qr_scan", "android": "https://dc.lft.to/lastmile_qr_scan"}}, {"name": "d033d114f98b8f0636bd06b0db27d2a0", "lon": -77.04946816666667, "lat": 38.900901, "type": "electric_scooter", "fusion_lon": 0.0, "is_reserved": 0, "bike_id": "d033d114f98b8f0636bd06b0db27d2a0", "fusion_lat": 0.0, "is_disabled": 0, "rental_uris": {"ios": "https://dc.lft.to/lastmile_qr_scan", "android": "https://dc.lft.to/lastmile_qr_scan"}}, {"name": "0378d247dfe28c4ba2b1ce3fcc2f37c7", "lon": -77.0433245, "lat": 38.892255, "type": "electric_scooter", "fusion_lon": 0.0, "is_reserved": 0, "bike_id": "0378d247dfe28c4ba2b1ce3fcc2f37c7", "fusion_lat": 0.0, "is_disabled": 0, "rental_uris": {"ios": "https://dc.lft.to/lastmile_qr_scan", "android": "https://dc.lft.to/lastmile_qr_scan"}}, {"name": "b4cfd1dde14bb767e8ca1b5697a4d026", "lon": -77.02952, "lat": 38.90749666666667, "type": "electric_scooter", "fusion_lon": 0.0, "is_reserved": 0, "bike_id": "b4cfd1dde14bb767e8ca1b5697a4d026", "fusion_lat": 0.0, "is_disabled": 0, "rental_uris": {"ios": "https://dc.lft.to/lastmile_qr_scan", "android": "https://dc.lft.to/lastmile_qr_scan"}}, {"name": "59f37eb776c1fb383b109d118b1dd975", "lon": -76.9853615, "lat": 38.866470666666665, "type": "electric_scooter", "fusion_lon": 0.0, "is_reserved": 0, "bike_id": "59f37eb776c1fb383b109d118b1dd975", "fusion_lat": 0.0, "is_disabled": 0, "rental_uris": {"ios": "https://dc.lft.to/lastmile_qr_scan", "android": "https://dc.lft.to/lastmile_qr_scan"}}, {"name": "aad519b42b2a7335903e8009a7537b45", "lon": -77.009225, "lat": 38.82786266666667, "type": "electric_scooter", "fusion_lon": 0.0, "is_reserved": 0, "bike_id": "aad519b42b2a7335903e8009a7537b45", "fusion_lat": 0.0, "is_disabled": 0, "rental_uris": {"ios": "https://dc.lft.to/lastmile_qr_scan", "android": "https://dc.lft.to/lastmile_qr_scan"}}, {"name": "17cc49a43994cb668fe4bd51672a3bca", "lon": -77.00585783333334, "lat": 38.906392833333335, "type": "electric_scooter", "fusion_lon": 0.0, "is_reserved": 0, "bike_id": "17cc49a43994cb668fe4bd51672a3bca", "fusion_lat": 0.0, "is_disabled": 0, "rental_uris": {"ios": "https://dc.lft.to/lastmile_qr_scan", "android": "https://dc.lft.to/lastmile_qr_scan"}}, {"name": "30cde80ab27e4ce7c07b84b8a57ee64a", "lon": -76.993843, "lat": 38.877610833333335, "type": "electric_scooter", "fusion_lon": 0.0, "is_reserved": 0, "bike_id": "30cde80ab27e4ce7c07b84b8a57ee64a", "fusion_lat": 0.0, "is_disabled": 0, "rental_uris": {"ios": "https://dc.lft.to/lastmile_qr_scan", "android": "https://dc.lft.to/lastmile_qr_scan"}}, {"name": "11454b5214d03952dfde3b0b162a703a", "lon": -77.03737383333333, "lat": 38.927115666666666, "type": "electric_bike", "fusion_lon": 0.0, "is_reserved": 0, "bike_id": "11454b5214d03952dfde3b0b162a703a", "fusion_lat": 0.0, "is_disabled": 0, "rental_uris": {"ios": "https://dc.lft.to/lastmile_qr_scan", "android": "https://dc.lft.to/lastmile_qr_scan"}}, {"name": "6f2db464c2b48169eaaf098914c1b920", "lon": -77.03084016666666, "lat": 38.911150666666664, "type": "electric_scooter", "fusion_lon": 0.0, "is_reserved": 0, "bike_id": "6f2db464c2b48169eaaf098914c1b920", "fusion_lat": 0.0, "is_disabled": 0, "rental_uris": {"ios": "https://dc.lft.to/lastmile_qr_scan", "android": "https://dc.lft.to/lastmile_qr_scan"}}, {"name": "66b5fc8ccc17620448fc51d189ba141b", "lon": -77.0558405, "lat": 38.9361655, "type": "electric_scooter", "fusion_lon": 0.0, "is_reserved": 0, "bike_id": "66b5fc8ccc17620448fc51d189ba141b", "fusion_lat": 0.0, "is_disabled": 0, "rental_uris": {"ios": "https://dc.lft.to/lastmile_qr_scan", "android": "https://dc.lft.to/lastmile_qr_scan"}}, {"name": "2bb2e1873497de4041a5c485b3636469", "lon": -77.044823, "lat": 38.92409516666667, "type": "electric_scooter", "fusion_lon": 0.0, "is_reserved": 0, "bike_id": "2bb2e1873497de4041a5c485b3636469", "fusion_lat": 0.0, "is_disabled": 0, "rental_uris": {"ios": "https://dc.lft.to/lastmile_qr_scan", "android": "https://dc.lft.to/lastmile_qr_scan"}}, {"name": "b53dc7d000ddca7f6b35117abe6471a8", "lon": -77.01576416666667, "lat": 38.91684733333334, "type": "electric_scooter", "fusion_lon": 0.0, "is_reserved": 0, "bike_id": "b53dc7d000ddca7f6b35117abe6471a8", "fusion_lat": 0.0, "is_disabled": 0, "rental_uris": {"ios": "https://dc.lft.to/lastmile_qr_scan", "android": "https://dc.lft.to/lastmile_qr_scan"}}, {"name": "3a3ae8ba8462ed9d6d98a033c582cdcb", "lon": -77.052143, "lat": 38.924868000000004, "type": "electric_scooter", "fusion_lon": 0.0, "is_reserved": 0, "bike_id": "3a3ae8ba8462ed9d6d98a033c582cdcb", "fusion_lat": 0.0, "is_disabled": 0, "rental_uris": {"ios": "https://dc.lft.to/lastmile_qr_scan", "android": "https://dc.lft.to/lastmile_qr_scan"}}, {"name": "ce1b91c8a2763816e6228965d6ae5dce", "lon": -77.043981, "lat": 38.921249, "type": "electric_scooter", "fusion_lon": 0.0, "is_reserved": 0, "bike_id": "ce1b91c8a2763816e6228965d6ae5dce", "fusion_lat": 0.0, "is_disabled": 0, "rental_uris": {"ios": "https://dc.lft.to/lastmile_qr_scan", "android": "https://dc.lft.to/lastmile_qr_scan"}}, {"name": "e9e924fb8c2bda0ccbee948544c08dc6", "lon": -77.02378233333333, "lat": 38.886783, "type": "electric_scooter", "fusion_lon": 0.0, "is_reserved": 0, "bike_id": "e9e924fb8c2bda0ccbee948544c08dc6", "fusion_lat": 0.0, "is_disabled": 0, "rental_uris": {"ios": "https://dc.lft.to/lastmile_qr_scan", "android": "https://dc.lft.to/lastmile_qr_scan"}}, {"name": "01f06c9a4381a34cf0e92878a03ccaee", "lon": -77.0350315, "lat": 38.92487666666667, "type": "electric_scooter", "fusion_lon": 0.0, "is_reserved": 0, "bike_id": "01f06c9a4381a34cf0e92878a03ccaee", "fusion_lat": 0.0, "is_disabled": 0, "rental_uris": {"ios": "https://dc.lft.to/lastmile_qr_scan", "android": "https://dc.lft.to/lastmile_qr_scan"}}, {"name": "8256d0c5e7601ea50e16d820dc1a8ea5", "lon": -77.03615016666667, "lat": 38.93256366666667, "type": "electric_scooter", "fusion_lon": 0.0, "is_reserved": 0, "bike_id": "8256d0c5e7601ea50e16d820dc1a8ea5", "fusion_lat": 0.0, "is_disabled": 0, "rental_uris": {"ios": "https://dc.lft.to/lastmile_qr_scan", "android": "https://dc.lft.to/lastmile_qr_scan"}}, {"name": "06f7da24f68a0dd60c72be5c5a5496f5", "lon": -76.919135, "lat": 38.88579716666667, "type": "electric_scooter", "fusion_lon": 0.0, "is_reserved": 0, "bike_id": "06f7da24f68a0dd60c72be5c5a5496f5", "fusion_lat": 0.0, "is_disabled": 0, "rental_uris": {"ios": "https://dc.lft.to/lastmile_qr_scan", "android": "https://dc.lft.to/lastmile_qr_scan"}}, {"name": "9b06e76f02616d35366bec24c0d26987", "lon": -77.0485295, "lat": 38.91620783333333, "type": "electric_scooter", "fusion_lon": 0.0, "is_reserved": 0, "bike_id": "9b06e76f02616d35366bec24c0d26987", "fusion_lat": 0.0, "is_disabled": 0, "rental_uris": {"ios": "https://dc.lft.to/lastmile_qr_scan", "android": "https://dc.lft.to/lastmile_qr_scan"}}, {"name": "f1cd4b93c86d05e827ddb619741cc4bb", "lon": -76.97537433333333, "lat": 38.90330466666666, "type": "electric_bike", "fusion_lon": 0.0, "is_reserved": 0, "bike_id": "f1cd4b93c86d05e827ddb619741cc4bb", "fusion_lat": 0.0, "is_disabled": 0, "rental_uris": {"ios": "https://dc.lft.to/lastmile_qr_scan", "android": "https://dc.lft.to/lastmile_qr_scan"}}, {"name": "9b4e5fbeb8c2145562ac3e7817d376a5", "lon": -77.003606, "lat": 38.915545, "type": "electric_scooter", "fusion_lon": 0.0, "is_reserved": 0, "bike_id": "9b4e5fbeb8c2145562ac3e7817d376a5", "fusion_lat": 0.0, "is_disabled": 0, "rental_uris": {"ios": "https://dc.lft.to/lastmile_qr_scan", "android": "https://dc.lft.to/lastmile_qr_scan"}}, {"name": "69d7ea898b48a0e860f57b43e318df67", "lon": -77.06695866666666, "lat": 38.831785833333335, "type": "electric_bike", "fusion_lon": 0.0, "is_reserved": 0, "bike_id": "69d7ea898b48a0e860f57b43e318df67", "fusion_lat": 0.0, "is_disabled": 0, "rental_uris": {"ios": "https://dc.lft.to/lastmile_qr_scan", "android": "https://dc.lft.to/lastmile_qr_scan"}}, {"name": "4337406058583199ba0d5f5525437a5a", "lon": -77.05707583333333, "lat": 38.906223833333335, "type": "electric_scooter", "fusion_lon": 0.0, "is_reserved": 0, "bike_id": "4337406058583199ba0d5f5525437a5a", "fusion_lat": 0.0, "is_disabled": 0, "rental_uris": {"ios": "https://dc.lft.to/lastmile_qr_scan", "android": "https://dc.lft.to/lastmile_qr_scan"}}, {"name": "b8394f7f68f81fd0b070a54b318f8237", "lon": -76.98008, "lat": 38.8531985, "type": "electric_scooter", "fusion_lon": 0.0, "is_reserved": 0, "bike_id": "b8394f7f68f81fd0b070a54b318f8237", "fusion_lat": 0.0, "is_disabled": 0, "rental_uris": {"ios": "https://dc.lft.to/lastmile_qr_scan", "android": "https://dc.lft.to/lastmile_qr_scan"}}, {"name": "484e7a9ddb8a8800e97e0abf4ea917e9", "lon": -77.02332583333333, "lat": 38.92704583333333, "type": "electric_scooter", "fusion_lon": 0.0, "is_reserved": 0, "bike_id": "484e7a9ddb8a8800e97e0abf4ea917e9", "fusion_lat": 0.0, "is_disabled": 0, "rental_uris": {"ios": "https://dc.lft.to/lastmile_qr_scan", "android": "https://dc.lft.to/lastmile_qr_scan"}}, {"name": "9e9713d68353ddffb64a95c9c280497a", "lon": -77.02825866666667, "lat": 38.914033333333336, "type": "electric_scooter", "fusion_lon": 0.0, "is_reserved": 0, "bike_id": "9e9713d68353ddffb64a95c9c280497a", "fusion_lat": 0.0, "is_disabled": 0, "rental_uris": {"ios": "https://dc.lft.to/lastmile_qr_scan", "android": "https://dc.lft.to/lastmile_qr_scan"}}, {"name": "e539585cd0d243f743ccf056e3602425", "lon": -77.02988783333333, "lat": 38.90571683333334, "type": "electric_scooter", "fusion_lon": 0.0, "is_reserved": 0, "bike_id": "e539585cd0d243f743ccf056e3602425", "fusion_lat": 0.0, "is_disabled": 0, "rental_uris": {"ios": "https://dc.lft.to/lastmile_qr_scan", "android": "https://dc.lft.to/lastmile_qr_scan"}}, {"name": "0cf7a32a419f3fe7ac6b1474ec20816b", "lon": -77.01747766666666, "lat": 38.9203905, "type": "electric_scooter", "fusion_lon": 0.0, "is_reserved": 0, "bike_id": "0cf7a32a419f3fe7ac6b1474ec20816b", "fusion_lat": 0.0, "is_disabled": 0, "rental_uris": {"ios": "https://dc.lft.to/lastmile_qr_scan", "android": "https://dc.lft.to/lastmile_qr_scan"}}, {"name": "c90700ab9b26b9f1c8a2b28155045f9d", "lon": -77.03863783333334, "lat": 38.916942666666664, "type": "electric_scooter", "fusion_lon": 0.0, "is_reserved": 0, "bike_id": "c90700ab9b26b9f1c8a2b28155045f9d", "fusion_lat": 0.0, "is_disabled": 0, "rental_uris": {"ios": "https://dc.lft.to/lastmile_qr_scan", "android": "https://dc.lft.to/lastmile_qr_scan"}}, {"name": "05381a6d5b2c88d832f92357a8d7b12b", "lon": -77.06414816666667, "lat": 38.91298533333333, "type": "electric_scooter", "fusion_lon": 0.0, "is_reserved": 0, "bike_id": "05381a6d5b2c88d832f92357a8d7b12b", "fusion_lat": 0.0, "is_disabled": 0, "rental_uris": {"ios": "https://dc.lft.to/lastmile_qr_scan", "android": "https://dc.lft.to/lastmile_qr_scan"}}, {"name": "51554599b4d17d770be3030e570c1bf1", "lon": -77.008938, "lat": 38.90989416666667, "type": "electric_scooter", "fusion_lon": 0.0, "is_reserved": 0, "bike_id": "51554599b4d17d770be3030e570c1bf1", "fusion_lat": 0.0, "is_disabled": 0, "rental_uris": {"ios": "https://dc.lft.to/lastmile_qr_scan", "android": "https://dc.lft.to/lastmile_qr_scan"}}, {"name": "fd20c2cef8449df22ea7d4b1cda09537", "lon": -77.038093, "lat": 38.90681583333333, "type": "electric_scooter", "fusion_lon": 0.0, "is_reserved": 0, "bike_id": "fd20c2cef8449df22ea7d4b1cda09537", "fusion_lat": 0.0, "is_disabled": 0, "rental_uris": {"ios": "https://dc.lft.to/lastmile_qr_scan", "android": "https://dc.lft.to/lastmile_qr_scan"}}, {"name": "f4186b8efb5d5f2256cc22f4a9c9cc35", "lon": -76.94584833333333, "lat": 38.93746066666667, "type": "electric_bike", "fusion_lon": 0.0, "is_reserved": 0, "bike_id": "f4186b8efb5d5f2256cc22f4a9c9cc35", "fusion_lat": 0.0, "is_disabled": 0, "rental_uris": {"ios": "https://dc.lft.to/lastmile_qr_scan", "android": "https://dc.lft.to/lastmile_qr_scan"}}, {"name": "53fea7cc535f874e54c686638c0c479c", "lon": -77.024085, "lat": 38.91682566666667, "type": "electric_scooter", "fusion_lon": 0.0, "is_reserved": 0, "bike_id": "53fea7cc535f874e54c686638c0c479c", "fusion_lat": 0.0, "is_disabled": 0, "rental_uris": {"ios": "https://dc.lft.to/lastmile_qr_scan", "android": "https://dc.lft.to/lastmile_qr_scan"}}, {"name": "d3ea350dc43b1ccd392293ee32f7ef2a", "lon": -77.02544216666666, "lat": 38.907249166666666, "type": "electric_scooter", "fusion_lon": 0.0, "is_reserved": 0, "bike_id": "d3ea350dc43b1ccd392293ee32f7ef2a", "fusion_lat": 0.0, "is_disabled": 0, "rental_uris": {"ios": "https://dc.lft.to/lastmile_qr_scan", "android": "https://dc.lft.to/lastmile_qr_scan"}}, {"name": "f9f7a741782044ebf6a3069755ea39e2", "lon": -76.98761066666667, "lat": 38.857662166666664, "type": "electric_bike", "fusion_lon": 0.0, "is_reserved": 0, "bike_id": "f9f7a741782044ebf6a3069755ea39e2", "fusion_lat": 0.0, "is_disabled": 0, "rental_uris": {"ios": "https://dc.lft.to/lastmile_qr_scan", "android": "https://dc.lft.to/lastmile_qr_scan"}}, {"name": "dffa07413b3d8e8f766f8ccee6e624af", "lon": -77.02691783333333, "lat": 38.90976166666667, "type": "electric_scooter", "fusion_lon": 0.0, "is_reserved": 0, "bike_id": "dffa07413b3d8e8f766f8ccee6e624af", "fusion_lat": 0.0, "is_disabled": 0, "rental_uris": {"ios": "https://dc.lft.to/lastmile_qr_scan", "android": "https://dc.lft.to/lastmile_qr_scan"}}, {"name": "f7e1109595a34eb3389f1509353d0a53", "lon": -77.036322, "lat": 38.924606, "type": "electric_scooter", "fusion_lon": 0.0, "is_reserved": 0, "bike_id": "f7e1109595a34eb3389f1509353d0a53", "fusion_lat": 0.0, "is_disabled": 0, "rental_uris": {"ios": "https://dc.lft.to/lastmile_qr_scan", "android": "https://dc.lft.to/lastmile_qr_scan"}}, {"name": "f59c35cee6f3b9ef5142bab71edd3ce3", "lon": -77.03958716666666, "lat": 38.93151683333333, "type": "electric_scooter", "fusion_lon": 0.0, "is_reserved": 0, "bike_id": "f59c35cee6f3b9ef5142bab71edd3ce3", "fusion_lat": 0.0, "is_disabled": 0, "rental_uris": {"ios": "https://dc.lft.to/lastmile_qr_scan", "android": "https://dc.lft.to/lastmile_qr_scan"}}, {"name": "cb6cd18c81a264c1181bb6e28c0a8cff", "lon": -76.99940383333333, "lat": 38.905748833333334, "type": "electric_scooter", "fusion_lon": 0.0, "is_reserved": 0, "bike_id": "cb6cd18c81a264c1181bb6e28c0a8cff", "fusion_lat": 0.0, "is_disabled": 0, "rental_uris": {"ios": "https://dc.lft.to/lastmile_qr_scan", "android": "https://dc.lft.to/lastmile_qr_scan"}}, {"name": "5c6c3d84c42ed8836cbcf01b18874445", "lon": -77.011902, "lat": 38.9170455, "type": "electric_scooter", "fusion_lon": 0.0, "is_reserved": 0, "bike_id": "5c6c3d84c42ed8836cbcf01b18874445", "fusion_lat": 0.0, "is_disabled": 0, "rental_uris": {"ios": "https://dc.lft.to/lastmile_qr_scan", "android": "https://dc.lft.to/lastmile_qr_scan"}}, {"name": "96d8c2f00cd0f2488b55618f75489475", "lon": -77.03232916666667, "lat": 38.914169333333334, "type": "electric_scooter", "fusion_lon": 0.0, "is_reserved": 0, "bike_id": "96d8c2f00cd0f2488b55618f75489475", "fusion_lat": 0.0, "is_disabled": 0, "rental_uris": {"ios": "https://dc.lft.to/lastmile_qr_scan", "android": "https://dc.lft.to/lastmile_qr_scan"}}, {"name": "987e450547fcc222d425a432ed1f06b2", "lon": -77.00738333333334, "lat": 38.871272833333336, "type": "electric_scooter", "fusion_lon": 0.0, "is_reserved": 0, "bike_id": "987e450547fcc222d425a432ed1f06b2", "fusion_lat": 0.0, "is_disabled": 0, "rental_uris": {"ios": "https://dc.lft.to/lastmile_qr_scan", "android": "https://dc.lft.to/lastmile_qr_scan"}}, {"name": "7a680b45e758ace9f0d3fb4f72106e8d", "lon": -77.026894, "lat": 38.911362833333335, "type": "electric_scooter", "fusion_lon": 0.0, "is_reserved": 0, "bike_id": "7a680b45e758ace9f0d3fb4f72106e8d", "fusion_lat": 0.0, "is_disabled": 0, "rental_uris": {"ios": "https://dc.lft.to/lastmile_qr_scan", "android": "https://dc.lft.to/lastmile_qr_scan"}}, {"name": "70259b1e261ae8a073a034a99d7de56c", "lon": -76.9648225, "lat": 38.875470666666665, "type": "electric_bike", "fusion_lon": 0.0, "is_reserved": 0, "bike_id": "70259b1e261ae8a073a034a99d7de56c", "fusion_lat": 0.0, "is_disabled": 0, "rental_uris": {"ios": "https://dc.lft.to/lastmile_qr_scan", "android": "https://dc.lft.to/lastmile_qr_scan"}}, {"name": "465d0304dbdb0e7c98ef86fba06fbcf6", "lon": -77.0420175, "lat": 38.91878583333333, "type": "electric_scooter", "fusion_lon": 0.0, "is_reserved": 0, "bike_id": "465d0304dbdb0e7c98ef86fba06fbcf6", "fusion_lat": 0.0, "is_disabled": 0, "rental_uris": {"ios": "https://dc.lft.to/lastmile_qr_scan", "android": "https://dc.lft.to/lastmile_qr_scan"}}, {"name": "20ea1c84d617847d36b4d7c64f537669", "lon": -77.00432266666667, "lat": 38.87677933333333, "type": "electric_scooter", "fusion_lon": 0.0, "is_reserved": 0, "bike_id": "20ea1c84d617847d36b4d7c64f537669", "fusion_lat": 0.0, "is_disabled": 0, "rental_uris": {"ios": "https://dc.lft.to/lastmile_qr_scan", "android": "https://dc.lft.to/lastmile_qr_scan"}}, {"name": "e4a39f9945652bb2acbb91d083e47c6c", "lon": -77.03513416666667, "lat": 38.92158766666667, "type": "electric_scooter", "fusion_lon": 0.0, "is_reserved": 0, "bike_id": "e4a39f9945652bb2acbb91d083e47c6c", "fusion_lat": 0.0, "is_disabled": 0, "rental_uris": {"ios": "https://dc.lft.to/lastmile_qr_scan", "android": "https://dc.lft.to/lastmile_qr_scan"}}, {"name": "67f77690afbcb9012feb0af256089d82", "lon": -77.04472083333333, "lat": 38.9213965, "type": "electric_scooter", "fusion_lon": 0.0, "is_reserved": 0, "bike_id": "67f77690afbcb9012feb0af256089d82", "fusion_lat": 0.0, "is_disabled": 0, "rental_uris": {"ios": "https://dc.lft.to/lastmile_qr_scan", "android": "https://dc.lft.to/lastmile_qr_scan"}}, {"name": "35fea08192c30985ffd0c9e261cfe92a", "lon": -77.024888, "lat": 38.93763933333334, "type": "electric_scooter", "fusion_lon": 0.0, "is_reserved": 0, "bike_id": "35fea08192c30985ffd0c9e261cfe92a", "fusion_lat": 0.0, "is_disabled": 0, "rental_uris": {"ios": "https://dc.lft.to/lastmile_qr_scan", "android": "https://dc.lft.to/lastmile_qr_scan"}}, {"name": "cd5bb4fdd459c3cda9e83989c211071c", "lon": -77.0217995, "lat": 38.91502583333333, "type": "electric_scooter", "fusion_lon": 0.0, "is_reserved": 0, "bike_id": "cd5bb4fdd459c3cda9e83989c211071c", "fusion_lat": 0.0, "is_disabled": 0, "rental_uris": {"ios": "https://dc.lft.to/lastmile_qr_scan", "android": "https://dc.lft.to/lastmile_qr_scan"}}, {"name": "251c9d863988f67cd6317b724c64b5a5", "lon": -77.05163, "lat": 38.90588916666667, "type": "electric_scooter", "fusion_lon": 0.0, "is_reserved": 0, "bike_id": "251c9d863988f67cd6317b724c64b5a5", "fusion_lat": 0.0, "is_disabled": 0, "rental_uris": {"ios": "https://dc.lft.to/lastmile_qr_scan", "android": "https://dc.lft.to/lastmile_qr_scan"}}, {"name": "3e7c671dfdbe2006d3884d9eedf2b623", "lon": -77.03258366666667, "lat": 38.9427325, "type": "electric_scooter", "fusion_lon": 0.0, "is_reserved": 0, "bike_id": "3e7c671dfdbe2006d3884d9eedf2b623", "fusion_lat": 0.0, "is_disabled": 0, "rental_uris": {"ios": "https://dc.lft.to/lastmile_qr_scan", "android": "https://dc.lft.to/lastmile_qr_scan"}},