{"data": {"bikes": [{"is_disabled": 0, "fusion_lon": 0.0, "fusion_lat": 0.0, "lat": 38.94450533333333, "type": "electric_scooter", "lon": -77.06027466666667, "bike_id": "2f3c02090a2c19cf4e4493c8b0f72f3e", "rental_uris": {"android": "https://dc.lft.to/lastmile_qr_scan", "ios": "https://dc.lft.to/lastmile_qr_scan"}, "name": "2f3c02090a2c19cf4e4493c8b0f72f3e", "is_reserved": 0}, {"is_disabled": 0, "fusion_lon": 0.0, "fusion_lat": 0.0, "lat": 38.996752666666666, "type": "electric_bike", "lon": -76.99146333333333, "bike_id": "fe78ad66e1aa1b74e43acd4b92bb2e42", "rental_uris": {"android": "https://dc.lft.to/lastmile_qr_scan", "ios": "https://dc.lft.to/lastmile_qr_scan"}, "name": "fe78ad66e1aa1b74e43acd4b92bb2e42", "is_reserved": 0}, {"is_disabled": 0, "fusion_lon": 0.0, "fusion_lat": 0.0, "lat": 38.8768455, "type": "electric_scooter", "lon": -77.0178825, "bike_id": "a705b35fcd3396825fbd4bf2063c9cdc", "rental_uris": {"android": "https://dc.lft.to/lastmile_qr_scan", "ios": "https://dc.lft.to/lastmile_qr_scan"}, "name": "a705b35fcd3396825fbd4bf2063c9cdc", "is_reserved": 0}, {"is_disabled": 0, "fusion_lon": 0.0, "fusion_lat": 0.0, "lat": 38.9056425, "type": "electric_scooter", "lon": -77.0467415, "bike_id": "42657cc6fb1712e285b22c9336f684f9", "rental_uris": {"android": "https://dc.lft.to/lastmile_qr_scan", "ios": "https://dc.lft.to/lastmile_qr_scan"}, "name": "42657cc6fb1712e285b22c9336f684f9", "is_reserved": 0}, {"is_disabled": 0, "fusion_lon": 0.0, "fusion_lat": 0.0, "lat": 38.905421, "type": "electric_scooter", "lon": -77.02706716666667, "bike_id": "c14e6134ecd65ba2cf576829f8e43c3d", "rental_uris": {"android": "https://dc.lft.to/lastmile_qr_scan", "ios": "https://dc.lft.to/lastmile_qr_scan"}, "name": "c14e6134ecd65ba2cf576829f8e43c3d", "is_reserved": 0}, {"is_disabled": 0, "fusion_lon": 0.0, "fusion_lat": 0.0, "lat": 38.933536, "type": "electric_scooter", "lon": -77.0738115, "bike_id": "21fe913de3eabee7aeeec4b256b3bdff", "rental_uris": {"android": "https://dc.lft.to/lastmile_qr_scan", "ios": "https://dc.lft.to/lastmile_qr_scan"}, "name": "21fe913de3eabee7aeeec4b256b3bdff", "is_reserved": 0}, {"is_disabled": 0, "fusion_lon": 0.0, "fusion_lat": 0.0, "lat": 38.90970883333333, "type": "electric_scooter", "lon": -77.038721, "bike_id": "ef980439eea77d6b10200381b07f9294", "rental_uris": {"android": "https://dc.lft.to/lastmile_qr_scan", "ios": "https://dc.lft.to/lastmile_qr_scan"}, "name": "ef980439eea77d6b10200381b07f9294", "is_reserved": 0}, {"is_disabled": 0, "fusion_lon": 0.0, "fusion_lat": 0.0, "lat": 38.8753215, "type": "electric_scooter", "lon": -77.01381633333334, "bike_id": "fa086cb73a8443e5b2543e2a9d3ac803", "rental_uris": {"android": "https://dc.lft.to/lastmile_qr_scan", "ios": "https://dc.lft.to/lastmile_qr_scan"}, "name": "fa086cb73a8443e5b2543e2a9d3ac803", "is_reserved": 0}, {"is_disabled": 0, "fusion_lon": 0.0, "fusion_lat": 0.0, "lat": 38.896424, "type": "electric_scooter", "lon": -77.0433815, "bike_id": "f6d5ccc1e0bece4e41ef17c94f65e6f2", "rental_uris": {"android": "https://dc.lft.to/lastmile_qr_scan", "ios": "https://dc.lft.to/lastmile_qr_scan"}, "name": "f6d5ccc1e0bece4e41ef17c94f65e6f2", "is_reserved": 0}, {"is_disabled": 0, "fusion_lon": 0.0, "fusion_lat": 0.0, "lat": 38.92613566666667, "type": "electric_scooter", "lon": -77.04193933333333, "bike_id": "bba6c09d4cf91a937a96b3bb074a3d57", "rental_uris": {"android": "https://dc.lft.to/lastmile_qr_scan", "ios": "https://dc.lft.to/lastmile_qr_scan"}, "name": "bba6c09d4cf91a937a96b3bb074a3d57", "is_reserved": 0}, {"is_disabled": 0, "fusion_lon": 0.0, "fusion_lat": 0.0, "lat": 39.08841116666667, "type": "electric_bike", "lon": -77.178022, "bike_id": "73f41dcde28c20808bf07038c7f78d3f", "rental_uris": {"android": "https://dc.lft.to/lastmile_qr_scan", "ios": "https://dc.lft.to/lastmile_qr_scan"}, "name": "73f41dcde28c20808bf07038c7f78d3f", "is_reserved": 0}, {"is_disabled": 0, "fusion_lon": 0.0, "fusion_lat": 0.0, "lat": 38.923762833333335, "type": "electric_scooter", "lon": -77.0313335, "bike_id": "eda6860882068b3871a31e1dccf88104", "rental_uris": {"android": "https://dc.lft.to/lastmile_qr_scan", "ios": "https://dc.lft.to/lastmile_qr_scan"}, "name": "eda6860882068b3871a31e1dccf88104", "is_reserved": 0}, {"is_disabled": 0, "fusion_lon": 0.0, "fusion_lat": 0.0, "lat": 38.884538166666665, "type": "electric_scooter", "lon": -76.95396966666667, "bike_id": "6931be3109a7c3c6676eea79f60c2803", "rental_uris": {"android": "https://dc.lft.to/lastmile_qr_scan", "ios": "https://dc.lft.to/lastmile_qr_scan"}, "name": "6931be3109a7c3c6676eea79f60c2803", "is_reserved": 0}, {"is_disabled": 0, "fusion_lon": 0.0, "fusion_lat": 0.0, "lat": 38.916983, "type": "electric_scooter", "lon": -77.03113533333334, "bike_id": "381baa41eaa53e7b038a8fc28d21325d", "rental_uris": {"android": "https://dc.lft.to/lastmile_qr_scan", "ios": "https://dc.lft.to/lastmile_qr_scan"}, "name": "381baa41eaa53e7b038a8fc28d21325d", "is_reserved": 0}, {"is_disabled": 0, "fusion_lon": 0.0, "fusion_lat": 0.0, "lat": 38.89205966666667, "type": "electric_scooter", "lon": -76.9880685, "bike_id": "8cbe06b1ed7fb42d24a8acfd89b927bc", "rental_uris": {"android": "https://dc.lft.to/lastmile_qr_scan", "ios": "https://dc.lft.to/lastmile_qr_scan"}, "name": "8cbe06b1ed7fb42d24a8acfd89b927bc", "is_reserved": 0}, {"is_disabled": 0, "fusion_lon": 0.0, "fusion_lat": 0.0, "lat": 38.91480633333333, "type": "electric_scooter", "lon": -77.03469916666667, "bike_id": "3eb69a4ce0faefefae7edcf104f24236", "rental_uris": {"android": "https://dc.lft.to/lastmile_qr_scan", "ios": "https://dc.lft.to/lastmile_qr_scan"}, "name": "3eb69a4ce0faefefae7edcf104f24236", "is_reserved": 0}, {"is_disabled": 0, "fusion_lon": 0.0, "fusion_lat": 0.0, "lat": 38.91109733333333, "type": "electric_scooter", "lon": -77.06608866666667, "bike_id": "2ad8058559692e927fad3d4bef72be4d", "rental_uris": {"android": "https://dc.lft.to/lastmile_qr_scan", "ios": "https://dc.lft.to/lastmile_qr_scan"}, "name": "2ad8058559692e927fad3d4bef72be4d", "is_reserved": 0}, {"is_disabled": 0, "fusion_lon": 0.0, "fusion_lat": 0.0, "lat": 38.9236585, "type": "electric_scooter", "lon": -77.02804966666666, "bike_id": "55bc9ca1803db1a43e9f07f04ff39380", "rental_uris": {"android": "https://dc.lft.to/lastmile_qr_scan", "ios": "https://dc.lft.to/lastmile_qr_scan"}, "name": "55bc9ca1803db1a43e9f07f04ff39380", "is_reserved": 0}, {"is_disabled": 0, "fusion_lon": 0.0, "fusion_lat": 0.0, "lat": 38.934662833333334, "type": "electric_scooter", "lon": -77.06883866666666, "bike_id": "e3a5d055ad3bf8efd64390d167e186d3", "rental_uris": {"android": "https://dc.lft.to/lastmile_qr_scan", "ios": "https://dc.lft.to/lastmile_qr_scan"}, "name": "e3a5d055ad3bf8efd64390d167e186d3", "is_reserved": 0}, {"is_disabled": 0, "fusion_lon": 0.0, "fusion_lat": 0.0, "lat": 38.894335166666664, "type": "electric_scooter", "lon": -77.01100716666667, "bike_id": "548c39e9a4c741b0b6f8cfe20608edfb", "rental_uris": {"android": "https://dc.lft.to/lastmile_qr_scan", "ios": "https://dc.lft.to/lastmile_qr_scan"}, "name": "548c39e9a4c741b0b6f8cfe20608edfb", "is_reserved": 0}, {"is_disabled": 0, "fusion_lon": 0.0, "fusion_lat": 0.0, "lat": 38.83934083333333, "type": "electric_bike", "lon": -77.07905316666667, "bike_id": "36c3703aae34cc17962b6e68df2b0251", "rental_uris": {"android": "https://dc.lft.to/lastmile_qr_scan", "ios": "https://dc.lft.to/lastmile_qr_scan"}, "name": "36c3703aae34cc17962b6e68df2b0251", "is_reserved": 0}, {"is_disabled": 0, "fusion_lon": 0.0, "fusion_lat": 0.0, "lat": 38.9037885, "type": "electric_scooter", "lon": -77.016465, "bike_id": "7bd5c9bb2ef8e2cbdf1340b50d76802f", "rental_uris": {"android": "https://dc.lft.to/lastmile_qr_scan", "ios": "https://dc.lft.to/lastmile_qr_scan"}, "name": "7bd5c9bb2ef8e2cbdf1340b50d76802f", "is_reserved": 0}, {"is_disabled": 0, "fusion_lon": 0.0, "fusion_lat": 0.0, "lat": 38.894943, "type": "electric_scooter", "lon": -77.0108625, "bike_id": "8211368a847a43e50e06ce1165538228", "rental_uris": {"android": "https://dc.lft.to/lastmile_qr_scan", "ios": "https://dc.lft.to/lastmile_qr_scan"}, "name": "8211368a847a43e50e06ce1165538228", "is_reserved": 0}, {"is_disabled": 0, "fusion_lon": 0.0, "fusion_lat": 0.0, "lat": 38.91923533333333, "type": "electric_scooter", "lon": -77.03394033333333, "bike_id": "587a4c0fb7ee9294ed0f11ffe3ff36ed", "rental_uris": {"android": "https://dc.lft.to/lastmile_qr_scan", "ios": "https://dc.lft.to/lastmile_qr_scan"}, "name": "587a4c0fb7ee9294ed0f11ffe3ff36ed", "is_reserved": 0}, {"is_disabled": 0, "fusion_lon": 0.0, "fusion_lat": 0.0, "lat": 38.917817166666666, "type": "electric_scooter", "lon": -77.04756583333334, "bike_id": "68af8d007eb8930a6bb82deb6c5ff2f8", "rental_uris": {"android": "https://dc.lft.to/lastmile_qr_scan", "ios": "https://dc.lft.to/lastmile_qr_scan"}, "name": "68af8d007eb8930a6bb82deb6c5ff2f8", "is_reserved": 0}, {"is_disabled": 0, "fusion_lon": 0.0, "fusion_lat": 0.0, "lat": 38.897482, "type": "electric_scooter", "lon": -77.01014183333334, "bike_id": "bfe13b4dd4f6054ea6ef8ee23f6d1f26", "rental_uris": {"android": "https://dc.lft.to/lastmile_qr_scan", "ios": "https://dc.lft.to/lastmile_qr_scan"}, "name": "bfe13b4dd4f6054ea6ef8ee23f6d1f26", "is_reserved": 0}, {"is_disabled": 0, "fusion_lon": 0.0, "fusion_lat": 0.0, "lat": 38.972606, "type": "electric_bike", "lon": -76.99171383333334, "bike_id": "207d67792242c03751ad3b76317ffc97", "rental_uris": {"android": "https://dc.lft.to/lastmile_qr_scan", "ios": "https://dc.lft.to/lastmile_qr_scan"}, "name": "207d67792242c03751ad3b76317ffc97", "is_reserved": 0}, {"is_disabled": 0, "fusion_lon": 0.0, "fusion_lat": 0.0, "lat": 38.919242, "type": "electric_scooter", "lon": -77.03421416666667, "bike_id": "ccb8071cad68e24d20401d5d892cdb6b", "rental_uris": {"android": "https://dc.lft.to/lastmile_qr_scan", "ios": "https://dc.lft.to/lastmile_qr_scan"}, "name": "ccb8071cad68e24d20401d5d892cdb6b", "is_reserved": 0}, {"is_disabled": 0, "fusion_lon": 0.0, "fusion_lat": 0.0, "lat": 38.920578166666665, "type": "electric_scooter", "lon": -77.01803766666667, "bike_id": "78792b94248ecd161aa314d1e2e8fe24", "rental_uris": {"android": "https://dc.lft.to/lastmile_qr_scan", "ios": "https://dc.lft.to/lastmile_qr_scan"}, "name": "78792b94248ecd161aa314d1e2e8fe24", "is_reserved": 0}, {"is_disabled": 0, "fusion_lon": 0.0, "fusion_lat": 0.0, "lat": 38.86571083333333, "type": "electric_scooter", "lon": -76.99040883333333, "bike_id": "611c88f9224880b2ac6c22bb014739ec", "rental_uris": {"android": "https://dc.lft.to/lastmile_qr_scan", "ios": "https://dc.lft.to/lastmile_qr_scan"}, "name": "611c88f9224880b2ac6c22bb014739ec", "is_reserved": 0}, {"is_disabled": 0, "fusion_lon": 0.0, "fusion_lat": 0.0, "lat": 38.91924, "type": "electric_scooter", "lon": -77.03421866666666, "bike_id": "9aca80c450e68a24c6c306141a30b9cd", "rental_uris": {"android": "https://dc.lft.to/lastmile_qr_scan", "ios": "https://dc.lft.to/lastmile_qr_scan"}, "name": "9aca80c450e68a24c6c306141a30b9cd", "is_reserved": 0}, {"is_disabled": 0, "fusion_lon": 0.0, "fusion_lat": 0.0, "lat": 38.9054475, "type": "electric_scooter", "lon": -77.04650066666666, "bike_id": "921d7e44dbf8392c473e9c861a4c7936", "rental_uris": {"android": "https://dc.lft.to/lastmile_qr_scan", "ios": "https://dc.lft.to/lastmile_qr_scan"}, "name": "921d7e44dbf8392c473e9c861a4c7936", "is_reserved": 0}, {"is_disabled": 0, "fusion_lon": 0.0, "fusion_lat": 0.0, "lat": 38.9018, "type": "electric_scooter", "lon": -76.92828666666666, "bike_id": "6541d79a6353c237a9f2bad1b1449737", "rental_uris": {"android": "https://dc.lft.to/lastmile_qr_scan", "ios": "https://dc.lft.to/lastmile_qr_scan"}, "name": "6541d79a6353c237a9f2bad1b1449737", "is_reserved": 0}, {"is_disabled": 0, "fusion_lon": 0.0, "fusion_lat": 0.0, "lat": 38.931111666666666, "type": "electric_scooter", "lon": -77.0349, "bike_id": "be041545d277409b3a6f90d08e6d9822", "rental_uris": {"android": "https://dc.lft.to/lastmile_qr_scan", "ios": "https://dc.lft.to/lastmile_qr_scan"}, "name": "be041545d277409b3a6f90d08e6d9822", "is_reserved": 0}, {"is_disabled": 0, "fusion_lon": 0.0, "fusion_lat": 0.0, "lat": 38.887217166666666, "type": "electric_scooter", "lon": -77.02825983333334, "bike_id": "ec5be6ca90a7a2f27fc64ddf14c02cb3", "rental_uris": {"android": "https://dc.lft.to/lastmile_qr_scan", "ios": "https://dc.lft.to/lastmile_qr_scan"}, "name": "ec5be6ca90a7a2f27fc64ddf14c02cb3", "is_reserved": 0}, {"is_disabled": 0, "fusion_lon": 0.0, "fusion_lat": 0.0, "lat": 38.932045333333335, "type": "electric_scooter", "lon": -77.03669466666666, "bike_id": "1e1ebb2db2a5069c091fdf0fa447395b", "rental_uris": {"android": "https://dc.lft.to/lastmile_qr_scan", "ios": "https://dc.lft.to/lastmile_qr_scan"}, "name": "1e1ebb2db2a5069c091fdf0fa447395b", "is_reserved": 0}, {"is_disabled": 0, "fusion_lon": 0.0, "fusion_lat": 0.0, "lat": 38.89617966666667, "type": "electric_scooter", "lon": -76.99638416666667, "bike_id": "8f60bfb6308f20f528db7c2d07116c75", "rental_uris": {"android": "https://dc.lft.to/lastmile_qr_scan", "ios": "https://dc.lft.to/lastmile_qr_scan"}, "name": "8f60bfb6308f20f528db7c2d07116c75", "is_reserved": 0}, {"is_disabled": 0, "fusion_lon": 0.0, "fusion_lat": 0.0, "lat": 38.912815333333334, "type": "electric_scooter", "lon": -77.014014, "bike_id": "9db277a2826bad309cad7faa74aad91b", "rental_uris": {"android": "https://dc.lft.to/lastmile_qr_scan", "ios": "https://dc.lft.to/lastmile_qr_scan"}, "name": "9db277a2826bad309cad7faa74aad91b", "is_reserved": 0}, {"is_disabled": 0, "fusion_lon": 0.0, "fusion_lat": 0.0, "lat": 38.918843, "type": "electric_scooter", "lon": -77.0443075, "bike_id": "55a678e424549624ead88b03932caa05", "rental_uris": {"android": "https://dc.lft.to/lastmile_qr_scan", "ios": "https://dc.lft.to/lastmile_qr_scan"}, "name": "55a678e424549624ead88b03932caa05", "is_reserved": 0}, {"is_disabled": 0, "fusion_lon": 0.0, "fusion_lat": 0.0, "lat": 38.90810183333333, "type": "electric_scooter", "lon": -77.03395983333333, "bike_id": "89801bbb8d31f168f3c422362f73abc2", "rental_uris": {"android": "https://dc.lft.to/lastmile_qr_scan", "ios": "https://dc.lft.to/lastmile_qr_scan"}, "name": "89801bbb8d31f168f3c422362f73abc2", "is_reserved": 0}, {"is_disabled": 0, "fusion_lon": 0.0, "fusion_lat": 0.0, "lat": 38.94778616666667, "type": "electric_scooter", "lon": -77.09278383333333, "bike_id": "c2a0d0f8dfeaa9d3a604f0d2c7309141", "rental_uris": {"android": "https://dc.lft.to/lastmile_qr_scan", "ios": "https://dc.lft.to/lastmile_qr_scan"}, "name": "c2a0d0f8dfeaa9d3a604f0d2c7309141", "is_reserved": 0}, {"is_disabled": 0, "fusion_lon": 0.0, "fusion_lat": 0.0, "lat": 38.918709, "type": "electric_bike", "lon": -76.96124183333333, "bike_id": "ca1f4d2fa700865cdce388ff81ec9aa5", "rental_uris": {"android": "https://dc.lft.to/lastmile_qr_scan", "ios": "https://dc.lft.to/lastmile_qr_scan"}, "name": "ca1f4d2fa700865cdce388ff81ec9aa5", "is_reserved": 0}, {"is_disabled": 0, "fusion_lon": 0.0, "fusion_lat": 0.0, "lat": 38.9051505, "type": "electric_scooter", "lon": -77.05157816666667, "bike_id": "368c0dfbceee0b18fe0c33be4a851d9f", "rental_uris": {"android": "https://dc.lft.to/lastmile_qr_scan", "ios": "https://dc.lft.to/lastmile_qr_scan"}, "name": "368c0dfbceee0b18fe0c33be4a851d9f", "is_reserved": 0}, {"is_disabled": 0, "fusion_lon": 0.0, "fusion_lat": 0.0, "lat": 38.95628833333333, "type": "electric_scooter", "lon": -77.02982166666666, "bike_id": "b4dc3c975ac788e5c9230dfd44ceba5c", "rental_uris": {"android": "https://dc.lft.to/lastmile_qr_scan", "ios": "https://dc.lft.to/lastmile_qr_scan"}, "name": "b4dc3c975ac788e5c9230dfd44ceba5c", "is_reserved": 0}, {"is_disabled": 0, "fusion_lon": 0.0, "fusion_lat": 0.0, "lat": 38.859728, "type": "electric_scooter", "lon": -76.98423533333333, "bike_id": "47c2667bfbd1940598a7653282e8b649", "rental_uris": {"android": "https://dc.lft.to/lastmile_qr_scan", "ios": "https://dc.lft.to/lastmile_qr_scan"}, "name": "47c2667bfbd1940598a7653282e8b649", "is_reserved": 0}, {"is_disabled": 0, "fusion_lon": 0.0, "fusion_lat": 0.0, "lat": 38.91903516666667, "type": "electric_scooter", "lon": -77.02759366666666, "bike_id": "62981efca86f68673ed18684bf0d5ecc", "rental_uris": {"android": "https://dc.lft.to/lastmile_qr_scan", "ios": "https://dc.lft.to/lastmile_qr_scan"}, "name": "62981efca86f68673ed18684bf0d5ecc", "is_reserved": 0}, {"is_disabled": 0, "fusion_lon": 0.0, "fusion_lat": 0.0, "lat": 38.850662166666666, "type": "electric_bike", "lon": -76.9733195, "bike_id": "933e613ff0adc4ce5af59f703aa86137", "rental_uris": {"android": "https://dc.lft.to/lastmile_qr_scan", "ios": "https://dc.lft.to/lastmile_qr_scan"}, "name": "933e613ff0adc4ce5af59f703aa86137", "is_reserved": 0}, {"is_disabled": 0, "fusion_lon": 0.0, "fusion_lat": 0.0, "lat": 38.9181055, "type": "electric_scooter", "lon": -77.0355485, "bike_id": "a3335df69e61a940590aaf281d750e82", "rental_uris": {"android": "https://dc.lft.to/lastmile_qr_scan", "ios": "https://dc.lft.to/lastmile_qr_scan"}, "name": "a3335df69e61a940590aaf281d750e82", "is_reserved": 0}, {"is_disabled": 0, "fusion_lon": 0.0, "fusion_lat": 0.0, "lat": 38.927377, "type": "electric_bike", "lon": -76.99367366666667, "bike_id": "3c0eaf901bf16e54525043f25d3899dc", "rental_uris": {"android": "https://dc.lft.to/lastmile_qr_scan", "ios": "https://dc.lft.to/lastmile_qr_scan"}, "name": "3c0eaf901bf16e54525043f25d3899dc", "is_reserved": 0}, {"is_disabled": 0, "fusion_lon": 0.0, "fusion_lat": 0.0, "lat": 38.92480883333333, "type": "electric_scooter", "lon": -77.02714116666667, "bike_id": "6eae30c6e810922b5ebebcf4531c69f8", "rental_uris": {"android": "https://dc.lft.to/lastmile_qr_scan", "ios": "https://dc.lft.to/lastmile_qr_scan"}, "name": "6eae30c6e810922b5ebebcf4531c69f8", "is_reserved": 0}, {"is_disabled": 0, "fusion_lon": 0.0, "fusion_lat": 0.0, "lat": 38.90498566666667, "type": "electric_scooter", "lon": -77.029536, "bike_id": "a68868aee4996b88291e66d087d6ec34", "rental_uris": {"android": "https://dc.lft.to/lastmile_qr_scan", "ios": "https://dc.lft.to/lastmile_qr_scan"}, "name": "a68868aee4996b88291e66d087d6ec34", "is_reserved": 0}, {"is_disabled": 0, "fusion_lon": 0.0, "fusion_lat": 0.0, "lat": 38.92795516666666, "type": "electric_scooter", "lon": -77.0229845, "bike_id": "eab733517d27ebdecb13df09d3b82cf2", "rental_uris": {"android": "https://dc.lft.to/lastmile_qr_scan", "ios": "https://dc.lft.to/lastmile_qr_scan"}, "name": "eab733517d27ebdecb13df09d3b82cf2", "is_reserved": 0}, {"is_disabled": 0, "fusion_lon": 0.0, "fusion_lat": 0.0, "lat": 38.894051833333336, "type": "electric_bike", "lon": -76.98280733333333, "bike_id": "c63d25a7713b5e1718e846b8a9e63b26", "rental_uris": {"android": "https://dc.lft.to/lastmile_qr_scan", "ios": "https://dc.lft.to/lastmile_qr_scan"}, "name": "c63d25a7713b5e1718e846b8a9e63b26", "is_reserved": 0}, {"is_disabled": 0, "fusion_lon": 0.0, "fusion_lat": 0.0, "lat": 38.93632066666667, "type": "electric_scooter", "lon": -77.02456633333334, "bike_id": "1e48362b32042fb79633b54aaf64aaa4", "rental_uris": {"android": "https://dc.lft.to/lastmile_qr_scan", "ios": "https://dc.lft.to/lastmile_qr_scan"}, "name": "1e48362b32042fb79633b54aaf64aaa4", "is_reserved": 0}, {"is_disabled": 0, "fusion_lon": 0.0, "fusion_lat": 0.0, "lat": 38.9131075, "type": "electric_scooter", "lon": -77.03206516666667, "bike_id": "71a4279bfe1014b8c8e8bacc2ba35170", "rental_uris": {"android": "https://dc.lft.to/lastmile_qr_scan", "ios": "https://dc.lft.to/lastmile_qr_scan"}, "name": "71a4279bfe1014b8c8e8bacc2ba35170", "is_reserved": 0}, {"is_disabled": 0, "fusion_lon": 0.0, "fusion_lat": 0.0, "lat": 38.91660916666667, "type": "electric_scooter", "lon": -77.02791083333334, "bike_id": "e4f506d6556f43a40af68e0e288f78b3", "rental_uris": {"android": "https://dc.lft.to/lastmile_qr_scan", "ios": "https://dc.lft.to/lastmile_qr_scan"}, "name": "e4f506d6556f43a40af68e0e288f78b3", "is_reserved": 0}, {"is_disabled": 0, "fusion_lon": 0.0, "fusion_lat": 0.0, "lat": 38.907115, "type": "electric_scooter", "lon": -77.02717516666667, "bike_id": "6f2bf3133745ea2e8607932de5361f32", "rental_uris": {"android": "https://dc.lft.to/lastmile_qr_scan", "ios": "https://dc.lft.to/lastmile_qr_scan"}, "name": "6f2bf3133745ea2e8607932de5361f32", "is_reserved": 0}, {"is_disabled": 0, "fusion_lon": 0.0, "fusion_lat": 0.0, "lat": 38.845146166666666, "type": "electric_bike", "lon": -76.97216833333333, "bike_id": "c1d9a06b14bd62f42eacbc2126a0be12", "rental_uris": {"android": "https://dc.lft.to/lastmile_qr_scan", "ios": "https://dc.lft.to/lastmile_qr_scan"}, "name": "c1d9a06b14bd62f42eacbc2126a0be12", "is_reserved": 0}, {"is_disabled": 0, "fusion_lon": 0.0, "fusion_lat": 0.0, "lat": 38.918175166666664, "type": "electric_scooter", "lon": -77.0314335, "bike_id": "bbf341944a6ab69ce49cc42ba6770358", "rental_uris": {"android": "https://dc.lft.to/lastmile_qr_scan", "ios": "https://dc.lft.to/lastmile_qr_scan"}, "name": "bbf341944a6ab69ce49cc42ba6770358", "is_reserved": 0}, {"is_disabled": 0, "fusion_lon": 0.0, "fusion_lat": 0.0, "lat": 38.927684166666666, "type": "electric_scooter", "lon": -77.0279505, "bike_id": "6400a8eaf9b61028d15141d44958f9cf", "rental_uris": {"android": "https://dc.lft.to/lastmile_qr_scan", "ios": "https://dc.lft.to/lastmile_qr_scan"}, "name": "6400a8eaf9b61028d15141d44958f9cf", "is_reserved": 0}, {"is_disabled": 0, "fusion_lon": 0.0, "fusion_lat": 0.0, "lat": 38.909728, "type": "electric_scooter", "lon": -77.038386, "bike_id": "2f831f20f52c423ebfafca9f41c01728", "rental_uris": {"android": "https://dc.lft.to/lastmile_qr_scan", "ios": "https://dc.lft.to/lastmile_qr_scan"}, "name": "2f831f20f52c423ebfafca9f41c01728", "is_reserved": 0}, {"is_disabled": 0, "fusion_lon": 0.0, "fusion_lat": 0.0, "lat": 38.90952216666667, "type": "electric_scooter", "lon": -77.0218135, "bike_id": "cad802773a908b382775bff88a691a66", "rental_uris": {"android": "https://dc.lft.to/lastmile_qr_scan", "ios": "https://dc.lft.to/lastmile_qr_scan"}, "name": "cad802773a908b382775bff88a691a66", "is_reserved": 0}, {"is_disabled": 0, "fusion_lon": 0.0, "fusion_lat": 0.0, "lat": 38.86522316666667, "type": "electric_scooter", "lon": -76.9897125, "bike_id": "7c0159881ff2575329e1597d2eccb923", "rental_uris": {"android": "https://dc.lft.to/lastmile_qr_scan", "ios": "https://dc.lft.to/lastmile_qr_scan"}, "name": "7c0159881ff2575329e1597d2eccb923", "is_reserved": 0}, {"is_disabled": 0, "fusion_lon": 0.0, "fusion_lat": 0.0, "lat": 38.84617016666667, "type": "electric_scooter", "lon": -76.99630816666667, "bike_id": "aa6bdcbbba34514a02a8f2119c2cb8e2", "rental_uris": {"android": "https://dc.lft.to/lastmile_qr_scan", "ios": "https://dc.lft.to/lastmile_qr_scan"}, "name": "aa6bdcbbba34514a02a8f2119c2cb8e2", "is_reserved": 0}, {"is_disabled": 0, "fusion_lon": 0.0, "fusion_lat": 0.0, "lat": 38.924426833333335, "type": "electric_scooter", "lon": -77.02610233333333, "bike_id": "9f248dfc95c482d3f2d7e7feef3add4f", "rental_uris": {"android": "https://dc.lft.to/lastmile_qr_scan", "ios": "https://dc.lft.to/lastmile_qr_scan"}, "name": "9f248dfc95c482d3f2d7e7feef3add4f", "is_reserved": 0}, {"is_disabled": 0, "fusion_lon": 0.0, "fusion_lat": 0.0, "lat": 38.9072535, "type": "electric_scooter", "lon": -77.03435266666666, "bike_id": "af5530781ecd9a2060f8f19c0e20d6a7", "rental_uris": {"android": "https://dc.lft.to/lastmile_qr_scan", "ios": "https://dc.lft.to/lastmile_qr_scan"}, "name": "af5530781ecd9a2060f8f19c0e20d6a7", "is_reserved": 0}, {"is_disabled": 0, "fusion_lon": 0.0, "fusion_lat": 0.0, "lat": 38.89890483333333, "type": "electric_scooter", "lon": -77.04000816666667, "bike_id": "058d5e4c22f670ce439d729e6b12554d", "rental_uris": {"android": "https://dc.lft.to/lastmile_qr_scan", "ios": "https://dc.lft.to/lastmile_qr_scan"}, "name": "058d5e4c22f670ce439d729e6b12554d", "is_reserved": 0}, {"is_disabled": 0, "fusion_lon": 0.0, "fusion_lat": 0.0, "lat": 38.960153166666665, "type": "electric_scooter", "lon": -77.03313066666666, "bike_id": "a480b5d17b54bbc32a2e51954546f89c", "rental_uris": {"android": "https://dc.lft.to/lastmile_qr_scan", "ios": "https://dc.lft.to/lastmile_qr_scan"}, "name": "a480b5d17b54bbc32a2e51954546f89c", "is_reserved": 0}, {"is_disabled": 0, "fusion_lon": 0.0, "fusion_lat": 0.0, "lat": 38.9095725, "type": "electric_scooter", "lon": -77.02281816666667, "bike_id": "6e08d7f7853c3c17c75c532c3804c686", "rental_uris": {"android": "https://dc.lft.to/lastmile_qr_scan", "ios": "https://dc.lft.to/lastmile_qr_scan"}, "name": "6e08d7f7853c3c17c75c532c3804c686", "is_reserved": 0}, {"is_disabled": 0, "fusion_lon": 0.0, "fusion_lat": 0.0, "lat": 38.9202515, "type": "electric_scooter", "lon": -77.03876316666667, "bike_id": "b76d68062137f0f83ad1cd698ba08198", "rental_uris": {"android": "https://dc.lft.to/lastmile_qr_scan", "ios": "https://dc.lft.to/lastmile_qr_scan"}, "name": "b76d68062137f0f83ad1cd698ba08198", "is_reserved": 0}, {"is_disabled": 0, "fusion_lon": 0.0, "fusion_lat": 0.0, "lat": 38.9309495, "type": "electric_scooter", "lon": -77.02458016666667, "bike_id": "57f84b5571ae87b48bb83a02757f20af", "rental_uris": {"android": "https://dc.lft.to/lastmile_qr_scan", "ios": "https://dc.lft.to/lastmile_qr_scan"}, "name": "57f84b5571ae87b48bb83a02757f20af", "is_reserved": 0}, {"is_disabled": 0, "fusion_lon": 0.0, "fusion_lat": 0.0, "lat": 38.90703116666667, "type": "electric_scooter", "lon": -77.02698783333334, "bike_id": "fa416cb6aff36374ad17d5547a55b9da", "rental_uris": {"android": "https://dc.lft.to/lastmile_qr_scan", "ios": "https://dc.lft.to/lastmile_qr_scan"}, "name": "fa416cb6aff36374ad17d5547a55b9da", "is_reserved": 0}, {"is_disabled": 0, "fusion_lon": 0.0, "fusion_lat": 0.0, "lat": 38.92034616666667, "type": "electric_scooter", "lon": -77.025875, "bike_id": "db7ae87f48296ba2014bb25e0b48dea4", "rental_uris": {"android": "https://dc.lft.to/lastmile_qr_scan", "ios": "https://dc.lft.to/lastmile_qr_scan"}, "name": "db7ae87f48296ba2014bb25e0b48dea4", "is_reserved": 0}, {"is_disabled": 0, "fusion_lon": 0.0, "fusion_lat": 0.0, "lat": 38.879394833333336, "type": "electric_scooter", "lon": -77.01347616666666, "bike_id": "61d30acc4694751cc7391235143c9f83", "rental_uris": {"android": "https://dc.lft.to/lastmile_qr_scan", "ios": "https://dc.lft.to/lastmile_qr_scan"}, "name": "61d30acc4694751cc7391235143c9f83", "is_reserved": 0}, {"is_disabled": 0, "fusion_lon": 0.0, "fusion_lat": 0.0, "lat": 38.885078166666666, "type": "electric_scooter", "lon": -76.99843916666667, "bike_id": "319486c366a33a7150d2002e5aa14494", "rental_uris": {"android": "https://dc.lft.to/lastmile_qr_scan", "ios": "https://dc.lft.to/lastmile_qr_scan"}, "name": "319486c366a33a7150d2002e5aa14494", "is_reserved": 0}, {"is_disabled": 0, "fusion_lon": 0.0, "fusion_lat": 0.0, "lat": 38.988257, "type": "electric_bike", "lon": -76.98755, "bike_id": "4ef88cfc8319ad2d3ef096cbdbf480fc", "rental_uris": {"android": "https://dc.lft.to/lastmile_qr_scan", "ios": "https://dc.lft.to/lastmile_qr_scan"}, "name": "4ef88cfc8319ad2d3ef096cbdbf480fc", "is_reserved": 0}, {"is_disabled": 0, "fusion_lon": 0.0, "fusion_lat": 0.0, "lat": 38.90439166666667, "type": "electric_scooter", "lon": -77.03153316666666, "bike_id": "932fcc2eb7ef39ae81b4004920283650", "rental_uris": {"android": "https://dc.lft.to/lastmile_qr_scan", "ios": "https://dc.lft.to/lastmile_qr_scan"}, "name": "932fcc2eb7ef39ae81b4004920283650", "is_reserved": 0}, {"is_disabled": 0, "fusion_lon": 0.0, "fusion_lat": 0.0, "lat": 38.9074815, "type": "electric_scooter", "lon": -77.03857283333333, "bike_id": "00b32584ef819619c58bda39394ce41a", "rental_uris": {"android": "https://dc.lft.to/lastmile_qr_scan", "ios": "https://dc.lft.to/lastmile_qr_scan"}, "name": "00b32584ef819619c58bda39394ce41a", "is_reserved": 0}, {"is_disabled": 0, "fusion_lon": 0.0, "fusion_lat": 0.0, "lat": 38.91658366666667, "type": "electric_scooter", "lon": -77.046538, "bike_id": "a6f541a3ee504ae2d79a7d241a5be5c6", "rental_uris": {"android": "https://dc.lft.to/lastmile_qr_scan", "ios": "https://dc.lft.to/lastmile_qr_scan"}, "name": "a6f541a3ee504ae2d79a7d241a5be5c6", "is_reserved": 0}, {"is_disabled": 0, "fusion_lon": 0.0, "fusion_lat": 0.0, "lat": 38.886899666666665, "type": "electric_scooter", "lon": -77.0138955, "bike_id": "f3ffc79382a5cb92711b54c42a067fb8", "rental_uris": {"android": "https://dc.lft.to/lastmile_qr_scan", "ios": "https://dc.lft.to/lastmile_qr_scan"}, "name": "f3ffc79382a5cb92711b54c42a067fb8", "is_reserved": 0}, {"is_disabled": 0, "fusion_lon": 0.0, "fusion_lat": 0.0, "lat": 38.901991, "type": "electric_scooter", "lon": -77.05012616666667, "bike_id": "2a7d5331f954c68bd4913003d534e4d3", "rental_uris": {"android": "https://dc.lft.to/lastmile_qr_scan", "ios": "https://dc.lft.to/lastmile_qr_scan"}, "name": "2a7d5331f954c68bd4913003d534e4d3", "is_reserved": 0}, {"is_disabled": 0, "fusion_lon": 0.0, "fusion_lat": 0.0, "lat": 38.939068166666665, "type": "electric_scooter", "lon": -77.07805483333334, "bike_id": "f4772b2b4541372044ac7a17278d123e", "rental_uris": {"android": "https://dc.lft.to/lastmile_qr_scan", "ios": "https://dc.lft.to/lastmile_qr_scan"}, "name": "f4772b2b4541372044ac7a17278d123e", "is_reserved": 0}, {"is_disabled": 0, "fusion_lon": 0.0, "fusion_lat": 0.0, "lat": 38.88645416666667, "type": "electric_scooter", "lon": -77.00358516666667, "bike_id": "873a97ed5002317ddc04b1026d7976fd", "rental_uris": {"android": "https://dc.lft.to/lastmile_qr_scan", "ios": "https://dc.lft.to/lastmile_qr_scan"}, "name": "873a97ed5002317ddc04b1026d7976fd", "is_reserved": 0}, {"is_disabled": 0, "fusion_lon": 0.0, "fusion_lat": 0.0, "lat": 38.897352833333336, "type": "electric_bike", "lon": -76.905405, "bike_id": "451df431b5aaa6f748b89462fc11163e", "rental_uris": {"android": "https://dc.lft.to/lastmile_qr_scan", "ios": "https://dc.lft.to/lastmile_qr_scan"}, "name": "451df431b5aaa6f748b89462fc11163e", "is_reserved": 0}, {"is_disabled": 0, "fusion_lon": 0.0, "fusion_lat": 0.0, "lat": 38.90031233333333, "type": "electric_scooter", "lon": -77.04066166666667, "bike_id": "3353fa84fe418c33e5fa9a0c4ed95e05", "rental_uris": {"android": "https://dc.lft.to/lastmile_qr_scan", "ios": "https://dc.lft.to/lastmile_qr_scan"}, "name": "3353fa84fe418c33e5fa9a0c4ed95e05", "is_reserved": 0}, {"is_disabled": 0, "fusion_lon": 0.0, "fusion_lat": 0.0, "lat": 38.96818666666667, "type": "electric_scooter", "lon": -77.00891866666667, "bike_id": "843583faddb81f83cd768fd3158112ac", "rental_uris": {"android": "https://dc.lft.to/lastmile_qr_scan", "ios": "https://dc.lft.to/lastmile_qr_scan"}, "name": "843583faddb81f83cd768fd3158112ac", "is_reserved": 0}, {"is_disabled": 0, "fusion_lon": 0.0, "fusion_lat": 0.0, "lat": 38.9127845, "type": "electric_scooter", "lon": -77.02248833333333, "bike_id": "213b2c705a634a0d090ed9d02d167511", "rental_uris": {"android": "https://dc.lft.to/lastmile_qr_scan", "ios": "https://dc.lft.to/lastmile_qr_scan"}, "name": "213b2c705a634a0d090ed9d02d167511", "is_reserved": 0}, {"is_disabled": 0, "fusion_lon": 0.0, "fusion_lat": 0.0, "lat": 38.92856883333333, "type": "electric_bike", "lon": -76.98937116666667, "bike_id": "de74c20ba9d525008d4b3dc97004f34f", "rental_uris": {"android": "https://dc.lft.to/lastmile_qr_scan", "ios": "https://dc.lft.to/lastmile_qr_scan"}, "name": "de74c20ba9d525008d4b3dc97004f34f", "is_reserved": 0}, {"is_disabled": 0, "fusion_lon": 0.0, "fusion_lat": 0.0, "lat": 39.05208116666667, "type": "electric_bike", "lon": -77.04415433333334, "bike_id": "37e98e5d45051b4e24ee28f9ac6a2447", "rental_uris": {"android": "https://dc.lft.to/lastmile_qr_scan", "ios": "https://dc.lft.to/lastmile_qr_scan"}, "name": "37e98e5d45051b4e24ee28f9ac6a2447", "is_reserved": 0}, {"is_disabled": 0, "fusion_lon": 0.0, "fusion_lat": 0.0, "lat": 38.924558833333336, "type": "electric_scooter", "lon": -76.99902983333334, "bike_id": "e6286b7d184079d66140e4ed4f0ccbf5", "rental_uris": {"android": "https://dc.lft.to/lastmile_qr_scan", "ios": "https://dc.lft.to/lastmile_qr_scan"}, "name": "e6286b7d184079d66140e4ed4f0ccbf5", "is_reserved": 0}, {"is_disabled": 0, "fusion_lon": 0.0, "fusion_lat": 0.0, "lat": 39.00000333333333, "type": "electric_bike", "lon": -76.9181035, "bike_id": "72f294a8802fca6b6464f2a02195a556", "rental_uris": {"android": "https://dc.lft.to/lastmile_qr_scan", "ios": "https://dc.lft.to/lastmile_qr_scan"}, "name": "72f294a8802fca6b6464f2a02195a556", "is_reserved": 0}, {"is_disabled": 0, "fusion_lon": 0.0, "fusion_lat": 0.0, "lat": 38.91416666666667, "type": "electric_scooter", "lon": -77.043341, "bike_id": "0768dc009a03e262872fdf0355f5372c", "rental_uris": {"android": "https://dc.lft.to/lastmile_qr_scan", "ios": "https://dc.lft.to/lastmile_qr_scan"}, "name": "0768dc009a03e262872fdf0355f5372c", "is_reserved": 0}, {"is_disabled": 0, "fusion_lon": 0.0, "fusion_lat": 0.0, "lat": 38.941985333333335, "type": "electric_scooter", "lon": -77.0257915, "bike_id": "a4eb7f28a9ebbb04d84cea7066e5ff59", "rental_uris": {"android": "https://dc.lft.to/lastmile_qr_scan", "ios": "https://dc.lft.to/lastmile_qr_scan"}, "name": "a4eb7f28a9ebbb04d84cea7066e5ff59", "is_reserved": 0}, {"is_disabled": 0, "fusion_lon": 0.0, "fusion_lat": 0.0, "lat": 38.94976483333333, "type": "electric_scooter", "lon": -77.06759433333333, "bike_id": "98c4daefc9fdd0ea2bcb6cac4588d696", "rental_uris": {"android": "https://dc.lft.to/lastmile_qr_scan", "ios": "https://dc.lft.to/lastmile_qr_scan"}, "name": "98c4daefc9fdd0ea2bcb6cac4588d696", "is_reserved": 0}, {"is_disabled": 0, "fusion_lon": 0.0, "fusion_lat": 0.0, "lat": 38.9683155, "type": "electric_scooter", "lon": -77.01510966666666, "bike_id": "991b95aee7d6a7d91e1b282808c0c84b", "rental_uris": {"android": "https://dc.lft.to/lastmile_qr_scan", "ios": "https://dc.lft.to/lastmile_qr_scan"}, "name": "991b95aee7d6a7d91e1b282808c0c84b", "is_reserved": 0}, {"is_disabled": 0, "fusion_lon": 0.0, "fusion_lat": 0.0, "lat": 38.933235833333335, "type": "electric_scooter", "lon": -77.02935616666667, "bike_id": "f5718d9d918eae2f6ef15658efe7719f", "rental_uris": {"android": "https://dc.lft.to/lastmile_qr_scan", "ios": "https://dc.lft.to/lastmile_qr_scan"}, "name": "f5718d9d918eae2f6ef15658efe7719f", "is_reserved": 0}, {"is_disabled": 0, "fusion_lon": 0.0, "fusion_lat": 0.0, "lat": 38.92407716666666, "type": "electric_scooter", "lon": -77.05169266666667, "bike_id": "c484889348ec7c98da6079ce802da9f2", "rental_uris": {"android": "https://dc.lft.to/lastmile_qr_scan", "ios": "https://dc.lft.to/lastmile_qr_scan"}, "name": "c484889348ec7c98da6079ce802da9f2", "is_reserved": 0}, {"is_disabled": 0, "fusion_lon": 0.0, "fusion_lat": 0.0, "lat": 38.905758166666665, "type": "electric_scooter", "lon": -77.024261, "bike_id": "4031dcc8589d0433fc7cdae1e7983979", "rental_uris": {"android": "https://dc.lft.to/lastmile_qr_scan", "ios": "https://dc.lft.to/lastmile_qr_scan"}, "name": "4031dcc8589d0433fc7cdae1e7983979", "is_reserved": 0}, {"is_disabled": 0, "fusion_lon": 0.0, "fusion_lat": 0.0, "lat": 38.91916033333333, "type": "electric_scooter", "lon": -77.0240625, "bike_id": "54ecc59a75fba71f319bfebd02f99f5a", "rental_uris": {"android": "https://dc.lft.to/lastmile_qr_scan", "ios": "https://dc.lft.to/lastmile_qr_scan"}, "name": "54ecc59a75fba71f319bfebd02f99f5a", "is_reserved": 0}, {"is_disabled": 0, "fusion_lon": 0.0, "fusion_lat": 0.0, "lat": 38.935357, "type": "electric_scooter", "lon": -77.02075866666667, "bike_id": "1dbf1cf1a897727bd54bd5c2af17829d", "rental_uris": {"android": "https://dc.lft.to/lastmile_qr_scan", "ios": "https://dc.lft.to/lastmile_qr_scan"}, "name": "1dbf1cf1a897727bd54bd5c2af17829d", "is_reserved": 0}, {"is_disabled": 0, "fusion_lon": 0.0, "fusion_lat": 0.0, "lat": 38.911780666666665, "type": "electric_scooter", "lon": -77.0045125, "bike_id": "ba7e2b60f76454e8199d467be6c4e758", "rental_uris": {"android": "https://dc.lft.to/lastmile_qr_scan", "ios": "https://dc.lft.to/lastmile_qr_scan"}, "name": "ba7e2b60f76454e8199d467be6c4e758", "is_reserved": 0}, {"is_disabled": 0, "fusion_lon": 0.0, "fusion_lat": 0.0, "lat": 38.879837, "type": "electric_bike", "lon": -76.9160185, "bike_id": "ee21be81c03c2d266060dd9f342cb0d1", "rental_uris": {"android": "https://dc.lft.to/lastmile_qr_scan", "ios": "https://dc.lft.to/lastmile_qr_scan"}, "name": "ee21be81c03c2d266060dd9f342cb0d1", "is_reserved": 0}, {"is_disabled": 0, "fusion_lon": 0.0, "fusion_lat": 0.0, "lat": 38.96647683333333, "type": "electric_bike", "lon": -76.93023333333333, "bike_id": "493dc0f246c4ec55463ab8a1af479c3c", "rental_uris": {"android": "https://dc.lft.to/lastmile_qr_scan", "ios": "https://dc.lft.to/lastmile_qr_scan"}, "name": "493dc0f246c4ec55463ab8a1af479c3c", "is_reserved": 0}, {"is_disabled": 0, "fusion_lon": 0.0, "fusion_lat": 0.0, "lat": 38.897347, "type": "electric_scooter", "lon": -77.04816766666667, "bike_id": "fbb63b45af0d9ceb968ad903fc1bb3e7", "rental_uris": {"android": "https://dc.lft.to/lastmile_qr_scan", "ios": "https://dc.lft.to/lastmile_qr_scan"}, "name": "fbb63b45af0d9ceb968ad903fc1bb3e7", "is_reserved": 0}, {"is_disabled": 0, "fusion_lon": 0.0, "fusion_lat": 0.0, "lat": 38.902703333333335, "type": "electric_scooter", "lon": -77.0345915, "bike_id": "2d1cb48eda62f63d8e545bc5e3efa0e0", "rental_uris": {"android": "https://dc.lft.to/lastmile_qr_scan", "ios": "https://dc.lft.to/lastmile_qr_scan"}, "name": "2d1cb48eda62f63d8e545bc5e3efa0e0", "is_reserved": 0}, {"is_disabled": 0, "fusion_lon": 0.0, "fusion_lat": 0.0, "lat": 38.916164333333334, "type": "electric_scooter", "lon": -77.04600433333333, "bike_id": "f393297de82f33fcf55f185cfc424c38", "rental_uris": {"android": "https://dc.lft.to/lastmile_qr_scan", "ios": "https://dc.lft.to/lastmile_qr_scan"}, "name": "f393297de82f33fcf55f185cfc424c38", "is_reserved": 0}, {"is_disabled": 0, "fusion_lon": 0.0, "fusion_lat": 0.0, "lat": 38.914779333333335, "type": "electric_scooter", "lon": -77.03234666666667, "bike_id": "2053d7139bce68b23ba98d9f3ef6c660", "rental_uris": {"android": "https://dc.lft.to/lastmile_qr_scan", "ios": "https://dc.lft.to/lastmile_qr_scan"}, "name": "2053d7139bce68b23ba98d9f3ef6c660", "is_reserved": 0}, {"is_disabled": 0, "fusion_lon": 0.0, "fusion_lat": 0.0, "lat": 38.880732, "type": "electric_scooter", "lon": -77.0167205, "bike_id": "2e26a6e55f0462e0052c789b134da032", "rental_uris": {"android": "https://dc.lft.to/lastmile_qr_scan", "ios": "https://dc.lft.to/lastmile_qr_scan"}, "name": "2e26a6e55f0462e0052c789b134da032", "is_reserved": 0}, {"is_disabled": 0, "fusion_lon": 0.0, "fusion_lat": 0.0, "lat": 38.95376866666667, "type": "electric_scooter", "lon": -77.025601, "bike_id": "01d49b91380e228b4f25cdefdbfa4924", "rental_uris": {"android": "https://dc.lft.to/lastmile_qr_scan", "ios": "https://dc.lft.to/lastmile_qr_scan"}, "name": "01d49b91380e228b4f25cdefdbfa4924", "is_reserved": 0}, {"is_disabled": 0, "fusion_lon": 0.0, "fusion_lat": 0.0, "lat": 38.916231, "type": "electric_bike", "lon": -77.01362266666666, "bike_id": "1e99976094065b3c89780d7ff32c0530", "rental_uris": {"android": "https://dc.lft.to/lastmile_qr_scan", "ios": "https://dc.lft.to/lastmile_qr_scan"}, "name": "1e99976094065b3c89780d7ff32c0530", "is_reserved": 0}, {"is_disabled": 0, "fusion_lon": 0.0, "fusion_lat": 0.0, "lat": 38.9224425, "type": "electric_scooter", "lon": -77.03082666666667, "bike_id": "dd25ec16f60540305e59db16410ea424", "rental_uris": {"android": "https://dc.lft.to/lastmile_qr_scan", "ios": "https://dc.lft.to/lastmile_qr_scan"}, "name": "dd25ec16f60540305e59db16410ea424", "is_reserved": 0}, {"is_disabled": 0, "fusion_lon": 0.0, "fusion_lat": 0.0, "lat": 38.90357233333334, "type": "electric_scooter", "lon": -77.03212866666667, "bike_id": "c4ee1bd849ba8cf56d8c40a1db92ebc7", "rental_uris": {"android": "https://dc.lft.to/lastmile_qr_scan", "ios": "https://dc.lft.to/lastmile_qr_scan"}, "name": "c4ee1bd849ba8cf56d8c40a1db92ebc7", "is_reserved": 0}, {"is_disabled": 0, "fusion_lon": 0.0, "fusion_lat": 0.0, "lat": 38.965003, "type": "electric_scooter", "lon": -77.024842, "bike_id": "cc49f7c0976e28c3868fb4f53ba60864", "rental_uris": {"android": "https://dc.lft.to/lastmile_qr_scan", "ios": "https://dc.lft.to/lastmile_qr_scan"}, "name": "cc49f7c0976e28c3868fb4f53ba60864", "is_reserved": 0}, {"is_disabled": 0, "fusion_lon": 0.0, "fusion_lat": 0.0, "lat": 38.892255, "type": "electric_scooter", "lon": -77.03339633333333, "bike_id": "c25021765d109c7331a89dd65baca45a", "rental_uris": {"android": "https://dc.lft.to/lastmile_qr_scan", "ios": "https://dc.lft.to/lastmile_qr_scan"}, "name": "c25021765d109c7331a89dd65baca45a", "is_reserved": 0}, {"is_disabled": 0, "fusion_lon": 0.0, "fusion_lat": 0.0, "lat": 38.95396866666667, "type": "electric_scooter", "lon": -77.02757966666667, "bike_id": "6a6d3f18e7adadf0b27b89cf25186d93", "rental_uris": {"android": "https://dc.lft.to/lastmile_qr_scan", "ios": "https://dc.lft.to/lastmile_qr_scan"}, "name": "6a6d3f18e7adadf0b27b89cf25186d93", "is_reserved": 0}, {"is_disabled": 0, "fusion_lon": 0.0, "fusion_lat": 0.0, "lat": 38.893561166666665, "type": "electric_scooter", "lon": -77.02226416666667, "bike_id": "baf709c889ac8c248f5d50eb6d28267d", "rental_uris": {"android": "https://dc.lft.to/lastmile_qr_scan", "ios": "https://dc.lft.to/lastmile_qr_scan"}, "name": "baf709c889ac8c248f5d50eb6d28267d", "is_reserved": 0}, {"is_disabled": 0, "fusion_lon": 0.0, "fusion_lat": 0.0, "lat": 38.858387666666665, "type": "electric_bike", "lon": -76.9928565, "bike_id": "f25ec76ab8a03dc4f490cde43a01e19d", "rental_uris": {"android": "https://dc.lft.to/lastmile_qr_scan", "ios": "https://dc.lft.to/lastmile_qr_scan"}, "name": "f25ec76ab8a03dc4f490cde43a01e19d", "is_reserved": 0}, {"is_disabled": 0, "fusion_lon": 0.0, "fusion_lat": 0.0, "lat": 38.90569966666666, "type": "electric_scooter", "lon": -77.00580566666666, "bike_id": "2e0c0bb385a0c2675c5595894d3b589a", "rental_uris": {"android": "https://dc.lft.to/lastmile_qr_scan", "ios": "https://dc.lft.to/lastmile_qr_scan"}, "name": "2e0c0bb385a0c2675c5595894d3b589a", "is_reserved": 0}, {"is_disabled": 0, "fusion_lon": 0.0, "fusion_lat": 0.0, "lat": 38.9241905, "type": "electric_scooter", "lon": -77.04157666666667, "bike_id": "2b64b19f7800fa5c5836783f2832e6b1", "rental_uris": {"android": "https://dc.lft.to/lastmile_qr_scan", "ios": "https://dc.lft.to/lastmile_qr_scan"}, "name": "2b64b19f7800fa5c5836783f2832e6b1", "is_reserved": 0}, {"is_disabled": 0, "fusion_lon": 0.0, "fusion_lat": 0.0, "lat": 38.9072145, "type": "electric_scooter", "lon": -77.03859583333333, "bike_id": "4623eff08191b3e69a68b02ba9943f6e", "rental_uris": {"android": "https://dc.lft.to/lastmile_qr_scan", "ios": "https://dc.lft.to/lastmile_qr_scan"}, "name": "4623eff08191b3e69a68b02ba9943f6e", "is_reserved": 0}, {"is_disabled": 0, "fusion_lon": 0.0, "fusion_lat": 0.0, "lat": 38.9376735, "type": "electric_scooter", "lon": -77.0308665, "bike_id": "0d766c233ea657d2419762e6f427316c", "rental_uris": {"android": "https://dc.lft.to/lastmile_qr_scan", "ios": "https://dc.lft.to/lastmile_qr_scan"}, "name": "0d766c233ea657d2419762e6f427316c", "is_reserved": 0}, {"is_disabled": 0, "fusion_lon": 0.0, "fusion_lat": 0.0, "lat": 38.92996633333333, "type": "electric_scooter", "lon": -77.0781895, "bike_id": "bb0781006dd7e75358d3cc3d49001d9c", "rental_uris": {"android": "https://dc.lft.to/lastmile_qr_scan", "ios": "https://dc.lft.to/lastmile_qr_scan"}, "name": "bb0781006dd7e75358d3cc3d49001d9c", "is_reserved": 0}, {"is_disabled": 0, "fusion_lon": 0.0, "fusion_lat": 0.0, "lat": 38.903648833333335, "type": "electric_scooter", "lon": -77.0502815, "bike_id": "a74b3cef2afc557c217ffaef6daceef4", "rental_uris": {"android": "https://dc.lft.to/lastmile_qr_scan", "ios": "https://dc.lft.to/lastmile_qr_scan"}, "name": "a74b3cef2afc557c217ffaef6daceef4", "is_reserved": 0}, {"is_disabled": 0, "fusion_lon": 0.0, "fusion_lat": 0.0, "lat": 38.9282475, "type": "electric_scooter", "lon": -77.05436683333333, "bike_id": "9bc91e80329351fbca955911adf89c11", "rental_uris": {"android": "https://dc.lft.to/lastmile_qr_scan", "ios": "https://dc.lft.to/lastmile_qr_scan"}, "name": "9bc91e80329351fbca955911adf89c11", "is_reserved": 0}, {"is_disabled": 0, "fusion_lon": 0.0, "fusion_lat": 0.0, "lat": 38.90854683333333, "type": "electric_scooter", "lon": -77.07155716666666, "bike_id": "843475e6ea9e2c9831c6b92b1c4edeab", "rental_uris": {"android": "https://dc.lft.to/lastmile_qr_scan", "ios": "https://dc.lft.to/lastmile_qr_scan"}, "name": "843475e6ea9e2c9831c6b92b1c4edeab", "is_reserved": 0}, {"is_disabled": 0, "fusion_lon": 0.0, "fusion_lat": 0.0, "lat": 38.976778833333334, "type": "electric_bike", "lon": -76.9717125, "bike_id": "9a7c8a3da2babe9add8877d8b4e3ba41", "rental_uris": {"android": "https://dc.lft.to/lastmile_qr_scan", "ios": "https://dc.lft.to/lastmile_qr_scan"}, "name": "9a7c8a3da2babe9add8877d8b4e3ba41", "is_reserved": 0}, {"is_disabled": 0, "fusion_lon": 0.0, "fusion_lat": 0.0, "lat": 38.917960666666666, "type": "electric_scooter", "lon": -77.04013966666666, "bike_id": "60686c6eadab37ffba0a59347192a9e5", "rental_uris": {"android": "https://dc.lft.to/lastmile_qr_scan", "ios": "https://dc.lft.to/lastmile_qr_scan"}, "name": "60686c6eadab37ffba0a59347192a9e5", "is_reserved": 0}, {"is_disabled": 0, "fusion_lon": 0.0, "fusion_lat": 0.0, "lat": 38.89241616666666, "type": "electric_bike", "lon": -76.952224, "bike_id": "29c6b352c15f9dd34a2414a76ac518c5", "rental_uris": {"android": "https://dc.lft.to/lastmile_qr_scan", "ios": "https://dc.lft.to/lastmile_qr_scan"}, "name": "29c6b352c15f9dd34a2414a76ac518c5", "is_reserved": 0}, {"is_disabled": 0, "fusion_lon": 0.0, "fusion_lat": 0.0, "lat": 38.925946333333336, "type": "electric_bike", "lon": -76.88909066666666, "bike_id": "f14e6eff193277c1394ee168b5c83baf", "rental_uris": {"android": "https://dc.lft.to/lastmile_qr_scan", "ios": "https://dc.lft.to/lastmile_qr_scan"}, "name": "f14e6eff193277c1394ee168b5c83baf", "is_reserved": 0}, {"is_disabled": 0, "fusion_lon": 0.0, "fusion_lat": 0.0, "lat": 38.918146, "type": "electric_scooter", "lon": -77.02476533333333, "bike_id": "19074b962c3064ed7bfe5808edaebd74", "rental_uris": {"android": "https://dc.lft.to/lastmile_qr_scan", "ios": "https://dc.lft.to/lastmile_qr_scan"}, "name": "19074b962c3064ed7bfe5808edaebd74", "is_reserved": 0}, {"is_disabled": 0, "fusion_lon": 0.0, "fusion_lat": 0.0, "lat": 38.882654, "type": "electric_scooter", "lon": -76.985435, "bike_id": "446af9a25be20b258bd0e9f4b52089b2", "rental_uris": {"android": "https://dc.lft.to/lastmile_qr_scan", "ios": "https://dc.lft.to/lastmile_qr_scan"}, "name": "446af9a25be20b258bd0e9f4b52089b2", "is_reserved": 0}, {"is_disabled": 0, "fusion_lon": 0.0, "fusion_lat": 0.0, "lat": 38.828698833333334, "type": "electric_bike", "lon": -77.11224266666666, "bike_id": "0d69c42753d737af6ce6b393a70a975a", "rental_uris": {"android": "https://dc.lft.to/lastmile_qr_scan", "ios": "https://dc.lft.to/lastmile_qr_scan"}, "name": "0d69c42753d737af6ce6b393a70a975a", "is_reserved": 0}, {"is_disabled": 0, "fusion_lon": 0.0, "fusion_lat": 0.0, "lat": 38.921252333333335, "type": "electric_scooter", "lon": -77.04431033333333, "bike_id": "ae086c5b53c4ed878de8864d057c9e27", "rental_uris": {"android": "https://dc.lft.to/lastmile_qr_scan", "ios": "https://dc.lft.to/lastmile_qr_scan"}, "name": "ae086c5b53c4ed878de8864d057c9e27", "is_reserved": 0}, {"is_disabled": 0, "fusion_lon": 0.0, "fusion_lat": 0.0, "lat": 38.83322316666667, "type": "electric_scooter", "lon": -77.00009616666667, "bike_id": "42a7c348416f2737bfdf3958acdcedc4", "rental_uris": {"android": "https://dc.lft.to/lastmile_qr_scan", "ios": "https://dc.lft.to/lastmile_qr_scan"}, "name": "42a7c348416f2737bfdf3958acdcedc4", "is_reserved": 0}, {"is_disabled": 0, "fusion_lon": 0.0, "fusion_lat": 0.0, "lat": 38.9554615, "type": "electric_bike", "lon": -76.9353295, "bike_id": "aacc3f333639a7fd0d7297dc694388b5", "rental_uris": {"android": "https://dc.lft.to/lastmile_qr_scan", "ios": "https://dc.lft.to/lastmile_qr_scan"}, "name": "aacc3f333639a7fd0d7297dc694388b5", "is_reserved": 0}, {"is_disabled": 0, "fusion_lon": 0.0, "fusion_lat": 0.0, "lat": 38.913410999999996, "type": "electric_scooter", "lon": -77.0486575, "bike_id": "aefc62e9f762b0f0924884f4fdd7b7dc", "rental_uris": {"android": "https://dc.lft.to/lastmile_qr_scan", "ios": "https://dc.lft.to/lastmile_qr_scan"}, "name": "aefc62e9f762b0f0924884f4fdd7b7dc", "is_reserved": 0}, {"is_disabled": 0, "fusion_lon": 0.0, "fusion_lat": 0.0, "lat": 38.83193466666667, "type": "electric_bike", "lon": -77.0768515, "bike_id": "ad4e38ac8453e520d2b4b05935f9725c", "rental_uris": {"android": "https://dc.lft.to/lastmile_qr_scan", "ios": "https://dc.lft.to/lastmile_qr_scan"}, "name": "ad4e38ac8453e520d2b4b05935f9725c", "is_reserved": 0}, {"is_disabled": 0, "fusion_lon": 0.0, "fusion_lat": 0.0, "lat": 38.9153775, "type": "electric_scooter", "lon": -77.03796266666667, "bike_id": "ea827efa724a0a26ad5620be4bf4ebdb", "rental_uris": {"android": "https://dc.lft.to/lastmile_qr_scan", "ios": "https://dc.lft.to/lastmile_qr_scan"}, "name": "ea827efa724a0a26ad5620be4bf4ebdb", "is_reserved": 0}, {"is_disabled": 0, "fusion_lon": 0.0, "fusion_lat": 0.0, "lat": 38.95176283333333, "type": "electric_scooter", "lon": -77.056555, "bike_id": "e4f5d0602e625d2cccc2232af1298904", "rental_uris": {"android": "https://dc.lft.to/lastmile_qr_scan", "ios": "https://dc.lft.to/lastmile_qr_scan"}, "name": "e4f5d0602e625d2cccc2232af1298904", "is_reserved": 0}, {"is_disabled": 0, "fusion_lon": 0.0, "fusion_lat": 0.0, "lat": 38.905375166666666, "type": "electric_scooter", "lon": -77.048765, "bike_id": "e48270eae7705d850985fda33d1c5234", "rental_uris": {"android": "https://dc.lft.to/lastmile_qr_scan", "ios": "https://dc.lft.to/lastmile_qr_scan"}, "name": "e48270eae7705d850985fda33d1c5234", "is_reserved": 0}, {"is_disabled": 0, "fusion_lon": 0.0, "fusion_lat": 0.0, "lat": 38.861246333333334, "type": "electric_scooter", "lon": -76.9852725, "bike_id": "ae672ae8157f0eb27f1fceb3ecfc0e8d", "rental_uris": {"android": "https://dc.lft.to/lastmile_qr_scan", "ios": "https://dc.lft.to/lastmile_qr_scan"}, "name": "ae672ae8157f0eb27f1fceb3ecfc0e8d", "is_reserved": 0}, {"is_disabled": 0, "fusion_lon": 0.0, "fusion_lat": 0.0, "lat": 38.91185266666667, "type": "electric_scooter", "lon": -77.035054, "bike_id": "a9106d10e2c54372579efef958c2391b", "rental_uris": {"android": "https://dc.lft.to/lastmile_qr_scan", "ios": "https://dc.lft.to/lastmile_qr_scan"}, "name": "a9106d10e2c54372579efef958c2391b", "is_reserved": 0}, {"is_disabled": 0, "fusion_lon": 0.0, "fusion_lat": 0.0, "lat": 38.936264, "type": "electric_scooter", "lon": -77.05906616666667, "bike_id": "c4b725a3a3aca0208ec36b7dfda27785", "rental_uris": {"android": "https://dc.lft.to/lastmile_qr_scan", "ios": "https://dc.lft.to/lastmile_qr_scan"}, "name": "c4b725a3a3aca0208ec36b7dfda27785", "is_reserved": 0}, {"is_disabled": 0, "fusion_lon": 0.0, "fusion_lat": 0.0, "lat": 38.896843, "type": "electric_scooter", "lon": -76.99792833333333, "bike_id": "325c980a379ca8c1f04412601b2f28b4", "rental_uris": {"android": "https://dc.lft.to/lastmile_qr_scan", "ios": "https://dc.lft.to/lastmile_qr_scan"}, "name": "325c980a379ca8c1f04412601b2f28b4", "is_reserved": 0}, {"is_disabled": 0, "fusion_lon": 0.0, "fusion_lat": 0.0, "lat": 38.928426, "type": "electric_scooter", "lon": -77.01394283333333, "bike_id": "822b6772a0310c10d9aab97bd7a300b8", "rental_uris": {"android": "https://dc.lft.to/lastmile_qr_scan", "ios": "https://dc.lft.to/lastmile_qr_scan"}, "name": "822b6772a0310c10d9aab97bd7a300b8", "is_reserved": 0}, {"is_disabled": 0, "fusion_lon": 0.0, "fusion_lat": 0.0, "lat": 38.90158266666667, "type": "electric_scooter", "lon": -77.0295935, "bike_id": "0b9f015e1267be34cdcea6267e227070", "rental_uris": {"android": "https://dc.lft.to/lastmile_qr_scan", "ios": "https://dc.lft.to/lastmile_qr_scan"}, "name": "0b9f015e1267be34cdcea6267e227070", "is_reserved": 0}, {"is_disabled": 0, "fusion_lon": 0.0, "fusion_lat": 0.0, "lat": 38.934736666666666, "type": "electric_scooter", "lon": -77.0721945, "bike_id": "6d4582074bf518bbfd19c3b0da1f3acb", "rental_uris": {"android": "https://dc.lft.to/lastmile_qr_scan", "ios": "https://dc.lft.to/lastmile_qr_scan"}, "name": "6d4582074bf518bbfd19c3b0da1f3acb", "is_reserved": 0}, {"is_disabled": 0, "fusion_lon": 0.0, "fusion_lat": 0.0, "lat": 38.92705266666667, "type": "electric_scooter", "lon": -77.02333483333334, "bike_id": "bbe8fd479e81bf3db1380546bd243f9f", "rental_uris": {"android": "https://dc.lft.to/lastmile_qr_scan", "ios": "https://dc.lft.to/lastmile_qr_scan"}, "name": "bbe8fd479e81bf3db1380546bd243f9f", "is_reserved": 0}, {"is_disabled": 0, "fusion_lon": 0.0, "fusion_lat": 0.0, "lat": 38.90047, "type": "electric_scooter", "lon": -76.92268833333333, "bike_id": "27bf6d0eb55e24e6b966455aa63b456a", "rental_uris": {"android": "https://dc.lft.to/lastmile_qr_scan", "ios": "https://dc.lft.to/lastmile_qr_scan"}, "name": "27bf6d0eb55e24e6b966455aa63b456a", "is_reserved": 0}, {"is_disabled": 0, "fusion_lon": 0.0, "fusion_lat": 0.0, "lat": 38.927304, "type": "electric_scooter", "lon": -77.02247683333333, "bike_id": "a550763dbf4c402e24cc8ebeb537c502", "rental_uris": {"android": "https://dc.lft.to/lastmile_qr_scan", "ios": "https://dc.lft.to/lastmile_qr_scan"}, "name": "a550763dbf4c402e24cc8ebeb537c502", "is_reserved": 0}, {"is_disabled": 0, "fusion_lon": 0.0, "fusion_lat": 0.0, "lat": 38.93665, "type": "electric_scooter", "lon": -77.024026, "bike_id": "293fc8ff81895a0126aea83c500c6942", "rental_uris": {"android": "https://dc.lft.to/lastmile_qr_scan", "ios": "https://dc.lft.to/lastmile_qr_scan"}, "name": "293fc8ff81895a0126aea83c500c6942", "is_reserved": 0}, {"is_disabled": 0, "fusion_lon": 0.0, "fusion_lat": 0.0, "lat": 38.89374866666667, "type": "electric_scooter", "lon": -76.9499925, "bike_id": "5464a50db4d19e744b87f6a47faeafcd", "rental_uris": {"android": "https://dc.lft.to/lastmile_qr_scan", "ios": "https://dc.lft.to/lastmile_qr_scan"}, "name": "5464a50db4d19e744b87f6a47faeafcd", "is_reserved": 0}, {"is_disabled": 0, "fusion_lon": 0.0, "fusion_lat": 0.0, "lat": 38.9118455, "type": "electric_scooter", "lon": -77.00452883333334, "bike_id": "6480a53edc0789f84bc3407428701471", "rental_uris": {"android": "https://dc.lft.to/lastmile_qr_scan", "ios": "https://dc.lft.to/lastmile_qr_scan"}, "name": "6480a53edc0789f84bc3407428701471", "is_reserved": 0}, {"is_disabled": 0, "fusion_lon": 0.0, "fusion_lat": 0.0, "lat": 38.900385, "type": "electric_scooter", "lon": -77.00191183333334, "bike_id": "800c18a945e01d182316e743aac9c6ef", "rental_uris": {"android": "https://dc.lft.to/lastmile_qr_scan", "ios": "https://dc.lft.to/lastmile_qr_scan"}, "name": "800c18a945e01d182316e743aac9c6ef", "is_reserved": 0}, {"is_disabled": 0, "fusion_lon": 0.0, "fusion_lat": 0.0, "lat": 38.9353955, "type": "electric_scooter", "lon": -77.03423983333333, "bike_id": "72283291c30b85a019b77f46b63bd818", "rental_uris": {"android": "https://dc.lft.to/lastmile_qr_scan", "ios": "https://dc.lft.to/lastmile_qr_scan"}, "name": "72283291c30b85a019b77f46b63bd818", "is_reserved": 0}, {"is_disabled": 0, "fusion_lon": 0.0, "fusion_lat": 0.0, "lat": 38.889973499999996, "type": "electric_scooter", "lon": -77.015058, "bike_id": "a5ed8451090711fc6ee7e99c3d866fb6", "rental_uris": {"android": "https://dc.lft.to/lastmile_qr_scan", "ios": "https://dc.lft.to/lastmile_qr_scan"}, "name": "a5ed8451090711fc6ee7e99c3d866fb6", "is_reserved": 0}, {"is_disabled": 0, "fusion_lon": 0.0, "fusion_lat": 0.0, "lat": 38.892200833333334, "type": "electric_scooter", "lon": -77.02257783333333, "bike_id": "21180d429aacc13bb83e6f8f3d40d62e", "rental_uris": {"android": "https://dc.lft.to/lastmile_qr_scan", "ios": "https://dc.lft.to/lastmile_qr_scan"}, "name": "21180d429aacc13bb83e6f8f3d40d62e", "is_reserved": 0}, {"is_disabled": 0, "fusion_lon": 0.0, "fusion_lat": 0.0, "lat": 38.919380833333335, "type": "electric_scooter", "lon": -77.03031683333333, "bike_id": "4dfdb34baa0ff8fb4fa7e5bbfe44e064", "rental_uris": {"android": "https://dc.lft.to/lastmile_qr_scan", "ios": "https://dc.lft.to/lastmile_qr_scan"}, "name": "4dfdb34baa0ff8fb4fa7e5bbfe44e064", "is_reserved": 0}, {"is_disabled": 0, "fusion_lon": 0.0, "fusion_lat": 0.0, "lat": 38.92288533333333, "type": "electric_scooter", "lon": -77.02350633333333, "bike_id": "44ee4848e81257d22a1dab0f51e85f2a", "rental_uris": {"android": "https://dc.lft.to/lastmile_qr_scan", "ios": "https://dc.lft.to/lastmile_qr_scan"}, "name": "44ee4848e81257d22a1dab0f51e85f2a", "is_reserved": 0}, {"is_disabled": 0, "fusion_lon": 0.0, "fusion_lat": 0.0, "lat": 38.94982066666667, "type": "electric_scooter", "lon": -77.0270515, "bike_id": "02a3371afebdd74a9c61e0b9393c9161", "rental_uris": {"android": "https://dc.lft.to/lastmile_qr_scan", "ios": "https://dc.lft.to/lastmile_qr_scan"}, "name": "02a3371afebdd74a9c61e0b9393c9161", "is_reserved": 0}, {"is_disabled": 0, "fusion_lon": 0.0, "fusion_lat": 0.0, "lat": 38.915312666666665, "type": "electric_scooter", "lon": -77.01845983333334, "bike_id": "59739f42f846f31430f0b3e69fca8c71", "rental_uris": {"android": "https://dc.lft.to/lastmile_qr_scan", "ios": "https://dc.lft.to/lastmile_qr_scan"}, "name": "59739f42f846f31430f0b3e69fca8c71", "is_reserved": 0}, {"is_disabled": 0, "fusion_lon": 0.0, "fusion_lat": 0.0, "lat": 38.89546383333333, "type": "electric_scooter", "lon": -77.010795, "bike_id": "bffcb49f4928eef34bbd822b3c14fed6", "rental_uris": {"android": "https://dc.lft.to/lastmile_qr_scan", "ios": "https://dc.lft.to/lastmile_qr_scan"}, "name": "bffcb49f4928eef34bbd822b3c14fed6", "is_reserved": 0}, {"is_disabled": 0, "fusion_lon": 0.0, "fusion_lat": 0.0, "lat": 38.900354666666665, "type": "electric_scooter", "lon": -77.01227133333333, "bike_id": "be097904d327eb4329dd22c0d8bd6420", "rental_uris": {"android": "https://dc.lft.to/lastmile_qr_scan", "ios": "https://dc.lft.to/lastmile_qr_scan"}, "name": "be097904d327eb4329dd22c0d8bd6420", "is_reserved": 0}, {"is_disabled": 0, "fusion_lon": 0.0, "fusion_lat": 0.0, "lat": 38.912538166666664, "type": "electric_scooter", "lon": -77.0093335, "bike_id": "390ad35785d712eaa45c4e6de0a8a570", "rental_uris": {"android": "https://dc.lft.to/lastmile_qr_scan", "ios": "https://dc.lft.to/lastmile_qr_scan"}, "name": "390ad35785d712eaa45c4e6de0a8a570", "is_reserved": 0}, {"is_disabled": 0, "fusion_lon": 0.0, "fusion_lat": 0.0, "lat": 38.911312333333335, "type": "electric_scooter", "lon": -77.042123, "bike_id": "a6bab10fccce9757e1d8034bfce3c525", "rental_uris": {"android": "https://dc.lft.to/lastmile_qr_scan", "ios": "https://dc.lft.to/lastmile_qr_scan"}, "name": "a6bab10fccce9757e1d8034bfce3c525", "is_reserved": 0}, {"is_disabled": 0, "fusion_lon": 0.0, "fusion_lat": 0.0, "lat": 38.898444166666664, "type": "electric_scooter", "lon": -76.94633933333333, "bike_id": "8a2ede209fbf218953ccfb4691c8a78e", "rental_uris": {"android": "https://dc.lft.to/lastmile_qr_scan", "ios": "https://dc.lft.to/lastmile_qr_scan"}, "name": "8a2ede209fbf218953ccfb4691c8a78e", "is_reserved": 0}, {"is_disabled": 0, "fusion_lon": 0.0, "fusion_lat": 0.0, "lat": 38.90309833333333, "type": "electric_scooter", "lon": -76.98248266666667, "bike_id": "34c3d96f946265bb85e8c82da2eb35ff", "rental_uris": {"android": "https://dc.lft.to/lastmile_qr_scan", "ios": "https://dc.lft.to/lastmile_qr_scan"}, "name": "34c3d96f946265bb85e8c82da2eb35ff", "is_reserved": 0}, {"is_disabled": 0, "fusion_lon": 0.0, "fusion_lat": 0.0, "lat": 38.87339633333333, "type": "electric_bike", "lon": -77.0185545, "bike_id": "e7fbf7b096c76cf45b47f68b86907c69", "rental_uris": {"android": "https://dc.lft.to/lastmile_qr_scan", "ios": "https://dc.lft.to/lastmile_qr_scan"}, "name": "e7fbf7b096c76cf45b47f68b86907c69", "is_reserved": 0}, {"is_disabled": 0, "fusion_lon": 0.0, "fusion_lat": 0.0, "lat": 38.9078935, "type": "electric_scooter", "lon": -77.04108283333333, "bike_id": "bf98c83f53491b19eccacfcd6a78a21e", "rental_uris": {"android": "https://dc.lft.to/lastmile_qr_scan", "ios": "https://dc.lft.to/lastmile_qr_scan"}, "name": "bf98c83f53491b19eccacfcd6a78a21e", "is_reserved": 0}, {"is_disabled": 0, "fusion_lon": 0.0, "fusion_lat": 0.0, "lat": 38.950898333333335, "type": "electric_bike", "lon": -76.965628, "bike_id": "70c2292fccf3bd422800f92f584d1845", "rental_uris": {"android": "https://dc.lft.to/lastmile_qr_scan", "ios": "https://dc.lft.to/lastmile_qr_scan"}, "name": "70c2292fccf3bd422800f92f584d1845", "is_reserved": 0}, {"is_disabled": 0, "fusion_lon": 0.0, "fusion_lat": 0.0, "lat": 38.89297116666667, "type": "electric_scooter", "lon": -77.02137833333333, "bike_id": "ef6b225b4dcd0e88ba052958b6277cb4", "rental_uris": {"android": "https://dc.lft.to/lastmile_qr_scan", "ios": "https://dc.lft.to/lastmile_qr_scan"}, "name": "ef6b225b4dcd0e88ba052958b6277cb4", "is_reserved": 0}, {"is_disabled": 0, "fusion_lon": 0.0, "fusion_lat": 0.0, "lat": 38.94983033333333, "type": "electric_scooter", "lon": -77.02705033333334, "bike_id": "4fecfc51e9e31fd886eaed0d5c9d067a", "rental_uris": {"android": "https://dc.lft.to/lastmile_qr_scan", "ios": "https://dc.lft.to/lastmile_qr_scan"}, "name": "4fecfc51e9e31fd886eaed0d5c9d067a", "is_reserved": 0}, {"is_disabled": 0, "fusion_lon": 0.0, "fusion_lat": 0.0, "lat": 38.85809483333333, "type": "electric_scooter", "lon": -76.9896455, "bike_id": "80863f7f8ae585653a84b34e07aeee3c", "rental_uris": {"android": "https://dc.lft.to/lastmile_qr_scan", "ios": "https://dc.lft.to/lastmile_qr_scan"}, "name": "80863f7f8ae585653a84b34e07aeee3c", "is_reserved": 0}, {"is_disabled": 0, "fusion_lon": 0.0, "fusion_lat": 0.0, "lat": 38.918021333333336, "type": "electric_scooter", "lon": -77.04030716666666, "bike_id": "ea8085b95079541d7b1516f36b9cbbc2", "rental_uris": {"android": "https://dc.lft.to/lastmile_qr_scan", "ios": "https://dc.lft.to/lastmile_qr_scan"}, "name": "ea8085b95079541d7b1516f36b9cbbc2", "is_reserved": 0}, {"is_disabled": 0, "fusion_lon": 0.0, "fusion_lat": 0.0, "lat": 38.94281016666667, "type": "electric_scooter", "lon": -77.03634583333333, "bike_id": "2a83fa67869ba36f832e872cf94cdb13", "rental_uris": {"android": "https://dc.lft.to/lastmile_qr_scan", "ios": "https://dc.lft.to/lastmile_qr_scan"}, "name": "2a83fa67869ba36f832e872cf94cdb13", "is_reserved": 0}, {"is_disabled": 0, "fusion_lon": 0.0, "fusion_lat": 0.0, "lat": 38.91702816666667, "type": "electric_scooter", "lon": -77.02855116666667, "bike_id": "eea01ff823add39932d3db98403d6a65", "rental_uris": {"android": "https://dc.lft.to/lastmile_qr_scan", "ios": "https://dc.lft.to/lastmile_qr_scan"}, "name": "eea01ff823add39932d3db98403d6a65", "is_reserved": 0}, {"is_disabled": 0, "fusion_lon": 0.0, "fusion_lat": 0.0, "lat": 38.96225466666667, "type": "electric_scooter", "lon": -77.02810116666667, "bike_id": "ef927b679b097b95d22c9f14a0611124", "rental_uris": {"android": "https://dc.lft.to/lastmile_qr_scan", "ios": "https://dc.lft.to/lastmile_qr_scan"}, "name": "ef927b679b097b95d22c9f14a0611124", "is_reserved": 0}, {"is_disabled": 0, "fusion_lon": 0.0, "fusion_lat": 0.0, "lat": 38.894910833333334, "type": "electric_scooter", "lon": -76.9952345, "bike_id": "77b3767d404fcc546acf077c80aa2cbb", "rental_uris": {"android": "https://dc.lft.to/lastmile_qr_scan", "ios": "https://dc.lft.to/lastmile_qr_scan"}, "name": "77b3767d404fcc546acf077c80aa2cbb", "is_reserved": 0}, {"is_disabled": 0, "fusion_lon": 0.0, "fusion_lat": 0.0, "lat": 38.865233333333336, "type": "electric_scooter", "lon": -76.973382, "bike_id": "7e3de73cb3835ccad02e7c9563e1f68f", "rental_uris": {"android": "https://dc.lft.to/lastmile_qr_scan", "ios": "https://dc.lft.to/lastmile_qr_scan"}, "name": "7e3de73cb3835ccad02e7c9563e1f68f", "is_reserved": 0}, {"is_disabled": 0, "fusion_lon": 0.0, "fusion_lat": 0.0, "lat": 38.92107416666666, "type": "electric_scooter", "lon": -77.01777583333333, "bike_id": "2641c6507eb7f273b2f9bdbc7c672ff4", "rental_uris": {"android": "https://dc.lft.to/lastmile_qr_scan", "ios": "https://dc.lft.to/lastmile_qr_scan"}, "name": "2641c6507eb7f273b2f9bdbc7c672ff4", "is_reserved": 0}, {"is_disabled": 0, "fusion_lon": 0.0, "fusion_lat": 0.0, "lat": 38.926817666666665, "type": "electric_scooter", "lon": -77.02692816666666, "bike_id": "09ed8a10ec92cff9c757ba2143f66e65", "rental_uris": {"android": "https://dc.lft.to/lastmile_qr_scan", "ios": "https://dc.lft.to/lastmile_qr_scan"}, "name": "09ed8a10ec92cff9c757ba2143f66e65", "is_reserved": 0}, {"is_disabled": 0, "fusion_lon": 0.0, "fusion_lat": 0.0, "lat": 38.905324666666665, "type": "electric_scooter", "lon": -77.05035416666666, "bike_id": "5617166e20b3707974662963ac1c8497", "rental_uris": {"android": "https://dc.lft.to/lastmile_qr_scan", "ios": "https://dc.lft.to/lastmile_qr_scan"}, "name": "5617166e20b3707974662963ac1c8497", "is_reserved": 0}, {"is_disabled": 0, "fusion_lon": 0.0, "fusion_lat": 0.0, "lat": 38.961426, "type": "electric_scooter", "lon": -77.02804033333334, "bike_id": "2251528aa4da02df8cf4ee27d1e12443", "rental_uris": {"android": "https://dc.lft.to/lastmile_qr_scan", "ios": "https://dc.lft.to/lastmile_qr_scan"}, "name": "2251528aa4da02df8cf4ee27d1e12443", "is_reserved": 0}, {"is_disabled": 0, "fusion_lon": 0.0, "fusion_lat": 0.0, "lat": 38.912714666666666, "type": "electric_scooter", "lon": -77.0222485, "bike_id": "3d6dd45ce589152656ad30c01844fc95", "rental_uris": {"android": "https://dc.lft.to/lastmile_qr_scan", "ios": "https://dc.lft.to/lastmile_qr_scan"}, "name": "3d6dd45ce589152656ad30c01844fc95", "is_reserved": 0}, {"is_disabled": 0, "fusion_lon": 0.0, "fusion_lat": 0.0, "lat": 38.88592233333333, "type": "electric_scooter", "lon": -77.02175533333333, "bike_id": "ec24173829ceaea07933374ca8f1b48d", "rental_uris": {"android": "https://dc.lft.to/lastmile_qr_scan", "ios": "https://dc.lft.to/lastmile_qr_scan"}, "name": "ec24173829ceaea07933374ca8f1b48d", "is_reserved": 0}, {"is_disabled": 0, "fusion_lon": 0.0, "fusion_lat": 0.0, "lat": 38.90561483333333, "type": "electric_scooter", "lon": -77.0341495, "bike_id": "1e232d97ea424788baa882d58097ba79", "rental_uris": {"android": "https://dc.lft.to/lastmile_qr_scan", "ios": "https://dc.lft.to/lastmile_qr_scan"}, "name": "1e232d97ea424788baa882d58097ba79", "is_reserved": 0}, {"is_disabled": 0, "fusion_lon": 0.0, "fusion_lat": 0.0, "lat": 38.89189616666667, "type": "electric_scooter", "lon": -76.9883185, "bike_id": "a9cdef73d7dcb2a0129f72a35266f8cc", "rental_uris": {"android": "https://dc.lft.to/lastmile_qr_scan", "ios": "https://dc.lft.to/lastmile_qr_scan"}, "name": "a9cdef73d7dcb2a0129f72a35266f8cc", "is_reserved": 0}, {"is_disabled": 0, "fusion_lon": 0.0, "fusion_lat": 0.0, "lat": 38.899988, "type": "electric_scooter", "lon": -77.02609316666667, "bike_id": "bebe0113b97274761b0f884c481858c9", "rental_uris": {"android": "https://dc.lft.to/lastmile_qr_scan", "ios": "https://dc.lft.to/lastmile_qr_scan"}, "name": "bebe0113b97274761b0f884c481858c9", "is_reserved": 0}, {"is_disabled": 0, "fusion_lon": 0.0, "fusion_lat": 0.0, "lat": 38.90426566666667, "type": "electric_scooter", "lon": -77.02394083333333, "bike_id": "9d5048d30c70af85e499e8327ecac3b2", "rental_uris": {"android": "https://dc.lft.to/lastmile_qr_scan", "ios": "https://dc.lft.to/lastmile_qr_scan"}, "name": "9d5048d30c70af85e499e8327ecac3b2", "is_reserved": 0}, {"is_disabled": 0, "fusion_lon": 0.0, "fusion_lat": 0.0, "lat": 38.91333266666667, "type": "electric_scooter", "lon": -77.03249616666666, "bike_id": "710e93195a442d2730fe7c300393f68b", "rental_uris": {"android": "https://dc.lft.to/lastmile_qr_scan", "ios": "https://dc.lft.to/lastmile_qr_scan"}, "name": "710e93195a442d2730fe7c300393f68b", "is_reserved": 0}, {"is_disabled": 0, "fusion_lon": 0.0, "fusion_lat": 0.0, "lat": 38.934967666666665, "type": "electric_scooter", "lon": -77.02418866666666, "bike_id": "d0e96849ae86aa5b7847dd59905cb55a", "rental_uris": {"android": "https://dc.lft.to/lastmile_qr_scan", "ios": "https://dc.lft.to/lastmile_qr_scan"}, "name": "d0e96849ae86aa5b7847dd59905cb55a", "is_reserved": 0}, {"is_disabled": 0, "fusion_lon": 0.0, "fusion_lat": 0.0, "lat": 38.90821283333333, "type": "electric_scooter", "lon": -77.04160016666667, "bike_id": "dbf856812442238d5641074789bce6fb", "rental_uris": {"android": "https://dc.lft.to/lastmile_qr_scan", "ios": "https://dc.lft.to/lastmile_qr_scan"}, "name": "dbf856812442238d5641074789bce6fb", "is_reserved": 0}, {"is_disabled": 0, "fusion_lon": 0.0, "fusion_lat": 0.0, "lat": 38.9192515, "type": "electric_scooter", "lon": -77.03421933333334, "bike_id": "14a9e0a2fbb1eeeaaf67b57f7ac5d087", "rental_uris": {"android": "https://dc.lft.to/lastmile_qr_scan", "ios": "https://dc.lft.to/lastmile_qr_scan"}, "name": "14a9e0a2fbb1eeeaaf67b57f7ac5d087", "is_reserved": 0}, {"is_disabled": 0, "fusion_lon": 0.0, "fusion_lat": 0.0, "lat": 38.92104966666667, "type": "electric_scooter", "lon": -77.0305365, "bike_id": "57d53ea75a8b3387bae831b57e99e7ed", "rental_uris": {"android": "https://dc.lft.to/lastmile_qr_scan", "ios": "https://dc.lft.to/lastmile_qr_scan"}, "name": "57d53ea75a8b3387bae831b57e99e7ed", "is_reserved": 0}, {"is_disabled": 0, "fusion_lon": 0.0, "fusion_lat": 0.0, "lat": 38.897255, "type": "electric_scooter", "lon": -77.009344, "bike_id": "ca3e6b3d9db9e7008cad84d561ff78b8", "rental_uris": {"android": "https://dc.lft.to/lastmile_qr_scan", "ios": "https://dc.lft.to/lastmile_qr_scan"}, "name": "ca3e6b3d9db9e7008cad84d561ff78b8", "is_reserved": 0}, {"is_disabled": 0, "fusion_lon": 0.0, "fusion_lat": 0.0, "lat": 38.9412875, "type": "electric_scooter", "lon": -77.01826833333334, "bike_id": "99fc4070eb7edea6369c5b89c775eb51", "rental_uris": {"android": "https://dc.lft.to/lastmile_qr_scan", "ios": "https://dc.lft.to/lastmile_qr_scan"}, "name": "99fc4070eb7edea6369c5b89c775eb51", "is_reserved": 0}, {"is_disabled": 0, "fusion_lon": 0.0, "fusion_lat": 0.0, "lat": 38.928802, "type": "electric_scooter", "lon": -77.04132116666666, "bike_id": "1129e478b7651d5615a6977c76dc5a6a", "rental_uris": {"android": "https://dc.lft.to/lastmile_qr_scan", "ios": "https://dc.lft.to/lastmile_qr_scan"}, "name": "1129e478b7651d5615a6977c76dc5a6a", "is_reserved": 0}, {"is_disabled": 0, "fusion_lon": 0.0, "fusion_lat": 0.0, "lat": 38.931574, "type": "electric_scooter", "lon": -77.03450866666667, "bike_id": "6d88815109c4599582fe60b5bf31ce72", "rental_uris": {"android": "https://dc.lft.to/lastmile_qr_scan", "ios": "https://dc.lft.to/lastmile_qr_scan"}, "name": "6d88815109c4599582fe60b5bf31ce72", "is_reserved": 0}, {"is_disabled": 0, "fusion_lon": 0.0, "fusion_lat": 0.0, "lat": 38.890040166666665, "type": "electric_scooter", "lon": -77.04901216666667, "bike_id": "ae5aaf8de4ce7025f2e0736b2e5243e0", "rental_uris": {"android": "https://dc.lft.to/lastmile_qr_scan", "ios": "https://dc.lft.to/lastmile_qr_scan"}, "name": "ae5aaf8de4ce7025f2e0736b2e5243e0", "is_reserved": 0}, {"is_disabled": 0, "fusion_lon": 0.0, "fusion_lat": 0.0, "lat": 38.905521666666665, "type": "electric_scooter", "lon": -77.04180883333333, "bike_id": "53d2ea4381346acbc6e713850ffde948", "rental_uris": {"android": "https://dc.lft.to/lastmile_qr_scan", "ios": "https://dc.lft.to/lastmile_qr_scan"}, "name": "53d2ea4381346acbc6e713850ffde948", "is_reserved": 0}, {"is_disabled": 0, "fusion_lon": 0.0, "fusion_lat": 0.0, "lat": 38.911118, "type": "electric_scooter", "lon": -77.03832866666667, "bike_id": "acfa899550fffe419dbb3c6440ef0349", "rental_uris": {"android": "https://dc.lft.to/lastmile_qr_scan", "ios": "https://dc.lft.to/lastmile_qr_scan"}, "name": "acfa899550fffe419dbb3c6440ef0349", "is_reserved": 0}, {"is_disabled": 0, "fusion_lon": 0.0, "fusion_lat": 0.0, "lat": 38.900478666666665, "type": "electric_scooter", "lon": -77.01308866666666, "bike_id": "c445f2169b94ec7aabe60a09be8d1dcc", "rental_uris": {"android": "https://dc.lft.to/lastmile_qr_scan", "ios": "https://dc.lft.to/lastmile_qr_scan"}, "name": "c445f2169b94ec7aabe60a09be8d1dcc", "is_reserved": 0}, {"is_disabled": 0, "fusion_lon": 0.0, "fusion_lat": 0.0, "lat": 38.89474, "type": "electric_scooter", "lon": -76.93305416666666, "bike_id": "9db267d869b6a7747fe7b1b84bb62f43", "rental_uris": {"android": "https://dc.lft.to/lastmile_qr_scan", "ios": "https://dc.lft.to/lastmile_qr_scan"}, "name": "9db267d869b6a7747fe7b1b84bb62f43", "is_reserved": 0}, {"is_disabled": 0, "fusion_lon": 0.0, "fusion_lat": 0.0, "lat": 38.90970633333333, "type": "electric_scooter", "lon": -77.03273533333333, "bike_id": "565531da2594568948fe5be788e1e665", "rental_uris": {"android": "https://dc.lft.to/lastmile_qr_scan", "ios": "https://dc.lft.to/lastmile_qr_scan"}, "name": "565531da2594568948fe5be788e1e665", "is_reserved": 0}, {"is_disabled": 0, "fusion_lon": 0.0, "fusion_lat": 0.0, "lat": 38.93118166666667, "type": "electric_scooter", "lon": -77.019891, "bike_id": "fe340921ba85a570acc02c40495b1602", "rental_uris": {"android": "https://dc.lft.to/lastmile_qr_scan", "ios": "https://dc.lft.to/lastmile_qr_scan"}, "name": "fe340921ba85a570acc02c40495b1602", "is_reserved": 0}, {"is_disabled": 0, "fusion_lon": 0.0, "fusion_lat": 0.0, "lat": 38.9012445, "type": "electric_scooter", "lon": -77.030598, "bike_id": "63072f6c84aa7c7c2b2d203861cd89a6", "rental_uris": {"android": "https://dc.lft.to/lastmile_qr_scan", "ios": "https://dc.lft.to/lastmile_qr_scan"}, "name": "63072f6c84aa7c7c2b2d203861cd89a6", "is_reserved": 0}, {"is_disabled": 0, "fusion_lon": 0.0, "fusion_lat": 0.0, "lat": 38.91637883333333, "type": "electric_scooter", "lon": -77.03466733333333, "bike_id": "ad3fc2c86a8873c7723fa136c3c51b0d", "rental_uris": {"android": "https://dc.lft.to/lastmile_qr_scan", "ios": "https://dc.lft.to/lastmile_qr_scan"}, "name": "ad3fc2c86a8873c7723fa136c3c51b0d", "is_reserved": 0}, {"is_disabled": 0, "fusion_lon": 0.0, "fusion_lat": 0.0, "lat": 38.904736166666666, "type": "electric_scooter", "lon": -77.03801266666666, "bike_id": "a7f0491a0b24f56c6c4fff1b3e7d60e1", "rental_uris": {"android": "https://dc.lft.to/lastmile_qr_scan", "ios": "https://dc.lft.to/lastmile_qr_scan"}, "name": "a7f0491a0b24f56c6c4fff1b3e7d60e1", "is_reserved": 0}, {"is_disabled": 0, "fusion_lon": 0.0, "fusion_lat": 0.0, "lat": 38.88250683333333, "type": "electric_scooter", "lon": -77.00342883333333, "bike_id": "bbd41af64f50e326d9c18a1362ed33a4", "rental_uris": {"android": "https://dc.lft.to/lastmile_qr_scan", "ios": "https://dc.lft.to/lastmile_qr_scan"}, "name": "bbd41af64f50e326d9c18a1362ed33a4", "is_reserved": 0}, {"is_disabled": 0, "fusion_lon": 0.0, "fusion_lat": 0.0, "lat": 38.86849933333333, "type": "electric_bike", "lon": -77.09723466666667, "bike_id": "c314bd5b87d908a72b706e08c316c33f", "rental_uris": {"android": "https://dc.lft.to/lastmile_qr_scan", "ios": "https://dc.lft.to/lastmile_qr_scan"}, "name": "c314bd5b87d908a72b706e08c316c33f", "is_reserved": 0}, {"is_disabled": 0, "fusion_lon": 0.0, "fusion_lat": 0.0, "lat": 38.8954155, "type": "electric_scooter", "lon": -77.01076283333333, "bike_id": "1603644ff6e6c8e2e672332e464ca69e", "rental_uris": {"android": "https://dc.lft.to/lastmile_qr_scan", "ios": "https://dc.lft.to/lastmile_qr_scan"}, "name": "1603644ff6e6c8e2e672332e464ca69e", "is_reserved": 0}, {"is_disabled": 0, "fusion_lon": 0.0, "fusion_lat": 0.0, "lat": 38.918519333333336, "type": "electric_bike", "lon": -76.96090716666667, "bike_id": "a103d299111d34d4144a0fd4b0835b48", "rental_uris": {"android": "https://dc.lft.to/lastmile_qr_scan", "ios": "https://dc.lft.to/lastmile_qr_scan"}, "name": "a103d299111d34d4144a0fd4b0835b48", "is_reserved": 0}, {"is_disabled": 0, "fusion_lon": 0.0, "fusion_lat": 0.0, "lat": 38.833536333333335, "type": "electric_bike", "lon": -76.96562533333334, "bike_id": "e1b27d82de325fef9f736ba6504b6d6b", "rental_uris": {"android": "https://dc.lft.to/lastmile_qr_scan", "ios": "https://dc.lft.to/lastmile_qr_scan"}, "name": "e1b27d82de325fef9f736ba6504b6d6b", "is_reserved": 0}, {"is_disabled": 0, "fusion_lon": 0.0, "fusion_lat": 0.0, "lat": 38.930923666666665, "type": "electric_scooter", "lon": -77.0254935, "bike_id": "03d7e7c5ee709e9030254b35150368fa", "rental_uris": {"android": "https://dc.lft.to/lastmile_qr_scan", "ios": "https://dc.lft.to/lastmile_qr_scan"}, "name": "03d7e7c5ee709e9030254b35150368fa", "is_reserved": 0}, {"is_disabled": 0, "fusion_lon": 0.0, "fusion_lat": 0.0, "lat": 38.89054016666667, "type": "electric_scooter", "lon": -77.00135083333333, "bike_id": "13ea8a2b2fb05d92050baa52dc9e8fdb", "rental_uris": {"android": "https://dc.lft.to/lastmile_qr_scan", "ios": "https://dc.lft.to/lastmile_qr_scan"}, "name": "13ea8a2b2fb05d92050baa52dc9e8fdb", "is_reserved": 0}, {"is_disabled": 0, "fusion_lon": 0.0, "fusion_lat": 0.0, "lat": 38.87497533333333, "type": "electric_scooter", "lon": -76.997968, "bike_id": "265dca066e6d48120cfc1234edc031df", "rental_uris": {"android": "https://dc.lft.to/lastmile_qr_scan", "ios": "https://dc.lft.to/lastmile_qr_scan"}, "name": "265dca066e6d48120cfc1234edc031df", "is_reserved": 0}, {"is_disabled": 0, "fusion_lon": 0.0, "fusion_lat": 0.0, "lat": 38.907285, "type": "electric_scooter", "lon": -77.02418016666667, "bike_id": "f1796fb54c28931f2805e712088d698a", "rental_uris": {"android": "https://dc.lft.to/lastmile_qr_scan", "ios": "https://dc.lft.to/lastmile_qr_scan"}, "name": "f1796fb54c28931f2805e712088d698a", "is_reserved": 0}, {"is_disabled": 0, "fusion_lon": 0.0, "fusion_lat": 0.0, "lat": 38.919105333333334, "type": "electric_scooter", "lon": -77.04458783333334, "bike_id": "8ab3952678c24e908d564c36ddd4e1bd", "rental_uris": {"android": "https://dc.lft.to/lastmile_qr_scan", "ios": "https://dc.lft.to/lastmile_qr_scan"}, "name": "8ab3952678c24e908d564c36ddd4e1bd", "is_reserved": 0}, {"is_disabled": 0, "fusion_lon": 0.0, "fusion_lat": 0.0, "lat": 38.93095133333333, "type": "electric_scooter", "lon": -77.02451016666667, "bike_id": "be1992368410efb3dcea22afa39dbc2e", "rental_uris": {"android": "https://dc.lft.to/lastmile_qr_scan", "ios": "https://dc.lft.to/lastmile_qr_scan"}, "name": "be1992368410efb3dcea22afa39dbc2e", "is_reserved": 0}, {"is_disabled": 0, "fusion_lon": 0.0, "fusion_lat": 0.0, "lat": 38.887227333333335, "type": "electric_scooter", "lon": -77.02203, "bike_id": "63ff7e7b2082ad1b4f4c480bd13983e0", "rental_uris": {"android": "https://dc.lft.to/lastmile_qr_scan", "ios": "https://dc.lft.to/lastmile_qr_scan"}, "name": "63ff7e7b2082ad1b4f4c480bd13983e0", "is_reserved": 0}, {"is_disabled": 0, "fusion_lon": 0.0, "fusion_lat": 0.0, "lat": 38.9025945, "type": "electric_scooter", "lon": -77.00020683333334, "bike_id": "f30640be592c94e2cd8e752658176f16", "rental_uris": {"android": "https://dc.lft.to/lastmile_qr_scan", "ios": "https://dc.lft.to/lastmile_qr_scan"}, "name": "f30640be592c94e2cd8e752658176f16", "is_reserved": 0}, {"is_disabled": 0, "fusion_lon": 0.0, "fusion_lat": 0.0, "lat": 38.92138033333333, "type": "electric_scooter", "lon": -77.00915366666666, "bike_id": "eeb13619d43514b35dfa48e1b7366b9d", "rental_uris": {"android": "https://dc.lft.to/lastmile_qr_scan", "ios": "https://dc.lft.to/lastmile_qr_scan"}, "name": "eeb13619d43514b35dfa48e1b7366b9d", "is_reserved": 0}, {"is_disabled": 0, "fusion_lon": 0.0, "fusion_lat": 0.0, "lat": 38.864650166666664, "type": "electric_scooter", "lon": -76.99610833333334, "bike_id": "eb63a13a453d0f297cce7c014ac9e7ac", "rental_uris": {"android": "https://dc.lft.to/lastmile_qr_scan", "ios": "https://dc.lft.to/lastmile_qr_scan"}, "name": "eb63a13a453d0f297cce7c014ac9e7ac", "is_reserved": 0}, {"is_disabled": 0, "fusion_lon": 0.0, "fusion_lat": 0.0, "lat": 38.929217333333334, "type": "electric_scooter", "lon": -77.0214585, "bike_id": "084f6f372a5949e22bc2e4c2ba26ce0f", "rental_uris": {"android": "https://dc.lft.to/lastmile_qr_scan", "ios": "https://dc.lft.to/lastmile_qr_scan"}, "name": "084f6f372a5949e22bc2e4c2ba26ce0f", "is_reserved": 0}, {"is_disabled": 0, "fusion_lon": 0.0, "fusion_lat": 0.0, "lat": 38.907321, "type": "electric_scooter", "lon": -77.03443716666666, "bike_id": "6b52bd4d07c0ede08e276b35709ff394", "rental_uris": {"android": "https://dc.lft.to/lastmile_qr_scan", "ios": "https://dc.lft.to/lastmile_qr_scan"}, "name": "6b52bd4d07c0ede08e276b35709ff394", "is_reserved": 0}, {"is_disabled": 0, "fusion_lon": 0.0, "fusion_lat": 0.0, "lat": 38.927492666666666, "type": "electric_scooter", "lon": -77.02488933333333, "bike_id": "89f7531ae00c8a7728158100d676f785", "rental_uris": {"android": "https://dc.lft.to/lastmile_qr_scan", "ios": "https://dc.lft.to/lastmile_qr_scan"}, "name": "89f7531ae00c8a7728158100d676f785", "is_reserved": 0}, {"is_disabled": 0, "fusion_lon": 0.0, "fusion_lat": 0.0, "lat": 38.909479833333336, "type": "electric_scooter", "lon": -77.02181933333334, "bike_id": "a91658e7affdcaa06f05ed37a6c0fe9d", "rental_uris": {"android": "https://dc.lft.to/lastmile_qr_scan", "ios": "https://dc.lft.to/lastmile_qr_scan"}, "name": "a91658e7affdcaa06f05ed37a6c0fe9d", "is_reserved": 0}, {"is_disabled": 0, "fusion_lon": 0.0, "fusion_lat": 0.0, "lat": 38.90876166666666, "type": "electric_scooter", "lon": -77.07636233333334, "bike_id": "20384eb4becad6d762cfaf8b5651f11b", "rental_uris": {"android": "https://dc.lft.to/lastmile_qr_scan", "ios": "https://dc.lft.to/lastmile_qr_scan"}, "name": "20384eb4becad6d762cfaf8b5651f11b", "is_reserved": 0}, {"is_disabled": 0, "fusion_lon": 0.0, "fusion_lat": 0.0, "lat": 38.8973735, "type": "electric_scooter", "lon": -77.0032285, "bike_id": "2ddc8f04e03c7546129f928421d83216", "rental_uris": {"android": "https://dc.lft.to/lastmile_qr_scan", "ios": "https://dc.lft.to/lastmile_qr_scan"}, "name": "2ddc8f04e03c7546129f928421d83216", "is_reserved": 0}, {"is_disabled": 0, "fusion_lon": 0.0, "fusion_lat": 0.0, "lat": 38.94755116666666, "type": "electric_scooter", "lon": -77.02977883333334, "bike_id": "ef7283af9f1317ab9cb0a54ce26e2918", "rental_uris": {"android": "https://dc.lft.to/lastmile_qr_scan", "ios": "https://dc.lft.to/lastmile_qr_scan"}, "name": "ef7283af9f1317ab9cb0a54ce26e2918", "is_reserved": 0}, {"is_disabled": 0, "fusion_lon": 0.0, "fusion_lat": 0.0, "lat": 38.93110716666666, "type": "electric_scooter", "lon": -77.012472, "bike_id": "b6ce6b49ceb9c6350fda4f4184d7ded5", "rental_uris": {"android": "https://dc.lft.to/lastmile_qr_scan", "ios": "https://dc.lft.to/lastmile_qr_scan"}, "name": "b6ce6b49ceb9c6350fda4f4184d7ded5", "is_reserved": 0}, {"is_disabled": 0, "fusion_lon": 0.0, "fusion_lat": 0.0, "lat": 38.9497385, "type": "electric_scooter", "lon": -77.09441, "bike_id": "c614ba82a7d3c35a95ee98d9ab9e73af", "rental_uris": {"android": "https://dc.lft.to/lastmile_qr_scan", "ios": "https://dc.lft.to/lastmile_qr_scan"}, "name": "c614ba82a7d3c35a95ee98d9ab9e73af", "is_reserved": 0}, {"is_disabled": 0, "fusion_lon": 0.0, "fusion_lat": 0.0, "lat": 38.91273783333333, "type": "electric_scooter", "lon": -77.03368, "bike_id": "0af7d26f9042c13bc8eee6a0fef5bc8d", "rental_uris": {"android": "https://dc.lft.to/lastmile_qr_scan", "ios": "https://dc.lft.to/lastmile_qr_scan"}, "name": "0af7d26f9042c13bc8eee6a0fef5bc8d", "is_reserved": 0}, {"is_disabled": 0, "fusion_lon": 0.0, "fusion_lat": 0.0, "lat": 38.950012, "type": "electric_bike", "lon": -77.353096, "bike_id": "643a183294adf31608811e19014d40f8", "rental_uris": {"android": "https://dc.lft.to/lastmile_qr_scan", "ios": "https://dc.lft.to/lastmile_qr_scan"}, "name": "643a183294adf31608811e19014d40f8", "is_reserved": 0}, {"is_disabled": 0, "fusion_lon": 0.0, "fusion_lat": 0.0, "lat": 38.92055083333333, "type": "electric_scooter", "lon": -77.0419475, "bike_id": "b8eb50b6ac1e7325f0c57f44961ceb9b", "rental_uris": {"android": "https://dc.lft.to/lastmile_qr_scan", "ios": "https://dc.lft.to/lastmile_qr_scan"}, "name": "b8eb50b6ac1e7325f0c57f44961ceb9b", "is_reserved": 0}, {"is_disabled": 0, "fusion_lon": 0.0, "fusion_lat": 0.0, "lat": 38.87825333333333, "type": "electric_scooter", "lon": -76.96319016666666, "bike_id": "89020f1636af9831b581da8387b51dcb", "rental_uris": {"android": "https://dc.lft.to/lastmile_qr_scan", "ios": "https://dc.lft.to/lastmile_qr_scan"}, "name": "89020f1636af9831b581da8387b51dcb", "is_reserved": 0}, {"is_disabled": 0, "fusion_lon": 0.0, "fusion_lat": 0.0, "lat": 38.8766605, "type": "electric_scooter", "lon": -76.9319355, "bike_id": "d1e63b1e408c9c452c45104bbd3a64bc", "rental_uris": {"android": "https://dc.lft.to/lastmile_qr_scan", "ios": "https://dc.lft.to/lastmile_qr_scan"}, "name": "d1e63b1e408c9c452c45104bbd3a64bc", "is_reserved": 0}, {"is_disabled": 0, "fusion_lon": 0.0, "fusion_lat": 0.0, "lat": 38.92830583333333, "type": "electric_scooter", "lon": -77.014072, "bike_id": "524d3c8fa33f4e89ec6dfd678d73833a", "rental_uris": {"android": "https://dc.lft.to/lastmile_qr_scan", "ios": "https://dc.lft.to/lastmile_qr_scan"}, "name": "524d3c8fa33f4e89ec6dfd678d73833a", "is_reserved": 0}, {"is_disabled": 0, "fusion_lon": 0.0, "fusion_lat": 0.0, "lat": 38.99889783333333, "type": "electric_bike", "lon": -77.02862633333334, "bike_id": "b5ecd71ab9f8e54d5dd7d497ecf31652", "rental_uris": {"android": "https://dc.lft.to/lastmile_qr_scan", "ios": "https://dc.lft.to/lastmile_qr_scan"}, "name": "b5ecd71ab9f8e54d5dd7d497ecf31652", "is_reserved": 0}, {"is_disabled": 0, "fusion_lon": 0.0, "fusion_lat": 0.0, "lat": 38.863246833333335, "type": "electric_scooter", "lon": -76.99051083333333, "bike_id": "2784c2e9db36f0fd6ce0172a8fd7b238", "rental_uris": {"android": "https://dc.lft.to/lastmile_qr_scan", "ios": "https://dc.lft.to/lastmile_qr_scan"}, "name": "2784c2e9db36f0fd6ce0172a8fd7b238", "is_reserved": 0}, {"is_disabled": 0, "fusion_lon": 0.0, "fusion_lat": 0.0, "lat": 38.92485666666666, "type": "electric_scooter", "lon": -77.03492516666667, "bike_id": "2e58bdc79612b63dec024eaca457254e", "rental_uris": {"android": "https://dc.lft.to/lastmile_qr_scan", "ios": "https://dc.lft.to/lastmile_qr_scan"}, "name": "2e58bdc79612b63dec024eaca457254e", "is_reserved": 0}, {"is_disabled": 0, "fusion_lon": 0.0, "fusion_lat": 0.0, "lat": 38.917056, "type": "electric_scooter", "lon": -77.03474066666666, "bike_id": "0e7b347c43afddb5840df894ae53fad0", "rental_uris": {"android": "https://dc.lft.to/lastmile_qr_scan", "ios": "https://dc.lft.to/lastmile_qr_scan"}, "name": "0e7b347c43afddb5840df894ae53fad0", "is_reserved": 0}, {"is_disabled": 0, "fusion_lon": 0.0, "fusion_lat": 0.0, "lat": 38.919633166666664, "type": "electric_scooter", "lon": -77.0236215, "bike_id": "6f6226017747af679050c8f85d991310", "rental_uris": {"android": "https://dc.lft.to/lastmile_qr_scan", "ios": "https://dc.lft.to/lastmile_qr_scan"}, "name": "6f6226017747af679050c8f85d991310", "is_reserved": 0}, {"is_disabled": 0, "fusion_lon": 0.0, "fusion_lat": 0.0, "lat": 38.84600483333333, "type": "electric_bike", "lon": -76.96887633333333, "bike_id": "19ab53c9a833a6a6e92a44b0abb609b9", "rental_uris": {"android": "https://dc.lft.to/lastmile_qr_scan", "ios": "https://dc.lft.to/lastmile_qr_scan"}, "name": "19ab53c9a833a6a6e92a44b0abb609b9", "is_reserved": 0}, {"is_disabled": 0, "fusion_lon": 0.0, "fusion_lat": 0.0, "lat": 38.8923275, "type": "electric_scooter", "lon": -77.02825283333334, "bike_id": "46f21546ca2d402b7d7c936723c46a0a", "rental_uris": {"android": "https://dc.lft.to/lastmile_qr_scan", "ios": "https://dc.lft.to/lastmile_qr_scan"}, "name": "46f21546ca2d402b7d7c936723c46a0a", "is_reserved": 0}, {"is_disabled": 0, "fusion_lon": 0.0, "fusion_lat": 0.0, "lat": 38.924776333333334, "type": "electric_scooter", "lon": -77.0271455, "bike_id": "8a8aef085e28ac0a439c7007a455e329", "rental_uris": {"android": "https://dc.lft.to/lastmile_qr_scan", "ios": "https://dc.lft.to/lastmile_qr_scan"}, "name": "8a8aef085e28ac0a439c7007a455e329", "is_reserved": 0}, {"is_disabled": 0, "fusion_lon": 0.0, "fusion_lat": 0.0, "lat": 38.91576766666667, "type": "electric_scooter", "lon": -76.98109883333333, "bike_id": "5fea6b7ee742eb59cdd32eb10caf4847", "rental_uris": {"android": "https://dc.lft.to/lastmile_qr_scan", "ios": "https://dc.lft.to/lastmile_qr_scan"}, "name": "5fea6b7ee742eb59cdd32eb10caf4847", "is_reserved": 0}, {"is_disabled": 0, "fusion_lon": 0.0, "fusion_lat": 0.0, "lat": 38.9675765, "type": "electric_bike", "lon": -77.09161633333333, "bike_id": "13445218628f727a7083b978b243bc06", "rental_uris": {"android": "https://dc.lft.to/lastmile_qr_scan", "ios": "https://dc.lft.to/lastmile_qr_scan"}, "name": "13445218628f727a7083b978b243bc06", "is_reserved": 0}, {"is_disabled": 0, "fusion_lon": 0.0, "fusion_lat": 0.0, "lat": 38.85808816666667, "type": "electric_scooter", "lon": -76.98654333333333, "bike_id": "50a4984300d60b461c213fa75887c920", "rental_uris": {"android": "https://dc.lft.to/lastmile_qr_scan", "ios": "https://dc.lft.to/lastmile_qr_scan"}, "name": "50a4984300d60b461c213fa75887c920", "is_reserved": 0}, {"is_disabled": 0, "fusion_lon": 0.0, "fusion_lat": 0.0, "lat": 38.84199916666667, "type": "electric_bike", "lon": -77.10685383333333, "bike_id": "e7f1a37b5169fe37c4670201a175a217", "rental_uris": {"android": "https://dc.lft.to/lastmile_qr_scan", "ios": "https://dc.lft.to/lastmile_qr_scan"}, "name": "e7f1a37b5169fe37c4670201a175a217", "is_reserved": 0}, {"is_disabled": 0, "fusion_lon": 0.0, "fusion_lat": 0.0, "lat": 38.895, "type": "electric_scooter", "lon": -77.00952666666667, "bike_id": "8364dbc343d5cb0d7b7f861a01e5c2d5", "rental_uris": {"android": "https://dc.lft.to/lastmile_qr_scan", "ios": "https://dc.lft.to/lastmile_qr_scan"}, "name": "8364dbc343d5cb0d7b7f861a01e5c2d5", "is_reserved": 0}, {"is_disabled": 0, "fusion_lon": 0.0, "fusion_lat": 0.0, "lat": 38.9300335, "type": "electric_scooter", "lon": -77.0240455, "bike_id": "d1f7aec1e8958d36c594b8a77602c63a", "rental_uris": {"android": "https://dc.lft.to/lastmile_qr_scan", "ios": "https://dc.lft.to/lastmile_qr_scan"}, "name": "d1f7aec1e8958d36c594b8a77602c63a", "is_reserved": 0}, {"is_disabled": 0, "fusion_lon": 0.0, "fusion_lat": 0.0, "lat": 38.921169, "type": "electric_scooter", "lon": -77.01211283333333, "bike_id": "97b9041af67e34f191b86d87cca35efb", "rental_uris": {"android": "https://dc.lft.to/lastmile_qr_scan", "ios": "https://dc.lft.to/lastmile_qr_scan"}, "name": "97b9041af67e34f191b86d87cca35efb", "is_reserved": 0}, {"is_disabled": 0, "fusion_lon": 0.0, "fusion_lat": 0.0, "lat": 38.90719566666667, "type": "electric_scooter", "lon": -77.0321335, "bike_id": "eef89a06d0dc5819e876b768fb2fa462", "rental_uris": {"android": "https://dc.lft.to/lastmile_qr_scan", "ios": "https://dc.lft.to/lastmile_qr_scan"}, "name": "eef89a06d0dc5819e876b768fb2fa462", "is_reserved": 0}, {"is_disabled": 0, "fusion_lon": 0.0, "fusion_lat": 0.0, "lat": 38.93004416666667, "type": "electric_scooter", "lon": -77.023078, "bike_id": "6abbdeef41ffd9955c566777b5d91835", "rental_uris": {"android": "https://dc.lft.to/lastmile_qr_scan", "ios": "https://dc.lft.to/lastmile_qr_scan"}, "name": "6abbdeef41ffd9955c566777b5d91835", "is_reserved": 0}, {"is_disabled": 0, "fusion_lon": 0.0, "fusion_lat": 0.0, "lat": 38.931562666666665, "type": "electric_scooter", "lon": -77.07847666666666, "bike_id": "cd7f07549b77932b9e11b7f3d458d0bb", "rental_uris": {"android": "https://dc.lft.to/lastmile_qr_scan", "ios": "https://dc.lft.to/lastmile_qr_scan"}, "name": "cd7f07549b77932b9e11b7f3d458d0bb", "is_reserved": 0}, {"is_disabled": 0, "fusion_lon": 0.0, "fusion_lat": 0.0, "lat": 38.9321885, "type": "electric_scooter", "lon": -77.03660283333333, "bike_id": "b9fd39f1bc233af86df731079cecf23d", "rental_uris": {"android": "https://dc.lft.to/lastmile_qr_scan", "ios": "https://dc.lft.to/lastmile_qr_scan"}, "name": "b9fd39f1bc233af86df731079cecf23d", "is_reserved": 0}, {"is_disabled": 0, "fusion_lon": 0.0, "fusion_lat": 0.0, "lat": 38.93548233333333, "type": "electric_scooter", "lon": -77.03454016666667, "bike_id": "62e51b1dd59668cf1cdf921fcdd5033e", "rental_uris": {"android": "https://dc.lft.to/lastmile_qr_scan", "ios": "https://dc.lft.to/lastmile_qr_scan"}, "name": "62e51b1dd59668cf1cdf921fcdd5033e", "is_reserved": 0}, {"is_disabled": 0, "fusion_lon": 0.0, "fusion_lat": 0.0, "lat": 38.929968333333335, "type": "electric_scooter", "lon": -77.03803716666667, "bike_id": "5f87226834ae496c20563ae9d96fda8d", "rental_uris": {"android": "https://dc.lft.to/lastmile_qr_scan", "ios": "https://dc.lft.to/lastmile_qr_scan"}, "name": "5f87226834ae496c20563ae9d96fda8d", "is_reserved": 0}, {"is_disabled": 0, "fusion_lon": 0.0, "fusion_lat": 0.0, "lat": 38.90866483333333, "type": "electric_scooter", "lon": -77.0443625, "bike_id": "cba0f3d5f7bce1bd193854f77b3f975f", "rental_uris": {"android": "https://dc.lft.to/lastmile_qr_scan", "ios": "https://dc.lft.to/lastmile_qr_scan"}, "name": "cba0f3d5f7bce1bd193854f77b3f975f", "is_reserved": 0}, {"is_disabled": 0, "fusion_lon": 0.0, "fusion_lat": 0.0, "lat": 38.8749825, "type": "electric_scooter", "lon": -76.997987, "bike_id": "f980269d514acda1937f759efdc1abec", "rental_uris": {"android": "https://dc.lft.to/lastmile_qr_scan", "ios": "https://dc.lft.to/lastmile_qr_scan"}, "name": "f980269d514acda1937f759efdc1abec", "is_reserved": 0}, {"is_disabled": 0, "fusion_lon": 0.0, "fusion_lat": 0.0, "lat": 38.90516566666667, "type": "electric_scooter", "lon": -77.04884583333333, "bike_id": "f6e2646caf19a503bf6ea72248100148", "rental_uris": {"android": "https://dc.lft.to/lastmile_qr_scan", "ios": "https://dc.lft.to/lastmile_qr_scan"}, "name": "f6e2646caf19a503bf6ea72248100148", "is_reserved": 0}, {"is_disabled": 0, "fusion_lon": 0.0, "fusion_lat": 0.0, "lat": 38.91202933333334, "type": "electric_scooter", "lon": -76.9848615, "bike_id": "5d72997991b493c9ecdf28205395a626", "rental_uris": {"android": "https://dc.lft.to/lastmile_qr_scan", "ios": "https://dc.lft.to/lastmile_qr_scan"}, "name": "5d72997991b493c9ecdf28205395a626", "is_reserved": 0}, {"is_disabled": 0, "fusion_lon": 0.0, "fusion_lat": 0.0, "lat": 38.88752616666667, "type": "electric_scooter", "lon": -77.00224816666666, "bike_id": "5b79987a745a336cc78b0940d9959b7b", "rental_uris": {"android": "https://dc.lft.to/lastmile_qr_scan", "ios": "https://dc.lft.to/lastmile_qr_scan"}, "name": "5b79987a745a336cc78b0940d9959b7b", "is_reserved": 0}, {"is_disabled": 0, "fusion_lon": 0.0, "fusion_lat": 0.0, "lat": 38.90178233333334, "type": "electric_scooter", "lon": -77.0502315, "bike_id": "34676970d413192c14f9b3559fbc3234", "rental_uris": {"android": "https://dc.lft.to/lastmile_qr_scan", "ios": "https://dc.lft.to/lastmile_qr_scan"}, "name": "34676970d413192c14f9b3559fbc3234", "is_reserved": 0}, {"is_disabled": 0, "fusion_lon": 0.0, "fusion_lat": 0.0, "lat": 38.88767816666667, "type": "electric_scooter", "lon": -76.98918466666667, "bike_id": "07ac380bfdadc5ba588ce8fe19f208de", "rental_uris": {"android": "https://dc.lft.to/lastmile_qr_scan", "ios": "https://dc.lft.to/lastmile_qr_scan"}, "name": "07ac380bfdadc5ba588ce8fe19f208de", "is_reserved": 0}, {"is_disabled": 0, "fusion_lon": 0.0, "fusion_lat": 0.0, "lat": 38.90175816666667, "type": "electric_scooter", "lon": -76.993887, "bike_id": "ef6055b49d2e361fe5104bc48e3cde2c", "rental_uris": {"android": "https://dc.lft.to/lastmile_qr_scan", "ios": "https://dc.lft.to/lastmile_qr_scan"}, "name": "ef6055b49d2e361fe5104bc48e3cde2c", "is_reserved": 0}, {"is_disabled": 0, "fusion_lon": 0.0, "fusion_lat": 0.0, "lat": 38.902648, "type": "electric_scooter", "lon": -77.003335, "bike_id": "319de6c73469e33a4cb0c8d95f922956", "rental_uris": {"android": "https://dc.lft.to/lastmile_qr_scan", "ios": "https://dc.lft.to/lastmile_qr_scan"}, "name": "319de6c73469e33a4cb0c8d95f922956", "is_reserved": 0}, {"is_disabled": 0, "fusion_lon": 0.0, "fusion_lat": 0.0, "lat": 38.94804416666667, "type": "electric_bike", "lon": -76.97215266666667, "bike_id": "65947c054c01d04de59e49284bf52f95", "rental_uris": {"android": "https://dc.lft.to/lastmile_qr_scan", "ios": "https://dc.lft.to/lastmile_qr_scan"}, "name": "65947c054c01d04de59e49284bf52f95", "is_reserved": 0}, {"is_disabled": 0, "fusion_lon": 0.0, "fusion_lat": 0.0, "lat": 38.9173005, "type": "electric_scooter", "lon": -76.99181183333333, "bike_id": "f8bfbb119cb943f715b374ba0e703792", "rental_uris": {"android": "https://dc.lft.to/lastmile_qr_scan", "ios": "https://dc.lft.to/lastmile_qr_scan"}, "name": "f8bfbb119cb943f715b374ba0e703792", "is_reserved": 0}, {"is_disabled": 0, "fusion_lon": 0.0, "fusion_lat": 0.0, "lat": 38.9017985, "type": "electric_scooter", "lon": -77.03828016666667, "bike_id": "8c8a3adce634acc406514c739a9ab75a", "rental_uris": {"android": "https://dc.lft.to/lastmile_qr_scan", "ios": "https://dc.lft.to/lastmile_qr_scan"}, "name": "8c8a3adce634acc406514c739a9ab75a", "is_reserved": 0}, {"is_disabled": 0, "fusion_lon": 0.0, "fusion_lat": 0.0, "lat": 38.918405166666666, "type": "electric_scooter", "lon": -77.0320125, "bike_id": "222a576e1226e0d705b02f3f52c6f206", "rental_uris": {"android": "https://dc.lft.to/lastmile_qr_scan", "ios": "https://dc.lft.to/lastmile_qr_scan"}, "name": "222a576e1226e0d705b02f3f52c6f206", "is_reserved": 0}, {"is_disabled": 0, "fusion_lon": 0.0, "fusion_lat": 0.0, "lat": 38.97061, "type": "electric_bike", "lon": -76.96055283333334, "bike_id": "828e04db6e4e67a5f18709131ad06d5f", "rental_uris": {"android": "https://dc.lft.to/lastmile_qr_scan", "ios": "https://dc.lft.to/lastmile_qr_scan"}, "name": "828e04db6e4e67a5f18709131ad06d5f", "is_reserved": 0}, {"is_disabled": 0, "fusion_lon": 0.0, "fusion_lat": 0.0, "lat": 38.896082666666665, "type": "electric_scooter", "lon": -77.00929733333334, "bike_id": "943ebb6e23fb23619bb8090f4e63ac8f", "rental_uris": {"android": "https://dc.lft.to/lastmile_qr_scan", "ios": "https://dc.lft.to/lastmile_qr_scan"}, "name": "943ebb6e23fb23619bb8090f4e63ac8f", "is_reserved": 0}, {"is_disabled": 0, "fusion_lon": 0.0, "fusion_lat": 0.0, "lat": 38.90030683333333, "type": "electric_scooter", "lon": -77.04678233333334, "bike_id": "0e56a17f9f5b8452e8ac6c74e584978e", "rental_uris": {"android": "https://dc.lft.to/lastmile_qr_scan", "ios": "https://dc.lft.to/lastmile_qr_scan"}, "name": "0e56a17f9f5b8452e8ac6c74e584978e", "is_reserved": 0}, {"is_disabled": 0, "fusion_lon": 0.0, "fusion_lat": 0.0, "lat": 38.924757, "type": "electric_scooter", "lon": -77.0378905, "bike_id": "9c511046a7e8a8de782d6480afe24456", "rental_uris": {"android": "https://dc.lft.to/lastmile_qr_scan", "ios": "https://dc.lft.to/lastmile_qr_scan"}, "name": "9c511046a7e8a8de782d6480afe24456", "is_reserved": 0}, {"is_disabled": 0, "fusion_lon": 0.0, "fusion_lat": 0.0, "lat": 38.9130735, "type": "electric_scooter", "lon": -76.97613433333333, "bike_id": "ab85eb46f1efb7f2c63a1ab017f7b5e2", "rental_uris": {"android": "https://dc.lft.to/lastmile_qr_scan", "ios": "https://dc.lft.to/lastmile_qr_scan"}, "name": "ab85eb46f1efb7f2c63a1ab017f7b5e2", "is_reserved": 0}, {"is_disabled": 0, "fusion_lon": 0.0, "fusion_lat": 0.0, "lat": 38.9085135, "type": "electric_scooter", "lon": -77.0550885, "bike_id": "18230a374372935a3b58e60bd61d2518", "rental_uris": {"android": "https://dc.lft.to/lastmile_qr_scan", "ios": "https://dc.lft.to/lastmile_qr_scan"}, "name": "18230a374372935a3b58e60bd61d2518", "is_reserved": 0}, {"is_disabled": 0, "fusion_lon": 0.0, "fusion_lat": 0.0, "lat": 38.915596666666666, "type": "electric_scooter", "lon": -77.03881333333334, "bike_id": "09014b22c75e792c10282aefc8a6db74", "rental_uris": {"android": "https://dc.lft.to/lastmile_qr_scan", "ios": "https://dc.lft.to/lastmile_qr_scan"}, "name": "09014b22c75e792c10282aefc8a6db74", "is_reserved": 0}, {"is_disabled": 0, "fusion_lon": 0.0, "fusion_lat": 0.0, "lat": 38.945887666666664, "type": "electric_bike", "lon": -77.34410366666667, "bike_id": "a6318f0025b7eee9e075350e0d1823c7", "rental_uris": {"android": "https://dc.lft.to/lastmile_qr_scan", "ios": "https://dc.lft.to/lastmile_qr_scan"}, "name": "a6318f0025b7eee9e075350e0d1823c7", "is_reserved": 0}, {"is_disabled": 0, "fusion_lon": 0.0, "fusion_lat": 0.0, "lat": 38.88853366666667, "type": "electric_bike", "lon": -76.97704916666666, "bike_id": "4281274960625aa537637de933ee7e58", "rental_uris": {"android": "https://dc.lft.to/lastmile_qr_scan", "ios": "https://dc.lft.to/lastmile_qr_scan"}, "name": "4281274960625aa537637de933ee7e58", "is_reserved": 0}, {"is_disabled": 0, "fusion_lon": 0.0, "fusion_lat": 0.0, "lat": 38.88742033333333, "type": "electric_scooter", "lon": -77.0142975, "bike_id": "6fdef79b4de2e2e2ae412fa331ae141b", "rental_uris": {"android": "https://dc.lft.to/lastmile_qr_scan", "ios": "https://dc.lft.to/lastmile_qr_scan"}, "name": "6fdef79b4de2e2e2ae412fa331ae141b", "is_reserved": 0},