{"data": {"bikes": [{"fusion_lat": 0.0, "name": "5ed5836cb8995535ebb6c8e6b3b1dc66", "lon": -77.02391533333333, "rental_uris": {"android": "https://dc.lft.to/lastmile_qr_scan", "ios": "https://dc.lft.to/lastmile_qr_scan"}, "fusion_lon": 0.0, "bike_id": "5ed5836cb8995535ebb6c8e6b3b1dc66", "is_disabled": 0, "lat": 38.917048666666666, "is_reserved": 0, "type": "electric_scooter"}, {"fusion_lat": 0.0, "name": "f69947d02162f15752832e83f379f5ee", "lon": -76.98355133333334, "rental_uris": {"android": "https://dc.lft.to/lastmile_qr_scan", "ios": "https://dc.lft.to/lastmile_qr_scan"}, "fusion_lon": 0.0, "bike_id": "f69947d02162f15752832e83f379f5ee", "is_disabled": 0, "lat": 38.8625845, "is_reserved": 0, "type": "electric_bike"}, {"fusion_lat": 0.0, "name": "8b012c726d5a3798835b3d94466041e5", "lon": -77.04167733333334, "rental_uris": {"android": "https://dc.lft.to/lastmile_qr_scan", "ios": "https://dc.lft.to/lastmile_qr_scan"}, "fusion_lon": 0.0, "bike_id": "8b012c726d5a3798835b3d94466041e5", "is_disabled": 0, "lat": 38.919701, "is_reserved": 0, "type": "electric_scooter"}, {"fusion_lat": 0.0, "name": "8e5f47685b697a50a04082c173d4102e", "lon": -77.00420166666666, "rental_uris": {"android": "https://dc.lft.to/lastmile_qr_scan", "ios": "https://dc.lft.to/lastmile_qr_scan"}, "fusion_lon": 0.0, "bike_id": "8e5f47685b697a50a04082c173d4102e", "is_disabled": 0, "lat": 38.9289985, "is_reserved": 0, "type": "electric_scooter"}, {"fusion_lat": 0.0, "name": "a1b3da5e42d02e758357b54b4201ca89", "lon": -77.03326766666666, "rental_uris": {"android": "https://dc.lft.to/lastmile_qr_scan", "ios": "https://dc.lft.to/lastmile_qr_scan"}, "fusion_lon": 0.0, "bike_id": "a1b3da5e42d02e758357b54b4201ca89", "is_disabled": 0, "lat": 38.90145866666667, "is_reserved": 0, "type": "electric_scooter"}, {"fusion_lat": 0.0, "name": "de67b40cc5b3266c753ca8cf3bdf52f6", "lon": -77.02164383333333, "rental_uris": {"android": "https://dc.lft.to/lastmile_qr_scan", "ios": "https://dc.lft.to/lastmile_qr_scan"}, "fusion_lon": 0.0, "bike_id": "de67b40cc5b3266c753ca8cf3bdf52f6", "is_disabled": 0, "lat": 38.893397666666665, "is_reserved": 0, "type": "electric_scooter"}, {"fusion_lat": 0.0, "name": "1d4d0821af43d60b95fcd2075c1e70a4", "lon": -77.02627466666667, "rental_uris": {"android": "https://dc.lft.to/lastmile_qr_scan", "ios": "https://dc.lft.to/lastmile_qr_scan"}, "fusion_lon": 0.0, "bike_id": "1d4d0821af43d60b95fcd2075c1e70a4", "is_disabled": 0, "lat": 38.89220783333333, "is_reserved": 0, "type": "electric_scooter"}, {"fusion_lat": 0.0, "name": "74bafac1f1122a4f2f39d39c236e025d", "lon": -77.0612505, "rental_uris": {"android": "https://dc.lft.to/lastmile_qr_scan", "ios": "https://dc.lft.to/lastmile_qr_scan"}, "fusion_lon": 0.0, "bike_id": "74bafac1f1122a4f2f39d39c236e025d", "is_disabled": 0, "lat": 38.904951, "is_reserved": 0, "type": "electric_scooter"}, {"fusion_lat": 0.0, "name": "ddbe4b5bd5e809a6d43b26c49784eaa0", "lon": -77.04383416666667, "rental_uris": {"android": "https://dc.lft.to/lastmile_qr_scan", "ios": "https://dc.lft.to/lastmile_qr_scan"}, "fusion_lon": 0.0, "bike_id": "ddbe4b5bd5e809a6d43b26c49784eaa0", "is_disabled": 0, "lat": 38.92094683333333, "is_reserved": 0, "type": "electric_scooter"}, {"fusion_lat": 0.0, "name": "26d9613f792b0a6cb16086158db3680a", "lon": -76.917549, "rental_uris": {"android": "https://dc.lft.to/lastmile_qr_scan", "ios": "https://dc.lft.to/lastmile_qr_scan"}, "fusion_lon": 0.0, "bike_id": "26d9613f792b0a6cb16086158db3680a", "is_disabled": 0, "lat": 38.888338833333336, "is_reserved": 0, "type": "electric_scooter"}, {"fusion_lat": 0.0, "name": "977c3c8ac158d7a0b42e064bae021072", "lon": -77.03503333333333, "rental_uris": {"android": "https://dc.lft.to/lastmile_qr_scan", "ios": "https://dc.lft.to/lastmile_qr_scan"}, "fusion_lon": 0.0, "bike_id": "977c3c8ac158d7a0b42e064bae021072", "is_disabled": 0, "lat": 38.91869466666667, "is_reserved": 0, "type": "electric_scooter"}, {"fusion_lat": 0.0, "name": "4f67c95bb2f9d46bc96efbb8c6649ba3", "lon": -77.0468535, "rental_uris": {"android": "https://dc.lft.to/lastmile_qr_scan", "ios": "https://dc.lft.to/lastmile_qr_scan"}, "fusion_lon": 0.0, "bike_id": "4f67c95bb2f9d46bc96efbb8c6649ba3", "is_disabled": 0, "lat": 38.92104166666667, "is_reserved": 0, "type": "electric_scooter"}, {"fusion_lat": 0.0, "name": "93c6fb903e53df004d9a1d4e716dc0fd", "lon": -77.02207383333334, "rental_uris": {"android": "https://dc.lft.to/lastmile_qr_scan", "ios": "https://dc.lft.to/lastmile_qr_scan"}, "fusion_lon": 0.0, "bike_id": "93c6fb903e53df004d9a1d4e716dc0fd", "is_disabled": 0, "lat": 38.905436, "is_reserved": 0, "type": "electric_scooter"}, {"fusion_lat": 0.0, "name": "ff4484a1401190693bb6795c27a35254", "lon": -77.03275216666667, "rental_uris": {"android": "https://dc.lft.to/lastmile_qr_scan", "ios": "https://dc.lft.to/lastmile_qr_scan"}, "fusion_lon": 0.0, "bike_id": "ff4484a1401190693bb6795c27a35254", "is_disabled": 0, "lat": 38.909816, "is_reserved": 0, "type": "electric_scooter"}, {"fusion_lat": 0.0, "name": "5d39730006a7b6e6bb1627a6045d4e7f", "lon": -77.07032383333333, "rental_uris": {"android": "https://dc.lft.to/lastmile_qr_scan", "ios": "https://dc.lft.to/lastmile_qr_scan"}, "fusion_lon": 0.0, "bike_id": "5d39730006a7b6e6bb1627a6045d4e7f", "is_disabled": 0, "lat": 38.922503666666664, "is_reserved": 0, "type": "electric_scooter"}, {"fusion_lat": 0.0, "name": "4274f7a6cc52ec8194616d9f0eed9678", "lon": -77.03445183333334, "rental_uris": {"android": "https://dc.lft.to/lastmile_qr_scan", "ios": "https://dc.lft.to/lastmile_qr_scan"}, "fusion_lon": 0.0, "bike_id": "4274f7a6cc52ec8194616d9f0eed9678", "is_disabled": 0, "lat": 38.928692, "is_reserved": 0, "type": "electric_scooter"}, {"fusion_lat": 0.0, "name": "946151a9c228bcd3176ee526b12c5e1d", "lon": -76.99061783333333, "rental_uris": {"android": "https://dc.lft.to/lastmile_qr_scan", "ios": "https://dc.lft.to/lastmile_qr_scan"}, "fusion_lon": 0.0, "bike_id": "946151a9c228bcd3176ee526b12c5e1d", "is_disabled": 0, "lat": 38.8637685, "is_reserved": 0, "type": "electric_scooter"}, {"fusion_lat": 0.0, "name": "fdb92d77756ca047aaacee94a53474d9", "lon": -77.0069435, "rental_uris": {"android": "https://dc.lft.to/lastmile_qr_scan", "ios": "https://dc.lft.to/lastmile_qr_scan"}, "fusion_lon": 0.0, "bike_id": "fdb92d77756ca047aaacee94a53474d9", "is_disabled": 0, "lat": 38.899989166666664, "is_reserved": 0, "type": "electric_scooter"}, {"fusion_lat": 0.0, "name": "549e0ac9f928e3af027ebf15f2e5df07", "lon": -77.0321575, "rental_uris": {"android": "https://dc.lft.to/lastmile_qr_scan", "ios": "https://dc.lft.to/lastmile_qr_scan"}, "fusion_lon": 0.0, "bike_id": "549e0ac9f928e3af027ebf15f2e5df07", "is_disabled": 0, "lat": 38.8922135, "is_reserved": 0, "type": "electric_scooter"}, {"fusion_lat": 0.0, "name": "763c8a5d1110aa882c7318599c4c9ec2", "lon": -77.00949133333333, "rental_uris": {"android": "https://dc.lft.to/lastmile_qr_scan", "ios": "https://dc.lft.to/lastmile_qr_scan"}, "fusion_lon": 0.0, "bike_id": "763c8a5d1110aa882c7318599c4c9ec2", "is_disabled": 0, "lat": 38.8762935, "is_reserved": 0, "type": "electric_scooter"}, {"fusion_lat": 0.0, "name": "43c8dc05b0e1827d8b827f59a753eb5c", "lon": -77.03009183333333, "rental_uris": {"android": "https://dc.lft.to/lastmile_qr_scan", "ios": "https://dc.lft.to/lastmile_qr_scan"}, "fusion_lon": 0.0, "bike_id": "43c8dc05b0e1827d8b827f59a753eb5c", "is_disabled": 0, "lat": 38.9169725, "is_reserved": 0, "type": "electric_scooter"}, {"fusion_lat": 0.0, "name": "6e52963c252fc28dd2c2ff1b914a4ec3", "lon": -77.02348433333333, "rental_uris": {"android": "https://dc.lft.to/lastmile_qr_scan", "ios": "https://dc.lft.to/lastmile_qr_scan"}, "fusion_lon": 0.0, "bike_id": "6e52963c252fc28dd2c2ff1b914a4ec3", "is_disabled": 0, "lat": 38.89221116666667, "is_reserved": 0, "type": "electric_scooter"}, {"fusion_lat": 0.0, "name": "db77bf99e66cd6b3b59627c9e4f81bf2", "lon": -77.03764633333333, "rental_uris": {"android": "https://dc.lft.to/lastmile_qr_scan", "ios": "https://dc.lft.to/lastmile_qr_scan"}, "fusion_lon": 0.0, "bike_id": "db77bf99e66cd6b3b59627c9e4f81bf2", "is_disabled": 0, "lat": 38.91880833333333, "is_reserved": 0, "type": "electric_scooter"}, {"fusion_lat": 0.0, "name": "8d128fd8d6c5e552655def226d12a686", "lon": -76.9894005, "rental_uris": {"android": "https://dc.lft.to/lastmile_qr_scan", "ios": "https://dc.lft.to/lastmile_qr_scan"}, "fusion_lon": 0.0, "bike_id": "8d128fd8d6c5e552655def226d12a686", "is_disabled": 0, "lat": 38.85722533333333, "is_reserved": 0, "type": "electric_scooter"}, {"fusion_lat": 0.0, "name": "2619211895f2c786c487fe71708a4577", "lon": -77.04158666666666, "rental_uris": {"android": "https://dc.lft.to/lastmile_qr_scan", "ios": "https://dc.lft.to/lastmile_qr_scan"}, "fusion_lon": 0.0, "bike_id": "2619211895f2c786c487fe71708a4577", "is_disabled": 0, "lat": 38.91709066666667, "is_reserved": 0, "type": "electric_scooter"}, {"fusion_lat": 0.0, "name": "9a8507816295b0e11b0c17b07201f10b", "lon": -76.993063, "rental_uris": {"android": "https://dc.lft.to/lastmile_qr_scan", "ios": "https://dc.lft.to/lastmile_qr_scan"}, "fusion_lon": 0.0, "bike_id": "9a8507816295b0e11b0c17b07201f10b", "is_disabled": 0, "lat": 38.90759466666667, "is_reserved": 0, "type": "electric_scooter"}, {"fusion_lat": 0.0, "name": "809cf8b6e482b637ff9f6dc17dc6a275", "lon": -77.00379883333333, "rental_uris": {"android": "https://dc.lft.to/lastmile_qr_scan", "ios": "https://dc.lft.to/lastmile_qr_scan"}, "fusion_lon": 0.0, "bike_id": "809cf8b6e482b637ff9f6dc17dc6a275", "is_disabled": 0, "lat": 38.8763785, "is_reserved": 0, "type": "electric_scooter"}, {"fusion_lat": 0.0, "name": "fd2563babfaa3889efa613caeed01a13", "lon": -77.01751233333333, "rental_uris": {"android": "https://dc.lft.to/lastmile_qr_scan", "ios": "https://dc.lft.to/lastmile_qr_scan"}, "fusion_lon": 0.0, "bike_id": "fd2563babfaa3889efa613caeed01a13", "is_disabled": 0, "lat": 38.90121633333333, "is_reserved": 0, "type": "electric_scooter"}, {"fusion_lat": 0.0, "name": "beaa6eed36eb2e955c85969783436a4f", "lon": -77.03435316666666, "rental_uris": {"android": "https://dc.lft.to/lastmile_qr_scan", "ios": "https://dc.lft.to/lastmile_qr_scan"}, "fusion_lon": 0.0, "bike_id": "beaa6eed36eb2e955c85969783436a4f", "is_disabled": 0, "lat": 38.91030033333333, "is_reserved": 0, "type": "electric_scooter"}, {"fusion_lat": 0.0, "name": "45740b2692720491cfbbce156d5ae76d", "lon": -77.02738733333334, "rental_uris": {"android": "https://dc.lft.to/lastmile_qr_scan", "ios": "https://dc.lft.to/lastmile_qr_scan"}, "fusion_lon": 0.0, "bike_id": "45740b2692720491cfbbce156d5ae76d", "is_disabled": 0, "lat": 38.88741133333333, "is_reserved": 0, "type": "electric_scooter"}, {"fusion_lat": 0.0, "name": "7be1711ece371c5b5809b5f0c0b06151", "lon": -77.00732883333333, "rental_uris": {"android": "https://dc.lft.to/lastmile_qr_scan", "ios": "https://dc.lft.to/lastmile_qr_scan"}, "fusion_lon": 0.0, "bike_id": "7be1711ece371c5b5809b5f0c0b06151", "is_disabled": 0, "lat": 38.90464016666667, "is_reserved": 0, "type": "electric_scooter"}, {"fusion_lat": 0.0, "name": "d9c2c10e2aa10bab4ec4a8ec11dc636b", "lon": -76.9935575, "rental_uris": {"android": "https://dc.lft.to/lastmile_qr_scan", "ios": "https://dc.lft.to/lastmile_qr_scan"}, "fusion_lon": 0.0, "bike_id": "d9c2c10e2aa10bab4ec4a8ec11dc636b", "is_disabled": 0, "lat": 38.877837166666666, "is_reserved": 0, "type": "electric_scooter"}, {"fusion_lat": 0.0, "name": "b61d2eeb33e03ca188232ff3f60eb2c0", "lon": -77.01998816666666, "rental_uris": {"android": "https://dc.lft.to/lastmile_qr_scan", "ios": "https://dc.lft.to/lastmile_qr_scan"}, "fusion_lon": 0.0, "bike_id": "b61d2eeb33e03ca188232ff3f60eb2c0", "is_disabled": 0, "lat": 38.899676666666664, "is_reserved": 0, "type": "electric_scooter"}, {"fusion_lat": 0.0, "name": "29eafe1fa3af9117d3f4ce6adeebb89c", "lon": -77.01580033333333, "rental_uris": {"android": "https://dc.lft.to/lastmile_qr_scan", "ios": "https://dc.lft.to/lastmile_qr_scan"}, "fusion_lon": 0.0, "bike_id": "29eafe1fa3af9117d3f4ce6adeebb89c", "is_disabled": 0, "lat": 38.88502783333333, "is_reserved": 0, "type": "electric_scooter"}, {"fusion_lat": 0.0, "name": "0857de82d6260d7130cad39cf0bdba1b", "lon": -77.064484, "rental_uris": {"android": "https://dc.lft.to/lastmile_qr_scan", "ios": "https://dc.lft.to/lastmile_qr_scan"}, "fusion_lon": 0.0, "bike_id": "0857de82d6260d7130cad39cf0bdba1b", "is_disabled": 0, "lat": 38.905231, "is_reserved": 0, "type": "electric_scooter"}, {"fusion_lat": 0.0, "name": "8d011d9e8f9ca65995016c898f8ff211", "lon": -77.03305183333333, "rental_uris": {"android": "https://dc.lft.to/lastmile_qr_scan", "ios": "https://dc.lft.to/lastmile_qr_scan"}, "fusion_lon": 0.0, "bike_id": "8d011d9e8f9ca65995016c898f8ff211", "is_disabled": 0, "lat": 38.89811533333334, "is_reserved": 0, "type": "electric_scooter"}, {"fusion_lat": 0.0, "name": "2cf5369f77e776cf306fd4fb14523dec", "lon": -77.032059, "rental_uris": {"android": "https://dc.lft.to/lastmile_qr_scan", "ios": "https://dc.lft.to/lastmile_qr_scan"}, "fusion_lon": 0.0, "bike_id": "2cf5369f77e776cf306fd4fb14523dec", "is_disabled": 0, "lat": 38.9179945, "is_reserved": 0, "type": "electric_scooter"}, {"fusion_lat": 0.0, "name": "2eecf353209d80b220b8b4cf34b2aa15", "lon": -77.00922616666666, "rental_uris": {"android": "https://dc.lft.to/lastmile_qr_scan", "ios": "https://dc.lft.to/lastmile_qr_scan"}, "fusion_lon": 0.0, "bike_id": "2eecf353209d80b220b8b4cf34b2aa15", "is_disabled": 0, "lat": 38.827832, "is_reserved": 0, "type": "electric_bike"}, {"fusion_lat": 0.0, "name": "17b2d742148925ea4bbcf99ed3bfded1", "lon": -77.04370733333333, "rental_uris": {"android": "https://dc.lft.to/lastmile_qr_scan", "ios": "https://dc.lft.to/lastmile_qr_scan"}, "fusion_lon": 0.0, "bike_id": "17b2d742148925ea4bbcf99ed3bfded1", "is_disabled": 0, "lat": 38.89229666666667, "is_reserved": 0, "type": "electric_scooter"}, {"fusion_lat": 0.0, "name": "690b950dd3d3c79175fc266835902bb6", "lon": -77.03152183333333, "rental_uris": {"android": "https://dc.lft.to/lastmile_qr_scan", "ios": "https://dc.lft.to/lastmile_qr_scan"}, "fusion_lon": 0.0, "bike_id": "690b950dd3d3c79175fc266835902bb6", "is_disabled": 0, "lat": 38.919082, "is_reserved": 0, "type": "electric_scooter"}, {"fusion_lat": 0.0, "name": "489d7801760314feb85a6c382e4db372", "lon": -77.05045883333334, "rental_uris": {"android": "https://dc.lft.to/lastmile_qr_scan", "ios": "https://dc.lft.to/lastmile_qr_scan"}, "fusion_lon": 0.0, "bike_id": "489d7801760314feb85a6c382e4db372", "is_disabled": 0, "lat": 38.92356683333333, "is_reserved": 0, "type": "electric_scooter"}, {"fusion_lat": 0.0, "name": "d3979f26a1ab46e96e9beebb2432bffe", "lon": -77.023205, "rental_uris": {"android": "https://dc.lft.to/lastmile_qr_scan", "ios": "https://dc.lft.to/lastmile_qr_scan"}, "fusion_lon": 0.0, "bike_id": "d3979f26a1ab46e96e9beebb2432bffe", "is_disabled": 0, "lat": 38.918357666666665, "is_reserved": 0, "type": "electric_scooter"}, {"fusion_lat": 0.0, "name": "f2749b3bf440f11eac9ee2caa60a2812", "lon": -77.04364866666667, "rental_uris": {"android": "https://dc.lft.to/lastmile_qr_scan", "ios": "https://dc.lft.to/lastmile_qr_scan"}, "fusion_lon": 0.0, "bike_id": "f2749b3bf440f11eac9ee2caa60a2812", "is_disabled": 0, "lat": 38.90800933333333, "is_reserved": 0, "type": "electric_scooter"}, {"fusion_lat": 0.0, "name": "283c5e1d5a6dfe23648c748f012fb4f9", "lon": -77.01204016666667, "rental_uris": {"android": "https://dc.lft.to/lastmile_qr_scan", "ios": "https://dc.lft.to/lastmile_qr_scan"}, "fusion_lon": 0.0, "bike_id": "283c5e1d5a6dfe23648c748f012fb4f9", "is_disabled": 0, "lat": 38.89764, "is_reserved": 0, "type": "electric_scooter"}, {"fusion_lat": 0.0, "name": "6ea6a586c690284610ccfcb468f7389c", "lon": -77.051314, "rental_uris": {"android": "https://dc.lft.to/lastmile_qr_scan", "ios": "https://dc.lft.to/lastmile_qr_scan"}, "fusion_lon": 0.0, "bike_id": "6ea6a586c690284610ccfcb468f7389c", "is_disabled": 0, "lat": 38.90582216666667, "is_reserved": 0, "type": "electric_scooter"}, {"fusion_lat": 0.0, "name": "1e8dfb0d13647fe6427c174caa85f3a2", "lon": -77.0239815, "rental_uris": {"android": "https://dc.lft.to/lastmile_qr_scan", "ios": "https://dc.lft.to/lastmile_qr_scan"}, "fusion_lon": 0.0, "bike_id": "1e8dfb0d13647fe6427c174caa85f3a2", "is_disabled": 0, "lat": 38.920814166666666, "is_reserved": 0, "type": "electric_scooter"}, {"fusion_lat": 0.0, "name": "adf3232cb084e8b52246ddc03f2336f4", "lon": -77.04364416666667, "rental_uris": {"android": "https://dc.lft.to/lastmile_qr_scan", "ios": "https://dc.lft.to/lastmile_qr_scan"}, "fusion_lon": 0.0, "bike_id": "adf3232cb084e8b52246ddc03f2336f4", "is_disabled": 0, "lat": 38.927908333333335, "is_reserved": 0, "type": "electric_scooter"}, {"fusion_lat": 0.0, "name": "c4b4a5f307275952599132881f88d938", "lon": -77.02580583333334, "rental_uris": {"android": "https://dc.lft.to/lastmile_qr_scan", "ios": "https://dc.lft.to/lastmile_qr_scan"}, "fusion_lon": 0.0, "bike_id": "c4b4a5f307275952599132881f88d938", "is_disabled": 0, "lat": 38.914859166666666, "is_reserved": 0, "type": "electric_scooter"}, {"fusion_lat": 0.0, "name": "8c026e0eb89f99c8deb1514f857fe933", "lon": -77.05860983333334, "rental_uris": {"android": "https://dc.lft.to/lastmile_qr_scan", "ios": "https://dc.lft.to/lastmile_qr_scan"}, "fusion_lon": 0.0, "bike_id": "8c026e0eb89f99c8deb1514f857fe933", "is_disabled": 0, "lat": 38.936015, "is_reserved": 0, "type": "electric_scooter"}, {"fusion_lat": 0.0, "name": "4e28289ee17f42e79d1821579fabc3da", "lon": -77.03082833333333, "rental_uris": {"android": "https://dc.lft.to/lastmile_qr_scan", "ios": "https://dc.lft.to/lastmile_qr_scan"}, "fusion_lon": 0.0, "bike_id": "4e28289ee17f42e79d1821579fabc3da", "is_disabled": 0, "lat": 38.9330655, "is_reserved": 0, "type": "electric_scooter"}, {"fusion_lat": 0.0, "name": "f8e2af9928bdeb9827f053a3b6d19c19", "lon": -77.02369, "rental_uris": {"android": "https://dc.lft.to/lastmile_qr_scan", "ios": "https://dc.lft.to/lastmile_qr_scan"}, "fusion_lon": 0.0, "bike_id": "f8e2af9928bdeb9827f053a3b6d19c19", "is_disabled": 0, "lat": 38.92070483333333, "is_reserved": 0, "type": "electric_scooter"}, {"fusion_lat": 0.0, "name": "58f0531e3c7315e1a66cab94df9d030e", "lon": -77.037789, "rental_uris": {"android": "https://dc.lft.to/lastmile_qr_scan", "ios": "https://dc.lft.to/lastmile_qr_scan"}, "fusion_lon": 0.0, "bike_id": "58f0531e3c7315e1a66cab94df9d030e", "is_disabled": 0, "lat": 38.91690416666667, "is_reserved": 0, "type": "electric_scooter"}, {"fusion_lat": 0.0, "name": "6663dfe2bb0ff8c1066e241efd185aad", "lon": -77.0326895, "rental_uris": {"android": "https://dc.lft.to/lastmile_qr_scan", "ios": "https://dc.lft.to/lastmile_qr_scan"}, "fusion_lon": 0.0, "bike_id": "6663dfe2bb0ff8c1066e241efd185aad", "is_disabled": 0, "lat": 38.9398545, "is_reserved": 0, "type": "electric_scooter"}, {"fusion_lat": 0.0, "name": "4e9eed48a7b8488d4d889e27113bddc1", "lon": -77.03718866666667, "rental_uris": {"android": "https://dc.lft.to/lastmile_qr_scan", "ios": "https://dc.lft.to/lastmile_qr_scan"}, "fusion_lon": 0.0, "bike_id": "4e9eed48a7b8488d4d889e27113bddc1", "is_disabled": 0, "lat": 38.916161833333334, "is_reserved": 0, "type": "electric_scooter"}, {"fusion_lat": 0.0, "name": "04e213027299f626f931bbab570cbfb1", "lon": -77.04330033333333, "rental_uris": {"android": "https://dc.lft.to/lastmile_qr_scan", "ios": "https://dc.lft.to/lastmile_qr_scan"}, "fusion_lon": 0.0, "bike_id": "04e213027299f626f931bbab570cbfb1", "is_disabled": 0, "lat": 38.901058, "is_reserved": 0, "type": "electric_scooter"}, {"fusion_lat": 0.0, "name": "21e1dfd780169b92dd59b809a51ad620", "lon": -76.9932905, "rental_uris": {"android": "https://dc.lft.to/lastmile_qr_scan", "ios": "https://dc.lft.to/lastmile_qr_scan"}, "fusion_lon": 0.0, "bike_id": "21e1dfd780169b92dd59b809a51ad620", "is_disabled": 0, "lat": 38.871430833333335, "is_reserved": 0, "type": "electric_scooter"}, {"fusion_lat": 0.0, "name": "88a13ef6d02fb046cd5df5c03dd9d38a", "lon": -77.08171633333333, "rental_uris": {"android": "https://dc.lft.to/lastmile_qr_scan", "ios": "https://dc.lft.to/lastmile_qr_scan"}, "fusion_lon": 0.0, "bike_id": "88a13ef6d02fb046cd5df5c03dd9d38a", "is_disabled": 0, "lat": 38.935423166666666, "is_reserved": 0, "type": "electric_bike"}, {"fusion_lat": 0.0, "name": "300ae81eb4434a437ffe6e86ecf021e0", "lon": -77.02791883333333, "rental_uris": {"android": "https://dc.lft.to/lastmile_qr_scan", "ios": "https://dc.lft.to/lastmile_qr_scan"}, "fusion_lon": 0.0, "bike_id": "300ae81eb4434a437ffe6e86ecf021e0", "is_disabled": 0, "lat": 38.930809833333335, "is_reserved": 0, "type": "electric_scooter"}, {"fusion_lat": 0.0, "name": "d2d4a6e7d0ab03f5508954d5c18e8ba1", "lon": -77.01117266666667, "rental_uris": {"android": "https://dc.lft.to/lastmile_qr_scan", "ios": "https://dc.lft.to/lastmile_qr_scan"}, "fusion_lon": 0.0, "bike_id": "d2d4a6e7d0ab03f5508954d5c18e8ba1", "is_disabled": 0, "lat": 38.920271166666666, "is_reserved": 0, "type": "electric_scooter"}, {"fusion_lat": 0.0, "name": "6ba568643b6110f8bf0b8fa6eb74d29a", "lon": -77.05711916666667, "rental_uris": {"android": "https://dc.lft.to/lastmile_qr_scan", "ios": "https://dc.lft.to/lastmile_qr_scan"}, "fusion_lon": 0.0, "bike_id": "6ba568643b6110f8bf0b8fa6eb74d29a", "is_disabled": 0, "lat": 38.9333295, "is_reserved": 0, "type": "electric_scooter"}, {"fusion_lat": 0.0, "name": "f26a12dfc210838c209d820fd388903a", "lon": -77.02578066666666, "rental_uris": {"android": "https://dc.lft.to/lastmile_qr_scan", "ios": "https://dc.lft.to/lastmile_qr_scan"}, "fusion_lon": 0.0, "bike_id": "f26a12dfc210838c209d820fd388903a", "is_disabled": 0, "lat": 38.931865333333334, "is_reserved": 0, "type": "electric_scooter"}, {"fusion_lat": 0.0, "name": "557024f2f782655309147481bbe13401", "lon": -77.02194716666666, "rental_uris": {"android": "https://dc.lft.to/lastmile_qr_scan", "ios": "https://dc.lft.to/lastmile_qr_scan"}, "fusion_lon": 0.0, "bike_id": "557024f2f782655309147481bbe13401", "is_disabled": 0, "lat": 38.911216, "is_reserved": 0, "type": "electric_scooter"}, {"fusion_lat": 0.0, "name": "7d5e238b748924e41c2c81a46bbebb86", "lon": -77.036747, "rental_uris": {"android": "https://dc.lft.to/lastmile_qr_scan", "ios": "https://dc.lft.to/lastmile_qr_scan"}, "fusion_lon": 0.0, "bike_id": "7d5e238b748924e41c2c81a46bbebb86", "is_disabled": 0, "lat": 38.9024585, "is_reserved": 0, "type": "electric_scooter"}, {"fusion_lat": 0.0, "name": "3b7c120df7a7218dad458b174f79e11a", "lon": -77.03291016666667, "rental_uris": {"android": "https://dc.lft.to/lastmile_qr_scan", "ios": "https://dc.lft.to/lastmile_qr_scan"}, "fusion_lon": 0.0, "bike_id": "3b7c120df7a7218dad458b174f79e11a", "is_disabled": 0, "lat": 38.95626383333333, "is_reserved": 0, "type": "electric_scooter"}, {"fusion_lat": 0.0, "name": "82d2de3cef26a3b052682bdcd0c9bacd", "lon": -77.0279795, "rental_uris": {"android": "https://dc.lft.to/lastmile_qr_scan", "ios": "https://dc.lft.to/lastmile_qr_scan"}, "fusion_lon": 0.0, "bike_id": "82d2de3cef26a3b052682bdcd0c9bacd", "is_disabled": 0, "lat": 38.9428835, "is_reserved": 0, "type": "electric_scooter"}, {"fusion_lat": 0.0, "name": "d32d75d8e41b93647b0db2ec9feaadac", "lon": -77.02800633333334, "rental_uris": {"android": "https://dc.lft.to/lastmile_qr_scan", "ios": "https://dc.lft.to/lastmile_qr_scan"}, "fusion_lon": 0.0, "bike_id": "d32d75d8e41b93647b0db2ec9feaadac", "is_disabled": 0, "lat": 38.89228333333333, "is_reserved": 0, "type": "electric_scooter"}, {"fusion_lat": 0.0, "name": "1abef725000953e0de6fac9186b78a6b", "lon": -77.05044066666666, "rental_uris": {"android": "https://dc.lft.to/lastmile_qr_scan", "ios": "https://dc.lft.to/lastmile_qr_scan"}, "fusion_lon": 0.0, "bike_id": "1abef725000953e0de6fac9186b78a6b", "is_disabled": 0, "lat": 38.9251365, "is_reserved": 0, "type": "electric_scooter"}, {"fusion_lat": 0.0, "name": "81acbf99de82106dae75f73f31d57ffe", "lon": -77.0162105, "rental_uris": {"android": "https://dc.lft.to/lastmile_qr_scan", "ios": "https://dc.lft.to/lastmile_qr_scan"}, "fusion_lon": 0.0, "bike_id": "81acbf99de82106dae75f73f31d57ffe", "is_disabled": 0, "lat": 38.90685666666667, "is_reserved": 0, "type": "electric_scooter"}, {"fusion_lat": 0.0, "name": "8fd85108d8ffdac1ef627ada5d825ac5", "lon": -77.04251616666667, "rental_uris": {"android": "https://dc.lft.to/lastmile_qr_scan", "ios": "https://dc.lft.to/lastmile_qr_scan"}, "fusion_lon": 0.0, "bike_id": "8fd85108d8ffdac1ef627ada5d825ac5", "is_disabled": 0, "lat": 38.92204383333333, "is_reserved": 0, "type": "electric_scooter"}, {"fusion_lat": 0.0, "name": "b6d111f903785b5f91255c6c10847018", "lon": -77.04160266666666, "rental_uris": {"android": "https://dc.lft.to/lastmile_qr_scan", "ios": "https://dc.lft.to/lastmile_qr_scan"}, "fusion_lon": 0.0, "bike_id": "b6d111f903785b5f91255c6c10847018", "is_disabled": 0, "lat": 38.892358333333334, "is_reserved": 0, "type": "electric_scooter"}, {"fusion_lat": 0.0, "name": "3b37b5448b3eb0598d0feaece22ceb5c", "lon": -77.0003065, "rental_uris": {"android": "https://dc.lft.to/lastmile_qr_scan", "ios": "https://dc.lft.to/lastmile_qr_scan"}, "fusion_lon": 0.0, "bike_id": "3b37b5448b3eb0598d0feaece22ceb5c", "is_disabled": 0, "lat": 38.8738915, "is_reserved": 0, "type": "electric_scooter"}, {"fusion_lat": 0.0, "name": "9e5577a231c12375bc7f233237a19122", "lon": -77.00282733333333, "rental_uris": {"android": "https://dc.lft.to/lastmile_qr_scan", "ios": "https://dc.lft.to/lastmile_qr_scan"}, "fusion_lon": 0.0, "bike_id": "9e5577a231c12375bc7f233237a19122", "is_disabled": 0, "lat": 38.906949, "is_reserved": 0, "type": "electric_scooter"}, {"fusion_lat": 0.0, "name": "0e3cccd5f5424bf4c8897ab025482835", "lon": -77.03309983333334, "rental_uris": {"android": "https://dc.lft.to/lastmile_qr_scan", "ios": "https://dc.lft.to/lastmile_qr_scan"}, "fusion_lon": 0.0, "bike_id": "0e3cccd5f5424bf4c8897ab025482835", "is_disabled": 0, "lat": 38.8973795, "is_reserved": 0, "type": "electric_scooter"}, {"fusion_lat": 0.0, "name": "b445a8ac3a4ca0df825a2c53f6ac054d", "lon": -76.99500583333334, "rental_uris": {"android": "https://dc.lft.to/lastmile_qr_scan", "ios": "https://dc.lft.to/lastmile_qr_scan"}, "fusion_lon": 0.0, "bike_id": "b445a8ac3a4ca0df825a2c53f6ac054d", "is_disabled": 0, "lat": 38.862429666666664, "is_reserved": 0, "type": "electric_scooter"}, {"fusion_lat": 0.0, "name": "6a7a7612ef66968a76a8d6ea8f4268d0", "lon": -76.99878133333333, "rental_uris": {"android": "https://dc.lft.to/lastmile_qr_scan", "ios": "https://dc.lft.to/lastmile_qr_scan"}, "fusion_lon": 0.0, "bike_id": "6a7a7612ef66968a76a8d6ea8f4268d0", "is_disabled": 0, "lat": 38.95268333333333, "is_reserved": 0, "type": "electric_scooter"}, {"fusion_lat": 0.0, "name": "71919a1b8435a90ce7c01882bee9c03a", "lon": -76.99002416666667, "rental_uris": {"android": "https://dc.lft.to/lastmile_qr_scan", "ios": "https://dc.lft.to/lastmile_qr_scan"}, "fusion_lon": 0.0, "bike_id": "71919a1b8435a90ce7c01882bee9c03a", "is_disabled": 0, "lat": 38.86498666666667, "is_reserved": 0, "type": "electric_scooter"}, {"fusion_lat": 0.0, "name": "26f1a43768333106109182c0b7266e32", "lon": -77.01896533333333, "rental_uris": {"android": "https://dc.lft.to/lastmile_qr_scan", "ios": "https://dc.lft.to/lastmile_qr_scan"}, "fusion_lon": 0.0, "bike_id": "26f1a43768333106109182c0b7266e32", "is_disabled": 0, "lat": 38.908859666666665, "is_reserved": 0, "type": "electric_scooter"}, {"fusion_lat": 0.0, "name": "0417869db69bc3f505542f08beb65656", "lon": -76.9327695, "rental_uris": {"android": "https://dc.lft.to/lastmile_qr_scan", "ios": "https://dc.lft.to/lastmile_qr_scan"}, "fusion_lon": 0.0, "bike_id": "0417869db69bc3f505542f08beb65656", "is_disabled": 0, "lat": 38.954197666666666, "is_reserved": 0, "type": "electric_bike"}, {"fusion_lat": 0.0, "name": "c34729cd6bcee8da0b1ae87f720daa4e", "lon": -77.02734666666667, "rental_uris": {"android": "https://dc.lft.to/lastmile_qr_scan", "ios": "https://dc.lft.to/lastmile_qr_scan"}, "fusion_lon": 0.0, "bike_id": "c34729cd6bcee8da0b1ae87f720daa4e", "is_disabled": 0, "lat": 38.88741733333333, "is_reserved": 0, "type": "electric_scooter"}, {"fusion_lat": 0.0, "name": "546b2fe7d6b346cdd3a48be76fa88347", "lon": -77.04102416666667, "rental_uris": {"android": "https://dc.lft.to/lastmile_qr_scan", "ios": "https://dc.lft.to/lastmile_qr_scan"}, "fusion_lon": 0.0, "bike_id": "546b2fe7d6b346cdd3a48be76fa88347", "is_disabled": 0, "lat": 38.918400166666665, "is_reserved": 0, "type": "electric_scooter"}, {"fusion_lat": 0.0, "name": "77bcbfdc4afd19e8a224347bd324e9e3", "lon": -77.024745, "rental_uris": {"android": "https://dc.lft.to/lastmile_qr_scan", "ios": "https://dc.lft.to/lastmile_qr_scan"}, "fusion_lon": 0.0, "bike_id": "77bcbfdc4afd19e8a224347bd324e9e3", "is_disabled": 0, "lat": 38.93910133333333, "is_reserved": 0, "type": "electric_scooter"}, {"fusion_lat": 0.0, "name": "24537021b588c426fc0e3193ee4230a6", "lon": -77.00942916666666, "rental_uris": {"android": "https://dc.lft.to/lastmile_qr_scan", "ios": "https://dc.lft.to/lastmile_qr_scan"}, "fusion_lon": 0.0, "bike_id": "24537021b588c426fc0e3193ee4230a6", "is_disabled": 0, "lat": 38.876330833333334, "is_reserved": 0, "type": "electric_scooter"}, {"fusion_lat": 0.0, "name": "ece76866fdda61f7f85bb3a715781af2", "lon": -77.07246366666666, "rental_uris": {"android": "https://dc.lft.to/lastmile_qr_scan", "ios": "https://dc.lft.to/lastmile_qr_scan"}, "fusion_lon": 0.0, "bike_id": "ece76866fdda61f7f85bb3a715781af2", "is_disabled": 0, "lat": 38.93948833333334, "is_reserved": 0, "type": "electric_scooter"}, {"fusion_lat": 0.0, "name": "18901038105d4594d1f0f37ba8475c63", "lon": -77.04960216666667, "rental_uris": {"android": "https://dc.lft.to/lastmile_qr_scan", "ios": "https://dc.lft.to/lastmile_qr_scan"}, "fusion_lon": 0.0, "bike_id": "18901038105d4594d1f0f37ba8475c63", "is_disabled": 0, "lat": 38.90060833333333, "is_reserved": 0, "type": "electric_scooter"}, {"fusion_lat": 0.0, "name": "9d210238d04d2bc962345a33784ec1a8", "lon": -77.041725, "rental_uris": {"android": "https://dc.lft.to/lastmile_qr_scan", "ios": "https://dc.lft.to/lastmile_qr_scan"}, "fusion_lon": 0.0, "bike_id": "9d210238d04d2bc962345a33784ec1a8", "is_disabled": 0, "lat": 38.918157, "is_reserved": 0, "type": "electric_scooter"}, {"fusion_lat": 0.0, "name": "e9624074f0d8ab0e977d274e2a892d07", "lon": -77.02352383333333, "rental_uris": {"android": "https://dc.lft.to/lastmile_qr_scan", "ios": "https://dc.lft.to/lastmile_qr_scan"}, "fusion_lon": 0.0, "bike_id": "e9624074f0d8ab0e977d274e2a892d07", "is_disabled": 0, "lat": 38.935306, "is_reserved": 0, "type": "electric_scooter"}, {"fusion_lat": 0.0, "name": "3ff3b129792cc25e080ce3d532216f61", "lon": -76.9734605, "rental_uris": {"android": "https://dc.lft.to/lastmile_qr_scan", "ios": "https://dc.lft.to/lastmile_qr_scan"}, "fusion_lon": 0.0, "bike_id": "3ff3b129792cc25e080ce3d532216f61", "is_disabled": 0, "lat": 38.8651395, "is_reserved": 0, "type": "electric_bike"}, {"fusion_lat": 0.0, "name": "a3edd5a6c1c283e218e8c0acc04e47bc", "lon": -77.02168516666667, "rental_uris": {"android": "https://dc.lft.to/lastmile_qr_scan", "ios": "https://dc.lft.to/lastmile_qr_scan"}, "fusion_lon": 0.0, "bike_id": "a3edd5a6c1c283e218e8c0acc04e47bc", "is_disabled": 0, "lat": 38.897176333333334, "is_reserved": 0, "type": "electric_scooter"}, {"fusion_lat": 0.0, "name": "addf08e1b9daa668d4f93823f4bf09c7", "lon": -77.020195, "rental_uris": {"android": "https://dc.lft.to/lastmile_qr_scan", "ios": "https://dc.lft.to/lastmile_qr_scan"}, "fusion_lon": 0.0, "bike_id": "addf08e1b9daa668d4f93823f4bf09c7", "is_disabled": 0, "lat": 38.899766166666666, "is_reserved": 0, "type": "electric_scooter"}, {"fusion_lat": 0.0, "name": "0bcad91daafab2f139e3a564c5627fe3", "lon": -77.0241165, "rental_uris": {"android": "https://dc.lft.to/lastmile_qr_scan", "ios": "https://dc.lft.to/lastmile_qr_scan"}, "fusion_lon": 0.0, "bike_id": "0bcad91daafab2f139e3a564c5627fe3", "is_disabled": 0, "lat": 38.9190765, "is_reserved": 0, "type": "electric_scooter"}, {"fusion_lat": 0.0, "name": "c72360af4ea345e5b3c54253863f3fe0", "lon": -77.0091085, "rental_uris": {"android": "https://dc.lft.to/lastmile_qr_scan", "ios": "https://dc.lft.to/lastmile_qr_scan"}, "fusion_lon": 0.0, "bike_id": "c72360af4ea345e5b3c54253863f3fe0", "is_disabled": 0, "lat": 38.87491283333333, "is_reserved": 0, "type": "electric_scooter"}, {"fusion_lat": 0.0, "name": "6b0dfa7b5ace65d33114dbbcff2df858", "lon": -77.03163316666667, "rental_uris": {"android": "https://dc.lft.to/lastmile_qr_scan", "ios": "https://dc.lft.to/lastmile_qr_scan"}, "fusion_lon": 0.0, "bike_id": "6b0dfa7b5ace65d33114dbbcff2df858", "is_disabled": 0, "lat": 38.892146333333336, "is_reserved": 0, "type": "electric_scooter"}, {"fusion_lat": 0.0, "name": "e6bc364373573699064cdd714540144e", "lon": -77.031444, "rental_uris": {"android": "https://dc.lft.to/lastmile_qr_scan", "ios": "https://dc.lft.to/lastmile_qr_scan"}, "fusion_lon": 0.0, "bike_id": "e6bc364373573699064cdd714540144e", "is_disabled": 0, "lat": 38.91759183333333, "is_reserved": 0, "type": "electric_scooter"}, {"fusion_lat": 0.0, "name": "2bf8c85c72529335cab65bf0091cdb1b", "lon": -77.034826, "rental_uris": {"android": "https://dc.lft.to/lastmile_qr_scan", "ios": "https://dc.lft.to/lastmile_qr_scan"}, "fusion_lon": 0.0, "bike_id": "2bf8c85c72529335cab65bf0091cdb1b", "is_disabled": 0, "lat": 38.916991333333335, "is_reserved": 0, "type": "electric_scooter"}, {"fusion_lat": 0.0, "name": "694f3fde36754b8c05c3419855eb082f", "lon": -77.03297816666667, "rental_uris": {"android": "https://dc.lft.to/lastmile_qr_scan", "ios": "https://dc.lft.to/lastmile_qr_scan"}, "fusion_lon": 0.0, "bike_id": "694f3fde36754b8c05c3419855eb082f", "is_disabled": 0, "lat": 38.903379666666666, "is_reserved": 0, "type": "electric_scooter"}, {"fusion_lat": 0.0, "name": "0c2871c5cd96528f9c5b50fbd7be03e8", "lon": -77.03686, "rental_uris": {"android": "https://dc.lft.to/lastmile_qr_scan", "ios": "https://dc.lft.to/lastmile_qr_scan"}, "fusion_lon": 0.0, "bike_id": "0c2871c5cd96528f9c5b50fbd7be03e8", "is_disabled": 0, "lat": 38.91668416666667, "is_reserved": 0, "type": "electric_scooter"}, {"fusion_lat": 0.0, "name": "a0447df2d4aad7b6dbcb5e85da3c3b93", "lon": -76.97011366666666, "rental_uris": {"android": "https://dc.lft.to/lastmile_qr_scan", "ios": "https://dc.lft.to/lastmile_qr_scan"}, "fusion_lon": 0.0, "bike_id": "a0447df2d4aad7b6dbcb5e85da3c3b93", "is_disabled": 0, "lat": 38.8525525, "is_reserved": 0, "type": "electric_scooter"}, {"fusion_lat": 0.0, "name": "964d314ae8db6f5ce6d8e4c4c25c0557", "lon": -77.046447, "rental_uris": {"android": "https://dc.lft.to/lastmile_qr_scan", "ios": "https://dc.lft.to/lastmile_qr_scan"}, "fusion_lon": 0.0, "bike_id": "964d314ae8db6f5ce6d8e4c4c25c0557", "is_disabled": 0, "lat": 38.906275, "is_reserved": 0, "type": "electric_scooter"}, {"fusion_lat": 0.0, "name": "cf503329618aa36c9bd5c4ceefc294c5", "lon": -76.93109866666667, "rental_uris": {"android": "https://dc.lft.to/lastmile_qr_scan", "ios": "https://dc.lft.to/lastmile_qr_scan"}, "fusion_lon": 0.0, "bike_id": "cf503329618aa36c9bd5c4ceefc294c5", "is_disabled": 0, "lat": 38.889902666666664, "is_reserved": 0, "type": "electric_scooter"}, {"fusion_lat": 0.0, "name": "41628930291e5df3be3e43a2a15fdcc5", "lon": -77.023103, "rental_uris": {"android": "https://dc.lft.to/lastmile_qr_scan", "ios": "https://dc.lft.to/lastmile_qr_scan"}, "fusion_lon": 0.0, "bike_id": "41628930291e5df3be3e43a2a15fdcc5", "is_disabled": 0, "lat": 38.91843733333333, "is_reserved": 0, "type": "electric_scooter"}, {"fusion_lat": 0.0, "name": "8a00ef86c3a5498b793705d8d38a95ee", "lon": -77.04238466666666, "rental_uris": {"android": "https://dc.lft.to/lastmile_qr_scan", "ios": "https://dc.lft.to/lastmile_qr_scan"}, "fusion_lon": 0.0, "bike_id": "8a00ef86c3a5498b793705d8d38a95ee", "is_disabled": 0, "lat": 38.92207283333333, "is_reserved": 0, "type": "electric_scooter"}, {"fusion_lat": 0.0, "name": "7934aa1349cc0e8a0c7defeb49d3971e", "lon": -76.951145, "rental_uris": {"android": "https://dc.lft.to/lastmile_qr_scan", "ios": "https://dc.lft.to/lastmile_qr_scan"}, "fusion_lon": 0.0, "bike_id": "7934aa1349cc0e8a0c7defeb49d3971e", "is_disabled": 0, "lat": 38.8931575, "is_reserved": 0, "type": "electric_scooter"}, {"fusion_lat": 0.0, "name": "48926ce1fe564f06e4cc1e5e8b4f89de", "lon": -77.024746, "rental_uris": {"android": "https://dc.lft.to/lastmile_qr_scan", "ios": "https://dc.lft.to/lastmile_qr_scan"}, "fusion_lon": 0.0, "bike_id": "48926ce1fe564f06e4cc1e5e8b4f89de", "is_disabled": 0, "lat": 38.939099166666665, "is_reserved": 0, "type": "electric_scooter"}, {"fusion_lat": 0.0, "name": "078035b54edde914d6b0020acfc899c0", "lon": -77.02506666666666, "rental_uris": {"android": "https://dc.lft.to/lastmile_qr_scan", "ios": "https://dc.lft.to/lastmile_qr_scan"}, "fusion_lon": 0.0, "bike_id": "078035b54edde914d6b0020acfc899c0", "is_disabled": 0, "lat": 38.901779166666664, "is_reserved": 0, "type": "electric_scooter"}, {"fusion_lat": 0.0, "name": "b80296bb1814d830f914af80ef1ea8b6", "lon": -77.02094483333333, "rental_uris": {"android": "https://dc.lft.to/lastmile_qr_scan", "ios": "https://dc.lft.to/lastmile_qr_scan"}, "fusion_lon": 0.0, "bike_id": "b80296bb1814d830f914af80ef1ea8b6", "is_disabled": 0, "lat": 38.89420066666667, "is_reserved": 0, "type": "electric_scooter"}, {"fusion_lat": 0.0, "name": "e4694aadee43c506a990758333d3393b", "lon": -77.03051916666666, "rental_uris": {"android": "https://dc.lft.to/lastmile_qr_scan", "ios": "https://dc.lft.to/lastmile_qr_scan"}, "fusion_lon": 0.0, "bike_id": "e4694aadee43c506a990758333d3393b", "is_disabled": 0, "lat": 38.88421783333333, "is_reserved": 0, "type": "electric_scooter"}, {"fusion_lat": 0.0, "name": "210431d227498498f9b38e336d67548a", "lon": -77.02195766666667, "rental_uris": {"android": "https://dc.lft.to/lastmile_qr_scan", "ios": "https://dc.lft.to/lastmile_qr_scan"}, "fusion_lon": 0.0, "bike_id": "210431d227498498f9b38e336d67548a", "is_disabled": 0, "lat": 38.91690283333333, "is_reserved": 0, "type": "electric_scooter"}, {"fusion_lat": 0.0, "name": "72ade3c88c32f23f71d62e8bd1972721", "lon": -77.03882466666667, "rental_uris": {"android": "https://dc.lft.to/lastmile_qr_scan", "ios": "https://dc.lft.to/lastmile_qr_scan"}, "fusion_lon": 0.0, "bike_id": "72ade3c88c32f23f71d62e8bd1972721", "is_disabled": 0, "lat": 38.931261166666665, "is_reserved": 0, "type": "electric_scooter"}, {"fusion_lat": 0.0, "name": "048bb313dd5837e6eb25ca7941d913f2", "lon": -77.01878766666667, "rental_uris": {"android": "https://dc.lft.to/lastmile_qr_scan", "ios": "https://dc.lft.to/lastmile_qr_scan"}, "fusion_lon": 0.0, "bike_id": "048bb313dd5837e6eb25ca7941d913f2", "is_disabled": 0, "lat": 38.932056333333335, "is_reserved": 0, "type": "electric_bike"}, {"fusion_lat": 0.0, "name": "c69b2989ae2c58e8369c57ba408f6906", "lon": -77.03700883333333, "rental_uris": {"android": "https://dc.lft.to/lastmile_qr_scan", "ios": "https://dc.lft.to/lastmile_qr_scan"}, "fusion_lon": 0.0, "bike_id": "c69b2989ae2c58e8369c57ba408f6906", "is_disabled": 0, "lat": 38.92832633333333, "is_reserved": 0, "type": "electric_scooter"}, {"fusion_lat": 0.0, "name": "fc9b763f15f7bf14bdc1955a17679db3", "lon": -77.0154415, "rental_uris": {"android": "https://dc.lft.to/lastmile_qr_scan", "ios": "https://dc.lft.to/lastmile_qr_scan"}, "fusion_lon": 0.0, "bike_id": "fc9b763f15f7bf14bdc1955a17679db3", "is_disabled": 0, "lat": 38.89169666666667, "is_reserved": 0, "type": "electric_scooter"}, {"fusion_lat": 0.0, "name": "23cd4cdf1bdb32bff1a5b4894c0f0dd8", "lon": -77.03964583333334, "rental_uris": {"android": "https://dc.lft.to/lastmile_qr_scan", "ios": "https://dc.lft.to/lastmile_qr_scan"}, "fusion_lon": 0.0, "bike_id": "23cd4cdf1bdb32bff1a5b4894c0f0dd8", "is_disabled": 0, "lat": 38.90259016666667, "is_reserved": 0, "type": "electric_scooter"}, {"fusion_lat": 0.0, "name": "317a3a94544104418f4242bfdb5d0204", "lon": -77.01283633333334, "rental_uris": {"android": "https://dc.lft.to/lastmile_qr_scan", "ios": "https://dc.lft.to/lastmile_qr_scan"}, "fusion_lon": 0.0, "bike_id": "317a3a94544104418f4242bfdb5d0204", "is_disabled": 0, "lat": 38.9515915, "is_reserved": 0, "type": "electric_bike"}, {"fusion_lat": 0.0, "name": "39f388cfae3a3e6a2ccb209e7298116b", "lon": -76.97144433333334, "rental_uris": {"android": "https://dc.lft.to/lastmile_qr_scan", "ios": "https://dc.lft.to/lastmile_qr_scan"}, "fusion_lon": 0.0, "bike_id": "39f388cfae3a3e6a2ccb209e7298116b", "is_disabled": 0, "lat": 38.92336366666667, "is_reserved": 0, "type": "electric_bike"}, {"fusion_lat": 0.0, "name": "dff641d908b1224bb02ad76b88c361e2", "lon": -77.00203833333333, "rental_uris": {"android": "https://dc.lft.to/lastmile_qr_scan", "ios": "https://dc.lft.to/lastmile_qr_scan"}, "fusion_lon": 0.0, "bike_id": "dff641d908b1224bb02ad76b88c361e2", "is_disabled": 0, "lat": 38.907580833333334, "is_reserved": 0, "type": "electric_scooter"}, {"fusion_lat": 0.0, "name": "0d5aac5a55284e43d7293a269c8e0ac5", "lon": -77.03594516666666, "rental_uris": {"android": "https://dc.lft.to/lastmile_qr_scan", "ios": "https://dc.lft.to/lastmile_qr_scan"}, "fusion_lon": 0.0, "bike_id": "0d5aac5a55284e43d7293a269c8e0ac5", "is_disabled": 0, "lat": 38.936753, "is_reserved": 0, "type": "electric_scooter"}, {"fusion_lat": 0.0, "name": "071c9c5f4225c4b51cec02d6fd97d5cd", "lon": -77.0060035, "rental_uris": {"android": "https://dc.lft.to/lastmile_qr_scan", "ios": "https://dc.lft.to/lastmile_qr_scan"}, "fusion_lon": 0.0, "bike_id": "071c9c5f4225c4b51cec02d6fd97d5cd", "is_disabled": 0, "lat": 38.875708333333336, "is_reserved": 0, "type": "electric_scooter"}, {"fusion_lat": 0.0, "name": "109bea08081901178fe973f68455e9bc", "lon": -77.07019683333333, "rental_uris": {"android": "https://dc.lft.to/lastmile_qr_scan", "ios": "https://dc.lft.to/lastmile_qr_scan"}, "fusion_lon": 0.0, "bike_id": "109bea08081901178fe973f68455e9bc", "is_disabled": 0, "lat": 38.91861316666667, "is_reserved": 0, "type": "electric_scooter"}, {"fusion_lat": 0.0, "name": "4c13c976901c7915c959b2706c2073e1", "lon": -76.97247783333333, "rental_uris": {"android": "https://dc.lft.to/lastmile_qr_scan", "ios": "https://dc.lft.to/lastmile_qr_scan"}, "fusion_lon": 0.0, "bike_id": "4c13c976901c7915c959b2706c2073e1", "is_disabled": 0, "lat": 38.9836245, "is_reserved": 0, "type": "electric_bike"}, {"fusion_lat": 0.0, "name": "32066fe4298afce8311009adff239929", "lon": -77.024084, "rental_uris": {"android": "https://dc.lft.to/lastmile_qr_scan", "ios": "https://dc.lft.to/lastmile_qr_scan"}, "fusion_lon": 0.0, "bike_id": "32066fe4298afce8311009adff239929", "is_disabled": 0, "lat": 38.9310495, "is_reserved": 0, "type": "electric_scooter"}, {"fusion_lat": 0.0, "name": "69b19528de17a95654cfbbbc323c7bc2", "lon": -76.99830033333333, "rental_uris": {"android": "https://dc.lft.to/lastmile_qr_scan", "ios": "https://dc.lft.to/lastmile_qr_scan"}, "fusion_lon": 0.0, "bike_id": "69b19528de17a95654cfbbbc323c7bc2", "is_disabled": 0, "lat": 38.9086515, "is_reserved": 0, "type": "electric_scooter"}, {"fusion_lat": 0.0, "name": "a69d6c034879e0466221cea2d2658530", "lon": -77.048966, "rental_uris": {"android": "https://dc.lft.to/lastmile_qr_scan", "ios": "https://dc.lft.to/lastmile_qr_scan"}, "fusion_lon": 0.0, "bike_id": "a69d6c034879e0466221cea2d2658530", "is_disabled": 0, "lat": 38.8922595, "is_reserved": 0, "type": "electric_scooter"}, {"fusion_lat": 0.0, "name": "856dc6d9feca8c45632d107cd41ac3dd", "lon": -77.021133, "rental_uris": {"android": "https://dc.lft.to/lastmile_qr_scan", "ios": "https://dc.lft.to/lastmile_qr_scan"}, "fusion_lon": 0.0, "bike_id": "856dc6d9feca8c45632d107cd41ac3dd", "is_disabled": 0, "lat": 38.9154695, "is_reserved": 0, "type": "electric_scooter"}, {"fusion_lat": 0.0, "name": "336eddd7fee4c63de0710d82ec60e14c", "lon": -77.03859566666667, "rental_uris": {"android": "https://dc.lft.to/lastmile_qr_scan", "ios": "https://dc.lft.to/lastmile_qr_scan"}, "fusion_lon": 0.0, "bike_id": "336eddd7fee4c63de0710d82ec60e14c", "is_disabled": 0, "lat": 38.91303, "is_reserved": 0, "type": "electric_scooter"}, {"fusion_lat": 0.0, "name": "016ea417f796264200a8c0977d53a39f", "lon": -77.01875366666667, "rental_uris": {"android": "https://dc.lft.to/lastmile_qr_scan", "ios": "https://dc.lft.to/lastmile_qr_scan"}, "fusion_lon": 0.0, "bike_id": "016ea417f796264200a8c0977d53a39f", "is_disabled": 0, "lat": 38.921408, "is_reserved": 0, "type": "electric_scooter"}, {"fusion_lat": 0.0, "name": "868dabe1448cd716dff6a6fd9a6c37ef", "lon": -77.07307683333333, "rental_uris": {"android": "https://dc.lft.to/lastmile_qr_scan", "ios": "https://dc.lft.to/lastmile_qr_scan"}, "fusion_lon": 0.0, "bike_id": "868dabe1448cd716dff6a6fd9a6c37ef", "is_disabled": 0, "lat": 38.90784883333333, "is_reserved": 0, "type": "electric_scooter"}, {"fusion_lat": 0.0, "name": "030ca2efc38a968be0f4dac7fd902850", "lon": -77.03218566666666, "rental_uris": {"android": "https://dc.lft.to/lastmile_qr_scan", "ios": "https://dc.lft.to/lastmile_qr_scan"}, "fusion_lon": 0.0, "bike_id": "030ca2efc38a968be0f4dac7fd902850", "is_disabled": 0, "lat": 38.91613433333333, "is_reserved": 0, "type": "electric_scooter"}, {"fusion_lat": 0.0, "name": "9c384df850ef085e48a2bcc979a8e715", "lon": -76.93755883333333, "rental_uris": {"android": "https://dc.lft.to/lastmile_qr_scan", "ios": "https://dc.lft.to/lastmile_qr_scan"}, "fusion_lon": 0.0, "bike_id": "9c384df850ef085e48a2bcc979a8e715", "is_disabled": 0, "lat": 38.8904145, "is_reserved": 0, "type": "electric_scooter"}, {"fusion_lat": 0.0, "name": "0ee5734528972a3c1ee2fc14a9406b78", "lon": -76.98353333333333, "rental_uris": {"android": "https://dc.lft.to/lastmile_qr_scan", "ios": "https://dc.lft.to/lastmile_qr_scan"}, "fusion_lon": 0.0, "bike_id": "0ee5734528972a3c1ee2fc14a9406b78", "is_disabled": 0, "lat": 38.88716216666667, "is_reserved": 0, "type": "electric_scooter"}, {"fusion_lat": 0.0, "name": "35a80a2e5af8f07b75c509c135a56506", "lon": -76.983471, "rental_uris": {"android": "https://dc.lft.to/lastmile_qr_scan", "ios": "https://dc.lft.to/lastmile_qr_scan"}, "fusion_lon": 0.0, "bike_id": "35a80a2e5af8f07b75c509c135a56506", "is_disabled": 0, "lat": 38.849921333333334, "is_reserved": 0, "type": "electric_scooter"}, {"fusion_lat": 0.0, "name": "ab1c4fab5ef5e09ec827e47aaae3c91a", "lon": -76.98947916666667, "rental_uris": {"android": "https://dc.lft.to/lastmile_qr_scan", "ios": "https://dc.lft.to/lastmile_qr_scan"}, "fusion_lon": 0.0, "bike_id": "ab1c4fab5ef5e09ec827e47aaae3c91a", "is_disabled": 0, "lat": 38.86679816666667, "is_reserved": 0, "type": "electric_bike"}, {"fusion_lat": 0.0, "name": "7f8b4249ad5d015a27373247b23450cc", "lon": -77.036684, "rental_uris": {"android": "https://dc.lft.to/lastmile_qr_scan", "ios": "https://dc.lft.to/lastmile_qr_scan"}, "fusion_lon": 0.0, "bike_id": "7f8b4249ad5d015a27373247b23450cc", "is_disabled": 0, "lat": 38.921147833333336, "is_reserved": 0, "type": "electric_scooter"}, {"fusion_lat": 0.0, "name": "d3ae4a6d6f4beab724399afc2b58d07a", "lon": -77.01911283333334, "rental_uris": {"android": "https://dc.lft.to/lastmile_qr_scan", "ios": "https://dc.lft.to/lastmile_qr_scan"}, "fusion_lon": 0.0, "bike_id": "d3ae4a6d6f4beab724399afc2b58d07a", "is_disabled": 0, "lat": 38.9227205, "is_reserved": 0, "type": "electric_scooter"}, {"fusion_lat": 0.0, "name": "82204d3ebcf06e1b33ec31db07712a1c", "lon": -76.93016533333333, "rental_uris": {"android": "https://dc.lft.to/lastmile_qr_scan", "ios": "https://dc.lft.to/lastmile_qr_scan"}, "fusion_lon": 0.0, "bike_id": "82204d3ebcf06e1b33ec31db07712a1c", "is_disabled": 0, "lat": 38.900777833333336, "is_reserved": 0, "type": "electric_scooter"}, {"fusion_lat": 0.0, "name": "dd0f7621375b7447eb98348e69c6c9eb", "lon": -77.0237885, "rental_uris": {"android": "https://dc.lft.to/lastmile_qr_scan", "ios": "https://dc.lft.to/lastmile_qr_scan"}, "fusion_lon": 0.0, "bike_id": "dd0f7621375b7447eb98348e69c6c9eb", "is_disabled": 0, "lat": 38.89828983333334, "is_reserved": 0, "type": "electric_scooter"}, {"fusion_lat": 0.0, "name": "de35b88e877274c26973c43f8bc9db62", "lon": -77.0801315, "rental_uris": {"android": "https://dc.lft.to/lastmile_qr_scan", "ios": "https://dc.lft.to/lastmile_qr_scan"}, "fusion_lon": 0.0, "bike_id": "de35b88e877274c26973c43f8bc9db62", "is_disabled": 0, "lat": 38.950635166666665, "is_reserved": 0, "type": "electric_scooter"}, {"fusion_lat": 0.0, "name": "808518d3b23df4d409d87d8f08e7f29a", "lon": -76.97304433333333, "rental_uris": {"android": "https://dc.lft.to/lastmile_qr_scan", "ios": "https://dc.lft.to/lastmile_qr_scan"}, "fusion_lon": 0.0, "bike_id": "808518d3b23df4d409d87d8f08e7f29a", "is_disabled": 0, "lat": 38.91642233333334, "is_reserved": 0, "type": "electric_bike"}, {"fusion_lat": 0.0, "name": "579ac39f25f9adb3460927a56d1711ee", "lon": -76.984179, "rental_uris": {"android": "https://dc.lft.to/lastmile_qr_scan", "ios": "https://dc.lft.to/lastmile_qr_scan"}, "fusion_lon": 0.0, "bike_id": "579ac39f25f9adb3460927a56d1711ee", "is_disabled": 0, "lat": 38.855358, "is_reserved": 0, "type": "electric_scooter"}, {"fusion_lat": 0.0, "name": "5eda32741bba141161a2d8a931395741", "lon": -77.08118483333334, "rental_uris": {"android": "https://dc.lft.to/lastmile_qr_scan", "ios": "https://dc.lft.to/lastmile_qr_scan"}, "fusion_lon": 0.0, "bike_id": "5eda32741bba141161a2d8a931395741", "is_disabled": 0, "lat": 38.935767166666665, "is_reserved": 0, "type": "electric_scooter"}, {"fusion_lat": 0.0, "name": "5c64cafe3655e013b4cbfdc54d312e45", "lon": -77.048712, "rental_uris": {"android": "https://dc.lft.to/lastmile_qr_scan", "ios": "https://dc.lft.to/lastmile_qr_scan"}, "fusion_lon": 0.0, "bike_id": "5c64cafe3655e013b4cbfdc54d312e45", "is_disabled": 0, "lat": 38.892713666666666, "is_reserved": 0, "type": "electric_scooter"}, {"fusion_lat": 0.0, "name": "3c545b9a0fa545e432f5985c61d1eb8b", "lon": -76.92618516666667, "rental_uris": {"android": "https://dc.lft.to/lastmile_qr_scan", "ios": "https://dc.lft.to/lastmile_qr_scan"}, "fusion_lon": 0.0, "bike_id": "3c545b9a0fa545e432f5985c61d1eb8b", "is_disabled": 0, "lat": 38.88483266666667, "is_reserved": 0, "type": "electric_scooter"}, {"fusion_lat": 0.0, "name": "631b335d2a7e6e9a33f299e89be609ce", "lon": -76.98506333333333, "rental_uris": {"android": "https://dc.lft.to/lastmile_qr_scan", "ios": "https://dc.lft.to/lastmile_qr_scan"}, "fusion_lon": 0.0, "bike_id": "631b335d2a7e6e9a33f299e89be609ce", "is_disabled": 0, "lat": 38.88084, "is_reserved": 0, "type": "electric_scooter"}, {"fusion_lat": 0.0, "name": "556d0d6c8940d06dc53707d5616c9d5b", "lon": -77.02214133333334, "rental_uris": {"android": "https://dc.lft.to/lastmile_qr_scan", "ios": "https://dc.lft.to/lastmile_qr_scan"}, "fusion_lon": 0.0, "bike_id": "556d0d6c8940d06dc53707d5616c9d5b", "is_disabled": 0, "lat": 38.92090066666667, "is_reserved": 0, "type": "electric_scooter"}, {"fusion_lat": 0.0, "name": "eb6dd23edc598407a67d5655549d0730", "lon": -77.026047, "rental_uris": {"android": "https://dc.lft.to/lastmile_qr_scan", "ios": "https://dc.lft.to/lastmile_qr_scan"}, "fusion_lon": 0.0, "bike_id": "eb6dd23edc598407a67d5655549d0730", "is_disabled": 0, "lat": 38.944103166666665, "is_reserved": 0, "type": "electric_scooter"}, {"fusion_lat": 0.0, "name": "a725c1899ef99983c42b245f6492cec8", "lon": -77.07105833333334, "rental_uris": {"android": "https://dc.lft.to/lastmile_qr_scan", "ios": "https://dc.lft.to/lastmile_qr_scan"}, "fusion_lon": 0.0, "bike_id": "a725c1899ef99983c42b245f6492cec8", "is_disabled": 0, "lat": 38.93171066666667, "is_reserved": 0, "type": "electric_scooter"}, {"fusion_lat": 0.0, "name": "abeefe63d0534412b5d2b6d19a31548d", "lon": -77.03934116666667, "rental_uris": {"android": "https://dc.lft.to/lastmile_qr_scan", "ios": "https://dc.lft.to/lastmile_qr_scan"}, "fusion_lon": 0.0, "bike_id": "abeefe63d0534412b5d2b6d19a31548d", "is_disabled": 0, "lat": 38.898822833333334, "is_reserved": 0, "type": "electric_scooter"}, {"fusion_lat": 0.0, "name": "e9558b160e0042ae921876b5f97b0222", "lon": -77.00599666666666, "rental_uris": {"android": "https://dc.lft.to/lastmile_qr_scan", "ios": "https://dc.lft.to/lastmile_qr_scan"}, "fusion_lon": 0.0, "bike_id": "e9558b160e0042ae921876b5f97b0222", "is_disabled": 0, "lat": 38.883388333333336, "is_reserved": 0, "type": "electric_scooter"}, {"fusion_lat": 0.0, "name": "2f2ae051128fcdc5e72ac98da95547de", "lon": -77.0353875, "rental_uris": {"android": "https://dc.lft.to/lastmile_qr_scan", "ios": "https://dc.lft.to/lastmile_qr_scan"}, "fusion_lon": 0.0, "bike_id": "2f2ae051128fcdc5e72ac98da95547de", "is_disabled": 0, "lat": 38.915572833333336, "is_reserved": 0, "type": "electric_scooter"}, {"fusion_lat": 0.0, "name": "3454c126cec5860aeaefa0ee0b586536", "lon": -77.0094065, "rental_uris": {"android": "https://dc.lft.to/lastmile_qr_scan", "ios": "https://dc.lft.to/lastmile_qr_scan"}, "fusion_lon": 0.0, "bike_id": "3454c126cec5860aeaefa0ee0b586536", "is_disabled": 0, "lat": 38.87630333333333, "is_reserved": 0, "type": "electric_scooter"}, {"fusion_lat": 0.0, "name": "3af8e9fec3beec14839c0be05dca2416", "lon": -77.032097, "rental_uris": {"android": "https://dc.lft.to/lastmile_qr_scan", "ios": "https://dc.lft.to/lastmile_qr_scan"}, "fusion_lon": 0.0, "bike_id": "3af8e9fec3beec14839c0be05dca2416", "is_disabled": 0, "lat": 38.9195605, "is_reserved": 0, "type": "electric_scooter"}, {"fusion_lat": 0.0, "name": "bb7bd01a6868aa20c15b0696a425920f", "lon": -77.0226075, "rental_uris": {"android": "https://dc.lft.to/lastmile_qr_scan", "ios": "https://dc.lft.to/lastmile_qr_scan"}, "fusion_lon": 0.0, "bike_id": "bb7bd01a6868aa20c15b0696a425920f", "is_disabled": 0, "lat": 38.92479516666667, "is_reserved": 0, "type": "electric_scooter"}, {"fusion_lat": 0.0, "name": "3749690114c34613724ef73bed445d68", "lon": -76.95200483333333, "rental_uris": {"android": "https://dc.lft.to/lastmile_qr_scan", "ios": "https://dc.lft.to/lastmile_qr_scan"}, "fusion_lon": 0.0, "bike_id": "3749690114c34613724ef73bed445d68", "is_disabled": 0, "lat": 38.90018666666667, "is_reserved": 0, "type": "electric_scooter"}, {"fusion_lat": 0.0, "name": "51060a79ddc9f741f682327b8837d72c", "lon": -77.052376, "rental_uris": {"android": "https://dc.lft.to/lastmile_qr_scan", "ios": "https://dc.lft.to/lastmile_qr_scan"}, "fusion_lon": 0.0, "bike_id": "51060a79ddc9f741f682327b8837d72c", "is_disabled": 0, "lat": 38.92541683333334, "is_reserved": 0, "type": "electric_scooter"}, {"fusion_lat": 0.0, "name": "d064c590c334a712e3eccc05c589a2f0", "lon": -77.03728266666667, "rental_uris": {"android": "https://dc.lft.to/lastmile_qr_scan", "ios": "https://dc.lft.to/lastmile_qr_scan"}, "fusion_lon": 0.0, "bike_id": "d064c590c334a712e3eccc05c589a2f0", "is_disabled": 0, "lat": 38.911138, "is_reserved": 0, "type": "electric_scooter"}, {"fusion_lat": 0.0, "name": "b6a0b2615b059918efd95b78933a4eab", "lon": -77.04162783333334, "rental_uris": {"android": "https://dc.lft.to/lastmile_qr_scan", "ios": "https://dc.lft.to/lastmile_qr_scan"}, "fusion_lon": 0.0, "bike_id": "b6a0b2615b059918efd95b78933a4eab", "is_disabled": 0, "lat": 38.892355, "is_reserved": 0, "type": "electric_scooter"}, {"fusion_lat": 0.0, "name": "281fac267a363c74df87ba3b1b9a5d80", "lon": -77.034438, "rental_uris": {"android": "https://dc.lft.to/lastmile_qr_scan", "ios": "https://dc.lft.to/lastmile_qr_scan"}, "fusion_lon": 0.0, "bike_id": "281fac267a363c74df87ba3b1b9a5d80", "is_disabled": 0, "lat": 38.90107783333333, "is_reserved": 0, "type": "electric_scooter"}, {"fusion_lat": 0.0, "name": "b88e8483f21081320de9e2318557e746", "lon": -77.02465683333334, "rental_uris": {"android": "https://dc.lft.to/lastmile_qr_scan", "ios": "https://dc.lft.to/lastmile_qr_scan"}, "fusion_lon": 0.0, "bike_id": "b88e8483f21081320de9e2318557e746", "is_disabled": 0, "lat": 38.93914733333333, "is_reserved": 0, "type": "electric_scooter"}, {"fusion_lat": 0.0, "name": "a64c1dd2e64b6da4b744f60b4f85f073", "lon": -77.033512, "rental_uris": {"android": "https://dc.lft.to/lastmile_qr_scan", "ios": "https://dc.lft.to/lastmile_qr_scan"}, "fusion_lon": 0.0, "bike_id": "a64c1dd2e64b6da4b744f60b4f85f073", "is_disabled": 0, "lat": 38.928633, "is_reserved": 0, "type": "electric_scooter"}, {"fusion_lat": 0.0, "name": "15b5256aa6013d4390284ed63fe3418b", "lon": -77.026704, "rental_uris": {"android": "https://dc.lft.to/lastmile_qr_scan", "ios": "https://dc.lft.to/lastmile_qr_scan"}, "fusion_lon": 0.0, "bike_id": "15b5256aa6013d4390284ed63fe3418b", "is_disabled": 0, "lat": 38.92808383333333, "is_reserved": 0, "type": "electric_scooter"}, {"fusion_lat": 0.0, "name": "57a59ee6f367dde4fe998db62c159cb5", "lon": -77.03946933333333, "rental_uris": {"android": "https://dc.lft.to/lastmile_qr_scan", "ios": "https://dc.lft.to/lastmile_qr_scan"}, "fusion_lon": 0.0, "bike_id": "57a59ee6f367dde4fe998db62c159cb5", "is_disabled": 0, "lat": 38.90037516666666, "is_reserved": 0, "type": "electric_scooter"}, {"fusion_lat": 0.0, "name": "35ff0359ccdc2867dcdd1ff78e674d1b", "lon": -77.001309, "rental_uris": {"android": "https://dc.lft.to/lastmile_qr_scan", "ios": "https://dc.lft.to/lastmile_qr_scan"}, "fusion_lon": 0.0, "bike_id": "35ff0359ccdc2867dcdd1ff78e674d1b", "is_disabled": 0, "lat": 38.8736695, "is_reserved": 0, "type": "electric_scooter"}, {"fusion_lat": 0.0, "name": "7d79835576e4a6b2cc286569908bb54a", "lon": -77.028285, "rental_uris": {"android": "https://dc.lft.to/lastmile_qr_scan", "ios": "https://dc.lft.to/lastmile_qr_scan"}, "fusion_lon": 0.0, "bike_id": "7d79835576e4a6b2cc286569908bb54a", "is_disabled": 0, "lat": 38.938786, "is_reserved": 0, "type": "electric_scooter"}, {"fusion_lat": 0.0, "name": "903c74f54cd10eb1219c5bc3566d77b0", "lon": -77.02650616666666, "rental_uris": {"android": "https://dc.lft.to/lastmile_qr_scan", "ios": "https://dc.lft.to/lastmile_qr_scan"}, "fusion_lon": 0.0, "bike_id": "903c74f54cd10eb1219c5bc3566d77b0", "is_disabled": 0, "lat": 38.9386335, "is_reserved": 0, "type": "electric_scooter"}, {"fusion_lat": 0.0, "name": "97e7b36ef7b4d0291a39eff6b13d6d61", "lon": -77.03412266666666, "rental_uris": {"android": "https://dc.lft.to/lastmile_qr_scan", "ios": "https://dc.lft.to/lastmile_qr_scan"}, "fusion_lon": 0.0, "bike_id": "97e7b36ef7b4d0291a39eff6b13d6d61", "is_disabled": 0, "lat": 38.960321, "is_reserved": 0, "type": "electric_bike"}, {"fusion_lat": 0.0, "name": "6c77e69937cecf052d506812c9f73751", "lon": -76.993546, "rental_uris": {"android": "https://dc.lft.to/lastmile_qr_scan", "ios": "https://dc.lft.to/lastmile_qr_scan"}, "fusion_lon": 0.0, "bike_id": "6c77e69937cecf052d506812c9f73751", "is_disabled": 0, "lat": 38.84504183333333, "is_reserved": 0, "type": "electric_bike"}, {"fusion_lat": 0.0, "name": "b2bba7a13acf43a128e7f4fe2e0b85da", "lon": -77.047072, "rental_uris": {"android": "https://dc.lft.to/lastmile_qr_scan", "ios": "https://dc.lft.to/lastmile_qr_scan"}, "fusion_lon": 0.0, "bike_id": "b2bba7a13acf43a128e7f4fe2e0b85da", "is_disabled": 0, "lat": 38.9057495, "is_reserved": 0, "type": "electric_scooter"}, {"fusion_lat": 0.0, "name": "f3e67a8a22f34d044b834909202aabd4", "lon": -76.983478, "rental_uris": {"android": "https://dc.lft.to/lastmile_qr_scan", "ios": "https://dc.lft.to/lastmile_qr_scan"}, "fusion_lon": 0.0, "bike_id": "f3e67a8a22f34d044b834909202aabd4", "is_disabled": 0, "lat": 38.915502833333335, "is_reserved": 0, "type": "electric_scooter"}, {"fusion_lat": 0.0, "name": "27e7b8758dd47920d67076435b6d40b0", "lon": -77.02777016666667, "rental_uris": {"android": "https://dc.lft.to/lastmile_qr_scan", "ios": "https://dc.lft.to/lastmile_qr_scan"}, "fusion_lon": 0.0, "bike_id": "27e7b8758dd47920d67076435b6d40b0", "is_disabled": 0, "lat": 38.962519, "is_reserved": 0, "type": "electric_scooter"}, {"fusion_lat": 0.0, "name": "d3105f17bfe8170204762e0ce2b0af21", "lon": -77.01893083333333, "rental_uris": {"android": "https://dc.lft.to/lastmile_qr_scan", "ios": "https://dc.lft.to/lastmile_qr_scan"}, "fusion_lon": 0.0, "bike_id": "d3105f17bfe8170204762e0ce2b0af21", "is_disabled": 0, "lat": 38.913884, "is_reserved": 0, "type": "electric_scooter"}, {"fusion_lat": 0.0, "name": "cd27a3eb074180dc40286c265c3bb716", "lon": -77.0453915, "rental_uris": {"android": "https://dc.lft.to/lastmile_qr_scan", "ios": "https://dc.lft.to/lastmile_qr_scan"}, "fusion_lon": 0.0, "bike_id": "cd27a3eb074180dc40286c265c3bb716", "is_disabled": 0, "lat": 38.91809966666667, "is_reserved": 0, "type": "electric_scooter"}, {"fusion_lat": 0.0, "name": "0adbea9fd403717a04b7961a7773169b", "lon": -77.04335766666667, "rental_uris": {"android": "https://dc.lft.to/lastmile_qr_scan", "ios": "https://dc.lft.to/lastmile_qr_scan"}, "fusion_lon": 0.0, "bike_id": "0adbea9fd403717a04b7961a7773169b", "is_disabled": 0, "lat": 38.89525066666667, "is_reserved": 0, "type": "electric_scooter"}, {"fusion_lat": 0.0, "name": "28272ce8476c85a957289394223db223", "lon": -77.01607116666666, "rental_uris": {"android": "https://dc.lft.to/lastmile_qr_scan", "ios": "https://dc.lft.to/lastmile_qr_scan"}, "fusion_lon": 0.0, "bike_id": "28272ce8476c85a957289394223db223", "is_disabled": 0, "lat": 38.884882, "is_reserved": 0, "type": "electric_scooter"}, {"fusion_lat": 0.0, "name": "1218674d63baad722f4077851f9a0b01", "lon": -76.98507366666666, "rental_uris": {"android": "https://dc.lft.to/lastmile_qr_scan", "ios": "https://dc.lft.to/lastmile_qr_scan"}, "fusion_lon": 0.0, "bike_id": "1218674d63baad722f4077851f9a0b01", "is_disabled": 0, "lat": 38.880777333333334, "is_reserved": 0, "type": "electric_scooter"}, {"fusion_lat": 0.0, "name": "f2cf2d992065ed0969b58c507505a840", "lon": -77.07329583333333, "rental_uris": {"android": "https://dc.lft.to/lastmile_qr_scan", "ios": "https://dc.lft.to/lastmile_qr_scan"}, "fusion_lon": 0.0, "bike_id": "f2cf2d992065ed0969b58c507505a840", "is_disabled": 0, "lat": 38.92393383333334, "is_reserved": 0, "type": "electric_scooter"}, {"fusion_lat": 0.0, "name": "94dd52eeb11f36f967c6204e68c39238", "lon": -77.00613816666667, "rental_uris": {"android": "https://dc.lft.to/lastmile_qr_scan", "ios": "https://dc.lft.to/lastmile_qr_scan"}, "fusion_lon": 0.0, "bike_id": "94dd52eeb11f36f967c6204e68c39238", "is_disabled": 0, "lat": 38.90556433333333, "is_reserved": 0, "type": "electric_scooter"}, {"fusion_lat": 0.0, "name": "377f1db7329cadd3c655252aa59d65b5", "lon": -77.04177533333333, "rental_uris": {"android": "https://dc.lft.to/lastmile_qr_scan", "ios": "https://dc.lft.to/lastmile_qr_scan"}, "fusion_lon": 0.0, "bike_id": "377f1db7329cadd3c655252aa59d65b5", "is_disabled": 0, "lat": 38.91969866666667, "is_reserved": 0, "type": "electric_scooter"}, {"fusion_lat": 0.0, "name": "9e6ff82b39435bcb58f8e31b10903b30", "lon": -77.034257, "rental_uris": {"android": "https://dc.lft.to/lastmile_qr_scan", "ios": "https://dc.lft.to/lastmile_qr_scan"}, "fusion_lon": 0.0, "bike_id": "9e6ff82b39435bcb58f8e31b10903b30", "is_disabled": 0, "lat": 38.909536333333335, "is_reserved": 0, "type": "electric_scooter"}, {"fusion_lat": 0.0, "name": "4da42977c4cf3d27875affd21521bb77", "lon": -77.0414445, "rental_uris": {"android": "https://dc.lft.to/lastmile_qr_scan", "ios": "https://dc.lft.to/lastmile_qr_scan"}, "fusion_lon": 0.0, "bike_id": "4da42977c4cf3d27875affd21521bb77", "is_disabled": 0, "lat": 38.92644833333333, "is_reserved": 0, "type": "electric_scooter"}, {"fusion_lat": 0.0, "name": "a2a124625a3e661e60cf25d24b48aa3d", "lon": -76.99781966666667, "rental_uris": {"android": "https://dc.lft.to/lastmile_qr_scan", "ios": "https://dc.lft.to/lastmile_qr_scan"}, "fusion_lon": 0.0, "bike_id": "a2a124625a3e661e60cf25d24b48aa3d", "is_disabled": 0, "lat": 38.844221166666664, "is_reserved": 0, "type": "electric_scooter"}, {"fusion_lat": 0.0, "name": "52874f169a614fe58b8f0b5ca8c9bc87", "lon": -77.0058255, "rental_uris": {"android": "https://dc.lft.to/lastmile_qr_scan", "ios": "https://dc.lft.to/lastmile_qr_scan"}, "fusion_lon": 0.0, "bike_id": "52874f169a614fe58b8f0b5ca8c9bc87", "is_disabled": 0, "lat": 38.83694416666667, "is_reserved": 0, "type": "electric_scooter"}, {"fusion_lat": 0.0, "name": "c06e989b7b82346314fd8287ebffe297", "lon": -77.01756783333333, "rental_uris": {"android": "https://dc.lft.to/lastmile_qr_scan", "ios": "https://dc.lft.to/lastmile_qr_scan"}, "fusion_lon": 0.0, "bike_id": "c06e989b7b82346314fd8287ebffe297", "is_disabled": 0, "lat": 38.902515333333334, "is_reserved": 0, "type": "electric_scooter"}, {"fusion_lat": 0.0, "name": "1c84e141b8cebfcb1a6a5f31b06429ea", "lon": -77.03595916666667, "rental_uris": {"android": "https://dc.lft.to/lastmile_qr_scan", "ios": "https://dc.lft.to/lastmile_qr_scan"}, "fusion_lon": 0.0, "bike_id": "1c84e141b8cebfcb1a6a5f31b06429ea", "is_disabled": 0, "lat": 38.9366905, "is_reserved": 0, "type": "electric_scooter"}, {"fusion_lat": 0.0, "name": "54c22482a12d195200d4acc535a0e2d6", "lon": -77.046665, "rental_uris": {"android": "https://dc.lft.to/lastmile_qr_scan", "ios": "https://dc.lft.to/lastmile_qr_scan"}, "fusion_lon": 0.0, "bike_id": "54c22482a12d195200d4acc535a0e2d6", "is_disabled": 0, "lat": 38.90241366666667, "is_reserved": 0, "type": "electric_scooter"}, {"fusion_lat": 0.0, "name": "6c3dfa0b978bc8c132f1d23b7edea3a2", "lon": -77.0627855, "rental_uris": {"android": "https://dc.lft.to/lastmile_qr_scan", "ios": "https://dc.lft.to/lastmile_qr_scan"}, "fusion_lon": 0.0, "bike_id": "6c3dfa0b978bc8c132f1d23b7edea3a2", "is_disabled": 0, "lat": 38.90496183333333, "is_reserved": 0, "type": "electric_scooter"}, {"fusion_lat": 0.0, "name": "d3136dd3271107e5586d6d24f9a8a0a1", "lon": -77.00564316666667, "rental_uris": {"android": "https://dc.lft.to/lastmile_qr_scan", "ios": "https://dc.lft.to/lastmile_qr_scan"}, "fusion_lon": 0.0, "bike_id": "d3136dd3271107e5586d6d24f9a8a0a1", "is_disabled": 0, "lat": 38.90552866666667, "is_reserved": 0, "type": "electric_scooter"}, {"fusion_lat": 0.0, "name": "060913e2fc8f452013c95fedd43e36fe", "lon": -77.01540966666667, "rental_uris": {"android": "https://dc.lft.to/lastmile_qr_scan", "ios": "https://dc.lft.to/lastmile_qr_scan"}, "fusion_lon": 0.0, "bike_id": "060913e2fc8f452013c95fedd43e36fe", "is_disabled": 0, "lat": 38.94115016666667, "is_reserved": 0, "type": "electric_scooter"}, {"fusion_lat": 0.0, "name": "4649ef7b854b496f137a6b0894897e8a", "lon": -77.03023183333333, "rental_uris": {"android": "https://dc.lft.to/lastmile_qr_scan", "ios": "https://dc.lft.to/lastmile_qr_scan"}, "fusion_lon": 0.0, "bike_id": "4649ef7b854b496f137a6b0894897e8a", "is_disabled": 0, "lat": 38.91804716666667, "is_reserved": 0, "type": "electric_scooter"}, {"fusion_lat": 0.0, "name": "9c98694b487b13dd9398422056adae71", "lon": -77.03251933333334, "rental_uris": {"android": "https://dc.lft.to/lastmile_qr_scan", "ios": "https://dc.lft.to/lastmile_qr_scan"}, "fusion_lon": 0.0, "bike_id": "9c98694b487b13dd9398422056adae71", "is_disabled": 0, "lat": 38.92986616666666, "is_reserved": 0, "type": "electric_scooter"}, {"fusion_lat": 0.0, "name": "ab92816fd7daf5ddd78ee24a27fef416", "lon": -77.033792, "rental_uris": {"android": "https://dc.lft.to/lastmile_qr_scan", "ios": "https://dc.lft.to/lastmile_qr_scan"}, "fusion_lon": 0.0, "bike_id": "ab92816fd7daf5ddd78ee24a27fef416", "is_disabled": 0, "lat": 38.921525833333334, "is_reserved": 0, "type": "electric_scooter"}, {"fusion_lat": 0.0, "name": "2e932a57ecba23ca2d1001fe41c7b287", "lon": -77.05131083333333, "rental_uris": {"android": "https://dc.lft.to/lastmile_qr_scan", "ios": "https://dc.lft.to/lastmile_qr_scan"}, "fusion_lon": 0.0, "bike_id": "2e932a57ecba23ca2d1001fe41c7b287", "is_disabled": 0, "lat": 38.92363433333333, "is_reserved": 0, "type": "electric_scooter"}, {"fusion_lat": 0.0, "name": "84aee214d0dbd36637f0cfe5f0328472", "lon": -77.00140866666666, "rental_uris": {"android": "https://dc.lft.to/lastmile_qr_scan", "ios": "https://dc.lft.to/lastmile_qr_scan"}, "fusion_lon": 0.0, "bike_id": "84aee214d0dbd36637f0cfe5f0328472", "is_disabled": 0, "lat": 38.89473383333333, "is_reserved": 0, "type": "electric_scooter"}, {"fusion_lat": 0.0, "name": "0f5856275cce6f4269db86de61226ea6", "lon": -77.0415475, "rental_uris": {"android": "https://dc.lft.to/lastmile_qr_scan", "ios": "https://dc.lft.to/lastmile_qr_scan"}, "fusion_lon": 0.0, "bike_id": "0f5856275cce6f4269db86de61226ea6", "is_disabled": 0, "lat": 38.9174625, "is_reserved": 0, "type": "electric_scooter"}, {"fusion_lat": 0.0, "name": "c36eafc1ad0054e963113febb107ec38", "lon": -77.02421616666666, "rental_uris": {"android": "https://dc.lft.to/lastmile_qr_scan", "ios": "https://dc.lft.to/lastmile_qr_scan"}, "fusion_lon": 0.0, "bike_id": "c36eafc1ad0054e963113febb107ec38", "is_disabled": 0, "lat": 38.9379985, "is_reserved": 0, "type": "electric_bike"}, {"fusion_lat": 0.0, "name": "e022ef4611668a675bd5845cb55457fc", "lon": -77.01427466666667, "rental_uris": {"android": "https://dc.lft.to/lastmile_qr_scan", "ios": "https://dc.lft.to/lastmile_qr_scan"}, "fusion_lon": 0.0, "bike_id": "e022ef4611668a675bd5845cb55457fc", "is_disabled": 0, "lat": 38.95230683333333, "is_reserved": 0, "type": "electric_scooter"}, {"fusion_lat": 0.0, "name": "6a72e34ede006600d6e0fc13726191c6", "lon": -77.02308533333333, "rental_uris": {"android": "https://dc.lft.to/lastmile_qr_scan", "ios": "https://dc.lft.to/lastmile_qr_scan"}, "fusion_lon": 0.0, "bike_id": "6a72e34ede006600d6e0fc13726191c6", "is_disabled": 0, "lat": 38.92767816666667, "is_reserved": 0, "type": "electric_scooter"}, {"fusion_lat": 0.0, "name": "cf42b6153b3bf8627d1b6c2d3c7b1d25", "lon": -77.0216985, "rental_uris": {"android": "https://dc.lft.to/lastmile_qr_scan", "ios": "https://dc.lft.to/lastmile_qr_scan"}, "fusion_lon": 0.0, "bike_id": "cf42b6153b3bf8627d1b6c2d3c7b1d25", "is_disabled": 0, "lat": 38.91434666666667, "is_reserved": 0, "type": "electric_scooter"}, {"fusion_lat": 0.0, "name": "c50a92c139f0d5d7da4864da045bb496", "lon": -76.95894, "rental_uris": {"android": "https://dc.lft.to/lastmile_qr_scan", "ios": "https://dc.lft.to/lastmile_qr_scan"}, "fusion_lon": 0.0, "bike_id": "c50a92c139f0d5d7da4864da045bb496", "is_disabled": 0, "lat": 38.890102666666664, "is_reserved": 0, "type": "electric_scooter"}, {"fusion_lat": 0.0, "name": "44ca917aa7596ec4c374561b0aa0266e", "lon": -77.0040965, "rental_uris": {"android": "https://dc.lft.to/lastmile_qr_scan", "ios": "https://dc.lft.to/lastmile_qr_scan"}, "fusion_lon": 0.0, "bike_id": "44ca917aa7596ec4c374561b0aa0266e", "is_disabled": 0, "lat": 38.9308555, "is_reserved": 0, "type": "electric_scooter"}, {"fusion_lat": 0.0, "name": "9164aab5f97e1baf1b617166e447553c", "lon": -77.04489033333333, "rental_uris": {"android": "https://dc.lft.to/lastmile_qr_scan", "ios": "https://dc.lft.to/lastmile_qr_scan"}, "fusion_lon": 0.0, "bike_id": "9164aab5f97e1baf1b617166e447553c", "is_disabled": 0, "lat": 38.90016766666667, "is_reserved": 0, "type": "electric_scooter"}, {"fusion_lat": 0.0, "name": "c03fb8f6b2c99cda677d75f2a19fc62e", "lon": -77.04644033333334, "rental_uris": {"android": "https://dc.lft.to/lastmile_qr_scan", "ios": "https://dc.lft.to/lastmile_qr_scan"}, "fusion_lon": 0.0, "bike_id": "c03fb8f6b2c99cda677d75f2a19fc62e", "is_disabled": 0, "lat": 38.921001333333336, "is_reserved": 0, "type": "electric_scooter"}, {"fusion_lat": 0.0, "name": "73876ef1bb9fe8cebfba7c5f90731148", "lon": -77.03792316666667, "rental_uris": {"android": "https://dc.lft.to/lastmile_qr_scan", "ios": "https://dc.lft.to/lastmile_qr_scan"}, "fusion_lon": 0.0, "bike_id": "73876ef1bb9fe8cebfba7c5f90731148", "is_disabled": 0, "lat": 38.91539566666667, "is_reserved": 0, "type": "electric_scooter"}, {"fusion_lat": 0.0, "name": "a05730f47a4b92b25ad8844e9d3e6c2f", "lon": -77.03385983333334, "rental_uris": {"android": "https://dc.lft.to/lastmile_qr_scan", "ios": "https://dc.lft.to/lastmile_qr_scan"}, "fusion_lon": 0.0, "bike_id": "a05730f47a4b92b25ad8844e9d3e6c2f", "is_disabled": 0, "lat": 38.905351833333334, "is_reserved": 0, "type": "electric_scooter"}, {"fusion_lat": 0.0, "name": "a3189e1f9bfa69a9154281986b4ac05d", "lon": -77.06106083333333, "rental_uris": {"android": "https://dc.lft.to/lastmile_qr_scan", "ios": "https://dc.lft.to/lastmile_qr_scan"}, "fusion_lon": 0.0, "bike_id": "a3189e1f9bfa69a9154281986b4ac05d", "is_disabled": 0, "lat": 38.9370165, "is_reserved": 0, "type": "electric_scooter"}, {"fusion_lat": 0.0, "name": "72d5f073d01ac180ba7d42e6d17f8a2f", "lon": -77.02977416666667, "rental_uris": {"android": "https://dc.lft.to/lastmile_qr_scan", "ios": "https://dc.lft.to/lastmile_qr_scan"}, "fusion_lon": 0.0, "bike_id": "72d5f073d01ac180ba7d42e6d17f8a2f", "is_disabled": 0, "lat": 38.924048, "is_reserved": 0, "type": "electric_scooter"}, {"fusion_lat": 0.0, "name": "328dc7ad8a8c0a327b8a530909048db9", "lon": -77.01894616666667, "rental_uris": {"android": "https://dc.lft.to/lastmile_qr_scan", "ios": "https://dc.lft.to/lastmile_qr_scan"}, "fusion_lon": 0.0, "bike_id": "328dc7ad8a8c0a327b8a530909048db9", "is_disabled": 0, "lat": 38.87463616666667, "is_reserved": 0, "type": "electric_scooter"}, {"fusion_lat": 0.0, "name": "81a3914e43dedfb4bbe2e97ec2fbda9d", "lon": -77.0237345, "rental_uris": {"android": "https://dc.lft.to/lastmile_qr_scan", "ios": "https://dc.lft.to/lastmile_qr_scan"}, "fusion_lon": 0.0, "bike_id": "81a3914e43dedfb4bbe2e97ec2fbda9d", "is_disabled": 0, "lat": 38.92062133333334, "is_reserved": 0, "type": "electric_scooter"}, {"fusion_lat": 0.0, "name": "6a13a13df5ae6ca2335340a129239e8d", "lon": -77.035279, "rental_uris": {"android": "https://dc.lft.to/lastmile_qr_scan", "ios": "https://dc.lft.to/lastmile_qr_scan"}, "fusion_lon": 0.0, "bike_id": "6a13a13df5ae6ca2335340a129239e8d", "is_disabled": 0, "lat": 38.935771, "is_reserved": 0, "type": "electric_scooter"}, {"fusion_lat": 0.0, "name": "954cc030a033048b024d1e3c9117bbc2", "lon": -76.9983995, "rental_uris": {"android": "https://dc.lft.to/lastmile_qr_scan", "ios": "https://dc.lft.to/lastmile_qr_scan"}, "fusion_lon": 0.0, "bike_id": "954cc030a033048b024d1e3c9117bbc2", "is_disabled": 0, "lat": 38.88083066666667, "is_reserved": 0, "type": "electric_scooter"}, {"fusion_lat": 0.0, "name": "7d6d529d3d612101bb45beb4dac8d8ee", "lon": -77.0178585, "rental_uris": {"android": "https://dc.lft.to/lastmile_qr_scan", "ios": "https://dc.lft.to/lastmile_qr_scan"}, "fusion_lon": 0.0, "bike_id": "7d6d529d3d612101bb45beb4dac8d8ee", "is_disabled": 0, "lat": 38.9011605, "is_reserved": 0, "type": "electric_scooter"}, {"fusion_lat": 0.0, "name": "bf53e342255e72a3320124cec1c1e14a", "lon": -77.02681133333333, "rental_uris": {"android": "https://dc.lft.to/lastmile_qr_scan", "ios": "https://dc.lft.to/lastmile_qr_scan"}, "fusion_lon": 0.0, "bike_id": "bf53e342255e72a3320124cec1c1e14a", "is_disabled": 0, "lat": 38.9432755, "is_reserved": 0, "type": "electric_scooter"}, {"fusion_lat": 0.0, "name": "1e7be0cc9c70c1fe9bf0f9768e65daa1", "lon": -77.03468533333333, "rental_uris": {"android": "https://dc.lft.to/lastmile_qr_scan", "ios": "https://dc.lft.to/lastmile_qr_scan"}, "fusion_lon": 0.0, "bike_id": "1e7be0cc9c70c1fe9bf0f9768e65daa1", "is_disabled": 0, "lat": 38.920502, "is_reserved": 0, "type": "electric_scooter"}, {"fusion_lat": 0.0, "name": "a2eaa29e5b526ab29c2a49510578e245", "lon": -76.99108233333334, "rental_uris": {"android": "https://dc.lft.to/lastmile_qr_scan", "ios": "https://dc.lft.to/lastmile_qr_scan"}, "fusion_lon": 0.0, "bike_id": "a2eaa29e5b526ab29c2a49510578e245", "is_disabled": 0, "lat": 38.90313666666667, "is_reserved": 0, "type": "electric_scooter"}, {"fusion_lat": 0.0, "name": "df3da5e726f5ea7d6773f1645ba6d5e5", "lon": -77.06976516666667, "rental_uris": {"android": "https://dc.lft.to/lastmile_qr_scan", "ios": "https://dc.lft.to/lastmile_qr_scan"}, "fusion_lon": 0.0, "bike_id": "df3da5e726f5ea7d6773f1645ba6d5e5", "is_disabled": 0, "lat": 38.95277816666667, "is_reserved": 0, "type": "electric_scooter"}, {"fusion_lat": 0.0, "name": "e094be8c2cd57a4d0ad339520605a383", "lon": -77.00324416666666, "rental_uris": {"android": "https://dc.lft.to/lastmile_qr_scan", "ios": "https://dc.lft.to/lastmile_qr_scan"}, "fusion_lon": 0.0, "bike_id": "e094be8c2cd57a4d0ad339520605a383", "is_disabled": 0, "lat": 38.902691, "is_reserved": 0, "type": "electric_scooter"}, {"fusion_lat": 0.0, "name": "714eb9eaba18fcc166a21d0a01269150", "lon": -76.985215, "rental_uris": {"android": "https://dc.lft.to/lastmile_qr_scan", "ios": "https://dc.lft.to/lastmile_qr_scan"}, "fusion_lon": 0.0, "bike_id": "714eb9eaba18fcc166a21d0a01269150", "is_disabled": 0, "lat": 38.86006483333333, "is_reserved": 0, "type": "electric_scooter"}, {"fusion_lat": 0.0, "name": "0c2714b5f7b9ac59714e103726dd766f", "lon": -77.01766866666667, "rental_uris": {"android": "https://dc.lft.to/lastmile_qr_scan", "ios": "https://dc.lft.to/lastmile_qr_scan"}, "fusion_lon": 0.0, "bike_id": "0c2714b5f7b9ac59714e103726dd766f", "is_disabled": 0, "lat": 38.8746815, "is_reserved": 0, "type": "electric_scooter"}, {"fusion_lat": 0.0, "name": "4ae66163d7540094ecdc423f92d8959e", "lon": -77.03274366666666, "rental_uris": {"android": "https://dc.lft.to/lastmile_qr_scan", "ios": "https://dc.lft.to/lastmile_qr_scan"}, "fusion_lon": 0.0, "bike_id": "4ae66163d7540094ecdc423f92d8959e", "is_disabled": 0, "lat": 38.927444666666666, "is_reserved": 0, "type": "electric_scooter"}, {"fusion_lat": 0.0, "name": "2ff7f1f35f74051b24ebaef349598e97", "lon": -77.024956, "rental_uris": {"android": "https://dc.lft.to/lastmile_qr_scan", "ios": "https://dc.lft.to/lastmile_qr_scan"}, "fusion_lon": 0.0, "bike_id": "2ff7f1f35f74051b24ebaef349598e97", "is_disabled": 0, "lat": 38.91806183333333, "is_reserved": 0, "type": "electric_scooter"}, {"fusion_lat": 0.0, "name": "a5677cc805e78e520f6968e98b0d95d7", "lon": -77.03192583333333, "rental_uris": {"android": "https://dc.lft.to/lastmile_qr_scan", "ios": "https://dc.lft.to/lastmile_qr_scan"}, "fusion_lon": 0.0, "bike_id": "a5677cc805e78e520f6968e98b0d95d7", "is_disabled": 0, "lat": 38.913387666666665, "is_reserved": 0, "type": "electric_scooter"}, {"fusion_lat": 0.0, "name": "da931672b4cbdd4c3d073cd248e15787", "lon": -77.023449, "rental_uris": {"android": "https://dc.lft.to/lastmile_qr_scan", "ios": "https://dc.lft.to/lastmile_qr_scan"}, "fusion_lon": 0.0, "bike_id": "da931672b4cbdd4c3d073cd248e15787", "is_disabled": 0, "lat": 38.899947, "is_reserved": 0, "type": "electric_scooter"}, {"fusion_lat": 0.0, "name": "53d0f84c7c7cee292b2cea0ab4bc93ec", "lon": -76.9913335, "rental_uris": {"android": "https://dc.lft.to/lastmile_qr_scan", "ios": "https://dc.lft.to/lastmile_qr_scan"}, "fusion_lon": 0.0, "bike_id": "53d0f84c7c7cee292b2cea0ab4bc93ec", "is_disabled": 0, "lat": 38.864146, "is_reserved": 0, "type": "electric_scooter"}, {"fusion_lat": 0.0, "name": "fbf86e69cb440e4c9efcb8a64337878b", "lon": -77.03963666666667, "rental_uris": {"android": "https://dc.lft.to/lastmile_qr_scan", "ios": "https://dc.lft.to/lastmile_qr_scan"}, "fusion_lon": 0.0, "bike_id": "fbf86e69cb440e4c9efcb8a64337878b", "is_disabled": 0, "lat": 38.90018833333333, "is_reserved": 0, "type": "electric_scooter"}, {"fusion_lat": 0.0, "name": "d378af03eb6ce604c06b81764aaf4a63", "lon": -77.044191, "rental_uris": {"android": "https://dc.lft.to/lastmile_qr_scan", "ios": "https://dc.lft.to/lastmile_qr_scan"}, "fusion_lon": 0.0, "bike_id": "d378af03eb6ce604c06b81764aaf4a63", "is_disabled": 0, "lat": 38.905789, "is_reserved": 0, "type": "electric_scooter"}, {"fusion_lat": 0.0, "name": "b95ca902839f8167412b6f8c3201f8f5", "lon": -77.031689, "rental_uris": {"android": "https://dc.lft.to/lastmile_qr_scan", "ios": "https://dc.lft.to/lastmile_qr_scan"}, "fusion_lon": 0.0, "bike_id": "b95ca902839f8167412b6f8c3201f8f5", "is_disabled": 0, "lat": 38.8921775, "is_reserved": 0, "type": "electric_scooter"}, {"fusion_lat": 0.0, "name": "c7a33716f4b63386b2c2eb69f48055e5", "lon": -77.03236683333333, "rental_uris": {"android": "https://dc.lft.to/lastmile_qr_scan", "ios": "https://dc.lft.to/lastmile_qr_scan"}, "fusion_lon": 0.0, "bike_id": "c7a33716f4b63386b2c2eb69f48055e5", "is_disabled": 0, "lat": 38.928822333333336, "is_reserved": 0, "type": "electric_scooter"}, {"fusion_lat": 0.0, "name": "4620d11c0f11cf78e043dec12cd0ac8a", "lon": -77.0260205, "rental_uris": {"android": "https://dc.lft.to/lastmile_qr_scan", "ios": "https://dc.lft.to/lastmile_qr_scan"}, "fusion_lon": 0.0, "bike_id": "4620d11c0f11cf78e043dec12cd0ac8a", "is_disabled": 0, "lat": 38.904884333333335, "is_reserved": 0, "type": "electric_scooter"}, {"fusion_lat": 0.0, "name": "a7a56030bcd5c7ccc209c4038a0f3011", "lon": -77.04336966666666, "rental_uris": {"android": "https://dc.lft.to/lastmile_qr_scan", "ios": "https://dc.lft.to/lastmile_qr_scan"}, "fusion_lon": 0.0, "bike_id": "a7a56030bcd5c7ccc209c4038a0f3011", "is_disabled": 0, "lat": 38.901275, "is_reserved": 0, "type": "electric_scooter"}, {"fusion_lat": 0.0, "name": "a9ebef00ecfb3a6c78d85e4102f0d293", "lon": -77.07235466666667, "rental_uris": {"android": "https://dc.lft.to/lastmile_qr_scan", "ios": "https://dc.lft.to/lastmile_qr_scan"}, "fusion_lon": 0.0, "bike_id": "a9ebef00ecfb3a6c78d85e4102f0d293", "is_disabled": 0, "lat": 38.9341475, "is_reserved": 0, "type": "electric_scooter"}, {"fusion_lat": 0.0, "name": "5e5ab40bca6f3fa7b6c3266593a5bb88", "lon": -76.985931, "rental_uris": {"android": "https://dc.lft.to/lastmile_qr_scan", "ios": "https://dc.lft.to/lastmile_qr_scan"}, "fusion_lon": 0.0, "bike_id": "5e5ab40bca6f3fa7b6c3266593a5bb88", "is_disabled": 0, "lat": 38.866983833333336, "is_reserved": 0, "type": "electric_scooter"}, {"fusion_lat": 0.0, "name": "7661c6edadc0cf0e3fa71fc1b2a0e431", "lon": -77.014875, "rental_uris": {"android": "https://dc.lft.to/lastmile_qr_scan", "ios": "https://dc.lft.to/lastmile_qr_scan"}, "fusion_lon": 0.0, "bike_id": "7661c6edadc0cf0e3fa71fc1b2a0e431", "is_disabled": 0, "lat": 38.8921955, "is_reserved": 0, "type": "electric_scooter"}, {"fusion_lat": 0.0, "name": "b7d0b1eb774012ed5fe50b75e7c0d2a8", "lon": -76.97226516666667, "rental_uris": {"android": "https://dc.lft.to/lastmile_qr_scan", "ios": "https://dc.lft.to/lastmile_qr_scan"}, "fusion_lon": 0.0, "bike_id": "b7d0b1eb774012ed5fe50b75e7c0d2a8", "is_disabled": 0, "lat": 38.925332166666664, "is_reserved": 0, "type": "electric_scooter"}, {"fusion_lat": 0.0, "name": "8067ede8df00cefa135a1683d638aa12", "lon": -77.04338933333334, "rental_uris": {"android": "https://dc.lft.to/lastmile_qr_scan", "ios": "https://dc.lft.to/lastmile_qr_scan"}, "fusion_lon": 0.0, "bike_id": "8067ede8df00cefa135a1683d638aa12", "is_disabled": 0, "lat": 38.92186316666667, "is_reserved": 0, "type": "electric_scooter"}, {"fusion_lat": 0.0, "name": "ea85e8ea2738ca05575c2b7e9bed17ac", "lon": -77.034038, "rental_uris": {"android": "https://dc.lft.to/lastmile_qr_scan", "ios": "https://dc.lft.to/lastmile_qr_scan"}, "fusion_lon": 0.0, "bike_id": "ea85e8ea2738ca05575c2b7e9bed17ac", "is_disabled": 0, "lat": 38.9243965, "is_reserved": 0, "type": "electric_scooter"}, {"fusion_lat": 0.0, "name": "007da857fdd4dd1cd77aedb9bf580c35", "lon": -77.022038, "rental_uris": {"android": "https://dc.lft.to/lastmile_qr_scan", "ios": "https://dc.lft.to/lastmile_qr_scan"}, "fusion_lon": 0.0, "bike_id": "007da857fdd4dd1cd77aedb9bf580c35", "is_disabled": 0, "lat": 38.91436066666667, "is_reserved": 0, "type": "electric_scooter"}, {"fusion_lat": 0.0, "name": "8d7e46b0d16fc3b8836bc7b1fc6bbf40", "lon": -76.97324066666667, "rental_uris": {"android": "https://dc.lft.to/lastmile_qr_scan", "ios": "https://dc.lft.to/lastmile_qr_scan"}, "fusion_lon": 0.0, "bike_id": "8d7e46b0d16fc3b8836bc7b1fc6bbf40", "is_disabled": 0, "lat": 38.9047685, "is_reserved": 0, "type": "electric_bike"}, {"fusion_lat": 0.0, "name": "33be34097bcb7705672889b67b399b7b", "lon": -77.03153016666667, "rental_uris": {"android": "https://dc.lft.to/lastmile_qr_scan", "ios": "https://dc.lft.to/lastmile_qr_scan"}, "fusion_lon": 0.0, "bike_id": "33be34097bcb7705672889b67b399b7b", "is_disabled": 0, "lat": 38.919151166666666, "is_reserved": 0, "type": "electric_scooter"}, {"fusion_lat": 0.0, "name": "4bd5cf22d600fbc0646bcc74a607cd4c", "lon": -77.04379066666667, "rental_uris": {"android": "https://dc.lft.to/lastmile_qr_scan", "ios": "https://dc.lft.to/lastmile_qr_scan"}, "fusion_lon": 0.0, "bike_id": "4bd5cf22d600fbc0646bcc74a607cd4c", "is_disabled": 0, "lat": 38.91659533333333, "is_reserved": 0, "type": "electric_scooter"}, {"fusion_lat": 0.0, "name": "018682fad72641f6ecb6961ea20f846a", "lon": -76.9303095, "rental_uris": {"android": "https://dc.lft.to/lastmile_qr_scan", "ios": "https://dc.lft.to/lastmile_qr_scan"}, "fusion_lon": 0.0, "bike_id": "018682fad72641f6ecb6961ea20f846a", "is_disabled": 0, "lat": 38.90009416666667, "is_reserved": 0, "type": "electric_scooter"}, {"fusion_lat": 0.0, "name": "57cbcf72f49d7f100cf938ebfad544f6", "lon": -76.990674, "rental_uris": {"android": "https://dc.lft.to/lastmile_qr_scan", "ios": "https://dc.lft.to/lastmile_qr_scan"}, "fusion_lon": 0.0, "bike_id": "57cbcf72f49d7f100cf938ebfad544f6", "is_disabled": 0, "lat": 38.86352633333333, "is_reserved": 0, "type": "electric_scooter"}, {"fusion_lat": 0.0, "name": "949f81da5104dc1c100666a11c852b03", "lon": -77.03498933333333, "rental_uris": {"android": "https://dc.lft.to/lastmile_qr_scan", "ios": "https://dc.lft.to/lastmile_qr_scan"}, "fusion_lon": 0.0, "bike_id": "949f81da5104dc1c100666a11c852b03", "is_disabled": 0, "lat": 38.9232675, "is_reserved": 0, "type": "electric_scooter"}, {"fusion_lat": 0.0, "name": "b3d3c6db6b1405bc585726032c2c8d21", "lon": -76.95587816666666, "rental_uris": {"android": "https://dc.lft.to/lastmile_qr_scan", "ios": "https://dc.lft.to/lastmile_qr_scan"}, "fusion_lon": 0.0, "bike_id": "b3d3c6db6b1405bc585726032c2c8d21", "is_disabled": 0, "lat": 38.885999166666664, "is_reserved": 0, "type": "electric_scooter"}, {"fusion_lat": 0.0, "name": "40cc2b3608d9390836cc30407a402fff", "lon": -76.997761, "rental_uris": {"android": "https://dc.lft.to/lastmile_qr_scan", "ios": "https://dc.lft.to/lastmile_qr_scan"}, "fusion_lon": 0.0, "bike_id": "40cc2b3608d9390836cc30407a402fff", "is_disabled": 0, "lat": 38.88557516666667, "is_reserved": 0, "type": "electric_scooter"}, {"fusion_lat": 0.0, "name": "786d9ecca08985ff511fd970137d16c7", "lon": -77.034881, "rental_uris": {"android": "https://dc.lft.to/lastmile_qr_scan", "ios": "https://dc.lft.to/lastmile_qr_scan"}, "fusion_lon": 0.0, "bike_id": "786d9ecca08985ff511fd970137d16c7", "is_disabled": 0, "lat": 38.9169555, "is_reserved": 0, "type": "electric_scooter"}, {"fusion_lat": 0.0, "name": "89f91faecaac8b4e407f56259ce8ed8b", "lon": -77.02116633333333, "rental_uris": {"android": "https://dc.lft.to/lastmile_qr_scan", "ios": "https://dc.lft.to/lastmile_qr_scan"}, "fusion_lon": 0.0, "bike_id": "89f91faecaac8b4e407f56259ce8ed8b", "is_disabled": 0, "lat": 38.9141585, "is_reserved": 0, "type": "electric_scooter"}, {"fusion_lat": 0.0, "name": "9d70ca1e0065029032863d293dc4bf55", "lon": -77.054943, "rental_uris": {"android": "https://dc.lft.to/lastmile_qr_scan", "ios": "https://dc.lft.to/lastmile_qr_scan"}, "fusion_lon": 0.0, "bike_id": "9d70ca1e0065029032863d293dc4bf55", "is_disabled": 0, "lat": 38.893634666666664, "is_reserved": 0, "type": "electric_scooter"}, {"fusion_lat": 0.0, "name": "3a9dfbf85488883e478d91c46f2f2a54", "lon": -77.028027, "rental_uris": {"android": "https://dc.lft.to/lastmile_qr_scan", "ios": "https://dc.lft.to/lastmile_qr_scan"}, "fusion_lon": 0.0, "bike_id": "3a9dfbf85488883e478d91c46f2f2a54", "is_disabled": 0, "lat": 38.916812166666666, "is_reserved": 0, "type": "electric_scooter"}, {"fusion_lat": 0.0, "name": "7edbd8a488d16e5167b2c8b0e33a85ab", "lon": -77.04377483333333, "rental_uris": {"android": "https://dc.lft.to/lastmile_qr_scan", "ios": "https://dc.lft.to/lastmile_qr_scan"}, "fusion_lon": 0.0, "bike_id": "7edbd8a488d16e5167b2c8b0e33a85ab", "is_disabled": 0, "lat": 38.91049366666667, "is_reserved": 0, "type": "electric_scooter"}, {"fusion_lat": 0.0, "name": "85da9e71e6136890400af59b9e3044e4", "lon": -77.032092, "rental_uris": {"android": "https://dc.lft.to/lastmile_qr_scan", "ios": "https://dc.lft.to/lastmile_qr_scan"}, "fusion_lon": 0.0, "bike_id": "85da9e71e6136890400af59b9e3044e4", "is_disabled": 0, "lat": 38.892207666666664, "is_reserved": 0, "type": "electric_scooter"}, {"fusion_lat": 0.0, "name": "f640672fa48a4593ac3cc0caf4e705df", "lon": -77.00727816666667, "rental_uris": {"android": "https://dc.lft.to/lastmile_qr_scan", "ios": "https://dc.lft.to/lastmile_qr_scan"}, "fusion_lon": 0.0, "bike_id": "f640672fa48a4593ac3cc0caf4e705df", "is_disabled": 0, "lat": 38.884896, "is_reserved": 0, "type": "electric_scooter"}, {"fusion_lat": 0.0, "name": "f786dacb5ee4b9ffc7b120b534cdcd51", "lon": -77.0732415, "rental_uris": {"android": "https://dc.lft.to/lastmile_qr_scan", "ios": "https://dc.lft.to/lastmile_qr_scan"}, "fusion_lon": 0.0, "bike_id": "f786dacb5ee4b9ffc7b120b534cdcd51", "is_disabled": 0, "lat": 38.92723183333333, "is_reserved": 0, "type": "electric_bike"}, {"fusion_lat": 0.0, "name": "3e78959c0b8c9c785649ec2cee85d950", "lon": -77.04330466666667, "rental_uris": {"android": "https://dc.lft.to/lastmile_qr_scan", "ios": "https://dc.lft.to/lastmile_qr_scan"}, "fusion_lon": 0.0, "bike_id": "3e78959c0b8c9c785649ec2cee85d950", "is_disabled": 0, "lat": 38.9012295, "is_reserved": 0, "type": "electric_scooter"}, {"fusion_lat": 0.0, "name": "21c93d0d291581f1bf674a91e9a65815", "lon": -77.025643, "rental_uris": {"android": "https://dc.lft.to/lastmile_qr_scan", "ios": "https://dc.lft.to/lastmile_qr_scan"}, "fusion_lon": 0.0, "bike_id": "21c93d0d291581f1bf674a91e9a65815", "is_disabled": 0, "lat": 38.95258316666666, "is_reserved": 0, "type": "electric_scooter"}, {"fusion_lat": 0.0, "name": "32b1d86ef1958c81e514ae10b0874375", "lon": -77.017874, "rental_uris": {"android": "https://dc.lft.to/lastmile_qr_scan", "ios": "https://dc.lft.to/lastmile_qr_scan"}, "fusion_lon": 0.0, "bike_id": "32b1d86ef1958c81e514ae10b0874375", "is_disabled": 0, "lat": 38.904115166666664, "is_reserved": 0, "type": "electric_scooter"}, {"fusion_lat": 0.0, "name": "c060d5256df74e86e8da947642820be3", "lon": -77.04460566666667, "rental_uris": {"android": "https://dc.lft.to/lastmile_qr_scan", "ios": "https://dc.lft.to/lastmile_qr_scan"}, "fusion_lon": 0.0, "bike_id": "c060d5256df74e86e8da947642820be3", "is_disabled": 0, "lat": 38.90378316666666, "is_reserved": 0, "type": "electric_scooter"}, {"fusion_lat": 0.0, "name": "09420f29a6630c4050b236da1e87b220", "lon": -77.02890066666667, "rental_uris": {"android": "https://dc.lft.to/lastmile_qr_scan", "ios": "https://dc.lft.to/lastmile_qr_scan"}, "fusion_lon": 0.0, "bike_id": "09420f29a6630c4050b236da1e87b220", "is_disabled": 0, "lat": 38.907075666666664, "is_reserved": 0, "type": "electric_scooter"}, {"fusion_lat": 0.0, "name": "1e3ecfa7ad23a1a9d086cf88e75c9458", "lon": -77.0433635, "rental_uris": {"android": "https://dc.lft.to/lastmile_qr_scan", "ios": "https://dc.lft.to/lastmile_qr_scan"}, "fusion_lon": 0.0, "bike_id": "1e3ecfa7ad23a1a9d086cf88e75c9458", "is_disabled": 0, "lat": 38.900282833333335, "is_reserved": 0, "type": "electric_scooter"}, {"fusion_lat": 0.0, "name": "3242c8c1533c0b98ec59acb719a03238", "lon": -77.04484133333334, "rental_uris": {"android": "https://dc.lft.to/lastmile_qr_scan", "ios": "https://dc.lft.to/lastmile_qr_scan"}, "fusion_lon": 0.0, "bike_id": "3242c8c1533c0b98ec59acb719a03238", "is_disabled": 0, "lat": 38.9186405, "is_reserved": 0, "type": "electric_scooter"}, {"fusion_lat": 0.0, "name": "60d8c190370c6d0999b499f52c857a1b", "lon": -76.9488535, "rental_uris": {"android": "https://dc.lft.to/lastmile_qr_scan", "ios": "https://dc.lft.to/lastmile_qr_scan"}, "fusion_lon": 0.0, "bike_id": "60d8c190370c6d0999b499f52c857a1b", "is_disabled": 0, "lat": 38.89421133333333, "is_reserved": 0, "type": "electric_scooter"}, {"fusion_lat": 0.0, "name": "7d27656ef63ce946dd74ff0a3aeb724b", "lon": -77.0356175, "rental_uris": {"android": "https://dc.lft.to/lastmile_qr_scan", "ios": "https://dc.lft.to/lastmile_qr_scan"}, "fusion_lon": 0.0, "bike_id": "7d27656ef63ce946dd74ff0a3aeb724b", "is_disabled": 0, "lat": 38.93374133333333, "is_reserved": 0, "type": "electric_scooter"}, {"fusion_lat": 0.0, "name": "25ede20ce9afefe7f5dcb5080fbd7d15", "lon": -77.03270233333333, "rental_uris": {"android": "https://dc.lft.to/lastmile_qr_scan", "ios": "https://dc.lft.to/lastmile_qr_scan"}, "fusion_lon": 0.0, "bike_id": "25ede20ce9afefe7f5dcb5080fbd7d15", "is_disabled": 0, "lat": 38.93243583333334, "is_reserved": 0, "type": "electric_scooter"}, {"fusion_lat": 0.0, "name": "d6d1991324d81777df66ec34893726ee", "lon": -76.97519933333334, "rental_uris": {"android": "https://dc.lft.to/lastmile_qr_scan", "ios": "https://dc.lft.to/lastmile_qr_scan"}, "fusion_lon": 0.0, "bike_id": "d6d1991324d81777df66ec34893726ee", "is_disabled": 0, "lat": 38.849817, "is_reserved": 0, "type": "electric_scooter"}, {"fusion_lat": 0.0, "name": "007df6205d3a19ec97f1139f868c8005", "lon": -77.04873433333333, "rental_uris": {"android": "https://dc.lft.to/lastmile_qr_scan", "ios": "https://dc.lft.to/lastmile_qr_scan"}, "fusion_lon": 0.0, "bike_id": "007df6205d3a19ec97f1139f868c8005", "is_disabled": 0, "lat": 38.904664833333335, "is_reserved": 0, "type": "electric_scooter"}, {"fusion_lat": 0.0, "name": "b667018ba6c96e667711d74440b1746e", "lon": -77.05457666666666, "rental_uris": {"android": "https://dc.lft.to/lastmile_qr_scan", "ios": "https://dc.lft.to/lastmile_qr_scan"}, "fusion_lon": 0.0, "bike_id": "b667018ba6c96e667711d74440b1746e", "is_disabled": 0, "lat": 38.92900316666667, "is_reserved": 0, "type": "electric_scooter"}, {"fusion_lat": 0.0, "name": "0b9dbfd2eae70810d880d6c8d54235d4", "lon": -76.93008733333333, "rental_uris": {"android": "https://dc.lft.to/lastmile_qr_scan", "ios": "https://dc.lft.to/lastmile_qr_scan"}, "fusion_lon": 0.0, "bike_id": "0b9dbfd2eae70810d880d6c8d54235d4", "is_disabled": 0, "lat": 38.880861833333334, "is_reserved": 0, "type": "electric_scooter"}, {"fusion_lat": 0.0, "name": "7ad067c943a5b0cd1b2826bd3ca06e69", "lon": -77.02233566666666, "rental_uris": {"android": "https://dc.lft.to/lastmile_qr_scan", "ios": "https://dc.lft.to/lastmile_qr_scan"}, "fusion_lon": 0.0, "bike_id": "7ad067c943a5b0cd1b2826bd3ca06e69", "is_disabled": 0, "lat": 38.89845416666667, "is_reserved": 0, "type": "electric_scooter"}, {"fusion_lat": 0.0, "name": "57e7a5bae10da467aa160d2f668afb23", "lon": -77.0467715, "rental_uris": {"android": "https://dc.lft.to/lastmile_qr_scan", "ios": "https://dc.lft.to/lastmile_qr_scan"}, "fusion_lon": 0.0, "bike_id": "57e7a5bae10da467aa160d2f668afb23", "is_disabled": 0, "lat": 38.8955885, "is_reserved": 0, "type": "electric_scooter"}, {"fusion_lat": 0.0, "name": "411c2bbfc89633bd6a9128a4538a16f3", "lon": -77.04305066666667, "rental_uris": {"android": "https://dc.lft.to/lastmile_qr_scan", "ios": "https://dc.lft.to/lastmile_qr_scan"}, "fusion_lon": 0.0, "bike_id": "411c2bbfc89633bd6a9128a4538a16f3", "is_disabled": 0, "lat": 38.923927166666665, "is_reserved": 0, "type": "electric_scooter"}, {"fusion_lat": 0.0, "name": "9e47daa13685d5b7d9dd57752d94aa29", "lon": -77.02393683333334, "rental_uris": {"android": "https://dc.lft.to/lastmile_qr_scan", "ios": "https://dc.lft.to/lastmile_qr_scan"}, "fusion_lon": 0.0, "bike_id": "9e47daa13685d5b7d9dd57752d94aa29", "is_disabled": 0, "lat": 38.91989016666667, "is_reserved": 0, "type": "electric_scooter"}, {"fusion_lat": 0.0, "name": "5dd4645555886ad63835feb8519fe5e4", "lon": -77.020877, "rental_uris": {"android": "https://dc.lft.to/lastmile_qr_scan", "ios": "https://dc.lft.to/lastmile_qr_scan"}, "fusion_lon": 0.0, "bike_id": "5dd4645555886ad63835feb8519fe5e4", "is_disabled": 0, "lat": 38.92912416666667, "is_reserved": 0, "type": "electric_scooter"}, {"fusion_lat": 0.0, "name": "c451ee98e225ca3fff29a2fa902b6dc8", "lon": -77.04349, "rental_uris": {"android": "https://dc.lft.to/lastmile_qr_scan", "ios": "https://dc.lft.to/lastmile_qr_scan"}, "fusion_lon": 0.0, "bike_id": "c451ee98e225ca3fff29a2fa902b6dc8", "is_disabled": 0, "lat": 38.90801366666667, "is_reserved": 0, "type": "electric_scooter"}, {"fusion_lat": 0.0, "name": "7fcfbed542106c7b915e0dabd7d401a1", "lon": -77.043274, "rental_uris": {"android": "https://dc.lft.to/lastmile_qr_scan", "ios": "https://dc.lft.to/lastmile_qr_scan"}, "fusion_lon": 0.0, "bike_id": "7fcfbed542106c7b915e0dabd7d401a1", "is_disabled": 0, "lat": 38.9077245, "is_reserved": 0, "type": "electric_scooter"}, {"fusion_lat": 0.0, "name": "605b061c733325e36df481a84fc85255", "lon": -77.02278433333333, "rental_uris": {"android": "https://dc.lft.to/lastmile_qr_scan", "ios": "https://dc.lft.to/lastmile_qr_scan"}, "fusion_lon": 0.0, "bike_id": "605b061c733325e36df481a84fc85255", "is_disabled": 0, "lat": 38.89365083333333, "is_reserved": 0, "type": "electric_scooter"}, {"fusion_lat": 0.0, "name": "de84e6fdc4f4d910b002f6e6d5256646", "lon": -77.0173995, "rental_uris": {"android": "https://dc.lft.to/lastmile_qr_scan", "ios": "https://dc.lft.to/lastmile_qr_scan"}, "fusion_lon": 0.0, "bike_id": "de84e6fdc4f4d910b002f6e6d5256646", "is_disabled": 0, "lat": 38.88009866666667, "is_reserved": 0, "type": "electric_scooter"}, {"fusion_lat": 0.0, "name": "350d90fa20f1909733abfb5cbf2a4b55", "lon": -76.97618566666667, "rental_uris": {"android": "https://dc.lft.to/lastmile_qr_scan", "ios": "https://dc.lft.to/lastmile_qr_scan"}, "fusion_lon": 0.0, "bike_id": "350d90fa20f1909733abfb5cbf2a4b55", "is_disabled": 0, "lat": 38.926482, "is_reserved": 0, "type": "electric_scooter"}, {"fusion_lat": 0.0, "name": "d9fea7885280bf2656fce56c763402b8", "lon": -77.00679566666666, "rental_uris": {"android": "https://dc.lft.to/lastmile_qr_scan", "ios": "https://dc.lft.to/lastmile_qr_scan"}, "fusion_lon": 0.0, "bike_id": "d9fea7885280bf2656fce56c763402b8", "is_disabled": 0, "lat": 38.834891, "is_reserved": 0, "type": "electric_scooter"}, {"fusion_lat": 0.0, "name": "faf6c9b046f289046aa1a24e5dd09555", "lon": -77.0108095, "rental_uris": {"android": "https://dc.lft.to/lastmile_qr_scan", "ios": "https://dc.lft.to/lastmile_qr_scan"}, "fusion_lon": 0.0, "bike_id": "faf6c9b046f289046aa1a24e5dd09555", "is_disabled": 0, "lat": 38.89488933333333, "is_reserved": 0, "type": "electric_scooter"}, {"fusion_lat": 0.0, "name": "2f475ff2cad49322af03048b40b50eac", "lon": -76.997096, "rental_uris": {"android": "https://dc.lft.to/lastmile_qr_scan", "ios": "https://dc.lft.to/lastmile_qr_scan"}, "fusion_lon": 0.0, "bike_id": "2f475ff2cad49322af03048b40b50eac", "is_disabled": 0, "lat": 38.8847845, "is_reserved": 0, "type": "electric_scooter"}, {"fusion_lat": 0.0, "name": "8dfc562f5182896bf7562c81d310288b", "lon": -77.00441666666667, "rental_uris": {"android": "https://dc.lft.to/lastmile_qr_scan", "ios": "https://dc.lft.to/lastmile_qr_scan"}, "fusion_lon": 0.0, "bike_id": "8dfc562f5182896bf7562c81d310288b", "is_disabled": 0, "lat": 38.91177066666667, "is_reserved": 0, "type": "electric_scooter"}, {"fusion_lat": 0.0, "name": "48619bb9a75e67a7f25e3a898a9bc72f", "lon": -77.04196166666667, "rental_uris": {"android": "https://dc.lft.to/lastmile_qr_scan", "ios": "https://dc.lft.to/lastmile_qr_scan"}, "fusion_lon": 0.0, "bike_id": "48619bb9a75e67a7f25e3a898a9bc72f", "is_disabled": 0, "lat": 38.90274016666667, "is_reserved": 0, "type": "electric_scooter"}, {"fusion_lat": 0.0, "name": "3331f972cbe0613a729f8278c985cf37", "lon": -77.088109, "rental_uris": {"android": "https://dc.lft.to/lastmile_qr_scan", "ios": "https://dc.lft.to/lastmile_qr_scan"}, "fusion_lon": 0.0, "bike_id": "3331f972cbe0613a729f8278c985cf37", "is_disabled": 0, "lat": 38.91176216666667, "is_reserved": 0, "type": "electric_bike"}, {"fusion_lat": 0.0, "name": "9cdeb424bcb560cdd6d1553a3e7809dc", "lon": -77.034379, "rental_uris": {"android": "https://dc.lft.to/lastmile_qr_scan", "ios": "https://dc.lft.to/lastmile_qr_scan"}, "fusion_lon": 0.0, "bike_id": "9cdeb424bcb560cdd6d1553a3e7809dc", "is_disabled": 0, "lat": 38.9041205, "is_reserved": 0, "type": "electric_scooter"}, {"fusion_lat": 0.0, "name": "5b1dc8fbf34bf0ea9c5929567e623c66", "lon": -77.02724666666667, "rental_uris": {"android": "https://dc.lft.to/lastmile_qr_scan", "ios": "https://dc.lft.to/lastmile_qr_scan"}, "fusion_lon": 0.0, "bike_id": "5b1dc8fbf34bf0ea9c5929567e623c66", "is_disabled": 0, "lat": 38.8972615, "is_reserved": 0, "type": "electric_scooter"}, {"fusion_lat": 0.0, "name": "ab6dc9b9d50c93578a9aa5d6bf957745", "lon": -76.98590766666666, "rental_uris": {"android": "https://dc.lft.to/lastmile_qr_scan", "ios": "https://dc.lft.to/lastmile_qr_scan"},