{"data": {"bikes": [{"is_disabled": 0, "fusion_lon": 0.0, "fusion_lat": 0.0, "lat": 38.91742683333333, "type": "electric_scooter", "lon": -77.02296416666667, "bike_id": "d7fd0fe902f0e1fbf6ff6e02d9e8f164", "rental_uris": {"android": "https://dc.lft.to/lastmile_qr_scan", "ios": "https://dc.lft.to/lastmile_qr_scan"}, "name": "d7fd0fe902f0e1fbf6ff6e02d9e8f164", "is_reserved": 0}, {"is_disabled": 0, "fusion_lon": 0.0, "fusion_lat": 0.0, "lat": 38.917985333333334, "type": "electric_scooter", "lon": -77.03440533333334, "bike_id": "5f1d0d42e99c2ffc589ef6b1bc48fc06", "rental_uris": {"android": "https://dc.lft.to/lastmile_qr_scan", "ios": "https://dc.lft.to/lastmile_qr_scan"}, "name": "5f1d0d42e99c2ffc589ef6b1bc48fc06", "is_reserved": 0}, {"is_disabled": 0, "fusion_lon": 0.0, "fusion_lat": 0.0, "lat": 38.842896833333334, "type": "electric_scooter", "lon": -76.99946233333333, "bike_id": "89d7eaee40419c8e12faf25ffdc6cda0", "rental_uris": {"android": "https://dc.lft.to/lastmile_qr_scan", "ios": "https://dc.lft.to/lastmile_qr_scan"}, "name": "89d7eaee40419c8e12faf25ffdc6cda0", "is_reserved": 0}, {"is_disabled": 0, "fusion_lon": 0.0, "fusion_lat": 0.0, "lat": 38.90837616666666, "type": "electric_scooter", "lon": -76.997002, "bike_id": "1f8cd3d83f2e9e756a2e8b41e5c92760", "rental_uris": {"android": "https://dc.lft.to/lastmile_qr_scan", "ios": "https://dc.lft.to/lastmile_qr_scan"}, "name": "1f8cd3d83f2e9e756a2e8b41e5c92760", "is_reserved": 0}, {"is_disabled": 0, "fusion_lon": 0.0, "fusion_lat": 0.0, "lat": 38.887039333333334, "type": "electric_scooter", "lon": -76.95365116666666, "bike_id": "76258fc80d660986ec64d7a00bb2319f", "rental_uris": {"android": "https://dc.lft.to/lastmile_qr_scan", "ios": "https://dc.lft.to/lastmile_qr_scan"}, "name": "76258fc80d660986ec64d7a00bb2319f", "is_reserved": 0}, {"is_disabled": 0, "fusion_lon": 0.0, "fusion_lat": 0.0, "lat": 38.89738633333333, "type": "electric_scooter", "lon": -77.0075575, "bike_id": "72daab9b4139df0a0151bd401ae9ffee", "rental_uris": {"android": "https://dc.lft.to/lastmile_qr_scan", "ios": "https://dc.lft.to/lastmile_qr_scan"}, "name": "72daab9b4139df0a0151bd401ae9ffee", "is_reserved": 0}, {"is_disabled": 0, "fusion_lon": 0.0, "fusion_lat": 0.0, "lat": 38.916194833333336, "type": "electric_scooter", "lon": -77.04349466666666, "bike_id": "0445d984e894de93160dbe2b86a6a153", "rental_uris": {"android": "https://dc.lft.to/lastmile_qr_scan", "ios": "https://dc.lft.to/lastmile_qr_scan"}, "name": "0445d984e894de93160dbe2b86a6a153", "is_reserved": 0}, {"is_disabled": 0, "fusion_lon": 0.0, "fusion_lat": 0.0, "lat": 38.9757725, "type": "electric_bike", "lon": -76.96403033333333, "bike_id": "3d2337779e48d363c76d5a7fddba8591", "rental_uris": {"android": "https://dc.lft.to/lastmile_qr_scan", "ios": "https://dc.lft.to/lastmile_qr_scan"}, "name": "3d2337779e48d363c76d5a7fddba8591", "is_reserved": 0}, {"is_disabled": 0, "fusion_lon": 0.0, "fusion_lat": 0.0, "lat": 38.88739966666667, "type": "electric_scooter", "lon": -77.02273183333334, "bike_id": "34f8e0f03c498944944e54fd8f2143e3", "rental_uris": {"android": "https://dc.lft.to/lastmile_qr_scan", "ios": "https://dc.lft.to/lastmile_qr_scan"}, "name": "34f8e0f03c498944944e54fd8f2143e3", "is_reserved": 0}, {"is_disabled": 0, "fusion_lon": 0.0, "fusion_lat": 0.0, "lat": 38.928775333333334, "type": "electric_bike", "lon": -77.03735966666666, "bike_id": "692a8b49de4c2c6738a4b3c0bc7c7411", "rental_uris": {"android": "https://dc.lft.to/lastmile_qr_scan", "ios": "https://dc.lft.to/lastmile_qr_scan"}, "name": "692a8b49de4c2c6738a4b3c0bc7c7411", "is_reserved": 0}, {"is_disabled": 0, "fusion_lon": 0.0, "fusion_lat": 0.0, "lat": 38.88821033333333, "type": "electric_bike", "lon": -77.12739566666667, "bike_id": "a853d9817ce86ae229dea391b60a89c1", "rental_uris": {"android": "https://dc.lft.to/lastmile_qr_scan", "ios": "https://dc.lft.to/lastmile_qr_scan"}, "name": "a853d9817ce86ae229dea391b60a89c1", "is_reserved": 0}, {"is_disabled": 0, "fusion_lon": 0.0, "fusion_lat": 0.0, "lat": 38.90833033333333, "type": "electric_bike", "lon": -76.94155083333334, "bike_id": "c905b1d46beaee02a7715f90a01f9b53", "rental_uris": {"android": "https://dc.lft.to/lastmile_qr_scan", "ios": "https://dc.lft.to/lastmile_qr_scan"}, "name": "c905b1d46beaee02a7715f90a01f9b53", "is_reserved": 0}, {"is_disabled": 0, "fusion_lon": 0.0, "fusion_lat": 0.0, "lat": 38.928672666666664, "type": "electric_scooter", "lon": -77.031016, "bike_id": "872afc04b5e94fba5bb44a2255ae28e8", "rental_uris": {"android": "https://dc.lft.to/lastmile_qr_scan", "ios": "https://dc.lft.to/lastmile_qr_scan"}, "name": "872afc04b5e94fba5bb44a2255ae28e8", "is_reserved": 0}, {"is_disabled": 0, "fusion_lon": 0.0, "fusion_lat": 0.0, "lat": 38.932924666666665, "type": "electric_scooter", "lon": -77.02394033333333, "bike_id": "0b4d083010057116cc35b3d8a09ac25e", "rental_uris": {"android": "https://dc.lft.to/lastmile_qr_scan", "ios": "https://dc.lft.to/lastmile_qr_scan"}, "name": "0b4d083010057116cc35b3d8a09ac25e", "is_reserved": 0}, {"is_disabled": 0, "fusion_lon": 0.0, "fusion_lat": 0.0, "lat": 38.99093166666667, "type": "electric_bike", "lon": -76.87494666666667, "bike_id": "97364e57da7f70f9bc110ee45770e4a8", "rental_uris": {"android": "https://dc.lft.to/lastmile_qr_scan", "ios": "https://dc.lft.to/lastmile_qr_scan"}, "name": "97364e57da7f70f9bc110ee45770e4a8", "is_reserved": 0}, {"is_disabled": 0, "fusion_lon": 0.0, "fusion_lat": 0.0, "lat": 38.889705666666664, "type": "electric_bike", "lon": -76.94864633333333, "bike_id": "caef5a6b89c9cb76b16e06a13c4dc713", "rental_uris": {"android": "https://dc.lft.to/lastmile_qr_scan", "ios": "https://dc.lft.to/lastmile_qr_scan"}, "name": "caef5a6b89c9cb76b16e06a13c4dc713", "is_reserved": 0}, {"is_disabled": 0, "fusion_lon": 0.0, "fusion_lat": 0.0, "lat": 38.907716, "type": "electric_scooter", "lon": -77.03269333333333, "bike_id": "a492b206640d9ae816d5872339d3d0f8", "rental_uris": {"android": "https://dc.lft.to/lastmile_qr_scan", "ios": "https://dc.lft.to/lastmile_qr_scan"}, "name": "a492b206640d9ae816d5872339d3d0f8", "is_reserved": 0}, {"is_disabled": 0, "fusion_lon": 0.0, "fusion_lat": 0.0, "lat": 38.9006645, "type": "electric_scooter", "lon": -76.93386083333333, "bike_id": "4b6e42db898d030d69ddae304feb1e5b", "rental_uris": {"android": "https://dc.lft.to/lastmile_qr_scan", "ios": "https://dc.lft.to/lastmile_qr_scan"}, "name": "4b6e42db898d030d69ddae304feb1e5b", "is_reserved": 0}, {"is_disabled": 0, "fusion_lon": 0.0, "fusion_lat": 0.0, "lat": 38.931371666666664, "type": "electric_scooter", "lon": -77.057241, "bike_id": "5c51cbac27d211533d9bc9353dcdda43", "rental_uris": {"android": "https://dc.lft.to/lastmile_qr_scan", "ios": "https://dc.lft.to/lastmile_qr_scan"}, "name": "5c51cbac27d211533d9bc9353dcdda43", "is_reserved": 0}, {"is_disabled": 0, "fusion_lon": 0.0, "fusion_lat": 0.0, "lat": 38.928690833333334, "type": "electric_scooter", "lon": -77.032358, "bike_id": "a74699dda899e93960b2d5b46a299982", "rental_uris": {"android": "https://dc.lft.to/lastmile_qr_scan", "ios": "https://dc.lft.to/lastmile_qr_scan"}, "name": "a74699dda899e93960b2d5b46a299982", "is_reserved": 0}, {"is_disabled": 0, "fusion_lon": 0.0, "fusion_lat": 0.0, "lat": 38.974050166666665, "type": "electric_bike", "lon": -77.02496166666667, "bike_id": "d00705d7ab4fee8768d85c9e749cce8b", "rental_uris": {"android": "https://dc.lft.to/lastmile_qr_scan", "ios": "https://dc.lft.to/lastmile_qr_scan"}, "name": "d00705d7ab4fee8768d85c9e749cce8b", "is_reserved": 0}, {"is_disabled": 0, "fusion_lon": 0.0, "fusion_lat": 0.0, "lat": 38.90357133333333, "type": "electric_scooter", "lon": -77.01739583333334, "bike_id": "1fc6c2ea023def1227bbcd2db602d997", "rental_uris": {"android": "https://dc.lft.to/lastmile_qr_scan", "ios": "https://dc.lft.to/lastmile_qr_scan"}, "name": "1fc6c2ea023def1227bbcd2db602d997", "is_reserved": 0}, {"is_disabled": 0, "fusion_lon": 0.0, "fusion_lat": 0.0, "lat": 38.878963, "type": "electric_scooter", "lon": -76.93523183333333, "bike_id": "becdf9b9d2805ce65d266e6f5af35c16", "rental_uris": {"android": "https://dc.lft.to/lastmile_qr_scan", "ios": "https://dc.lft.to/lastmile_qr_scan"}, "name": "becdf9b9d2805ce65d266e6f5af35c16", "is_reserved": 0}, {"is_disabled": 0, "fusion_lon": 0.0, "fusion_lat": 0.0, "lat": 38.90691133333333, "type": "electric_scooter", "lon": -77.02698566666666, "bike_id": "729554e4b1b504b936f31083e684f983", "rental_uris": {"android": "https://dc.lft.to/lastmile_qr_scan", "ios": "https://dc.lft.to/lastmile_qr_scan"}, "name": "729554e4b1b504b936f31083e684f983", "is_reserved": 0}, {"is_disabled": 0, "fusion_lon": 0.0, "fusion_lat": 0.0, "lat": 38.89223766666667, "type": "electric_scooter", "lon": -77.04681716666667, "bike_id": "3da28eb98d40b2c00a80272255de7d3e", "rental_uris": {"android": "https://dc.lft.to/lastmile_qr_scan", "ios": "https://dc.lft.to/lastmile_qr_scan"}, "name": "3da28eb98d40b2c00a80272255de7d3e", "is_reserved": 0}, {"is_disabled": 0, "fusion_lon": 0.0, "fusion_lat": 0.0, "lat": 38.917112, "type": "electric_scooter", "lon": -77.03674333333333, "bike_id": "36ff8418c6fbde5621b2894041c7548c", "rental_uris": {"android": "https://dc.lft.to/lastmile_qr_scan", "ios": "https://dc.lft.to/lastmile_qr_scan"}, "name": "36ff8418c6fbde5621b2894041c7548c", "is_reserved": 0}, {"is_disabled": 0, "fusion_lon": 0.0, "fusion_lat": 0.0, "lat": 38.946192, "type": "electric_scooter", "lon": -77.03628333333333, "bike_id": "ab9fa5fd4a12ee2a8ed6bd38e991fe32", "rental_uris": {"android": "https://dc.lft.to/lastmile_qr_scan", "ios": "https://dc.lft.to/lastmile_qr_scan"}, "name": "ab9fa5fd4a12ee2a8ed6bd38e991fe32", "is_reserved": 0}, {"is_disabled": 0, "fusion_lon": 0.0, "fusion_lat": 0.0, "lat": 38.920266166666664, "type": "electric_scooter", "lon": -77.03139566666667, "bike_id": "e10dfa615788b471a654b480b49b5437", "rental_uris": {"android": "https://dc.lft.to/lastmile_qr_scan", "ios": "https://dc.lft.to/lastmile_qr_scan"}, "name": "e10dfa615788b471a654b480b49b5437", "is_reserved": 0}, {"is_disabled": 0, "fusion_lon": 0.0, "fusion_lat": 0.0, "lat": 38.91270466666667, "type": "electric_scooter", "lon": -77.033644, "bike_id": "2a15c78bc91e18ad9df1bd899e3c7078", "rental_uris": {"android": "https://dc.lft.to/lastmile_qr_scan", "ios": "https://dc.lft.to/lastmile_qr_scan"}, "name": "2a15c78bc91e18ad9df1bd899e3c7078", "is_reserved": 0}, {"is_disabled": 0, "fusion_lon": 0.0, "fusion_lat": 0.0, "lat": 38.9279315, "type": "electric_scooter", "lon": -77.02439166666667, "bike_id": "bcadb7361c61feb4d2addd16c4cf6f05", "rental_uris": {"android": "https://dc.lft.to/lastmile_qr_scan", "ios": "https://dc.lft.to/lastmile_qr_scan"}, "name": "bcadb7361c61feb4d2addd16c4cf6f05", "is_reserved": 0}, {"is_disabled": 0, "fusion_lon": 0.0, "fusion_lat": 0.0, "lat": 38.929686, "type": "electric_scooter", "lon": -77.0420355, "bike_id": "4b2f7be8ed6c97f553d3c9deb7dff652", "rental_uris": {"android": "https://dc.lft.to/lastmile_qr_scan", "ios": "https://dc.lft.to/lastmile_qr_scan"}, "name": "4b2f7be8ed6c97f553d3c9deb7dff652", "is_reserved": 0}, {"is_disabled": 0, "fusion_lon": 0.0, "fusion_lat": 0.0, "lat": 38.96619783333333, "type": "electric_scooter", "lon": -77.0352775, "bike_id": "40bf12b422539c679de6e9fd3dbbe18d", "rental_uris": {"android": "https://dc.lft.to/lastmile_qr_scan", "ios": "https://dc.lft.to/lastmile_qr_scan"}, "name": "40bf12b422539c679de6e9fd3dbbe18d", "is_reserved": 0}, {"is_disabled": 0, "fusion_lon": 0.0, "fusion_lat": 0.0, "lat": 38.9165925, "type": "electric_scooter", "lon": -77.043868, "bike_id": "320e71ed976962ab72b99e2861aedccc", "rental_uris": {"android": "https://dc.lft.to/lastmile_qr_scan", "ios": "https://dc.lft.to/lastmile_qr_scan"}, "name": "320e71ed976962ab72b99e2861aedccc", "is_reserved": 0}, {"is_disabled": 0, "fusion_lon": 0.0, "fusion_lat": 0.0, "lat": 38.93338933333333, "type": "electric_bike", "lon": -77.042118, "bike_id": "558587f80ffb9d4307edbd47e48e3285", "rental_uris": {"android": "https://dc.lft.to/lastmile_qr_scan", "ios": "https://dc.lft.to/lastmile_qr_scan"}, "name": "558587f80ffb9d4307edbd47e48e3285", "is_reserved": 0}, {"is_disabled": 0, "fusion_lon": 0.0, "fusion_lat": 0.0, "lat": 38.9169145, "type": "electric_scooter", "lon": -77.03689683333333, "bike_id": "2cde269d2b747d54976a9ae09ee5ba3d", "rental_uris": {"android": "https://dc.lft.to/lastmile_qr_scan", "ios": "https://dc.lft.to/lastmile_qr_scan"}, "name": "2cde269d2b747d54976a9ae09ee5ba3d", "is_reserved": 0}, {"is_disabled": 0, "fusion_lon": 0.0, "fusion_lat": 0.0, "lat": 38.86959066666667, "type": "electric_scooter", "lon": -76.97922233333334, "bike_id": "873e0e806ebb0fc354745cd80cbbe577", "rental_uris": {"android": "https://dc.lft.to/lastmile_qr_scan", "ios": "https://dc.lft.to/lastmile_qr_scan"}, "name": "873e0e806ebb0fc354745cd80cbbe577", "is_reserved": 0}, {"is_disabled": 0, "fusion_lon": 0.0, "fusion_lat": 0.0, "lat": 38.915668833333335, "type": "electric_scooter", "lon": -77.03239783333333, "bike_id": "dc485e304a50e305bbc096a88d5a9654", "rental_uris": {"android": "https://dc.lft.to/lastmile_qr_scan", "ios": "https://dc.lft.to/lastmile_qr_scan"}, "name": "dc485e304a50e305bbc096a88d5a9654", "is_reserved": 0}, {"is_disabled": 0, "fusion_lon": 0.0, "fusion_lat": 0.0, "lat": 38.897704166666664, "type": "electric_scooter", "lon": -77.02198166666666, "bike_id": "6d2b87d6eee4c69901bb102de02fb978", "rental_uris": {"android": "https://dc.lft.to/lastmile_qr_scan", "ios": "https://dc.lft.to/lastmile_qr_scan"}, "name": "6d2b87d6eee4c69901bb102de02fb978", "is_reserved": 0}, {"is_disabled": 0, "fusion_lon": 0.0, "fusion_lat": 0.0, "lat": 38.93212233333333, "type": "electric_scooter", "lon": -77.0237975, "bike_id": "1e588aaa527999293a9eff43a3aa3506", "rental_uris": {"android": "https://dc.lft.to/lastmile_qr_scan", "ios": "https://dc.lft.to/lastmile_qr_scan"}, "name": "1e588aaa527999293a9eff43a3aa3506", "is_reserved": 0}, {"is_disabled": 0, "fusion_lon": 0.0, "fusion_lat": 0.0, "lat": 38.90669716666667, "type": "electric_scooter", "lon": -77.0270235, "bike_id": "da1b2f85da2e950aed24d5c36ae296dc", "rental_uris": {"android": "https://dc.lft.to/lastmile_qr_scan", "ios": "https://dc.lft.to/lastmile_qr_scan"}, "name": "da1b2f85da2e950aed24d5c36ae296dc", "is_reserved": 0}, {"is_disabled": 0, "fusion_lon": 0.0, "fusion_lat": 0.0, "lat": 38.92989016666667, "type": "electric_scooter", "lon": -77.03257066666667, "bike_id": "5a123b7b032cca6ad1b59cec423d3878", "rental_uris": {"android": "https://dc.lft.to/lastmile_qr_scan", "ios": "https://dc.lft.to/lastmile_qr_scan"}, "name": "5a123b7b032cca6ad1b59cec423d3878", "is_reserved": 0}, {"is_disabled": 0, "fusion_lon": 0.0, "fusion_lat": 0.0, "lat": 38.924512666666665, "type": "electric_bike", "lon": -76.96829633333333, "bike_id": "9588d7d7931b57819bbb1675c20801fa", "rental_uris": {"android": "https://dc.lft.to/lastmile_qr_scan", "ios": "https://dc.lft.to/lastmile_qr_scan"}, "name": "9588d7d7931b57819bbb1675c20801fa", "is_reserved": 0}, {"is_disabled": 0, "fusion_lon": 0.0, "fusion_lat": 0.0, "lat": 39.105675, "type": "electric_bike", "lon": -77.15267616666667, "bike_id": "ac41e891afa42ee376a38af90de20c54", "rental_uris": {"android": "https://dc.lft.to/lastmile_qr_scan", "ios": "https://dc.lft.to/lastmile_qr_scan"}, "name": "ac41e891afa42ee376a38af90de20c54", "is_reserved": 0}, {"is_disabled": 0, "fusion_lon": 0.0, "fusion_lat": 0.0, "lat": 38.90262966666667, "type": "electric_scooter", "lon": -77.042583, "bike_id": "5be034ff99df3e85a8b1ad2555c9abf8", "rental_uris": {"android": "https://dc.lft.to/lastmile_qr_scan", "ios": "https://dc.lft.to/lastmile_qr_scan"}, "name": "5be034ff99df3e85a8b1ad2555c9abf8", "is_reserved": 0}, {"is_disabled": 0, "fusion_lon": 0.0, "fusion_lat": 0.0, "lat": 38.9453605, "type": "electric_bike", "lon": -77.02710883333333, "bike_id": "d89b771f2863f38b6ad248eb819bafda", "rental_uris": {"android": "https://dc.lft.to/lastmile_qr_scan", "ios": "https://dc.lft.to/lastmile_qr_scan"}, "name": "d89b771f2863f38b6ad248eb819bafda", "is_reserved": 0}, {"is_disabled": 0, "fusion_lon": 0.0, "fusion_lat": 0.0, "lat": 38.92097483333333, "type": "electric_scooter", "lon": -76.994163, "bike_id": "2bb754155e32778e9880aa10baeb2748", "rental_uris": {"android": "https://dc.lft.to/lastmile_qr_scan", "ios": "https://dc.lft.to/lastmile_qr_scan"}, "name": "2bb754155e32778e9880aa10baeb2748", "is_reserved": 0}, {"is_disabled": 0, "fusion_lon": 0.0, "fusion_lat": 0.0, "lat": 38.919905166666666, "type": "electric_scooter", "lon": -77.000222, "bike_id": "2b46be6dc4460c21ddb4d5cb59741594", "rental_uris": {"android": "https://dc.lft.to/lastmile_qr_scan", "ios": "https://dc.lft.to/lastmile_qr_scan"}, "name": "2b46be6dc4460c21ddb4d5cb59741594", "is_reserved": 0}, {"is_disabled": 0, "fusion_lon": 0.0, "fusion_lat": 0.0, "lat": 38.8937745, "type": "electric_scooter", "lon": -76.94994133333333, "bike_id": "37878a178e3de7011b0fa952ba9c05bb", "rental_uris": {"android": "https://dc.lft.to/lastmile_qr_scan", "ios": "https://dc.lft.to/lastmile_qr_scan"}, "name": "37878a178e3de7011b0fa952ba9c05bb", "is_reserved": 0}, {"is_disabled": 0, "fusion_lon": 0.0, "fusion_lat": 0.0, "lat": 38.8974295, "type": "electric_scooter", "lon": -77.04810866666666, "bike_id": "6b0e01b8aecd3256ab7f0fcf3d516714", "rental_uris": {"android": "https://dc.lft.to/lastmile_qr_scan", "ios": "https://dc.lft.to/lastmile_qr_scan"}, "name": "6b0e01b8aecd3256ab7f0fcf3d516714", "is_reserved": 0}, {"is_disabled": 0, "fusion_lon": 0.0, "fusion_lat": 0.0, "lat": 38.8782905, "type": "electric_scooter", "lon": -76.96318533333333, "bike_id": "61a3a0b058909d3a7dd6be52e986ab34", "rental_uris": {"android": "https://dc.lft.to/lastmile_qr_scan", "ios": "https://dc.lft.to/lastmile_qr_scan"}, "name": "61a3a0b058909d3a7dd6be52e986ab34", "is_reserved": 0}, {"is_disabled": 0, "fusion_lon": 0.0, "fusion_lat": 0.0, "lat": 38.8767305, "type": "electric_scooter", "lon": -76.931997, "bike_id": "aa760931a78539e9edb2bd0ae2b3f08a", "rental_uris": {"android": "https://dc.lft.to/lastmile_qr_scan", "ios": "https://dc.lft.to/lastmile_qr_scan"}, "name": "aa760931a78539e9edb2bd0ae2b3f08a", "is_reserved": 0}, {"is_disabled": 0, "fusion_lon": 0.0, "fusion_lat": 0.0, "lat": 38.9052815, "type": "electric_scooter", "lon": -77.0619645, "bike_id": "19d7ae9fc5523ff5ff10e374bb3789b6", "rental_uris": {"android": "https://dc.lft.to/lastmile_qr_scan", "ios": "https://dc.lft.to/lastmile_qr_scan"}, "name": "19d7ae9fc5523ff5ff10e374bb3789b6", "is_reserved": 0}, {"is_disabled": 0, "fusion_lon": 0.0, "fusion_lat": 0.0, "lat": 38.894944833333334, "type": "electric_scooter", "lon": -77.02219583333333, "bike_id": "a8261cf35b8d5c6b844d674af913aa5f", "rental_uris": {"android": "https://dc.lft.to/lastmile_qr_scan", "ios": "https://dc.lft.to/lastmile_qr_scan"}, "name": "a8261cf35b8d5c6b844d674af913aa5f", "is_reserved": 0}, {"is_disabled": 0, "fusion_lon": 0.0, "fusion_lat": 0.0, "lat": 38.950061, "type": "electric_bike", "lon": -77.35308866666666, "bike_id": "c34437dc56843406002ad9a7f8ffb43b", "rental_uris": {"android": "https://dc.lft.to/lastmile_qr_scan", "ios": "https://dc.lft.to/lastmile_qr_scan"}, "name": "c34437dc56843406002ad9a7f8ffb43b", "is_reserved": 0}, {"is_disabled": 0, "fusion_lon": 0.0, "fusion_lat": 0.0, "lat": 38.91974416666667, "type": "electric_scooter", "lon": -77.041786, "bike_id": "77ca8a4540e7c2a0cf5c87f7235ba7dc", "rental_uris": {"android": "https://dc.lft.to/lastmile_qr_scan", "ios": "https://dc.lft.to/lastmile_qr_scan"}, "name": "77ca8a4540e7c2a0cf5c87f7235ba7dc", "is_reserved": 0}, {"is_disabled": 0, "fusion_lon": 0.0, "fusion_lat": 0.0, "lat": 38.96763283333333, "type": "electric_bike", "lon": -77.091596, "bike_id": "834d23b519eab9fc64c46e5efedeb1e2", "rental_uris": {"android": "https://dc.lft.to/lastmile_qr_scan", "ios": "https://dc.lft.to/lastmile_qr_scan"}, "name": "834d23b519eab9fc64c46e5efedeb1e2", "is_reserved": 0}, {"is_disabled": 0, "fusion_lon": 0.0, "fusion_lat": 0.0, "lat": 38.998970666666665, "type": "electric_bike", "lon": -77.02845866666667, "bike_id": "fd3c1d124f749aca692f8916433a41ad", "rental_uris": {"android": "https://dc.lft.to/lastmile_qr_scan", "ios": "https://dc.lft.to/lastmile_qr_scan"}, "name": "fd3c1d124f749aca692f8916433a41ad", "is_reserved": 0}, {"is_disabled": 0, "fusion_lon": 0.0, "fusion_lat": 0.0, "lat": 38.924815, "type": "electric_scooter", "lon": -77.02711033333334, "bike_id": "6cf436ad1e03e4c498a8acb506ebe080", "rental_uris": {"android": "https://dc.lft.to/lastmile_qr_scan", "ios": "https://dc.lft.to/lastmile_qr_scan"}, "name": "6cf436ad1e03e4c498a8acb506ebe080", "is_reserved": 0}, {"is_disabled": 0, "fusion_lon": 0.0, "fusion_lat": 0.0, "lat": 38.9285735, "type": "electric_scooter", "lon": -77.0140555, "bike_id": "11a07a5b39580d8e761f2b9730ae49ec", "rental_uris": {"android": "https://dc.lft.to/lastmile_qr_scan", "ios": "https://dc.lft.to/lastmile_qr_scan"}, "name": "11a07a5b39580d8e761f2b9730ae49ec", "is_reserved": 0}, {"is_disabled": 0, "fusion_lon": 0.0, "fusion_lat": 0.0, "lat": 38.897378833333335, "type": "electric_scooter", "lon": -77.02608333333333, "bike_id": "b9c68160e57d04b4dc69b580d1e0dcd2", "rental_uris": {"android": "https://dc.lft.to/lastmile_qr_scan", "ios": "https://dc.lft.to/lastmile_qr_scan"}, "name": "b9c68160e57d04b4dc69b580d1e0dcd2", "is_reserved": 0}, {"is_disabled": 0, "fusion_lon": 0.0, "fusion_lat": 0.0, "lat": 38.8580615, "type": "electric_scooter", "lon": -76.98652316666667, "bike_id": "7c86369de63aef70e117a48d3d842324", "rental_uris": {"android": "https://dc.lft.to/lastmile_qr_scan", "ios": "https://dc.lft.to/lastmile_qr_scan"}, "name": "7c86369de63aef70e117a48d3d842324", "is_reserved": 0}, {"is_disabled": 0, "fusion_lon": 0.0, "fusion_lat": 0.0, "lat": 38.84201066666667, "type": "electric_bike", "lon": -77.10680916666666, "bike_id": "1aa063c5e101dc60aec2e2382dc4ea10", "rental_uris": {"android": "https://dc.lft.to/lastmile_qr_scan", "ios": "https://dc.lft.to/lastmile_qr_scan"}, "name": "1aa063c5e101dc60aec2e2382dc4ea10", "is_reserved": 0}, {"is_disabled": 0, "fusion_lon": 0.0, "fusion_lat": 0.0, "lat": 38.90134833333333, "type": "electric_scooter", "lon": -77.01197333333333, "bike_id": "d6444543d7419400ff0572957626eac8", "rental_uris": {"android": "https://dc.lft.to/lastmile_qr_scan", "ios": "https://dc.lft.to/lastmile_qr_scan"}, "name": "d6444543d7419400ff0572957626eac8", "is_reserved": 0}, {"is_disabled": 0, "fusion_lon": 0.0, "fusion_lat": 0.0, "lat": 38.92335383333333, "type": "electric_scooter", "lon": -77.03584383333333, "bike_id": "5ab2b4bed22c5a244adfd13dfde5668c", "rental_uris": {"android": "https://dc.lft.to/lastmile_qr_scan", "ios": "https://dc.lft.to/lastmile_qr_scan"}, "name": "5ab2b4bed22c5a244adfd13dfde5668c", "is_reserved": 0}, {"is_disabled": 0, "fusion_lon": 0.0, "fusion_lat": 0.0, "lat": 38.91269883333333, "type": "electric_scooter", "lon": -77.016929, "bike_id": "ae79bf3503334d1faf54117020a78af6", "rental_uris": {"android": "https://dc.lft.to/lastmile_qr_scan", "ios": "https://dc.lft.to/lastmile_qr_scan"}, "name": "ae79bf3503334d1faf54117020a78af6", "is_reserved": 0}, {"is_disabled": 0, "fusion_lon": 0.0, "fusion_lat": 0.0, "lat": 38.89545483333333, "type": "electric_scooter", "lon": -77.02951933333334, "bike_id": "4d74c5943ebde698d3abaae145b37ef1", "rental_uris": {"android": "https://dc.lft.to/lastmile_qr_scan", "ios": "https://dc.lft.to/lastmile_qr_scan"}, "name": "4d74c5943ebde698d3abaae145b37ef1", "is_reserved": 0}, {"is_disabled": 0, "fusion_lon": 0.0, "fusion_lat": 0.0, "lat": 38.89219466666667, "type": "electric_scooter", "lon": -77.02644, "bike_id": "2eba908b1ada97eae2cc065e2325d382", "rental_uris": {"android": "https://dc.lft.to/lastmile_qr_scan", "ios": "https://dc.lft.to/lastmile_qr_scan"}, "name": "2eba908b1ada97eae2cc065e2325d382", "is_reserved": 0}, {"is_disabled": 0, "fusion_lon": 0.0, "fusion_lat": 0.0, "lat": 38.90631233333333, "type": "electric_scooter", "lon": -77.034392, "bike_id": "d7a4935ab8600a22bb6c14167d78206c", "rental_uris": {"android": "https://dc.lft.to/lastmile_qr_scan", "ios": "https://dc.lft.to/lastmile_qr_scan"}, "name": "d7a4935ab8600a22bb6c14167d78206c", "is_reserved": 0}, {"is_disabled": 0, "fusion_lon": 0.0, "fusion_lat": 0.0, "lat": 38.915163166666666, "type": "electric_scooter", "lon": -77.01977083333334, "bike_id": "69a2535e2750032047c14a6819b8ba11", "rental_uris": {"android": "https://dc.lft.to/lastmile_qr_scan", "ios": "https://dc.lft.to/lastmile_qr_scan"}, "name": "69a2535e2750032047c14a6819b8ba11", "is_reserved": 0}, {"is_disabled": 0, "fusion_lon": 0.0, "fusion_lat": 0.0, "lat": 38.905768, "type": "electric_scooter", "lon": -77.0070635, "bike_id": "e7a84c286f61d47071044e29df7b9b57", "rental_uris": {"android": "https://dc.lft.to/lastmile_qr_scan", "ios": "https://dc.lft.to/lastmile_qr_scan"}, "name": "e7a84c286f61d47071044e29df7b9b57", "is_reserved": 0}, {"is_disabled": 0, "fusion_lon": 0.0, "fusion_lat": 0.0, "lat": 38.88599516666667, "type": "electric_bike", "lon": -77.0007705, "bike_id": "2ffe36484726227329bb1ef20997bd53", "rental_uris": {"android": "https://dc.lft.to/lastmile_qr_scan", "ios": "https://dc.lft.to/lastmile_qr_scan"}, "name": "2ffe36484726227329bb1ef20997bd53", "is_reserved": 0}, {"is_disabled": 0, "fusion_lon": 0.0, "fusion_lat": 0.0, "lat": 38.895091666666666, "type": "electric_scooter", "lon": -77.02194633333333, "bike_id": "dd5c8cd750907ee9751f9660d0ecad02", "rental_uris": {"android": "https://dc.lft.to/lastmile_qr_scan", "ios": "https://dc.lft.to/lastmile_qr_scan"}, "name": "dd5c8cd750907ee9751f9660d0ecad02", "is_reserved": 0}, {"is_disabled": 0, "fusion_lon": 0.0, "fusion_lat": 0.0, "lat": 38.94199033333334, "type": "electric_scooter", "lon": -77.02411833333333, "bike_id": "dd0f0f070767976388299aa926b5a0b6", "rental_uris": {"android": "https://dc.lft.to/lastmile_qr_scan", "ios": "https://dc.lft.to/lastmile_qr_scan"}, "name": "dd0f0f070767976388299aa926b5a0b6", "is_reserved": 0}, {"is_disabled": 0, "fusion_lon": 0.0, "fusion_lat": 0.0, "lat": 38.90971783333333, "type": "electric_scooter", "lon": -77.08074816666667, "bike_id": "6fb5f6c87634ae92babfad3191012dac", "rental_uris": {"android": "https://dc.lft.to/lastmile_qr_scan", "ios": "https://dc.lft.to/lastmile_qr_scan"}, "name": "6fb5f6c87634ae92babfad3191012dac", "is_reserved": 0}, {"is_disabled": 0, "fusion_lon": 0.0, "fusion_lat": 0.0, "lat": 38.90461166666667, "type": "electric_scooter", "lon": -77.0288295, "bike_id": "943ab43e38fb6848e08478a7a85e8c30", "rental_uris": {"android": "https://dc.lft.to/lastmile_qr_scan", "ios": "https://dc.lft.to/lastmile_qr_scan"}, "name": "943ab43e38fb6848e08478a7a85e8c30", "is_reserved": 0}, {"is_disabled": 0, "fusion_lon": 0.0, "fusion_lat": 0.0, "lat": 38.898256333333336, "type": "electric_scooter", "lon": -76.94650466666667, "bike_id": "aec54a2e79e9b6cd0e10f2e3d72bf1a0", "rental_uris": {"android": "https://dc.lft.to/lastmile_qr_scan", "ios": "https://dc.lft.to/lastmile_qr_scan"}, "name": "aec54a2e79e9b6cd0e10f2e3d72bf1a0", "is_reserved": 0}, {"is_disabled": 0, "fusion_lon": 0.0, "fusion_lat": 0.0, "lat": 38.91097166666667, "type": "electric_scooter", "lon": -77.0385865, "bike_id": "955d8a073c66626e772feffbbc14fea4", "rental_uris": {"android": "https://dc.lft.to/lastmile_qr_scan", "ios": "https://dc.lft.to/lastmile_qr_scan"}, "name": "955d8a073c66626e772feffbbc14fea4", "is_reserved": 0}, {"is_disabled": 0, "fusion_lon": 0.0, "fusion_lat": 0.0, "lat": 38.886550166666666, "type": "electric_scooter", "lon": -77.02828283333334, "bike_id": "38578f2cd2895e76150fcb5005ffde9d", "rental_uris": {"android": "https://dc.lft.to/lastmile_qr_scan", "ios": "https://dc.lft.to/lastmile_qr_scan"}, "name": "38578f2cd2895e76150fcb5005ffde9d", "is_reserved": 0}, {"is_disabled": 0, "fusion_lon": 0.0, "fusion_lat": 0.0, "lat": 38.93103416666667, "type": "electric_scooter", "lon": -77.03833566666667, "bike_id": "fdefe787f26a56132bf20a1dd715589c", "rental_uris": {"android": "https://dc.lft.to/lastmile_qr_scan", "ios": "https://dc.lft.to/lastmile_qr_scan"}, "name": "fdefe787f26a56132bf20a1dd715589c", "is_reserved": 0}, {"is_disabled": 0, "fusion_lon": 0.0, "fusion_lat": 0.0, "lat": 38.953131166666665, "type": "electric_scooter", "lon": -77.03598683333334, "bike_id": "88f3ee740ef15dd66be53b0e46aff1aa", "rental_uris": {"android": "https://dc.lft.to/lastmile_qr_scan", "ios": "https://dc.lft.to/lastmile_qr_scan"}, "name": "88f3ee740ef15dd66be53b0e46aff1aa", "is_reserved": 0}, {"is_disabled": 0, "fusion_lon": 0.0, "fusion_lat": 0.0, "lat": 38.90317016666667, "type": "electric_scooter", "lon": -77.01899433333334, "bike_id": "8f8c0681d7f1c35de9ac1bc2006cb517", "rental_uris": {"android": "https://dc.lft.to/lastmile_qr_scan", "ios": "https://dc.lft.to/lastmile_qr_scan"}, "name": "8f8c0681d7f1c35de9ac1bc2006cb517", "is_reserved": 0}, {"is_disabled": 0, "fusion_lon": 0.0, "fusion_lat": 0.0, "lat": 38.9005125, "type": "electric_scooter", "lon": -77.00071816666667, "bike_id": "68b8a8ab6419ecf7611415f2bc653129", "rental_uris": {"android": "https://dc.lft.to/lastmile_qr_scan", "ios": "https://dc.lft.to/lastmile_qr_scan"}, "name": "68b8a8ab6419ecf7611415f2bc653129", "is_reserved": 0}, {"is_disabled": 0, "fusion_lon": 0.0, "fusion_lat": 0.0, "lat": 38.908291166666665, "type": "electric_scooter", "lon": -77.0417705, "bike_id": "f47551f0ff71b100765f0d58f01f2c4c", "rental_uris": {"android": "https://dc.lft.to/lastmile_qr_scan", "ios": "https://dc.lft.to/lastmile_qr_scan"}, "name": "f47551f0ff71b100765f0d58f01f2c4c", "is_reserved": 0}, {"is_disabled": 0, "fusion_lon": 0.0, "fusion_lat": 0.0, "lat": 38.92110183333333, "type": "electric_scooter", "lon": -77.03049166666666, "bike_id": "ea1e9a3501f1145909c427aeafaa1a7e", "rental_uris": {"android": "https://dc.lft.to/lastmile_qr_scan", "ios": "https://dc.lft.to/lastmile_qr_scan"}, "name": "ea1e9a3501f1145909c427aeafaa1a7e", "is_reserved": 0}, {"is_disabled": 0, "fusion_lon": 0.0, "fusion_lat": 0.0, "lat": 38.87659933333333, "type": "electric_scooter", "lon": -77.0156495, "bike_id": "bebad3d2b1ac8ab8f22557d18f05017e", "rental_uris": {"android": "https://dc.lft.to/lastmile_qr_scan", "ios": "https://dc.lft.to/lastmile_qr_scan"}, "name": "bebad3d2b1ac8ab8f22557d18f05017e", "is_reserved": 0}, {"is_disabled": 0, "fusion_lon": 0.0, "fusion_lat": 0.0, "lat": 38.93161583333333, "type": "electric_scooter", "lon": -77.034475, "bike_id": "7d6b7d6f7150d96b8af3afbf93561d5c", "rental_uris": {"android": "https://dc.lft.to/lastmile_qr_scan", "ios": "https://dc.lft.to/lastmile_qr_scan"}, "name": "7d6b7d6f7150d96b8af3afbf93561d5c", "is_reserved": 0}, {"is_disabled": 0, "fusion_lon": 0.0, "fusion_lat": 0.0, "lat": 38.88225383333333, "type": "electric_bike", "lon": -77.11281416666667, "bike_id": "a905a663defdb8e1e709a00769fc5a2d", "rental_uris": {"android": "https://dc.lft.to/lastmile_qr_scan", "ios": "https://dc.lft.to/lastmile_qr_scan"}, "name": "a905a663defdb8e1e709a00769fc5a2d", "is_reserved": 0}, {"is_disabled": 0, "fusion_lon": 0.0, "fusion_lat": 0.0, "lat": 38.970630666666665, "type": "electric_bike", "lon": -76.960507, "bike_id": "4455dd8dc4fcae5d9fcfa23689ffffbe", "rental_uris": {"android": "https://dc.lft.to/lastmile_qr_scan", "ios": "https://dc.lft.to/lastmile_qr_scan"}, "name": "4455dd8dc4fcae5d9fcfa23689ffffbe", "is_reserved": 0}, {"is_disabled": 0, "fusion_lon": 0.0, "fusion_lat": 0.0, "lat": 38.88039533333333, "type": "electric_scooter", "lon": -77.0058935, "bike_id": "2b426b7f72603fbf7bb000b928cfbb37", "rental_uris": {"android": "https://dc.lft.to/lastmile_qr_scan", "ios": "https://dc.lft.to/lastmile_qr_scan"}, "name": "2b426b7f72603fbf7bb000b928cfbb37", "is_reserved": 0}, {"is_disabled": 0, "fusion_lon": 0.0, "fusion_lat": 0.0, "lat": 38.885721, "type": "electric_scooter", "lon": -77.00069783333333, "bike_id": "a382033f2f4d45f6bec2e63a7370db4c", "rental_uris": {"android": "https://dc.lft.to/lastmile_qr_scan", "ios": "https://dc.lft.to/lastmile_qr_scan"}, "name": "a382033f2f4d45f6bec2e63a7370db4c", "is_reserved": 0}, {"is_disabled": 0, "fusion_lon": 0.0, "fusion_lat": 0.0, "lat": 38.948057666666664, "type": "electric_bike", "lon": -76.97214316666667, "bike_id": "ec5d80d9b456bc97873e749c4563b044", "rental_uris": {"android": "https://dc.lft.to/lastmile_qr_scan", "ios": "https://dc.lft.to/lastmile_qr_scan"}, "name": "ec5d80d9b456bc97873e749c4563b044", "is_reserved": 0}, {"is_disabled": 0, "fusion_lon": 0.0, "fusion_lat": 0.0, "lat": 38.901709333333336, "type": "electric_scooter", "lon": -76.9937775, "bike_id": "115120014fb822debbddfe18635d05fc", "rental_uris": {"android": "https://dc.lft.to/lastmile_qr_scan", "ios": "https://dc.lft.to/lastmile_qr_scan"}, "name": "115120014fb822debbddfe18635d05fc", "is_reserved": 0}, {"is_disabled": 0, "fusion_lon": 0.0, "fusion_lat": 0.0, "lat": 38.91732983333333, "type": "electric_scooter", "lon": -76.9917775, "bike_id": "29f183090b5f9398479fed976df6ad69", "rental_uris": {"android": "https://dc.lft.to/lastmile_qr_scan", "ios": "https://dc.lft.to/lastmile_qr_scan"}, "name": "29f183090b5f9398479fed976df6ad69", "is_reserved": 0}, {"is_disabled": 0, "fusion_lon": 0.0, "fusion_lat": 0.0, "lat": 38.90198866666667, "type": "electric_scooter", "lon": -77.03952133333334, "bike_id": "a1bc34766731128e1f9cb9123a2f1541", "rental_uris": {"android": "https://dc.lft.to/lastmile_qr_scan", "ios": "https://dc.lft.to/lastmile_qr_scan"}, "name": "a1bc34766731128e1f9cb9123a2f1541", "is_reserved": 0}, {"is_disabled": 0, "fusion_lon": 0.0, "fusion_lat": 0.0, "lat": 38.9120305, "type": "electric_scooter", "lon": -76.98479516666667, "bike_id": "097c559ffa94d3d3b132810c549e9546", "rental_uris": {"android": "https://dc.lft.to/lastmile_qr_scan", "ios": "https://dc.lft.to/lastmile_qr_scan"}, "name": "097c559ffa94d3d3b132810c549e9546", "is_reserved": 0}, {"is_disabled": 0, "fusion_lon": 0.0, "fusion_lat": 0.0, "lat": 38.88757916666667, "type": "electric_scooter", "lon": -77.00223183333334, "bike_id": "f22368fc63c52caaeee39291f3a8921e", "rental_uris": {"android": "https://dc.lft.to/lastmile_qr_scan", "ios": "https://dc.lft.to/lastmile_qr_scan"}, "name": "f22368fc63c52caaeee39291f3a8921e", "is_reserved": 0}, {"is_disabled": 0, "fusion_lon": 0.0, "fusion_lat": 0.0, "lat": 38.93714116666666, "type": "electric_scooter", "lon": -77.02468416666666, "bike_id": "a4a0b3764f3ef5e979737bad479e9960", "rental_uris": {"android": "https://dc.lft.to/lastmile_qr_scan", "ios": "https://dc.lft.to/lastmile_qr_scan"}, "name": "a4a0b3764f3ef5e979737bad479e9960", "is_reserved": 0}, {"is_disabled": 0, "fusion_lon": 0.0, "fusion_lat": 0.0, "lat": 38.929296, "type": "electric_scooter", "lon": -77.03287216666666, "bike_id": "7ccd4f682a290a5f2bfd8643ad0521b9", "rental_uris": {"android": "https://dc.lft.to/lastmile_qr_scan", "ios": "https://dc.lft.to/lastmile_qr_scan"}, "name": "7ccd4f682a290a5f2bfd8643ad0521b9", "is_reserved": 0}, {"is_disabled": 0, "fusion_lon": 0.0, "fusion_lat": 0.0, "lat": 38.90015416666667, "type": "electric_scooter", "lon": -77.03346216666667, "bike_id": "fd986691fd5a60f88c4b232993683c07", "rental_uris": {"android": "https://dc.lft.to/lastmile_qr_scan", "ios": "https://dc.lft.to/lastmile_qr_scan"}, "name": "fd986691fd5a60f88c4b232993683c07", "is_reserved": 0}, {"is_disabled": 0, "fusion_lon": 0.0, "fusion_lat": 0.0, "lat": 38.90502383333333, "type": "electric_scooter", "lon": -77.05144566666667, "bike_id": "4e4f15c1bbc75c560630624fc1a2b5f3", "rental_uris": {"android": "https://dc.lft.to/lastmile_qr_scan", "ios": "https://dc.lft.to/lastmile_qr_scan"}, "name": "4e4f15c1bbc75c560630624fc1a2b5f3", "is_reserved": 0}, {"is_disabled": 0, "fusion_lon": 0.0, "fusion_lat": 0.0, "lat": 38.92333033333333, "type": "electric_scooter", "lon": -77.041875, "bike_id": "9570a68cf15482ba78dac7d40e71f988", "rental_uris": {"android": "https://dc.lft.to/lastmile_qr_scan", "ios": "https://dc.lft.to/lastmile_qr_scan"}, "name": "9570a68cf15482ba78dac7d40e71f988", "is_reserved": 0}, {"is_disabled": 0, "fusion_lon": 0.0, "fusion_lat": 0.0, "lat": 38.919337, "type": "electric_bike", "lon": -76.97504216666667, "bike_id": "a93532bb5a364a2baf434b251e8104d4", "rental_uris": {"android": "https://dc.lft.to/lastmile_qr_scan", "ios": "https://dc.lft.to/lastmile_qr_scan"}, "name": "a93532bb5a364a2baf434b251e8104d4", "is_reserved": 0}, {"is_disabled": 0, "fusion_lon": 0.0, "fusion_lat": 0.0, "lat": 38.90243616666667, "type": "electric_scooter", "lon": -77.05996033333334, "bike_id": "4b351f3df117eadc13acd36cfa1c8464", "rental_uris": {"android": "https://dc.lft.to/lastmile_qr_scan", "ios": "https://dc.lft.to/lastmile_qr_scan"}, "name": "4b351f3df117eadc13acd36cfa1c8464", "is_reserved": 0}, {"is_disabled": 0, "fusion_lon": 0.0, "fusion_lat": 0.0, "lat": 38.810249166666665, "type": "electric_bike", "lon": -77.0843515, "bike_id": "c3f47ecb532cb27ec5cb147249db861a", "rental_uris": {"android": "https://dc.lft.to/lastmile_qr_scan", "ios": "https://dc.lft.to/lastmile_qr_scan"}, "name": "c3f47ecb532cb27ec5cb147249db861a", "is_reserved": 0}, {"is_disabled": 0, "fusion_lon": 0.0, "fusion_lat": 0.0, "lat": 38.90485566666667, "type": "electric_scooter", "lon": -77.0321705, "bike_id": "3726e47c5c1972c640605e177fa01af6", "rental_uris": {"android": "https://dc.lft.to/lastmile_qr_scan", "ios": "https://dc.lft.to/lastmile_qr_scan"}, "name": "3726e47c5c1972c640605e177fa01af6", "is_reserved": 0}, {"is_disabled": 0, "fusion_lon": 0.0, "fusion_lat": 0.0, "lat": 38.94303133333333, "type": "electric_scooter", "lon": -77.0276345, "bike_id": "a535d2439e8d103861218da07d4b5b08", "rental_uris": {"android": "https://dc.lft.to/lastmile_qr_scan", "ios": "https://dc.lft.to/lastmile_qr_scan"}, "name": "a535d2439e8d103861218da07d4b5b08", "is_reserved": 0}, {"is_disabled": 0, "fusion_lon": 0.0, "fusion_lat": 0.0, "lat": 38.908921166666666, "type": "electric_scooter", "lon": -77.04581366666666, "bike_id": "6d51224aedce1d009755c83d15f2c754", "rental_uris": {"android": "https://dc.lft.to/lastmile_qr_scan", "ios": "https://dc.lft.to/lastmile_qr_scan"}, "name": "6d51224aedce1d009755c83d15f2c754", "is_reserved": 0}, {"is_disabled": 0, "fusion_lon": 0.0, "fusion_lat": 0.0, "lat": 38.9883125, "type": "electric_bike", "lon": -76.98760133333333, "bike_id": "0c9ddc50765182f037deeeacd92d1603", "rental_uris": {"android": "https://dc.lft.to/lastmile_qr_scan", "ios": "https://dc.lft.to/lastmile_qr_scan"}, "name": "0c9ddc50765182f037deeeacd92d1603", "is_reserved": 0}, {"is_disabled": 0, "fusion_lon": 0.0, "fusion_lat": 0.0, "lat": 38.915409833333335, "type": "electric_scooter", "lon": -77.03208683333334, "bike_id": "0ee768fa3f09cc2fdab2fd255bee9e67", "rental_uris": {"android": "https://dc.lft.to/lastmile_qr_scan", "ios": "https://dc.lft.to/lastmile_qr_scan"}, "name": "0ee768fa3f09cc2fdab2fd255bee9e67", "is_reserved": 0}, {"is_disabled": 0, "fusion_lon": 0.0, "fusion_lat": 0.0, "lat": 38.920349333333334, "type": "electric_scooter", "lon": -77.02581316666667, "bike_id": "9fca97c5c1799f6abf67837b1df8b3ad", "rental_uris": {"android": "https://dc.lft.to/lastmile_qr_scan", "ios": "https://dc.lft.to/lastmile_qr_scan"}, "name": "9fca97c5c1799f6abf67837b1df8b3ad", "is_reserved": 0}, {"is_disabled": 0, "fusion_lon": 0.0, "fusion_lat": 0.0, "lat": 38.952174166666666, "type": "electric_scooter", "lon": -77.03630083333333, "bike_id": "84294a78b1b435ca3aebc28a589d3164", "rental_uris": {"android": "https://dc.lft.to/lastmile_qr_scan", "ios": "https://dc.lft.to/lastmile_qr_scan"}, "name": "84294a78b1b435ca3aebc28a589d3164", "is_reserved": 0}, {"is_disabled": 0, "fusion_lon": 0.0, "fusion_lat": 0.0, "lat": 38.89620433333333, "type": "electric_scooter", "lon": -77.02162833333334, "bike_id": "11a245fa36fe8700ca634892664c969e", "rental_uris": {"android": "https://dc.lft.to/lastmile_qr_scan", "ios": "https://dc.lft.to/lastmile_qr_scan"}, "name": "11a245fa36fe8700ca634892664c969e", "is_reserved": 0}, {"is_disabled": 0, "fusion_lon": 0.0, "fusion_lat": 0.0, "lat": 38.89525666666667, "type": "electric_scooter", "lon": -77.02837983333333, "bike_id": "ab93ae4824330365292728a07c63f2fe", "rental_uris": {"android": "https://dc.lft.to/lastmile_qr_scan", "ios": "https://dc.lft.to/lastmile_qr_scan"}, "name": "ab93ae4824330365292728a07c63f2fe", "is_reserved": 0}, {"is_disabled": 0, "fusion_lon": 0.0, "fusion_lat": 0.0, "lat": 38.8872415, "type": "electric_scooter", "lon": -76.99632666666666, "bike_id": "9caff053371e9f84e234718799229260", "rental_uris": {"android": "https://dc.lft.to/lastmile_qr_scan", "ios": "https://dc.lft.to/lastmile_qr_scan"}, "name": "9caff053371e9f84e234718799229260", "is_reserved": 0}, {"is_disabled": 0, "fusion_lon": 0.0, "fusion_lat": 0.0, "lat": 38.88515533333333, "type": "electric_scooter", "lon": -76.99850016666667, "bike_id": "5eb7078176282e8501d62043b3ad5f6b", "rental_uris": {"android": "https://dc.lft.to/lastmile_qr_scan", "ios": "https://dc.lft.to/lastmile_qr_scan"}, "name": "5eb7078176282e8501d62043b3ad5f6b", "is_reserved": 0}, {"is_disabled": 0, "fusion_lon": 0.0, "fusion_lat": 0.0, "lat": 38.9025565, "type": "electric_scooter", "lon": -77.06114416666667, "bike_id": "961e3251cb87fac3a2819c67f032731e", "rental_uris": {"android": "https://dc.lft.to/lastmile_qr_scan", "ios": "https://dc.lft.to/lastmile_qr_scan"}, "name": "961e3251cb87fac3a2819c67f032731e", "is_reserved": 0}, {"is_disabled": 0, "fusion_lon": 0.0, "fusion_lat": 0.0, "lat": 38.932077, "type": "electric_scooter", "lon": -77.0238415, "bike_id": "c0a6cef46922807a61f0357e592e2a09", "rental_uris": {"android": "https://dc.lft.to/lastmile_qr_scan", "ios": "https://dc.lft.to/lastmile_qr_scan"}, "name": "c0a6cef46922807a61f0357e592e2a09", "is_reserved": 0}, {"is_disabled": 0, "fusion_lon": 0.0, "fusion_lat": 0.0, "lat": 38.91562583333334, "type": "electric_scooter", "lon": -77.0323685, "bike_id": "1f082752aac24660bd4fa34762348b24", "rental_uris": {"android": "https://dc.lft.to/lastmile_qr_scan", "ios": "https://dc.lft.to/lastmile_qr_scan"}, "name": "1f082752aac24660bd4fa34762348b24", "is_reserved": 0}, {"is_disabled": 0, "fusion_lon": 0.0, "fusion_lat": 0.0, "lat": 39.000204833333335, "type": "electric_bike", "lon": -76.87282683333333, "bike_id": "e5d970fe91c3feed0c396712428a30ea", "rental_uris": {"android": "https://dc.lft.to/lastmile_qr_scan", "ios": "https://dc.lft.to/lastmile_qr_scan"}, "name": "e5d970fe91c3feed0c396712428a30ea", "is_reserved": 0}, {"is_disabled": 0, "fusion_lon": 0.0, "fusion_lat": 0.0, "lat": 38.828737, "type": "electric_bike", "lon": -77.11222683333334, "bike_id": "b645379ddea08df1bb75f044d16c4dde", "rental_uris": {"android": "https://dc.lft.to/lastmile_qr_scan", "ios": "https://dc.lft.to/lastmile_qr_scan"}, "name": "b645379ddea08df1bb75f044d16c4dde", "is_reserved": 0}, {"is_disabled": 0, "fusion_lon": 0.0, "fusion_lat": 0.0, "lat": 38.918208, "type": "electric_scooter", "lon": -77.0416975, "bike_id": "e421b1507bb60056a2efc38653743d02", "rental_uris": {"android": "https://dc.lft.to/lastmile_qr_scan", "ios": "https://dc.lft.to/lastmile_qr_scan"}, "name": "e421b1507bb60056a2efc38653743d02", "is_reserved": 0}, {"is_disabled": 0, "fusion_lon": 0.0, "fusion_lat": 0.0, "lat": 38.917089, "type": "electric_scooter", "lon": -77.028428, "bike_id": "79160d8d58cdf8ca4333c5bccd8934e9", "rental_uris": {"android": "https://dc.lft.to/lastmile_qr_scan", "ios": "https://dc.lft.to/lastmile_qr_scan"}, "name": "79160d8d58cdf8ca4333c5bccd8934e9", "is_reserved": 0}, {"is_disabled": 0, "fusion_lon": 0.0, "fusion_lat": 0.0, "lat": 38.916236, "type": "electric_scooter", "lon": -77.04351166666666, "bike_id": "16ae0a3e74b3d557408e7233bce5cc49", "rental_uris": {"android": "https://dc.lft.to/lastmile_qr_scan", "ios": "https://dc.lft.to/lastmile_qr_scan"}, "name": "16ae0a3e74b3d557408e7233bce5cc49", "is_reserved": 0}, {"is_disabled": 0, "fusion_lon": 0.0, "fusion_lat": 0.0, "lat": 38.942860833333334, "type": "electric_bike", "lon": -77.06919466666666, "bike_id": "ef86321d56b01dbc8e6de712054ecc0b", "rental_uris": {"android": "https://dc.lft.to/lastmile_qr_scan", "ios": "https://dc.lft.to/lastmile_qr_scan"}, "name": "ef86321d56b01dbc8e6de712054ecc0b", "is_reserved": 0}, {"is_disabled": 0, "fusion_lon": 0.0, "fusion_lat": 0.0, "lat": 38.89527833333333, "type": "electric_scooter", "lon": -76.9772645, "bike_id": "e68bf8333db0d3ebf7073ff803a5248f", "rental_uris": {"android": "https://dc.lft.to/lastmile_qr_scan", "ios": "https://dc.lft.to/lastmile_qr_scan"}, "name": "e68bf8333db0d3ebf7073ff803a5248f", "is_reserved": 0}, {"is_disabled": 0, "fusion_lon": 0.0, "fusion_lat": 0.0, "lat": 38.9158995, "type": "electric_scooter", "lon": -77.06726266666666, "bike_id": "ca0ab323241ea2070b858c2172b1c90d", "rental_uris": {"android": "https://dc.lft.to/lastmile_qr_scan", "ios": "https://dc.lft.to/lastmile_qr_scan"}, "name": "ca0ab323241ea2070b858c2172b1c90d", "is_reserved": 0}, {"is_disabled": 0, "fusion_lon": 0.0, "fusion_lat": 0.0, "lat": 38.93378466666667, "type": "electric_scooter", "lon": -77.02397033333334, "bike_id": "5499237e3b72fabd04b7596fe5252c2d", "rental_uris": {"android": "https://dc.lft.to/lastmile_qr_scan", "ios": "https://dc.lft.to/lastmile_qr_scan"}, "name": "5499237e3b72fabd04b7596fe5252c2d", "is_reserved": 0}, {"is_disabled": 0, "fusion_lon": 0.0, "fusion_lat": 0.0, "lat": 38.9042645, "type": "electric_scooter", "lon": -77.02239716666666, "bike_id": "37926cab845c636c2b2896080ced543b", "rental_uris": {"android": "https://dc.lft.to/lastmile_qr_scan", "ios": "https://dc.lft.to/lastmile_qr_scan"}, "name": "37926cab845c636c2b2896080ced543b", "is_reserved": 0}, {"is_disabled": 0, "fusion_lon": 0.0, "fusion_lat": 0.0, "lat": 38.939613, "type": "electric_scooter", "lon": -77.03261383333333, "bike_id": "91c128378753dbae63608ffcc151e2af", "rental_uris": {"android": "https://dc.lft.to/lastmile_qr_scan", "ios": "https://dc.lft.to/lastmile_qr_scan"}, "name": "91c128378753dbae63608ffcc151e2af", "is_reserved": 0}, {"is_disabled": 0, "fusion_lon": 0.0, "fusion_lat": 0.0, "lat": 39.00784566666667, "type": "electric_bike", "lon": -76.99569383333333, "bike_id": "aea51b6b47432955be8553666de7e148", "rental_uris": {"android": "https://dc.lft.to/lastmile_qr_scan", "ios": "https://dc.lft.to/lastmile_qr_scan"}, "name": "aea51b6b47432955be8553666de7e148", "is_reserved": 0}, {"is_disabled": 0, "fusion_lon": 0.0, "fusion_lat": 0.0, "lat": 38.906492, "type": "electric_scooter", "lon": -77.04529783333334, "bike_id": "a11e62f0cda76b6d958a79e449a1ad23", "rental_uris": {"android": "https://dc.lft.to/lastmile_qr_scan", "ios": "https://dc.lft.to/lastmile_qr_scan"}, "name": "a11e62f0cda76b6d958a79e449a1ad23", "is_reserved": 0}, {"is_disabled": 0, "fusion_lon": 0.0, "fusion_lat": 0.0, "lat": 38.914574, "type": "electric_scooter", "lon": -77.0228175, "bike_id": "df5d29355ec0da6856dc0600c68b78ad", "rental_uris": {"android": "https://dc.lft.to/lastmile_qr_scan", "ios": "https://dc.lft.to/lastmile_qr_scan"}, "name": "df5d29355ec0da6856dc0600c68b78ad", "is_reserved": 0}, {"is_disabled": 0, "fusion_lon": 0.0, "fusion_lat": 0.0, "lat": 38.905871166666664, "type": "electric_scooter", "lon": -77.05124533333333, "bike_id": "c1c9484af93cb24feb3d09241f483d6c", "rental_uris": {"android": "https://dc.lft.to/lastmile_qr_scan", "ios": "https://dc.lft.to/lastmile_qr_scan"}, "name": "c1c9484af93cb24feb3d09241f483d6c", "is_reserved": 0}, {"is_disabled": 0, "fusion_lon": 0.0, "fusion_lat": 0.0, "lat": 38.90060416666667, "type": "electric_scooter", "lon": -77.00745683333334, "bike_id": "71fb7f4795d5eedf0c13181981a9b73c", "rental_uris": {"android": "https://dc.lft.to/lastmile_qr_scan", "ios": "https://dc.lft.to/lastmile_qr_scan"}, "name": "71fb7f4795d5eedf0c13181981a9b73c", "is_reserved": 0}, {"is_disabled": 0, "fusion_lon": 0.0, "fusion_lat": 0.0, "lat": 38.87778016666667, "type": "electric_scooter", "lon": -77.0143585, "bike_id": "4cee6997789fb11062527f21a7600372", "rental_uris": {"android": "https://dc.lft.to/lastmile_qr_scan", "ios": "https://dc.lft.to/lastmile_qr_scan"}, "name": "4cee6997789fb11062527f21a7600372", "is_reserved": 0}, {"is_disabled": 0, "fusion_lon": 0.0, "fusion_lat": 0.0, "lat": 38.9118615, "type": "electric_scooter", "lon": -77.0417925, "bike_id": "0735892faca9e0efb6260c2c8049dd66", "rental_uris": {"android": "https://dc.lft.to/lastmile_qr_scan", "ios": "https://dc.lft.to/lastmile_qr_scan"}, "name": "0735892faca9e0efb6260c2c8049dd66", "is_reserved": 0}, {"is_disabled": 0, "fusion_lon": 0.0, "fusion_lat": 0.0, "lat": 38.937054, "type": "electric_scooter", "lon": -77.0609595, "bike_id": "a612f0d67d8a50002721356148367e4f", "rental_uris": {"android": "https://dc.lft.to/lastmile_qr_scan", "ios": "https://dc.lft.to/lastmile_qr_scan"}, "name": "a612f0d67d8a50002721356148367e4f", "is_reserved": 0}, {"is_disabled": 0, "fusion_lon": 0.0, "fusion_lat": 0.0, "lat": 38.863531333333334, "type": "electric_scooter", "lon": -76.9906075, "bike_id": "6d58aace477185a8aab61c1c101be03b", "rental_uris": {"android": "https://dc.lft.to/lastmile_qr_scan", "ios": "https://dc.lft.to/lastmile_qr_scan"}, "name": "6d58aace477185a8aab61c1c101be03b", "is_reserved": 0}, {"is_disabled": 0, "fusion_lon": 0.0, "fusion_lat": 0.0, "lat": 38.981405333333335, "type": "electric_bike", "lon": -77.007662, "bike_id": "97308ddc14eadfd59607ee740f39ba6e", "rental_uris": {"android": "https://dc.lft.to/lastmile_qr_scan", "ios": "https://dc.lft.to/lastmile_qr_scan"}, "name": "97308ddc14eadfd59607ee740f39ba6e", "is_reserved": 0}, {"is_disabled": 0, "fusion_lon": 0.0, "fusion_lat": 0.0, "lat": 38.84894716666667, "type": "electric_scooter", "lon": -77.005226, "bike_id": "08cd04ff079d0bf270946c47acc4a988", "rental_uris": {"android": "https://dc.lft.to/lastmile_qr_scan", "ios": "https://dc.lft.to/lastmile_qr_scan"}, "name": "08cd04ff079d0bf270946c47acc4a988", "is_reserved": 0}, {"is_disabled": 0, "fusion_lon": 0.0, "fusion_lat": 0.0, "lat": 38.906279, "type": "electric_scooter", "lon": -77.02411766666667, "bike_id": "a9be5103289092e7cdf8c84c70a428cd", "rental_uris": {"android": "https://dc.lft.to/lastmile_qr_scan", "ios": "https://dc.lft.to/lastmile_qr_scan"}, "name": "a9be5103289092e7cdf8c84c70a428cd", "is_reserved": 0}, {"is_disabled": 0, "fusion_lon": 0.0, "fusion_lat": 0.0, "lat": 38.913589333333334, "type": "electric_scooter", "lon": -77.041639, "bike_id": "c89e7b9279dc0af717b46efc44db5140", "rental_uris": {"android": "https://dc.lft.to/lastmile_qr_scan", "ios": "https://dc.lft.to/lastmile_qr_scan"}, "name": "c89e7b9279dc0af717b46efc44db5140", "is_reserved": 0}, {"is_disabled": 0, "fusion_lon": 0.0, "fusion_lat": 0.0, "lat": 39.052118166666666, "type": "electric_bike", "lon": -77.04407883333333, "bike_id": "c5d55a298fe1af1f10d70f659ad5b848", "rental_uris": {"android": "https://dc.lft.to/lastmile_qr_scan", "ios": "https://dc.lft.to/lastmile_qr_scan"}, "name": "c5d55a298fe1af1f10d70f659ad5b848", "is_reserved": 0}, {"is_disabled": 0, "fusion_lon": 0.0, "fusion_lat": 0.0, "lat": 38.913219, "type": "electric_scooter", "lon": -77.021688, "bike_id": "8fccb3604c4bd9515e8a20f6a8b5f577", "rental_uris": {"android": "https://dc.lft.to/lastmile_qr_scan", "ios": "https://dc.lft.to/lastmile_qr_scan"}, "name": "8fccb3604c4bd9515e8a20f6a8b5f577", "is_reserved": 0}, {"is_disabled": 0, "fusion_lon": 0.0, "fusion_lat": 0.0, "lat": 38.88676816666667, "type": "electric_scooter", "lon": -77.0035435, "bike_id": "b76e1e8426193087e536c099179b9c9e", "rental_uris": {"android": "https://dc.lft.to/lastmile_qr_scan", "ios": "https://dc.lft.to/lastmile_qr_scan"}, "name": "b76e1e8426193087e536c099179b9c9e", "is_reserved": 0}, {"is_disabled": 0, "fusion_lon": 0.0, "fusion_lat": 0.0, "lat": 38.96815983333333, "type": "electric_scooter", "lon": -77.0089005, "bike_id": "193357c3257995ce0d7a34318a6d6513", "rental_uris": {"android": "https://dc.lft.to/lastmile_qr_scan", "ios": "https://dc.lft.to/lastmile_qr_scan"}, "name": "193357c3257995ce0d7a34318a6d6513", "is_reserved": 0}, {"is_disabled": 0, "fusion_lon": 0.0, "fusion_lat": 0.0, "lat": 38.903412833333334, "type": "electric_scooter", "lon": -77.03437383333333, "bike_id": "fbe4531c3aaf8b70da95cba6ed51a2dd", "rental_uris": {"android": "https://dc.lft.to/lastmile_qr_scan", "ios": "https://dc.lft.to/lastmile_qr_scan"}, "name": "fbe4531c3aaf8b70da95cba6ed51a2dd", "is_reserved": 0}, {"is_disabled": 0, "fusion_lon": 0.0, "fusion_lat": 0.0, "lat": 38.9169825, "type": "electric_scooter", "lon": -77.04272783333333, "bike_id": "16a6ce23982b022d2d38d62ef9911108", "rental_uris": {"android": "https://dc.lft.to/lastmile_qr_scan", "ios": "https://dc.lft.to/lastmile_qr_scan"}, "name": "16a6ce23982b022d2d38d62ef9911108", "is_reserved": 0}, {"is_disabled": 0, "fusion_lon": 0.0, "fusion_lat": 0.0, "lat": 38.91762283333333, "type": "electric_scooter", "lon": -77.01595916666666, "bike_id": "760f96d1e0d6eec1c12c84ea93db1ba6", "rental_uris": {"android": "https://dc.lft.to/lastmile_qr_scan", "ios": "https://dc.lft.to/lastmile_qr_scan"}, "name": "760f96d1e0d6eec1c12c84ea93db1ba6", "is_reserved": 0}, {"is_disabled": 0, "fusion_lon": 0.0, "fusion_lat": 0.0, "lat": 38.897321166666664, "type": "electric_bike", "lon": -76.90537533333334, "bike_id": "98fa24464862250e9f17c4de5c5551cb", "rental_uris": {"android": "https://dc.lft.to/lastmile_qr_scan", "ios": "https://dc.lft.to/lastmile_qr_scan"}, "name": "98fa24464862250e9f17c4de5c5551cb", "is_reserved": 0}, {"is_disabled": 0, "fusion_lon": 0.0, "fusion_lat": 0.0, "lat": 38.91131766666667, "type": "electric_scooter", "lon": -77.04091466666667, "bike_id": "0e6fbeeaa15caeb9afaa1c9c6a9b9042", "rental_uris": {"android": "https://dc.lft.to/lastmile_qr_scan", "ios": "https://dc.lft.to/lastmile_qr_scan"}, "name": "0e6fbeeaa15caeb9afaa1c9c6a9b9042", "is_reserved": 0}, {"is_disabled": 0, "fusion_lon": 0.0, "fusion_lat": 0.0, "lat": 38.916599, "type": "electric_scooter", "lon": -77.04651816666667, "bike_id": "f4065870552fb5e31033cd53997882f2", "rental_uris": {"android": "https://dc.lft.to/lastmile_qr_scan", "ios": "https://dc.lft.to/lastmile_qr_scan"}, "name": "f4065870552fb5e31033cd53997882f2", "is_reserved": 0}, {"is_disabled": 0, "fusion_lon": 0.0, "fusion_lat": 0.0, "lat": 38.93567083333333, "type": "electric_scooter", "lon": -77.0820465, "bike_id": "3da7f637b13ebdbc9b0ae323b0b199bc", "rental_uris": {"android": "https://dc.lft.to/lastmile_qr_scan", "ios": "https://dc.lft.to/lastmile_qr_scan"}, "name": "3da7f637b13ebdbc9b0ae323b0b199bc", "is_reserved": 0}, {"is_disabled": 0, "fusion_lon": 0.0, "fusion_lat": 0.0, "lat": 38.956378, "type": "electric_scooter", "lon": -77.02980016666666, "bike_id": "e88c7901dae26d7ce6c4a26a6730fe3a", "rental_uris": {"android": "https://dc.lft.to/lastmile_qr_scan", "ios": "https://dc.lft.to/lastmile_qr_scan"}, "name": "e88c7901dae26d7ce6c4a26a6730fe3a", "is_reserved": 0}, {"is_disabled": 0, "fusion_lon": 0.0, "fusion_lat": 0.0, "lat": 38.9275535, "type": "electric_scooter", "lon": -77.075934, "bike_id": "06058fd5f328f94005ecc16543151363", "rental_uris": {"android": "https://dc.lft.to/lastmile_qr_scan", "ios": "https://dc.lft.to/lastmile_qr_scan"}, "name": "06058fd5f328f94005ecc16543151363", "is_reserved": 0}, {"is_disabled": 0, "fusion_lon": 0.0, "fusion_lat": 0.0, "lat": 38.932566333333334, "type": "electric_scooter", "lon": -77.03281766666667, "bike_id": "27b4eef41e7e33feba41d84c020c9760", "rental_uris": {"android": "https://dc.lft.to/lastmile_qr_scan", "ios": "https://dc.lft.to/lastmile_qr_scan"}, "name": "27b4eef41e7e33feba41d84c020c9760", "is_reserved": 0}, {"is_disabled": 0, "fusion_lon": 0.0, "fusion_lat": 0.0, "lat": 38.91824416666667, "type": "electric_scooter", "lon": -77.012103, "bike_id": "f4d07eeafecbe6c7334e8185ff2d162e", "rental_uris": {"android": "https://dc.lft.to/lastmile_qr_scan", "ios": "https://dc.lft.to/lastmile_qr_scan"}, "name": "f4d07eeafecbe6c7334e8185ff2d162e", "is_reserved": 0}, {"is_disabled": 0, "fusion_lon": 0.0, "fusion_lat": 0.0, "lat": 38.88398316666667, "type": "electric_bike", "lon": -77.03078916666666, "bike_id": "45730a7c635ceb055ffff9aa3118d4d7", "rental_uris": {"android": "https://dc.lft.to/lastmile_qr_scan", "ios": "https://dc.lft.to/lastmile_qr_scan"}, "name": "45730a7c635ceb055ffff9aa3118d4d7", "is_reserved": 0}, {"is_disabled": 0, "fusion_lon": 0.0, "fusion_lat": 0.0, "lat": 38.91093, "type": "electric_scooter", "lon": -76.98468666666666, "bike_id": "71de8918c72b3e932923e729c8e94eb5", "rental_uris": {"android": "https://dc.lft.to/lastmile_qr_scan", "ios": "https://dc.lft.to/lastmile_qr_scan"}, "name": "71de8918c72b3e932923e729c8e94eb5", "is_reserved": 0}, {"is_disabled": 0, "fusion_lon": 0.0, "fusion_lat": 0.0, "lat": 38.959602833333335, "type": "electric_scooter", "lon": -77.02110166666667, "bike_id": "5b0bce18e0ac524eaba119a37da23c3d", "rental_uris": {"android": "https://dc.lft.to/lastmile_qr_scan", "ios": "https://dc.lft.to/lastmile_qr_scan"}, "name": "5b0bce18e0ac524eaba119a37da23c3d", "is_reserved": 0}, {"is_disabled": 0, "fusion_lon": 0.0, "fusion_lat": 0.0, "lat": 38.90729233333333, "type": "electric_scooter", "lon": -77.03538716666667, "bike_id": "d27d44429a1ce789e6fc627501dd0ee4", "rental_uris": {"android": "https://dc.lft.to/lastmile_qr_scan", "ios": "https://dc.lft.to/lastmile_qr_scan"}, "name": "d27d44429a1ce789e6fc627501dd0ee4", "is_reserved": 0}, {"is_disabled": 0, "fusion_lon": 0.0, "fusion_lat": 0.0, "lat": 38.88744583333333, "type": "electric_scooter", "lon": -77.01528383333333, "bike_id": "7506bf4127f14c9f7cd807ab35ad8b7a", "rental_uris": {"android": "https://dc.lft.to/lastmile_qr_scan", "ios": "https://dc.lft.to/lastmile_qr_scan"}, "name": "7506bf4127f14c9f7cd807ab35ad8b7a", "is_reserved": 0}, {"is_disabled": 0, "fusion_lon": 0.0, "fusion_lat": 0.0, "lat": 38.845973, "type": "electric_bike", "lon": -76.96878666666667, "bike_id": "666de9ace5df5f1d2047a18b92e5944c", "rental_uris": {"android": "https://dc.lft.to/lastmile_qr_scan", "ios": "https://dc.lft.to/lastmile_qr_scan"}, "name": "666de9ace5df5f1d2047a18b92e5944c", "is_reserved": 0}, {"is_disabled": 0, "fusion_lon": 0.0, "fusion_lat": 0.0, "lat": 38.895039833333335, "type": "electric_scooter", "lon": -77.01606433333333, "bike_id": "683ad52b6351f883d5caaa48c507ec0e", "rental_uris": {"android": "https://dc.lft.to/lastmile_qr_scan", "ios": "https://dc.lft.to/lastmile_qr_scan"}, "name": "683ad52b6351f883d5caaa48c507ec0e", "is_reserved": 0}, {"is_disabled": 0, "fusion_lon": 0.0, "fusion_lat": 0.0, "lat": 38.93544133333333, "type": "electric_scooter", "lon": -77.058078, "bike_id": "b77530d3e39326619c94977757ec4f11", "rental_uris": {"android": "https://dc.lft.to/lastmile_qr_scan", "ios": "https://dc.lft.to/lastmile_qr_scan"}, "name": "b77530d3e39326619c94977757ec4f11", "is_reserved": 0}, {"is_disabled": 0, "fusion_lon": 0.0, "fusion_lat": 0.0, "lat": 38.94495216666667, "type": "electric_bike", "lon": -76.98661916666667, "bike_id": "6ddeec8b4df1a5697025a3b30f87028b", "rental_uris": {"android": "https://dc.lft.to/lastmile_qr_scan", "ios": "https://dc.lft.to/lastmile_qr_scan"}, "name": "6ddeec8b4df1a5697025a3b30f87028b", "is_reserved": 0}, {"is_disabled": 0, "fusion_lon": 0.0, "fusion_lat": 0.0, "lat": 38.91399833333333, "type": "electric_scooter", "lon": -77.0032215, "bike_id": "f6456256db1aa26d536d336a693d7589", "rental_uris": {"android": "https://dc.lft.to/lastmile_qr_scan", "ios": "https://dc.lft.to/lastmile_qr_scan"}, "name": "f6456256db1aa26d536d336a693d7589", "is_reserved": 0}, {"is_disabled": 0, "fusion_lon": 0.0, "fusion_lat": 0.0, "lat": 38.928998166666666, "type": "electric_scooter", "lon": -77.0325365, "bike_id": "c4e4f256e34733f949d9dd4e52eaf00b", "rental_uris": {"android": "https://dc.lft.to/lastmile_qr_scan", "ios": "https://dc.lft.to/lastmile_qr_scan"}, "name": "c4e4f256e34733f949d9dd4e52eaf00b", "is_reserved": 0}, {"is_disabled": 0, "fusion_lon": 0.0, "fusion_lat": 0.0, "lat": 38.894732166666664, "type": "electric_scooter", "lon": -77.022677, "bike_id": "7622a147ae9ec55cfeaa8ca867d6a265", "rental_uris": {"android": "https://dc.lft.to/lastmile_qr_scan", "ios": "https://dc.lft.to/lastmile_qr_scan"}, "name": "7622a147ae9ec55cfeaa8ca867d6a265", "is_reserved": 0}, {"is_disabled": 0, "fusion_lon": 0.0, "fusion_lat": 0.0, "lat": 38.89571866666667, "type": "electric_scooter", "lon": -77.02306083333333, "bike_id": "14afd91652a274905478c1b4c5fa3bff", "rental_uris": {"android": "https://dc.lft.to/lastmile_qr_scan", "ios": "https://dc.lft.to/lastmile_qr_scan"}, "name": "14afd91652a274905478c1b4c5fa3bff", "is_reserved": 0}, {"is_disabled": 0, "fusion_lon": 0.0, "fusion_lat": 0.0, "lat": 38.924272333333334, "type": "electric_scooter", "lon": -77.0447475, "bike_id": "d58badc0b0f9568b54be23788151a43a", "rental_uris": {"android": "https://dc.lft.to/lastmile_qr_scan", "ios": "https://dc.lft.to/lastmile_qr_scan"}, "name": "d58badc0b0f9568b54be23788151a43a", "is_reserved": 0}, {"is_disabled": 0, "fusion_lon": 0.0, "fusion_lat": 0.0, "lat": 38.943042166666665, "type": "electric_scooter", "lon": -77.02351066666667, "bike_id": "a3fc03425f710f6c9917dbeda0c4d403", "rental_uris": {"android": "https://dc.lft.to/lastmile_qr_scan", "ios": "https://dc.lft.to/lastmile_qr_scan"}, "name": "a3fc03425f710f6c9917dbeda0c4d403", "is_reserved": 0}, {"is_disabled": 0, "fusion_lon": 0.0, "fusion_lat": 0.0, "lat": 38.938762, "type": "electric_scooter", "lon": -77.0332505, "bike_id": "e331e9ce7f9e00fac9a0a171a3a03731", "rental_uris": {"android": "https://dc.lft.to/lastmile_qr_scan", "ios": "https://dc.lft.to/lastmile_qr_scan"}, "name": "e331e9ce7f9e00fac9a0a171a3a03731", "is_reserved": 0}, {"is_disabled": 0, "fusion_lon": 0.0, "fusion_lat": 0.0, "lat": 39.1153025, "type": "electric_bike", "lon": -77.19535766666667, "bike_id": "21725a7b95c381c3bcd977870c4617cf", "rental_uris": {"android": "https://dc.lft.to/lastmile_qr_scan", "ios": "https://dc.lft.to/lastmile_qr_scan"}, "name": "21725a7b95c381c3bcd977870c4617cf", "is_reserved": 0}, {"is_disabled": 0, "fusion_lon": 0.0, "fusion_lat": 0.0, "lat": 38.838131, "type": "electric_scooter", "lon": -77.00431516666667, "bike_id": "659fdf108a59e7141cfc49b9eb72e4c1", "rental_uris": {"android": "https://dc.lft.to/lastmile_qr_scan", "ios": "https://dc.lft.to/lastmile_qr_scan"}, "name": "659fdf108a59e7141cfc49b9eb72e4c1", "is_reserved": 0}, {"is_disabled": 0, "fusion_lon": 0.0, "fusion_lat": 0.0, "lat": 38.930486333333334, "type": "electric_scooter", "lon": -77.00414266666667, "bike_id": "97ee487e16ef890527f73f5bb6e5fc82", "rental_uris": {"android": "https://dc.lft.to/lastmile_qr_scan", "ios": "https://dc.lft.to/lastmile_qr_scan"}, "name": "97ee487e16ef890527f73f5bb6e5fc82", "is_reserved": 0}, {"is_disabled": 0, "fusion_lon": 0.0, "fusion_lat": 0.0, "lat": 38.857166166666666, "type": "electric_bike", "lon": -76.98110883333334, "bike_id": "7af60974d64ef57318d1af1140e984be", "rental_uris": {"android": "https://dc.lft.to/lastmile_qr_scan", "ios": "https://dc.lft.to/lastmile_qr_scan"}, "name": "7af60974d64ef57318d1af1140e984be", "is_reserved": 0}, {"is_disabled": 0, "fusion_lon": 0.0, "fusion_lat": 0.0, "lat": 38.88578316666667, "type": "electric_scooter", "lon": -76.91906783333333, "bike_id": "0897ef95b8cdd623d161c47388bbf652", "rental_uris": {"android": "https://dc.lft.to/lastmile_qr_scan", "ios": "https://dc.lft.to/lastmile_qr_scan"}, "name": "0897ef95b8cdd623d161c47388bbf652", "is_reserved": 0}, {"is_disabled": 0, "fusion_lon": 0.0, "fusion_lat": 0.0, "lat": 38.92411516666667, "type": "electric_scooter", "lon": -77.05257616666667, "bike_id": "c70a645ddccb316d7c0827c07ffe4a65", "rental_uris": {"android": "https://dc.lft.to/lastmile_qr_scan", "ios": "https://dc.lft.to/lastmile_qr_scan"}, "name": "c70a645ddccb316d7c0827c07ffe4a65", "is_reserved": 0}, {"is_disabled": 0, "fusion_lon": 0.0, "fusion_lat": 0.0, "lat": 38.90480683333333, "type": "electric_scooter", "lon": -77.027177, "bike_id": "f925c73aa200ec2de9a3ea268370e655", "rental_uris": {"android": "https://dc.lft.to/lastmile_qr_scan", "ios": "https://dc.lft.to/lastmile_qr_scan"}, "name": "f925c73aa200ec2de9a3ea268370e655", "is_reserved": 0}, {"is_disabled": 0, "fusion_lon": 0.0, "fusion_lat": 0.0, "lat": 39.038836333333336, "type": "electric_bike", "lon": -77.10907016666667, "bike_id": "fb2b82cc259fb9e33c2332c813f1552c", "rental_uris": {"android": "https://dc.lft.to/lastmile_qr_scan", "ios": "https://dc.lft.to/lastmile_qr_scan"}, "name": "fb2b82cc259fb9e33c2332c813f1552c", "is_reserved": 0}, {"is_disabled": 0, "fusion_lon": 0.0, "fusion_lat": 0.0, "lat": 38.956109833333336, "type": "electric_scooter", "lon": -77.0277875, "bike_id": "d7e5c14162bb8ceca222c882127b98c7", "rental_uris": {"android": "https://dc.lft.to/lastmile_qr_scan", "ios": "https://dc.lft.to/lastmile_qr_scan"}, "name": "d7e5c14162bb8ceca222c882127b98c7", "is_reserved": 0}, {"is_disabled": 0, "fusion_lon": 0.0, "fusion_lat": 0.0, "lat": 38.95327233333333, "type": "electric_scooter", "lon": -77.068528, "bike_id": "e910e89844d88bc12856a00179aa7e8a", "rental_uris": {"android": "https://dc.lft.to/lastmile_qr_scan", "ios": "https://dc.lft.to/lastmile_qr_scan"}, "name": "e910e89844d88bc12856a00179aa7e8a", "is_reserved": 0}, {"is_disabled": 0, "fusion_lon": 0.0, "fusion_lat": 0.0, "lat": 38.874723, "type": "electric_scooter", "lon": -77.00529966666667, "bike_id": "d80d3096e688c9f30962819f1b256aeb", "rental_uris": {"android": "https://dc.lft.to/lastmile_qr_scan", "ios": "https://dc.lft.to/lastmile_qr_scan"}, "name": "d80d3096e688c9f30962819f1b256aeb", "is_reserved": 0}, {"is_disabled": 0, "fusion_lon": 0.0, "fusion_lat": 0.0, "lat": 38.922227666666664, "type": "electric_scooter", "lon": -77.043358, "bike_id": "13012809704f0d3b67d0d6f61537e044", "rental_uris": {"android": "https://dc.lft.to/lastmile_qr_scan", "ios": "https://dc.lft.to/lastmile_qr_scan"}, "name": "13012809704f0d3b67d0d6f61537e044", "is_reserved": 0}, {"is_disabled": 0, "fusion_lon": 0.0, "fusion_lat": 0.0, "lat": 38.88743933333333, "type": "electric_scooter", "lon": -77.01532033333334, "bike_id": "3a6abaaa2bdd12d7fc5c0a7a9597af44", "rental_uris": {"android": "https://dc.lft.to/lastmile_qr_scan", "ios": "https://dc.lft.to/lastmile_qr_scan"}, "name": "3a6abaaa2bdd12d7fc5c0a7a9597af44", "is_reserved": 0}, {"is_disabled": 0, "fusion_lon": 0.0, "fusion_lat": 0.0, "lat": 38.9366955, "type": "electric_bike", "lon": -76.95206066666667, "bike_id": "87668ed11afc43318264610d209c5f2e", "rental_uris": {"android": "https://dc.lft.to/lastmile_qr_scan", "ios": "https://dc.lft.to/lastmile_qr_scan"}, "name": "87668ed11afc43318264610d209c5f2e", "is_reserved": 0}, {"is_disabled": 0, "fusion_lon": 0.0, "fusion_lat": 0.0, "lat": 38.9096445, "type": "electric_scooter", "lon": -77.02743083333333, "bike_id": "166e0c2989e69d08e6a5e7a40c7cd5b2", "rental_uris": {"android": "https://dc.lft.to/lastmile_qr_scan", "ios": "https://dc.lft.to/lastmile_qr_scan"}, "name": "166e0c2989e69d08e6a5e7a40c7cd5b2", "is_reserved": 0}, {"is_disabled": 0, "fusion_lon": 0.0, "fusion_lat": 0.0, "lat": 38.911116666666665, "type": "electric_scooter", "lon": -77.06522933333333, "bike_id": "2a2f263f96fc1dc9651e5ad007468334", "rental_uris": {"android": "https://dc.lft.to/lastmile_qr_scan", "ios": "https://dc.lft.to/lastmile_qr_scan"}, "name": "2a2f263f96fc1dc9651e5ad007468334", "is_reserved": 0}, {"is_disabled": 0, "fusion_lon": 0.0, "fusion_lat": 0.0, "lat": 38.8984785, "type": "electric_scooter", "lon": -77.0290655, "bike_id": "dc47ad86b565d9639630d7a60806728c", "rental_uris": {"android": "https://dc.lft.to/lastmile_qr_scan", "ios": "https://dc.lft.to/lastmile_qr_scan"}, "name": "dc47ad86b565d9639630d7a60806728c", "is_reserved": 0}, {"is_disabled": 0, "fusion_lon": 0.0, "fusion_lat": 0.0, "lat": 38.899032166666665, "type": "electric_scooter", "lon": -77.03328366666666, "bike_id": "203c9a8326150738134d22baddfe1ea3", "rental_uris": {"android": "https://dc.lft.to/lastmile_qr_scan", "ios": "https://dc.lft.to/lastmile_qr_scan"}, "name": "203c9a8326150738134d22baddfe1ea3", "is_reserved": 0}, {"is_disabled": 0, "fusion_lon": 0.0, "fusion_lat": 0.0, "lat": 39.024957, "type": "electric_bike", "lon": -77.125656, "bike_id": "8713c165fc36dd1932cc28b88b8b7d04", "rental_uris": {"android": "https://dc.lft.to/lastmile_qr_scan", "ios": "https://dc.lft.to/lastmile_qr_scan"}, "name": "8713c165fc36dd1932cc28b88b8b7d04", "is_reserved": 0}, {"is_disabled": 0, "fusion_lon": 0.0, "fusion_lat": 0.0, "lat": 38.93056266666667, "type": "electric_scooter", "lon": -77.02962283333333, "bike_id": "601c3e979354c2c8554581e7b0ed228d", "rental_uris": {"android": "https://dc.lft.to/lastmile_qr_scan", "ios": "https://dc.lft.to/lastmile_qr_scan"}, "name": "601c3e979354c2c8554581e7b0ed228d", "is_reserved": 0}, {"is_disabled": 0, "fusion_lon": 0.0, "fusion_lat": 0.0, "lat": 38.9308025, "type": "electric_scooter", "lon": -77.03628583333334, "bike_id": "3bcfc42502ff86cd5272e3efc272ae0e", "rental_uris": {"android": "https://dc.lft.to/lastmile_qr_scan", "ios": "https://dc.lft.to/lastmile_qr_scan"}, "name": "3bcfc42502ff86cd5272e3efc272ae0e", "is_reserved": 0}, {"is_disabled": 0, "fusion_lon": 0.0, "fusion_lat": 0.0, "lat": 38.943171, "type": "electric_scooter", "lon": -77.06170666666667, "bike_id": "0e68cecb2d0d3b96225a39bbd118f3e0", "rental_uris": {"android": "https://dc.lft.to/lastmile_qr_scan", "ios": "https://dc.lft.to/lastmile_qr_scan"}, "name": "0e68cecb2d0d3b96225a39bbd118f3e0", "is_reserved": 0}, {"is_disabled": 0, "fusion_lon": 0.0, "fusion_lat": 0.0, "lat": 38.919048, "type": "electric_scooter", "lon": -77.0258965, "bike_id": "1111d2e15fb0c8721769f5bd06a88d43", "rental_uris": {"android": "https://dc.lft.to/lastmile_qr_scan", "ios": "https://dc.lft.to/lastmile_qr_scan"}, "name": "1111d2e15fb0c8721769f5bd06a88d43", "is_reserved": 0}, {"is_disabled": 0, "fusion_lon": 0.0, "fusion_lat": 0.0, "lat": 38.92233, "type": "electric_scooter", "lon": -77.04342183333333, "bike_id": "72c925e15b2e1a7a01be583b654424ce", "rental_uris": {"android": "https://dc.lft.to/lastmile_qr_scan", "ios": "https://dc.lft.to/lastmile_qr_scan"}, "name": "72c925e15b2e1a7a01be583b654424ce", "is_reserved": 0}, {"is_disabled": 0, "fusion_lon": 0.0, "fusion_lat": 0.0, "lat": 38.91707066666667, "type": "electric_bike", "lon": -77.09562433333333, "bike_id": "c25837e8664ca594829b38070273ccab", "rental_uris": {"android": "https://dc.lft.to/lastmile_qr_scan", "ios": "https://dc.lft.to/lastmile_qr_scan"}, "name": "c25837e8664ca594829b38070273ccab", "is_reserved": 0}, {"is_disabled": 0, "fusion_lon": 0.0, "fusion_lat": 0.0, "lat": 38.923170666666664, "type": "electric_scooter", "lon": -77.038072, "bike_id": "ff1a7a6ebf90144b447ae838b0b2055a", "rental_uris": {"android": "https://dc.lft.to/lastmile_qr_scan", "ios": "https://dc.lft.to/lastmile_qr_scan"}, "name": "ff1a7a6ebf90144b447ae838b0b2055a", "is_reserved": 0}, {"is_disabled": 0, "fusion_lon": 0.0, "fusion_lat": 0.0, "lat": 38.916388166666664, "type": "electric_scooter", "lon": -77.02279933333334, "bike_id": "a32dfc1659e43f61e8f4352a16ef4562", "rental_uris": {"android": "https://dc.lft.to/lastmile_qr_scan", "ios": "https://dc.lft.to/lastmile_qr_scan"}, "name": "a32dfc1659e43f61e8f4352a16ef4562", "is_reserved": 0}, {"is_disabled": 0, "fusion_lon": 0.0, "fusion_lat": 0.0, "lat": 39.0526995, "type": "electric_bike", "lon": -77.04380016666667, "bike_id": "e75d33a015348aeb08b3fd00f40b5ed4", "rental_uris": {"android": "https://dc.lft.to/lastmile_qr_scan", "ios": "https://dc.lft.to/lastmile_qr_scan"}, "name": "e75d33a015348aeb08b3fd00f40b5ed4", "is_reserved": 0}, {"is_disabled": 0, "fusion_lon": 0.0, "fusion_lat": 0.0, "lat": 38.948973333333335, "type": "electric_bike", "lon": -76.96364766666667, "bike_id": "96e19e3f3e9bbeb8f95ebfc3dbd687cd", "rental_uris": {"android": "https://dc.lft.to/lastmile_qr_scan", "ios": "https://dc.lft.to/lastmile_qr_scan"}, "name": "96e19e3f3e9bbeb8f95ebfc3dbd687cd", "is_reserved": 0}, {"is_disabled": 0, "fusion_lon": 0.0, "fusion_lat": 0.0, "lat": 38.90960033333333, "type": "electric_scooter", "lon": -77.03951966666666, "bike_id": "d18cf309bedba150915532f3b491c044", "rental_uris": {"android": "https://dc.lft.to/lastmile_qr_scan", "ios": "https://dc.lft.to/lastmile_qr_scan"}, "name": "d18cf309bedba150915532f3b491c044", "is_reserved": 0}, {"is_disabled": 0, "fusion_lon": 0.0, "fusion_lat": 0.0, "lat": 38.91706466666667, "type": "electric_scooter", "lon": -77.00115816666667, "bike_id": "5b6fa0746922d3037ff5d13dfd6071e8", "rental_uris": {"android": "https://dc.lft.to/lastmile_qr_scan", "ios": "https://dc.lft.to/lastmile_qr_scan"}, "name": "5b6fa0746922d3037ff5d13dfd6071e8", "is_reserved": 0}, {"is_disabled": 0, "fusion_lon": 0.0, "fusion_lat": 0.0, "lat": 38.93417866666667, "type": "electric_scooter", "lon": -77.02448866666667, "bike_id": "526d8202e83e2e25726a83cdc111e722", "rental_uris": {"android": "https://dc.lft.to/lastmile_qr_scan", "ios": "https://dc.lft.to/lastmile_qr_scan"}, "name": "526d8202e83e2e25726a83cdc111e722", "is_reserved": 0}, {"is_disabled": 0, "fusion_lon": 0.0, "fusion_lat": 0.0, "lat": 38.867407666666665, "type": "electric_scooter", "lon": -76.97943083333334, "bike_id": "981cbd67c20a4e69fc517d6b0cb47891", "rental_uris": {"android": "https://dc.lft.to/lastmile_qr_scan", "ios": "https://dc.lft.to/lastmile_qr_scan"}, "name": "981cbd67c20a4e69fc517d6b0cb47891", "is_reserved": 0}, {"is_disabled": 0, "fusion_lon": 0.0, "fusion_lat": 0.0, "lat": 38.8853675, "type": "electric_scooter", "lon": -76.9269835, "bike_id": "24755f22780dd87deee0f75e6a33ea87", "rental_uris": {"android": "https://dc.lft.to/lastmile_qr_scan", "ios": "https://dc.lft.to/lastmile_qr_scan"}, "name": "24755f22780dd87deee0f75e6a33ea87", "is_reserved": 0}, {"is_disabled": 0, "fusion_lon": 0.0, "fusion_lat": 0.0, "lat": 38.9232125, "type": "electric_scooter", "lon": -77.04621966666667, "bike_id": "ec8637bb5ce6f77b2aadc7cddc891718", "rental_uris": {"android": "https://dc.lft.to/lastmile_qr_scan", "ios": "https://dc.lft.to/lastmile_qr_scan"}, "name": "ec8637bb5ce6f77b2aadc7cddc891718", "is_reserved": 0}, {"is_disabled": 0, "fusion_lon": 0.0, "fusion_lat": 0.0, "lat": 38.9243455, "type": "electric_scooter", "lon": -77.0354635, "bike_id": "31b1abd5b9f9cee2cc37e06228dccacd", "rental_uris": {"android": "https://dc.lft.to/lastmile_qr_scan", "ios": "https://dc.lft.to/lastmile_qr_scan"}, "name": "31b1abd5b9f9cee2cc37e06228dccacd", "is_reserved": 0}, {"is_disabled": 0, "fusion_lon": 0.0, "fusion_lat": 0.0, "lat": 38.877959833333335, "type": "electric_scooter", "lon": -77.0136665, "bike_id": "c11873b5a90b52e8ccfe1075254727f4", "rental_uris": {"android": "https://dc.lft.to/lastmile_qr_scan", "ios": "https://dc.lft.to/lastmile_qr_scan"}, "name": "c11873b5a90b52e8ccfe1075254727f4", "is_reserved": 0}, {"is_disabled": 0, "fusion_lon": 0.0, "fusion_lat": 0.0, "lat": 38.91625033333333, "type": "electric_scooter", "lon": -77.021551, "bike_id": "e54ee719c3b843f4e2f203c8dcd5abb3", "rental_uris": {"android": "https://dc.lft.to/lastmile_qr_scan", "ios": "https://dc.lft.to/lastmile_qr_scan"}, "name": "e54ee719c3b843f4e2f203c8dcd5abb3", "is_reserved": 0}, {"is_disabled": 0, "fusion_lon": 0.0, "fusion_lat": 0.0, "lat": 38.933428666666664, "type": "electric_scooter", "lon": -77.04135116666667, "bike_id": "864fb9c5f0a6f222abe76d1671159d49", "rental_uris": {"android": "https://dc.lft.to/lastmile_qr_scan", "ios": "https://dc.lft.to/lastmile_qr_scan"}, "name": "864fb9c5f0a6f222abe76d1671159d49", "is_reserved": 0}, {"is_disabled": 0, "fusion_lon": 0.0, "fusion_lat": 0.0, "lat": 38.90558733333334, "type": "electric_scooter", "lon": -77.0335565, "bike_id": "f7a7365ad5864b03f5d0c4e28ca1245c", "rental_uris": {"android": "https://dc.lft.to/lastmile_qr_scan", "ios": "https://dc.lft.to/lastmile_qr_scan"}, "name": "f7a7365ad5864b03f5d0c4e28ca1245c", "is_reserved": 0}, {"is_disabled": 0, "fusion_lon": 0.0, "fusion_lat": 0.0, "lat": 38.9019585, "type": "electric_scooter", "lon": -77.03949316666667, "bike_id": "720e23c57e099cae5dbef8f4d731e9d9", "rental_uris": {"android": "https://dc.lft.to/lastmile_qr_scan", "ios": "https://dc.lft.to/lastmile_qr_scan"}, "name": "720e23c57e099cae5dbef8f4d731e9d9", "is_reserved": 0}, {"is_disabled": 0, "fusion_lon": 0.0, "fusion_lat": 0.0, "lat": 38.91100466666666, "type": "electric_scooter", "lon": -77.03171816666666, "bike_id": "71747f073127462e9cba583dde92bea7", "rental_uris": {"android": "https://dc.lft.to/lastmile_qr_scan", "ios": "https://dc.lft.to/lastmile_qr_scan"}, "name": "71747f073127462e9cba583dde92bea7", "is_reserved": 0}, {"is_disabled": 0, "fusion_lon": 0.0, "fusion_lat": 0.0, "lat": 38.9084015, "type": "electric_scooter", "lon": -76.9970285, "bike_id": "88c4ab2e1fad443b64d4dd760a54c190", "rental_uris": {"android": "https://dc.lft.to/lastmile_qr_scan", "ios": "https://dc.lft.to/lastmile_qr_scan"}, "name": "88c4ab2e1fad443b64d4dd760a54c190", "is_reserved": 0}, {"is_disabled": 0, "fusion_lon": 0.0, "fusion_lat": 0.0, "lat": 38.916756666666664, "type": "electric_scooter", "lon": -77.02712583333333, "bike_id": "ce0d7a6a14f1275ee7dd35d37e2a403d", "rental_uris": {"android": "https://dc.lft.to/lastmile_qr_scan", "ios": "https://dc.lft.to/lastmile_qr_scan"}, "name": "ce0d7a6a14f1275ee7dd35d37e2a403d", "is_reserved": 0}, {"is_disabled": 0, "fusion_lon": 0.0, "fusion_lat": 0.0, "lat": 38.91857866666667, "type": "electric_scooter", "lon": -77.041622, "bike_id": "b5df29ec8c0f01f5e81d48f0c51180dc", "rental_uris": {"android": "https://dc.lft.to/lastmile_qr_scan", "ios": "https://dc.lft.to/lastmile_qr_scan"}, "name": "b5df29ec8c0f01f5e81d48f0c51180dc", "is_reserved": 0}, {"is_disabled": 0, "fusion_lon": 0.0, "fusion_lat": 0.0, "lat": 38.845177666666665, "type": "electric_bike", "lon": -77.07794616666666, "bike_id": "45f5b08a604f6010e5858bd9b1eacdf5", "rental_uris": {"android": "https://dc.lft.to/lastmile_qr_scan", "ios": "https://dc.lft.to/lastmile_qr_scan"}, "name": "45f5b08a604f6010e5858bd9b1eacdf5", "is_reserved": 0}, {"is_disabled": 0, "fusion_lon": 0.0, "fusion_lat": 0.0, "lat": 38.9143295, "type": "electric_scooter", "lon": -77.019946, "bike_id": "e6f4b784cc51d4244616de1057997a80", "rental_uris": {"android": "https://dc.lft.to/lastmile_qr_scan", "ios": "https://dc.lft.to/lastmile_qr_scan"}, "name": "e6f4b784cc51d4244616de1057997a80", "is_reserved": 0}, {"is_disabled": 0, "fusion_lon": 0.0, "fusion_lat": 0.0, "lat": 38.906831833333335, "type": "electric_scooter", "lon": -77.02689416666666, "bike_id": "afc46386f1744ad9cf22dd00e1f9476a", "rental_uris": {"android": "https://dc.lft.to/lastmile_qr_scan", "ios": "https://dc.lft.to/lastmile_qr_scan"}, "name": "afc46386f1744ad9cf22dd00e1f9476a", "is_reserved": 0}, {"is_disabled": 0, "fusion_lon": 0.0, "fusion_lat": 0.0, "lat": 38.92052833333333, "type": "electric_scooter", "lon": -77.02612516666667, "bike_id": "30d5d378940fe898db937107378c30cf", "rental_uris": {"android": "https://dc.lft.to/lastmile_qr_scan", "ios": "https://dc.lft.to/lastmile_qr_scan"}, "name": "30d5d378940fe898db937107378c30cf", "is_reserved": 0}, {"is_disabled": 0, "fusion_lon": 0.0, "fusion_lat": 0.0, "lat": 38.892227166666665, "type": "electric_scooter", "lon": -77.03338966666666, "bike_id": "84dc906489b8d7b0cff84704b21cdd43", "rental_uris": {"android": "https://dc.lft.to/lastmile_qr_scan", "ios": "https://dc.lft.to/lastmile_qr_scan"}, "name": "84dc906489b8d7b0cff84704b21cdd43", "is_reserved": 0}, {"is_disabled": 0, "fusion_lon": 0.0, "fusion_lat": 0.0, "lat": 38.917301333333334, "type": "electric_scooter", "lon": -77.04174616666667, "bike_id": "3d374b08fe6196ec34c33aa47079ee6d", "rental_uris": {"android": "https://dc.lft.to/lastmile_qr_scan", "ios": "https://dc.lft.to/lastmile_qr_scan"}, "name": "3d374b08fe6196ec34c33aa47079ee6d", "is_reserved": 0}, {"is_disabled": 0, "fusion_lon": 0.0, "fusion_lat": 0.0, "lat": 38.90077683333333, "type": "electric_scooter", "lon": -77.0344895, "bike_id": "50e2a9c3813cd1aa8652437a8f2e1eb6", "rental_uris": {"android": "https://dc.lft.to/lastmile_qr_scan", "ios": "https://dc.lft.to/lastmile_qr_scan"}, "name": "50e2a9c3813cd1aa8652437a8f2e1eb6", "is_reserved": 0}, {"is_disabled": 0, "fusion_lon": 0.0, "fusion_lat": 0.0, "lat": 38.9340045, "type": "electric_scooter", "lon": -77.0272655, "bike_id": "a1fd0a8364fa2ca29020ff0e94537107", "rental_uris": {"android": "https://dc.lft.to/lastmile_qr_scan", "ios": "https://dc.lft.to/lastmile_qr_scan"}, "name": "a1fd0a8364fa2ca29020ff0e94537107", "is_reserved": 0}, {"is_disabled": 0, "fusion_lon": 0.0, "fusion_lat": 0.0, "lat": 38.895186833333334, "type": "electric_scooter", "lon": -77.02818133333334, "bike_id": "53256b8c91c2177c6d648bd13f108d50", "rental_uris": {"android": "https://dc.lft.to/lastmile_qr_scan", "ios": "https://dc.lft.to/lastmile_qr_scan"}, "name": "53256b8c91c2177c6d648bd13f108d50", "is_reserved": 0}, {"is_disabled": 0, "fusion_lon": 0.0, "fusion_lat": 0.0, "lat": 38.848431166666664, "type": "electric_bike", "lon": -77.08047616666667, "bike_id": "f58e845fb5bd702d0d9fce88fafba34d", "rental_uris": {"android": "https://dc.lft.to/lastmile_qr_scan", "ios": "https://dc.lft.to/lastmile_qr_scan"}, "name": "f58e845fb5bd702d0d9fce88fafba34d", "is_reserved": 0}, {"is_disabled": 0, "fusion_lon": 0.0, "fusion_lat": 0.0, "lat": 38.896921666666664, "type": "electric_scooter", "lon": -76.94716866666667, "bike_id": "f05cbe78c6eb7b7c5001837b56a6a43e", "rental_uris": {"android": "https://dc.lft.to/lastmile_qr_scan", "ios": "https://dc.lft.to/lastmile_qr_scan"}, "name": "f05cbe78c6eb7b7c5001837b56a6a43e", "is_reserved": 0}, {"is_disabled": 0, "fusion_lon": 0.0, "fusion_lat": 0.0, "lat": 38.913388166666664, "type": "electric_scooter", "lon": -77.025306, "bike_id": "777f0ff417a41782820ad12d8c85505b", "rental_uris": {"android": "https://dc.lft.to/lastmile_qr_scan", "ios": "https://dc.lft.to/lastmile_qr_scan"}, "name": "777f0ff417a41782820ad12d8c85505b", "is_reserved": 0}, {"is_disabled": 0, "fusion_lon": 0.0, "fusion_lat": 0.0, "lat": 38.935551833333335, "type": "electric_scooter", "lon": -77.07327983333333, "bike_id": "d5ecd990ade1f680c9c649f9b3f53ae7", "rental_uris": {"android": "https://dc.lft.to/lastmile_qr_scan", "ios": "https://dc.lft.to/lastmile_qr_scan"}, "name": "d5ecd990ade1f680c9c649f9b3f53ae7", "is_reserved": 0}, {"is_disabled": 0, "fusion_lon": 0.0, "fusion_lat": 0.0, "lat": 38.917925833333335, "type": "electric_scooter", "lon": -77.03665633333334, "bike_id": "b0786d43f47c00b81b38903cce9777e9", "rental_uris": {"android": "https://dc.lft.to/lastmile_qr_scan", "ios": "https://dc.lft.to/lastmile_qr_scan"}, "name": "b0786d43f47c00b81b38903cce9777e9", "is_reserved": 0}, {"is_disabled": 0, "fusion_lon": 0.0, "fusion_lat": 0.0, "lat": 38.875745, "type": "electric_scooter", "lon": -77.01989816666666, "bike_id": "41926920732500075a780a7dcbf07433", "rental_uris": {"android": "https://dc.lft.to/lastmile_qr_scan", "ios": "https://dc.lft.to/lastmile_qr_scan"}, "name": "41926920732500075a780a7dcbf07433", "is_reserved": 0}, {"is_disabled": 0, "fusion_lon": 0.0, "fusion_lat": 0.0, "lat": 38.902167166666665, "type": "electric_scooter", "lon": -77.0210905, "bike_id": "bc658a37668be13e63a65e7d2d56336d", "rental_uris": {"android": "https://dc.lft.to/lastmile_qr_scan", "ios": "https://dc.lft.to/lastmile_qr_scan"}, "name": "bc658a37668be13e63a65e7d2d56336d", "is_reserved": 0}, {"is_disabled": 0, "fusion_lon": 0.0, "fusion_lat": 0.0, "lat": 38.91541983333333, "type": "electric_scooter", "lon": -77.019712, "bike_id": "6b54006280cce1299d474a421d4f734c", "rental_uris": {"android": "https://dc.lft.to/lastmile_qr_scan", "ios": "https://dc.lft.to/lastmile_qr_scan"}, "name": "6b54006280cce1299d474a421d4f734c", "is_reserved": 0}, {"is_disabled": 0, "fusion_lon": 0.0, "fusion_lat": 0.0, "lat": 38.892645, "type": "electric_scooter", "lon": -77.03169516666667, "bike_id": "6022c1f9be883b5eb6e4a17e425885d5", "rental_uris": {"android": "https://dc.lft.to/lastmile_qr_scan", "ios": "https://dc.lft.to/lastmile_qr_scan"}, "name": "6022c1f9be883b5eb6e4a17e425885d5", "is_reserved": 0}, {"is_disabled": 0, "fusion_lon": 0.0, "fusion_lat": 0.0, "lat": 38.90403933333333, "type": "electric_scooter", "lon": -77.017459, "bike_id": "3c8848462ce4bf37907f6e5cef08768f", "rental_uris": {"android": "https://dc.lft.to/lastmile_qr_scan", "ios": "https://dc.lft.to/lastmile_qr_scan"}, "name": "3c8848462ce4bf37907f6e5cef08768f", "is_reserved": 0}, {"is_disabled": 0, "fusion_lon": 0.0, "fusion_lat": 0.0, "lat": 38.9235235, "type": "electric_bike", "lon": -76.992457, "bike_id": "b4c7ee8099ff584671d6e799a491998b", "rental_uris": {"android": "https://dc.lft.to/lastmile_qr_scan", "ios": "https://dc.lft.to/lastmile_qr_scan"}, "name": "b4c7ee8099ff584671d6e799a491998b", "is_reserved": 0}, {"is_disabled": 0, "fusion_lon": 0.0, "fusion_lat": 0.0, "lat": 38.9068605, "type": "electric_scooter", "lon": -77.02692416666666, "bike_id": "d6b88706816cb1310597bdcce88f03d3", "rental_uris": {"android": "https://dc.lft.to/lastmile_qr_scan", "ios": "https://dc.lft.to/lastmile_qr_scan"}, "name": "d6b88706816cb1310597bdcce88f03d3", "is_reserved": 0}, {"is_disabled": 0, "fusion_lon": 0.0, "fusion_lat": 0.0, "lat": 38.909461666666665, "type": "electric_scooter", "lon": -77.04676383333333, "bike_id": "52e3519fbebef941378f96c0ec6262e9", "rental_uris": {"android": "https://dc.lft.to/lastmile_qr_scan", "ios": "https://dc.lft.to/lastmile_qr_scan"}, "name": "52e3519fbebef941378f96c0ec6262e9", "is_reserved": 0}, {"is_disabled": 0, "fusion_lon": 0.0, "fusion_lat": 0.0, "lat": 38.896709666666666, "type": "electric_scooter", "lon": -77.0117435, "bike_id": "a16cb4de232a36a926d980b4d26ee02e", "rental_uris": {"android": "https://dc.lft.to/lastmile_qr_scan", "ios": "https://dc.lft.to/lastmile_qr_scan"}, "name": "a16cb4de232a36a926d980b4d26ee02e", "is_reserved": 0}, {"is_disabled": 0, "fusion_lon": 0.0, "fusion_lat": 0.0, "lat": 38.903658666666665, "type": "electric_scooter", "lon": -77.0220905, "bike_id": "edf416483ab363b811a95510e2279651", "rental_uris": {"android": "https://dc.lft.to/lastmile_qr_scan", "ios": "https://dc.lft.to/lastmile_qr_scan"}, "name": "edf416483ab363b811a95510e2279651", "is_reserved": 0}, {"is_disabled": 0, "fusion_lon": 0.0, "fusion_lat": 0.0, "lat": 38.99074483333333, "type": "electric_bike", "lon": -77.02380466666666, "bike_id": "956bd9bf931f4aa9e81f28714950aca2", "rental_uris": {"android": "https://dc.lft.to/lastmile_qr_scan", "ios": "https://dc.lft.to/lastmile_qr_scan"}, "name": "956bd9bf931f4aa9e81f28714950aca2", "is_reserved": 0}, {"is_disabled": 0, "fusion_lon": 0.0, "fusion_lat": 0.0, "lat": 38.8841205, "type": "electric_scooter", "lon": -77.03298866666667, "bike_id": "3e9bf73af5a9fcf6ea629bdc178629b8", "rental_uris": {"android": "https://dc.lft.to/lastmile_qr_scan", "ios": "https://dc.lft.to/lastmile_qr_scan"}, "name": "3e9bf73af5a9fcf6ea629bdc178629b8", "is_reserved": 0}, {"is_disabled": 0, "fusion_lon": 0.0, "fusion_lat": 0.0, "lat": 38.9178525, "type": "electric_scooter", "lon": -77.043604, "bike_id": "80ae73366bdb6e55a69e05497be1b99a", "rental_uris": {"android": "https://dc.lft.to/lastmile_qr_scan", "ios": "https://dc.lft.to/lastmile_qr_scan"}, "name": "80ae73366bdb6e55a69e05497be1b99a", "is_reserved": 0}, {"is_disabled": 0, "fusion_lon": 0.0, "fusion_lat": 0.0, "lat": 38.91151466666667, "type": "electric_bike", "lon": -77.01154, "bike_id": "3f55f78839e09c1f64f2e1ec24d135b5", "rental_uris": {"android": "https://dc.lft.to/lastmile_qr_scan", "ios": "https://dc.lft.to/lastmile_qr_scan"}, "name": "3f55f78839e09c1f64f2e1ec24d135b5", "is_reserved": 0}, {"is_disabled": 0, "fusion_lon": 0.0, "fusion_lat": 0.0, "lat": 38.8813175, "type": "electric_scooter", "lon": -77.020802, "bike_id": "5d54e30c4864b9e2d92f24304892291a", "rental_uris": {"android": "https://dc.lft.to/lastmile_qr_scan", "ios": "https://dc.lft.to/lastmile_qr_scan"}, "name": "5d54e30c4864b9e2d92f24304892291a", "is_reserved": 0}, {"is_disabled": 0, "fusion_lon": 0.0, "fusion_lat": 0.0, "lat": 38.937742, "type": "electric_scooter", "lon": -77.02442383333333, "bike_id": "40ba3aa848eb67fbe9091af55e6f78ee", "rental_uris": {"android": "https://dc.lft.to/lastmile_qr_scan", "ios": "https://dc.lft.to/lastmile_qr_scan"}, "name": "40ba3aa848eb67fbe9091af55e6f78ee", "is_reserved": 0}, {"is_disabled": 0, "fusion_lon": 0.0, "fusion_lat": 0.0, "lat": 38.92657083333334, "type": "electric_scooter", "lon": -77.0228005, "bike_id": "cc4901e4740abe392a97fa3373b62bef", "rental_uris": {"android": "https://dc.lft.to/lastmile_qr_scan", "ios": "https://dc.lft.to/lastmile_qr_scan"}, "name": "cc4901e4740abe392a97fa3373b62bef", "is_reserved": 0}, {"is_disabled": 0, "fusion_lon": 0.0, "fusion_lat": 0.0, "lat": 38.87576883333333, "type": "electric_scooter", "lon": -77.02086666666666, "bike_id": "5a9b4a530432b7abdaf89574db5a6f54", "rental_uris": {"android": "https://dc.lft.to/lastmile_qr_scan", "ios": "https://dc.lft.to/lastmile_qr_scan"}, "name": "5a9b4a530432b7abdaf89574db5a6f54", "is_reserved": 0}, {"is_disabled": 0, "fusion_lon": 0.0, "fusion_lat": 0.0, "lat": 38.93356416666666, "type": "electric_scooter", "lon": -77.073793, "bike_id": "388907fae01b6df7f7e8339692757b62", "rental_uris": {"android": "https://dc.lft.to/lastmile_qr_scan", "ios": "https://dc.lft.to/lastmile_qr_scan"}, "name": "388907fae01b6df7f7e8339692757b62", "is_reserved": 0}, {"is_disabled": 0, "fusion_lon": 0.0, "fusion_lat": 0.0, "lat": 38.90359516666667, "type": "electric_scooter", "lon": -77.01123183333333, "bike_id": "40d0ac3cb545a0c827d6b92a5af84e61", "rental_uris": {"android": "https://dc.lft.to/lastmile_qr_scan", "ios": "https://dc.lft.to/lastmile_qr_scan"}, "name": "40d0ac3cb545a0c827d6b92a5af84e61", "is_reserved": 0}, {"is_disabled": 0, "fusion_lon": 0.0, "fusion_lat": 0.0, "lat": 38.9156735, "type": "electric_scooter", "lon": -77.0207815, "bike_id": "9e09c90bb47e0abc0e6f8a39dc34d2b9", "rental_uris": {"android": "https://dc.lft.to/lastmile_qr_scan", "ios": "https://dc.lft.to/lastmile_qr_scan"}, "name": "9e09c90bb47e0abc0e6f8a39dc34d2b9", "is_reserved": 0}, {"is_disabled": 0, "fusion_lon": 0.0, "fusion_lat": 0.0, "lat": 38.996682, "type": "electric_bike", "lon": -76.991415, "bike_id": "20aaf084006c08b0888e3f4c42a52e57", "rental_uris": {"android": "https://dc.lft.to/lastmile_qr_scan", "ios": "https://dc.lft.to/lastmile_qr_scan"}, "name": "20aaf084006c08b0888e3f4c42a52e57", "is_reserved": 0}, {"is_disabled": 0, "fusion_lon": 0.0, "fusion_lat": 0.0, "lat": 38.944597333333334, "type": "electric_scooter", "lon": -77.06024483333333, "bike_id": "8eace91e6dcb37cc7aed05f1cd7f8856", "rental_uris": {"android": "https://dc.lft.to/lastmile_qr_scan", "ios": "https://dc.lft.to/lastmile_qr_scan"}, "name": "8eace91e6dcb37cc7aed05f1cd7f8856", "is_reserved": 0}, {"is_disabled": 0, "fusion_lon": 0.0, "fusion_lat": 0.0, "lat": 38.9262875, "type": "electric_scooter", "lon": -77.041921, "bike_id": "3ef04667f15bce0e157825e4a2c53bb6", "rental_uris": {"android": "https://dc.lft.to/lastmile_qr_scan", "ios": "https://dc.lft.to/lastmile_qr_scan"}, "name": "3ef04667f15bce0e157825e4a2c53bb6", "is_reserved": 0}, {"is_disabled": 0, "fusion_lon": 0.0, "fusion_lat": 0.0, "lat": 38.901937, "type": "electric_scooter", "lon": -77.04803566666666, "bike_id": "f6a6bb2edb952ae1b66a2999e771fe2a", "rental_uris": {"android": "https://dc.lft.to/lastmile_qr_scan", "ios": "https://dc.lft.to/lastmile_qr_scan"}, "name": "f6a6bb2edb952ae1b66a2999e771fe2a", "is_reserved": 0}, {"is_disabled": 0, "fusion_lon": 0.0, "fusion_lat": 0.0, "lat": 38.89357183333333, "type": "electric_scooter", "lon": -76.939895, "bike_id": "301fb6691da061073bcd85d8806f52d6", "rental_uris": {"android": "https://dc.lft.to/lastmile_qr_scan", "ios": "https://dc.lft.to/lastmile_qr_scan"}, "name": "301fb6691da061073bcd85d8806f52d6", "is_reserved": 0}, {"is_disabled": 0, "fusion_lon": 0.0, "fusion_lat": 0.0, "lat": 38.9509015, "type": "electric_bike", "lon": -76.96558, "bike_id": "e79246454d57ad4a9fb207b158f9474f", "rental_uris": {"android": "https://dc.lft.to/lastmile_qr_scan", "ios": "https://dc.lft.to/lastmile_qr_scan"}, "name": "e79246454d57ad4a9fb207b158f9474f", "is_reserved": 0}, {"is_disabled": 0, "fusion_lon": 0.0, "fusion_lat": 0.0, "lat": 38.90379133333333, "type": "electric_scooter", "lon": -77.03434333333334, "bike_id": "025fdd2530eef4d88a3fead174964a2e", "rental_uris": {"android": "https://dc.lft.to/lastmile_qr_scan", "ios": "https://dc.lft.to/lastmile_qr_scan"}, "name": "025fdd2530eef4d88a3fead174964a2e", "is_reserved": 0}, {"is_disabled": 0, "fusion_lon": 0.0, "fusion_lat": 0.0, "lat": 38.90784466666667, "type": "electric_scooter", "lon": -77.0408685, "bike_id": "86d74d445e8178066736bb65e4f87b80", "rental_uris": {"android": "https://dc.lft.to/lastmile_qr_scan", "ios": "https://dc.lft.to/lastmile_qr_scan"}, "name": "86d74d445e8178066736bb65e4f87b80", "is_reserved": 0}, {"is_disabled": 0, "fusion_lon": 0.0, "fusion_lat": 0.0, "lat": 38.912563166666665, "type": "electric_scooter", "lon": -77.00930483333333, "bike_id": "7e92ad0a53a52bf691786a251d2ee597", "rental_uris": {"android": "https://dc.lft.to/lastmile_qr_scan", "ios": "https://dc.lft.to/lastmile_qr_scan"}, "name": "7e92ad0a53a52bf691786a251d2ee597", "is_reserved": 0}, {"is_disabled": 0, "fusion_lon": 0.0, "fusion_lat": 0.0, "lat": 38.994559833333334, "type": "electric_bike", "lon": -76.90815016666667, "bike_id": "bb688282881344f3edfbddc6c9dcd2fe", "rental_uris": {"android": "https://dc.lft.to/lastmile_qr_scan", "ios": "https://dc.lft.to/lastmile_qr_scan"}, "name": "bb688282881344f3edfbddc6c9dcd2fe", "is_reserved": 0}, {"is_disabled": 0, "fusion_lon": 0.0, "fusion_lat": 0.0, "lat": 38.880103, "type": "electric_bike", "lon": -76.91593533333334, "bike_id": "8e10269d781db9f50bf4da7b3d1a465f", "rental_uris": {"android": "https://dc.lft.to/lastmile_qr_scan", "ios": "https://dc.lft.to/lastmile_qr_scan"}, "name": "8e10269d781db9f50bf4da7b3d1a465f", "is_reserved": 0}, {"is_disabled": 0, "fusion_lon": 0.0, "fusion_lat": 0.0, "lat": 38.8859285, "type": "electric_scooter", "lon": -77.00576583333333, "bike_id": "cbc2d3ae1ef7256d9f4e9c8b1b8e1732", "rental_uris": {"android": "https://dc.lft.to/lastmile_qr_scan", "ios": "https://dc.lft.to/lastmile_qr_scan"}, "name": "cbc2d3ae1ef7256d9f4e9c8b1b8e1732", "is_reserved": 0}, {"is_disabled": 0, "fusion_lon": 0.0, "fusion_lat": 0.0, "lat": 38.890442, "type": "electric_scooter", "lon": -77.025753, "bike_id": "48f7669cb7bbabf8a02f9c7fe1f5d02c", "rental_uris": {"android": "https://dc.lft.to/lastmile_qr_scan", "ios": "https://dc.lft.to/lastmile_qr_scan"}, "name": "48f7669cb7bbabf8a02f9c7fe1f5d02c", "is_reserved": 0}, {"is_disabled": 0, "fusion_lon": 0.0, "fusion_lat": 0.0, "lat": 38.923982333333335, "type": "electric_scooter", "lon": -77.04099016666666, "bike_id": "b394de7733f797cc969661c1316b0885", "rental_uris": {"android": "https://dc.lft.to/lastmile_qr_scan", "ios": "https://dc.lft.to/lastmile_qr_scan"}, "name": "b394de7733f797cc969661c1316b0885", "is_reserved": 0}, {"is_disabled": 0, "fusion_lon": 0.0, "fusion_lat": 0.0, "lat": 38.91464466666667, "type": "electric_scooter", "lon": -77.027934, "bike_id": "db1ffbbb43294d2b4bb6f511cf6b353d", "rental_uris": {"android": "https://dc.lft.to/lastmile_qr_scan", "ios": "https://dc.lft.to/lastmile_qr_scan"}, "name": "db1ffbbb43294d2b4bb6f511cf6b353d", "is_reserved": 0}, {"is_disabled": 0, "fusion_lon": 0.0, "fusion_lat": 0.0, "lat": 38.86892533333334, "type": "electric_scooter", "lon": -76.98316416666667, "bike_id": "9c91e39cd0166216b3490a6641295683", "rental_uris": {"android": "https://dc.lft.to/lastmile_qr_scan", "ios": "https://dc.lft.to/lastmile_qr_scan"}, "name": "9c91e39cd0166216b3490a6641295683", "is_reserved": 0}, {"is_disabled": 0, "fusion_lon": 0.0, "fusion_lat": 0.0, "lat": 38.859877166666664, "type": "electric_bike", "lon": -76.97051583333334, "bike_id": "a3ec2c5742f21539b2a82c18e98c58dd", "rental_uris": {"android": "https://dc.lft.to/lastmile_qr_scan", "ios": "https://dc.lft.to/lastmile_qr_scan"}, "name": "a3ec2c5742f21539b2a82c18e98c58dd", "is_reserved": 0}, {"is_disabled": 0, "fusion_lon": 0.0, "fusion_lat": 0.0, "lat": 38.90212666666667, "type": "electric_scooter", "lon": -77.0243345, "bike_id": "368e2ce70656b62b86d0ecf2fc88e43a", "rental_uris": {"android": "https://dc.lft.to/lastmile_qr_scan", "ios": "https://dc.lft.to/lastmile_qr_scan"}, "name": "368e2ce70656b62b86d0ecf2fc88e43a", "is_reserved": 0}, {"is_disabled": 0, "fusion_lon": 0.0, "fusion_lat": 0.0, "lat": 38.917123833333335, "type": "electric_scooter", "lon": -77.02441983333334, "bike_id": "9743d8b2c9fee205b5579eeb6d738a9b", "rental_uris": {"android": "https://dc.lft.to/lastmile_qr_scan", "ios": "https://dc.lft.to/lastmile_qr_scan"}, "name": "9743d8b2c9fee205b5579eeb6d738a9b", "is_reserved": 0}, {"is_disabled": 0, "fusion_lon": 0.0, "fusion_lat": 0.0, "lat": 38.886827, "type": "electric_scooter", "lon": -77.00198816666666, "bike_id": "76f43d6296f4ef83eb0e98eb2c3a86a1", "rental_uris": {"android": "https://dc.lft.to/lastmile_qr_scan", "ios": "https://dc.lft.to/lastmile_qr_scan"}, "name": "76f43d6296f4ef83eb0e98eb2c3a86a1", "is_reserved": 0}, {"is_disabled": 0, "fusion_lon": 0.0, "fusion_lat": 0.0, "lat": 38.83195116666667, "type": "electric_bike", "lon": -77.07682366666667, "bike_id": "1e717441642f3314c4695ae03502a1c1", "rental_uris": {"android": "https://dc.lft.to/lastmile_qr_scan", "ios": "https://dc.lft.to/lastmile_qr_scan"}, "name": "1e717441642f3314c4695ae03502a1c1", "is_reserved": 0}, {"is_disabled": 0, "fusion_lon": 0.0, "fusion_lat": 0.0, "lat": 38.925854, "type": "electric_scooter", "lon": -77.05530466666667, "bike_id": "857ec81d6be5dcd5d2831d808b2edc24", "rental_uris": {"android": "https://dc.lft.to/lastmile_qr_scan", "ios": "https://dc.lft.to/lastmile_qr_scan"}, "name": "857ec81d6be5dcd5d2831d808b2edc24", "is_reserved": 0}, {"is_disabled": 0, "fusion_lon": 0.0, "fusion_lat": 0.0, "lat": 38.874816333333335, "type": "electric_scooter", "lon": -77.0106935, "bike_id": "1ea2b97560c4c50785877ba0b379afc4", "rental_uris": {"android": "https://dc.lft.to/lastmile_qr_scan", "ios": "https://dc.lft.to/lastmile_qr_scan"}, "name": "1ea2b97560c4c50785877ba0b379afc4", "is_reserved": 0}, {"is_disabled": 0, "fusion_lon": 0.0, "fusion_lat": 0.0, "lat": 38.951766666666664, "type": "electric_scooter", "lon": -77.0565605, "bike_id": "4c5bc12929e0da7b567db248fe7b4e62", "rental_uris": {"android": "https://dc.lft.to/lastmile_qr_scan", "ios": "https://dc.lft.to/lastmile_qr_scan"}, "name": "4c5bc12929e0da7b567db248fe7b4e62", "is_reserved": 0}, {"is_disabled": 0, "fusion_lon": 0.0, "fusion_lat": 0.0, "lat": 38.82873883333333, "type": "electric_bike", "lon": -77.11224233333333, "bike_id": "a500ffe87db0f02db2cc5bd3200e6300", "rental_uris": {"android": "https://dc.lft.to/lastmile_qr_scan", "ios": "https://dc.lft.to/lastmile_qr_scan"}, "name": "a500ffe87db0f02db2cc5bd3200e6300", "is_reserved": 0}, {"is_disabled": 0, "fusion_lon": 0.0, "fusion_lat": 0.0, "lat": 38.913383, "type": "electric_scooter", "lon": -77.0486235, "bike_id": "9cb44ebb14bf605dc7c438753e140b69", "rental_uris": {"android": "https://dc.lft.to/lastmile_qr_scan", "ios": "https://dc.lft.to/lastmile_qr_scan"}, "name": "9cb44ebb14bf605dc7c438753e140b69", "is_reserved": 0}, {"is_disabled": 0, "fusion_lon": 0.0, "fusion_lat": 0.0, "lat": 38.833203833333336, "type": "electric_scooter", "lon": -77.000066, "bike_id": "ecdc2fa07c0973d82b66c55ef78c746e", "rental_uris": {"android": "https://dc.lft.to/lastmile_qr_scan", "ios": "https://dc.lft.to/lastmile_qr_scan"}, "name": "ecdc2fa07c0973d82b66c55ef78c746e", "is_reserved": 0}, {"is_disabled": 0, "fusion_lon": 0.0, "fusion_lat": 0.0, "lat": 38.928304, "type": "electric_scooter", "lon": -77.03701616666666, "bike_id": "d0360b37fe2a55c9df36cf9d7a6144a3", "rental_uris": {"android": "https://dc.lft.to/lastmile_qr_scan", "ios": "https://dc.lft.to/lastmile_qr_scan"}, "name": "d0360b37fe2a55c9df36cf9d7a6144a3", "is_reserved": 0}, {"is_disabled": 0, "fusion_lon": 0.0, "fusion_lat": 0.0, "lat": 38.9554875, "type": "electric_bike", "lon": -76.93545216666666, "bike_id": "71fb77c970bfdaaac1e3277370278e40", "rental_uris": {"android": "https://dc.lft.to/lastmile_qr_scan", "ios": "https://dc.lft.to/lastmile_qr_scan"}, "name": "71fb77c970bfdaaac1e3277370278e40", "is_reserved": 0}, {"is_disabled": 0, "fusion_lon": 0.0, "fusion_lat": 0.0, "lat": 38.9050425, "type": "electric_scooter", "lon": -77.048036, "bike_id": "282c95dee5685269979a62a029386bbe", "rental_uris": {"android": "https://dc.lft.to/lastmile_qr_scan", "ios": "https://dc.lft.to/lastmile_qr_scan"},