{"data": {"bikes": [{"rental_uris": {"ios": "https://dc.lft.to/lastmile_qr_scan", "android": "https://dc.lft.to/lastmile_qr_scan"}, "type": "electric_bike", "name": "e1b0adc44e6281167e4cd9779356361d", "is_reserved": 0, "lon": -77.1128495, "is_disabled": 0, "fusion_lat": 0.0, "lat": 38.83104, "bike_id": "e1b0adc44e6281167e4cd9779356361d", "fusion_lon": 0.0}, {"rental_uris": {"ios": "https://dc.lft.to/lastmile_qr_scan", "android": "https://dc.lft.to/lastmile_qr_scan"}, "type": "electric_scooter", "name": "2b480cd7f0b044b69432e54632a90fe0", "is_reserved": 0, "lon": -77.03245733333333, "is_disabled": 0, "fusion_lat": 0.0, "lat": 38.91712066666667, "bike_id": "2b480cd7f0b044b69432e54632a90fe0", "fusion_lon": 0.0}, {"rental_uris": {"ios": "https://dc.lft.to/lastmile_qr_scan", "android": "https://dc.lft.to/lastmile_qr_scan"}, "type": "electric_scooter", "name": "62f9d894487f45027d49b8c8a8926475", "is_reserved": 0, "lon": -76.9972845, "is_disabled": 0, "fusion_lat": 0.0, "lat": 38.900612, "bike_id": "62f9d894487f45027d49b8c8a8926475", "fusion_lon": 0.0}, {"rental_uris": {"ios": "https://dc.lft.to/lastmile_qr_scan", "android": "https://dc.lft.to/lastmile_qr_scan"}, "type": "electric_scooter", "name": "b1786b4e9b4e5b7b160f446c80055723", "is_reserved": 0, "lon": -77.06321783333334, "is_disabled": 0, "fusion_lat": 0.0, "lat": 38.913435, "bike_id": "b1786b4e9b4e5b7b160f446c80055723", "fusion_lon": 0.0}, {"rental_uris": {"ios": "https://dc.lft.to/lastmile_qr_scan", "android": "https://dc.lft.to/lastmile_qr_scan"}, "type": "electric_scooter", "name": "738b3fc0426a33ac7274553e2f449a25", "is_reserved": 0, "lon": -77.02115083333334, "is_disabled": 0, "fusion_lat": 0.0, "lat": 38.91740716666666, "bike_id": "738b3fc0426a33ac7274553e2f449a25", "fusion_lon": 0.0}, {"rental_uris": {"ios": "https://dc.lft.to/lastmile_qr_scan", "android": "https://dc.lft.to/lastmile_qr_scan"}, "type": "electric_scooter", "name": "3529d2a63635401de22f8b332655b3c7", "is_reserved": 0, "lon": -77.08780166666666, "is_disabled": 0, "fusion_lat": 0.0, "lat": 38.935600666666666, "bike_id": "3529d2a63635401de22f8b332655b3c7", "fusion_lon": 0.0}, {"rental_uris": {"ios": "https://dc.lft.to/lastmile_qr_scan", "android": "https://dc.lft.to/lastmile_qr_scan"}, "type": "electric_scooter", "name": "a449e7aac04d4e4d6af05a8916cc2431", "is_reserved": 0, "lon": -77.03439266666666, "is_disabled": 0, "fusion_lat": 0.0, "lat": 38.909996, "bike_id": "a449e7aac04d4e4d6af05a8916cc2431", "fusion_lon": 0.0}, {"rental_uris": {"ios": "https://dc.lft.to/lastmile_qr_scan", "android": "https://dc.lft.to/lastmile_qr_scan"}, "type": "electric_scooter", "name": "6f8ce55cc2bf79e428ddec1333ab0973", "is_reserved": 0, "lon": -77.00684466666667, "is_disabled": 0, "fusion_lat": 0.0, "lat": 38.90593366666667, "bike_id": "6f8ce55cc2bf79e428ddec1333ab0973", "fusion_lon": 0.0}, {"rental_uris": {"ios": "https://dc.lft.to/lastmile_qr_scan", "android": "https://dc.lft.to/lastmile_qr_scan"}, "type": "electric_scooter", "name": "5418dddbd37588fb7e3fa6a220e4fd46", "is_reserved": 0, "lon": -76.99595933333333, "is_disabled": 0, "fusion_lat": 0.0, "lat": 38.900302, "bike_id": "5418dddbd37588fb7e3fa6a220e4fd46", "fusion_lon": 0.0}, {"rental_uris": {"ios": "https://dc.lft.to/lastmile_qr_scan", "android": "https://dc.lft.to/lastmile_qr_scan"}, "type": "electric_scooter", "name": "814424d21ef1990a034c6f8a87e44fad", "is_reserved": 0, "lon": -77.04518166666666, "is_disabled": 0, "fusion_lat": 0.0, "lat": 38.907632, "bike_id": "814424d21ef1990a034c6f8a87e44fad", "fusion_lon": 0.0}, {"rental_uris": {"ios": "https://dc.lft.to/lastmile_qr_scan", "android": "https://dc.lft.to/lastmile_qr_scan"}, "type": "electric_scooter", "name": "df9900f8fc84c5b97fd4c43a2e00dc5e", "is_reserved": 0, "lon": -77.03029233333334, "is_disabled": 0, "fusion_lat": 0.0, "lat": 38.92246333333333, "bike_id": "df9900f8fc84c5b97fd4c43a2e00dc5e", "fusion_lon": 0.0}, {"rental_uris": {"ios": "https://dc.lft.to/lastmile_qr_scan", "android": "https://dc.lft.to/lastmile_qr_scan"}, "type": "electric_scooter", "name": "2d4c329b50c56af4a53035d832397a8e", "is_reserved": 0, "lon": -77.02401183333333, "is_disabled": 0, "fusion_lat": 0.0, "lat": 38.9067535, "bike_id": "2d4c329b50c56af4a53035d832397a8e", "fusion_lon": 0.0}, {"rental_uris": {"ios": "https://dc.lft.to/lastmile_qr_scan", "android": "https://dc.lft.to/lastmile_qr_scan"}, "type": "electric_scooter", "name": "186cc7189991de50f5417c426440d6e5", "is_reserved": 0, "lon": -77.03179783333333, "is_disabled": 0, "fusion_lat": 0.0, "lat": 38.919229, "bike_id": "186cc7189991de50f5417c426440d6e5", "fusion_lon": 0.0}, {"rental_uris": {"ios": "https://dc.lft.to/lastmile_qr_scan", "android": "https://dc.lft.to/lastmile_qr_scan"}, "type": "electric_scooter", "name": "ec32e1e7bd5c5252cbd6167c60dd267f", "is_reserved": 0, "lon": -77.0382385, "is_disabled": 0, "fusion_lat": 0.0, "lat": 38.910411, "bike_id": "ec32e1e7bd5c5252cbd6167c60dd267f", "fusion_lon": 0.0}, {"rental_uris": {"ios": "https://dc.lft.to/lastmile_qr_scan", "android": "https://dc.lft.to/lastmile_qr_scan"}, "type": "electric_scooter", "name": "3fbae921dcdd2a695aacda0f3ca00315", "is_reserved": 0, "lon": -77.00937033333334, "is_disabled": 0, "fusion_lat": 0.0, "lat": 38.89994183333334, "bike_id": "3fbae921dcdd2a695aacda0f3ca00315", "fusion_lon": 0.0}, {"rental_uris": {"ios": "https://dc.lft.to/lastmile_qr_scan", "android": "https://dc.lft.to/lastmile_qr_scan"}, "type": "electric_scooter", "name": "7ff7a8a02e52c372788ae1542085a7f2", "is_reserved": 0, "lon": -77.01694266666667, "is_disabled": 0, "fusion_lat": 0.0, "lat": 38.9027535, "bike_id": "7ff7a8a02e52c372788ae1542085a7f2", "fusion_lon": 0.0}, {"rental_uris": {"ios": "https://dc.lft.to/lastmile_qr_scan", "android": "https://dc.lft.to/lastmile_qr_scan"}, "type": "electric_scooter", "name": "380175b8d8891dceb6c496735bd97f62", "is_reserved": 0, "lon": -77.0468915, "is_disabled": 0, "fusion_lat": 0.0, "lat": 38.9216075, "bike_id": "380175b8d8891dceb6c496735bd97f62", "fusion_lon": 0.0}, {"rental_uris": {"ios": "https://dc.lft.to/lastmile_qr_scan", "android": "https://dc.lft.to/lastmile_qr_scan"}, "type": "electric_scooter", "name": "e8c6f51fd456d8d83929962bac666536", "is_reserved": 0, "lon": -77.0036555, "is_disabled": 0, "fusion_lat": 0.0, "lat": 38.8989605, "bike_id": "e8c6f51fd456d8d83929962bac666536", "fusion_lon": 0.0}, {"rental_uris": {"ios": "https://dc.lft.to/lastmile_qr_scan", "android": "https://dc.lft.to/lastmile_qr_scan"}, "type": "electric_scooter", "name": "5cb15fce4fbbaa23ff0fb8d30e554b32", "is_reserved": 0, "lon": -77.03134133333333, "is_disabled": 0, "fusion_lat": 0.0, "lat": 38.92378, "bike_id": "5cb15fce4fbbaa23ff0fb8d30e554b32", "fusion_lon": 0.0}, {"rental_uris": {"ios": "https://dc.lft.to/lastmile_qr_scan", "android": "https://dc.lft.to/lastmile_qr_scan"}, "type": "electric_scooter", "name": "5567a2e1da84c22bbc12122b45939172", "is_reserved": 0, "lon": -77.03354033333333, "is_disabled": 0, "fusion_lat": 0.0, "lat": 38.895366333333335, "bike_id": "5567a2e1da84c22bbc12122b45939172", "fusion_lon": 0.0}, {"rental_uris": {"ios": "https://dc.lft.to/lastmile_qr_scan", "android": "https://dc.lft.to/lastmile_qr_scan"}, "type": "electric_scooter", "name": "fca5311ffda5705a8c1e6cc8ec7090d6", "is_reserved": 0, "lon": -77.04439916666666, "is_disabled": 0, "fusion_lat": 0.0, "lat": 38.901568166666664, "bike_id": "fca5311ffda5705a8c1e6cc8ec7090d6", "fusion_lon": 0.0}, {"rental_uris": {"ios": "https://dc.lft.to/lastmile_qr_scan", "android": "https://dc.lft.to/lastmile_qr_scan"}, "type": "electric_scooter", "name": "03d3eafbad033e4ed6f0248a0e42f975", "is_reserved": 0, "lon": -77.02703516666666, "is_disabled": 0, "fusion_lat": 0.0, "lat": 38.89732866666667, "bike_id": "03d3eafbad033e4ed6f0248a0e42f975", "fusion_lon": 0.0}, {"rental_uris": {"ios": "https://dc.lft.to/lastmile_qr_scan", "android": "https://dc.lft.to/lastmile_qr_scan"}, "type": "electric_scooter", "name": "4e41f2f48b72bc1f0d4f0296297c61ef", "is_reserved": 0, "lon": -77.037751, "is_disabled": 0, "fusion_lat": 0.0, "lat": 38.939749, "bike_id": "4e41f2f48b72bc1f0d4f0296297c61ef", "fusion_lon": 0.0}, {"rental_uris": {"ios": "https://dc.lft.to/lastmile_qr_scan", "android": "https://dc.lft.to/lastmile_qr_scan"}, "type": "electric_bike", "name": "42845a6e9d9b6de18b89fb594c261efa", "is_reserved": 0, "lon": -76.98468216666667, "is_disabled": 0, "fusion_lat": 0.0, "lat": 38.9097225, "bike_id": "42845a6e9d9b6de18b89fb594c261efa", "fusion_lon": 0.0}, {"rental_uris": {"ios": "https://dc.lft.to/lastmile_qr_scan", "android": "https://dc.lft.to/lastmile_qr_scan"}, "type": "electric_scooter", "name": "9be69caac4fac88ca1681acdbc490b00", "is_reserved": 0, "lon": -77.0209535, "is_disabled": 0, "fusion_lat": 0.0, "lat": 38.930156833333335, "bike_id": "9be69caac4fac88ca1681acdbc490b00", "fusion_lon": 0.0}, {"rental_uris": {"ios": "https://dc.lft.to/lastmile_qr_scan", "android": "https://dc.lft.to/lastmile_qr_scan"}, "type": "electric_scooter", "name": "2606005dbafab098818c9cad544f1142", "is_reserved": 0, "lon": -77.01311783333334, "is_disabled": 0, "fusion_lat": 0.0, "lat": 38.906983333333336, "bike_id": "2606005dbafab098818c9cad544f1142", "fusion_lon": 0.0}, {"rental_uris": {"ios": "https://dc.lft.to/lastmile_qr_scan", "android": "https://dc.lft.to/lastmile_qr_scan"}, "type": "electric_scooter", "name": "1d3dbcdb7cc0c5abd044a7634460ee82", "is_reserved": 0, "lon": -77.041825, "is_disabled": 0, "fusion_lat": 0.0, "lat": 38.92057533333333, "bike_id": "1d3dbcdb7cc0c5abd044a7634460ee82", "fusion_lon": 0.0}, {"rental_uris": {"ios": "https://dc.lft.to/lastmile_qr_scan", "android": "https://dc.lft.to/lastmile_qr_scan"}, "type": "electric_scooter", "name": "f186cc10f7ccdf215645936f27f3c0eb", "is_reserved": 0, "lon": -77.0276045, "is_disabled": 0, "fusion_lat": 0.0, "lat": 38.913455, "bike_id": "f186cc10f7ccdf215645936f27f3c0eb", "fusion_lon": 0.0}, {"rental_uris": {"ios": "https://dc.lft.to/lastmile_qr_scan", "android": "https://dc.lft.to/lastmile_qr_scan"}, "type": "electric_scooter", "name": "903a6688cabb7ab69209f8908480be12", "is_reserved": 0, "lon": -77.0611595, "is_disabled": 0, "fusion_lat": 0.0, "lat": 38.905036333333335, "bike_id": "903a6688cabb7ab69209f8908480be12", "fusion_lon": 0.0}, {"rental_uris": {"ios": "https://dc.lft.to/lastmile_qr_scan", "android": "https://dc.lft.to/lastmile_qr_scan"}, "type": "electric_scooter", "name": "f72c3818f4debfb03617526f04124dfe", "is_reserved": 0, "lon": -77.0294175, "is_disabled": 0, "fusion_lat": 0.0, "lat": 38.905061833333335, "bike_id": "f72c3818f4debfb03617526f04124dfe", "fusion_lon": 0.0}, {"rental_uris": {"ios": "https://dc.lft.to/lastmile_qr_scan", "android": "https://dc.lft.to/lastmile_qr_scan"}, "type": "electric_scooter", "name": "dbfa2f1cf1df3504e7b052ee79fd8994", "is_reserved": 0, "lon": -77.02233283333334, "is_disabled": 0, "fusion_lat": 0.0, "lat": 38.89358433333334, "bike_id": "dbfa2f1cf1df3504e7b052ee79fd8994", "fusion_lon": 0.0}, {"rental_uris": {"ios": "https://dc.lft.to/lastmile_qr_scan", "android": "https://dc.lft.to/lastmile_qr_scan"}, "type": "electric_scooter", "name": "7c05da74fb5b42309868f0f3f14995ed", "is_reserved": 0, "lon": -77.02673016666667, "is_disabled": 0, "fusion_lat": 0.0, "lat": 38.98432666666667, "bike_id": "7c05da74fb5b42309868f0f3f14995ed", "fusion_lon": 0.0}, {"rental_uris": {"ios": "https://dc.lft.to/lastmile_qr_scan", "android": "https://dc.lft.to/lastmile_qr_scan"}, "type": "electric_scooter", "name": "f4f0c0fb30efde31e44db9910a0583cf", "is_reserved": 0, "lon": -77.0284435, "is_disabled": 0, "fusion_lat": 0.0, "lat": 38.89221783333333, "bike_id": "f4f0c0fb30efde31e44db9910a0583cf", "fusion_lon": 0.0}, {"rental_uris": {"ios": "https://dc.lft.to/lastmile_qr_scan", "android": "https://dc.lft.to/lastmile_qr_scan"}, "type": "electric_scooter", "name": "360f356a6664f57c7b6937f3ff679c5c", "is_reserved": 0, "lon": -76.98371466666667, "is_disabled": 0, "fusion_lat": 0.0, "lat": 38.866686, "bike_id": "360f356a6664f57c7b6937f3ff679c5c", "fusion_lon": 0.0}, {"rental_uris": {"ios": "https://dc.lft.to/lastmile_qr_scan", "android": "https://dc.lft.to/lastmile_qr_scan"}, "type": "electric_scooter", "name": "bfeee3fe1deebd5ef00e8e4b678609bd", "is_reserved": 0, "lon": -76.99970466666667, "is_disabled": 0, "fusion_lat": 0.0, "lat": 38.886622333333335, "bike_id": "bfeee3fe1deebd5ef00e8e4b678609bd", "fusion_lon": 0.0}, {"rental_uris": {"ios": "https://dc.lft.to/lastmile_qr_scan", "android": "https://dc.lft.to/lastmile_qr_scan"}, "type": "electric_scooter", "name": "69c5cb3df7b6837ba22a4e594f6b1524", "is_reserved": 0, "lon": -77.04046433333333, "is_disabled": 0, "fusion_lat": 0.0, "lat": 38.923151, "bike_id": "69c5cb3df7b6837ba22a4e594f6b1524", "fusion_lon": 0.0}, {"rental_uris": {"ios": "https://dc.lft.to/lastmile_qr_scan", "android": "https://dc.lft.to/lastmile_qr_scan"}, "type": "electric_scooter", "name": "31bab525ba936eab5f960e1a9e7d7518", "is_reserved": 0, "lon": -77.03945766666666, "is_disabled": 0, "fusion_lat": 0.0, "lat": 38.92493233333333, "bike_id": "31bab525ba936eab5f960e1a9e7d7518", "fusion_lon": 0.0}, {"rental_uris": {"ios": "https://dc.lft.to/lastmile_qr_scan", "android": "https://dc.lft.to/lastmile_qr_scan"}, "type": "electric_scooter", "name": "98bf462b16f5681b84a104d31f0f310b", "is_reserved": 0, "lon": -77.05597, "is_disabled": 0, "fusion_lat": 0.0, "lat": 38.93708783333334, "bike_id": "98bf462b16f5681b84a104d31f0f310b", "fusion_lon": 0.0}, {"rental_uris": {"ios": "https://dc.lft.to/lastmile_qr_scan", "android": "https://dc.lft.to/lastmile_qr_scan"}, "type": "electric_scooter", "name": "7de08b5d7fc22d6473cc883d26434980", "is_reserved": 0, "lon": -77.03177666666667, "is_disabled": 0, "fusion_lat": 0.0, "lat": 38.892254666666666, "bike_id": "7de08b5d7fc22d6473cc883d26434980", "fusion_lon": 0.0}, {"rental_uris": {"ios": "https://dc.lft.to/lastmile_qr_scan", "android": "https://dc.lft.to/lastmile_qr_scan"}, "type": "electric_scooter", "name": "0940a60579e20cb5d7fb50dc9c34943f", "is_reserved": 0, "lon": -76.99957116666667, "is_disabled": 0, "fusion_lat": 0.0, "lat": 38.894217166666664, "bike_id": "0940a60579e20cb5d7fb50dc9c34943f", "fusion_lon": 0.0}, {"rental_uris": {"ios": "https://dc.lft.to/lastmile_qr_scan", "android": "https://dc.lft.to/lastmile_qr_scan"}, "type": "electric_scooter", "name": "cc1546df15bf5996022a284be825cb96", "is_reserved": 0, "lon": -77.017919, "is_disabled": 0, "fusion_lat": 0.0, "lat": 38.886062333333335, "bike_id": "cc1546df15bf5996022a284be825cb96", "fusion_lon": 0.0}, {"rental_uris": {"ios": "https://dc.lft.to/lastmile_qr_scan", "android": "https://dc.lft.to/lastmile_qr_scan"}, "type": "electric_bike", "name": "7b84d924fb7142d4d07688e7db2406b1", "is_reserved": 0, "lon": -76.9835415, "is_disabled": 0, "fusion_lat": 0.0, "lat": 38.862599, "bike_id": "7b84d924fb7142d4d07688e7db2406b1", "fusion_lon": 0.0}, {"rental_uris": {"ios": "https://dc.lft.to/lastmile_qr_scan", "android": "https://dc.lft.to/lastmile_qr_scan"}, "type": "electric_scooter", "name": "f641e65488c105d453fe07a64229fd59", "is_reserved": 0, "lon": -77.033451, "is_disabled": 0, "fusion_lat": 0.0, "lat": 38.892402, "bike_id": "f641e65488c105d453fe07a64229fd59", "fusion_lon": 0.0}, {"rental_uris": {"ios": "https://dc.lft.to/lastmile_qr_scan", "android": "https://dc.lft.to/lastmile_qr_scan"}, "type": "electric_scooter", "name": "513f21df7b5b5cb598911350fbb7f3e6", "is_reserved": 0, "lon": -77.02290716666667, "is_disabled": 0, "fusion_lat": 0.0, "lat": 38.91680183333333, "bike_id": "513f21df7b5b5cb598911350fbb7f3e6", "fusion_lon": 0.0}, {"rental_uris": {"ios": "https://dc.lft.to/lastmile_qr_scan", "android": "https://dc.lft.to/lastmile_qr_scan"}, "type": "electric_scooter", "name": "21cb8921fae27fb272ed7ef30a53d038", "is_reserved": 0, "lon": -77.071018, "is_disabled": 0, "fusion_lat": 0.0, "lat": 38.896184, "bike_id": "21cb8921fae27fb272ed7ef30a53d038", "fusion_lon": 0.0}, {"rental_uris": {"ios": "https://dc.lft.to/lastmile_qr_scan", "android": "https://dc.lft.to/lastmile_qr_scan"}, "type": "electric_scooter", "name": "bb3135275a683e1a45c41e62dc11767b", "is_reserved": 0, "lon": -77.04759083333333, "is_disabled": 0, "fusion_lat": 0.0, "lat": 38.905403166666666, "bike_id": "bb3135275a683e1a45c41e62dc11767b", "fusion_lon": 0.0}, {"rental_uris": {"ios": "https://dc.lft.to/lastmile_qr_scan", "android": "https://dc.lft.to/lastmile_qr_scan"}, "type": "electric_bike", "name": "17c85d4dbc9d30fdc0f7d37a8cf8ecdb", "is_reserved": 0, "lon": -76.91805266666667, "is_disabled": 0, "fusion_lat": 0.0, "lat": 39.000000166666666, "bike_id": "17c85d4dbc9d30fdc0f7d37a8cf8ecdb", "fusion_lon": 0.0}, {"rental_uris": {"ios": "https://dc.lft.to/lastmile_qr_scan", "android": "https://dc.lft.to/lastmile_qr_scan"}, "type": "electric_scooter", "name": "9f46a42a3d5ef8ec3561dee174d6af9f", "is_reserved": 0, "lon": -77.043697, "is_disabled": 0, "fusion_lat": 0.0, "lat": 38.903863, "bike_id": "9f46a42a3d5ef8ec3561dee174d6af9f", "fusion_lon": 0.0}, {"rental_uris": {"ios": "https://dc.lft.to/lastmile_qr_scan", "android": "https://dc.lft.to/lastmile_qr_scan"}, "type": "electric_scooter", "name": "ab41bcd529ff76a8ff93567637759812", "is_reserved": 0, "lon": -77.02321466666666, "is_disabled": 0, "fusion_lat": 0.0, "lat": 38.902144666666665, "bike_id": "ab41bcd529ff76a8ff93567637759812", "fusion_lon": 0.0}, {"rental_uris": {"ios": "https://dc.lft.to/lastmile_qr_scan", "android": "https://dc.lft.to/lastmile_qr_scan"}, "type": "electric_scooter", "name": "9c456e03e2ec2d875814fb1d41cf79b7", "is_reserved": 0, "lon": -77.00550316666667, "is_disabled": 0, "fusion_lat": 0.0, "lat": 38.875338, "bike_id": "9c456e03e2ec2d875814fb1d41cf79b7", "fusion_lon": 0.0}, {"rental_uris": {"ios": "https://dc.lft.to/lastmile_qr_scan", "android": "https://dc.lft.to/lastmile_qr_scan"}, "type": "electric_scooter", "name": "bed1351ff6f5375bf744150cbf1039a9", "is_reserved": 0, "lon": -77.0450955, "is_disabled": 0, "fusion_lat": 0.0, "lat": 38.906057, "bike_id": "bed1351ff6f5375bf744150cbf1039a9", "fusion_lon": 0.0}, {"rental_uris": {"ios": "https://dc.lft.to/lastmile_qr_scan", "android": "https://dc.lft.to/lastmile_qr_scan"}, "type": "electric_scooter", "name": "4396a77bda998c1113923a4e0097ba4b", "is_reserved": 0, "lon": -77.050272, "is_disabled": 0, "fusion_lat": 0.0, "lat": 38.90623866666667, "bike_id": "4396a77bda998c1113923a4e0097ba4b", "fusion_lon": 0.0}, {"rental_uris": {"ios": "https://dc.lft.to/lastmile_qr_scan", "android": "https://dc.lft.to/lastmile_qr_scan"}, "type": "electric_scooter", "name": "987e005ac516582e4b873b85507d2e3e", "is_reserved": 0, "lon": -77.02593266666666, "is_disabled": 0, "fusion_lat": 0.0, "lat": 38.963946666666665, "bike_id": "987e005ac516582e4b873b85507d2e3e", "fusion_lon": 0.0}, {"rental_uris": {"ios": "https://dc.lft.to/lastmile_qr_scan", "android": "https://dc.lft.to/lastmile_qr_scan"}, "type": "electric_scooter", "name": "4cea4f2a1407ada2d52345c09a1aa815", "is_reserved": 0, "lon": -76.9329325, "is_disabled": 0, "fusion_lat": 0.0, "lat": 38.89686483333333, "bike_id": "4cea4f2a1407ada2d52345c09a1aa815", "fusion_lon": 0.0}, {"rental_uris": {"ios": "https://dc.lft.to/lastmile_qr_scan", "android": "https://dc.lft.to/lastmile_qr_scan"}, "type": "electric_bike", "name": "8ab98efbd6a9b1ec8c86c95cde2f070f", "is_reserved": 0, "lon": -77.03727666666667, "is_disabled": 0, "fusion_lat": 0.0, "lat": 38.928432666666666, "bike_id": "8ab98efbd6a9b1ec8c86c95cde2f070f", "fusion_lon": 0.0}, {"rental_uris": {"ios": "https://dc.lft.to/lastmile_qr_scan", "android": "https://dc.lft.to/lastmile_qr_scan"}, "type": "electric_scooter", "name": "c0feeef7cad3f0eb26a0d9c6907c082a", "is_reserved": 0, "lon": -77.056268, "is_disabled": 0, "fusion_lat": 0.0, "lat": 38.9243, "bike_id": "c0feeef7cad3f0eb26a0d9c6907c082a", "fusion_lon": 0.0}, {"rental_uris": {"ios": "https://dc.lft.to/lastmile_qr_scan", "android": "https://dc.lft.to/lastmile_qr_scan"}, "type": "electric_scooter", "name": "1b82e086c4f7d567288d5acebbf980f2", "is_reserved": 0, "lon": -77.04196266666666, "is_disabled": 0, "fusion_lat": 0.0, "lat": 38.922028833333336, "bike_id": "1b82e086c4f7d567288d5acebbf980f2", "fusion_lon": 0.0}, {"rental_uris": {"ios": "https://dc.lft.to/lastmile_qr_scan", "android": "https://dc.lft.to/lastmile_qr_scan"}, "type": "electric_bike", "name": "875b5a2228843fd42f2b673090ebd322", "is_reserved": 0, "lon": -77.07584966666667, "is_disabled": 0, "fusion_lat": 0.0, "lat": 38.908819333333334, "bike_id": "875b5a2228843fd42f2b673090ebd322", "fusion_lon": 0.0}, {"rental_uris": {"ios": "https://dc.lft.to/lastmile_qr_scan", "android": "https://dc.lft.to/lastmile_qr_scan"}, "type": "electric_scooter", "name": "2b219c998f533928995fa86b3337655c", "is_reserved": 0, "lon": -77.0404495, "is_disabled": 0, "fusion_lat": 0.0, "lat": 38.9187005, "bike_id": "2b219c998f533928995fa86b3337655c", "fusion_lon": 0.0}, {"rental_uris": {"ios": "https://dc.lft.to/lastmile_qr_scan", "android": "https://dc.lft.to/lastmile_qr_scan"}, "type": "electric_scooter", "name": "487b2f16697f90c5e9c7212b23450ecf", "is_reserved": 0, "lon": -76.98735366666666, "is_disabled": 0, "fusion_lat": 0.0, "lat": 38.84221016666667, "bike_id": "487b2f16697f90c5e9c7212b23450ecf", "fusion_lon": 0.0}, {"rental_uris": {"ios": "https://dc.lft.to/lastmile_qr_scan", "android": "https://dc.lft.to/lastmile_qr_scan"}, "type": "electric_scooter", "name": "03b933ad6625e4be514444b1738e72ba", "is_reserved": 0, "lon": -77.05870383333334, "is_disabled": 0, "fusion_lat": 0.0, "lat": 38.94239533333333, "bike_id": "03b933ad6625e4be514444b1738e72ba", "fusion_lon": 0.0}, {"rental_uris": {"ios": "https://dc.lft.to/lastmile_qr_scan", "android": "https://dc.lft.to/lastmile_qr_scan"}, "type": "electric_scooter", "name": "0e53fd6001abc8d2c2d594c1cce4f6a8", "is_reserved": 0, "lon": -77.06763483333333, "is_disabled": 0, "fusion_lat": 0.0, "lat": 38.904119, "bike_id": "0e53fd6001abc8d2c2d594c1cce4f6a8", "fusion_lon": 0.0}, {"rental_uris": {"ios": "https://dc.lft.to/lastmile_qr_scan", "android": "https://dc.lft.to/lastmile_qr_scan"}, "type": "electric_scooter", "name": "0d754cf1a21c8091141c236607e5fdcb", "is_reserved": 0, "lon": -77.02212983333334, "is_disabled": 0, "fusion_lat": 0.0, "lat": 38.924715666666664, "bike_id": "0d754cf1a21c8091141c236607e5fdcb", "fusion_lon": 0.0}, {"rental_uris": {"ios": "https://dc.lft.to/lastmile_qr_scan", "android": "https://dc.lft.to/lastmile_qr_scan"}, "type": "electric_scooter", "name": "ed17d68117d61ba3691ee9a570b7674b", "is_reserved": 0, "lon": -77.051939, "is_disabled": 0, "fusion_lat": 0.0, "lat": 38.9025915, "bike_id": "ed17d68117d61ba3691ee9a570b7674b", "fusion_lon": 0.0}, {"rental_uris": {"ios": "https://dc.lft.to/lastmile_qr_scan", "android": "https://dc.lft.to/lastmile_qr_scan"}, "type": "electric_scooter", "name": "b45a306c555d0c039158d718a2db43a0", "is_reserved": 0, "lon": -76.929205, "is_disabled": 0, "fusion_lat": 0.0, "lat": 38.886616333333336, "bike_id": "b45a306c555d0c039158d718a2db43a0", "fusion_lon": 0.0}, {"rental_uris": {"ios": "https://dc.lft.to/lastmile_qr_scan", "android": "https://dc.lft.to/lastmile_qr_scan"}, "type": "electric_scooter", "name": "e54efdacc086b23dce8816a8a4ab16db", "is_reserved": 0, "lon": -77.03654566666667, "is_disabled": 0, "fusion_lat": 0.0, "lat": 38.95599166666667, "bike_id": "e54efdacc086b23dce8816a8a4ab16db", "fusion_lon": 0.0}, {"rental_uris": {"ios": "https://dc.lft.to/lastmile_qr_scan", "android": "https://dc.lft.to/lastmile_qr_scan"}, "type": "electric_scooter", "name": "f410318249fdbc0acc89b79049e3cb89", "is_reserved": 0, "lon": -77.02226966666667, "is_disabled": 0, "fusion_lat": 0.0, "lat": 38.8935895, "bike_id": "f410318249fdbc0acc89b79049e3cb89", "fusion_lon": 0.0}, {"rental_uris": {"ios": "https://dc.lft.to/lastmile_qr_scan", "android": "https://dc.lft.to/lastmile_qr_scan"}, "type": "electric_scooter", "name": "fa338fc11599f2dfa7d9373af7bc10a0", "is_reserved": 0, "lon": -76.99557583333333, "is_disabled": 0, "fusion_lat": 0.0, "lat": 38.926753833333336, "bike_id": "fa338fc11599f2dfa7d9373af7bc10a0", "fusion_lon": 0.0}, {"rental_uris": {"ios": "https://dc.lft.to/lastmile_qr_scan", "android": "https://dc.lft.to/lastmile_qr_scan"}, "type": "electric_scooter", "name": "98b52cb100a559cf9f2f736eca0fdd35", "is_reserved": 0, "lon": -77.036641, "is_disabled": 0, "fusion_lat": 0.0, "lat": 38.913914166666665, "bike_id": "98b52cb100a559cf9f2f736eca0fdd35", "fusion_lon": 0.0}, {"rental_uris": {"ios": "https://dc.lft.to/lastmile_qr_scan", "android": "https://dc.lft.to/lastmile_qr_scan"}, "type": "electric_scooter", "name": "028bc98677957f0631f05277326a7727", "is_reserved": 0, "lon": -77.02300883333334, "is_disabled": 0, "fusion_lat": 0.0, "lat": 38.913981666666665, "bike_id": "028bc98677957f0631f05277326a7727", "fusion_lon": 0.0}, {"rental_uris": {"ios": "https://dc.lft.to/lastmile_qr_scan", "android": "https://dc.lft.to/lastmile_qr_scan"}, "type": "electric_scooter", "name": "ba7ca62f969535376c0ee6f7c8c00b78", "is_reserved": 0, "lon": -77.04248433333333, "is_disabled": 0, "fusion_lat": 0.0, "lat": 38.922504333333336, "bike_id": "ba7ca62f969535376c0ee6f7c8c00b78", "fusion_lon": 0.0}, {"rental_uris": {"ios": "https://dc.lft.to/lastmile_qr_scan", "android": "https://dc.lft.to/lastmile_qr_scan"}, "type": "electric_scooter", "name": "5cc49e3989a75ebf12754e26fa9381c9", "is_reserved": 0, "lon": -76.978014, "is_disabled": 0, "fusion_lat": 0.0, "lat": 38.903146, "bike_id": "5cc49e3989a75ebf12754e26fa9381c9", "fusion_lon": 0.0}, {"rental_uris": {"ios": "https://dc.lft.to/lastmile_qr_scan", "android": "https://dc.lft.to/lastmile_qr_scan"}, "type": "electric_scooter", "name": "bb5c66f0c3df0b2de602daf28c2c2be5", "is_reserved": 0, "lon": -77.04505133333333, "is_disabled": 0, "fusion_lat": 0.0, "lat": 38.919364333333334, "bike_id": "bb5c66f0c3df0b2de602daf28c2c2be5", "fusion_lon": 0.0}, {"rental_uris": {"ios": "https://dc.lft.to/lastmile_qr_scan", "android": "https://dc.lft.to/lastmile_qr_scan"}, "type": "electric_scooter", "name": "5d9507ec60562a102de0a4c205fdb044", "is_reserved": 0, "lon": -77.02391416666667, "is_disabled": 0, "fusion_lat": 0.0, "lat": 38.91965316666667, "bike_id": "5d9507ec60562a102de0a4c205fdb044", "fusion_lon": 0.0}, {"rental_uris": {"ios": "https://dc.lft.to/lastmile_qr_scan", "android": "https://dc.lft.to/lastmile_qr_scan"}, "type": "electric_scooter", "name": "59e600410b019240e2d0c36ae310068a", "is_reserved": 0, "lon": -77.0491525, "is_disabled": 0, "fusion_lat": 0.0, "lat": 38.91042183333333, "bike_id": "59e600410b019240e2d0c36ae310068a", "fusion_lon": 0.0}, {"rental_uris": {"ios": "https://dc.lft.to/lastmile_qr_scan", "android": "https://dc.lft.to/lastmile_qr_scan"}, "type": "electric_scooter", "name": "5a2dacf9d331cb60eeeeca2e0b4453cd", "is_reserved": 0, "lon": -77.01804, "is_disabled": 0, "fusion_lat": 0.0, "lat": 38.919725666666665, "bike_id": "5a2dacf9d331cb60eeeeca2e0b4453cd", "fusion_lon": 0.0}, {"rental_uris": {"ios": "https://dc.lft.to/lastmile_qr_scan", "android": "https://dc.lft.to/lastmile_qr_scan"}, "type": "electric_scooter", "name": "e2ec68f52e61bcee86c3ddac7d06986a", "is_reserved": 0, "lon": -77.04505416666667, "is_disabled": 0, "fusion_lat": 0.0, "lat": 38.892251, "bike_id": "e2ec68f52e61bcee86c3ddac7d06986a", "fusion_lon": 0.0}, {"rental_uris": {"ios": "https://dc.lft.to/lastmile_qr_scan", "android": "https://dc.lft.to/lastmile_qr_scan"}, "type": "electric_scooter", "name": "123344303c14833b63b01b01626451c8", "is_reserved": 0, "lon": -77.01432833333334, "is_disabled": 0, "fusion_lat": 0.0, "lat": 38.91467883333333, "bike_id": "123344303c14833b63b01b01626451c8", "fusion_lon": 0.0}, {"rental_uris": {"ios": "https://dc.lft.to/lastmile_qr_scan", "android": "https://dc.lft.to/lastmile_qr_scan"}, "type": "electric_scooter", "name": "07c85b30b11b3aa898d6a3bf4ac76f37", "is_reserved": 0, "lon": -77.07356616666667, "is_disabled": 0, "fusion_lat": 0.0, "lat": 38.93733016666667, "bike_id": "07c85b30b11b3aa898d6a3bf4ac76f37", "fusion_lon": 0.0}, {"rental_uris": {"ios": "https://dc.lft.to/lastmile_qr_scan", "android": "https://dc.lft.to/lastmile_qr_scan"}, "type": "electric_scooter", "name": "b1f3fc0907f38713a89c8239aeb9ee72", "is_reserved": 0, "lon": -77.06703516666667, "is_disabled": 0, "fusion_lat": 0.0, "lat": 38.94792566666667, "bike_id": "b1f3fc0907f38713a89c8239aeb9ee72", "fusion_lon": 0.0}, {"rental_uris": {"ios": "https://dc.lft.to/lastmile_qr_scan", "android": "https://dc.lft.to/lastmile_qr_scan"}, "type": "electric_scooter", "name": "f58911f7f1d45e9ae9140d6a3d3fc673", "is_reserved": 0, "lon": -77.02130466666667, "is_disabled": 0, "fusion_lat": 0.0, "lat": 38.92496383333334, "bike_id": "f58911f7f1d45e9ae9140d6a3d3fc673", "fusion_lon": 0.0}, {"rental_uris": {"ios": "https://dc.lft.to/lastmile_qr_scan", "android": "https://dc.lft.to/lastmile_qr_scan"}, "type": "electric_scooter", "name": "ce254878a33c4cae0174563980b64e2d", "is_reserved": 0, "lon": -77.03789566666667, "is_disabled": 0, "fusion_lat": 0.0, "lat": 38.9311455, "bike_id": "ce254878a33c4cae0174563980b64e2d", "fusion_lon": 0.0}, {"rental_uris": {"ios": "https://dc.lft.to/lastmile_qr_scan", "android": "https://dc.lft.to/lastmile_qr_scan"}, "type": "electric_bike", "name": "1ab6826fe58115a1854196b858673e9b", "is_reserved": 0, "lon": -76.94545716666667, "is_disabled": 0, "fusion_lat": 0.0, "lat": 38.98300316666667, "bike_id": "1ab6826fe58115a1854196b858673e9b", "fusion_lon": 0.0}, {"rental_uris": {"ios": "https://dc.lft.to/lastmile_qr_scan", "android": "https://dc.lft.to/lastmile_qr_scan"}, "type": "electric_bike", "name": "c2becd3ebdc7dbf960d0a79f413d5c27", "is_reserved": 0, "lon": -76.95240916666667, "is_disabled": 0, "fusion_lat": 0.0, "lat": 38.884644333333334, "bike_id": "c2becd3ebdc7dbf960d0a79f413d5c27", "fusion_lon": 0.0}, {"rental_uris": {"ios": "https://dc.lft.to/lastmile_qr_scan", "android": "https://dc.lft.to/lastmile_qr_scan"}, "type": "electric_scooter", "name": "45cb43645a1ceca0c0b566aa4dd2ef97", "is_reserved": 0, "lon": -77.0144305, "is_disabled": 0, "fusion_lat": 0.0, "lat": 38.91116233333333, "bike_id": "45cb43645a1ceca0c0b566aa4dd2ef97", "fusion_lon": 0.0}, {"rental_uris": {"ios": "https://dc.lft.to/lastmile_qr_scan", "android": "https://dc.lft.to/lastmile_qr_scan"}, "type": "electric_scooter", "name": "48b492e28504f85ebdc3af924dcd9988", "is_reserved": 0, "lon": -77.08397366666667, "is_disabled": 0, "fusion_lat": 0.0, "lat": 38.9080385, "bike_id": "48b492e28504f85ebdc3af924dcd9988", "fusion_lon": 0.0}, {"rental_uris": {"ios": "https://dc.lft.to/lastmile_qr_scan", "android": "https://dc.lft.to/lastmile_qr_scan"}, "type": "electric_scooter", "name": "9a0f44082c523158c01917d52c3ebbcc", "is_reserved": 0, "lon": -77.04378033333333, "is_disabled": 0, "fusion_lat": 0.0, "lat": 38.934975333333334, "bike_id": "9a0f44082c523158c01917d52c3ebbcc", "fusion_lon": 0.0}, {"rental_uris": {"ios": "https://dc.lft.to/lastmile_qr_scan", "android": "https://dc.lft.to/lastmile_qr_scan"}, "type": "electric_bike", "name": "818d14ec60da3ae9ea2c838671c040ff", "is_reserved": 0, "lon": -77.07524416666666, "is_disabled": 0, "fusion_lat": 0.0, "lat": 38.84288766666667, "bike_id": "818d14ec60da3ae9ea2c838671c040ff", "fusion_lon": 0.0}, {"rental_uris": {"ios": "https://dc.lft.to/lastmile_qr_scan", "android": "https://dc.lft.to/lastmile_qr_scan"}, "type": "electric_scooter", "name": "107f0732563c8212a13329c8afe22a61", "is_reserved": 0, "lon": -77.010508, "is_disabled": 0, "fusion_lat": 0.0, "lat": 38.916483666666664, "bike_id": "107f0732563c8212a13329c8afe22a61", "fusion_lon": 0.0}, {"rental_uris": {"ios": "https://dc.lft.to/lastmile_qr_scan", "android": "https://dc.lft.to/lastmile_qr_scan"}, "type": "electric_scooter", "name": "8a5c16e02825fe66ef52bbff300440f2", "is_reserved": 0, "lon": -77.03714216666667, "is_disabled": 0, "fusion_lat": 0.0, "lat": 38.926552666666666, "bike_id": "8a5c16e02825fe66ef52bbff300440f2", "fusion_lon": 0.0}, {"rental_uris": {"ios": "https://dc.lft.to/lastmile_qr_scan", "android": "https://dc.lft.to/lastmile_qr_scan"}, "type": "electric_scooter", "name": "9dd1088554f838d2a4cb2ef03001e8b7", "is_reserved": 0, "lon": -76.93473566666667, "is_disabled": 0, "fusion_lat": 0.0, "lat": 38.89506933333333, "bike_id": "9dd1088554f838d2a4cb2ef03001e8b7", "fusion_lon": 0.0}, {"rental_uris": {"ios": "https://dc.lft.to/lastmile_qr_scan", "android": "https://dc.lft.to/lastmile_qr_scan"}, "type": "electric_scooter", "name": "d8f154534fd49bbe66d49317a4d2db2e", "is_reserved": 0, "lon": -77.04338866666667, "is_disabled": 0, "fusion_lat": 0.0, "lat": 38.90735183333334, "bike_id": "d8f154534fd49bbe66d49317a4d2db2e", "fusion_lon": 0.0}, {"rental_uris": {"ios": "https://dc.lft.to/lastmile_qr_scan", "android": "https://dc.lft.to/lastmile_qr_scan"}, "type": "electric_scooter", "name": "38b9a0e52609eba9171116c9f6304c2c", "is_reserved": 0, "lon": -77.06561066666667, "is_disabled": 0, "fusion_lat": 0.0, "lat": 38.948057, "bike_id": "38b9a0e52609eba9171116c9f6304c2c", "fusion_lon": 0.0}, {"rental_uris": {"ios": "https://dc.lft.to/lastmile_qr_scan", "android": "https://dc.lft.to/lastmile_qr_scan"}, "type": "electric_bike", "name": "3bc4e5a8cc385b21ad2175bb7cc4712f", "is_reserved": 0, "lon": -77.12730066666667, "is_disabled": 0, "fusion_lat": 0.0, "lat": 38.895633333333336, "bike_id": "3bc4e5a8cc385b21ad2175bb7cc4712f", "fusion_lon": 0.0}, {"rental_uris": {"ios": "https://dc.lft.to/lastmile_qr_scan", "android": "https://dc.lft.to/lastmile_qr_scan"}, "type": "electric_bike", "name": "57fcd7c9bc0a01d4b18da1d29dba7043", "is_reserved": 0, "lon": -77.01228833333333, "is_disabled": 0, "fusion_lat": 0.0, "lat": 38.950914, "bike_id": "57fcd7c9bc0a01d4b18da1d29dba7043", "fusion_lon": 0.0}, {"rental_uris": {"ios": "https://dc.lft.to/lastmile_qr_scan", "android": "https://dc.lft.to/lastmile_qr_scan"}, "type": "electric_scooter", "name": "65727c0127e8bad7c20443248dd967a2", "is_reserved": 0, "lon": -77.0321835, "is_disabled": 0, "fusion_lat": 0.0, "lat": 38.91674, "bike_id": "65727c0127e8bad7c20443248dd967a2", "fusion_lon": 0.0}, {"rental_uris": {"ios": "https://dc.lft.to/lastmile_qr_scan", "android": "https://dc.lft.to/lastmile_qr_scan"}, "type": "electric_scooter", "name": "a5b20f18c76ff3e0120033be614f0cef", "is_reserved": 0, "lon": -77.04685183333333, "is_disabled": 0, "fusion_lat": 0.0, "lat": 38.902851, "bike_id": "a5b20f18c76ff3e0120033be614f0cef", "fusion_lon": 0.0}, {"rental_uris": {"ios": "https://dc.lft.to/lastmile_qr_scan", "android": "https://dc.lft.to/lastmile_qr_scan"}, "type": "electric_bike", "name": "86fa63242c6254bb3f76c98adebd25ed", "is_reserved": 0, "lon": -76.94973533333334, "is_disabled": 0, "fusion_lat": 0.0, "lat": 38.883053333333336, "bike_id": "86fa63242c6254bb3f76c98adebd25ed", "fusion_lon": 0.0}, {"rental_uris": {"ios": "https://dc.lft.to/lastmile_qr_scan", "android": "https://dc.lft.to/lastmile_qr_scan"}, "type": "electric_scooter", "name": "87b63577aebd974681e86f2155ff8119", "is_reserved": 0, "lon": -77.0353505, "is_disabled": 0, "fusion_lat": 0.0, "lat": 38.923396833333335, "bike_id": "87b63577aebd974681e86f2155ff8119", "fusion_lon": 0.0}, {"rental_uris": {"ios": "https://dc.lft.to/lastmile_qr_scan", "android": "https://dc.lft.to/lastmile_qr_scan"}, "type": "electric_scooter", "name": "177147febcd63a71043c9eb63b29df03", "is_reserved": 0, "lon": -77.02721033333333, "is_disabled": 0, "fusion_lat": 0.0, "lat": 38.9248525, "bike_id": "177147febcd63a71043c9eb63b29df03", "fusion_lon": 0.0}, {"rental_uris": {"ios": "https://dc.lft.to/lastmile_qr_scan", "android": "https://dc.lft.to/lastmile_qr_scan"}, "type": "electric_scooter", "name": "4f72d264db7d811566b99360ec1acd0d", "is_reserved": 0, "lon": -77.0483235, "is_disabled": 0, "fusion_lat": 0.0, "lat": 38.9211465, "bike_id": "4f72d264db7d811566b99360ec1acd0d", "fusion_lon": 0.0}, {"rental_uris": {"ios": "https://dc.lft.to/lastmile_qr_scan", "android": "https://dc.lft.to/lastmile_qr_scan"}, "type": "electric_scooter", "name": "31df954dfa3e7f8f4c67eace6629dc17", "is_reserved": 0, "lon": -77.00498716666667, "is_disabled": 0, "fusion_lat": 0.0, "lat": 38.9441515, "bike_id": "31df954dfa3e7f8f4c67eace6629dc17", "fusion_lon": 0.0}, {"rental_uris": {"ios": "https://dc.lft.to/lastmile_qr_scan", "android": "https://dc.lft.to/lastmile_qr_scan"}, "type": "electric_scooter", "name": "2558c3b7bafaa01f46a4047765b1a4c5", "is_reserved": 0, "lon": -77.0176695, "is_disabled": 0, "fusion_lat": 0.0, "lat": 38.887306, "bike_id": "2558c3b7bafaa01f46a4047765b1a4c5", "fusion_lon": 0.0}, {"rental_uris": {"ios": "https://dc.lft.to/lastmile_qr_scan", "android": "https://dc.lft.to/lastmile_qr_scan"}, "type": "electric_scooter", "name": "ec02a2dfb845a4d7e06ac33d1bb4b4be", "is_reserved": 0, "lon": -77.03867033333333, "is_disabled": 0, "fusion_lat": 0.0, "lat": 38.932478333333336, "bike_id": "ec02a2dfb845a4d7e06ac33d1bb4b4be", "fusion_lon": 0.0}, {"rental_uris": {"ios": "https://dc.lft.to/lastmile_qr_scan", "android": "https://dc.lft.to/lastmile_qr_scan"}, "type": "electric_scooter", "name": "a15eaa8903bc14e3707e7ef80ddc1e78", "is_reserved": 0, "lon": -77.03194066666667, "is_disabled": 0, "fusion_lat": 0.0, "lat": 38.909969, "bike_id": "a15eaa8903bc14e3707e7ef80ddc1e78", "fusion_lon": 0.0}, {"rental_uris": {"ios": "https://dc.lft.to/lastmile_qr_scan", "android": "https://dc.lft.to/lastmile_qr_scan"}, "type": "electric_scooter", "name": "c551eda13161c3571ed968a3ed5ab411", "is_reserved": 0, "lon": -77.01767466666666, "is_disabled": 0, "fusion_lat": 0.0, "lat": 38.90272683333333, "bike_id": "c551eda13161c3571ed968a3ed5ab411", "fusion_lon": 0.0}, {"rental_uris": {"ios": "https://dc.lft.to/lastmile_qr_scan", "android": "https://dc.lft.to/lastmile_qr_scan"}, "type": "electric_scooter", "name": "c230e090f7235ecebabf545e61c9371b", "is_reserved": 0, "lon": -76.99032483333333, "is_disabled": 0, "fusion_lat": 0.0, "lat": 38.89852716666667, "bike_id": "c230e090f7235ecebabf545e61c9371b", "fusion_lon": 0.0}, {"rental_uris": {"ios": "https://dc.lft.to/lastmile_qr_scan", "android": "https://dc.lft.to/lastmile_qr_scan"}, "type": "electric_scooter", "name": "f4df0f05b9eebb390a7d40fed59ba804", "is_reserved": 0, "lon": -77.00715366666667, "is_disabled": 0, "fusion_lat": 0.0, "lat": 38.9057995, "bike_id": "f4df0f05b9eebb390a7d40fed59ba804", "fusion_lon": 0.0}, {"rental_uris": {"ios": "https://dc.lft.to/lastmile_qr_scan", "android": "https://dc.lft.to/lastmile_qr_scan"}, "type": "electric_scooter", "name": "cd4e00614e4114c8b584b29cc889e3f0", "is_reserved": 0, "lon": -77.03844116666667, "is_disabled": 0, "fusion_lat": 0.0, "lat": 38.915465833333336, "bike_id": "cd4e00614e4114c8b584b29cc889e3f0", "fusion_lon": 0.0}, {"rental_uris": {"ios": "https://dc.lft.to/lastmile_qr_scan", "android": "https://dc.lft.to/lastmile_qr_scan"}, "type": "electric_scooter", "name": "6a99bda2f5ea8919ec0834ea2f6de8eb", "is_reserved": 0, "lon": -77.00187916666667, "is_disabled": 0, "fusion_lat": 0.0, "lat": 38.903856, "bike_id": "6a99bda2f5ea8919ec0834ea2f6de8eb", "fusion_lon": 0.0}, {"rental_uris": {"ios": "https://dc.lft.to/lastmile_qr_scan", "android": "https://dc.lft.to/lastmile_qr_scan"}, "type": "electric_scooter", "name": "e2fca863b875aaeddc826877993af9ce", "is_reserved": 0, "lon": -77.03975483333333, "is_disabled": 0, "fusion_lat": 0.0, "lat": 38.8986055, "bike_id": "e2fca863b875aaeddc826877993af9ce", "fusion_lon": 0.0}, {"rental_uris": {"ios": "https://dc.lft.to/lastmile_qr_scan", "android": "https://dc.lft.to/lastmile_qr_scan"}, "type": "electric_scooter", "name": "b652f4932fff2b165cbe97ea9abdde35", "is_reserved": 0, "lon": -77.03552166666667, "is_disabled": 0, "fusion_lat": 0.0, "lat": 38.9084405, "bike_id": "b652f4932fff2b165cbe97ea9abdde35", "fusion_lon": 0.0}, {"rental_uris": {"ios": "https://dc.lft.to/lastmile_qr_scan", "android": "https://dc.lft.to/lastmile_qr_scan"}, "type": "electric_scooter", "name": "eb2dd7a7e25ff949232c7d877d8adc5b", "is_reserved": 0, "lon": -77.025569, "is_disabled": 0, "fusion_lat": 0.0, "lat": 38.93874616666667, "bike_id": "eb2dd7a7e25ff949232c7d877d8adc5b", "fusion_lon": 0.0}, {"rental_uris": {"ios": "https://dc.lft.to/lastmile_qr_scan", "android": "https://dc.lft.to/lastmile_qr_scan"}, "type": "electric_bike", "name": "a7fc268111551372ff0112c516024f41", "is_reserved": 0, "lon": -77.12703316666666, "is_disabled": 0, "fusion_lat": 0.0, "lat": 38.895753, "bike_id": "a7fc268111551372ff0112c516024f41", "fusion_lon": 0.0}, {"rental_uris": {"ios": "https://dc.lft.to/lastmile_qr_scan", "android": "https://dc.lft.to/lastmile_qr_scan"}, "type": "electric_scooter", "name": "cf886c9a24dec88773c6910317727231", "is_reserved": 0, "lon": -76.98584266666667, "is_disabled": 0, "fusion_lat": 0.0, "lat": 38.861876333333335, "bike_id": "cf886c9a24dec88773c6910317727231", "fusion_lon": 0.0}, {"rental_uris": {"ios": "https://dc.lft.to/lastmile_qr_scan", "android": "https://dc.lft.to/lastmile_qr_scan"}, "type": "electric_scooter", "name": "8967452d9b47619ff0552f88e1d5ac35", "is_reserved": 0, "lon": -77.00756983333333, "is_disabled": 0, "fusion_lat": 0.0, "lat": 38.925313, "bike_id": "8967452d9b47619ff0552f88e1d5ac35", "fusion_lon": 0.0}, {"rental_uris": {"ios": "https://dc.lft.to/lastmile_qr_scan", "android": "https://dc.lft.to/lastmile_qr_scan"}, "type": "electric_bike", "name": "aa3bf70bc5362e75122cf9e6d543c6da", "is_reserved": 0, "lon": -77.09012716666666, "is_disabled": 0, "fusion_lat": 0.0, "lat": 38.926596, "bike_id": "aa3bf70bc5362e75122cf9e6d543c6da", "fusion_lon": 0.0}, {"rental_uris": {"ios": "https://dc.lft.to/lastmile_qr_scan", "android": "https://dc.lft.to/lastmile_qr_scan"}, "type": "electric_scooter", "name": "2c1272db71f70e4f6a50537927e39687", "is_reserved": 0, "lon": -76.95881, "is_disabled": 0, "fusion_lat": 0.0, "lat": 38.858459, "bike_id": "2c1272db71f70e4f6a50537927e39687", "fusion_lon": 0.0}, {"rental_uris": {"ios": "https://dc.lft.to/lastmile_qr_scan", "android": "https://dc.lft.to/lastmile_qr_scan"}, "type": "electric_scooter", "name": "19c9d39279fc63698fc1ef637301480a", "is_reserved": 0, "lon": -77.04181083333333, "is_disabled": 0, "fusion_lat": 0.0, "lat": 38.9184825, "bike_id": "19c9d39279fc63698fc1ef637301480a", "fusion_lon": 0.0}, {"rental_uris": {"ios": "https://dc.lft.to/lastmile_qr_scan", "android": "https://dc.lft.to/lastmile_qr_scan"}, "type": "electric_bike", "name": "d374bcd2aa8b549de6884dadfca00524", "is_reserved": 0, "lon": -76.95692516666666, "is_disabled": 0, "fusion_lat": 0.0, "lat": 38.850901, "bike_id": "d374bcd2aa8b549de6884dadfca00524", "fusion_lon": 0.0}, {"rental_uris": {"ios": "https://dc.lft.to/lastmile_qr_scan", "android": "https://dc.lft.to/lastmile_qr_scan"}, "type": "electric_scooter", "name": "2cb0a8aa0b7b57ce1aeef38538bc0adc", "is_reserved": 0, "lon": -77.0250775, "is_disabled": 0, "fusion_lat": 0.0, "lat": 38.898465333333334, "bike_id": "2cb0a8aa0b7b57ce1aeef38538bc0adc", "fusion_lon": 0.0}, {"rental_uris": {"ios": "https://dc.lft.to/lastmile_qr_scan", "android": "https://dc.lft.to/lastmile_qr_scan"}, "type": "electric_scooter", "name": "a94448b0dabc758cc63f5cd4905b3810", "is_reserved": 0, "lon": -77.02020416666667, "is_disabled": 0, "fusion_lat": 0.0, "lat": 38.8994485, "bike_id": "a94448b0dabc758cc63f5cd4905b3810", "fusion_lon": 0.0}, {"rental_uris": {"ios": "https://dc.lft.to/lastmile_qr_scan", "android": "https://dc.lft.to/lastmile_qr_scan"}, "type": "electric_scooter", "name": "7a9756f9cd8b4f3b7d73a26a81ef38c3", "is_reserved": 0, "lon": -77.030511, "is_disabled": 0, "fusion_lat": 0.0, "lat": 38.924755, "bike_id": "7a9756f9cd8b4f3b7d73a26a81ef38c3", "fusion_lon": 0.0}, {"rental_uris": {"ios": "https://dc.lft.to/lastmile_qr_scan", "android": "https://dc.lft.to/lastmile_qr_scan"}, "type": "electric_scooter", "name": "b0e3b3719fbfe7fc338c8ff3a89c916c", "is_reserved": 0, "lon": -76.95208516666666, "is_disabled": 0, "fusion_lat": 0.0, "lat": 38.90513083333333, "bike_id": "b0e3b3719fbfe7fc338c8ff3a89c916c", "fusion_lon": 0.0}, {"rental_uris": {"ios": "https://dc.lft.to/lastmile_qr_scan", "android": "https://dc.lft.to/lastmile_qr_scan"}, "type": "electric_scooter", "name": "28b8572ae8a8fd1f7fcfc3368f09f808", "is_reserved": 0, "lon": -77.02068383333334, "is_disabled": 0, "fusion_lat": 0.0, "lat": 38.924011666666665, "bike_id": "28b8572ae8a8fd1f7fcfc3368f09f808", "fusion_lon": 0.0}, {"rental_uris": {"ios": "https://dc.lft.to/lastmile_qr_scan", "android": "https://dc.lft.to/lastmile_qr_scan"}, "type": "electric_scooter", "name": "b582a435d3393af1b51e8b6262781572", "is_reserved": 0, "lon": -77.05530283333333, "is_disabled": 0, "fusion_lat": 0.0, "lat": 38.90005416666666, "bike_id": "b582a435d3393af1b51e8b6262781572", "fusion_lon": 0.0}, {"rental_uris": {"ios": "https://dc.lft.to/lastmile_qr_scan", "android": "https://dc.lft.to/lastmile_qr_scan"}, "type": "electric_scooter", "name": "d58b4ef8fe3686aed0e5a50630de49c9", "is_reserved": 0, "lon": -76.9992835, "is_disabled": 0, "fusion_lat": 0.0, "lat": 38.95764066666667, "bike_id": "d58b4ef8fe3686aed0e5a50630de49c9", "fusion_lon": 0.0}, {"rental_uris": {"ios": "https://dc.lft.to/lastmile_qr_scan", "android": "https://dc.lft.to/lastmile_qr_scan"}, "type": "electric_scooter", "name": "06cd2a1cb26e5dc8ae322d10d92a1403", "is_reserved": 0, "lon": -77.0291955, "is_disabled": 0, "fusion_lat": 0.0, "lat": 38.900004, "bike_id": "06cd2a1cb26e5dc8ae322d10d92a1403", "fusion_lon": 0.0}, {"rental_uris": {"ios": "https://dc.lft.to/lastmile_qr_scan", "android": "https://dc.lft.to/lastmile_qr_scan"}, "type": "electric_scooter", "name": "38596ebf48923cc57be7baad4f70e75d", "is_reserved": 0, "lon": -77.0078135, "is_disabled": 0, "fusion_lat": 0.0, "lat": 38.897374166666665, "bike_id": "38596ebf48923cc57be7baad4f70e75d", "fusion_lon": 0.0}, {"rental_uris": {"ios": "https://dc.lft.to/lastmile_qr_scan", "android": "https://dc.lft.to/lastmile_qr_scan"}, "type": "electric_scooter", "name": "1862fb0ce89a6bf2c1ddc655a30d1b99", "is_reserved": 0, "lon": -77.04401716666666, "is_disabled": 0, "fusion_lat": 0.0, "lat": 38.929536166666665, "bike_id": "1862fb0ce89a6bf2c1ddc655a30d1b99", "fusion_lon": 0.0}, {"rental_uris": {"ios": "https://dc.lft.to/lastmile_qr_scan", "android": "https://dc.lft.to/lastmile_qr_scan"}, "type": "electric_scooter", "name": "9e798e23f754e0adb38a53a911bd24f9", "is_reserved": 0, "lon": -77.01364933333333, "is_disabled": 0, "fusion_lat": 0.0, "lat": 38.89582166666667, "bike_id": "9e798e23f754e0adb38a53a911bd24f9", "fusion_lon": 0.0}, {"rental_uris": {"ios": "https://dc.lft.to/lastmile_qr_scan", "android": "https://dc.lft.to/lastmile_qr_scan"}, "type": "electric_bike", "name": "bfeb857509a13aabe31fdfead3df9540", "is_reserved": 0, "lon": -76.99660166666666, "is_disabled": 0, "fusion_lat": 0.0, "lat": 38.93233733333334, "bike_id": "bfeb857509a13aabe31fdfead3df9540", "fusion_lon": 0.0}, {"rental_uris": {"ios": "https://dc.lft.to/lastmile_qr_scan", "android": "https://dc.lft.to/lastmile_qr_scan"}, "type": "electric_scooter", "name": "b84ed7b1009521aad3a8b8f82875eb58", "is_reserved": 0, "lon": -77.04275883333334, "is_disabled": 0, "fusion_lat": 0.0, "lat": 38.9045225, "bike_id": "b84ed7b1009521aad3a8b8f82875eb58", "fusion_lon": 0.0}, {"rental_uris": {"ios": "https://dc.lft.to/lastmile_qr_scan", "android": "https://dc.lft.to/lastmile_qr_scan"}, "type": "electric_scooter", "name": "ea4b2218e0c256b016fc97acb08ed50d", "is_reserved": 0, "lon": -77.0121175, "is_disabled": 0, "fusion_lat": 0.0, "lat": 38.921252833333334, "bike_id": "ea4b2218e0c256b016fc97acb08ed50d", "fusion_lon": 0.0}, {"rental_uris": {"ios": "https://dc.lft.to/lastmile_qr_scan", "android": "https://dc.lft.to/lastmile_qr_scan"}, "type": "electric_scooter", "name": "7ef4335a37ee386528acbcc0666a4d82", "is_reserved": 0, "lon": -77.0413875, "is_disabled": 0, "fusion_lat": 0.0, "lat": 38.907253, "bike_id": "7ef4335a37ee386528acbcc0666a4d82", "fusion_lon": 0.0}, {"rental_uris": {"ios": "https://dc.lft.to/lastmile_qr_scan", "android": "https://dc.lft.to/lastmile_qr_scan"}, "type": "electric_bike", "name": "675a28781c423fef8b6480b965c99005", "is_reserved": 0, "lon": -76.93665766666666, "is_disabled": 0, "fusion_lat": 0.0, "lat": 38.89456033333333, "bike_id": "675a28781c423fef8b6480b965c99005", "fusion_lon": 0.0}, {"rental_uris": {"ios": "https://dc.lft.to/lastmile_qr_scan", "android": "https://dc.lft.to/lastmile_qr_scan"}, "type": "electric_scooter", "name": "beb9553289194f75c5336a74fe1c4103", "is_reserved": 0, "lon": -76.99567783333333, "is_disabled": 0, "fusion_lat": 0.0, "lat": 38.8847365, "bike_id": "beb9553289194f75c5336a74fe1c4103", "fusion_lon": 0.0}, {"rental_uris": {"ios": "https://dc.lft.to/lastmile_qr_scan", "android": "https://dc.lft.to/lastmile_qr_scan"}, "type": "electric_scooter", "name": "7ddccecc247df1468b6acc7f200f0a8c", "is_reserved": 0, "lon": -77.0467625, "is_disabled": 0, "fusion_lat": 0.0, "lat": 38.892326833333335, "bike_id": "7ddccecc247df1468b6acc7f200f0a8c", "fusion_lon": 0.0}, {"rental_uris": {"ios": "https://dc.lft.to/lastmile_qr_scan", "android": "https://dc.lft.to/lastmile_qr_scan"}, "type": "electric_scooter", "name": "eb6836c6389c4f27e0c5a24e085672f3", "is_reserved": 0, "lon": -77.0275815, "is_disabled": 0, "fusion_lat": 0.0, "lat": 38.95619933333333, "bike_id": "eb6836c6389c4f27e0c5a24e085672f3", "fusion_lon": 0.0}, {"rental_uris": {"ios": "https://dc.lft.to/lastmile_qr_scan", "android": "https://dc.lft.to/lastmile_qr_scan"}, "type": "electric_bike", "name": "d2cb43f0b627c36503b6c75b8e321ece", "is_reserved": 0, "lon": -76.9626675, "is_disabled": 0, "fusion_lat": 0.0, "lat": 38.967879833333335, "bike_id": "d2cb43f0b627c36503b6c75b8e321ece", "fusion_lon": 0.0}, {"rental_uris": {"ios": "https://dc.lft.to/lastmile_qr_scan", "android": "https://dc.lft.to/lastmile_qr_scan"}, "type": "electric_bike", "name": "370e39a7a80bc07da22b0d93900d42eb", "is_reserved": 0, "lon": -77.02523533333333, "is_disabled": 0, "fusion_lat": 0.0, "lat": 38.940351666666665, "bike_id": "370e39a7a80bc07da22b0d93900d42eb", "fusion_lon": 0.0}, {"rental_uris": {"ios": "https://dc.lft.to/lastmile_qr_scan", "android": "https://dc.lft.to/lastmile_qr_scan"}, "type": "electric_scooter", "name": "d7f882fc4c5dc5eba34375cf6d10eddd", "is_reserved": 0, "lon": -77.01209983333334, "is_disabled": 0, "fusion_lat": 0.0, "lat": 38.91196716666666, "bike_id": "d7f882fc4c5dc5eba34375cf6d10eddd", "fusion_lon": 0.0}, {"rental_uris": {"ios": "https://dc.lft.to/lastmile_qr_scan", "android": "https://dc.lft.to/lastmile_qr_scan"}, "type": "electric_scooter", "name": "adf5d6e5490d84ebeaf6b98cd992ac53", "is_reserved": 0, "lon": -76.98509166666666, "is_disabled": 0, "fusion_lat": 0.0, "lat": 38.879947666666666, "bike_id": "adf5d6e5490d84ebeaf6b98cd992ac53", "fusion_lon": 0.0}, {"rental_uris": {"ios": "https://dc.lft.to/lastmile_qr_scan", "android": "https://dc.lft.to/lastmile_qr_scan"}, "type": "electric_scooter", "name": "82358649db172e70ff2d9f26a4284bd2", "is_reserved": 0, "lon": -77.04003316666666, "is_disabled": 0, "fusion_lat": 0.0, "lat": 38.9038005, "bike_id": "82358649db172e70ff2d9f26a4284bd2", "fusion_lon": 0.0}, {"rental_uris": {"ios": "https://dc.lft.to/lastmile_qr_scan", "android": "https://dc.lft.to/lastmile_qr_scan"}, "type": "electric_scooter", "name": "862a209d93169a206a5b6335764f102f", "is_reserved": 0, "lon": -77.04586433333333, "is_disabled": 0, "fusion_lat": 0.0, "lat": 38.90230733333333, "bike_id": "862a209d93169a206a5b6335764f102f", "fusion_lon": 0.0}, {"rental_uris": {"ios": "https://dc.lft.to/lastmile_qr_scan", "android": "https://dc.lft.to/lastmile_qr_scan"}, "type": "electric_scooter", "name": "2819d88db9ae8d37cd77988f9e8456c3", "is_reserved": 0, "lon": -77.03844233333334, "is_disabled": 0, "fusion_lat": 0.0, "lat": 38.91041766666667, "bike_id": "2819d88db9ae8d37cd77988f9e8456c3", "fusion_lon": 0.0}, {"rental_uris": {"ios": "https://dc.lft.to/lastmile_qr_scan", "android": "https://dc.lft.to/lastmile_qr_scan"}, "type": "electric_bike", "name": "3ce0540d00266ea98e26d3dc386a3de3", "is_reserved": 0, "lon": -77.1062735, "is_disabled": 0, "fusion_lat": 0.0, "lat": 38.87325716666667, "bike_id": "3ce0540d00266ea98e26d3dc386a3de3", "fusion_lon": 0.0}, {"rental_uris": {"ios": "https://dc.lft.to/lastmile_qr_scan", "android": "https://dc.lft.to/lastmile_qr_scan"}, "type": "electric_scooter", "name": "5ea06377e9e78a477231e5ea0a61df28", "is_reserved": 0, "lon": -76.92306466666666, "is_disabled": 0, "fusion_lat": 0.0, "lat": 38.89394383333333, "bike_id": "5ea06377e9e78a477231e5ea0a61df28", "fusion_lon": 0.0}, {"rental_uris": {"ios": "https://dc.lft.to/lastmile_qr_scan", "android": "https://dc.lft.to/lastmile_qr_scan"}, "type": "electric_scooter", "name": "c49a848e6cdeedd8ea3014b544cc8d6a", "is_reserved": 0, "lon": -77.027056, "is_disabled": 0, "fusion_lat": 0.0, "lat": 38.9053575, "bike_id": "c49a848e6cdeedd8ea3014b544cc8d6a", "fusion_lon": 0.0}, {"rental_uris": {"ios": "https://dc.lft.to/lastmile_qr_scan", "android": "https://dc.lft.to/lastmile_qr_scan"}, "type": "electric_scooter", "name": "cf6f089a103197824c92d4b91dac2aad", "is_reserved": 0, "lon": -77.0244545, "is_disabled": 0, "fusion_lat": 0.0, "lat": 38.94981533333333, "bike_id": "cf6f089a103197824c92d4b91dac2aad", "fusion_lon": 0.0}, {"rental_uris": {"ios": "https://dc.lft.to/lastmile_qr_scan", "android": "https://dc.lft.to/lastmile_qr_scan"}, "type": "electric_scooter", "name": "0cb763ce98d786cf4fb61e12264b7928", "is_reserved": 0, "lon": -77.03206766666666, "is_disabled": 0, "fusion_lat": 0.0, "lat": 38.892358333333334, "bike_id": "0cb763ce98d786cf4fb61e12264b7928", "fusion_lon": 0.0}, {"rental_uris": {"ios": "https://dc.lft.to/lastmile_qr_scan", "android": "https://dc.lft.to/lastmile_qr_scan"}, "type": "electric_scooter", "name": "989db38f147af5df3a03299d10174ae6", "is_reserved": 0, "lon": -77.0740415, "is_disabled": 0, "fusion_lat": 0.0, "lat": 38.89727333333333, "bike_id": "989db38f147af5df3a03299d10174ae6", "fusion_lon": 0.0}, {"rental_uris": {"ios": "https://dc.lft.to/lastmile_qr_scan", "android": "https://dc.lft.to/lastmile_qr_scan"}, "type": "electric_scooter", "name": "274e4c6943d7c8b68feef6439f2cd908", "is_reserved": 0, "lon": -77.034922, "is_disabled": 0, "fusion_lat": 0.0, "lat": 38.932786, "bike_id": "274e4c6943d7c8b68feef6439f2cd908", "fusion_lon": 0.0}, {"rental_uris": {"ios": "https://dc.lft.to/lastmile_qr_scan", "android": "https://dc.lft.to/lastmile_qr_scan"}, "type": "electric_scooter", "name": "f5e515f456ed02888a913d86ab9feff5", "is_reserved": 0, "lon": -76.9886145, "is_disabled": 0, "fusion_lat": 0.0, "lat": 38.9002985, "bike_id": "f5e515f456ed02888a913d86ab9feff5", "fusion_lon": 0.0}, {"rental_uris": {"ios": "https://dc.lft.to/lastmile_qr_scan", "android": "https://dc.lft.to/lastmile_qr_scan"}, "type": "electric_scooter", "name": "849de3fcf94f3909dbc41ef38253cb51", "is_reserved": 0, "lon": -77.0212045, "is_disabled": 0, "fusion_lat": 0.0, "lat": 38.92408183333333, "bike_id": "849de3fcf94f3909dbc41ef38253cb51", "fusion_lon": 0.0}, {"rental_uris": {"ios": "https://dc.lft.to/lastmile_qr_scan", "android": "https://dc.lft.to/lastmile_qr_scan"}, "type": "electric_scooter", "name": "48816db96553ca860b7915eca59cfeb5", "is_reserved": 0, "lon": -77.0149965, "is_disabled": 0, "fusion_lat": 0.0, "lat": 38.92666233333333, "bike_id": "48816db96553ca860b7915eca59cfeb5", "fusion_lon": 0.0}, {"rental_uris": {"ios": "https://dc.lft.to/lastmile_qr_scan", "android": "https://dc.lft.to/lastmile_qr_scan"}, "type": "electric_scooter", "name": "fb21b307691b438eb71da260345c430f", "is_reserved": 0, "lon": -76.986526, "is_disabled": 0, "fusion_lat": 0.0, "lat": 38.905426, "bike_id": "fb21b307691b438eb71da260345c430f", "fusion_lon": 0.0}, {"rental_uris": {"ios": "https://dc.lft.to/lastmile_qr_scan", "android": "https://dc.lft.to/lastmile_qr_scan"}, "type": "electric_scooter", "name": "f666ee01cefa5d3e2eba32bd9217f726", "is_reserved": 0, "lon": -77.00403783333333, "is_disabled": 0, "fusion_lat": 0.0, "lat": 38.87935216666666, "bike_id": "f666ee01cefa5d3e2eba32bd9217f726", "fusion_lon": 0.0}, {"rental_uris": {"ios": "https://dc.lft.to/lastmile_qr_scan", "android": "https://dc.lft.to/lastmile_qr_scan"}, "type": "electric_bike", "name": "78207ac6ce8ba78d2af07a982f062448", "is_reserved": 0, "lon": -77.07402533333334, "is_disabled": 0, "fusion_lat": 0.0, "lat": 38.91442683333333, "bike_id": "78207ac6ce8ba78d2af07a982f062448", "fusion_lon": 0.0}, {"rental_uris": {"ios": "https://dc.lft.to/lastmile_qr_scan", "android": "https://dc.lft.to/lastmile_qr_scan"}, "type": "electric_scooter", "name": "00c07215da7484e762aece4750c7941b", "is_reserved": 0, "lon": -77.047456, "is_disabled": 0, "fusion_lat": 0.0, "lat": 38.900712666666664, "bike_id": "00c07215da7484e762aece4750c7941b", "fusion_lon": 0.0}, {"rental_uris": {"ios": "https://dc.lft.to/lastmile_qr_scan", "android": "https://dc.lft.to/lastmile_qr_scan"}, "type": "electric_scooter", "name": "36fab9246e04d8ca26f5197dddf8e7de", "is_reserved": 0, "lon": -77.021996, "is_disabled": 0, "fusion_lat": 0.0, "lat": 38.91140383333333, "bike_id": "36fab9246e04d8ca26f5197dddf8e7de", "fusion_lon": 0.0}, {"rental_uris": {"ios": "https://dc.lft.to/lastmile_qr_scan", "android": "https://dc.lft.to/lastmile_qr_scan"}, "type": "electric_scooter", "name": "b0e336cbcb541dc6d3495c9cff6067f1", "is_reserved": 0, "lon": -77.04999183333334, "is_disabled": 0, "fusion_lat": 0.0, "lat": 38.892365833333336, "bike_id": "b0e336cbcb541dc6d3495c9cff6067f1", "fusion_lon": 0.0}, {"rental_uris": {"ios": "https://dc.lft.to/lastmile_qr_scan", "android": "https://dc.lft.to/lastmile_qr_scan"}, "type": "electric_scooter", "name": "1cdc112bc50260da3074a389e29fa103", "is_reserved": 0, "lon": -77.01101216666666, "is_disabled": 0, "fusion_lat": 0.0, "lat": 38.88539983333333, "bike_id": "1cdc112bc50260da3074a389e29fa103", "fusion_lon": 0.0}, {"rental_uris": {"ios": "https://dc.lft.to/lastmile_qr_scan", "android": "https://dc.lft.to/lastmile_qr_scan"}, "type": "electric_scooter", "name": "a95ec84e2177bd9a88ce9b0d74e0ce0c", "is_reserved": 0, "lon": -77.0149605, "is_disabled": 0, "fusion_lat": 0.0, "lat": 38.8922355, "bike_id": "a95ec84e2177bd9a88ce9b0d74e0ce0c", "fusion_lon": 0.0}, {"rental_uris": {"ios": "https://dc.lft.to/lastmile_qr_scan", "android": "https://dc.lft.to/lastmile_qr_scan"}, "type": "electric_scooter", "name": "f9aaf7e116b4f6c1c7707c690f4eb9a6", "is_reserved": 0, "lon": -77.01221016666666, "is_disabled": 0, "fusion_lat": 0.0, "lat": 38.92038066666667, "bike_id": "f9aaf7e116b4f6c1c7707c690f4eb9a6", "fusion_lon": 0.0}, {"rental_uris": {"ios": "https://dc.lft.to/lastmile_qr_scan", "android": "https://dc.lft.to/lastmile_qr_scan"}, "type": "electric_scooter", "name": "aab1af26121b3b88f55bcfac6da69835", "is_reserved": 0, "lon": -77.02952233333333, "is_disabled": 0, "fusion_lat": 0.0, "lat": 38.88411583333333, "bike_id": "aab1af26121b3b88f55bcfac6da69835", "fusion_lon": 0.0}, {"rental_uris": {"ios": "https://dc.lft.to/lastmile_qr_scan", "android": "https://dc.lft.to/lastmile_qr_scan"}, "type": "electric_scooter", "name": "b190fa7f12365b07fe7bd9177194799d", "is_reserved": 0, "lon": -77.00205233333334, "is_disabled": 0, "fusion_lat": 0.0, "lat": 38.900216, "bike_id": "b190fa7f12365b07fe7bd9177194799d", "fusion_lon": 0.0}, {"rental_uris": {"ios": "https://dc.lft.to/lastmile_qr_scan", "android": "https://dc.lft.to/lastmile_qr_scan"}, "type": "electric_scooter", "name": "3551dd208f601792f96725bbdda91fad", "is_reserved": 0, "lon": -77.03572683333333, "is_disabled": 0, "fusion_lat": 0.0, "lat": 38.906381333333336, "bike_id": "3551dd208f601792f96725bbdda91fad", "fusion_lon": 0.0}, {"rental_uris": {"ios": "https://dc.lft.to/lastmile_qr_scan", "android": "https://dc.lft.to/lastmile_qr_scan"}, "type": "electric_scooter", "name": "99feef01440950b1e2d0e21cd9c96cb7", "is_reserved": 0, "lon": -77.02150066666667, "is_disabled": 0, "fusion_lat": 0.0, "lat": 38.902182333333336, "bike_id": "99feef01440950b1e2d0e21cd9c96cb7", "fusion_lon": 0.0}, {"rental_uris": {"ios": "https://dc.lft.to/lastmile_qr_scan", "android": "https://dc.lft.to/lastmile_qr_scan"}, "type": "electric_scooter", "name": "8aacbbefb3d59d4755f287e9a3f630de", "is_reserved": 0, "lon": -77.0020015, "is_disabled": 0, "fusion_lat": 0.0, "lat": 38.90246033333333, "bike_id": "8aacbbefb3d59d4755f287e9a3f630de", "fusion_lon": 0.0}, {"rental_uris": {"ios": "https://dc.lft.to/lastmile_qr_scan", "android": "https://dc.lft.to/lastmile_qr_scan"}, "type": "electric_scooter", "name": "c48a96228f2d2aa9d0af8c67444cf00e", "is_reserved": 0, "lon": -77.04727516666667, "is_disabled": 0, "fusion_lat": 0.0, "lat": 38.903901, "bike_id": "c48a96228f2d2aa9d0af8c67444cf00e", "fusion_lon": 0.0}, {"rental_uris": {"ios": "https://dc.lft.to/lastmile_qr_scan", "android": "https://dc.lft.to/lastmile_qr_scan"}, "type": "electric_bike", "name": "d972aba5ff51ab15165815651ab23ad1", "is_reserved": 0, "lon": -76.990307, "is_disabled": 0, "fusion_lat": 0.0, "lat": 38.8977755, "bike_id": "d972aba5ff51ab15165815651ab23ad1", "fusion_lon": 0.0}, {"rental_uris": {"ios": "https://dc.lft.to/lastmile_qr_scan", "android": "https://dc.lft.to/lastmile_qr_scan"}, "type": "electric_bike", "name": "7a10a8e348724873946fb8927e148dc2", "is_reserved": 0, "lon": -76.96100083333333, "is_disabled": 0, "fusion_lat": 0.0, "lat": 38.94967233333333, "bike_id": "7a10a8e348724873946fb8927e148dc2", "fusion_lon": 0.0}, {"rental_uris": {"ios": "https://dc.lft.to/lastmile_qr_scan", "android": "https://dc.lft.to/lastmile_qr_scan"}, "type": "electric_scooter", "name": "fdc31ccbfc7b8d256b570854fbda4b89", "is_reserved": 0, "lon": -77.03910416666666, "is_disabled": 0, "fusion_lat": 0.0, "lat": 38.908333666666664, "bike_id": "fdc31ccbfc7b8d256b570854fbda4b89", "fusion_lon": 0.0}, {"rental_uris": {"ios": "https://dc.lft.to/lastmile_qr_scan", "android": "https://dc.lft.to/lastmile_qr_scan"}, "type": "electric_scooter", "name": "0008f1dd493296e3a7a581dff8e85e98", "is_reserved": 0, "lon": -77.00530433333333, "is_disabled": 0, "fusion_lat": 0.0, "lat": 38.88508933333333, "bike_id": "0008f1dd493296e3a7a581dff8e85e98", "fusion_lon": 0.0}, {"rental_uris": {"ios": "https://dc.lft.to/lastmile_qr_scan", "android": "https://dc.lft.to/lastmile_qr_scan"}, "type": "electric_bike", "name": "1425e617416b4e0e3fcd4a8dbf2cabe0", "is_reserved": 0, "lon": -76.957958, "is_disabled": 0, "fusion_lat": 0.0, "lat": 38.980481833333336, "bike_id": "1425e617416b4e0e3fcd4a8dbf2cabe0", "fusion_lon": 0.0}, {"rental_uris": {"ios": "https://dc.lft.to/lastmile_qr_scan", "android": "https://dc.lft.to/lastmile_qr_scan"}, "type": "electric_scooter", "name": "0b372ffcaa4a5606d8c3ff3748741070", "is_reserved": 0, "lon": -76.97566316666666, "is_disabled": 0, "fusion_lat": 0.0, "lat": 38.94424866666667, "bike_id": "0b372ffcaa4a5606d8c3ff3748741070", "fusion_lon": 0.0}, {"rental_uris": {"ios": "https://dc.lft.to/lastmile_qr_scan", "android": "https://dc.lft.to/lastmile_qr_scan"}, "type": "electric_scooter", "name": "f4744eae2cc01eaeebe007b4d36e5c3f", "is_reserved": 0, "lon": -77.0418625, "is_disabled": 0, "fusion_lat": 0.0, "lat": 38.920543, "bike_id": "f4744eae2cc01eaeebe007b4d36e5c3f", "fusion_lon": 0.0}, {"rental_uris": {"ios": "https://dc.lft.to/lastmile_qr_scan", "android": "https://dc.lft.to/lastmile_qr_scan"}, "type": "electric_scooter", "name": "56c05e0ff44cb3f585e6386433e3f3ac", "is_reserved": 0, "lon": -77.0263495, "is_disabled": 0, "fusion_lat": 0.0, "lat": 38.903139333333336, "bike_id": "56c05e0ff44cb3f585e6386433e3f3ac", "fusion_lon": 0.0}, {"rental_uris": {"ios": "https://dc.lft.to/lastmile_qr_scan", "android": "https://dc.lft.to/lastmile_qr_scan"}, "type": "electric_scooter", "name": "18d3bba9d5872966dd52b1af12896465", "is_reserved": 0, "lon": -77.02923083333333, "is_disabled": 0, "fusion_lat": 0.0, "lat": 38.90918083333333, "bike_id": "18d3bba9d5872966dd52b1af12896465", "fusion_lon": 0.0}, {"rental_uris": {"ios": "https://dc.lft.to/lastmile_qr_scan", "android": "https://dc.lft.to/lastmile_qr_scan"}, "type": "electric_scooter", "name": "911102ab95582014bb439f63c86c9b4e", "is_reserved": 0, "lon": -77.03221716666667, "is_disabled": 0, "fusion_lat": 0.0, "lat": 38.9086865, "bike_id": "911102ab95582014bb439f63c86c9b4e", "fusion_lon": 0.0}, {"rental_uris": {"ios": "https://dc.lft.to/lastmile_qr_scan", "android": "https://dc.lft.to/lastmile_qr_scan"}, "type": "electric_scooter", "name": "4391f8e0d82503171657a638a9f18931", "is_reserved": 0, "lon": -76.99792383333333, "is_disabled": 0, "fusion_lat": 0.0, "lat": 38.876330333333335, "bike_id": "4391f8e0d82503171657a638a9f18931", "fusion_lon": 0.0}, {"rental_uris": {"ios": "https://dc.lft.to/lastmile_qr_scan", "android": "https://dc.lft.to/lastmile_qr_scan"}, "type": "electric_scooter", "name": "feb95f5593dc0a016d78bf482de5bc61", "is_reserved": 0, "lon": -77.077608, "is_disabled": 0, "fusion_lat": 0.0, "lat": 38.925541833333334, "bike_id": "feb95f5593dc0a016d78bf482de5bc61", "fusion_lon": 0.0}, {"rental_uris": {"ios": "https://dc.lft.to/lastmile_qr_scan", "android": "https://dc.lft.to/lastmile_qr_scan"}, "type": "electric_scooter", "name": "58a4876bca6284be359698ec24153696", "is_reserved": 0, "lon": -77.0221875, "is_disabled": 0, "fusion_lat": 0.0, "lat": 38.924716, "bike_id": "58a4876bca6284be359698ec24153696", "fusion_lon": 0.0}, {"rental_uris": {"ios": "https://dc.lft.to/lastmile_qr_scan", "android": "https://dc.lft.to/lastmile_qr_scan"}, "type": "electric_bike", "name": "25191e04e61af4fb499bb0e4e3bbea99", "is_reserved": 0, "lon": -77.00135183333333, "is_disabled": 0, "fusion_lat": 0.0, "lat": 38.99500666666667, "bike_id": "25191e04e61af4fb499bb0e4e3bbea99", "fusion_lon": 0.0}, {"rental_uris": {"ios": "https://dc.lft.to/lastmile_qr_scan", "android": "https://dc.lft.to/lastmile_qr_scan"}, "type": "electric_scooter", "name": "d5d60ac43e73f3274c1bb588647d59b1", "is_reserved": 0, "lon": -77.03460733333333, "is_disabled": 0, "fusion_lat": 0.0, "lat": 38.901050833333336, "bike_id": "d5d60ac43e73f3274c1bb588647d59b1", "fusion_lon": 0.0}, {"rental_uris": {"ios": "https://dc.lft.to/lastmile_qr_scan", "android": "https://dc.lft.to/lastmile_qr_scan"}, "type": "electric_bike", "name": "f2360401a1ebe32cbe512891514c90c1", "is_reserved": 0, "lon": -76.9876605, "is_disabled": 0, "fusion_lat": 0.0, "lat": 38.857723166666666, "bike_id": "f2360401a1ebe32cbe512891514c90c1", "fusion_lon": 0.0}, {"rental_uris": {"ios": "https://dc.lft.to/lastmile_qr_scan", "android": "https://dc.lft.to/lastmile_qr_scan"}, "type": "electric_scooter", "name": "3670f5f7a0813e1f327332a463d14786", "is_reserved": 0, "lon": -77.04612416666667, "is_disabled": 0, "fusion_lat": 0.0, "lat": 38.90977316666667, "bike_id": "3670f5f7a0813e1f327332a463d14786", "fusion_lon": 0.0}, {"rental_uris": {"ios": "https://dc.lft.to/lastmile_qr_scan", "android": "https://dc.lft.to/lastmile_qr_scan"}, "type": "electric_scooter", "name": "b9e846bb9a333f0dac36099245dd314a", "is_reserved": 0, "lon": -77.02988083333334, "is_disabled": 0, "fusion_lat": 0.0, "lat": 38.917091666666664, "bike_id": "b9e846bb9a333f0dac36099245dd314a", "fusion_lon": 0.0}, {"rental_uris": {"ios": "https://dc.lft.to/lastmile_qr_scan", "android": "https://dc.lft.to/lastmile_qr_scan"}, "type": "electric_scooter", "name": "23dea05486bd81432f3d8ac7a2e38f41", "is_reserved": 0, "lon": -77.02433433333333, "is_disabled": 0, "fusion_lat": 0.0, "lat": 38.899279166666666, "bike_id": "23dea05486bd81432f3d8ac7a2e38f41", "fusion_lon": 0.0}, {"rental_uris": {"ios": "https://dc.lft.to/lastmile_qr_scan", "android": "https://dc.lft.to/lastmile_qr_scan"}, "type": "electric_scooter", "name": "55b9485814e5505b45edf8e5e27f758f", "is_reserved": 0, "lon": -77.01764366666667, "is_disabled": 0, "fusion_lat": 0.0, "lat": 38.883137166666664, "bike_id": "55b9485814e5505b45edf8e5e27f758f", "fusion_lon": 0.0}, {"rental_uris": {"ios": "https://dc.lft.to/lastmile_qr_scan", "android": "https://dc.lft.to/lastmile_qr_scan"}, "type": "electric_scooter", "name": "3b50a019ae83f11323ed2ea11541a8dd", "is_reserved": 0, "lon": -76.98832466666667, "is_disabled": 0, "fusion_lat": 0.0, "lat": 38.89501633333333, "bike_id": "3b50a019ae83f11323ed2ea11541a8dd", "fusion_lon": 0.0}, {"rental_uris": {"ios": "https://dc.lft.to/lastmile_qr_scan", "android": "https://dc.lft.to/lastmile_qr_scan"}, "type": "electric_bike", "name": "b60be567113ff5503f84f9fefc24d076", "is_reserved": 0, "lon": -76.99013683333334, "is_disabled": 0, "fusion_lat": 0.0, "lat": 38.954799, "bike_id": "b60be567113ff5503f84f9fefc24d076", "fusion_lon": 0.0}, {"rental_uris": {"ios": "https://dc.lft.to/lastmile_qr_scan", "android": "https://dc.lft.to/lastmile_qr_scan"}, "type": "electric_scooter", "name": "020076e5d051aaabccdc7d4c3c62863c", "is_reserved": 0, "lon": -77.04505983333334, "is_disabled": 0, "fusion_lat": 0.0, "lat": 38.892262333333335, "bike_id": "020076e5d051aaabccdc7d4c3c62863c", "fusion_lon": 0.0}, {"rental_uris": {"ios": "https://dc.lft.to/lastmile_qr_scan", "android": "https://dc.lft.to/lastmile_qr_scan"}, "type": "electric_scooter", "name": "c44f772e533c2076ef59ca296eb89820", "is_reserved": 0, "lon": -77.01758066666666, "is_disabled": 0, "fusion_lat": 0.0, "lat": 38.90266583333333, "bike_id": "c44f772e533c2076ef59ca296eb89820", "fusion_lon": 0.0}, {"rental_uris": {"ios": "https://dc.lft.to/lastmile_qr_scan", "android": "https://dc.lft.to/lastmile_qr_scan"}, "type": "electric_scooter", "name": "7ead8f1a802f96b4659582bae87f8372", "is_reserved": 0, "lon": -77.00175033333333, "is_disabled": 0, "fusion_lat": 0.0, "lat": 38.900216666666665, "bike_id": "7ead8f1a802f96b4659582bae87f8372", "fusion_lon": 0.0}, {"rental_uris": {"ios": "https://dc.lft.to/lastmile_qr_scan", "android": "https://dc.lft.to/lastmile_qr_scan"}, "type": "electric_scooter", "name": "810e90e8c28bcce0464edbc55937f402", "is_reserved": 0, "lon": -77.03355733333333, "is_disabled": 0, "fusion_lat": 0.0, "lat": 38.9223575, "bike_id": "810e90e8c28bcce0464edbc55937f402", "fusion_lon": 0.0}, {"rental_uris": {"ios": "https://dc.lft.to/lastmile_qr_scan", "android": "https://dc.lft.to/lastmile_qr_scan"}, "type": "electric_scooter", "name": "9d60385ccb09babdf50d07ed8e24e33c", "is_reserved": 0, "lon": -77.04569616666667, "is_disabled": 0, "fusion_lat": 0.0, "lat": 38.9141155, "bike_id": "9d60385ccb09babdf50d07ed8e24e33c", "fusion_lon": 0.0}, {"rental_uris": {"ios": "https://dc.lft.to/lastmile_qr_scan", "android": "https://dc.lft.to/lastmile_qr_scan"}, "type": "electric_scooter", "name": "56b9603abc3f3ae6009ee84060af24d6", "is_reserved": 0, "lon": -77.00710266666667, "is_disabled": 0, "fusion_lat": 0.0, "lat": 38.884899, "bike_id": "56b9603abc3f3ae6009ee84060af24d6", "fusion_lon": 0.0}, {"rental_uris": {"ios": "https://dc.lft.to/lastmile_qr_scan", "android": "https://dc.lft.to/lastmile_qr_scan"}, "type": "electric_scooter", "name": "c3dc4baa650cc9e89710f7938229cd07", "is_reserved": 0, "lon": -77.01218683333333, "is_disabled": 0, "fusion_lat": 0.0, "lat": 38.876701, "bike_id": "c3dc4baa650cc9e89710f7938229cd07", "fusion_lon": 0.0}, {"rental_uris": {"ios": "https://dc.lft.to/lastmile_qr_scan", "android": "https://dc.lft.to/lastmile_qr_scan"}, "type": "electric_scooter", "name": "ea5500fb637a5715ebefff2dad56df9f", "is_reserved": 0, "lon": -77.03208016666666, "is_disabled": 0, "fusion_lat": 0.0, "lat": 38.90785566666667, "bike_id": "ea5500fb637a5715ebefff2dad56df9f", "fusion_lon": 0.0}, {"rental_uris": {"ios": "https://dc.lft.to/lastmile_qr_scan", "android": "https://dc.lft.to/lastmile_qr_scan"}, "type": "electric_bike", "name": "2ba021e71d3bb01fd366bab693eb8882", "is_reserved": 0, "lon": -77.00673466666667, "is_disabled": 0, "fusion_lat": 0.0, "lat": 38.94519866666667, "bike_id": "2ba021e71d3bb01fd366bab693eb8882", "fusion_lon": 0.0}, {"rental_uris": {"ios": "https://dc.lft.to/lastmile_qr_scan", "android": "https://dc.lft.to/lastmile_qr_scan"}, "type": "electric_scooter", "name": "253c2c3a70a287a0afdd3fe35610cbc0", "is_reserved": 0, "lon": -77.051173, "is_disabled": 0, "fusion_lat": 0.0, "lat": 38.89758116666667, "bike_id": "253c2c3a70a287a0afdd3fe35610cbc0", "fusion_lon": 0.0}, {"rental_uris": {"ios": "https://dc.lft.to/lastmile_qr_scan", "android": "https://dc.lft.to/lastmile_qr_scan"}, "type": "electric_scooter", "name": "235238fc8d13d761db9eb962733a3929", "is_reserved": 0, "lon": -77.00701783333334, "is_disabled": 0, "fusion_lat": 0.0, "lat": 38.905726666666666, "bike_id": "235238fc8d13d761db9eb962733a3929", "fusion_lon": 0.0}, {"rental_uris": {"ios": "https://dc.lft.to/lastmile_qr_scan", "android": "https://dc.lft.to/lastmile_qr_scan"}, "type": "electric_scooter", "name": "68d945505b92738cf1766cbd30c7de41", "is_reserved": 0, "lon": -77.03862616666666, "is_disabled": 0, "fusion_lat": 0.0, "lat": 38.91179616666667, "bike_id": "68d945505b92738cf1766cbd30c7de41", "fusion_lon": 0.0}, {"rental_uris": {"ios": "https://dc.lft.to/lastmile_qr_scan", "android": "https://dc.lft.to/lastmile_qr_scan"}, "type": "electric_scooter", "name": "976d15a749b5217a732e798d5f2fafcd", "is_reserved": 0, "lon": -77.03304633333333, "is_disabled": 0, "fusion_lat": 0.0, "lat": 38.89931883333333, "bike_id": "976d15a749b5217a732e798d5f2fafcd", "fusion_lon": 0.0}, {"rental_uris": {"ios": "https://dc.lft.to/lastmile_qr_scan", "android": "https://dc.lft.to/lastmile_qr_scan"}, "type": "electric_scooter", "name": "a1d263f6aab62b84db197d6d4fbb1ebf", "is_reserved": 0, "lon": -77.02960366666667, "is_disabled": 0, "fusion_lat": 0.0, "lat": 38.90712116666667, "bike_id": "a1d263f6aab62b84db197d6d4fbb1ebf", "fusion_lon": 0.0}, {"rental_uris": {"ios": "https://dc.lft.to/lastmile_qr_scan", "android": "https://dc.lft.to/lastmile_qr_scan"}, "type": "electric_scooter", "name": "f379e8b2f34f62fa38a73d2d477301dc", "is_reserved": 0, "lon": -77.02095433333334, "is_disabled": 0, "fusion_lat": 0.0, "lat": 38.923156, "bike_id": "f379e8b2f34f62fa38a73d2d477301dc", "fusion_lon": 0.0}, {"rental_uris": {"ios": "https://dc.lft.to/lastmile_qr_scan", "android": "https://dc.lft.to/lastmile_qr_scan"}, "type": "electric_scooter", "name": "7f336b6475a4af68c38fa5e1beb49106", "is_reserved": 0, "lon": -77.04530933333334, "is_disabled": 0, "fusion_lat": 0.0, "lat": 38.93276433333333, "bike_id": "7f336b6475a4af68c38fa5e1beb49106", "fusion_lon": 0.0}, {"rental_uris": {"ios": "https://dc.lft.to/lastmile_qr_scan", "android": "https://dc.lft.to/lastmile_qr_scan"}, "type": "electric_scooter", "name": "58f9c73e7175967342119ff981fbc219", "is_reserved": 0, "lon": -77.033352, "is_disabled": 0, "fusion_lat": 0.0, "lat": 38.972171333333335, "bike_id": "58f9c73e7175967342119ff981fbc219", "fusion_lon": 0.0}, {"rental_uris": {"ios": "https://dc.lft.to/lastmile_qr_scan", "android": "https://dc.lft.to/lastmile_qr_scan"}, "type": "electric_scooter", "name": "b03bf1a17c82f2a804de8b447add7ac3", "is_reserved": 0, "lon": -77.0223095, "is_disabled": 0, "fusion_lat": 0.0, "lat": 38.87818266666667, "bike_id": "b03bf1a17c82f2a804de8b447add7ac3", "fusion_lon": 0.0}, {"rental_uris": {"ios": "https://dc.lft.to/lastmile_qr_scan", "android": "https://dc.lft.to/lastmile_qr_scan"}, "type": "electric_scooter", "name": "3b313fd88f7c920615b39b1385b1a539", "is_reserved": 0, "lon": -77.03183683333333, "is_disabled": 0, "fusion_lat": 0.0, "lat": 38.91104333333333, "bike_id": "3b313fd88f7c920615b39b1385b1a539", "fusion_lon": 0.0}, {"rental_uris": {"ios": "https://dc.lft.to/lastmile_qr_scan", "android": "https://dc.lft.to/lastmile_qr_scan"}, "type": "electric_scooter", "name": "5ffde6ccbe08299a8ae497082b483961", "is_reserved": 0, "lon": -77.0278725, "is_disabled": 0, "fusion_lat": 0.0, "lat": 38.892225, "bike_id": "5ffde6ccbe08299a8ae497082b483961", "fusion_lon": 0.0}, {"rental_uris": {"ios": "https://dc.lft.to/lastmile_qr_scan", "android": "https://dc.lft.to/lastmile_qr_scan"}, "type": "electric_bike", "name": "b5b060018e6eb80119b6299e78d30a86", "is_reserved": 0, "lon": -77.02030933333333, "is_disabled": 0, "fusion_lat": 0.0, "lat": 38.9656035, "bike_id": "b5b060018e6eb80119b6299e78d30a86", "fusion_lon": 0.0}, {"rental_uris": {"ios": "https://dc.lft.to/lastmile_qr_scan", "android": "https://dc.lft.to/lastmile_qr_scan"}, "type": "electric_scooter", "name": "448fcd7084bed153c124ac2660996d8b", "is_reserved": 0, "lon": -77.0634975, "is_disabled": 0, "fusion_lat": 0.0, "lat": 38.908557, "bike_id": "448fcd7084bed153c124ac2660996d8b", "fusion_lon": 0.0}, {"rental_uris": {"ios": "https://dc.lft.to/lastmile_qr_scan", "android": "https://dc.lft.to/lastmile_qr_scan"}, "type": "electric_scooter", "name": "3076a0f1d68a7dc2087d35391941cf95", "is_reserved": 0, "lon": -77.032042, "is_disabled": 0, "fusion_lat": 0.0, "lat": 38.8983215, "bike_id": "3076a0f1d68a7dc2087d35391941cf95", "fusion_lon": 0.0}, {"rental_uris": {"ios": "https://dc.lft.to/lastmile_qr_scan", "android": "https://dc.lft.to/lastmile_qr_scan"}, "type": "electric_scooter", "name": "10ecbeacf60346eec8ef739a373d09ce", "is_reserved": 0, "lon": -77.017675, "is_disabled": 0, "fusion_lat": 0.0, "lat": 38.921066333333336, "bike_id": "10ecbeacf60346eec8ef739a373d09ce", "fusion_lon": 0.0}, {"rental_uris": {"ios": "https://dc.lft.to/lastmile_qr_scan", "android": "https://dc.lft.to/lastmile_qr_scan"}, "type": "electric_bike", "name": "d2279b3b2522a767f030fce960982061", "is_reserved": 0, "lon": -76.98274516666666, "is_disabled": 0, "fusion_lat": 0.0, "lat": 38.8468295, "bike_id": "d2279b3b2522a767f030fce960982061", "fusion_lon": 0.0}, {"rental_uris": {"ios": "https://dc.lft.to/lastmile_qr_scan", "android": "https://dc.lft.to/lastmile_qr_scan"}, "type": "electric_scooter", "name": "36c758c1a93597860e8430eae78f2e15", "is_reserved": 0, "lon": -77.0488135, "is_disabled": 0, "fusion_lat": 0.0, "lat": 38.90288533333333, "bike_id": "36c758c1a93597860e8430eae78f2e15", "fusion_lon": 0.0}, {"rental_uris": {"ios": "https://dc.lft.to/lastmile_qr_scan", "android": "https://dc.lft.to/lastmile_qr_scan"}, "type": "electric_bike", "name": "cc5ceb15bd8a728e8b63e3af7dcf4b99", "is_reserved": 0, "lon": -76.97564383333334, "is_disabled": 0, "fusion_lat": 0.0, "lat": 38.899506333333335, "bike_id": "cc5ceb15bd8a728e8b63e3af7dcf4b99", "fusion_lon": 0.0}, {"rental_uris": {"ios": "https://dc.lft.to/lastmile_qr_scan", "android": "https://dc.lft.to/lastmile_qr_scan"}, "type": "electric_bike", "name": "6a20ccde1e7fb70b37436744b778672f", "is_reserved": 0, "lon": -77.04015016666666, "is_disabled": 0, "fusion_lat": 0.0, "lat": 38.923828, "bike_id": "6a20ccde1e7fb70b37436744b778672f", "fusion_lon": 0.0}, {"rental_uris": {"ios": "https://dc.lft.to/lastmile_qr_scan", "android": "https://dc.lft.to/lastmile_qr_scan"}, "type": "electric_scooter", "name": "e8fa607dbfbad58befc489e2e8b674b7", "is_reserved": 0, "lon": -77.037108, "is_disabled": 0, "fusion_lat": 0.0, "lat": 38.92655233333333, "bike_id": "e8fa607dbfbad58befc489e2e8b674b7", "fusion_lon": 0.0}, {"rental_uris": {"ios": "https://dc.lft.to/lastmile_qr_scan", "android": "https://dc.lft.to/lastmile_qr_scan"}, "type": "electric_scooter", "name": "987abfca35d1037e2aeaaf3b57f56821", "is_reserved": 0, "lon": -77.05321633333334, "is_disabled": 0, "fusion_lat": 0.0, "lat": 38.90270916666667, "bike_id": "987abfca35d1037e2aeaaf3b57f56821", "fusion_lon": 0.0}, {"rental_uris": {"ios": "https://dc.lft.to/lastmile_qr_scan", "android": "https://dc.lft.to/lastmile_qr_scan"}, "type": "electric_bike", "name": "ccfdc79aa17d24527bb7b722997e02af", "is_reserved": 0, "lon": -77.09623066666667, "is_disabled": 0, "fusion_lat": 0.0, "lat": 38.95249, "bike_id": "ccfdc79aa17d24527bb7b722997e02af", "fusion_lon": 0.0}, {"rental_uris": {"ios": "https://dc.lft.to/lastmile_qr_scan", "android": "https://dc.lft.to/lastmile_qr_scan"}, "type": "electric_scooter", "name": "7e58a68e76243e817d730c2bb5de7f75", "is_reserved": 0, "lon": -77.00993933333334, "is_disabled": 0, "fusion_lat": 0.0, "lat": 38.91126383333334, "bike_id": "7e58a68e76243e817d730c2bb5de7f75", "fusion_lon": 0.0}, {"rental_uris": {"ios": "https://dc.lft.to/lastmile_qr_scan", "android": "https://dc.lft.to/lastmile_qr_scan"}, "type": "electric_bike", "name": "3fa633ec2c27250af7fbf72b1a62e15b", "is_reserved": 0, "lon": -77.12738366666666, "is_disabled": 0, "fusion_lat": 0.0, "lat": 38.89569933333333, "bike_id": "3fa633ec2c27250af7fbf72b1a62e15b", "fusion_lon": 0.0}, {"rental_uris": {"ios": "https://dc.lft.to/lastmile_qr_scan", "android": "https://dc.lft.to/lastmile_qr_scan"}, "type": "electric_scooter", "name": "c78d3e53673828649b92f081be73e7a0", "is_reserved": 0, "lon": -77.03342283333333, "is_disabled": 0, "fusion_lat": 0.0, "lat": 38.89223666666667, "bike_id": "c78d3e53673828649b92f081be73e7a0", "fusion_lon": 0.0}, {"rental_uris": {"ios": "https://dc.lft.to/lastmile_qr_scan", "android": "https://dc.lft.to/lastmile_qr_scan"}, "type": "electric_scooter", "name": "186c3fd8b3f3d24ca7d2cae676261b18", "is_reserved": 0, "lon": -77.02690766666667, "is_disabled": 0, "fusion_lat": 0.0, "lat": 38.94985716666667, "bike_id": "186c3fd8b3f3d24ca7d2cae676261b18", "fusion_lon": 0.0}, {"rental_uris": {"ios": "https://dc.lft.to/lastmile_qr_scan", "android": "https://dc.lft.to/lastmile_qr_scan"}, "type": "electric_scooter", "name": "3af5750e0ae89297ab811b7af2d5b1f0", "is_reserved": 0, "lon": -76.99529783333334, "is_disabled": 0, "fusion_lat": 0.0, "lat": 38.92069, "bike_id": "3af5750e0ae89297ab811b7af2d5b1f0", "fusion_lon": 0.0}, {"rental_uris": {"ios": "https://dc.lft.to/lastmile_qr_scan", "android": "https://dc.lft.to/lastmile_qr_scan"}, "type": "electric_scooter", "name": "c2d0811f9e09ed676e0e46a300cf88a3", "is_reserved": 0, "lon": -77.04874133333334, "is_disabled": 0, "fusion_lat": 0.0, "lat": 38.900787333333334, "bike_id": "c2d0811f9e09ed676e0e46a300cf88a3", "fusion_lon": 0.0}, {"rental_uris": {"ios": "https://dc.lft.to/lastmile_qr_scan", "android": "https://dc.lft.to/lastmile_qr_scan"}, "type": "electric_bike", "name": "19e71ec1726ffb9b02fa09e78a290de3", "is_reserved": 0, "lon": -77.03881633333333, "is_disabled": 0, "fusion_lat": 0.0, "lat": 39.0263805, "bike_id": "19e71ec1726ffb9b02fa09e78a290de3", "fusion_lon": 0.0}, {"rental_uris": {"ios": "https://dc.lft.to/lastmile_qr_scan", "android": "https://dc.lft.to/lastmile_qr_scan"}, "type": "electric_scooter", "name": "2633ffa4d5f574af1ad37a422bfb05d7", "is_reserved": 0, "lon": -76.99629633333333, "is_disabled": 0, "fusion_lat": 0.0, "lat": 38.8918295, "bike_id": "2633ffa4d5f574af1ad37a422bfb05d7", "fusion_lon": 0.0}, {"rental_uris": {"ios": "https://dc.lft.to/lastmile_qr_scan", "android": "https://dc.lft.to/lastmile_qr_scan"}, "type": "electric_scooter", "name": "5b46ffd3417860975b4e4977ef7c8606", "is_reserved": 0, "lon": -77.03233433333334, "is_disabled": 0, "fusion_lat": 0.0, "lat": 38.898282333333334, "bike_id": "5b46ffd3417860975b4e4977ef7c8606", "fusion_lon": 0.0}, {"rental_uris": {"ios": "https://dc.lft.to/lastmile_qr_scan", "android": "https://dc.lft.to/lastmile_qr_scan"}, "type": "electric_scooter", "name": "f0e10b6fdfd35fb8b55d8337ffde0647", "is_reserved": 0, "lon": -77.03158533333334, "is_disabled": 0, "fusion_lat": 0.0, "lat": 38.90127016666667, "bike_id": "f0e10b6fdfd35fb8b55d8337ffde0647", "fusion_lon": 0.0}, {"rental_uris": {"ios": "https://dc.lft.to/lastmile_qr_scan", "android": "https://dc.lft.to/lastmile_qr_scan"}, "type": "electric_scooter", "name": "a376b2a5b75e3eee30d9d5cfded1fade", "is_reserved": 0, "lon": -77.067528, "is_disabled": 0, "fusion_lat": 0.0, "lat": 38.90514833333334, "bike_id": "a376b2a5b75e3eee30d9d5cfded1fade", "fusion_lon": 0.0}, {"rental_uris": {"ios": "https://dc.lft.to/lastmile_qr_scan", "android": "https://dc.lft.to/lastmile_qr_scan"}, "type": "electric_scooter", "name": "5e20f56c3e228b5b137041ee86ed01f5", "is_reserved": 0, "lon": -77.02625016666667, "is_disabled": 0, "fusion_lat": 0.0, "lat": 38.896384, "bike_id": "5e20f56c3e228b5b137041ee86ed01f5", "fusion_lon": 0.0}, {"rental_uris": {"ios": "https://dc.lft.to/lastmile_qr_scan", "android": "https://dc.lft.to/lastmile_qr_scan"}, "type": "electric_scooter", "name": "20bc54ef0aa86948f78a6a9ed91d0118", "is_reserved": 0, "lon": -77.02477466666667, "is_disabled": 0, "fusion_lat": 0.0, "lat": 38.91819683333333, "bike_id": "20bc54ef0aa86948f78a6a9ed91d0118", "fusion_lon": 0.0}, {"rental_uris": {"ios": "https://dc.lft.to/lastmile_qr_scan", "android": "https://dc.lft.to/lastmile_qr_scan"}, "type": "electric_scooter", "name": "c544aa3e5c788a55d82e76a977961cd3", "is_reserved": 0, "lon": -77.04409983333333, "is_disabled": 0, "fusion_lat": 0.0, "lat": 38.9014565, "bike_id": "c544aa3e5c788a55d82e76a977961cd3", "fusion_lon": 0.0}, {"rental_uris": {"ios": "https://dc.lft.to/lastmile_qr_scan", "android": "https://dc.lft.to/lastmile_qr_scan"}, "type": "electric_scooter", "name": "18f1ae1374df29468018291b38baf331", "is_reserved": 0, "lon": -77.03334066666666, "is_disabled": 0, "fusion_lat": 0.0, "lat": 38.925443333333334, "bike_id": "18f1ae1374df29468018291b38baf331", "fusion_lon": 0.0}, {"rental_uris": {"ios": "https://dc.lft.to/lastmile_qr_scan", "android": "https://dc.lft.to/lastmile_qr_scan"}, "type": "electric_scooter", "name": "899c812edbf6f6efcbbf0cc2372104ea", "is_reserved": 0, "lon": -77.01822016666667, "is_disabled": 0, "fusion_lat": 0.0, "lat": 38.90255283333333, "bike_id": "899c812edbf6f6efcbbf0cc2372104ea", "fusion_lon": 0.0}, {"rental_uris": {"ios": "https://dc.lft.to/lastmile_qr_scan", "android": "https://dc.lft.to/lastmile_qr_scan"}, "type": "electric_scooter", "name": "cb34adc5ded1af853db916af5bf29601", "is_reserved": 0, "lon": -77.03319683333334, "is_disabled": 0, "fusion_lat": 0.0, "lat": 38.92863583333333, "bike_id": "cb34adc5ded1af853db916af5bf29601", "fusion_lon": 0.0}, {"rental_uris": {"ios": "https://dc.lft.to/lastmile_qr_scan", "android": "https://dc.lft.to/lastmile_qr_scan"}, "type": "electric_scooter", "name": "d5175094e6d4e031a9410cc3f3d48163", "is_reserved": 0, "lon": -77.01315933333333, "is_disabled": 0, "fusion_lat": 0.0, "lat": 38.92027916666667, "bike_id": "d5175094e6d4e031a9410cc3f3d48163", "fusion_lon": 0.0}, {"rental_uris": {"ios": "https://dc.lft.to/lastmile_qr_scan", "android": "https://dc.lft.to/lastmile_qr_scan"}, "type": "electric_bike", "name": "e35151d50da9d8b19d7836f465f4b1d0", "is_reserved": 0, "lon": -76.94532166666667, "is_disabled": 0, "fusion_lat": 0.0, "lat": 38.86761116666667, "bike_id": "e35151d50da9d8b19d7836f465f4b1d0", "fusion_lon": 0.0}, {"rental_uris": {"ios": "https://dc.lft.to/lastmile_qr_scan", "android": "https://dc.lft.to/lastmile_qr_scan"}, "type": "electric_scooter", "name": "3a1c4f619e66f6123544176187472f02", "is_reserved": 0, "lon": -76.99946733333333, "is_disabled": 0, "fusion_lat": 0.0, "lat": 38.9005725, "bike_id": "3a1c4f619e66f6123544176187472f02", "fusion_lon": 0.0}, {"rental_uris": {"ios": "https://dc.lft.to/lastmile_qr_scan", "android": "https://dc.lft.to/lastmile_qr_scan"}, "type": "electric_scooter", "name": "a7ceadb3188ce3b1427fd8b369894f4f", "is_reserved": 0, "lon": -76.98733966666667, "is_disabled": 0, "fusion_lat": 0.0, "lat": 38.87842333333333, "bike_id": "a7ceadb3188ce3b1427fd8b369894f4f", "fusion_lon": 0.0}, {"rental_uris": {"ios": "https://dc.lft.to/lastmile_qr_scan", "android": "https://dc.lft.to/lastmile_qr_scan"}, "type": "electric_scooter", "name": "eac2a6e30350c4218396cba7520e3983", "is_reserved": 0, "lon": -76.99552216666666, "is_disabled": 0, "fusion_lat": 0.0, "lat": 38.862337, "bike_id": "eac2a6e30350c4218396cba7520e3983", "fusion_lon": 0.0}, {"rental_uris": {"ios": "https://dc.lft.to/lastmile_qr_scan", "android": "https://dc.lft.to/lastmile_qr_scan"}, "type": "electric_scooter", "name": "51a0e58eb3d89087d3bf88db5f9c6e23", "is_reserved": 0, "lon": -77.07017433333333, "is_disabled": 0, "fusion_lat": 0.0, "lat": 38.89325016666667, "bike_id": "51a0e58eb3d89087d3bf88db5f9c6e23", "fusion_lon": 0.0}, {"rental_uris": {"ios": "https://dc.lft.to/lastmile_qr_scan", "android": "https://dc.lft.to/lastmile_qr_scan"}, "type": "electric_scooter", "name": "c8c8754e3be733e7b9831c44e4ea8ec6", "is_reserved": 0, "lon": -77.05001133333333, "is_disabled": 0, "fusion_lat": 0.0, "lat": 38.892351833333336, "bike_id": "c8c8754e3be733e7b9831c44e4ea8ec6", "fusion_lon": 0.0}, {"rental_uris": {"ios": "https://dc.lft.to/lastmile_qr_scan", "android": "https://dc.lft.to/lastmile_qr_scan"}, "type": "electric_scooter", "name": "53009d3120ad17c4f2293e89bf49fd3a", "is_reserved": 0, "lon": -77.033509, "is_disabled": 0, "fusion_lat": 0.0, "lat": 38.89246766666667, "bike_id": "53009d3120ad17c4f2293e89bf49fd3a", "fusion_lon": 0.0}, {"rental_uris": {"ios": "https://dc.lft.to/lastmile_qr_scan", "android": "https://dc.lft.to/lastmile_qr_scan"}, "type": "electric_scooter", "name": "2c371534e9e3f930874c28a90c12cbaa", "is_reserved": 0, "lon": -77.0213305, "is_disabled": 0, "fusion_lat": 0.0, "lat": 38.924669333333334, "bike_id": "2c371534e9e3f930874c28a90c12cbaa", "fusion_lon": 0.0}, {"rental_uris": {"ios": "https://dc.lft.to/lastmile_qr_scan", "android": "https://dc.lft.to/lastmile_qr_scan"}, "type": "electric_scooter", "name": "ff6dacc48964c8d9cdf8262aead99322", "is_reserved": 0, "lon": -77.00746233333334, "is_disabled": 0, "fusion_lat": 0.0, "lat": 38.87748333333333, "bike_id": "ff6dacc48964c8d9cdf8262aead99322", "fusion_lon": 0.0}, {"rental_uris": {"ios": "https://dc.lft.to/lastmile_qr_scan", "android": "https://dc.lft.to/lastmile_qr_scan"}, "type": "electric_scooter", "name": "9bb92e4e37bc421fcaa217996e6fc987", "is_reserved": 0, "lon": -77.00588633333334, "is_disabled": 0, "fusion_lat": 0.0, "lat": 38.90562966666667, "bike_id": "9bb92e4e37bc421fcaa217996e6fc987", "fusion_lon": 0.0}, {"rental_uris": {"ios": "https://dc.lft.to/lastmile_qr_scan", "android": "https://dc.lft.to/lastmile_qr_scan"}, "type": "electric_bike", "name": "dc0ce7246575c6b716d1a83068164b50", "is_reserved": 0, "lon": -76.941498, "is_disabled": 0, "fusion_lat": 0.0, "lat": 38.890192, "bike_id": "dc0ce7246575c6b716d1a83068164b50", "fusion_lon": 0.0}, {"rental_uris": {"ios": "https://dc.lft.to/lastmile_qr_scan", "android": "https://dc.lft.to/lastmile_qr_scan"}, "type": "electric_scooter", "name": "ab9dd0c33376b15c04689d173752d5bd", "is_reserved": 0, "lon": -77.04045566666667, "is_disabled": 0, "fusion_lat": 0.0, "lat": 38.930119166666664, "bike_id": "ab9dd0c33376b15c04689d173752d5bd", "fusion_lon": 0.0}, {"rental_uris": {"ios": "https://dc.lft.to/lastmile_qr_scan", "android": "https://dc.lft.to/lastmile_qr_scan"}, "type": "electric_scooter", "name": "8346950c48ba1f400ad8f58285bc604b", "is_reserved": 0, "lon": -77.04872983333334, "is_disabled": 0, "fusion_lat": 0.0, "lat": 38.910269666666665, "bike_id": "8346950c48ba1f400ad8f58285bc604b", "fusion_lon": 0.0}, {"rental_uris": {"ios": "https://dc.lft.to/lastmile_qr_scan", "android": "https://dc.lft.to/lastmile_qr_scan"}, "type": "electric_scooter", "name": "d8362dac6887d966e6fe129eb01ca17f", "is_reserved": 0, "lon": -77.02283183333333, "is_disabled": 0, "fusion_lat": 0.0, "lat": 38.916833833333335, "bike_id": "d8362dac6887d966e6fe129eb01ca17f", "fusion_lon": 0.0}, {"rental_uris": {"ios": "https://dc.lft.to/lastmile_qr_scan", "android": "https://dc.lft.to/lastmile_qr_scan"}, "type": "electric_scooter", "name": "4c115f89def2528708449b584ea6aa1b", "is_reserved": 0, "lon": -77.025465, "is_disabled": 0, "fusion_lat": 0.0, "lat": 38.95174016666667, "bike_id": "4c115f89def2528708449b584ea6aa1b", "fusion_lon": 0.0}, {"rental_uris": {"ios": "https://dc.lft.to/lastmile_qr_scan", "android": "https://dc.lft.to/lastmile_qr_scan"}, "type": "electric_scooter", "name": "0f91c6c86442fb3ceafa5df1b206036b", "is_reserved": 0, "lon": -77.02215816666667, "is_disabled": 0, "fusion_lat": 0.0, "lat": 38.924729, "bike_id": "0f91c6c86442fb3ceafa5df1b206036b", "fusion_lon": 0.0}, {"rental_uris": {"ios": "https://dc.lft.to/lastmile_qr_scan", "android": "https://dc.lft.to/lastmile_qr_scan"}, "type": "electric_scooter", "name": "b3d00b9dfc9a88f4dbe5f66f828b16f5", "is_reserved": 0, "lon": -77.0415015, "is_disabled": 0, "fusion_lat": 0.0, "lat": 38.905797666666665, "bike_id": "b3d00b9dfc9a88f4dbe5f66f828b16f5", "fusion_lon": 0.0}, {"rental_uris": {"ios": "https://dc.lft.to/lastmile_qr_scan", "android": "https://dc.lft.to/lastmile_qr_scan"}, "type": "electric_scooter", "name": "b06217b7ace73630f32aa5050ec4950a", "is_reserved": 0, "lon": -76.99505516666666, "is_disabled": 0, "fusion_lat": 0.0, "lat": 38.90330433333333, "bike_id": "b06217b7ace73630f32aa5050ec4950a", "fusion_lon": 0.0}, {"rental_uris": {"ios": "https://dc.lft.to/lastmile_qr_scan", "android": "https://dc.lft.to/lastmile_qr_scan"}, "type": "electric_scooter", "name": "dffb8dfd6088e01bbdd75f258325432a", "is_reserved": 0, "lon": -77.045032, "is_disabled": 0, "fusion_lat": 0.0, "lat": 38.9141955, "bike_id": "dffb8dfd6088e01bbdd75f258325432a", "fusion_lon": 0.0}, {"rental_uris": {"ios": "https://dc.lft.to/lastmile_qr_scan", "android": "https://dc.lft.to/lastmile_qr_scan"}, "type": "electric_scooter", "name": "7ee2160aae77d3b921c3eee5f5a5d16f", "is_reserved": 0, "lon": -77.0533875, "is_disabled": 0, "fusion_lat": 0.0, "lat": 38.90445016666666, "bike_id": "7ee2160aae77d3b921c3eee5f5a5d16f", "fusion_lon": 0.0}, {"rental_uris": {"ios": "https://dc.lft.to/lastmile_qr_scan", "android": "https://dc.lft.to/lastmile_qr_scan"}, "type": "electric_scooter", "name": "4b481c4f524fabe1910c789e5cb04496", "is_reserved": 0, "lon": -77.03551483333334, "is_disabled": 0, "fusion_lat": 0.0, "lat": 38.90719516666667, "bike_id": "4b481c4f524fabe1910c789e5cb04496", "fusion_lon": 0.0}, {"rental_uris": {"ios": "https://dc.lft.to/lastmile_qr_scan", "android": "https://dc.lft.to/lastmile_qr_scan"}, "type": "electric_scooter", "name": "b54c05ca26ac41da5a7911a6ec1d6c0a", "is_reserved": 0, "lon": -77.03660133333334, "is_disabled": 0, "fusion_lat": 0.0, "lat": 38.922920833333336, "bike_id": "b54c05ca26ac41da5a7911a6ec1d6c0a", "fusion_lon": 0.0}, {"rental_uris": {"ios": "https://dc.lft.to/lastmile_qr_scan", "android": "https://dc.lft.to/lastmile_qr_scan"}, "type": "electric_bike", "name": "5b425a81cf537dd0464b975692245a54", "is_reserved": 0, "lon": -77.0694905, "is_disabled": 0, "fusion_lat": 0.0, "lat": 38.83631666666667, "bike_id": "5b425a81cf537dd0464b975692245a54", "fusion_lon": 0.0}, {"rental_uris": {"ios": "https://dc.lft.to/lastmile_qr_scan", "android": "https://dc.lft.to/lastmile_qr_scan"}, "type": "electric_scooter", "name": "dd7655dff77d67c0a887d3e18712d979", "is_reserved": 0, "lon": -77.06110333333334, "is_disabled": 0, "fusion_lat": 0.0, "lat": 38.904749, "bike_id": "dd7655dff77d67c0a887d3e18712d979", "fusion_lon": 0.0}, {"rental_uris": {"ios": "https://dc.lft.to/lastmile_qr_scan", "android": "https://dc.lft.to/lastmile_qr_scan"}, "type": "electric_scooter", "name": "b489e9c63fba8e00ca2ecf27f83bf916", "is_reserved": 0, "lon": -77.02356583333334, "is_disabled": 0, "fusion_lat": 0.0, "lat": 38.9022195, "bike_id": "b489e9c63fba8e00ca2ecf27f83bf916", "fusion_lon": 0.0}, {"rental_uris": {"ios": "https://dc.lft.to/lastmile_qr_scan", "android": "https://dc.lft.to/lastmile_qr_scan"}, "type": "electric_scooter", "name": "5408e7af806ed9e07afabcb16d5561e4", "is_reserved": 0, "lon": -76.99588166666666, "is_disabled": 0, "fusion_lat": 0.0, "lat": 38.909439666666664, "bike_id": "5408e7af806ed9e07afabcb16d5561e4", "fusion_lon": 0.0}, {"rental_uris": {"ios": "https://dc.lft.to/lastmile_qr_scan", "android": "https://dc.lft.to/lastmile_qr_scan"}, "type": "electric_bike", "name": "c46d1e1b3319c5e4480419f1961203c3", "is_reserved": 0, "lon": -76.9935175, "is_disabled": 0, "fusion_lat": 0.0, "lat": 38.84510216666666, "bike_id": "c46d1e1b3319c5e4480419f1961203c3", "fusion_lon": 0.0}, {"rental_uris": {"ios": "https://dc.lft.to/lastmile_qr_scan", "android": "https://dc.lft.to/lastmile_qr_scan"}, "type": "electric_scooter", "name": "6fce986bbbb5ae494f480d7cd83ade7c", "is_reserved": 0, "lon": -77.0474745, "is_disabled": 0, "fusion_lat": 0.0, "lat": 38.905544666666664, "bike_id": "6fce986bbbb5ae494f480d7cd83ade7c", "fusion_lon": 0.0}, {"rental_uris": {"ios": "https://dc.lft.to/lastmile_qr_scan", "android": "https://dc.lft.to/lastmile_qr_scan"}, "type": "electric_scooter", "name": "b817328c01edcd43fe765dd245ddf2bb", "is_reserved": 0, "lon": -77.02484, "is_disabled": 0, "fusion_lat": 0.0, "lat": 38.923995166666664, "bike_id": "b817328c01edcd43fe765dd245ddf2bb", "fusion_lon": 0.0}, {"rental_uris": {"ios": "https://dc.lft.to/lastmile_qr_scan", "android": "https://dc.lft.to/lastmile_qr_scan"}, "type": "electric_scooter", "name": "afb211e718111fba3f2a2e06c897aab6", "is_reserved": 0, "lon": -76.97328166666667, "is_disabled": 0, "fusion_lat": 0.0, "lat": 38.904123, "bike_id": "afb211e718111fba3f2a2e06c897aab6", "fusion_lon": 0.0}, {"rental_uris": {"ios": "https://dc.lft.to/lastmile_qr_scan", "android": "https://dc.lft.to/lastmile_qr_scan"}, "type": "electric_scooter", "name": "dabf0315ffc4c207384bee2955f73a7a", "is_reserved": 0, "lon": -76.99712316666667, "is_disabled": 0, "fusion_lat": 0.0, "lat": 38.908192, "bike_id": "dabf0315ffc4c207384bee2955f73a7a", "fusion_lon": 0.0}, {"rental_uris": {"ios": "https://dc.lft.to/lastmile_qr_scan", "android": "https://dc.lft.to/lastmile_qr_scan"}, "type": "electric_scooter", "name": "a9d7dba6476f270f18134b6d2f2728ff", "is_reserved": 0, "lon": -77.02413133333333, "is_disabled": 0, "fusion_lat": 0.0, "lat": 38.92994933333333, "bike_id": "a9d7dba6476f270f18134b6d2f2728ff", "fusion_lon": 0.0}, {"rental_uris": {"ios": "https://dc.lft.to/lastmile_qr_scan", "android": "https://dc.lft.to/lastmile_qr_scan"}, "type": "electric_scooter", "name": "e705b3e82508388f572f6205d48bd229", "is_reserved": 0, "lon": -77.04504666666666, "is_disabled": 0, "fusion_lat": 0.0, "lat": 38.89223666666667, "bike_id": "e705b3e82508388f572f6205d48bd229", "fusion_lon": 0.0}, {"rental_uris": {"ios": "https://dc.lft.to/lastmile_qr_scan", "android": "https://dc.lft.to/lastmile_qr_scan"}, "type": "electric_scooter", "name": "fc6accf43c67de50d2a6ff8d31ddd4df", "is_reserved": 0, "lon": -77.04352733333333, "is_disabled": 0, "fusion_lat": 0.0, "lat": 38.91131333333333, "bike_id": "fc6accf43c67de50d2a6ff8d31ddd4df", "fusion_lon": 0.0}, {"rental_uris": {"ios": "https://dc.lft.to/lastmile_qr_scan", "android": "https://dc.lft.to/lastmile_qr_scan"}, "type": "electric_scooter", "name": "8bb236f0a7867b03251d1f03047cebe7", "is_reserved": 0, "lon": -77.0397595, "is_disabled": 0, "fusion_lat": 0.0, "lat": 38.93156233333333, "bike_id": "8bb236f0a7867b03251d1f03047cebe7", "fusion_lon": 0.0}, {"rental_uris": {"ios": "https://dc.lft.to/lastmile_qr_scan", "android": "https://dc.lft.to/lastmile_qr_scan"}, "type": "electric_scooter", "name": "3027d2bebadc47f1d0529a8a66dfb3cc", "is_reserved": 0, "lon": -77.03242083333333, "is_disabled": 0, "fusion_lat": 0.0, "lat": 38.917102666666665, "bike_id": "3027d2bebadc47f1d0529a8a66dfb3cc", "fusion_lon": 0.0}, {"rental_uris": {"ios": "https://dc.lft.to/lastmile_qr_scan", "android": "https://dc.lft.to/lastmile_qr_scan"}, "type": "electric_scooter", "name": "5e5bfe9cccdf6deb58c0424c859178a2", "is_reserved": 0, "lon": -77.048211, "is_disabled": 0, "fusion_lat": 0.0, "lat": 38.91490566666667, "bike_id": "5e5bfe9cccdf6deb58c0424c859178a2", "fusion_lon": 0.0}, {"rental_uris": {"ios": "https://dc.lft.to/lastmile_qr_scan", "android": "https://dc.lft.to/lastmile_qr_scan"}, "type": "electric_scooter", "name": "9cd719334508a47465b99b0062a6e097", "is_reserved": 0, "lon": -77.00717533333334, "is_disabled": 0, "fusion_lat": 0.0, "lat": 38.8770685, "bike_id": "9cd719334508a47465b99b0062a6e097", "fusion_lon": 0.0}, {"rental_uris": {"ios": "https://dc.lft.to/lastmile_qr_scan", "android": "https://dc.lft.to/lastmile_qr_scan"}, "type": "electric_scooter", "name": "a8fd881d424a8db5253e19b385dc492a", "is_reserved": 0, "lon": -77.03199466666666, "is_disabled": 0, "fusion_lat": 0.0, "lat": 38.920251, "bike_id": "a8fd881d424a8db5253e19b385dc492a", "fusion_lon": 0.0}, {"rental_uris": {"ios": "https://dc.lft.to/lastmile_qr_scan", "android": "https://dc.lft.to/lastmile_qr_scan"}, "type": "electric_scooter", "name": "a4050d3eb99231763ba650edea0aad3f", "is_reserved": 0, "lon": -77.02412883333334, "is_disabled": 0, "fusion_lat": 0.0, "lat": 38.89749783333333, "bike_id": "a4050d3eb99231763ba650edea0aad3f", "fusion_lon": 0.0}, {"rental_uris": {"ios": "https://dc.lft.to/lastmile_qr_scan", "android": "https://dc.lft.to/lastmile_qr_scan"},