{"data": {"bikes": [{"lat": 38.9124405, "fusion_lat": 0.0, "type": "electric_scooter", "bike_id": "08dff3a224bfa516724280dbd61bbe19", "rental_uris": {"ios": "https://dc.lft.to/lastmile_qr_scan", "android": "https://dc.lft.to/lastmile_qr_scan"}, "fusion_lon": 0.0, "lon": -77.04072216666667, "name": "08dff3a224bfa516724280dbd61bbe19", "is_reserved": 0, "is_disabled": 0}, {"lat": 38.92251133333333, "fusion_lat": 0.0, "type": "electric_scooter", "bike_id": "d29ff62e85ff9e248ec11845130bca07", "rental_uris": {"ios": "https://dc.lft.to/lastmile_qr_scan", "android": "https://dc.lft.to/lastmile_qr_scan"}, "fusion_lon": 0.0, "lon": -77.01949933333333, "name": "d29ff62e85ff9e248ec11845130bca07", "is_reserved": 0, "is_disabled": 0}, {"lat": 38.89989816666667, "fusion_lat": 0.0, "type": "electric_scooter", "bike_id": "fb1e992e26df75219763beb0a8fbfc32", "rental_uris": {"ios": "https://dc.lft.to/lastmile_qr_scan", "android": "https://dc.lft.to/lastmile_qr_scan"}, "fusion_lon": 0.0, "lon": -77.02218516666667, "name": "fb1e992e26df75219763beb0a8fbfc32", "is_reserved": 0, "is_disabled": 0}, {"lat": 38.89196366666667, "fusion_lat": 0.0, "type": "electric_scooter", "bike_id": "eb382d91f7d40f7294985ead74e643fa", "rental_uris": {"ios": "https://dc.lft.to/lastmile_qr_scan", "android": "https://dc.lft.to/lastmile_qr_scan"}, "fusion_lon": 0.0, "lon": -77.02377916666667, "name": "eb382d91f7d40f7294985ead74e643fa", "is_reserved": 0, "is_disabled": 0}, {"lat": 38.91197183333333, "fusion_lat": 0.0, "type": "electric_scooter", "bike_id": "ce2362484685f58610eab392cb0e6f08", "rental_uris": {"ios": "https://dc.lft.to/lastmile_qr_scan", "android": "https://dc.lft.to/lastmile_qr_scan"}, "fusion_lon": 0.0, "lon": -77.01894416666667, "name": "ce2362484685f58610eab392cb0e6f08", "is_reserved": 0, "is_disabled": 0}, {"lat": 38.93281116666667, "fusion_lat": 0.0, "type": "electric_scooter", "bike_id": "8e3d46319e344958c29adff30b371fe5", "rental_uris": {"ios": "https://dc.lft.to/lastmile_qr_scan", "android": "https://dc.lft.to/lastmile_qr_scan"}, "fusion_lon": 0.0, "lon": -76.98434783333333, "name": "8e3d46319e344958c29adff30b371fe5", "is_reserved": 0, "is_disabled": 0}, {"lat": 38.90016333333333, "fusion_lat": 0.0, "type": "electric_scooter", "bike_id": "9f223a424b6ea0345e707bd77161bda7", "rental_uris": {"ios": "https://dc.lft.to/lastmile_qr_scan", "android": "https://dc.lft.to/lastmile_qr_scan"}, "fusion_lon": 0.0, "lon": -76.99628816666667, "name": "9f223a424b6ea0345e707bd77161bda7", "is_reserved": 0, "is_disabled": 0}, {"lat": 38.9113175, "fusion_lat": 0.0, "type": "electric_scooter", "bike_id": "2ceae56d4000399c4a54cf52b7e71de1", "rental_uris": {"ios": "https://dc.lft.to/lastmile_qr_scan", "android": "https://dc.lft.to/lastmile_qr_scan"}, "fusion_lon": 0.0, "lon": -77.052694, "name": "2ceae56d4000399c4a54cf52b7e71de1", "is_reserved": 0, "is_disabled": 0}, {"lat": 38.9140215, "fusion_lat": 0.0, "type": "electric_scooter", "bike_id": "5ed9c2e5cf5f129091f040b5c62e2939", "rental_uris": {"ios": "https://dc.lft.to/lastmile_qr_scan", "android": "https://dc.lft.to/lastmile_qr_scan"}, "fusion_lon": 0.0, "lon": -77.01015366666667, "name": "5ed9c2e5cf5f129091f040b5c62e2939", "is_reserved": 0, "is_disabled": 0}, {"lat": 38.911772, "fusion_lat": 0.0, "type": "electric_scooter", "bike_id": "07dbdcb24b01650bbf615146f530a98e", "rental_uris": {"ios": "https://dc.lft.to/lastmile_qr_scan", "android": "https://dc.lft.to/lastmile_qr_scan"}, "fusion_lon": 0.0, "lon": -77.01693083333333, "name": "07dbdcb24b01650bbf615146f530a98e", "is_reserved": 0, "is_disabled": 0}, {"lat": 38.902837, "fusion_lat": 0.0, "type": "electric_scooter", "bike_id": "7534a2aae784ac7e13de3b01007ff23b", "rental_uris": {"ios": "https://dc.lft.to/lastmile_qr_scan", "android": "https://dc.lft.to/lastmile_qr_scan"}, "fusion_lon": 0.0, "lon": -77.018153, "name": "7534a2aae784ac7e13de3b01007ff23b", "is_reserved": 0, "is_disabled": 0}, {"lat": 38.947026666666666, "fusion_lat": 0.0, "type": "electric_scooter", "bike_id": "9ee0c0a22b8c77c3b112217dbbf2bcdb", "rental_uris": {"ios": "https://dc.lft.to/lastmile_qr_scan", "android": "https://dc.lft.to/lastmile_qr_scan"}, "fusion_lon": 0.0, "lon": -77.0194765, "name": "9ee0c0a22b8c77c3b112217dbbf2bcdb", "is_reserved": 0, "is_disabled": 0}, {"lat": 38.898874166666666, "fusion_lat": 0.0, "type": "electric_scooter", "bike_id": "c8a99398ed37f233f22598e54dd9cf85", "rental_uris": {"ios": "https://dc.lft.to/lastmile_qr_scan", "android": "https://dc.lft.to/lastmile_qr_scan"}, "fusion_lon": 0.0, "lon": -76.93178816666666, "name": "c8a99398ed37f233f22598e54dd9cf85", "is_reserved": 0, "is_disabled": 0}, {"lat": 38.93081433333333, "fusion_lat": 0.0, "type": "electric_scooter", "bike_id": "a8ad3adbce0a9a1ef7c41d2693f89547", "rental_uris": {"ios": "https://dc.lft.to/lastmile_qr_scan", "android": "https://dc.lft.to/lastmile_qr_scan"}, "fusion_lon": 0.0, "lon": -76.99619866666667, "name": "a8ad3adbce0a9a1ef7c41d2693f89547", "is_reserved": 0, "is_disabled": 0}, {"lat": 38.921876833333336, "fusion_lat": 0.0, "type": "electric_scooter", "bike_id": "aec9774ccf210fb61022deb9d1a882b3", "rental_uris": {"ios": "https://dc.lft.to/lastmile_qr_scan", "android": "https://dc.lft.to/lastmile_qr_scan"}, "fusion_lon": 0.0, "lon": -77.0424225, "name": "aec9774ccf210fb61022deb9d1a882b3", "is_reserved": 0, "is_disabled": 0}, {"lat": 38.914980666666665, "fusion_lat": 0.0, "type": "electric_scooter", "bike_id": "7f1157333936c1844a692074001a4359", "rental_uris": {"ios": "https://dc.lft.to/lastmile_qr_scan", "android": "https://dc.lft.to/lastmile_qr_scan"}, "fusion_lon": 0.0, "lon": -77.0199765, "name": "7f1157333936c1844a692074001a4359", "is_reserved": 0, "is_disabled": 0}, {"lat": 38.927614166666665, "fusion_lat": 0.0, "type": "electric_scooter", "bike_id": "806c6df7ac844ea6d19fbc65162dd99e", "rental_uris": {"ios": "https://dc.lft.to/lastmile_qr_scan", "android": "https://dc.lft.to/lastmile_qr_scan"}, "fusion_lon": 0.0, "lon": -77.05271216666667, "name": "806c6df7ac844ea6d19fbc65162dd99e", "is_reserved": 0, "is_disabled": 0}, {"lat": 38.95627616666667, "fusion_lat": 0.0, "type": "electric_scooter", "bike_id": "53249235c6e6469f8a0a9d143cd3c24f", "rental_uris": {"ios": "https://dc.lft.to/lastmile_qr_scan", "android": "https://dc.lft.to/lastmile_qr_scan"}, "fusion_lon": 0.0, "lon": -77.02430166666667, "name": "53249235c6e6469f8a0a9d143cd3c24f", "is_reserved": 0, "is_disabled": 0}, {"lat": 38.90918666666666, "fusion_lat": 0.0, "type": "electric_scooter", "bike_id": "656258c9545cfa6b84841d132a2b2484", "rental_uris": {"ios": "https://dc.lft.to/lastmile_qr_scan", "android": "https://dc.lft.to/lastmile_qr_scan"}, "fusion_lon": 0.0, "lon": -77.07269983333333, "name": "656258c9545cfa6b84841d132a2b2484", "is_reserved": 0, "is_disabled": 0}, {"lat": 38.91916616666666, "fusion_lat": 0.0, "type": "electric_scooter", "bike_id": "ae5135e0591f51e37bfbffb5e1ce35a9", "rental_uris": {"ios": "https://dc.lft.to/lastmile_qr_scan", "android": "https://dc.lft.to/lastmile_qr_scan"}, "fusion_lon": 0.0, "lon": -77.02506683333333, "name": "ae5135e0591f51e37bfbffb5e1ce35a9", "is_reserved": 0, "is_disabled": 0}, {"lat": 38.922551166666665, "fusion_lat": 0.0, "type": "electric_scooter", "bike_id": "2ecc12f035fc30db34ceb12d6127d871", "rental_uris": {"ios": "https://dc.lft.to/lastmile_qr_scan", "android": "https://dc.lft.to/lastmile_qr_scan"}, "fusion_lon": 0.0, "lon": -77.03879166666667, "name": "2ecc12f035fc30db34ceb12d6127d871", "is_reserved": 0, "is_disabled": 0}, {"lat": 38.921206833333336, "fusion_lat": 0.0, "type": "electric_bike", "bike_id": "901fc6618240705e67a3dc7f249fa50e", "rental_uris": {"ios": "https://dc.lft.to/lastmile_qr_scan", "android": "https://dc.lft.to/lastmile_qr_scan"}, "fusion_lon": 0.0, "lon": -77.2367625, "name": "901fc6618240705e67a3dc7f249fa50e", "is_reserved": 0, "is_disabled": 0}, {"lat": 38.892270833333335, "fusion_lat": 0.0, "type": "electric_scooter", "bike_id": "fb439062aca2cc361c5b3b0d130b9892", "rental_uris": {"ios": "https://dc.lft.to/lastmile_qr_scan", "android": "https://dc.lft.to/lastmile_qr_scan"}, "fusion_lon": 0.0, "lon": -77.04895983333333, "name": "fb439062aca2cc361c5b3b0d130b9892", "is_reserved": 0, "is_disabled": 0}, {"lat": 38.938425333333335, "fusion_lat": 0.0, "type": "electric_scooter", "bike_id": "0c6672f5186cf1e13d05dae8aa5d792b", "rental_uris": {"ios": "https://dc.lft.to/lastmile_qr_scan", "android": "https://dc.lft.to/lastmile_qr_scan"}, "fusion_lon": 0.0, "lon": -77.0339395, "name": "0c6672f5186cf1e13d05dae8aa5d792b", "is_reserved": 0, "is_disabled": 0}, {"lat": 38.94395866666667, "fusion_lat": 0.0, "type": "electric_scooter", "bike_id": "ec01e2471fd8090ed70d4e301a4314ba", "rental_uris": {"ios": "https://dc.lft.to/lastmile_qr_scan", "android": "https://dc.lft.to/lastmile_qr_scan"}, "fusion_lon": 0.0, "lon": -77.03584216666667, "name": "ec01e2471fd8090ed70d4e301a4314ba", "is_reserved": 0, "is_disabled": 0}, {"lat": 38.87667783333333, "fusion_lat": 0.0, "type": "electric_scooter", "bike_id": "f2b2981bf5d99f5d19a87dd79b38fbf5", "rental_uris": {"ios": "https://dc.lft.to/lastmile_qr_scan", "android": "https://dc.lft.to/lastmile_qr_scan"}, "fusion_lon": 0.0, "lon": -77.0034165, "name": "f2b2981bf5d99f5d19a87dd79b38fbf5", "is_reserved": 0, "is_disabled": 0}, {"lat": 38.86562966666666, "fusion_lat": 0.0, "type": "electric_bike", "bike_id": "66be94801e96b33d19f89b1e79cfd9d6", "rental_uris": {"ios": "https://dc.lft.to/lastmile_qr_scan", "android": "https://dc.lft.to/lastmile_qr_scan"}, "fusion_lon": 0.0, "lon": -76.98952, "name": "66be94801e96b33d19f89b1e79cfd9d6", "is_reserved": 0, "is_disabled": 0}, {"lat": 38.901909333333336, "fusion_lat": 0.0, "type": "electric_scooter", "bike_id": "59a107985cae8378deaff6a3bfa64c78", "rental_uris": {"ios": "https://dc.lft.to/lastmile_qr_scan", "android": "https://dc.lft.to/lastmile_qr_scan"}, "fusion_lon": 0.0, "lon": -77.02604233333334, "name": "59a107985cae8378deaff6a3bfa64c78", "is_reserved": 0, "is_disabled": 0}, {"lat": 38.903979, "fusion_lat": 0.0, "type": "electric_scooter", "bike_id": "d4926447a5d99467bc1600ae9e384cb8", "rental_uris": {"ios": "https://dc.lft.to/lastmile_qr_scan", "android": "https://dc.lft.to/lastmile_qr_scan"}, "fusion_lon": 0.0, "lon": -76.98463816666667, "name": "d4926447a5d99467bc1600ae9e384cb8", "is_reserved": 0, "is_disabled": 0}, {"lat": 38.90376583333333, "fusion_lat": 0.0, "type": "electric_scooter", "bike_id": "4ea8a26510e4b28067c5e66abd4a307c", "rental_uris": {"ios": "https://dc.lft.to/lastmile_qr_scan", "android": "https://dc.lft.to/lastmile_qr_scan"}, "fusion_lon": 0.0, "lon": -77.0174225, "name": "4ea8a26510e4b28067c5e66abd4a307c", "is_reserved": 0, "is_disabled": 0}, {"lat": 38.91566983333333, "fusion_lat": 0.0, "type": "electric_scooter", "bike_id": "6f8081c915325cab494f2a769c101606", "rental_uris": {"ios": "https://dc.lft.to/lastmile_qr_scan", "android": "https://dc.lft.to/lastmile_qr_scan"}, "fusion_lon": 0.0, "lon": -77.01960216666667, "name": "6f8081c915325cab494f2a769c101606", "is_reserved": 0, "is_disabled": 0}, {"lat": 38.897292166666666, "fusion_lat": 0.0, "type": "electric_scooter", "bike_id": "942843c04077ebb8f6f7864fa1a831ab", "rental_uris": {"ios": "https://dc.lft.to/lastmile_qr_scan", "android": "https://dc.lft.to/lastmile_qr_scan"}, "fusion_lon": 0.0, "lon": -77.023275, "name": "942843c04077ebb8f6f7864fa1a831ab", "is_reserved": 0, "is_disabled": 0}, {"lat": 38.87186883333333, "fusion_lat": 0.0, "type": "electric_scooter", "bike_id": "2bb80ea3766334b6e964713ff534b373", "rental_uris": {"ios": "https://dc.lft.to/lastmile_qr_scan", "android": "https://dc.lft.to/lastmile_qr_scan"}, "fusion_lon": 0.0, "lon": -77.006459, "name": "2bb80ea3766334b6e964713ff534b373", "is_reserved": 0, "is_disabled": 0}, {"lat": 38.906402666666665, "fusion_lat": 0.0, "type": "electric_scooter", "bike_id": "c0a8233ab28e47f32e07960ff1b8840f", "rental_uris": {"ios": "https://dc.lft.to/lastmile_qr_scan", "android": "https://dc.lft.to/lastmile_qr_scan"}, "fusion_lon": 0.0, "lon": -77.01768133333333, "name": "c0a8233ab28e47f32e07960ff1b8840f", "is_reserved": 0, "is_disabled": 0}, {"lat": 38.91125066666667, "fusion_lat": 0.0, "type": "electric_scooter", "bike_id": "79ad45e745b69a1c7ef3e438c312a146", "rental_uris": {"ios": "https://dc.lft.to/lastmile_qr_scan", "android": "https://dc.lft.to/lastmile_qr_scan"}, "fusion_lon": 0.0, "lon": -77.03181733333334, "name": "79ad45e745b69a1c7ef3e438c312a146", "is_reserved": 0, "is_disabled": 0}, {"lat": 38.836071833333335, "fusion_lat": 0.0, "type": "electric_bike", "bike_id": "a0fae10bc3ab2e774b99205256869a6e", "rental_uris": {"ios": "https://dc.lft.to/lastmile_qr_scan", "android": "https://dc.lft.to/lastmile_qr_scan"}, "fusion_lon": 0.0, "lon": -77.003809, "name": "a0fae10bc3ab2e774b99205256869a6e", "is_reserved": 0, "is_disabled": 0}, {"lat": 38.908683833333335, "fusion_lat": 0.0, "type": "electric_scooter", "bike_id": "8b04d7b5493b366933f8cf145a74ebef", "rental_uris": {"ios": "https://dc.lft.to/lastmile_qr_scan", "android": "https://dc.lft.to/lastmile_qr_scan"}, "fusion_lon": 0.0, "lon": -76.998155, "name": "8b04d7b5493b366933f8cf145a74ebef", "is_reserved": 0, "is_disabled": 0}, {"lat": 38.848467166666666, "fusion_lat": 0.0, "type": "electric_bike", "bike_id": "12f3a7c3b770d18fda6305646bc291b5", "rental_uris": {"ios": "https://dc.lft.to/lastmile_qr_scan", "android": "https://dc.lft.to/lastmile_qr_scan"}, "fusion_lon": 0.0, "lon": -77.08489816666666, "name": "12f3a7c3b770d18fda6305646bc291b5", "is_reserved": 0, "is_disabled": 0}, {"lat": 38.90412833333333, "fusion_lat": 0.0, "type": "electric_scooter", "bike_id": "c6cde5905565eb168d8dc035702de57f", "rental_uris": {"ios": "https://dc.lft.to/lastmile_qr_scan", "android": "https://dc.lft.to/lastmile_qr_scan"}, "fusion_lon": 0.0, "lon": -76.97331383333334, "name": "c6cde5905565eb168d8dc035702de57f", "is_reserved": 0, "is_disabled": 0}, {"lat": 38.900305833333334, "fusion_lat": 0.0, "type": "electric_scooter", "bike_id": "41adcac9faaff4178fbd3858ab053eda", "rental_uris": {"ios": "https://dc.lft.to/lastmile_qr_scan", "android": "https://dc.lft.to/lastmile_qr_scan"}, "fusion_lon": 0.0, "lon": -77.00196, "name": "41adcac9faaff4178fbd3858ab053eda", "is_reserved": 0, "is_disabled": 0}, {"lat": 38.92342716666667, "fusion_lat": 0.0, "type": "electric_scooter", "bike_id": "ca78d9b07d35b4c4c8bc33adaa240cbc", "rental_uris": {"ios": "https://dc.lft.to/lastmile_qr_scan", "android": "https://dc.lft.to/lastmile_qr_scan"}, "fusion_lon": 0.0, "lon": -77.03497966666667, "name": "ca78d9b07d35b4c4c8bc33adaa240cbc", "is_reserved": 0, "is_disabled": 0}, {"lat": 38.93539966666667, "fusion_lat": 0.0, "type": "electric_scooter", "bike_id": "b96577dff9409dabc589a9357ac212a3", "rental_uris": {"ios": "https://dc.lft.to/lastmile_qr_scan", "android": "https://dc.lft.to/lastmile_qr_scan"}, "fusion_lon": 0.0, "lon": -77.0347175, "name": "b96577dff9409dabc589a9357ac212a3", "is_reserved": 0, "is_disabled": 0}, {"lat": 38.9355985, "fusion_lat": 0.0, "type": "electric_scooter", "bike_id": "e3d2d4afdb911398ca204492d9d4bdab", "rental_uris": {"ios": "https://dc.lft.to/lastmile_qr_scan", "android": "https://dc.lft.to/lastmile_qr_scan"}, "fusion_lon": 0.0, "lon": -77.07460916666666, "name": "e3d2d4afdb911398ca204492d9d4bdab", "is_reserved": 0, "is_disabled": 0}, {"lat": 38.910396166666665, "fusion_lat": 0.0, "type": "electric_scooter", "bike_id": "d5041a443ebbb05a332fcb7fd190998c", "rental_uris": {"ios": "https://dc.lft.to/lastmile_qr_scan", "android": "https://dc.lft.to/lastmile_qr_scan"}, "fusion_lon": 0.0, "lon": -77.03301766666667, "name": "d5041a443ebbb05a332fcb7fd190998c", "is_reserved": 0, "is_disabled": 0}, {"lat": 38.907081, "fusion_lat": 0.0, "type": "electric_scooter", "bike_id": "76127705b741920e4fac2972adc4e12a", "rental_uris": {"ios": "https://dc.lft.to/lastmile_qr_scan", "android": "https://dc.lft.to/lastmile_qr_scan"}, "fusion_lon": 0.0, "lon": -77.041417, "name": "76127705b741920e4fac2972adc4e12a", "is_reserved": 0, "is_disabled": 0}, {"lat": 38.89462183333333, "fusion_lat": 0.0, "type": "electric_scooter", "bike_id": "b56fb133e03ce9f0f3150480f0e58eea", "rental_uris": {"ios": "https://dc.lft.to/lastmile_qr_scan", "android": "https://dc.lft.to/lastmile_qr_scan"}, "fusion_lon": 0.0, "lon": -76.99614316666667, "name": "b56fb133e03ce9f0f3150480f0e58eea", "is_reserved": 0, "is_disabled": 0}, {"lat": 38.937039, "fusion_lat": 0.0, "type": "electric_scooter", "bike_id": "500358f02db44350da8c7254e8059649", "rental_uris": {"ios": "https://dc.lft.to/lastmile_qr_scan", "android": "https://dc.lft.to/lastmile_qr_scan"}, "fusion_lon": 0.0, "lon": -77.05597216666666, "name": "500358f02db44350da8c7254e8059649", "is_reserved": 0, "is_disabled": 0}, {"lat": 38.927589166666664, "fusion_lat": 0.0, "type": "electric_scooter", "bike_id": "51610bf9331f930e0294a972bca0d47b", "rental_uris": {"ios": "https://dc.lft.to/lastmile_qr_scan", "android": "https://dc.lft.to/lastmile_qr_scan"}, "fusion_lon": 0.0, "lon": -77.052689, "name": "51610bf9331f930e0294a972bca0d47b", "is_reserved": 0, "is_disabled": 0}, {"lat": 38.915945, "fusion_lat": 0.0, "type": "electric_scooter", "bike_id": "b3aa9000ff1380f85c1c80d7e1c40388", "rental_uris": {"ios": "https://dc.lft.to/lastmile_qr_scan", "android": "https://dc.lft.to/lastmile_qr_scan"}, "fusion_lon": 0.0, "lon": -77.03191183333334, "name": "b3aa9000ff1380f85c1c80d7e1c40388", "is_reserved": 0, "is_disabled": 0}, {"lat": 38.9225625, "fusion_lat": 0.0, "type": "electric_scooter", "bike_id": "a30ec98f81ed039657a91dc503485563", "rental_uris": {"ios": "https://dc.lft.to/lastmile_qr_scan", "android": "https://dc.lft.to/lastmile_qr_scan"}, "fusion_lon": 0.0, "lon": -77.0298085, "name": "a30ec98f81ed039657a91dc503485563", "is_reserved": 0, "is_disabled": 0}, {"lat": 38.892230833333336, "fusion_lat": 0.0, "type": "electric_scooter", "bike_id": "b89a398eb9a8de02b23f3b9fabeb6ba8", "rental_uris": {"ios": "https://dc.lft.to/lastmile_qr_scan", "android": "https://dc.lft.to/lastmile_qr_scan"}, "fusion_lon": 0.0, "lon": -77.04327033333334, "name": "b89a398eb9a8de02b23f3b9fabeb6ba8", "is_reserved": 0, "is_disabled": 0}, {"lat": 38.92449716666667, "fusion_lat": 0.0, "type": "electric_scooter", "bike_id": "9e153f0c78ef57d0254410db88bef617", "rental_uris": {"ios": "https://dc.lft.to/lastmile_qr_scan", "android": "https://dc.lft.to/lastmile_qr_scan"}, "fusion_lon": 0.0, "lon": -76.98985533333334, "name": "9e153f0c78ef57d0254410db88bef617", "is_reserved": 0, "is_disabled": 0}, {"lat": 38.903197166666665, "fusion_lat": 0.0, "type": "electric_scooter", "bike_id": "f29c9c075ec240a9c1647af8957e4096", "rental_uris": {"ios": "https://dc.lft.to/lastmile_qr_scan", "android": "https://dc.lft.to/lastmile_qr_scan"}, "fusion_lon": 0.0, "lon": -77.040126, "name": "f29c9c075ec240a9c1647af8957e4096", "is_reserved": 0, "is_disabled": 0}, {"lat": 38.92183816666667, "fusion_lat": 0.0, "type": "electric_scooter", "bike_id": "e9dda79e0e3c0a96d3b3c15b0e23de76", "rental_uris": {"ios": "https://dc.lft.to/lastmile_qr_scan", "android": "https://dc.lft.to/lastmile_qr_scan"}, "fusion_lon": 0.0, "lon": -77.04243666666666, "name": "e9dda79e0e3c0a96d3b3c15b0e23de76", "is_reserved": 0, "is_disabled": 0}, {"lat": 38.9206345, "fusion_lat": 0.0, "type": "electric_scooter", "bike_id": "98f05c47124c679bf6726f91d99cae08", "rental_uris": {"ios": "https://dc.lft.to/lastmile_qr_scan", "android": "https://dc.lft.to/lastmile_qr_scan"}, "fusion_lon": 0.0, "lon": -77.04564166666667, "name": "98f05c47124c679bf6726f91d99cae08", "is_reserved": 0, "is_disabled": 0}, {"lat": 38.8917415, "fusion_lat": 0.0, "type": "electric_scooter", "bike_id": "771d808a0ecdac406cf2a6de0a65dc45", "rental_uris": {"ios": "https://dc.lft.to/lastmile_qr_scan", "android": "https://dc.lft.to/lastmile_qr_scan"}, "fusion_lon": 0.0, "lon": -76.9264915, "name": "771d808a0ecdac406cf2a6de0a65dc45", "is_reserved": 0, "is_disabled": 0}, {"lat": 38.81989766666667, "fusion_lat": 0.0, "type": "electric_bike", "bike_id": "e6a3e391507a20cac244553ca362b24d", "rental_uris": {"ios": "https://dc.lft.to/lastmile_qr_scan", "android": "https://dc.lft.to/lastmile_qr_scan"}, "fusion_lon": 0.0, "lon": -76.9981215, "name": "e6a3e391507a20cac244553ca362b24d", "is_reserved": 0, "is_disabled": 0}, {"lat": 38.93928366666667, "fusion_lat": 0.0, "type": "electric_scooter", "bike_id": "2465ae60ddd41583e2e5bd64572ba1f3", "rental_uris": {"ios": "https://dc.lft.to/lastmile_qr_scan", "android": "https://dc.lft.to/lastmile_qr_scan"}, "fusion_lon": 0.0, "lon": -77.015819, "name": "2465ae60ddd41583e2e5bd64572ba1f3", "is_reserved": 0, "is_disabled": 0}, {"lat": 38.909559333333334, "fusion_lat": 0.0, "type": "electric_scooter", "bike_id": "b43ea30b2656437c1fd3f1bcf4e69de8", "rental_uris": {"ios": "https://dc.lft.to/lastmile_qr_scan", "android": "https://dc.lft.to/lastmile_qr_scan"}, "fusion_lon": 0.0, "lon": -77.03451816666667, "name": "b43ea30b2656437c1fd3f1bcf4e69de8", "is_reserved": 0, "is_disabled": 0}, {"lat": 38.9102335, "fusion_lat": 0.0, "type": "electric_scooter", "bike_id": "cce5c6d453f6b2dd9255454c67d40ca1", "rental_uris": {"ios": "https://dc.lft.to/lastmile_qr_scan", "android": "https://dc.lft.to/lastmile_qr_scan"}, "fusion_lon": 0.0, "lon": -77.029324, "name": "cce5c6d453f6b2dd9255454c67d40ca1", "is_reserved": 0, "is_disabled": 0}, {"lat": 38.9377175, "fusion_lat": 0.0, "type": "electric_scooter", "bike_id": "80675d0df97dd2d7b5c8047c11c8a745", "rental_uris": {"ios": "https://dc.lft.to/lastmile_qr_scan", "android": "https://dc.lft.to/lastmile_qr_scan"}, "fusion_lon": 0.0, "lon": -77.0244015, "name": "80675d0df97dd2d7b5c8047c11c8a745", "is_reserved": 0, "is_disabled": 0}, {"lat": 38.92518833333333, "fusion_lat": 0.0, "type": "electric_scooter", "bike_id": "736fa361ffb08e347c898360dd2df3e8", "rental_uris": {"ios": "https://dc.lft.to/lastmile_qr_scan", "android": "https://dc.lft.to/lastmile_qr_scan"}, "fusion_lon": 0.0, "lon": -77.05036466666667, "name": "736fa361ffb08e347c898360dd2df3e8", "is_reserved": 0, "is_disabled": 0}, {"lat": 38.91201916666667, "fusion_lat": 0.0, "type": "electric_scooter", "bike_id": "3d97958b8d8c979b22a2d38261ca7c4a", "rental_uris": {"ios": "https://dc.lft.to/lastmile_qr_scan", "android": "https://dc.lft.to/lastmile_qr_scan"}, "fusion_lon": 0.0, "lon": -76.987703, "name": "3d97958b8d8c979b22a2d38261ca7c4a", "is_reserved": 0, "is_disabled": 0}, {"lat": 38.884435833333335, "fusion_lat": 0.0, "type": "electric_scooter", "bike_id": "40cc2b6b067844068213a0d8dd0ce7d9", "rental_uris": {"ios": "https://dc.lft.to/lastmile_qr_scan", "android": "https://dc.lft.to/lastmile_qr_scan"}, "fusion_lon": 0.0, "lon": -77.01766083333334, "name": "40cc2b6b067844068213a0d8dd0ce7d9", "is_reserved": 0, "is_disabled": 0}, {"lat": 38.90449483333333, "fusion_lat": 0.0, "type": "electric_scooter", "bike_id": "edf2150c6207368ebf3183751f1073eb", "rental_uris": {"ios": "https://dc.lft.to/lastmile_qr_scan", "android": "https://dc.lft.to/lastmile_qr_scan"}, "fusion_lon": 0.0, "lon": -77.058664, "name": "edf2150c6207368ebf3183751f1073eb", "is_reserved": 0, "is_disabled": 0}, {"lat": 38.87710283333333, "fusion_lat": 0.0, "type": "electric_scooter", "bike_id": "f4971e44f32645528a7dde1c63f8d9f9", "rental_uris": {"ios": "https://dc.lft.to/lastmile_qr_scan", "android": "https://dc.lft.to/lastmile_qr_scan"}, "fusion_lon": 0.0, "lon": -76.99692483333334, "name": "f4971e44f32645528a7dde1c63f8d9f9", "is_reserved": 0, "is_disabled": 0}, {"lat": 38.9243735, "fusion_lat": 0.0, "type": "electric_scooter", "bike_id": "d0e41aac289019b8bfe9e36c2dc12aae", "rental_uris": {"ios": "https://dc.lft.to/lastmile_qr_scan", "android": "https://dc.lft.to/lastmile_qr_scan"}, "fusion_lon": 0.0, "lon": -77.00072733333333, "name": "d0e41aac289019b8bfe9e36c2dc12aae", "is_reserved": 0, "is_disabled": 0}, {"lat": 38.920409166666666, "fusion_lat": 0.0, "type": "electric_scooter", "bike_id": "4ce3aff1b1e5ecbfb1ae95f9b441cbd2", "rental_uris": {"ios": "https://dc.lft.to/lastmile_qr_scan", "android": "https://dc.lft.to/lastmile_qr_scan"}, "fusion_lon": 0.0, "lon": -77.024171, "name": "4ce3aff1b1e5ecbfb1ae95f9b441cbd2", "is_reserved": 0, "is_disabled": 0}, {"lat": 38.91921116666666, "fusion_lat": 0.0, "type": "electric_scooter", "bike_id": "6b643290beda2a2fc5783fe99922cd62", "rental_uris": {"ios": "https://dc.lft.to/lastmile_qr_scan", "android": "https://dc.lft.to/lastmile_qr_scan"}, "fusion_lon": 0.0, "lon": -77.03432416666666, "name": "6b643290beda2a2fc5783fe99922cd62", "is_reserved": 0, "is_disabled": 0}, {"lat": 38.924998, "fusion_lat": 0.0, "type": "electric_scooter", "bike_id": "6125a69ccf55bbedbf0205f0423641ca", "rental_uris": {"ios": "https://dc.lft.to/lastmile_qr_scan", "android": "https://dc.lft.to/lastmile_qr_scan"}, "fusion_lon": 0.0, "lon": -77.0240465, "name": "6125a69ccf55bbedbf0205f0423641ca", "is_reserved": 0, "is_disabled": 0}, {"lat": 38.94115816666667, "fusion_lat": 0.0, "type": "electric_scooter", "bike_id": "83aeb98a1e0686104662b1279681f4a8", "rental_uris": {"ios": "https://dc.lft.to/lastmile_qr_scan", "android": "https://dc.lft.to/lastmile_qr_scan"}, "fusion_lon": 0.0, "lon": -77.026405, "name": "83aeb98a1e0686104662b1279681f4a8", "is_reserved": 0, "is_disabled": 0}, {"lat": 38.922518, "fusion_lat": 0.0, "type": "electric_scooter", "bike_id": "03c0c347a57a8329d665cfa0598339ba", "rental_uris": {"ios": "https://dc.lft.to/lastmile_qr_scan", "android": "https://dc.lft.to/lastmile_qr_scan"}, "fusion_lon": 0.0, "lon": -77.01910516666666, "name": "03c0c347a57a8329d665cfa0598339ba", "is_reserved": 0, "is_disabled": 0}, {"lat": 38.920269166666664, "fusion_lat": 0.0, "type": "electric_scooter", "bike_id": "5bfcd5d303321d6133872515bfd2244a", "rental_uris": {"ios": "https://dc.lft.to/lastmile_qr_scan", "android": "https://dc.lft.to/lastmile_qr_scan"}, "fusion_lon": 0.0, "lon": -77.071515, "name": "5bfcd5d303321d6133872515bfd2244a", "is_reserved": 0, "is_disabled": 0}, {"lat": 38.892178666666666, "fusion_lat": 0.0, "type": "electric_scooter", "bike_id": "f107fd7f2b606051c2a4b60b80fa8dff", "rental_uris": {"ios": "https://dc.lft.to/lastmile_qr_scan", "android": "https://dc.lft.to/lastmile_qr_scan"}, "fusion_lon": 0.0, "lon": -77.02373483333334, "name": "f107fd7f2b606051c2a4b60b80fa8dff", "is_reserved": 0, "is_disabled": 0}, {"lat": 38.892198, "fusion_lat": 0.0, "type": "electric_scooter", "bike_id": "a8f595f7f69e7b58e6e7a5d8a2797a97", "rental_uris": {"ios": "https://dc.lft.to/lastmile_qr_scan", "android": "https://dc.lft.to/lastmile_qr_scan"}, "fusion_lon": 0.0, "lon": -77.02626866666667, "name": "a8f595f7f69e7b58e6e7a5d8a2797a97", "is_reserved": 0, "is_disabled": 0}, {"lat": 38.877157, "fusion_lat": 0.0, "type": "electric_scooter", "bike_id": "60cc8c125b5de8902f808cbb0e671d49", "rental_uris": {"ios": "https://dc.lft.to/lastmile_qr_scan", "android": "https://dc.lft.to/lastmile_qr_scan"}, "fusion_lon": 0.0, "lon": -77.01754283333334, "name": "60cc8c125b5de8902f808cbb0e671d49", "is_reserved": 0, "is_disabled": 0}, {"lat": 38.903126666666665, "fusion_lat": 0.0, "type": "electric_scooter", "bike_id": "fe46630ad3c9f3f33768801d69ab3a7b", "rental_uris": {"ios": "https://dc.lft.to/lastmile_qr_scan", "android": "https://dc.lft.to/lastmile_qr_scan"}, "fusion_lon": 0.0, "lon": -76.97797283333334, "name": "fe46630ad3c9f3f33768801d69ab3a7b", "is_reserved": 0, "is_disabled": 0}, {"lat": 38.903811, "fusion_lat": 0.0, "type": "electric_scooter", "bike_id": "216feafee4b5a9b064bf2612f0d1de40", "rental_uris": {"ios": "https://dc.lft.to/lastmile_qr_scan", "android": "https://dc.lft.to/lastmile_qr_scan"}, "fusion_lon": 0.0, "lon": -77.06796716666666, "name": "216feafee4b5a9b064bf2612f0d1de40", "is_reserved": 0, "is_disabled": 0}, {"lat": 38.933767833333334, "fusion_lat": 0.0, "type": "electric_scooter", "bike_id": "9024446e76ef0d0aae690975e928e741", "rental_uris": {"ios": "https://dc.lft.to/lastmile_qr_scan", "android": "https://dc.lft.to/lastmile_qr_scan"}, "fusion_lon": 0.0, "lon": -77.05761066666666, "name": "9024446e76ef0d0aae690975e928e741", "is_reserved": 0, "is_disabled": 0}, {"lat": 38.91768316666667, "fusion_lat": 0.0, "type": "electric_scooter", "bike_id": "1e7d3a890fc22388707d3dc009f310f3", "rental_uris": {"ios": "https://dc.lft.to/lastmile_qr_scan", "android": "https://dc.lft.to/lastmile_qr_scan"}, "fusion_lon": 0.0, "lon": -77.04770133333334, "name": "1e7d3a890fc22388707d3dc009f310f3", "is_reserved": 0, "is_disabled": 0}, {"lat": 38.897267666666664, "fusion_lat": 0.0, "type": "electric_scooter", "bike_id": "f2face3b55f89860142ba3b0d7b73c2f", "rental_uris": {"ios": "https://dc.lft.to/lastmile_qr_scan", "android": "https://dc.lft.to/lastmile_qr_scan"}, "fusion_lon": 0.0, "lon": -77.05524716666666, "name": "f2face3b55f89860142ba3b0d7b73c2f", "is_reserved": 0, "is_disabled": 0}, {"lat": 38.88733, "fusion_lat": 0.0, "type": "electric_scooter", "bike_id": "401be2791672d5c44d2ceb3a5e2a501a", "rental_uris": {"ios": "https://dc.lft.to/lastmile_qr_scan", "android": "https://dc.lft.to/lastmile_qr_scan"}, "fusion_lon": 0.0, "lon": -77.028261, "name": "401be2791672d5c44d2ceb3a5e2a501a", "is_reserved": 0, "is_disabled": 0}, {"lat": 38.87654883333333, "fusion_lat": 0.0, "type": "electric_scooter", "bike_id": "c764b63856970edbb4960d03363b4535", "rental_uris": {"ios": "https://dc.lft.to/lastmile_qr_scan", "android": "https://dc.lft.to/lastmile_qr_scan"}, "fusion_lon": 0.0, "lon": -77.002878, "name": "c764b63856970edbb4960d03363b4535", "is_reserved": 0, "is_disabled": 0}, {"lat": 38.847584166666664, "fusion_lat": 0.0, "type": "electric_scooter", "bike_id": "1c6cbde5ee30eebc9f34e198ec176894", "rental_uris": {"ios": "https://dc.lft.to/lastmile_qr_scan", "android": "https://dc.lft.to/lastmile_qr_scan"}, "fusion_lon": 0.0, "lon": -76.99502883333334, "name": "1c6cbde5ee30eebc9f34e198ec176894", "is_reserved": 0, "is_disabled": 0}, {"lat": 38.95841, "fusion_lat": 0.0, "type": "electric_scooter", "bike_id": "cbf4cc42ce91389667e1d94778779ae0", "rental_uris": {"ios": "https://dc.lft.to/lastmile_qr_scan", "android": "https://dc.lft.to/lastmile_qr_scan"}, "fusion_lon": 0.0, "lon": -77.0016855, "name": "cbf4cc42ce91389667e1d94778779ae0", "is_reserved": 0, "is_disabled": 0}, {"lat": 38.879181, "fusion_lat": 0.0, "type": "electric_scooter", "bike_id": "922904330471be232086fc1b1acdfe24", "rental_uris": {"ios": "https://dc.lft.to/lastmile_qr_scan", "android": "https://dc.lft.to/lastmile_qr_scan"}, "fusion_lon": 0.0, "lon": -77.00534833333333, "name": "922904330471be232086fc1b1acdfe24", "is_reserved": 0, "is_disabled": 0}, {"lat": 38.916513333333334, "fusion_lat": 0.0, "type": "electric_scooter", "bike_id": "6377e65db11fd1840125fd5765b0b09a", "rental_uris": {"ios": "https://dc.lft.to/lastmile_qr_scan", "android": "https://dc.lft.to/lastmile_qr_scan"}, "fusion_lon": 0.0, "lon": -77.03009283333333, "name": "6377e65db11fd1840125fd5765b0b09a", "is_reserved": 0, "is_disabled": 0}, {"lat": 38.91890266666667, "fusion_lat": 0.0, "type": "electric_scooter", "bike_id": "7c2815bdd7ec101139fe5fefd43b66d0", "rental_uris": {"ios": "https://dc.lft.to/lastmile_qr_scan", "android": "https://dc.lft.to/lastmile_qr_scan"}, "fusion_lon": 0.0, "lon": -77.02194783333333, "name": "7c2815bdd7ec101139fe5fefd43b66d0", "is_reserved": 0, "is_disabled": 0}, {"lat": 38.859853666666666, "fusion_lat": 0.0, "type": "electric_scooter", "bike_id": "76ee0a2181fd36ed466c8464450b11da", "rental_uris": {"ios": "https://dc.lft.to/lastmile_qr_scan", "android": "https://dc.lft.to/lastmile_qr_scan"}, "fusion_lon": 0.0, "lon": -76.99647233333333, "name": "76ee0a2181fd36ed466c8464450b11da", "is_reserved": 0, "is_disabled": 0}, {"lat": 38.916610666666664, "fusion_lat": 0.0, "type": "electric_scooter", "bike_id": "31e972c42b67a6674d81ab583de4120d", "rental_uris": {"ios": "https://dc.lft.to/lastmile_qr_scan", "android": "https://dc.lft.to/lastmile_qr_scan"}, "fusion_lon": 0.0, "lon": -77.03852266666667, "name": "31e972c42b67a6674d81ab583de4120d", "is_reserved": 0, "is_disabled": 0}, {"lat": 38.89813766666666, "fusion_lat": 0.0, "type": "electric_scooter", "bike_id": "1711096d09f0151a5480c25d11b5d010", "rental_uris": {"ios": "https://dc.lft.to/lastmile_qr_scan", "android": "https://dc.lft.to/lastmile_qr_scan"}, "fusion_lon": 0.0, "lon": -77.03319733333333, "name": "1711096d09f0151a5480c25d11b5d010", "is_reserved": 0, "is_disabled": 0}, {"lat": 38.92073666666667, "fusion_lat": 0.0, "type": "electric_scooter", "bike_id": "af4a1d4fcdacfb5cd3fe9cde59a115d5", "rental_uris": {"ios": "https://dc.lft.to/lastmile_qr_scan", "android": "https://dc.lft.to/lastmile_qr_scan"}, "fusion_lon": 0.0, "lon": -77.04000933333333, "name": "af4a1d4fcdacfb5cd3fe9cde59a115d5", "is_reserved": 0, "is_disabled": 0}, {"lat": 38.926538666666666, "fusion_lat": 0.0, "type": "electric_scooter", "bike_id": "d628e7e2d9484f0484600d19f996599f", "rental_uris": {"ios": "https://dc.lft.to/lastmile_qr_scan", "android": "https://dc.lft.to/lastmile_qr_scan"}, "fusion_lon": 0.0, "lon": -77.04315266666667, "name": "d628e7e2d9484f0484600d19f996599f", "is_reserved": 0, "is_disabled": 0}, {"lat": 38.92285416666667, "fusion_lat": 0.0, "type": "electric_scooter", "bike_id": "2f33249a6f2fcbefdabc2e3207064530", "rental_uris": {"ios": "https://dc.lft.to/lastmile_qr_scan", "android": "https://dc.lft.to/lastmile_qr_scan"}, "fusion_lon": 0.0, "lon": -77.03662783333333, "name": "2f33249a6f2fcbefdabc2e3207064530", "is_reserved": 0, "is_disabled": 0}, {"lat": 38.91844233333333, "fusion_lat": 0.0, "type": "electric_scooter", "bike_id": "018ab32cc21df17cf724acd757986d00", "rental_uris": {"ios": "https://dc.lft.to/lastmile_qr_scan", "android": "https://dc.lft.to/lastmile_qr_scan"}, "fusion_lon": 0.0, "lon": -77.04009116666667, "name": "018ab32cc21df17cf724acd757986d00", "is_reserved": 0, "is_disabled": 0}, {"lat": 38.924947833333334, "fusion_lat": 0.0, "type": "electric_scooter", "bike_id": "e417845ebb5ebeeb1395b58ff9f8ea28", "rental_uris": {"ios": "https://dc.lft.to/lastmile_qr_scan", "android": "https://dc.lft.to/lastmile_qr_scan"}, "fusion_lon": 0.0, "lon": -77.0245025, "name": "e417845ebb5ebeeb1395b58ff9f8ea28", "is_reserved": 0, "is_disabled": 0}, {"lat": 38.909460833333334, "fusion_lat": 0.0, "type": "electric_scooter", "bike_id": "972411bbb4d6eee9b7ccc2d39c88f951", "rental_uris": {"ios": "https://dc.lft.to/lastmile_qr_scan", "android": "https://dc.lft.to/lastmile_qr_scan"}, "fusion_lon": 0.0, "lon": -77.03457333333333, "name": "972411bbb4d6eee9b7ccc2d39c88f951", "is_reserved": 0, "is_disabled": 0}, {"lat": 38.911169, "fusion_lat": 0.0, "type": "electric_scooter", "bike_id": "37474d8c863b34bb6c1d28569b51d48a", "rental_uris": {"ios": "https://dc.lft.to/lastmile_qr_scan", "android": "https://dc.lft.to/lastmile_qr_scan"}, "fusion_lon": 0.0, "lon": -77.01152866666666, "name": "37474d8c863b34bb6c1d28569b51d48a", "is_reserved": 0, "is_disabled": 0}, {"lat": 38.9112735, "fusion_lat": 0.0, "type": "electric_scooter", "bike_id": "a52f516976b29aeeb984de541142287e", "rental_uris": {"ios": "https://dc.lft.to/lastmile_qr_scan", "android": "https://dc.lft.to/lastmile_qr_scan"}, "fusion_lon": 0.0, "lon": -77.0318025, "name": "a52f516976b29aeeb984de541142287e", "is_reserved": 0, "is_disabled": 0}, {"lat": 38.94452116666667, "fusion_lat": 0.0, "type": "electric_scooter", "bike_id": "2f21480d902e53c5e816e2e759d36790", "rental_uris": {"ios": "https://dc.lft.to/lastmile_qr_scan", "android": "https://dc.lft.to/lastmile_qr_scan"}, "fusion_lon": 0.0, "lon": -77.06354466666667, "name": "2f21480d902e53c5e816e2e759d36790", "is_reserved": 0, "is_disabled": 0}, {"lat": 38.917441, "fusion_lat": 0.0, "type": "electric_scooter", "bike_id": "55aa2532d76511f7543f08cf43840238", "rental_uris": {"ios": "https://dc.lft.to/lastmile_qr_scan", "android": "https://dc.lft.to/lastmile_qr_scan"}, "fusion_lon": 0.0, "lon": -77.06939483333333, "name": "55aa2532d76511f7543f08cf43840238", "is_reserved": 0, "is_disabled": 0}, {"lat": 38.91763533333334, "fusion_lat": 0.0, "type": "electric_scooter", "bike_id": "c4d2dd215067b648f10fdf276c86958b", "rental_uris": {"ios": "https://dc.lft.to/lastmile_qr_scan", "android": "https://dc.lft.to/lastmile_qr_scan"}, "fusion_lon": 0.0, "lon": -77.0322095, "name": "c4d2dd215067b648f10fdf276c86958b", "is_reserved": 0, "is_disabled": 0}, {"lat": 38.90668616666667, "fusion_lat": 0.0, "type": "electric_scooter", "bike_id": "2cd2fee05e1a44eefb66d4134b0d790b", "rental_uris": {"ios": "https://dc.lft.to/lastmile_qr_scan", "android": "https://dc.lft.to/lastmile_qr_scan"}, "fusion_lon": 0.0, "lon": -77.027119, "name": "2cd2fee05e1a44eefb66d4134b0d790b", "is_reserved": 0, "is_disabled": 0}, {"lat": 38.95766416666667, "fusion_lat": 0.0, "type": "electric_scooter", "bike_id": "6ca6700c2e7535a723f29ec5e6eb4633", "rental_uris": {"ios": "https://dc.lft.to/lastmile_qr_scan", "android": "https://dc.lft.to/lastmile_qr_scan"}, "fusion_lon": 0.0, "lon": -77.01497316666666, "name": "6ca6700c2e7535a723f29ec5e6eb4633", "is_reserved": 0, "is_disabled": 0}, {"lat": 38.91619683333333, "fusion_lat": 0.0, "type": "electric_scooter", "bike_id": "88e574f3e9e76b556bd08842e1c0635f", "rental_uris": {"ios": "https://dc.lft.to/lastmile_qr_scan", "android": "https://dc.lft.to/lastmile_qr_scan"}, "fusion_lon": 0.0, "lon": -77.04875233333334, "name": "88e574f3e9e76b556bd08842e1c0635f", "is_reserved": 0, "is_disabled": 0}, {"lat": 38.893235, "fusion_lat": 0.0, "type": "electric_bike", "bike_id": "67983c8723f00356e9d2032ef1d70d23", "rental_uris": {"ios": "https://dc.lft.to/lastmile_qr_scan", "android": "https://dc.lft.to/lastmile_qr_scan"}, "fusion_lon": 0.0, "lon": -77.07722516666666, "name": "67983c8723f00356e9d2032ef1d70d23", "is_reserved": 0, "is_disabled": 0}, {"lat": 38.8740665, "fusion_lat": 0.0, "type": "electric_scooter", "bike_id": "4dba96e08363925b54e58bf00d5d110a", "rental_uris": {"ios": "https://dc.lft.to/lastmile_qr_scan", "android": "https://dc.lft.to/lastmile_qr_scan"}, "fusion_lon": 0.0, "lon": -77.000397, "name": "4dba96e08363925b54e58bf00d5d110a", "is_reserved": 0, "is_disabled": 0}, {"lat": 38.874914, "fusion_lat": 0.0, "type": "electric_scooter", "bike_id": "167c4b60fcc27f15238034fa7e440741", "rental_uris": {"ios": "https://dc.lft.to/lastmile_qr_scan", "android": "https://dc.lft.to/lastmile_qr_scan"}, "fusion_lon": 0.0, "lon": -77.00177983333333, "name": "167c4b60fcc27f15238034fa7e440741", "is_reserved": 0, "is_disabled": 0}, {"lat": 38.884835, "fusion_lat": 0.0, "type": "electric_scooter", "bike_id": "4720544c1af56ddb8617e70e8ce4bcb3", "rental_uris": {"ios": "https://dc.lft.to/lastmile_qr_scan", "android": "https://dc.lft.to/lastmile_qr_scan"}, "fusion_lon": 0.0, "lon": -76.9970425, "name": "4720544c1af56ddb8617e70e8ce4bcb3", "is_reserved": 0, "is_disabled": 0}, {"lat": 38.8970055, "fusion_lat": 0.0, "type": "electric_scooter", "bike_id": "fc553f6b89def1f50be1ed41aea88a02", "rental_uris": {"ios": "https://dc.lft.to/lastmile_qr_scan", "android": "https://dc.lft.to/lastmile_qr_scan"}, "fusion_lon": 0.0, "lon": -77.02768016666667, "name": "fc553f6b89def1f50be1ed41aea88a02", "is_reserved": 0, "is_disabled": 0}, {"lat": 38.864237333333335, "fusion_lat": 0.0, "type": "electric_bike", "bike_id": "bb5dda618243ca855d0e166b051963c0", "rental_uris": {"ios": "https://dc.lft.to/lastmile_qr_scan", "android": "https://dc.lft.to/lastmile_qr_scan"}, "fusion_lon": 0.0, "lon": -77.01339733333333, "name": "bb5dda618243ca855d0e166b051963c0", "is_reserved": 0, "is_disabled": 0}, {"lat": 38.92473583333334, "fusion_lat": 0.0, "type": "electric_scooter", "bike_id": "fe255d57803b1471c0c20a61d1f4f6cb", "rental_uris": {"ios": "https://dc.lft.to/lastmile_qr_scan", "android": "https://dc.lft.to/lastmile_qr_scan"}, "fusion_lon": 0.0, "lon": -77.02986616666666, "name": "fe255d57803b1471c0c20a61d1f4f6cb", "is_reserved": 0, "is_disabled": 0}, {"lat": 38.902603, "fusion_lat": 0.0, "type": "electric_scooter", "bike_id": "9ee04d67a4114953c634e1ddbfcbcfa5", "rental_uris": {"ios": "https://dc.lft.to/lastmile_qr_scan", "android": "https://dc.lft.to/lastmile_qr_scan"}, "fusion_lon": 0.0, "lon": -77.02809466666666, "name": "9ee04d67a4114953c634e1ddbfcbcfa5", "is_reserved": 0, "is_disabled": 0}, {"lat": 38.892456333333335, "fusion_lat": 0.0, "type": "electric_scooter", "bike_id": "2ac929e72e53195e7892122bfde76ae4", "rental_uris": {"ios": "https://dc.lft.to/lastmile_qr_scan", "android": "https://dc.lft.to/lastmile_qr_scan"}, "fusion_lon": 0.0, "lon": -77.02789483333333, "name": "2ac929e72e53195e7892122bfde76ae4", "is_reserved": 0, "is_disabled": 0}, {"lat": 38.935780666666666, "fusion_lat": 0.0, "type": "electric_scooter", "bike_id": "5078860e385f481385f8fdee5582788b", "rental_uris": {"ios": "https://dc.lft.to/lastmile_qr_scan", "android": "https://dc.lft.to/lastmile_qr_scan"}, "fusion_lon": 0.0, "lon": -77.03364466666666, "name": "5078860e385f481385f8fdee5582788b", "is_reserved": 0, "is_disabled": 0}, {"lat": 38.88520033333333, "fusion_lat": 0.0, "type": "electric_scooter", "bike_id": "8eec08c27c8784f9f75248598ca7dcec", "rental_uris": {"ios": "https://dc.lft.to/lastmile_qr_scan", "android": "https://dc.lft.to/lastmile_qr_scan"}, "fusion_lon": 0.0, "lon": -77.0112925, "name": "8eec08c27c8784f9f75248598ca7dcec", "is_reserved": 0, "is_disabled": 0}, {"lat": 38.917088, "fusion_lat": 0.0, "type": "electric_scooter", "bike_id": "ad754117f69f30023cf41644e993aced", "rental_uris": {"ios": "https://dc.lft.to/lastmile_qr_scan", "android": "https://dc.lft.to/lastmile_qr_scan"}, "fusion_lon": 0.0, "lon": -77.02413783333333, "name": "ad754117f69f30023cf41644e993aced", "is_reserved": 0, "is_disabled": 0}, {"lat": 38.914775166666665, "fusion_lat": 0.0, "type": "electric_scooter", "bike_id": "8e14240bf19f0cf090e35626e250d8bc", "rental_uris": {"ios": "https://dc.lft.to/lastmile_qr_scan", "android": "https://dc.lft.to/lastmile_qr_scan"}, "fusion_lon": 0.0, "lon": -77.002261, "name": "8e14240bf19f0cf090e35626e250d8bc", "is_reserved": 0, "is_disabled": 0}, {"lat": 38.9440485, "fusion_lat": 0.0, "type": "electric_scooter", "bike_id": "1fd531d02c2a5f55921fab881226fe68", "rental_uris": {"ios": "https://dc.lft.to/lastmile_qr_scan", "android": "https://dc.lft.to/lastmile_qr_scan"}, "fusion_lon": 0.0, "lon": -77.039051, "name": "1fd531d02c2a5f55921fab881226fe68", "is_reserved": 0, "is_disabled": 0}, {"lat": 38.8986905, "fusion_lat": 0.0, "type": "electric_scooter", "bike_id": "8e620c09511e4d3990f4f2e28dc159a9", "rental_uris": {"ios": "https://dc.lft.to/lastmile_qr_scan", "android": "https://dc.lft.to/lastmile_qr_scan"}, "fusion_lon": 0.0, "lon": -76.94663, "name": "8e620c09511e4d3990f4f2e28dc159a9", "is_reserved": 0, "is_disabled": 0}, {"lat": 38.91411983333333, "fusion_lat": 0.0, "type": "electric_scooter", "bike_id": "ca83891689b173cdbb6885a717115067", "rental_uris": {"ios": "https://dc.lft.to/lastmile_qr_scan", "android": "https://dc.lft.to/lastmile_qr_scan"}, "fusion_lon": 0.0, "lon": -77.01078333333334, "name": "ca83891689b173cdbb6885a717115067", "is_reserved": 0, "is_disabled": 0}, {"lat": 38.90886233333333, "fusion_lat": 0.0, "type": "electric_scooter", "bike_id": "d0536f7c1493ca6c9b35b2cd05f720fa", "rental_uris": {"ios": "https://dc.lft.to/lastmile_qr_scan", "android": "https://dc.lft.to/lastmile_qr_scan"}, "fusion_lon": 0.0, "lon": -77.04491866666666, "name": "d0536f7c1493ca6c9b35b2cd05f720fa", "is_reserved": 0, "is_disabled": 0}, {"lat": 38.902780666666665, "fusion_lat": 0.0, "type": "electric_scooter", "bike_id": "a459b7871ef9ed134a78e40d87800785", "rental_uris": {"ios": "https://dc.lft.to/lastmile_qr_scan", "android": "https://dc.lft.to/lastmile_qr_scan"}, "fusion_lon": 0.0, "lon": -77.046108, "name": "a459b7871ef9ed134a78e40d87800785", "is_reserved": 0, "is_disabled": 0}, {"lat": 38.921386, "fusion_lat": 0.0, "type": "electric_bike", "bike_id": "7d9fb40ef8da7da3de4d1780192fc021", "rental_uris": {"ios": "https://dc.lft.to/lastmile_qr_scan", "android": "https://dc.lft.to/lastmile_qr_scan"}, "fusion_lon": 0.0, "lon": -76.98880283333334, "name": "7d9fb40ef8da7da3de4d1780192fc021", "is_reserved": 0, "is_disabled": 0}, {"lat": 38.937691, "fusion_lat": 0.0, "type": "electric_scooter", "bike_id": "6c825af0ca711696c02298dadd11d3ed", "rental_uris": {"ios": "https://dc.lft.to/lastmile_qr_scan", "android": "https://dc.lft.to/lastmile_qr_scan"}, "fusion_lon": 0.0, "lon": -77.02343866666666, "name": "6c825af0ca711696c02298dadd11d3ed", "is_reserved": 0, "is_disabled": 0}, {"lat": 38.93633716666667, "fusion_lat": 0.0, "type": "electric_scooter", "bike_id": "974868664ec85863cc55d14a785f5ab4", "rental_uris": {"ios": "https://dc.lft.to/lastmile_qr_scan", "android": "https://dc.lft.to/lastmile_qr_scan"}, "fusion_lon": 0.0, "lon": -77.03694133333333, "name": "974868664ec85863cc55d14a785f5ab4", "is_reserved": 0, "is_disabled": 0}, {"lat": 38.870280666666666, "fusion_lat": 0.0, "type": "electric_bike", "bike_id": "844021d76ff3f19cc361e12207904827", "rental_uris": {"ios": "https://dc.lft.to/lastmile_qr_scan", "android": "https://dc.lft.to/lastmile_qr_scan"}, "fusion_lon": 0.0, "lon": -77.22897466666667, "name": "844021d76ff3f19cc361e12207904827", "is_reserved": 0, "is_disabled": 0}, {"lat": 38.915519833333335, "fusion_lat": 0.0, "type": "electric_scooter", "bike_id": "0e642f51fcc48481aa0737198de707f8", "rental_uris": {"ios": "https://dc.lft.to/lastmile_qr_scan", "android": "https://dc.lft.to/lastmile_qr_scan"}, "fusion_lon": 0.0, "lon": -77.03251016666667, "name": "0e642f51fcc48481aa0737198de707f8", "is_reserved": 0, "is_disabled": 0}, {"lat": 38.9174435, "fusion_lat": 0.0, "type": "electric_scooter", "bike_id": "61d13074c55f169b95406e0a8f0968aa", "rental_uris": {"ios": "https://dc.lft.to/lastmile_qr_scan", "android": "https://dc.lft.to/lastmile_qr_scan"}, "fusion_lon": 0.0, "lon": -77.031852, "name": "61d13074c55f169b95406e0a8f0968aa", "is_reserved": 0, "is_disabled": 0}, {"lat": 38.8977035, "fusion_lat": 0.0, "type": "electric_scooter", "bike_id": "ad4a7a01e62dbb575a8c10fc00e44175", "rental_uris": {"ios": "https://dc.lft.to/lastmile_qr_scan", "android": "https://dc.lft.to/lastmile_qr_scan"}, "fusion_lon": 0.0, "lon": -77.031574, "name": "ad4a7a01e62dbb575a8c10fc00e44175", "is_reserved": 0, "is_disabled": 0}, {"lat": 38.893618333333336, "fusion_lat": 0.0, "type": "electric_bike", "bike_id": "3b6acfc86e8b462e880bac629e437749", "rental_uris": {"ios": "https://dc.lft.to/lastmile_qr_scan", "android": "https://dc.lft.to/lastmile_qr_scan"}, "fusion_lon": 0.0, "lon": -76.98562383333334, "name": "3b6acfc86e8b462e880bac629e437749", "is_reserved": 0, "is_disabled": 0}, {"lat": 38.8623085, "fusion_lat": 0.0, "type": "electric_scooter", "bike_id": "c3f6660eaddb6e91e71b040ffe445882", "rental_uris": {"ios": "https://dc.lft.to/lastmile_qr_scan", "android": "https://dc.lft.to/lastmile_qr_scan"}, "fusion_lon": 0.0, "lon": -76.995536, "name": "c3f6660eaddb6e91e71b040ffe445882", "is_reserved": 0, "is_disabled": 0}, {"lat": 38.892208, "fusion_lat": 0.0, "type": "electric_scooter", "bike_id": "3ec846665aaedf324e0592978625fec7", "rental_uris": {"ios": "https://dc.lft.to/lastmile_qr_scan", "android": "https://dc.lft.to/lastmile_qr_scan"}, "fusion_lon": 0.0, "lon": -77.04333983333333, "name": "3ec846665aaedf324e0592978625fec7", "is_reserved": 0, "is_disabled": 0}, {"lat": 38.81334966666667, "fusion_lat": 0.0, "type": "electric_bike", "bike_id": "1b37407da4380e05aff5b3c990482022", "rental_uris": {"ios": "https://dc.lft.to/lastmile_qr_scan", "android": "https://dc.lft.to/lastmile_qr_scan"}, "fusion_lon": 0.0, "lon": -77.05112166666666, "name": "1b37407da4380e05aff5b3c990482022", "is_reserved": 0, "is_disabled": 0}, {"lat": 38.91494933333333, "fusion_lat": 0.0, "type": "electric_scooter", "bike_id": "0feafc92f1be02270218263a6f85db21", "rental_uris": {"ios": "https://dc.lft.to/lastmile_qr_scan", "android": "https://dc.lft.to/lastmile_qr_scan"}, "fusion_lon": 0.0, "lon": -77.042467, "name": "0feafc92f1be02270218263a6f85db21", "is_reserved": 0, "is_disabled": 0}, {"lat": 38.89898133333333, "fusion_lat": 0.0, "type": "electric_scooter", "bike_id": "0c290d6e3b5a84000d1c7beb1d57b3b1", "rental_uris": {"ios": "https://dc.lft.to/lastmile_qr_scan", "android": "https://dc.lft.to/lastmile_qr_scan"}, "fusion_lon": 0.0, "lon": -76.9808265, "name": "0c290d6e3b5a84000d1c7beb1d57b3b1", "is_reserved": 0, "is_disabled": 0}, {"lat": 38.90648616666667, "fusion_lat": 0.0, "type": "electric_scooter", "bike_id": "7f384b8649fc0572ba2aa34b19212622", "rental_uris": {"ios": "https://dc.lft.to/lastmile_qr_scan", "android": "https://dc.lft.to/lastmile_qr_scan"}, "fusion_lon": 0.0, "lon": -77.01427883333334, "name": "7f384b8649fc0572ba2aa34b19212622", "is_reserved": 0, "is_disabled": 0}, {"lat": 38.912334333333334, "fusion_lat": 0.0, "type": "electric_scooter", "bike_id": "dcc8885802bb274c98645a320733244c", "rental_uris": {"ios": "https://dc.lft.to/lastmile_qr_scan", "android": "https://dc.lft.to/lastmile_qr_scan"}, "fusion_lon": 0.0, "lon": -77.04875633333333, "name": "dcc8885802bb274c98645a320733244c", "is_reserved": 0, "is_disabled": 0}, {"lat": 38.898858, "fusion_lat": 0.0, "type": "electric_scooter", "bike_id": "5d88e84cfe4ef55018e096f58e192175", "rental_uris": {"ios": "https://dc.lft.to/lastmile_qr_scan", "android": "https://dc.lft.to/lastmile_qr_scan"}, "fusion_lon": 0.0, "lon": -77.04885833333333, "name": "5d88e84cfe4ef55018e096f58e192175", "is_reserved": 0, "is_disabled": 0}, {"lat": 39.070641, "fusion_lat": 0.0, "type": "electric_bike", "bike_id": "98b9dd9d6f86d4bfb1d53f4f3585c1d2", "rental_uris": {"ios": "https://dc.lft.to/lastmile_qr_scan", "android": "https://dc.lft.to/lastmile_qr_scan"}, "fusion_lon": 0.0, "lon": -77.11516933333333, "name": "98b9dd9d6f86d4bfb1d53f4f3585c1d2", "is_reserved": 0, "is_disabled": 0}, {"lat": 38.95708916666667, "fusion_lat": 0.0, "type": "electric_scooter", "bike_id": "dae54ca920c9145562b8044c55d82e91", "rental_uris": {"ios": "https://dc.lft.to/lastmile_qr_scan", "android": "https://dc.lft.to/lastmile_qr_scan"}, "fusion_lon": 0.0, "lon": -77.02393283333333, "name": "dae54ca920c9145562b8044c55d82e91", "is_reserved": 0, "is_disabled": 0}, {"lat": 38.9041175, "fusion_lat": 0.0, "type": "electric_scooter", "bike_id": "53afdcb10c275f15808fd40e55cc489b", "rental_uris": {"ios": "https://dc.lft.to/lastmile_qr_scan", "android": "https://dc.lft.to/lastmile_qr_scan"}, "fusion_lon": 0.0, "lon": -76.973343, "name": "53afdcb10c275f15808fd40e55cc489b", "is_reserved": 0, "is_disabled": 0}, {"lat": 38.91252983333333, "fusion_lat": 0.0, "type": "electric_scooter", "bike_id": "462185fc01cf36947bc3ddffce7f431e", "rental_uris": {"ios": "https://dc.lft.to/lastmile_qr_scan", "android": "https://dc.lft.to/lastmile_qr_scan"}, "fusion_lon": 0.0, "lon": -77.03260366666666, "name": "462185fc01cf36947bc3ddffce7f431e", "is_reserved": 0, "is_disabled": 0}, {"lat": 38.918941833333335, "fusion_lat": 0.0, "type": "electric_scooter", "bike_id": "832490a44475cf1c05c751f777e9ce23", "rental_uris": {"ios": "https://dc.lft.to/lastmile_qr_scan", "android": "https://dc.lft.to/lastmile_qr_scan"}, "fusion_lon": 0.0, "lon": -77.04700333333334, "name": "832490a44475cf1c05c751f777e9ce23", "is_reserved": 0, "is_disabled": 0}, {"lat": 38.938942, "fusion_lat": 0.0, "type": "electric_scooter", "bike_id": "ac7505f9aebaeb6e9fc717128e606115", "rental_uris": {"ios": "https://dc.lft.to/lastmile_qr_scan", "android": "https://dc.lft.to/lastmile_qr_scan"}, "fusion_lon": 0.0, "lon": -77.017619, "name": "ac7505f9aebaeb6e9fc717128e606115", "is_reserved": 0, "is_disabled": 0}, {"lat": 38.91114783333333, "fusion_lat": 0.0, "type": "electric_scooter", "bike_id": "5db59d948db6ff4f42e5283b414a1d4f", "rental_uris": {"ios": "https://dc.lft.to/lastmile_qr_scan", "android": "https://dc.lft.to/lastmile_qr_scan"}, "fusion_lon": 0.0, "lon": -77.037551, "name": "5db59d948db6ff4f42e5283b414a1d4f", "is_reserved": 0, "is_disabled": 0}, {"lat": 38.922574833333336, "fusion_lat": 0.0, "type": "electric_scooter", "bike_id": "0768ff97d605f2687e99561dd319ff42", "rental_uris": {"ios": "https://dc.lft.to/lastmile_qr_scan", "android": "https://dc.lft.to/lastmile_qr_scan"}, "fusion_lon": 0.0, "lon": -77.02108566666666, "name": "0768ff97d605f2687e99561dd319ff42", "is_reserved": 0, "is_disabled": 0}, {"lat": 38.924471, "fusion_lat": 0.0, "type": "electric_scooter", "bike_id": "dbfc34183f0e0069da60caac7a4fc175", "rental_uris": {"ios": "https://dc.lft.to/lastmile_qr_scan", "android": "https://dc.lft.to/lastmile_qr_scan"}, "fusion_lon": 0.0, "lon": -77.04025016666667, "name": "dbfc34183f0e0069da60caac7a4fc175", "is_reserved": 0, "is_disabled": 0}, {"lat": 38.909180666666664, "fusion_lat": 0.0, "type": "electric_scooter", "bike_id": "99ba954cf04086c2a447276d214841cb", "rental_uris": {"ios": "https://dc.lft.to/lastmile_qr_scan", "android": "https://dc.lft.to/lastmile_qr_scan"}, "fusion_lon": 0.0, "lon": -77.03967166666666, "name": "99ba954cf04086c2a447276d214841cb", "is_reserved": 0, "is_disabled": 0}, {"lat": 38.97367466666667, "fusion_lat": 0.0, "type": "electric_scooter", "bike_id": "1969ec39f838e5d68c2c19306cbd956b", "rental_uris": {"ios": "https://dc.lft.to/lastmile_qr_scan", "android": "https://dc.lft.to/lastmile_qr_scan"}, "fusion_lon": 0.0, "lon": -77.01864883333333, "name": "1969ec39f838e5d68c2c19306cbd956b", "is_reserved": 0, "is_disabled": 0}, {"lat": 38.913604166666666, "fusion_lat": 0.0, "type": "electric_scooter", "bike_id": "9ab342560d0f2c95027c32fa48af826c", "rental_uris": {"ios": "https://dc.lft.to/lastmile_qr_scan", "android": "https://dc.lft.to/lastmile_qr_scan"}, "fusion_lon": 0.0, "lon": -77.0205415, "name": "9ab342560d0f2c95027c32fa48af826c", "is_reserved": 0, "is_disabled": 0}, {"lat": 38.8853985, "fusion_lat": 0.0, "type": "electric_scooter", "bike_id": "f42312f33a41926870c02cfe722c4ff8", "rental_uris": {"ios": "https://dc.lft.to/lastmile_qr_scan", "android": "https://dc.lft.to/lastmile_qr_scan"}, "fusion_lon": 0.0, "lon": -76.97889633333334, "name": "f42312f33a41926870c02cfe722c4ff8", "is_reserved": 0, "is_disabled": 0}, {"lat": 38.8998145, "fusion_lat": 0.0, "type": "electric_scooter", "bike_id": "d2d7e0b246782ef62c1bdf5a78918b2b", "rental_uris": {"ios": "https://dc.lft.to/lastmile_qr_scan", "android": "https://dc.lft.to/lastmile_qr_scan"}, "fusion_lon": 0.0, "lon": -76.9856165, "name": "d2d7e0b246782ef62c1bdf5a78918b2b", "is_reserved": 0, "is_disabled": 0}, {"lat": 38.898163, "fusion_lat": 0.0, "type": "electric_scooter", "bike_id": "bc86c0d086b570ba59200ca766c6c57b", "rental_uris": {"ios": "https://dc.lft.to/lastmile_qr_scan", "android": "https://dc.lft.to/lastmile_qr_scan"}, "fusion_lon": 0.0, "lon": -77.04103716666667, "name": "bc86c0d086b570ba59200ca766c6c57b", "is_reserved": 0, "is_disabled": 0}, {"lat": 38.91706466666667, "fusion_lat": 0.0, "type": "electric_scooter", "bike_id": "9fab2d34c46a60dd83c34190fad368c5", "rental_uris": {"ios": "https://dc.lft.to/lastmile_qr_scan", "android": "https://dc.lft.to/lastmile_qr_scan"}, "fusion_lon": 0.0, "lon": -77.0420705, "name": "9fab2d34c46a60dd83c34190fad368c5", "is_reserved": 0, "is_disabled": 0}, {"lat": 38.9225225, "fusion_lat": 0.0, "type": "electric_scooter", "bike_id": "352cbb1d31e653bc2e14fe3f80ab8934", "rental_uris": {"ios": "https://dc.lft.to/lastmile_qr_scan", "android": "https://dc.lft.to/lastmile_qr_scan"}, "fusion_lon": 0.0, "lon": -77.0194665, "name": "352cbb1d31e653bc2e14fe3f80ab8934", "is_reserved": 0, "is_disabled": 0}, {"lat": 38.91735666666667, "fusion_lat": 0.0, "type": "electric_scooter", "bike_id": "9ac9a1928f79daafd556e43896fc3f9f", "rental_uris": {"ios": "https://dc.lft.to/lastmile_qr_scan", "android": "https://dc.lft.to/lastmile_qr_scan"}, "fusion_lon": 0.0, "lon": -77.03613383333334, "name": "9ac9a1928f79daafd556e43896fc3f9f", "is_reserved": 0, "is_disabled": 0}, {"lat": 38.925435666666665, "fusion_lat": 0.0, "type": "electric_scooter", "bike_id": "659c31410b41ef8e7d912d009cfc8854", "rental_uris": {"ios": "https://dc.lft.to/lastmile_qr_scan", "android": "https://dc.lft.to/lastmile_qr_scan"}, "fusion_lon": 0.0, "lon": -77.038739, "name": "659c31410b41ef8e7d912d009cfc8854", "is_reserved": 0, "is_disabled": 0}, {"lat": 38.926341666666666, "fusion_lat": 0.0, "type": "electric_scooter", "bike_id": "f85f3ca101a2c8ada07e16dcec2cef96", "rental_uris": {"ios": "https://dc.lft.to/lastmile_qr_scan", "android": "https://dc.lft.to/lastmile_qr_scan"}, "fusion_lon": 0.0, "lon": -77.03507583333334, "name": "f85f3ca101a2c8ada07e16dcec2cef96", "is_reserved": 0, "is_disabled": 0}, {"lat": 38.96462366666667, "fusion_lat": 0.0, "type": "electric_bike", "bike_id": "00f247cda5f04ef27e9b113646e64e82", "rental_uris": {"ios": "https://dc.lft.to/lastmile_qr_scan", "android": "https://dc.lft.to/lastmile_qr_scan"}, "fusion_lon": 0.0, "lon": -77.03569866666666, "name": "00f247cda5f04ef27e9b113646e64e82", "is_reserved": 0, "is_disabled": 0}, {"lat": 38.897902, "fusion_lat": 0.0, "type": "electric_scooter", "bike_id": "8ac830c08de135e60a8a0820eaa30df0", "rental_uris": {"ios": "https://dc.lft.to/lastmile_qr_scan", "android": "https://dc.lft.to/lastmile_qr_scan"}, "fusion_lon": 0.0, "lon": -77.009082, "name": "8ac830c08de135e60a8a0820eaa30df0", "is_reserved": 0, "is_disabled": 0}, {"lat": 38.89817733333334, "fusion_lat": 0.0, "type": "electric_bike", "bike_id": "5097773ea98edab2ce631b5072825717", "rental_uris": {"ios": "https://dc.lft.to/lastmile_qr_scan", "android": "https://dc.lft.to/lastmile_qr_scan"}, "fusion_lon": 0.0, "lon": -76.99062816666667, "name": "5097773ea98edab2ce631b5072825717", "is_reserved": 0, "is_disabled": 0}, {"lat": 38.9009265, "fusion_lat": 0.0, "type": "electric_scooter", "bike_id": "63d1656e5f9cc8e37931f5fb5ae12628", "rental_uris": {"ios": "https://dc.lft.to/lastmile_qr_scan", "android": "https://dc.lft.to/lastmile_qr_scan"}, "fusion_lon": 0.0, "lon": -77.00656633333334, "name": "63d1656e5f9cc8e37931f5fb5ae12628", "is_reserved": 0, "is_disabled": 0}, {"lat": 38.92797066666667, "fusion_lat": 0.0, "type": "electric_scooter", "bike_id": "d1cb872e4e5fd2b980aa803060b96123", "rental_uris": {"ios": "https://dc.lft.to/lastmile_qr_scan", "android": "https://dc.lft.to/lastmile_qr_scan"}, "fusion_lon": 0.0, "lon": -77.0405415, "name": "d1cb872e4e5fd2b980aa803060b96123", "is_reserved": 0, "is_disabled": 0}, {"lat": 38.894866666666665, "fusion_lat": 0.0, "type": "electric_scooter", "bike_id": "63bdf58c8e1c5df836bee9bcb6def9b5", "rental_uris": {"ios": "https://dc.lft.to/lastmile_qr_scan", "android": "https://dc.lft.to/lastmile_qr_scan"}, "fusion_lon": 0.0, "lon": -77.01079033333333, "name": "63bdf58c8e1c5df836bee9bcb6def9b5", "is_reserved": 0, "is_disabled": 0}, {"lat": 38.915535166666665, "fusion_lat": 0.0, "type": "electric_scooter", "bike_id": "db6e851050de0a435f2842bbbd174f03", "rental_uris": {"ios": "https://dc.lft.to/lastmile_qr_scan", "android": "https://dc.lft.to/lastmile_qr_scan"}, "fusion_lon": 0.0, "lon": -77.00701533333333, "name": "db6e851050de0a435f2842bbbd174f03", "is_reserved": 0, "is_disabled": 0}, {"lat": 38.93104866666667, "fusion_lat": 0.0, "type": "electric_scooter", "bike_id": "24ff35ef696caf056427999ec0a2a83c", "rental_uris": {"ios": "https://dc.lft.to/lastmile_qr_scan", "android": "https://dc.lft.to/lastmile_qr_scan"}, "fusion_lon": 0.0, "lon": -77.024622, "name": "24ff35ef696caf056427999ec0a2a83c", "is_reserved": 0, "is_disabled": 0}, {"lat": 38.90962616666667, "fusion_lat": 0.0, "type": "electric_scooter", "bike_id": "23c3e2dfa1b97e6a0446677999a3130d", "rental_uris": {"ios": "https://dc.lft.to/lastmile_qr_scan", "android": "https://dc.lft.to/lastmile_qr_scan"}, "fusion_lon": 0.0, "lon": -77.044659, "name": "23c3e2dfa1b97e6a0446677999a3130d", "is_reserved": 0, "is_disabled": 0}, {"lat": 38.91774133333333, "fusion_lat": 0.0, "type": "electric_scooter", "bike_id": "d49af8d6d0d0d7b912ccfec72eb0b486", "rental_uris": {"ios": "https://dc.lft.to/lastmile_qr_scan", "android": "https://dc.lft.to/lastmile_qr_scan"}, "fusion_lon": 0.0, "lon": -77.01492766666667, "name": "d49af8d6d0d0d7b912ccfec72eb0b486", "is_reserved": 0, "is_disabled": 0}, {"lat": 38.91105616666667, "fusion_lat": 0.0, "type": "electric_scooter", "bike_id": "546a769be8b343095a5fd98409a83540", "rental_uris": {"ios": "https://dc.lft.to/lastmile_qr_scan", "android": "https://dc.lft.to/lastmile_qr_scan"}, "fusion_lon": 0.0, "lon": -77.0021915, "name": "546a769be8b343095a5fd98409a83540", "is_reserved": 0, "is_disabled": 0}, {"lat": 38.9662025, "fusion_lat": 0.0, "type": "electric_bike", "bike_id": "8f3bd35cfb4fd38fbfd190e066c01669", "rental_uris": {"ios": "https://dc.lft.to/lastmile_qr_scan", "android": "https://dc.lft.to/lastmile_qr_scan"}, "fusion_lon": 0.0, "lon": -77.03423933333333, "name": "8f3bd35cfb4fd38fbfd190e066c01669", "is_reserved": 0, "is_disabled": 0}, {"lat": 38.9276545, "fusion_lat": 0.0, "type": "electric_bike", "bike_id": "f01b386be1fd43b08f4295f93b1281bf", "rental_uris": {"ios": "https://dc.lft.to/lastmile_qr_scan", "android": "https://dc.lft.to/lastmile_qr_scan"}, "fusion_lon": 0.0, "lon": -77.07010633333333, "name": "f01b386be1fd43b08f4295f93b1281bf", "is_reserved": 0, "is_disabled": 0}, {"lat": 38.93607383333333, "fusion_lat": 0.0, "type": "electric_scooter", "bike_id": "39823773b51254fb72d3bfcd99d2d33a", "rental_uris": {"ios": "https://dc.lft.to/lastmile_qr_scan", "android": "https://dc.lft.to/lastmile_qr_scan"}, "fusion_lon": 0.0, "lon": -77.03189766666667, "name": "39823773b51254fb72d3bfcd99d2d33a", "is_reserved": 0, "is_disabled": 0}, {"lat": 38.892291666666665, "fusion_lat": 0.0, "type": "electric_scooter", "bike_id": "9e2521aa5ca33691b0616a8a37b2a7b4", "rental_uris": {"ios": "https://dc.lft.to/lastmile_qr_scan", "android": "https://dc.lft.to/lastmile_qr_scan"}, "fusion_lon": 0.0, "lon": -77.02205416666666, "name": "9e2521aa5ca33691b0616a8a37b2a7b4", "is_reserved": 0, "is_disabled": 0}, {"lat": 38.899842, "fusion_lat": 0.0, "type": "electric_scooter", "bike_id": "8228befbe0e824ba77117a7d240d44ed", "rental_uris": {"ios": "https://dc.lft.to/lastmile_qr_scan", "android": "https://dc.lft.to/lastmile_qr_scan"}, "fusion_lon": 0.0, "lon": -77.050928, "name": "8228befbe0e824ba77117a7d240d44ed", "is_reserved": 0, "is_disabled": 0}, {"lat": 38.85621483333333, "fusion_lat": 0.0, "type": "electric_bike", "bike_id": "f24300fa3f4c6b7c64eb5126634b7dcd", "rental_uris": {"ios": "https://dc.lft.to/lastmile_qr_scan", "android": "https://dc.lft.to/lastmile_qr_scan"}, "fusion_lon": 0.0, "lon": -76.96155133333333, "name": "f24300fa3f4c6b7c64eb5126634b7dcd", "is_reserved": 0, "is_disabled": 0}, {"lat": 38.902373, "fusion_lat": 0.0, "type": "electric_scooter", "bike_id": "1b94bb8d8df0e7fd1f7c1cde9d3d8db4", "rental_uris": {"ios": "https://dc.lft.to/lastmile_qr_scan", "android": "https://dc.lft.to/lastmile_qr_scan"}, "fusion_lon": 0.0, "lon": -77.015086, "name": "1b94bb8d8df0e7fd1f7c1cde9d3d8db4", "is_reserved": 0, "is_disabled": 0}, {"lat": 38.89842016666667, "fusion_lat": 0.0, "type": "electric_scooter", "bike_id": "91f26c1b8d9c0fd89eb5bec923a6269c", "rental_uris": {"ios": "https://dc.lft.to/lastmile_qr_scan", "android": "https://dc.lft.to/lastmile_qr_scan"}, "fusion_lon": 0.0, "lon": -77.0395245, "name": "91f26c1b8d9c0fd89eb5bec923a6269c", "is_reserved": 0, "is_disabled": 0}, {"lat": 38.844244833333335, "fusion_lat": 0.0, "type": "electric_scooter", "bike_id": "3c6b40097ec430f27edfdbe01d9c012f", "rental_uris": {"ios": "https://dc.lft.to/lastmile_qr_scan", "android": "https://dc.lft.to/lastmile_qr_scan"}, "fusion_lon": 0.0, "lon": -76.99781183333333, "name": "3c6b40097ec430f27edfdbe01d9c012f", "is_reserved": 0, "is_disabled": 0}, {"lat": 38.88486566666667, "fusion_lat": 0.0, "type": "electric_scooter", "bike_id": "a5b26c038600e2a29d9ad411ba6527d7", "rental_uris": {"ios": "https://dc.lft.to/lastmile_qr_scan", "android": "https://dc.lft.to/lastmile_qr_scan"}, "fusion_lon": 0.0, "lon": -77.007097, "name": "a5b26c038600e2a29d9ad411ba6527d7", "is_reserved": 0, "is_disabled": 0}, {"lat": 38.91569533333333, "fusion_lat": 0.0, "type": "electric_scooter", "bike_id": "39cdeec3a8ddf0cbbfccad1ff8af2c01", "rental_uris": {"ios": "https://dc.lft.to/lastmile_qr_scan", "android": "https://dc.lft.to/lastmile_qr_scan"}, "fusion_lon": 0.0, "lon": -77.03851566666667, "name": "39cdeec3a8ddf0cbbfccad1ff8af2c01", "is_reserved": 0, "is_disabled": 0}, {"lat": 38.8849145, "fusion_lat": 0.0, "type": "electric_scooter", "bike_id": "3121bd5ad328592354181cbf4f14c522", "rental_uris": {"ios": "https://dc.lft.to/lastmile_qr_scan", "android": "https://dc.lft.to/lastmile_qr_scan"}, "fusion_lon": 0.0, "lon": -77.03474933333334, "name": "3121bd5ad328592354181cbf4f14c522", "is_reserved": 0, "is_disabled": 0}, {"lat": 38.909205666666665, "fusion_lat": 0.0, "type": "electric_scooter", "bike_id": "9b68e74782c82c1e262b595d8e998445", "rental_uris": {"ios": "https://dc.lft.to/lastmile_qr_scan", "android": "https://dc.lft.to/lastmile_qr_scan"}, "fusion_lon": 0.0, "lon": -76.9996595, "name": "9b68e74782c82c1e262b595d8e998445", "is_reserved": 0, "is_disabled": 0}, {"lat": 38.8990695, "fusion_lat": 0.0, "type": "electric_scooter", "bike_id": "4407c2b6632c782ecea5e27817c9201d", "rental_uris": {"ios": "https://dc.lft.to/lastmile_qr_scan", "android": "https://dc.lft.to/lastmile_qr_scan"}, "fusion_lon": 0.0, "lon": -77.02394233333334, "name": "4407c2b6632c782ecea5e27817c9201d", "is_reserved": 0, "is_disabled": 0}, {"lat": 38.906812, "fusion_lat": 0.0, "type": "electric_scooter", "bike_id": "c9f9b87a89b5b88d0cefe88a1307b244", "rental_uris": {"ios": "https://dc.lft.to/lastmile_qr_scan", "android": "https://dc.lft.to/lastmile_qr_scan"}, "fusion_lon": 0.0, "lon": -77.03525533333334, "name": "c9f9b87a89b5b88d0cefe88a1307b244", "is_reserved": 0, "is_disabled": 0}, {"lat": 38.8974615, "fusion_lat": 0.0, "type": "electric_scooter", "bike_id": "46613aed7490fedafdcf3e5a2e431b66", "rental_uris": {"ios": "https://dc.lft.to/lastmile_qr_scan", "android": "https://dc.lft.to/lastmile_qr_scan"}, "fusion_lon": 0.0, "lon": -77.0240045, "name": "46613aed7490fedafdcf3e5a2e431b66", "is_reserved": 0, "is_disabled": 0}, {"lat": 38.919194, "fusion_lat": 0.0, "type": "electric_scooter", "bike_id": "2d270d31c2e700a850baae444ee0950c", "rental_uris": {"ios": "https://dc.lft.to/lastmile_qr_scan", "android": "https://dc.lft.to/lastmile_qr_scan"}, "fusion_lon": 0.0, "lon": -77.02400933333334, "name": "2d270d31c2e700a850baae444ee0950c", "is_reserved": 0, "is_disabled": 0}, {"lat": 38.936302, "fusion_lat": 0.0, "type": "electric_scooter", "bike_id": "9739856f53d47716ae827325c368ef77", "rental_uris": {"ios": "https://dc.lft.to/lastmile_qr_scan", "android": "https://dc.lft.to/lastmile_qr_scan"}, "fusion_lon": 0.0, "lon": -77.05879166666666, "name": "9739856f53d47716ae827325c368ef77", "is_reserved": 0, "is_disabled": 0}, {"lat": 38.923659, "fusion_lat": 0.0, "type": "electric_scooter", "bike_id": "5a9b923d6410acfd733f8c2eef5607f6", "rental_uris": {"ios": "https://dc.lft.to/lastmile_qr_scan", "android": "https://dc.lft.to/lastmile_qr_scan"}, "fusion_lon": 0.0, "lon": -77.050439, "name": "5a9b923d6410acfd733f8c2eef5607f6", "is_reserved": 0, "is_disabled": 0}, {"lat": 38.89479083333333, "fusion_lat": 0.0, "type": "electric_scooter", "bike_id": "e3f418ee9e61f049b40dd51a500a3438", "rental_uris": {"ios": "https://dc.lft.to/lastmile_qr_scan", "android": "https://dc.lft.to/lastmile_qr_scan"}, "fusion_lon": 0.0, "lon": -77.01110216666666, "name": "e3f418ee9e61f049b40dd51a500a3438", "is_reserved": 0, "is_disabled": 0}, {"lat": 38.90116916666667, "fusion_lat": 0.0, "type": "electric_scooter", "bike_id": "fe36281a631fd901fabe3ed600cb8b07", "rental_uris": {"ios": "https://dc.lft.to/lastmile_qr_scan", "android": "https://dc.lft.to/lastmile_qr_scan"}, "fusion_lon": 0.0, "lon": -77.0315955, "name": "fe36281a631fd901fabe3ed600cb8b07", "is_reserved": 0, "is_disabled": 0}, {"lat": 38.90375316666667, "fusion_lat": 0.0, "type": "electric_scooter", "bike_id": "cbdd79b35cfee895e8969721abc50547", "rental_uris": {"ios": "https://dc.lft.to/lastmile_qr_scan", "android": "https://dc.lft.to/lastmile_qr_scan"}, "fusion_lon": 0.0, "lon": -77.01736483333333, "name": "cbdd79b35cfee895e8969721abc50547", "is_reserved": 0, "is_disabled": 0}, {"lat": 38.9156345, "fusion_lat": 0.0, "type": "electric_scooter", "bike_id": "8eb9fdaa25a1ef2b9ebe5818d1932f92", "rental_uris": {"ios": "https://dc.lft.to/lastmile_qr_scan", "android": "https://dc.lft.to/lastmile_qr_scan"}, "fusion_lon": 0.0, "lon": -77.02057466666666, "name": "8eb9fdaa25a1ef2b9ebe5818d1932f92", "is_reserved": 0, "is_disabled": 0}, {"lat": 38.902379333333336, "fusion_lat": 0.0, "type": "electric_scooter", "bike_id": "a1dd14eced7318bb04aefc7fb6e4b640", "rental_uris": {"ios": "https://dc.lft.to/lastmile_qr_scan", "android": "https://dc.lft.to/lastmile_qr_scan"}, "fusion_lon": 0.0, "lon": -77.020909, "name": "a1dd14eced7318bb04aefc7fb6e4b640", "is_reserved": 0, "is_disabled": 0}, {"lat": 38.918154, "fusion_lat": 0.0, "type": "electric_scooter", "bike_id": "b90877cc436bc98962ebf2eb3812d668", "rental_uris": {"ios": "https://dc.lft.to/lastmile_qr_scan", "android": "https://dc.lft.to/lastmile_qr_scan"}, "fusion_lon": 0.0, "lon": -77.02532, "name": "b90877cc436bc98962ebf2eb3812d668", "is_reserved": 0, "is_disabled": 0}, {"lat": 38.86013116666667, "fusion_lat": 0.0, "type": "electric_scooter", "bike_id": "6104e214e7ac4b16e3409276cac8a67d", "rental_uris": {"ios": "https://dc.lft.to/lastmile_qr_scan", "android": "https://dc.lft.to/lastmile_qr_scan"}, "fusion_lon": 0.0, "lon": -76.96704416666667, "name": "6104e214e7ac4b16e3409276cac8a67d", "is_reserved": 0, "is_disabled": 0}, {"lat": 38.90827783333334, "fusion_lat": 0.0, "type": "electric_scooter", "bike_id": "7a5e4e9ad901b264ffff12b8f05219ee", "rental_uris": {"ios": "https://dc.lft.to/lastmile_qr_scan", "android": "https://dc.lft.to/lastmile_qr_scan"}, "fusion_lon": 0.0, "lon": -77.0319115, "name": "7a5e4e9ad901b264ffff12b8f05219ee", "is_reserved": 0, "is_disabled": 0}, {"lat": 38.901090833333335, "fusion_lat": 0.0, "type": "electric_scooter", "bike_id": "082a433e7069790c0a95937136b54da5", "rental_uris": {"ios": "https://dc.lft.to/lastmile_qr_scan", "android": "https://dc.lft.to/lastmile_qr_scan"}, "fusion_lon": 0.0, "lon": -76.93044233333333, "name": "082a433e7069790c0a95937136b54da5", "is_reserved": 0, "is_disabled": 0}, {"lat": 38.91843633333333, "fusion_lat": 0.0, "type": "electric_scooter", "bike_id": "35df65398065ef75139d88cc96fa1945", "rental_uris": {"ios": "https://dc.lft.to/lastmile_qr_scan", "android": "https://dc.lft.to/lastmile_qr_scan"}, "fusion_lon": 0.0, "lon": -76.96537016666667, "name": "35df65398065ef75139d88cc96fa1945", "is_reserved": 0, "is_disabled": 0}, {"lat": 38.9110935, "fusion_lat": 0.0, "type": "electric_scooter", "bike_id": "9f54abfba8b853cde83de249405b8865", "rental_uris": {"ios": "https://dc.lft.to/lastmile_qr_scan", "android": "https://dc.lft.to/lastmile_qr_scan"}, "fusion_lon": 0.0, "lon": -77.04536783333333, "name": "9f54abfba8b853cde83de249405b8865", "is_reserved": 0, "is_disabled": 0}, {"lat": 38.89776783333333, "fusion_lat": 0.0, "type": "electric_scooter", "bike_id": "dc261d22e6be20985fc523200d1208dc", "rental_uris": {"ios": "https://dc.lft.to/lastmile_qr_scan", "android": "https://dc.lft.to/lastmile_qr_scan"}, "fusion_lon": 0.0, "lon": -77.01074516666667, "name": "dc261d22e6be20985fc523200d1208dc", "is_reserved": 0, "is_disabled": 0}, {"lat": 38.941924666666665, "fusion_lat": 0.0, "type": "electric_scooter", "bike_id": "230184906cc4cd30566e34e9cc0486f4", "rental_uris": {"ios": "https://dc.lft.to/lastmile_qr_scan", "android": "https://dc.lft.to/lastmile_qr_scan"}, "fusion_lon": 0.0, "lon": -77.0384235, "name": "230184906cc4cd30566e34e9cc0486f4", "is_reserved": 0, "is_disabled": 0}, {"lat": 38.901418666666665, "fusion_lat": 0.0, "type": "electric_scooter", "bike_id": "8ee123b100513031d87b7d97944ba2f6", "rental_uris": {"ios": "https://dc.lft.to/lastmile_qr_scan", "android": "https://dc.lft.to/lastmile_qr_scan"}, "fusion_lon": 0.0, "lon": -77.04183, "name": "8ee123b100513031d87b7d97944ba2f6", "is_reserved": 0, "is_disabled": 0}, {"lat": 38.88728666666667, "fusion_lat": 0.0, "type": "electric_scooter", "bike_id": "4715b7972f6fe3f786b8e5b14ab8602f", "rental_uris": {"ios": "https://dc.lft.to/lastmile_qr_scan", "android": "https://dc.lft.to/lastmile_qr_scan"}, "fusion_lon": 0.0, "lon": -76.98356683333333, "name": "4715b7972f6fe3f786b8e5b14ab8602f", "is_reserved": 0, "is_disabled": 0}, {"lat": 38.884368, "fusion_lat": 0.0, "type": "electric_scooter", "bike_id": "94d1ca30ff0b5e8fcda8323f42ff0089", "rental_uris": {"ios": "https://dc.lft.to/lastmile_qr_scan", "android": "https://dc.lft.to/lastmile_qr_scan"}, "fusion_lon": 0.0, "lon": -76.9575605, "name": "94d1ca30ff0b5e8fcda8323f42ff0089", "is_reserved": 0, "is_disabled": 0}, {"lat": 38.919065833333335, "fusion_lat": 0.0, "type": "electric_scooter", "bike_id": "f8044157dc2321efa0241c08be6da7c6", "rental_uris": {"ios": "https://dc.lft.to/lastmile_qr_scan", "android": "https://dc.lft.to/lastmile_qr_scan"}, "fusion_lon": 0.0, "lon": -77.02051433333334, "name": "f8044157dc2321efa0241c08be6da7c6", "is_reserved": 0, "is_disabled": 0}, {"lat": 38.9429005, "fusion_lat": 0.0, "type": "electric_scooter", "bike_id": "a7531b1b5105c8f82a2bac2a94c8ba84", "rental_uris": {"ios": "https://dc.lft.to/lastmile_qr_scan", "android": "https://dc.lft.to/lastmile_qr_scan"}, "fusion_lon": 0.0, "lon": -77.02171716666666, "name": "a7531b1b5105c8f82a2bac2a94c8ba84", "is_reserved": 0, "is_disabled": 0}, {"lat": 38.905918666666665, "fusion_lat": 0.0, "type": "electric_scooter", "bike_id": "a5362bdf4f65a4210a52c90e0c1a1780", "rental_uris": {"ios": "https://dc.lft.to/lastmile_qr_scan", "android": "https://dc.lft.to/lastmile_qr_scan"}, "fusion_lon": 0.0, "lon": -77.02171933333334, "name": "a5362bdf4f65a4210a52c90e0c1a1780", "is_reserved": 0, "is_disabled": 0}, {"lat": 38.89910583333333, "fusion_lat": 0.0, "type": "electric_scooter", "bike_id": "e8d1eda09f0adf90df42619cf374f350", "rental_uris": {"ios": "https://dc.lft.to/lastmile_qr_scan", "android": "https://dc.lft.to/lastmile_qr_scan"}, "fusion_lon": 0.0, "lon": -77.0138465, "name": "e8d1eda09f0adf90df42619cf374f350", "is_reserved": 0, "is_disabled": 0}, {"lat": 38.929751, "fusion_lat": 0.0, "type": "electric_scooter", "bike_id": "38add7ecbdb787433cb18d57aef689f6", "rental_uris": {"ios": "https://dc.lft.to/lastmile_qr_scan", "android": "https://dc.lft.to/lastmile_qr_scan"}, "fusion_lon": 0.0, "lon": -77.02819416666667, "name": "38add7ecbdb787433cb18d57aef689f6", "is_reserved": 0, "is_disabled": 0}, {"lat": 38.872361166666664, "fusion_lat": 0.0, "type": "electric_scooter", "bike_id": "f3e3bf989217fc7453a2ecfe07bfbcff", "rental_uris": {"ios": "https://dc.lft.to/lastmile_qr_scan", "android": "https://dc.lft.to/lastmile_qr_scan"}, "fusion_lon": 0.0, "lon": -77.00569666666667, "name": "f3e3bf989217fc7453a2ecfe07bfbcff", "is_reserved": 0, "is_disabled": 0}, {"lat": 38.927421833333334, "fusion_lat": 0.0, "type": "electric_scooter", "bike_id": "90a59755fc614a21fdb327cd7482707c", "rental_uris": {"ios": "https://dc.lft.to/lastmile_qr_scan", "android": "https://dc.lft.to/lastmile_qr_scan"}, "fusion_lon": 0.0, "lon": -77.02251033333333, "name": "90a59755fc614a21fdb327cd7482707c", "is_reserved": 0, "is_disabled": 0}, {"lat": 38.914064833333335, "fusion_lat": 0.0, "type": "electric_scooter", "bike_id": "379ffcbac05bf6f9153b1499e0b90040", "rental_uris": {"ios": "https://dc.lft.to/lastmile_qr_scan", "android": "https://dc.lft.to/lastmile_qr_scan"}, "fusion_lon": 0.0, "lon": -77.03227366666667, "name": "379ffcbac05bf6f9153b1499e0b90040", "is_reserved": 0, "is_disabled": 0}, {"lat": 38.99497366666667, "fusion_lat": 0.0, "type": "electric_bike", "bike_id": "917a8bfa877007fb0cf52415449b2d8b", "rental_uris": {"ios": "https://dc.lft.to/lastmile_qr_scan", "android": "https://dc.lft.to/lastmile_qr_scan"}, "fusion_lon": 0.0, "lon": -77.07792816666667, "name": "917a8bfa877007fb0cf52415449b2d8b", "is_reserved": 0, "is_disabled": 0}, {"lat": 38.922876333333335, "fusion_lat": 0.0, "type": "electric_scooter", "bike_id": "7d554a3ab0383670c2fb7a4b01c50a6d", "rental_uris": {"ios": "https://dc.lft.to/lastmile_qr_scan", "android": "https://dc.lft.to/lastmile_qr_scan"}, "fusion_lon": 0.0, "lon": -77.03662, "name": "7d554a3ab0383670c2fb7a4b01c50a6d", "is_reserved": 0, "is_disabled": 0}, {"lat": 38.89849616666667, "fusion_lat": 0.0, "type": "electric_scooter", "bike_id": "16ad21fd2170fa458bd602d0b048b509", "rental_uris": {"ios": "https://dc.lft.to/lastmile_qr_scan", "android": "https://dc.lft.to/lastmile_qr_scan"}, "fusion_lon": 0.0, "lon": -77.04116983333333, "name": "16ad21fd2170fa458bd602d0b048b509", "is_reserved": 0, "is_disabled": 0}, {"lat": 38.954302166666665, "fusion_lat": 0.0, "type": "electric_scooter", "bike_id": "57200303ce91dd5b1b7b9b94ce3da277", "rental_uris": {"ios": "https://dc.lft.to/lastmile_qr_scan", "android": "https://dc.lft.to/lastmile_qr_scan"}, "fusion_lon": 0.0, "lon": -77.01847816666667, "name": "57200303ce91dd5b1b7b9b94ce3da277", "is_reserved": 0, "is_disabled": 0}, {"lat": 38.93087283333333, "fusion_lat": 0.0, "type": "electric_scooter", "bike_id": "9a7eacd2fb6210d3000cb9b6d27b1add", "rental_uris": {"ios": "https://dc.lft.to/lastmile_qr_scan", "android": "https://dc.lft.to/lastmile_qr_scan"}, "fusion_lon": 0.0, "lon": -77.0255095, "name": "9a7eacd2fb6210d3000cb9b6d27b1add", "is_reserved": 0, "is_disabled": 0}, {"lat": 38.92154416666666, "fusion_lat": 0.0, "type": "electric_scooter", "bike_id": "f4addbdf3b6bf25727f1eba35b64d7a0", "rental_uris": {"ios": "https://dc.lft.to/lastmile_qr_scan", "android": "https://dc.lft.to/lastmile_qr_scan"}, "fusion_lon": 0.0, "lon": -77.04358583333334, "name": "f4addbdf3b6bf25727f1eba35b64d7a0", "is_reserved": 0, "is_disabled": 0}, {"lat": 38.92419683333333, "fusion_lat": 0.0, "type": "electric_scooter", "bike_id": "6513da008c0250c99d05742d12f1dd9e", "rental_uris": {"ios": "https://dc.lft.to/lastmile_qr_scan", "android": "https://dc.lft.to/lastmile_qr_scan"}, "fusion_lon": 0.0, "lon": -77.02010866666667, "name": "6513da008c0250c99d05742d12f1dd9e", "is_reserved": 0, "is_disabled": 0}, {"lat": 38.93429233333333, "fusion_lat": 0.0, "type": "electric_bike", "bike_id": "2361cff71b81166f5d334be6d41069ae", "rental_uris": {"ios": "https://dc.lft.to/lastmile_qr_scan", "android": "https://dc.lft.to/lastmile_qr_scan"}, "fusion_lon": 0.0, "lon": -77.02212283333333, "name": "2361cff71b81166f5d334be6d41069ae", "is_reserved": 0, "is_disabled": 0}, {"lat": 38.894737166666665, "fusion_lat": 0.0, "type": "electric_scooter", "bike_id": "e521b21d1704d78aa8228d42a5fbb9cf", "rental_uris": {"ios": "https://dc.lft.to/lastmile_qr_scan", "android": "https://dc.lft.to/lastmile_qr_scan"}, "fusion_lon": 0.0, "lon": -76.98597283333334, "name": "e521b21d1704d78aa8228d42a5fbb9cf", "is_reserved": 0, "is_disabled": 0}, {"lat": 38.899868166666664, "fusion_lat": 0.0, "type": "electric_scooter", "bike_id": "cd204b452e89c0b7053aeb85e42359ab", "rental_uris": {"ios": "https://dc.lft.to/lastmile_qr_scan", "android": "https://dc.lft.to/lastmile_qr_scan"}, "fusion_lon": 0.0, "lon": -77.02304433333333, "name": "cd204b452e89c0b7053aeb85e42359ab", "is_reserved": 0, "is_disabled": 0}, {"lat": 38.9410405, "fusion_lat": 0.0, "type": "electric_scooter", "bike_id": "de1aab076b4fe56df1d7a7f047ba8231", "rental_uris": {"ios": "https://dc.lft.to/lastmile_qr_scan", "android": "https://dc.lft.to/lastmile_qr_scan"}, "fusion_lon": 0.0, "lon": -77.02639933333333, "name": "de1aab076b4fe56df1d7a7f047ba8231", "is_reserved": 0, "is_disabled": 0}, {"lat": 38.846094, "fusion_lat": 0.0, "type": "electric_bike", "bike_id": "0a494900017255970cb14fb64afb1ca9", "rental_uris": {"ios": "https://dc.lft.to/lastmile_qr_scan", "android": "https://dc.lft.to/lastmile_qr_scan"}, "fusion_lon": 0.0, "lon": -76.96914866666667, "name": "0a494900017255970cb14fb64afb1ca9", "is_reserved": 0, "is_disabled": 0}, {"lat": 38.909531333333334, "fusion_lat": 0.0, "type": "electric_scooter", "bike_id": "472554ee650f10935d943ea46d0abcf6", "rental_uris": {"ios": "https://dc.lft.to/lastmile_qr_scan", "android": "https://dc.lft.to/lastmile_qr_scan"}, "fusion_lon": 0.0, "lon": -77.02714283333333, "name": "472554ee650f10935d943ea46d0abcf6", "is_reserved": 0, "is_disabled": 0}, {"lat": 38.8922285, "fusion_lat": 0.0, "type": "electric_scooter", "bike_id": "e8d4d60e71040af75ac9f85eaad4b83d", "rental_uris": {"ios": "https://dc.lft.to/lastmile_qr_scan", "android": "https://dc.lft.to/lastmile_qr_scan"}, "fusion_lon": 0.0, "lon": -77.04327066666667, "name": "e8d4d60e71040af75ac9f85eaad4b83d", "is_reserved": 0, "is_disabled": 0}, {"lat": 38.92056266666667, "fusion_lat": 0.0, "type": "electric_scooter", "bike_id": "bf49fead2e904276c8eb7ff8a0133659", "rental_uris": {"ios": "https://dc.lft.to/lastmile_qr_scan", "android": "https://dc.lft.to/lastmile_qr_scan"}, "fusion_lon": 0.0, "lon": -77.029139, "name": "bf49fead2e904276c8eb7ff8a0133659", "is_reserved": 0, "is_disabled": 0}, {"lat": 38.892397333333335, "fusion_lat": 0.0, "type": "electric_scooter", "bike_id": "7942b83a2e5ce6c1537b8fd58fdeb16f", "rental_uris": {"ios": "https://dc.lft.to/lastmile_qr_scan", "android": "https://dc.lft.to/lastmile_qr_scan"}, "fusion_lon": 0.0, "lon": -77.0448815, "name": "7942b83a2e5ce6c1537b8fd58fdeb16f", "is_reserved": 0, "is_disabled": 0}, {"lat": 38.89997066666667, "fusion_lat": 0.0, "type": "electric_scooter", "bike_id": "219b7a3b9fa372cb42bf2e09b425e435", "rental_uris": {"ios": "https://dc.lft.to/lastmile_qr_scan", "android": "https://dc.lft.to/lastmile_qr_scan"}, "fusion_lon": 0.0, "lon": -77.001378, "name": "219b7a3b9fa372cb42bf2e09b425e435", "is_reserved": 0, "is_disabled": 0}, {"lat": 38.90379383333333, "fusion_lat": 0.0, "type": "electric_scooter", "bike_id": "214bd4b232144f4fb4ef2f3ce3d76888", "rental_uris": {"ios": "https://dc.lft.to/lastmile_qr_scan", "android": "https://dc.lft.to/lastmile_qr_scan"}, "fusion_lon": 0.0, "lon": -76.9761565, "name": "214bd4b232144f4fb4ef2f3ce3d76888", "is_reserved": 0, "is_disabled": 0}, {"lat": 38.961402666666665, "fusion_lat": 0.0, "type": "electric_scooter", "bike_id": "36f927bcb43c050d7aebec08cc72bb22", "rental_uris": {"ios": "https://dc.lft.to/lastmile_qr_scan", "android": "https://dc.lft.to/lastmile_qr_scan"}, "fusion_lon": 0.0, "lon": -77.02785416666667, "name": "36f927bcb43c050d7aebec08cc72bb22", "is_reserved": 0, "is_disabled": 0}, {"lat": 38.91297383333333, "fusion_lat": 0.0, "type": "electric_scooter", "bike_id": "0f4100f822654ca809af543fe6574dd7", "rental_uris": {"ios": "https://dc.lft.to/lastmile_qr_scan", "android": "https://dc.lft.to/lastmile_qr_scan"}, "fusion_lon": 0.0, "lon": -76.9847315, "name": "0f4100f822654ca809af543fe6574dd7", "is_reserved": 0, "is_disabled": 0}, {"lat": 38.9291035, "fusion_lat": 0.0, "type": "electric_scooter", "bike_id": "bada19396c8204999354ece51ef332c0", "rental_uris": {"ios": "https://dc.lft.to/lastmile_qr_scan", "android": "https://dc.lft.to/lastmile_qr_scan"}, "fusion_lon": 0.0, "lon": -77.07301083333333, "name": "bada19396c8204999354ece51ef332c0", "is_reserved": 0, "is_disabled": 0}, {"lat": 38.9175425, "fusion_lat": 0.0, "type": "electric_scooter", "bike_id": "a3cccf632eebceb82befb32611ecdb0d", "rental_uris": {"ios": "https://dc.lft.to/lastmile_qr_scan", "android": "https://dc.lft.to/lastmile_qr_scan"}, "fusion_lon": 0.0, "lon": -77.03188416666667, "name": "a3cccf632eebceb82befb32611ecdb0d", "is_reserved": 0, "is_disabled": 0}, {"lat": 38.921373, "fusion_lat": 0.0, "type": "electric_scooter", "bike_id": "1639ca457e8bde057046d02da1e32365", "rental_uris": {"ios": "https://dc.lft.to/lastmile_qr_scan", "android": "https://dc.lft.to/lastmile_qr_scan"}, "fusion_lon": 0.0, "lon": -77.009435, "name": "1639ca457e8bde057046d02da1e32365", "is_reserved": 0, "is_disabled": 0}, {"lat": 38.892689833333336, "fusion_lat": 0.0, "type": "electric_scooter", "bike_id": "bcb24d7d1ee787532838aca68fb4a43f", "rental_uris": {"ios": "https://dc.lft.to/lastmile_qr_scan", "android": "https://dc.lft.to/lastmile_qr_scan"}, "fusion_lon": 0.0, "lon": -77.04675416666667, "name": "bcb24d7d1ee787532838aca68fb4a43f", "is_reserved": 0, "is_disabled": 0}, {"lat": 38.90714333333333, "fusion_lat": 0.0, "type": "electric_scooter", "bike_id": "2d518f88e630dc802764db056dea2a89", "rental_uris": {"ios": "https://dc.lft.to/lastmile_qr_scan", "android": "https://dc.lft.to/lastmile_qr_scan"}, "fusion_lon": 0.0, "lon": -77.019787, "name": "2d518f88e630dc802764db056dea2a89", "is_reserved": 0, "is_disabled": 0}, {"lat": 38.900436166666665, "fusion_lat": 0.0, "type": "electric_scooter", "bike_id": "d53c19552882ae8d268af0e0bdc075c1", "rental_uris": {"ios": "https://dc.lft.to/lastmile_qr_scan", "android": "https://dc.lft.to/lastmile_qr_scan"}, "fusion_lon": 0.0, "lon": -77.01272483333334, "name": "d53c19552882ae8d268af0e0bdc075c1", "is_reserved": 0, "is_disabled": 0}, {"lat": 38.925284166666664, "fusion_lat": 0.0, "type": "electric_scooter", "bike_id": "ea52076d3bd6fd2abc4b62acde2ffe3a", "rental_uris": {"ios": "https://dc.lft.to/lastmile_qr_scan", "android": "https://dc.lft.to/lastmile_qr_scan"}, "fusion_lon": 0.0, "lon": -77.0225905, "name": "ea52076d3bd6fd2abc4b62acde2ffe3a", "is_reserved": 0, "is_disabled": 0}, {"lat": 38.9176325, "fusion_lat": 0.0, "type": "electric_scooter", "bike_id": "f86b745ceeffe78b18b9f371d9add084", "rental_uris": {"ios": "https://dc.lft.to/lastmile_qr_scan", "android": "https://dc.lft.to/lastmile_qr_scan"}, "fusion_lon": 0.0, "lon": -77.03196416666667, "name": "f86b745ceeffe78b18b9f371d9add084", "is_reserved": 0, "is_disabled": 0}, {"lat": 38.914828, "fusion_lat": 0.0, "type": "electric_scooter", "bike_id": "8220c2095fb1febcf84850a97227d5a0", "rental_uris": {"ios": "https://dc.lft.to/lastmile_qr_scan", "android": "https://dc.lft.to/lastmile_qr_scan"}, "fusion_lon": 0.0, "lon": -77.01348466666667, "name": "8220c2095fb1febcf84850a97227d5a0", "is_reserved": 0, "is_disabled": 0}, {"lat": 38.93009933333333, "fusion_lat": 0.0, "type": "electric_scooter", "bike_id": "fdd3c40b6d576b3f77028704913cbb78", "rental_uris": {"ios": "https://dc.lft.to/lastmile_qr_scan", "android": "https://dc.lft.to/lastmile_qr_scan"}, "fusion_lon": 0.0, "lon": -77.020825, "name": "fdd3c40b6d576b3f77028704913cbb78", "is_reserved": 0, "is_disabled": 0}, {"lat": 38.91799283333334, "fusion_lat": 0.0, "type": "electric_scooter", "bike_id": "575bb68a85c535e36ae97ef5f9926092", "rental_uris": {"ios": "https://dc.lft.to/lastmile_qr_scan", "android": "https://dc.lft.to/lastmile_qr_scan"}, "fusion_lon": 0.0, "lon": -77.02709616666667, "name": "575bb68a85c535e36ae97ef5f9926092", "is_reserved": 0, "is_disabled": 0}, {"lat": 38.9161175, "fusion_lat": 0.0, "type": "electric_scooter", "bike_id": "96ad15a91b9f0bafa9965c1a864412ee", "rental_uris": {"ios": "https://dc.lft.to/lastmile_qr_scan", "android": "https://dc.lft.to/lastmile_qr_scan"}, "fusion_lon": 0.0, "lon": -77.03200233333334, "name": "96ad15a91b9f0bafa9965c1a864412ee", "is_reserved": 0, "is_disabled": 0}, {"lat": 38.92078516666667, "fusion_lat": 0.0, "type": "electric_scooter", "bike_id": "119c82e8eb6fff650beb504d2752587b", "rental_uris": {"ios": "https://dc.lft.to/lastmile_qr_scan", "android": "https://dc.lft.to/lastmile_qr_scan"}, "fusion_lon": 0.0, "lon": -77.0231505, "name": "119c82e8eb6fff650beb504d2752587b", "is_reserved": 0, "is_disabled": 0}, {"lat": 38.9441855, "fusion_lat": 0.0, "type": "electric_scooter", "bike_id": "c586e875e112c1a4fc1ff4196f5ca881", "rental_uris": {"ios": "https://dc.lft.to/lastmile_qr_scan", "android": "https://dc.lft.to/lastmile_qr_scan"}, "fusion_lon": 0.0, "lon": -77.01782116666666, "name": "c586e875e112c1a4fc1ff4196f5ca881", "is_reserved": 0, "is_disabled": 0}, {"lat": 38.897004, "fusion_lat": 0.0, "type": "electric_scooter", "bike_id": "d38bc28f036e9cb001c2a00258d048f5", "rental_uris": {"ios": "https://dc.lft.to/lastmile_qr_scan", "android": "https://dc.lft.to/lastmile_qr_scan"}, "fusion_lon": 0.0, "lon": -77.02777883333333, "name": "d38bc28f036e9cb001c2a00258d048f5", "is_reserved": 0, "is_disabled": 0}, {"lat": 38.899311833333336, "fusion_lat": 0.0, "type": "electric_scooter", "bike_id": "ac06500f15cdb43b05973f970918867e", "rental_uris": {"ios": "https://dc.lft.to/lastmile_qr_scan", "android": "https://dc.lft.to/lastmile_qr_scan"}, "fusion_lon": 0.0, "lon": -77.01266633333333, "name": "ac06500f15cdb43b05973f970918867e", "is_reserved": 0, "is_disabled": 0}, {"lat": 38.8594675, "fusion_lat": 0.0, "type": "electric_scooter", "bike_id": "36b5ed922eec4f5b8f7b91e89b02a35e", "rental_uris": {"ios": "https://dc.lft.to/lastmile_qr_scan", "android": "https://dc.lft.to/lastmile_qr_scan"}, "fusion_lon": 0.0, "lon": -76.95874433333333, "name": "36b5ed922eec4f5b8f7b91e89b02a35e", "is_reserved": 0, "is_disabled": 0}, {"lat": 38.9614005, "fusion_lat": 0.0, "type": "electric_scooter", "bike_id": "90b8ecb3e380cc569e04de58f96e628f", "rental_uris": {"ios": "https://dc.lft.to/lastmile_qr_scan", "android": "https://dc.lft.to/lastmile_qr_scan"}, "fusion_lon": 0.0, "lon": -77.02803833333333, "name": "90b8ecb3e380cc569e04de58f96e628f", "is_reserved": 0, "is_disabled": 0}, {"lat": 38.89627566666667, "fusion_lat": 0.0, "type": "electric_scooter", "bike_id": "be107a2ab90fb1882ae4512f3280170c", "rental_uris": {"ios": "https://dc.lft.to/lastmile_qr_scan", "android": "https://dc.lft.to/lastmile_qr_scan"}, "fusion_lon": 0.0, "lon": -77.029723, "name": "be107a2ab90fb1882ae4512f3280170c", "is_reserved": 0, "is_disabled": 0}, {"lat": 38.920463, "fusion_lat": 0.0, "type": "electric_scooter", "bike_id": "13a77d630dd8f1bf0559309e65c40e9e", "rental_uris": {"ios": "https://dc.lft.to/lastmile_qr_scan", "android": "https://dc.lft.to/lastmile_qr_scan"}, "fusion_lon": 0.0, "lon": -77.01769416666667, "name": "13a77d630dd8f1bf0559309e65c40e9e", "is_reserved": 0, "is_disabled": 0}, {"lat": 38.8970515, "fusion_lat": 0.0, "type": "electric_scooter", "bike_id": "93edb6b8f40c72d4609fb9783a1b99b2", "rental_uris": {"ios": "https://dc.lft.to/lastmile_qr_scan", "android": "https://dc.lft.to/lastmile_qr_scan"}, "fusion_lon": 0.0, "lon": -76.935733, "name": "93edb6b8f40c72d4609fb9783a1b99b2", "is_reserved": 0, "is_disabled": 0}, {"lat": 38.93456416666667, "fusion_lat": 0.0, "type": "electric_scooter", "bike_id": "02a8bd1fd71a629ef3cd033effd514da", "rental_uris": {"ios": "https://dc.lft.to/lastmile_qr_scan", "android": "https://dc.lft.to/lastmile_qr_scan"}, "fusion_lon": 0.0, "lon": -77.0291615, "name": "02a8bd1fd71a629ef3cd033effd514da", "is_reserved": 0, "is_disabled": 0}, {"lat": 38.912657, "fusion_lat": 0.0, "type": "electric_scooter", "bike_id": "cb59f5626bd01ae2f6a7449cdc88d8c7", "rental_uris": {"ios": "https://dc.lft.to/lastmile_qr_scan", "android": "https://dc.lft.to/lastmile_qr_scan"}, "fusion_lon": 0.0, "lon": -77.07432233333333, "name": "cb59f5626bd01ae2f6a7449cdc88d8c7", "is_reserved": 0, "is_disabled": 0}, {"lat": 38.928084166666665, "fusion_lat": 0.0, "type": "electric_scooter", "bike_id": "7686af56179dbac8e7416ea2ea347053", "rental_uris": {"ios": "https://dc.lft.to/lastmile_qr_scan", "android": "https://dc.lft.to/lastmile_qr_scan"}, "fusion_lon": 0.0, "lon": -77.0364075, "name": "7686af56179dbac8e7416ea2ea347053", "is_reserved": 0, "is_disabled": 0}, {"lat": 38.91746116666667, "fusion_lat": 0.0, "type": "electric_scooter", "bike_id": "dc667dbecbd81e08ea2352e30f3ae4cc", "rental_uris": {"ios": "https://dc.lft.to/lastmile_qr_scan", "android": "https://dc.lft.to/lastmile_qr_scan"}, "fusion_lon": 0.0, "lon": -77.031896, "name": "dc667dbecbd81e08ea2352e30f3ae4cc", "is_reserved": 0, "is_disabled": 0}, {"lat": 38.94454066666667, "fusion_lat": 0.0, "type": "electric_scooter", "bike_id": "a6aff4ad2c870209ec0d60872192c206", "rental_uris": {"ios": "https://dc.lft.to/lastmile_qr_scan", "android": "https://dc.lft.to/lastmile_qr_scan"}, "fusion_lon": 0.0, "lon": -77.0635535, "name": "a6aff4ad2c870209ec0d60872192c206", "is_reserved": 0, "is_disabled": 0}, {"lat": 38.91108083333334, "fusion_lat": 0.0, "type": "electric_scooter", "bike_id": "a4de7ff16aeeb4e0c827b2adead68b65", "rental_uris": {"ios": "https://dc.lft.to/lastmile_qr_scan", "android": "https://dc.lft.to/lastmile_qr_scan"}, "fusion_lon": 0.0, "lon": -77.04801316666666, "name": "a4de7ff16aeeb4e0c827b2adead68b65", "is_reserved": 0, "is_disabled": 0}, {"lat": 38.89766, "fusion_lat": 0.0, "type": "electric_scooter", "bike_id": "1488366e3c05304c4245fd95b9085681", "rental_uris": {"ios": "https://dc.lft.to/lastmile_qr_scan", "android": "https://dc.lft.to/lastmile_qr_scan"}, "fusion_lon": 0.0, "lon": -76.9855385, "name": "1488366e3c05304c4245fd95b9085681", "is_reserved": 0, "is_disabled": 0}, {"lat": 38.98042983333333, "fusion_lat": 0.0, "type": "electric_bike", "bike_id": "aa9363e3638b4a0d2c70d96eedbaebf0", "rental_uris": {"ios": "https://dc.lft.to/lastmile_qr_scan", "android": "https://dc.lft.to/lastmile_qr_scan"}, "fusion_lon": 0.0, "lon": -76.9579365, "name": "aa9363e3638b4a0d2c70d96eedbaebf0", "is_reserved": 0, "is_disabled": 0}, {"lat": 38.920752, "fusion_lat": 0.0, "type": "electric_scooter", "bike_id": "ca678dc444b3fb9e7b1a6ab9fd1f141f", "rental_uris": {"ios": "https://dc.lft.to/lastmile_qr_scan", "android": "https://dc.lft.to/lastmile_qr_scan"}, "fusion_lon": 0.0, "lon": -77.02319116666666, "name": "ca678dc444b3fb9e7b1a6ab9fd1f141f", "is_reserved": 0, "is_disabled": 0}, {"lat": 38.90225433333333, "fusion_lat": 0.0, "type": "electric_scooter", "bike_id": "e2ad758dec4817a7cc64368fedfe310c", "rental_uris": {"ios": "https://dc.lft.to/lastmile_qr_scan", "android": "https://dc.lft.to/lastmile_qr_scan"}, "fusion_lon": 0.0, "lon": -76.98216416666666, "name": "e2ad758dec4817a7cc64368fedfe310c", "is_reserved": 0, "is_disabled": 0}, {"lat": 38.927381833333335, "fusion_lat": 0.0, "type": "electric_scooter", "bike_id": "48beb71665e20eaef9578cc5862ee169", "rental_uris": {"ios": "https://dc.lft.to/lastmile_qr_scan", "android": "https://dc.lft.to/lastmile_qr_scan"}, "fusion_lon": 0.0, "lon": -77.03498866666666, "name": "48beb71665e20eaef9578cc5862ee169", "is_reserved": 0, "is_disabled": 0}, {"lat": 38.90862283333333, "fusion_lat": 0.0, "type": "electric_scooter", "bike_id": "fbc2baa9b5dda5730952e7198088ae21", "rental_uris": {"ios": "https://dc.lft.to/lastmile_qr_scan", "android": "https://dc.lft.to/lastmile_qr_scan"}, "fusion_lon": 0.0, "lon": -77.01943966666667, "name": "fbc2baa9b5dda5730952e7198088ae21", "is_reserved": 0, "is_disabled": 0}, {"lat": 38.91551483333333, "fusion_lat": 0.0, "type": "electric_scooter", "bike_id": "dce228a5a202e89fd733825f8603eea1", "rental_uris": {"ios": "https://dc.lft.to/lastmile_qr_scan", "android": "https://dc.lft.to/lastmile_qr_scan"}, "fusion_lon": 0.0, "lon": -77.01182933333334, "name": "dce228a5a202e89fd733825f8603eea1", "is_reserved": 0, "is_disabled": 0}, {"lat": 38.890118666666666, "fusion_lat": 0.0, "type": "electric_scooter", "bike_id": "afa92e0d573506b344b91830f4ac374d", "rental_uris": {"ios": "https://dc.lft.to/lastmile_qr_scan", "android": "https://dc.lft.to/lastmile_qr_scan"}, "fusion_lon": 0.0, "lon": -76.93739733333334, "name": "afa92e0d573506b344b91830f4ac374d", "is_reserved": 0, "is_disabled": 0}, {"lat": 38.93100916666667, "fusion_lat": 0.0, "type": "electric_scooter", "bike_id": "4288e11f34a6317cdf720b5cd81ea1a0", "rental_uris": {"ios": "https://dc.lft.to/lastmile_qr_scan", "android": "https://dc.lft.to/lastmile_qr_scan"}, "fusion_lon": 0.0, "lon": -77.02468666666667, "name": "4288e11f34a6317cdf720b5cd81ea1a0", "is_reserved": 0, "is_disabled": 0}, {"lat": 38.900403, "fusion_lat": 0.0, "type": "electric_scooter", "bike_id": "e0c7e4d48944c3ae50c736221a520288", "rental_uris": {"ios": "https://dc.lft.to/lastmile_qr_scan", "android": "https://dc.lft.to/lastmile_qr_scan"}, "fusion_lon": 0.0, "lon": -76.99806583333333, "name": "e0c7e4d48944c3ae50c736221a520288", "is_reserved": 0, "is_disabled": 0}, {"lat": 39.09966566666667, "fusion_lat": 0.0, "type": "electric_bike", "bike_id": "1d7ead269ee553c0baa0e67d7f7e6a8a", "rental_uris": {"ios": "https://dc.lft.to/lastmile_qr_scan", "android": "https://dc.lft.to/lastmile_qr_scan"}, "fusion_lon": 0.0, "lon": -77.1830725, "name": "1d7ead269ee553c0baa0e67d7f7e6a8a", "is_reserved": 0, "is_disabled": 0}, {"lat": 38.899482, "fusion_lat": 0.0, "type": "electric_scooter", "bike_id": "1f4614e486ffbf7d48ab8450c098f20d", "rental_uris": {"ios": "https://dc.lft.to/lastmile_qr_scan", "android": "https://dc.lft.to/lastmile_qr_scan"}, "fusion_lon": 0.0, "lon": -77.02878533333333, "name": "1f4614e486ffbf7d48ab8450c098f20d", "is_reserved": 0, "is_disabled": 0}, {"lat": 38.9336375, "fusion_lat": 0.0, "type": "electric_scooter", "bike_id": "450846412ca04abf767ba59771784c8f", "rental_uris": {"ios": "https://dc.lft.to/lastmile_qr_scan", "android": "https://dc.lft.to/lastmile_qr_scan"}, "fusion_lon": 0.0, "lon": -77.03723533333333, "name": "450846412ca04abf767ba59771784c8f", "is_reserved": 0, "is_disabled": 0}, {"lat": 38.967937666666664, "fusion_lat": 0.0, "type": "electric_scooter", "bike_id": "ac8d3de5e4e8f6e9c2f333557d28baab", "rental_uris": {"ios": "https://dc.lft.to/lastmile_qr_scan", "android": "https://dc.lft.to/lastmile_qr_scan"}, "fusion_lon": 0.0, "lon": -77.0243075, "name": "ac8d3de5e4e8f6e9c2f333557d28baab", "is_reserved": 0, "is_disabled": 0}, {"lat": 38.953308666666665, "fusion_lat": 0.0, "type": "electric_bike", "bike_id": "f73c76a38ca809a9bb7ac806529d6f52", "rental_uris": {"ios": "https://dc.lft.to/lastmile_qr_scan", "android": "https://dc.lft.to/lastmile_qr_scan"}, "fusion_lon": 0.0, "lon": -76.9824975, "name": "f73c76a38ca809a9bb7ac806529d6f52", "is_reserved": 0, "is_disabled": 0}, {"lat": 38.916078166666665, "fusion_lat": 0.0, "type": "electric_scooter", "bike_id": "65dcf88395429ddbccd9bdc77be0aae6", "rental_uris": {"ios": "https://dc.lft.to/lastmile_qr_scan", "android": "https://dc.lft.to/lastmile_qr_scan"}, "fusion_lon": 0.0, "lon": -77.02299283333333, "name": "65dcf88395429ddbccd9bdc77be0aae6", "is_reserved": 0, "is_disabled": 0}, {"lat": 38.89892566666666, "fusion_lat": 0.0, "type": "electric_scooter", "bike_id": "39fd2b49a5b9148bc1aff3515c0e097f", "rental_uris": {"ios": "https://dc.lft.to/lastmile_qr_scan", "android": "https://dc.lft.to/lastmile_qr_scan"}, "fusion_lon": 0.0, "lon": -77.03324233333333, "name": "39fd2b49a5b9148bc1aff3515c0e097f", "is_reserved": 0, "is_disabled": 0}, {"lat": 38.88412483333333, "fusion_lat": 0.0, "type": "electric_scooter", "bike_id": "03b073ffad01466fa6d33f1cd53c0b90", "rental_uris": {"ios": "https://dc.lft.to/lastmile_qr_scan", "android": "https://dc.lft.to/lastmile_qr_scan"}, "fusion_lon": 0.0, "lon": -77.0319065, "name": "03b073ffad01466fa6d33f1cd53c0b90", "is_reserved": 0, "is_disabled": 0}, {"lat": 38.90614733333334, "fusion_lat": 0.0, "type": "electric_scooter", "bike_id": "e23c84c5bdeb1d3caba89a3e17541f60", "rental_uris": {"ios": "https://dc.lft.to/lastmile_qr_scan", "android": "https://dc.lft.to/lastmile_qr_scan"}, "fusion_lon": 0.0, "lon": -77.040505, "name": "e23c84c5bdeb1d3caba89a3e17541f60", "is_reserved": 0, "is_disabled": 0}, {"lat": 38.83745283333333, "fusion_lat": 0.0, "type": "electric_bike", "bike_id": "9ddde13005691aa23dc3cda216ab200c", "rental_uris": {"ios": "https://dc.lft.to/lastmile_qr_scan", "android": "https://dc.lft.to/lastmile_qr_scan"}, "fusion_lon": 0.0, "lon": -76.9981425, "name": "9ddde13005691aa23dc3cda216ab200c", "is_reserved": 0, "is_disabled": 0}, {"lat": 38.916422833333336, "fusion_lat": 0.0, "type": "electric_scooter", "bike_id": "18bae56c203fda7e4cda4c57bbcb58ef", "rental_uris": {"ios": "https://dc.lft.to/lastmile_qr_scan", "android": "https://dc.lft.to/lastmile_qr_scan"}, "fusion_lon": 0.0, "lon": -77.048435, "name": "18bae56c203fda7e4cda4c57bbcb58ef", "is_reserved": 0, "is_disabled": 0}, {"lat": 38.884297333333336, "fusion_lat": 0.0, "type": "electric_scooter", "bike_id": "42613830089413380fdb530a171cc5ba", "rental_uris": {"ios": "https://dc.lft.to/lastmile_qr_scan", "android": "https://dc.lft.to/lastmile_qr_scan"}, "fusion_lon": 0.0, "lon": -76.95757566666667, "name": "42613830089413380fdb530a171cc5ba", "is_reserved": 0, "is_disabled": 0},