{"data": {"bikes": [{"lon": -77.0396915, "bike_id": "ae4515084c6cc4c02f860941f8596fed", "lat": 38.89222433333333, "fusion_lon": 0.0, "fusion_lat": 0.0, "type": "electric_scooter", "name": "ae4515084c6cc4c02f860941f8596fed", "is_disabled": 0, "rental_uris": {"ios": "https://dc.lft.to/lastmile_qr_scan", "android": "https://dc.lft.to/lastmile_qr_scan"}, "is_reserved": 0}, {"lon": -77.04335933333333, "bike_id": "383cea0aa1ad648d00ad770c9259f816", "lat": 38.8922305, "fusion_lon": 0.0, "fusion_lat": 0.0, "type": "electric_scooter", "name": "383cea0aa1ad648d00ad770c9259f816", "is_disabled": 0, "rental_uris": {"ios": "https://dc.lft.to/lastmile_qr_scan", "android": "https://dc.lft.to/lastmile_qr_scan"}, "is_reserved": 0}, {"lon": -77.03311183333334, "bike_id": "453d460324301ab075c4bce7b0cb4808", "lat": 38.898200833333334, "fusion_lon": 0.0, "fusion_lat": 0.0, "type": "electric_scooter", "name": "453d460324301ab075c4bce7b0cb4808", "is_disabled": 0, "rental_uris": {"ios": "https://dc.lft.to/lastmile_qr_scan", "android": "https://dc.lft.to/lastmile_qr_scan"}, "is_reserved": 0}, {"lon": -77.05008, "bike_id": "6febf0ce7485e6b7ddeb4fad4c95a67d", "lat": 38.89231783333334, "fusion_lon": 0.0, "fusion_lat": 0.0, "type": "electric_scooter", "name": "6febf0ce7485e6b7ddeb4fad4c95a67d", "is_disabled": 0, "rental_uris": {"ios": "https://dc.lft.to/lastmile_qr_scan", "android": "https://dc.lft.to/lastmile_qr_scan"}, "is_reserved": 0}, {"lon": -77.03068033333334, "bike_id": "43de365b123fc1ebc1acdab5f72fbb65", "lat": 38.933086, "fusion_lon": 0.0, "fusion_lat": 0.0, "type": "electric_scooter", "name": "43de365b123fc1ebc1acdab5f72fbb65", "is_disabled": 0, "rental_uris": {"ios": "https://dc.lft.to/lastmile_qr_scan", "android": "https://dc.lft.to/lastmile_qr_scan"}, "is_reserved": 0}, {"lon": -77.01984216666666, "bike_id": "ebd66f89943d0f0e6b2a8ce2c4067488", "lat": 38.88387383333333, "fusion_lon": 0.0, "fusion_lat": 0.0, "type": "electric_scooter", "name": "ebd66f89943d0f0e6b2a8ce2c4067488", "is_disabled": 0, "rental_uris": {"ios": "https://dc.lft.to/lastmile_qr_scan", "android": "https://dc.lft.to/lastmile_qr_scan"}, "is_reserved": 0}, {"lon": -76.99369216666666, "bike_id": "bc065cd1563623f63bbb8fb73d0a55c8", "lat": 38.879707333333336, "fusion_lon": 0.0, "fusion_lat": 0.0, "type": "electric_scooter", "name": "bc065cd1563623f63bbb8fb73d0a55c8", "is_disabled": 0, "rental_uris": {"ios": "https://dc.lft.to/lastmile_qr_scan", "android": "https://dc.lft.to/lastmile_qr_scan"}, "is_reserved": 0}, {"lon": -77.03111966666667, "bike_id": "34d4980955dfe771f28f12d1105e9bd1", "lat": 38.923857, "fusion_lon": 0.0, "fusion_lat": 0.0, "type": "electric_scooter", "name": "34d4980955dfe771f28f12d1105e9bd1", "is_disabled": 0, "rental_uris": {"ios": "https://dc.lft.to/lastmile_qr_scan", "android": "https://dc.lft.to/lastmile_qr_scan"}, "is_reserved": 0}, {"lon": -77.038049, "bike_id": "90bb275ee22f4b34a9e5a3b21d012f75", "lat": 38.90676, "fusion_lon": 0.0, "fusion_lat": 0.0, "type": "electric_scooter", "name": "90bb275ee22f4b34a9e5a3b21d012f75", "is_disabled": 0, "rental_uris": {"ios": "https://dc.lft.to/lastmile_qr_scan", "android": "https://dc.lft.to/lastmile_qr_scan"}, "is_reserved": 0}, {"lon": -76.990034, "bike_id": "0087ecd1690f3dfdaf4c18d2fda1a5df", "lat": 38.865116, "fusion_lon": 0.0, "fusion_lat": 0.0, "type": "electric_scooter", "name": "0087ecd1690f3dfdaf4c18d2fda1a5df", "is_disabled": 0, "rental_uris": {"ios": "https://dc.lft.to/lastmile_qr_scan", "android": "https://dc.lft.to/lastmile_qr_scan"}, "is_reserved": 0}, {"lon": -76.98851283333333, "bike_id": "d05880763668083b590f61f0b652e72f", "lat": 38.8673035, "fusion_lon": 0.0, "fusion_lat": 0.0, "type": "electric_scooter", "name": "d05880763668083b590f61f0b652e72f", "is_disabled": 0, "rental_uris": {"ios": "https://dc.lft.to/lastmile_qr_scan", "android": "https://dc.lft.to/lastmile_qr_scan"}, "is_reserved": 0}, {"lon": -77.03196916666667, "bike_id": "d4e6cde62c6b2f1baf9392466341ab82", "lat": 38.91743366666667, "fusion_lon": 0.0, "fusion_lat": 0.0, "type": "electric_scooter", "name": "d4e6cde62c6b2f1baf9392466341ab82", "is_disabled": 0, "rental_uris": {"ios": "https://dc.lft.to/lastmile_qr_scan", "android": "https://dc.lft.to/lastmile_qr_scan"}, "is_reserved": 0}, {"lon": -77.027222, "bike_id": "189f45d22333d6b6dfc3ccf57cca2362", "lat": 38.897391, "fusion_lon": 0.0, "fusion_lat": 0.0, "type": "electric_scooter", "name": "189f45d22333d6b6dfc3ccf57cca2362", "is_disabled": 0, "rental_uris": {"ios": "https://dc.lft.to/lastmile_qr_scan", "android": "https://dc.lft.to/lastmile_qr_scan"}, "is_reserved": 0}, {"lon": -77.02209083333334, "bike_id": "714fcff5701de0fc7cf9d9c0fd1af2f7", "lat": 38.878957666666665, "fusion_lon": 0.0, "fusion_lat": 0.0, "type": "electric_scooter", "name": "714fcff5701de0fc7cf9d9c0fd1af2f7", "is_disabled": 0, "rental_uris": {"ios": "https://dc.lft.to/lastmile_qr_scan", "android": "https://dc.lft.to/lastmile_qr_scan"}, "is_reserved": 0}, {"lon": -77.03743633333333, "bike_id": "71419ddbaf2a530c0b40dbe65b22c6f0", "lat": 38.91806666666667, "fusion_lon": 0.0, "fusion_lat": 0.0, "type": "electric_scooter", "name": "71419ddbaf2a530c0b40dbe65b22c6f0", "is_disabled": 0, "rental_uris": {"ios": "https://dc.lft.to/lastmile_qr_scan", "android": "https://dc.lft.to/lastmile_qr_scan"}, "is_reserved": 0}, {"lon": -77.01740616666666, "bike_id": "488511bcaf3746f8bbbc4bd1bfe68230", "lat": 38.88746533333333, "fusion_lon": 0.0, "fusion_lat": 0.0, "type": "electric_scooter", "name": "488511bcaf3746f8bbbc4bd1bfe68230", "is_disabled": 0, "rental_uris": {"ios": "https://dc.lft.to/lastmile_qr_scan", "android": "https://dc.lft.to/lastmile_qr_scan"}, "is_reserved": 0}, {"lon": -76.96524416666666, "bike_id": "6d690b501ae14eec611aac33a699d611", "lat": 38.8747905, "fusion_lon": 0.0, "fusion_lat": 0.0, "type": "electric_scooter", "name": "6d690b501ae14eec611aac33a699d611", "is_disabled": 0, "rental_uris": {"ios": "https://dc.lft.to/lastmile_qr_scan", "android": "https://dc.lft.to/lastmile_qr_scan"}, "is_reserved": 0}, {"lon": -77.0238, "bike_id": "6db5b186d2aed1b2c6e6b3737c131060", "lat": 38.91708533333333, "fusion_lon": 0.0, "fusion_lat": 0.0, "type": "electric_scooter", "name": "6db5b186d2aed1b2c6e6b3737c131060", "is_disabled": 0, "rental_uris": {"ios": "https://dc.lft.to/lastmile_qr_scan", "android": "https://dc.lft.to/lastmile_qr_scan"}, "is_reserved": 0}, {"lon": -77.02394766666667, "bike_id": "01cfc80293fbca36bb5142461e5f6abb", "lat": 38.91964016666667, "fusion_lon": 0.0, "fusion_lat": 0.0, "type": "electric_scooter", "name": "01cfc80293fbca36bb5142461e5f6abb", "is_disabled": 0, "rental_uris": {"ios": "https://dc.lft.to/lastmile_qr_scan", "android": "https://dc.lft.to/lastmile_qr_scan"}, "is_reserved": 0}, {"lon": -77.048814, "bike_id": "052b845ff91054af25768118d1947260", "lat": 38.900941833333334, "fusion_lon": 0.0, "fusion_lat": 0.0, "type": "electric_scooter", "name": "052b845ff91054af25768118d1947260", "is_disabled": 0, "rental_uris": {"ios": "https://dc.lft.to/lastmile_qr_scan", "android": "https://dc.lft.to/lastmile_qr_scan"}, "is_reserved": 0}, {"lon": -77.05952516666666, "bike_id": "2626298bdfaf99bfeae43cec35c27262", "lat": 38.918423833333335, "fusion_lon": 0.0, "fusion_lat": 0.0, "type": "electric_scooter", "name": "2626298bdfaf99bfeae43cec35c27262", "is_disabled": 0, "rental_uris": {"ios": "https://dc.lft.to/lastmile_qr_scan", "android": "https://dc.lft.to/lastmile_qr_scan"}, "is_reserved": 0}, {"lon": -77.03942883333333, "bike_id": "88bf3ba861dc1dd2998ab25c13501da4", "lat": 38.89978083333333, "fusion_lon": 0.0, "fusion_lat": 0.0, "type": "electric_scooter", "name": "88bf3ba861dc1dd2998ab25c13501da4", "is_disabled": 0, "rental_uris": {"ios": "https://dc.lft.to/lastmile_qr_scan", "android": "https://dc.lft.to/lastmile_qr_scan"}, "is_reserved": 0}, {"lon": -77.02565, "bike_id": "cc8851d808b6d3ac2abfcdc9b1c04856", "lat": 38.93352383333333, "fusion_lon": 0.0, "fusion_lat": 0.0, "type": "electric_scooter", "name": "cc8851d808b6d3ac2abfcdc9b1c04856", "is_disabled": 0, "rental_uris": {"ios": "https://dc.lft.to/lastmile_qr_scan", "android": "https://dc.lft.to/lastmile_qr_scan"}, "is_reserved": 0}, {"lon": -77.035223, "bike_id": "f5cf06d3b6a448712b7e39a9a39a0079", "lat": 38.9226235, "fusion_lon": 0.0, "fusion_lat": 0.0, "type": "electric_scooter", "name": "f5cf06d3b6a448712b7e39a9a39a0079", "is_disabled": 0, "rental_uris": {"ios": "https://dc.lft.to/lastmile_qr_scan", "android": "https://dc.lft.to/lastmile_qr_scan"}, "is_reserved": 0}, {"lon": -76.94634716666667, "bike_id": "0a6fc2504606d83deb0ae477e3bce4de", "lat": 38.89831066666667, "fusion_lon": 0.0, "fusion_lat": 0.0, "type": "electric_scooter", "name": "0a6fc2504606d83deb0ae477e3bce4de", "is_disabled": 0, "rental_uris": {"ios": "https://dc.lft.to/lastmile_qr_scan", "android": "https://dc.lft.to/lastmile_qr_scan"}, "is_reserved": 0}, {"lon": -77.02907483333334, "bike_id": "d66082f49d9cbaf5759d208c2d5f6f68", "lat": 38.91704266666667, "fusion_lon": 0.0, "fusion_lat": 0.0, "type": "electric_scooter", "name": "d66082f49d9cbaf5759d208c2d5f6f68", "is_disabled": 0, "rental_uris": {"ios": "https://dc.lft.to/lastmile_qr_scan", "android": "https://dc.lft.to/lastmile_qr_scan"}, "is_reserved": 0}, {"lon": -77.021501, "bike_id": "3bb16e6d0f11fcfd48fa6620be967c14", "lat": 38.89507283333333, "fusion_lon": 0.0, "fusion_lat": 0.0, "type": "electric_scooter", "name": "3bb16e6d0f11fcfd48fa6620be967c14", "is_disabled": 0, "rental_uris": {"ios": "https://dc.lft.to/lastmile_qr_scan", "android": "https://dc.lft.to/lastmile_qr_scan"}, "is_reserved": 0}, {"lon": -77.0035145, "bike_id": "5c4c61c63dc28ad4994e23d68a59fb32", "lat": 38.887046833333336, "fusion_lon": 0.0, "fusion_lat": 0.0, "type": "electric_bike", "name": "5c4c61c63dc28ad4994e23d68a59fb32", "is_disabled": 0, "rental_uris": {"ios": "https://dc.lft.to/lastmile_qr_scan", "android": "https://dc.lft.to/lastmile_qr_scan"}, "is_reserved": 0}, {"lon": -76.96819633333334, "bike_id": "79d82067e2f0acc14cb00d0be029374a", "lat": 38.847206666666665, "fusion_lon": 0.0, "fusion_lat": 0.0, "type": "electric_scooter", "name": "79d82067e2f0acc14cb00d0be029374a", "is_disabled": 0, "rental_uris": {"ios": "https://dc.lft.to/lastmile_qr_scan", "android": "https://dc.lft.to/lastmile_qr_scan"}, "is_reserved": 0}, {"lon": -77.03283566666667, "bike_id": "4781fc5891bbee723c33dd2a42de21c9", "lat": 38.937622833333336, "fusion_lon": 0.0, "fusion_lat": 0.0, "type": "electric_scooter", "name": "4781fc5891bbee723c33dd2a42de21c9", "is_disabled": 0, "rental_uris": {"ios": "https://dc.lft.to/lastmile_qr_scan", "android": "https://dc.lft.to/lastmile_qr_scan"}, "is_reserved": 0}, {"lon": -76.9946165, "bike_id": "49a42bce38705df215e28a18de4a8a1a", "lat": 38.90369616666667, "fusion_lon": 0.0, "fusion_lat": 0.0, "type": "electric_scooter", "name": "49a42bce38705df215e28a18de4a8a1a", "is_disabled": 0, "rental_uris": {"ios": "https://dc.lft.to/lastmile_qr_scan", "android": "https://dc.lft.to/lastmile_qr_scan"}, "is_reserved": 0}, {"lon": -76.996743, "bike_id": "cbdcc259640871efc7cc3f906166476c", "lat": 38.83831133333333, "fusion_lon": 0.0, "fusion_lat": 0.0, "type": "electric_bike", "name": "cbdcc259640871efc7cc3f906166476c", "is_disabled": 0, "rental_uris": {"ios": "https://dc.lft.to/lastmile_qr_scan", "android": "https://dc.lft.to/lastmile_qr_scan"}, "is_reserved": 0}, {"lon": -77.02001883333334, "bike_id": "95330af4b8e267e81ca431e54b6f47e6", "lat": 38.966268, "fusion_lon": 0.0, "fusion_lat": 0.0, "type": "electric_scooter", "name": "95330af4b8e267e81ca431e54b6f47e6", "is_disabled": 0, "rental_uris": {"ios": "https://dc.lft.to/lastmile_qr_scan", "android": "https://dc.lft.to/lastmile_qr_scan"}, "is_reserved": 0}, {"lon": -77.02803733333333, "bike_id": "6fe42eb1cf41c3326afa1b2865312dbf", "lat": 38.914280166666664, "fusion_lon": 0.0, "fusion_lat": 0.0, "type": "electric_scooter", "name": "6fe42eb1cf41c3326afa1b2865312dbf", "is_disabled": 0, "rental_uris": {"ios": "https://dc.lft.to/lastmile_qr_scan", "android": "https://dc.lft.to/lastmile_qr_scan"}, "is_reserved": 0}, {"lon": -77.07235, "bike_id": "2b0bafaf980bfaf5e61b7910a740016e", "lat": 38.898983333333334, "fusion_lon": 0.0, "fusion_lat": 0.0, "type": "electric_scooter", "name": "2b0bafaf980bfaf5e61b7910a740016e", "is_disabled": 0, "rental_uris": {"ios": "https://dc.lft.to/lastmile_qr_scan", "android": "https://dc.lft.to/lastmile_qr_scan"}, "is_reserved": 0}, {"lon": -76.993829, "bike_id": "4f9f5ad615ab1fd220b11e3480670cf4", "lat": 38.89900516666667, "fusion_lon": 0.0, "fusion_lat": 0.0, "type": "electric_scooter", "name": "4f9f5ad615ab1fd220b11e3480670cf4", "is_disabled": 0, "rental_uris": {"ios": "https://dc.lft.to/lastmile_qr_scan", "android": "https://dc.lft.to/lastmile_qr_scan"}, "is_reserved": 0}, {"lon": -77.076024, "bike_id": "d5bab2e2815b50ae877daffef9bd995a", "lat": 38.912168, "fusion_lon": 0.0, "fusion_lat": 0.0, "type": "electric_scooter", "name": "d5bab2e2815b50ae877daffef9bd995a", "is_disabled": 0, "rental_uris": {"ios": "https://dc.lft.to/lastmile_qr_scan", "android": "https://dc.lft.to/lastmile_qr_scan"}, "is_reserved": 0}, {"lon": -77.01800066666667, "bike_id": "e8fe14f6cdb703df72d84a4309b34c69", "lat": 38.91990283333333, "fusion_lon": 0.0, "fusion_lat": 0.0, "type": "electric_scooter", "name": "e8fe14f6cdb703df72d84a4309b34c69", "is_disabled": 0, "rental_uris": {"ios": "https://dc.lft.to/lastmile_qr_scan", "android": "https://dc.lft.to/lastmile_qr_scan"}, "is_reserved": 0}, {"lon": -77.01458583333333, "bike_id": "f98e30edeb12d87e19b4b054122a33e0", "lat": 38.919253, "fusion_lon": 0.0, "fusion_lat": 0.0, "type": "electric_scooter", "name": "f98e30edeb12d87e19b4b054122a33e0", "is_disabled": 0, "rental_uris": {"ios": "https://dc.lft.to/lastmile_qr_scan", "android": "https://dc.lft.to/lastmile_qr_scan"}, "is_reserved": 0}, {"lon": -77.0395245, "bike_id": "8b1ebb4d78ac59b2e88390bd461f5574", "lat": 38.904635, "fusion_lon": 0.0, "fusion_lat": 0.0, "type": "electric_scooter", "name": "8b1ebb4d78ac59b2e88390bd461f5574", "is_disabled": 0, "rental_uris": {"ios": "https://dc.lft.to/lastmile_qr_scan", "android": "https://dc.lft.to/lastmile_qr_scan"}, "is_reserved": 0}, {"lon": -77.05457, "bike_id": "64fcbc230a16862019a02dde14c8b07c", "lat": 38.904349833333335, "fusion_lon": 0.0, "fusion_lat": 0.0, "type": "electric_scooter", "name": "64fcbc230a16862019a02dde14c8b07c", "is_disabled": 0, "rental_uris": {"ios": "https://dc.lft.to/lastmile_qr_scan", "android": "https://dc.lft.to/lastmile_qr_scan"}, "is_reserved": 0}, {"lon": -77.03221183333333, "bike_id": "2648c2c43bd3ad69af8aa9ee1440cdf3", "lat": 38.892262833333334, "fusion_lon": 0.0, "fusion_lat": 0.0, "type": "electric_scooter", "name": "2648c2c43bd3ad69af8aa9ee1440cdf3", "is_disabled": 0, "rental_uris": {"ios": "https://dc.lft.to/lastmile_qr_scan", "android": "https://dc.lft.to/lastmile_qr_scan"}, "is_reserved": 0}, {"lon": -76.972366, "bike_id": "b031578461387946a7fc126f58396a0a", "lat": 38.90344316666667, "fusion_lon": 0.0, "fusion_lat": 0.0, "type": "electric_scooter", "name": "b031578461387946a7fc126f58396a0a", "is_disabled": 0, "rental_uris": {"ios": "https://dc.lft.to/lastmile_qr_scan", "android": "https://dc.lft.to/lastmile_qr_scan"}, "is_reserved": 0}, {"lon": -76.98525566666666, "bike_id": "56ad664c06865e74274002e042224ddc", "lat": 38.866873, "fusion_lon": 0.0, "fusion_lat": 0.0, "type": "electric_scooter", "name": "56ad664c06865e74274002e042224ddc", "is_disabled": 0, "rental_uris": {"ios": "https://dc.lft.to/lastmile_qr_scan", "android": "https://dc.lft.to/lastmile_qr_scan"}, "is_reserved": 0}, {"lon": -77.03086333333333, "bike_id": "564af516bcbfec98dda66f299c53aab3", "lat": 38.90074116666667, "fusion_lon": 0.0, "fusion_lat": 0.0, "type": "electric_scooter", "name": "564af516bcbfec98dda66f299c53aab3", "is_disabled": 0, "rental_uris": {"ios": "https://dc.lft.to/lastmile_qr_scan", "android": "https://dc.lft.to/lastmile_qr_scan"}, "is_reserved": 0}, {"lon": -77.04539166666666, "bike_id": "8f59c672d6f247b758448454bf7d135c", "lat": 38.91321716666667, "fusion_lon": 0.0, "fusion_lat": 0.0, "type": "electric_scooter", "name": "8f59c672d6f247b758448454bf7d135c", "is_disabled": 0, "rental_uris": {"ios": "https://dc.lft.to/lastmile_qr_scan", "android": "https://dc.lft.to/lastmile_qr_scan"}, "is_reserved": 0}, {"lon": -77.02769716666667, "bike_id": "1151d82e877fc29414c1d9004330eff6", "lat": 38.89223916666667, "fusion_lon": 0.0, "fusion_lat": 0.0, "type": "electric_scooter", "name": "1151d82e877fc29414c1d9004330eff6", "is_disabled": 0, "rental_uris": {"ios": "https://dc.lft.to/lastmile_qr_scan", "android": "https://dc.lft.to/lastmile_qr_scan"}, "is_reserved": 0}, {"lon": -77.03220033333334, "bike_id": "5ef8552389e6cef44f538ba717c2d792", "lat": 38.914075833333335, "fusion_lon": 0.0, "fusion_lat": 0.0, "type": "electric_scooter", "name": "5ef8552389e6cef44f538ba717c2d792", "is_disabled": 0, "rental_uris": {"ios": "https://dc.lft.to/lastmile_qr_scan", "android": "https://dc.lft.to/lastmile_qr_scan"}, "is_reserved": 0}, {"lon": -77.000611, "bike_id": "f38ea0f4c35128ba7ca8a97ae0c9bda1", "lat": 38.900844166666666, "fusion_lon": 0.0, "fusion_lat": 0.0, "type": "electric_scooter", "name": "f38ea0f4c35128ba7ca8a97ae0c9bda1", "is_disabled": 0, "rental_uris": {"ios": "https://dc.lft.to/lastmile_qr_scan", "android": "https://dc.lft.to/lastmile_qr_scan"}, "is_reserved": 0}, {"lon": -76.99052416666666, "bike_id": "ea4d780a4b3b341ab5253b0b3ef95694", "lat": 38.863807333333334, "fusion_lon": 0.0, "fusion_lat": 0.0, "type": "electric_scooter", "name": "ea4d780a4b3b341ab5253b0b3ef95694", "is_disabled": 0, "rental_uris": {"ios": "https://dc.lft.to/lastmile_qr_scan", "android": "https://dc.lft.to/lastmile_qr_scan"}, "is_reserved": 0}, {"lon": -77.0466175, "bike_id": "2bcbc5f38e325f206287881d50a09790", "lat": 38.904694666666664, "fusion_lon": 0.0, "fusion_lat": 0.0, "type": "electric_scooter", "name": "2bcbc5f38e325f206287881d50a09790", "is_disabled": 0, "rental_uris": {"ios": "https://dc.lft.to/lastmile_qr_scan", "android": "https://dc.lft.to/lastmile_qr_scan"}, "is_reserved": 0}, {"lon": -77.03214733333333, "bike_id": "23e170fd3657fd0e21ae28692bad70c9", "lat": 38.912649333333334, "fusion_lon": 0.0, "fusion_lat": 0.0, "type": "electric_scooter", "name": "23e170fd3657fd0e21ae28692bad70c9", "is_disabled": 0, "rental_uris": {"ios": "https://dc.lft.to/lastmile_qr_scan", "android": "https://dc.lft.to/lastmile_qr_scan"}, "is_reserved": 0}, {"lon": -76.948821, "bike_id": "bed1c391453397055d16f3601810ac8e", "lat": 38.89430516666667, "fusion_lon": 0.0, "fusion_lat": 0.0, "type": "electric_scooter", "name": "bed1c391453397055d16f3601810ac8e", "is_disabled": 0, "rental_uris": {"ios": "https://dc.lft.to/lastmile_qr_scan", "android": "https://dc.lft.to/lastmile_qr_scan"}, "is_reserved": 0}, {"lon": -77.04628216666667, "bike_id": "dea997a9cc9254c55fc38245062d7db2", "lat": 38.90127416666667, "fusion_lon": 0.0, "fusion_lat": 0.0, "type": "electric_scooter", "name": "dea997a9cc9254c55fc38245062d7db2", "is_disabled": 0, "rental_uris": {"ios": "https://dc.lft.to/lastmile_qr_scan", "android": "https://dc.lft.to/lastmile_qr_scan"}, "is_reserved": 0}, {"lon": -77.01983683333333, "bike_id": "eca9fa42667cbf23bc3e43d1bb3001b1", "lat": 38.92550383333333, "fusion_lon": 0.0, "fusion_lat": 0.0, "type": "electric_bike", "name": "eca9fa42667cbf23bc3e43d1bb3001b1", "is_disabled": 0, "rental_uris": {"ios": "https://dc.lft.to/lastmile_qr_scan", "android": "https://dc.lft.to/lastmile_qr_scan"}, "is_reserved": 0}, {"lon": -77.02158233333333, "bike_id": "834f2411b72d747f3dd6338d4876c148", "lat": 38.92498283333333, "fusion_lon": 0.0, "fusion_lat": 0.0, "type": "electric_scooter", "name": "834f2411b72d747f3dd6338d4876c148", "is_disabled": 0, "rental_uris": {"ios": "https://dc.lft.to/lastmile_qr_scan", "android": "https://dc.lft.to/lastmile_qr_scan"}, "is_reserved": 0}, {"lon": -77.02164316666666, "bike_id": "71d671632afa518662e8195abd1508af", "lat": 38.92617166666667, "fusion_lon": 0.0, "fusion_lat": 0.0, "type": "electric_scooter", "name": "71d671632afa518662e8195abd1508af", "is_disabled": 0, "rental_uris": {"ios": "https://dc.lft.to/lastmile_qr_scan", "android": "https://dc.lft.to/lastmile_qr_scan"}, "is_reserved": 0}, {"lon": -77.00224433333334, "bike_id": "9a14d7adbd02d33bb367ca3a5ec3e3eb", "lat": 38.92511233333333, "fusion_lon": 0.0, "fusion_lat": 0.0, "type": "electric_scooter", "name": "9a14d7adbd02d33bb367ca3a5ec3e3eb", "is_disabled": 0, "rental_uris": {"ios": "https://dc.lft.to/lastmile_qr_scan", "android": "https://dc.lft.to/lastmile_qr_scan"}, "is_reserved": 0}, {"lon": -76.9937375, "bike_id": "3adaaadc9354eebb131bb1ca23e1b3e5", "lat": 38.89382233333333, "fusion_lon": 0.0, "fusion_lat": 0.0, "type": "electric_scooter", "name": "3adaaadc9354eebb131bb1ca23e1b3e5", "is_disabled": 0, "rental_uris": {"ios": "https://dc.lft.to/lastmile_qr_scan", "android": "https://dc.lft.to/lastmile_qr_scan"}, "is_reserved": 0}, {"lon": -77.0464165, "bike_id": "aad7e61bdae45a20ecd8baec7ba5f3c5", "lat": 38.915631, "fusion_lon": 0.0, "fusion_lat": 0.0, "type": "electric_scooter", "name": "aad7e61bdae45a20ecd8baec7ba5f3c5", "is_disabled": 0, "rental_uris": {"ios": "https://dc.lft.to/lastmile_qr_scan", "android": "https://dc.lft.to/lastmile_qr_scan"}, "is_reserved": 0}, {"lon": -77.034458, "bike_id": "b78378836adeadc9bc8b48344d111bbd", "lat": 38.9097805, "fusion_lon": 0.0, "fusion_lat": 0.0, "type": "electric_scooter", "name": "b78378836adeadc9bc8b48344d111bbd", "is_disabled": 0, "rental_uris": {"ios": "https://dc.lft.to/lastmile_qr_scan", "android": "https://dc.lft.to/lastmile_qr_scan"}, "is_reserved": 0}, {"lon": -77.03188366666667, "bike_id": "77a455c8667c04bdea0ccd1118ccc0fb", "lat": 38.89967433333333, "fusion_lon": 0.0, "fusion_lat": 0.0, "type": "electric_scooter", "name": "77a455c8667c04bdea0ccd1118ccc0fb", "is_disabled": 0, "rental_uris": {"ios": "https://dc.lft.to/lastmile_qr_scan", "android": "https://dc.lft.to/lastmile_qr_scan"}, "is_reserved": 0}, {"lon": -77.03866683333334, "bike_id": "62556c12f4723af7003ea92c5638b39c", "lat": 38.90643383333333, "fusion_lon": 0.0, "fusion_lat": 0.0, "type": "electric_scooter", "name": "62556c12f4723af7003ea92c5638b39c", "is_disabled": 0, "rental_uris": {"ios": "https://dc.lft.to/lastmile_qr_scan", "android": "https://dc.lft.to/lastmile_qr_scan"}, "is_reserved": 0}, {"lon": -77.094944, "bike_id": "df762995b2d60d2909e33b2d9bf3b05e", "lat": 38.8077015, "fusion_lon": 0.0, "fusion_lat": 0.0, "type": "electric_bike", "name": "df762995b2d60d2909e33b2d9bf3b05e", "is_disabled": 0, "rental_uris": {"ios": "https://dc.lft.to/lastmile_qr_scan", "android": "https://dc.lft.to/lastmile_qr_scan"}, "is_reserved": 0}, {"lon": -76.98834283333333, "bike_id": "d7003525511110a45d0f1028d8495e59", "lat": 38.90127733333333, "fusion_lon": 0.0, "fusion_lat": 0.0, "type": "electric_scooter", "name": "d7003525511110a45d0f1028d8495e59", "is_disabled": 0, "rental_uris": {"ios": "https://dc.lft.to/lastmile_qr_scan", "android": "https://dc.lft.to/lastmile_qr_scan"}, "is_reserved": 0}, {"lon": -77.021014, "bike_id": "9f9c94211ad1663616dc135e0153e5f5", "lat": 38.92712383333333, "fusion_lon": 0.0, "fusion_lat": 0.0, "type": "electric_scooter", "name": "9f9c94211ad1663616dc135e0153e5f5", "is_disabled": 0, "rental_uris": {"ios": "https://dc.lft.to/lastmile_qr_scan", "android": "https://dc.lft.to/lastmile_qr_scan"}, "is_reserved": 0}, {"lon": -77.04673166666667, "bike_id": "66795f354f977817295ab023c6767362", "lat": 38.89553883333333, "fusion_lon": 0.0, "fusion_lat": 0.0, "type": "electric_scooter", "name": "66795f354f977817295ab023c6767362", "is_disabled": 0, "rental_uris": {"ios": "https://dc.lft.to/lastmile_qr_scan", "android": "https://dc.lft.to/lastmile_qr_scan"}, "is_reserved": 0}, {"lon": -77.01643733333333, "bike_id": "6edced791950116253b3b43cda47938c", "lat": 38.928992666666666, "fusion_lon": 0.0, "fusion_lat": 0.0, "type": "electric_scooter", "name": "6edced791950116253b3b43cda47938c", "is_disabled": 0, "rental_uris": {"ios": "https://dc.lft.to/lastmile_qr_scan", "android": "https://dc.lft.to/lastmile_qr_scan"}, "is_reserved": 0}, {"lon": -77.04476116666666, "bike_id": "abf59a5ece95f3535089b9a1b733d59c", "lat": 38.89220683333333, "fusion_lon": 0.0, "fusion_lat": 0.0, "type": "electric_scooter", "name": "abf59a5ece95f3535089b9a1b733d59c", "is_disabled": 0, "rental_uris": {"ios": "https://dc.lft.to/lastmile_qr_scan", "android": "https://dc.lft.to/lastmile_qr_scan"}, "is_reserved": 0}, {"lon": -77.03646833333333, "bike_id": "747262d721b309f25d327dbe00da7be0", "lat": 38.924643, "fusion_lon": 0.0, "fusion_lat": 0.0, "type": "electric_scooter", "name": "747262d721b309f25d327dbe00da7be0", "is_disabled": 0, "rental_uris": {"ios": "https://dc.lft.to/lastmile_qr_scan", "android": "https://dc.lft.to/lastmile_qr_scan"}, "is_reserved": 0}, {"lon": -77.0239335, "bike_id": "bea366c1c51014a20e384b1a77ce6250", "lat": 38.90691666666667, "fusion_lon": 0.0, "fusion_lat": 0.0, "type": "electric_scooter", "name": "bea366c1c51014a20e384b1a77ce6250", "is_disabled": 0, "rental_uris": {"ios": "https://dc.lft.to/lastmile_qr_scan", "android": "https://dc.lft.to/lastmile_qr_scan"}, "is_reserved": 0}, {"lon": -77.03205183333333, "bike_id": "40732ca2797ee00044f124c55ea850a2", "lat": 38.92679483333333, "fusion_lon": 0.0, "fusion_lat": 0.0, "type": "electric_scooter", "name": "40732ca2797ee00044f124c55ea850a2", "is_disabled": 0, "rental_uris": {"ios": "https://dc.lft.to/lastmile_qr_scan", "android": "https://dc.lft.to/lastmile_qr_scan"}, "is_reserved": 0}, {"lon": -77.03837, "bike_id": "0e65436d8abd72dc6cb46ebca390af13", "lat": 38.904104833333335, "fusion_lon": 0.0, "fusion_lat": 0.0, "type": "electric_scooter", "name": "0e65436d8abd72dc6cb46ebca390af13", "is_disabled": 0, "rental_uris": {"ios": "https://dc.lft.to/lastmile_qr_scan", "android": "https://dc.lft.to/lastmile_qr_scan"}, "is_reserved": 0}, {"lon": -77.0321045, "bike_id": "fc0ca06cbc0b76389d8a748caed72978", "lat": 38.913012, "fusion_lon": 0.0, "fusion_lat": 0.0, "type": "electric_scooter", "name": "fc0ca06cbc0b76389d8a748caed72978", "is_disabled": 0, "rental_uris": {"ios": "https://dc.lft.to/lastmile_qr_scan", "android": "https://dc.lft.to/lastmile_qr_scan"}, "is_reserved": 0}, {"lon": -77.05183016666666, "bike_id": "06d90a903b7b739ec558b1321e03c015", "lat": 38.923861, "fusion_lon": 0.0, "fusion_lat": 0.0, "type": "electric_scooter", "name": "06d90a903b7b739ec558b1321e03c015", "is_disabled": 0, "rental_uris": {"ios": "https://dc.lft.to/lastmile_qr_scan", "android": "https://dc.lft.to/lastmile_qr_scan"}, "is_reserved": 0}, {"lon": -77.00574533333334, "bike_id": "91cdd53defbcc6648e447014b03b5095", "lat": 38.87311233333333, "fusion_lon": 0.0, "fusion_lat": 0.0, "type": "electric_scooter", "name": "91cdd53defbcc6648e447014b03b5095", "is_disabled": 0, "rental_uris": {"ios": "https://dc.lft.to/lastmile_qr_scan", "android": "https://dc.lft.to/lastmile_qr_scan"}, "is_reserved": 0}, {"lon": -77.03184666666667, "bike_id": "62f4c188d73cbf8ad85516560bf90f77", "lat": 38.89225716666667, "fusion_lon": 0.0, "fusion_lat": 0.0, "type": "electric_scooter", "name": "62f4c188d73cbf8ad85516560bf90f77", "is_disabled": 0, "rental_uris": {"ios": "https://dc.lft.to/lastmile_qr_scan", "android": "https://dc.lft.to/lastmile_qr_scan"}, "is_reserved": 0}, {"lon": -77.04896283333333, "bike_id": "16fb7d78c9012c334a10e73c8fee9e5f", "lat": 38.89227733333333, "fusion_lon": 0.0, "fusion_lat": 0.0, "type": "electric_scooter", "name": "16fb7d78c9012c334a10e73c8fee9e5f", "is_disabled": 0, "rental_uris": {"ios": "https://dc.lft.to/lastmile_qr_scan", "android": "https://dc.lft.to/lastmile_qr_scan"}, "is_reserved": 0}, {"lon": -77.03187916666667, "bike_id": "117f5360c351c3f49fe2ddd7341f2f7c", "lat": 38.8922415, "fusion_lon": 0.0, "fusion_lat": 0.0, "type": "electric_scooter", "name": "117f5360c351c3f49fe2ddd7341f2f7c", "is_disabled": 0, "rental_uris": {"ios": "https://dc.lft.to/lastmile_qr_scan", "android": "https://dc.lft.to/lastmile_qr_scan"}, "is_reserved": 0}, {"lon": -77.03186983333333, "bike_id": "9a8414228ee06b5dfa3d9b0292bbe3e2", "lat": 38.8962935, "fusion_lon": 0.0, "fusion_lat": 0.0, "type": "electric_scooter", "name": "9a8414228ee06b5dfa3d9b0292bbe3e2", "is_disabled": 0, "rental_uris": {"ios": "https://dc.lft.to/lastmile_qr_scan", "android": "https://dc.lft.to/lastmile_qr_scan"}, "is_reserved": 0}, {"lon": -76.98597366666667, "bike_id": "007ed8689fdda26d0c7d6694444aed24", "lat": 38.86689783333333, "fusion_lon": 0.0, "fusion_lat": 0.0, "type": "electric_scooter", "name": "007ed8689fdda26d0c7d6694444aed24", "is_disabled": 0, "rental_uris": {"ios": "https://dc.lft.to/lastmile_qr_scan", "android": "https://dc.lft.to/lastmile_qr_scan"}, "is_reserved": 0}, {"lon": -77.0252205, "bike_id": "075100488d5d323860985f49c4836f0f", "lat": 38.90089116666667, "fusion_lon": 0.0, "fusion_lat": 0.0, "type": "electric_scooter", "name": "075100488d5d323860985f49c4836f0f", "is_disabled": 0, "rental_uris": {"ios": "https://dc.lft.to/lastmile_qr_scan", "android": "https://dc.lft.to/lastmile_qr_scan"}, "is_reserved": 0}, {"lon": -77.0263395, "bike_id": "82372e85b1cc2d8ad779e16738c7231d", "lat": 38.899508, "fusion_lon": 0.0, "fusion_lat": 0.0, "type": "electric_scooter", "name": "82372e85b1cc2d8ad779e16738c7231d", "is_disabled": 0, "rental_uris": {"ios": "https://dc.lft.to/lastmile_qr_scan", "android": "https://dc.lft.to/lastmile_qr_scan"}, "is_reserved": 0}, {"lon": -77.02623166666666, "bike_id": "a6b8c8c47c6f7992ad2feeef200695b1", "lat": 38.892187, "fusion_lon": 0.0, "fusion_lat": 0.0, "type": "electric_scooter", "name": "a6b8c8c47c6f7992ad2feeef200695b1", "is_disabled": 0, "rental_uris": {"ios": "https://dc.lft.to/lastmile_qr_scan", "android": "https://dc.lft.to/lastmile_qr_scan"}, "is_reserved": 0}, {"lon": -76.98948033333333, "bike_id": "e7bfe28be211e47bdf08a39a883dca7e", "lat": 38.867067166666665, "fusion_lon": 0.0, "fusion_lat": 0.0, "type": "electric_bike", "name": "e7bfe28be211e47bdf08a39a883dca7e", "is_disabled": 0, "rental_uris": {"ios": "https://dc.lft.to/lastmile_qr_scan", "android": "https://dc.lft.to/lastmile_qr_scan"}, "is_reserved": 0}, {"lon": -77.03204266666667, "bike_id": "9ad1b7381e6c531e2da039449523a079", "lat": 38.91635733333333, "fusion_lon": 0.0, "fusion_lat": 0.0, "type": "electric_scooter", "name": "9ad1b7381e6c531e2da039449523a079", "is_disabled": 0, "rental_uris": {"ios": "https://dc.lft.to/lastmile_qr_scan", "android": "https://dc.lft.to/lastmile_qr_scan"}, "is_reserved": 0}, {"lon": -77.02223016666667, "bike_id": "2c7bda025ef4c9e16358a0594f82804b", "lat": 38.892214333333335, "fusion_lon": 0.0, "fusion_lat": 0.0, "type": "electric_scooter", "name": "2c7bda025ef4c9e16358a0594f82804b", "is_disabled": 0, "rental_uris": {"ios": "https://dc.lft.to/lastmile_qr_scan", "android": "https://dc.lft.to/lastmile_qr_scan"}, "is_reserved": 0}, {"lon": -77.056138, "bike_id": "03588e2b190fc9cd557cc64f4fad5fb0", "lat": 38.9316495, "fusion_lon": 0.0, "fusion_lat": 0.0, "type": "electric_scooter", "name": "03588e2b190fc9cd557cc64f4fad5fb0", "is_disabled": 0, "rental_uris": {"ios": "https://dc.lft.to/lastmile_qr_scan", "android": "https://dc.lft.to/lastmile_qr_scan"}, "is_reserved": 0}, {"lon": -76.98371016666667, "bike_id": "caa1584e8f14ea927c7acfa86494bd37", "lat": 38.889654666666665, "fusion_lon": 0.0, "fusion_lat": 0.0, "type": "electric_scooter", "name": "caa1584e8f14ea927c7acfa86494bd37", "is_disabled": 0, "rental_uris": {"ios": "https://dc.lft.to/lastmile_qr_scan", "android": "https://dc.lft.to/lastmile_qr_scan"}, "is_reserved": 0}, {"lon": -77.03170083333333, "bike_id": "0d2d85f1f121c33fbf6c4b4460671354", "lat": 38.90365366666666, "fusion_lon": 0.0, "fusion_lat": 0.0, "type": "electric_scooter", "name": "0d2d85f1f121c33fbf6c4b4460671354", "is_disabled": 0, "rental_uris": {"ios": "https://dc.lft.to/lastmile_qr_scan", "android": "https://dc.lft.to/lastmile_qr_scan"}, "is_reserved": 0}, {"lon": -77.01444616666667, "bike_id": "5a83c27ff5b9b02b58d382827d2a32e2", "lat": 38.9207405, "fusion_lon": 0.0, "fusion_lat": 0.0, "type": "electric_scooter", "name": "5a83c27ff5b9b02b58d382827d2a32e2", "is_disabled": 0, "rental_uris": {"ios": "https://dc.lft.to/lastmile_qr_scan", "android": "https://dc.lft.to/lastmile_qr_scan"}, "is_reserved": 0}, {"lon": -77.042347, "bike_id": "13f4f355799f5f84519b758015e53036", "lat": 38.91641716666667, "fusion_lon": 0.0, "fusion_lat": 0.0, "type": "electric_scooter", "name": "13f4f355799f5f84519b758015e53036", "is_disabled": 0, "rental_uris": {"ios": "https://dc.lft.to/lastmile_qr_scan", "android": "https://dc.lft.to/lastmile_qr_scan"}, "is_reserved": 0}, {"lon": -76.98837716666667, "bike_id": "d221b6cd99e1e999a9fac2d16884ab17", "lat": 38.90081683333333, "fusion_lon": 0.0, "fusion_lat": 0.0, "type": "electric_scooter", "name": "d221b6cd99e1e999a9fac2d16884ab17", "is_disabled": 0, "rental_uris": {"ios": "https://dc.lft.to/lastmile_qr_scan", "android": "https://dc.lft.to/lastmile_qr_scan"}, "is_reserved": 0}, {"lon": -77.03344766666666, "bike_id": "ee0c3c3848c62d9e62c753bfedc4a40d", "lat": 38.9191825, "fusion_lon": 0.0, "fusion_lat": 0.0, "type": "electric_scooter", "name": "ee0c3c3848c62d9e62c753bfedc4a40d", "is_disabled": 0, "rental_uris": {"ios": "https://dc.lft.to/lastmile_qr_scan", "android": "https://dc.lft.to/lastmile_qr_scan"}, "is_reserved": 0}, {"lon": -77.02104566666667, "bike_id": "f8942995cdcae7820aaba87c93554a4e", "lat": 38.92225783333333, "fusion_lon": 0.0, "fusion_lat": 0.0, "type": "electric_scooter", "name": "f8942995cdcae7820aaba87c93554a4e", "is_disabled": 0, "rental_uris": {"ios": "https://dc.lft.to/lastmile_qr_scan", "android": "https://dc.lft.to/lastmile_qr_scan"}, "is_reserved": 0}, {"lon": -77.03382216666667, "bike_id": "b2a13dcd94b87d4ea913f56c6527268e", "lat": 38.921535, "fusion_lon": 0.0, "fusion_lat": 0.0, "type": "electric_scooter", "name": "b2a13dcd94b87d4ea913f56c6527268e", "is_disabled": 0, "rental_uris": {"ios": "https://dc.lft.to/lastmile_qr_scan", "android": "https://dc.lft.to/lastmile_qr_scan"}, "is_reserved": 0}, {"lon": -77.025925, "bike_id": "a3099d86db43fcee67260f6a76aab831", "lat": 38.89264133333333, "fusion_lon": 0.0, "fusion_lat": 0.0, "type": "electric_scooter", "name": "a3099d86db43fcee67260f6a76aab831", "is_disabled": 0, "rental_uris": {"ios": "https://dc.lft.to/lastmile_qr_scan", "android": "https://dc.lft.to/lastmile_qr_scan"}, "is_reserved": 0}, {"lon": -77.02361516666667, "bike_id": "db35d309e62a508102f37ae01536475a", "lat": 38.88477433333333, "fusion_lon": 0.0, "fusion_lat": 0.0, "type": "electric_scooter", "name": "db35d309e62a508102f37ae01536475a", "is_disabled": 0, "rental_uris": {"ios": "https://dc.lft.to/lastmile_qr_scan", "android": "https://dc.lft.to/lastmile_qr_scan"}, "is_reserved": 0}, {"lon": -77.08026533333333, "bike_id": "a14d154a325381934f66a07f7e78c3ef", "lat": 38.95057333333333, "fusion_lon": 0.0, "fusion_lat": 0.0, "type": "electric_scooter", "name": "a14d154a325381934f66a07f7e78c3ef", "is_disabled": 0, "rental_uris": {"ios": "https://dc.lft.to/lastmile_qr_scan", "android": "https://dc.lft.to/lastmile_qr_scan"}, "is_reserved": 0}, {"lon": -76.994774, "bike_id": "9bdc5f06db4e10105bfac10b61824d92", "lat": 38.8621745, "fusion_lon": 0.0, "fusion_lat": 0.0, "type": "electric_scooter", "name": "9bdc5f06db4e10105bfac10b61824d92", "is_disabled": 0, "rental_uris": {"ios": "https://dc.lft.to/lastmile_qr_scan", "android": "https://dc.lft.to/lastmile_qr_scan"}, "is_reserved": 0}, {"lon": -77.05179633333333, "bike_id": "79ada2fe779fad6cd0c392e2f097f131", "lat": 38.924294333333336, "fusion_lon": 0.0, "fusion_lat": 0.0, "type": "electric_scooter", "name": "79ada2fe779fad6cd0c392e2f097f131", "is_disabled": 0, "rental_uris": {"ios": "https://dc.lft.to/lastmile_qr_scan", "android": "https://dc.lft.to/lastmile_qr_scan"}, "is_reserved": 0}, {"lon": -77.06113066666667, "bike_id": "a667140004182e590da14b3636d565bd", "lat": 38.94368266666667, "fusion_lon": 0.0, "fusion_lat": 0.0, "type": "electric_scooter", "name": "a667140004182e590da14b3636d565bd", "is_disabled": 0, "rental_uris": {"ios": "https://dc.lft.to/lastmile_qr_scan", "android": "https://dc.lft.to/lastmile_qr_scan"}, "is_reserved": 0}, {"lon": -77.03078916666666, "bike_id": "b463d91d2efb02fd650e2f58b9883fb3", "lat": 38.8803695, "fusion_lon": 0.0, "fusion_lat": 0.0, "type": "electric_scooter", "name": "b463d91d2efb02fd650e2f58b9883fb3", "is_disabled": 0, "rental_uris": {"ios": "https://dc.lft.to/lastmile_qr_scan", "android": "https://dc.lft.to/lastmile_qr_scan"}, "is_reserved": 0}, {"lon": -77.0328275, "bike_id": "0dcbb674ce7bb560a659a85291914d01", "lat": 38.920056333333335, "fusion_lon": 0.0, "fusion_lat": 0.0, "type": "electric_scooter", "name": "0dcbb674ce7bb560a659a85291914d01", "is_disabled": 0, "rental_uris": {"ios": "https://dc.lft.to/lastmile_qr_scan", "android": "https://dc.lft.to/lastmile_qr_scan"}, "is_reserved": 0}, {"lon": -77.04482316666666, "bike_id": "7afad3f80ad113c786fc124688a86ad1", "lat": 38.908622333333334, "fusion_lon": 0.0, "fusion_lat": 0.0, "type": "electric_scooter", "name": "7afad3f80ad113c786fc124688a86ad1", "is_disabled": 0, "rental_uris": {"ios": "https://dc.lft.to/lastmile_qr_scan", "android": "https://dc.lft.to/lastmile_qr_scan"}, "is_reserved": 0}, {"lon": -77.02738916666667, "bike_id": "a49bbfd7ee95531b5e19fc34697f4133", "lat": 38.94385583333333, "fusion_lon": 0.0, "fusion_lat": 0.0, "type": "electric_scooter", "name": "a49bbfd7ee95531b5e19fc34697f4133", "is_disabled": 0, "rental_uris": {"ios": "https://dc.lft.to/lastmile_qr_scan", "android": "https://dc.lft.to/lastmile_qr_scan"}, "is_reserved": 0}, {"lon": -77.041383, "bike_id": "5e5466ce62102d0568d9bdc772f3a3e0", "lat": 38.89943533333334, "fusion_lon": 0.0, "fusion_lat": 0.0, "type": "electric_scooter", "name": "5e5466ce62102d0568d9bdc772f3a3e0", "is_disabled": 0, "rental_uris": {"ios": "https://dc.lft.to/lastmile_qr_scan", "android": "https://dc.lft.to/lastmile_qr_scan"}, "is_reserved": 0}, {"lon": -77.01790233333334, "bike_id": "14e98ce40bcf915c682fb9296b0bc19f", "lat": 38.920449, "fusion_lon": 0.0, "fusion_lat": 0.0, "type": "electric_scooter", "name": "14e98ce40bcf915c682fb9296b0bc19f", "is_disabled": 0, "rental_uris": {"ios": "https://dc.lft.to/lastmile_qr_scan", "android": "https://dc.lft.to/lastmile_qr_scan"}, "is_reserved": 0}, {"lon": -77.00052, "bike_id": "d7925df569aaf0183b7c70afe068a103", "lat": 38.908150166666665, "fusion_lon": 0.0, "fusion_lat": 0.0, "type": "electric_scooter", "name": "d7925df569aaf0183b7c70afe068a103", "is_disabled": 0, "rental_uris": {"ios": "https://dc.lft.to/lastmile_qr_scan", "android": "https://dc.lft.to/lastmile_qr_scan"}, "is_reserved": 0}, {"lon": -77.02695683333333, "bike_id": "3ee706ab77a9ec384369bbeb0c547bb3", "lat": 38.91230183333333, "fusion_lon": 0.0, "fusion_lat": 0.0, "type": "electric_scooter", "name": "3ee706ab77a9ec384369bbeb0c547bb3", "is_disabled": 0, "rental_uris": {"ios": "https://dc.lft.to/lastmile_qr_scan", "android": "https://dc.lft.to/lastmile_qr_scan"}, "is_reserved": 0}, {"lon": -77.03841216666666, "bike_id": "e0688c3eb756f098dbd06c7bfeaa3ee8", "lat": 38.908768333333335, "fusion_lon": 0.0, "fusion_lat": 0.0, "type": "electric_scooter", "name": "e0688c3eb756f098dbd06c7bfeaa3ee8", "is_disabled": 0, "rental_uris": {"ios": "https://dc.lft.to/lastmile_qr_scan", "android": "https://dc.lft.to/lastmile_qr_scan"}, "is_reserved": 0}, {"lon": -77.03272916666667, "bike_id": "fac582dd0bc653c230e1e926f91330f3", "lat": 38.9015025, "fusion_lon": 0.0, "fusion_lat": 0.0, "type": "electric_scooter", "name": "fac582dd0bc653c230e1e926f91330f3", "is_disabled": 0, "rental_uris": {"ios": "https://dc.lft.to/lastmile_qr_scan", "android": "https://dc.lft.to/lastmile_qr_scan"}, "is_reserved": 0}, {"lon": -77.03112716666666, "bike_id": "4172d56cc5e176437f0cc41131cf1050", "lat": 38.88762833333333, "fusion_lon": 0.0, "fusion_lat": 0.0, "type": "electric_scooter", "name": "4172d56cc5e176437f0cc41131cf1050", "is_disabled": 0, "rental_uris": {"ios": "https://dc.lft.to/lastmile_qr_scan", "android": "https://dc.lft.to/lastmile_qr_scan"}, "is_reserved": 0}, {"lon": -77.01577333333333, "bike_id": "2a15530059171cdb74d3b08f709234ab", "lat": 38.876348666666665, "fusion_lon": 0.0, "fusion_lat": 0.0, "type": "electric_scooter", "name": "2a15530059171cdb74d3b08f709234ab", "is_disabled": 0, "rental_uris": {"ios": "https://dc.lft.to/lastmile_qr_scan", "android": "https://dc.lft.to/lastmile_qr_scan"}, "is_reserved": 0}, {"lon": -76.97533733333333, "bike_id": "134155eb1dde48ab42c288e4fdf86803", "lat": 38.9223465, "fusion_lon": 0.0, "fusion_lat": 0.0, "type": "electric_scooter", "name": "134155eb1dde48ab42c288e4fdf86803", "is_disabled": 0, "rental_uris": {"ios": "https://dc.lft.to/lastmile_qr_scan", "android": "https://dc.lft.to/lastmile_qr_scan"}, "is_reserved": 0}, {"lon": -77.01208233333334, "bike_id": "94878434554e986b4bf1e2f08c93bedc", "lat": 38.88552583333333, "fusion_lon": 0.0, "fusion_lat": 0.0, "type": "electric_scooter", "name": "94878434554e986b4bf1e2f08c93bedc", "is_disabled": 0, "rental_uris": {"ios": "https://dc.lft.to/lastmile_qr_scan", "android": "https://dc.lft.to/lastmile_qr_scan"}, "is_reserved": 0}, {"lon": -77.03104033333334, "bike_id": "931af85668f80093c2211f400dd47654", "lat": 38.91923516666667, "fusion_lon": 0.0, "fusion_lat": 0.0, "type": "electric_scooter", "name": "931af85668f80093c2211f400dd47654", "is_disabled": 0, "rental_uris": {"ios": "https://dc.lft.to/lastmile_qr_scan", "android": "https://dc.lft.to/lastmile_qr_scan"}, "is_reserved": 0}, {"lon": -76.98943433333334, "bike_id": "737c14076b7cbd77c7820c8961e1aa27", "lat": 38.865580333333334, "fusion_lon": 0.0, "fusion_lat": 0.0, "type": "electric_scooter", "name": "737c14076b7cbd77c7820c8961e1aa27", "is_disabled": 0, "rental_uris": {"ios": "https://dc.lft.to/lastmile_qr_scan", "android": "https://dc.lft.to/lastmile_qr_scan"}, "is_reserved": 0}, {"lon": -77.0113975, "bike_id": "b15aca6b550b0b2a2c662e313e89bbed", "lat": 38.90014633333333, "fusion_lon": 0.0, "fusion_lat": 0.0, "type": "electric_scooter", "name": "b15aca6b550b0b2a2c662e313e89bbed", "is_disabled": 0, "rental_uris": {"ios": "https://dc.lft.to/lastmile_qr_scan", "android": "https://dc.lft.to/lastmile_qr_scan"}, "is_reserved": 0}, {"lon": -77.04998516666667, "bike_id": "edd133aba570727836e504a0a475c8b8", "lat": 38.901271, "fusion_lon": 0.0, "fusion_lat": 0.0, "type": "electric_scooter", "name": "edd133aba570727836e504a0a475c8b8", "is_disabled": 0, "rental_uris": {"ios": "https://dc.lft.to/lastmile_qr_scan", "android": "https://dc.lft.to/lastmile_qr_scan"}, "is_reserved": 0}, {"lon": -77.049749, "bike_id": "eff3bdc78c01a4c04d414d74af66752a", "lat": 39.0355335, "fusion_lon": 0.0, "fusion_lat": 0.0, "type": "electric_bike", "name": "eff3bdc78c01a4c04d414d74af66752a", "is_disabled": 0, "rental_uris": {"ios": "https://dc.lft.to/lastmile_qr_scan", "android": "https://dc.lft.to/lastmile_qr_scan"}, "is_reserved": 0}, {"lon": -77.03133033333333, "bike_id": "32650f00d05b6e34c5f1ef5e0468d8b6", "lat": 38.92959616666667, "fusion_lon": 0.0, "fusion_lat": 0.0, "type": "electric_scooter", "name": "32650f00d05b6e34c5f1ef5e0468d8b6", "is_disabled": 0, "rental_uris": {"ios": "https://dc.lft.to/lastmile_qr_scan", "android": "https://dc.lft.to/lastmile_qr_scan"}, "is_reserved": 0}, {"lon": -77.04355483333333, "bike_id": "f11c33b8903cdac9862f82d61e48f8e1", "lat": 38.933376833333334, "fusion_lon": 0.0, "fusion_lat": 0.0, "type": "electric_scooter", "name": "f11c33b8903cdac9862f82d61e48f8e1", "is_disabled": 0, "rental_uris": {"ios": "https://dc.lft.to/lastmile_qr_scan", "android": "https://dc.lft.to/lastmile_qr_scan"}, "is_reserved": 0}, {"lon": -77.03233566666667, "bike_id": "70014305a40ebcd1f2a4d33e101d1bc8", "lat": 38.92987316666667, "fusion_lon": 0.0, "fusion_lat": 0.0, "type": "electric_scooter", "name": "70014305a40ebcd1f2a4d33e101d1bc8", "is_disabled": 0, "rental_uris": {"ios": "https://dc.lft.to/lastmile_qr_scan", "android": "https://dc.lft.to/lastmile_qr_scan"}, "is_reserved": 0}, {"lon": -77.019614, "bike_id": "45190d5727cd230d136eada9489b7c0a", "lat": 38.92331633333333, "fusion_lon": 0.0, "fusion_lat": 0.0, "type": "electric_scooter", "name": "45190d5727cd230d136eada9489b7c0a", "is_disabled": 0, "rental_uris": {"ios": "https://dc.lft.to/lastmile_qr_scan", "android": "https://dc.lft.to/lastmile_qr_scan"}, "is_reserved": 0}, {"lon": -77.03206, "bike_id": "51cc1532f39d57da88d6a1016e97ad72", "lat": 38.91306616666667, "fusion_lon": 0.0, "fusion_lat": 0.0, "type": "electric_scooter", "name": "51cc1532f39d57da88d6a1016e97ad72", "is_disabled": 0, "rental_uris": {"ios": "https://dc.lft.to/lastmile_qr_scan", "android": "https://dc.lft.to/lastmile_qr_scan"}, "is_reserved": 0}, {"lon": -77.03333466666666, "bike_id": "7affd40c7ff19aeae65c91b43482d91c", "lat": 38.903006166666664, "fusion_lon": 0.0, "fusion_lat": 0.0, "type": "electric_scooter", "name": "7affd40c7ff19aeae65c91b43482d91c", "is_disabled": 0, "rental_uris": {"ios": "https://dc.lft.to/lastmile_qr_scan", "android": "https://dc.lft.to/lastmile_qr_scan"}, "is_reserved": 0}, {"lon": -76.98799333333334, "bike_id": "c6741585187ac46787acdb9a0795860b", "lat": 38.8923895, "fusion_lon": 0.0, "fusion_lat": 0.0, "type": "electric_scooter", "name": "c6741585187ac46787acdb9a0795860b", "is_disabled": 0, "rental_uris": {"ios": "https://dc.lft.to/lastmile_qr_scan", "android": "https://dc.lft.to/lastmile_qr_scan"}, "is_reserved": 0}, {"lon": -77.1052435, "bike_id": "087b3c0c81689b36b01c279c27f70b9a", "lat": 38.8737675, "fusion_lon": 0.0, "fusion_lat": 0.0, "type": "electric_bike", "name": "087b3c0c81689b36b01c279c27f70b9a", "is_disabled": 0, "rental_uris": {"ios": "https://dc.lft.to/lastmile_qr_scan", "android": "https://dc.lft.to/lastmile_qr_scan"}, "is_reserved": 0}, {"lon": -77.04110466666667, "bike_id": "73d9d0077944493776ae95b41e4c4aeb", "lat": 38.91556716666667, "fusion_lon": 0.0, "fusion_lat": 0.0, "type": "electric_scooter", "name": "73d9d0077944493776ae95b41e4c4aeb", "is_disabled": 0, "rental_uris": {"ios": "https://dc.lft.to/lastmile_qr_scan", "android": "https://dc.lft.to/lastmile_qr_scan"}, "is_reserved": 0}, {"lon": -77.03177266666667, "bike_id": "392779f6f4feca298ac525a172e38b68", "lat": 38.89638716666666, "fusion_lon": 0.0, "fusion_lat": 0.0, "type": "electric_scooter", "name": "392779f6f4feca298ac525a172e38b68", "is_disabled": 0, "rental_uris": {"ios": "https://dc.lft.to/lastmile_qr_scan", "android": "https://dc.lft.to/lastmile_qr_scan"}, "is_reserved": 0}, {"lon": -77.03559583333333, "bike_id": "9ad76051db70c005f8f346912a1c812e", "lat": 38.90831, "fusion_lon": 0.0, "fusion_lat": 0.0, "type": "electric_scooter", "name": "9ad76051db70c005f8f346912a1c812e", "is_disabled": 0, "rental_uris": {"ios": "https://dc.lft.to/lastmile_qr_scan", "android": "https://dc.lft.to/lastmile_qr_scan"}, "is_reserved": 0}, {"lon": -77.04868166666667, "bike_id": "f64af22ff3792f56937f52377a3e3ea0", "lat": 38.90722266666667, "fusion_lon": 0.0, "fusion_lat": 0.0, "type": "electric_scooter", "name": "f64af22ff3792f56937f52377a3e3ea0", "is_disabled": 0, "rental_uris": {"ios": "https://dc.lft.to/lastmile_qr_scan", "android": "https://dc.lft.to/lastmile_qr_scan"}, "is_reserved": 0}, {"lon": -77.02511666666666, "bike_id": "9a2fe9b4ba83d26813d0669a41cc50d3", "lat": 38.920541666666665, "fusion_lon": 0.0, "fusion_lat": 0.0, "type": "electric_scooter", "name": "9a2fe9b4ba83d26813d0669a41cc50d3", "is_disabled": 0, "rental_uris": {"ios": "https://dc.lft.to/lastmile_qr_scan", "android": "https://dc.lft.to/lastmile_qr_scan"}, "is_reserved": 0}, {"lon": -77.017383, "bike_id": "9a131e70c565eea761e4290e6d1bda88", "lat": 38.887440833333336, "fusion_lon": 0.0, "fusion_lat": 0.0, "type": "electric_scooter", "name": "9a131e70c565eea761e4290e6d1bda88", "is_disabled": 0, "rental_uris": {"ios": "https://dc.lft.to/lastmile_qr_scan", "android": "https://dc.lft.to/lastmile_qr_scan"}, "is_reserved": 0}, {"lon": -76.98143, "bike_id": "f20f713a4cc7d7e8fce0f9e15848c3b0", "lat": 38.905660166666664, "fusion_lon": 0.0, "fusion_lat": 0.0, "type": "electric_scooter", "name": "f20f713a4cc7d7e8fce0f9e15848c3b0", "is_disabled": 0, "rental_uris": {"ios": "https://dc.lft.to/lastmile_qr_scan", "android": "https://dc.lft.to/lastmile_qr_scan"}, "is_reserved": 0}, {"lon": -77.0344885, "bike_id": "176613cf835c8e0cba3bf06b9d17cb93", "lat": 38.90815416666667, "fusion_lon": 0.0, "fusion_lat": 0.0, "type": "electric_scooter", "name": "176613cf835c8e0cba3bf06b9d17cb93", "is_disabled": 0, "rental_uris": {"ios": "https://dc.lft.to/lastmile_qr_scan", "android": "https://dc.lft.to/lastmile_qr_scan"}, "is_reserved": 0}, {"lon": -77.04871516666667, "bike_id": "d09c9033d45c3f011186cdb67a9bd2d9", "lat": 38.91338283333333, "fusion_lon": 0.0, "fusion_lat": 0.0, "type": "electric_scooter", "name": "d09c9033d45c3f011186cdb67a9bd2d9", "is_disabled": 0, "rental_uris": {"ios": "https://dc.lft.to/lastmile_qr_scan", "android": "https://dc.lft.to/lastmile_qr_scan"}, "is_reserved": 0}, {"lon": -77.04258983333334, "bike_id": "52ceafafc645480c13b3d9d3d6c20dc2", "lat": 38.900316333333336, "fusion_lon": 0.0, "fusion_lat": 0.0, "type": "electric_scooter", "name": "52ceafafc645480c13b3d9d3d6c20dc2", "is_disabled": 0, "rental_uris": {"ios": "https://dc.lft.to/lastmile_qr_scan", "android": "https://dc.lft.to/lastmile_qr_scan"}, "is_reserved": 0}, {"lon": -77.0802945, "bike_id": "39bca2eeaa8487b2d5b0e5492e6a5950", "lat": 38.95060483333334, "fusion_lon": 0.0, "fusion_lat": 0.0, "type": "electric_scooter", "name": "39bca2eeaa8487b2d5b0e5492e6a5950", "is_disabled": 0, "rental_uris": {"ios": "https://dc.lft.to/lastmile_qr_scan", "android": "https://dc.lft.to/lastmile_qr_scan"}, "is_reserved": 0}, {"lon": -77.03301116666667, "bike_id": "870bad3575c84dde74c5efe5a9b5d29f", "lat": 38.899121666666666, "fusion_lon": 0.0, "fusion_lat": 0.0, "type": "electric_scooter", "name": "870bad3575c84dde74c5efe5a9b5d29f", "is_disabled": 0, "rental_uris": {"ios": "https://dc.lft.to/lastmile_qr_scan", "android": "https://dc.lft.to/lastmile_qr_scan"}, "is_reserved": 0}, {"lon": -77.03983533333333, "bike_id": "0f972504d1f57a0158bde3fc4195ac1c", "lat": 38.8987465, "fusion_lon": 0.0, "fusion_lat": 0.0, "type": "electric_scooter", "name": "0f972504d1f57a0158bde3fc4195ac1c", "is_disabled": 0, "rental_uris": {"ios": "https://dc.lft.to/lastmile_qr_scan", "android": "https://dc.lft.to/lastmile_qr_scan"}, "is_reserved": 0}, {"lon": -77.0107345, "bike_id": "d6f346dc0d70aad7f40a371cb76d4a02", "lat": 38.896167, "fusion_lon": 0.0, "fusion_lat": 0.0, "type": "electric_scooter", "name": "d6f346dc0d70aad7f40a371cb76d4a02", "is_disabled": 0, "rental_uris": {"ios": "https://dc.lft.to/lastmile_qr_scan", "android": "https://dc.lft.to/lastmile_qr_scan"}, "is_reserved": 0}, {"lon": -77.094691, "bike_id": "82018181b29b2020836f9f874ee03438", "lat": 38.86940933333333, "fusion_lon": 0.0, "fusion_lat": 0.0, "type": "electric_bike", "name": "82018181b29b2020836f9f874ee03438", "is_disabled": 0, "rental_uris": {"ios": "https://dc.lft.to/lastmile_qr_scan", "android": "https://dc.lft.to/lastmile_qr_scan"}, "is_reserved": 0}, {"lon": -77.03825066666667, "bike_id": "4c7be144e083b14611854c21967c2e03", "lat": 38.9309325, "fusion_lon": 0.0, "fusion_lat": 0.0, "type": "electric_scooter", "name": "4c7be144e083b14611854c21967c2e03", "is_disabled": 0, "rental_uris": {"ios": "https://dc.lft.to/lastmile_qr_scan", "android": "https://dc.lft.to/lastmile_qr_scan"}, "is_reserved": 0}, {"lon": -77.009186, "bike_id": "2ba9a20e27da8894e887705b38df37d1", "lat": 38.827888333333334, "fusion_lon": 0.0, "fusion_lat": 0.0, "type": "electric_bike", "name": "2ba9a20e27da8894e887705b38df37d1", "is_disabled": 0, "rental_uris": {"ios": "https://dc.lft.to/lastmile_qr_scan", "android": "https://dc.lft.to/lastmile_qr_scan"}, "is_reserved": 0}, {"lon": -77.03516133333333, "bike_id": "287b88ba23cf2ed51713bc85188be74a", "lat": 38.92141433333333, "fusion_lon": 0.0, "fusion_lat": 0.0, "type": "electric_scooter", "name": "287b88ba23cf2ed51713bc85188be74a", "is_disabled": 0, "rental_uris": {"ios": "https://dc.lft.to/lastmile_qr_scan", "android": "https://dc.lft.to/lastmile_qr_scan"}, "is_reserved": 0}, {"lon": -77.03893366666667, "bike_id": "60be98b08aa01414b0a2db7e53d52745", "lat": 38.90652466666667, "fusion_lon": 0.0, "fusion_lat": 0.0, "type": "electric_scooter", "name": "60be98b08aa01414b0a2db7e53d52745", "is_disabled": 0, "rental_uris": {"ios": "https://dc.lft.to/lastmile_qr_scan", "android": "https://dc.lft.to/lastmile_qr_scan"}, "is_reserved": 0}, {"lon": -77.02115416666666, "bike_id": "3bb8c53744ce6633293e0340375eb0d4", "lat": 38.93699516666667, "fusion_lon": 0.0, "fusion_lat": 0.0, "type": "electric_scooter", "name": "3bb8c53744ce6633293e0340375eb0d4", "is_disabled": 0, "rental_uris": {"ios": "https://dc.lft.to/lastmile_qr_scan", "android": "https://dc.lft.to/lastmile_qr_scan"}, "is_reserved": 0}, {"lon": -77.04342916666667, "bike_id": "7e0198ae5d6df6de156bfdf3abdad7b4", "lat": 38.892281833333335, "fusion_lon": 0.0, "fusion_lat": 0.0, "type": "electric_scooter", "name": "7e0198ae5d6df6de156bfdf3abdad7b4", "is_disabled": 0, "rental_uris": {"ios": "https://dc.lft.to/lastmile_qr_scan", "android": "https://dc.lft.to/lastmile_qr_scan"}, "is_reserved": 0}, {"lon": -77.0469355, "bike_id": "2f27eedbb97c2e2f536f438425ed11bf", "lat": 38.892231, "fusion_lon": 0.0, "fusion_lat": 0.0, "type": "electric_scooter", "name": "2f27eedbb97c2e2f536f438425ed11bf", "is_disabled": 0, "rental_uris": {"ios": "https://dc.lft.to/lastmile_qr_scan", "android": "https://dc.lft.to/lastmile_qr_scan"}, "is_reserved": 0}, {"lon": -77.04688916666667, "bike_id": "a5e6d26767bf59fb676e1a9b8b540131", "lat": 38.892237333333334, "fusion_lon": 0.0, "fusion_lat": 0.0, "type": "electric_scooter", "name": "a5e6d26767bf59fb676e1a9b8b540131", "is_disabled": 0, "rental_uris": {"ios": "https://dc.lft.to/lastmile_qr_scan", "android": "https://dc.lft.to/lastmile_qr_scan"}, "is_reserved": 0}, {"lon": -77.02411083333334, "bike_id": "04c656a3cf726a784adb8e3ddadc3db8", "lat": 38.904278166666664, "fusion_lon": 0.0, "fusion_lat": 0.0, "type": "electric_scooter", "name": "04c656a3cf726a784adb8e3ddadc3db8", "is_disabled": 0, "rental_uris": {"ios": "https://dc.lft.to/lastmile_qr_scan", "android": "https://dc.lft.to/lastmile_qr_scan"}, "is_reserved": 0}, {"lon": -77.03025416666667, "bike_id": "b6ade4f1e3eda1ef61329bd45981b8f2", "lat": 38.89976583333333, "fusion_lon": 0.0, "fusion_lat": 0.0, "type": "electric_scooter", "name": "b6ade4f1e3eda1ef61329bd45981b8f2", "is_disabled": 0, "rental_uris": {"ios": "https://dc.lft.to/lastmile_qr_scan", "android": "https://dc.lft.to/lastmile_qr_scan"}, "is_reserved": 0}, {"lon": -77.02582616666666, "bike_id": "10e3e5acfdf7d3211b28a547c2687435", "lat": 38.887406166666665, "fusion_lon": 0.0, "fusion_lat": 0.0, "type": "electric_scooter", "name": "10e3e5acfdf7d3211b28a547c2687435", "is_disabled": 0, "rental_uris": {"ios": "https://dc.lft.to/lastmile_qr_scan", "android": "https://dc.lft.to/lastmile_qr_scan"}, "is_reserved": 0}, {"lon": -76.9635925, "bike_id": "3a58494567f7fa71d9616b5c8b03a05a", "lat": 38.93504516666667, "fusion_lon": 0.0, "fusion_lat": 0.0, "type": "electric_scooter", "name": "3a58494567f7fa71d9616b5c8b03a05a", "is_disabled": 0, "rental_uris": {"ios": "https://dc.lft.to/lastmile_qr_scan", "android": "https://dc.lft.to/lastmile_qr_scan"}, "is_reserved": 0}, {"lon": -76.95896033333334, "bike_id": "97fb034c5f837119b50a9015aadfcd2c", "lat": 38.89007516666667, "fusion_lon": 0.0, "fusion_lat": 0.0, "type": "electric_scooter", "name": "97fb034c5f837119b50a9015aadfcd2c", "is_disabled": 0, "rental_uris": {"ios": "https://dc.lft.to/lastmile_qr_scan", "android": "https://dc.lft.to/lastmile_qr_scan"}, "is_reserved": 0}, {"lon": -77.04171116666667, "bike_id": "d7d747eaa50fd359f666b3b6191cc62a", "lat": 38.90526333333333, "fusion_lon": 0.0, "fusion_lat": 0.0, "type": "electric_scooter", "name": "d7d747eaa50fd359f666b3b6191cc62a", "is_disabled": 0, "rental_uris": {"ios": "https://dc.lft.to/lastmile_qr_scan", "android": "https://dc.lft.to/lastmile_qr_scan"}, "is_reserved": 0}, {"lon": -77.032602, "bike_id": "b32399f7597b6e34f5d2b60c2efccc39", "lat": 38.93203533333333, "fusion_lon": 0.0, "fusion_lat": 0.0, "type": "electric_scooter", "name": "b32399f7597b6e34f5d2b60c2efccc39", "is_disabled": 0, "rental_uris": {"ios": "https://dc.lft.to/lastmile_qr_scan", "android": "https://dc.lft.to/lastmile_qr_scan"}, "is_reserved": 0}, {"lon": -77.04704416666667, "bike_id": "33826aa6402360c6e35cb126da8ec1f3", "lat": 38.921830166666666, "fusion_lon": 0.0, "fusion_lat": 0.0, "type": "electric_scooter", "name": "33826aa6402360c6e35cb126da8ec1f3", "is_disabled": 0, "rental_uris": {"ios": "https://dc.lft.to/lastmile_qr_scan", "android": "https://dc.lft.to/lastmile_qr_scan"}, "is_reserved": 0}, {"lon": -77.0470155, "bike_id": "57c8d4798390f0ef9b328e2d3cfc5f26", "lat": 38.921364, "fusion_lon": 0.0, "fusion_lat": 0.0, "type": "electric_scooter", "name": "57c8d4798390f0ef9b328e2d3cfc5f26", "is_disabled": 0, "rental_uris": {"ios": "https://dc.lft.to/lastmile_qr_scan", "android": "https://dc.lft.to/lastmile_qr_scan"}, "is_reserved": 0}, {"lon": -76.99292216666667, "bike_id": "cac29bb0936828b98f8abd4ca159bb3d", "lat": 38.89891216666667, "fusion_lon": 0.0, "fusion_lat": 0.0, "type": "electric_scooter", "name": "cac29bb0936828b98f8abd4ca159bb3d", "is_disabled": 0, "rental_uris": {"ios": "https://dc.lft.to/lastmile_qr_scan", "android": "https://dc.lft.to/lastmile_qr_scan"}, "is_reserved": 0}, {"lon": -77.026584, "bike_id": "9da5a73aa2a480575892eff109c7f911", "lat": 38.917043, "fusion_lon": 0.0, "fusion_lat": 0.0, "type": "electric_scooter", "name": "9da5a73aa2a480575892eff109c7f911", "is_disabled": 0, "rental_uris": {"ios": "https://dc.lft.to/lastmile_qr_scan", "android": "https://dc.lft.to/lastmile_qr_scan"}, "is_reserved": 0}, {"lon": -77.0451885, "bike_id": "4736a6139de5cf63dfd1013e1771e308", "lat": 38.9233175, "fusion_lon": 0.0, "fusion_lat": 0.0, "type": "electric_scooter", "name": "4736a6139de5cf63dfd1013e1771e308", "is_disabled": 0, "rental_uris": {"ios": "https://dc.lft.to/lastmile_qr_scan", "android": "https://dc.lft.to/lastmile_qr_scan"}, "is_reserved": 0}, {"lon": -77.055482, "bike_id": "fb29eb00694dc2bed9d29bb2883c2d83", "lat": 38.9301035, "fusion_lon": 0.0, "fusion_lat": 0.0, "type": "electric_scooter", "name": "fb29eb00694dc2bed9d29bb2883c2d83", "is_disabled": 0, "rental_uris": {"ios": "https://dc.lft.to/lastmile_qr_scan", "android": "https://dc.lft.to/lastmile_qr_scan"}, "is_reserved": 0}, {"lon": -77.00384083333333, "bike_id": "f5c7994f942b097d5e2817e238375be3", "lat": 38.83600633333333, "fusion_lon": 0.0, "fusion_lat": 0.0, "type": "electric_bike", "name": "f5c7994f942b097d5e2817e238375be3", "is_disabled": 0, "rental_uris": {"ios": "https://dc.lft.to/lastmile_qr_scan", "android": "https://dc.lft.to/lastmile_qr_scan"}, "is_reserved": 0}, {"lon": -77.0215325, "bike_id": "0e030cd1e47848a44fb758ac587e3fa0", "lat": 38.924985, "fusion_lon": 0.0, "fusion_lat": 0.0, "type": "electric_scooter", "name": "0e030cd1e47848a44fb758ac587e3fa0", "is_disabled": 0, "rental_uris": {"ios": "https://dc.lft.to/lastmile_qr_scan", "android": "https://dc.lft.to/lastmile_qr_scan"}, "is_reserved": 0}, {"lon": -77.05044566666666, "bike_id": "021021a5f66433ea269fc530fd1247be", "lat": 38.92364716666667, "fusion_lon": 0.0, "fusion_lat": 0.0, "type": "electric_scooter", "name": "021021a5f66433ea269fc530fd1247be", "is_disabled": 0, "rental_uris": {"ios": "https://dc.lft.to/lastmile_qr_scan", "android": "https://dc.lft.to/lastmile_qr_scan"}, "is_reserved": 0}, {"lon": -77.04224116666667, "bike_id": "2bca17daddf103fa377b5b43a02c8b65", "lat": 38.91353733333333, "fusion_lon": 0.0, "fusion_lat": 0.0, "type": "electric_scooter", "name": "2bca17daddf103fa377b5b43a02c8b65", "is_disabled": 0, "rental_uris": {"ios": "https://dc.lft.to/lastmile_qr_scan", "android": "https://dc.lft.to/lastmile_qr_scan"}, "is_reserved": 0}, {"lon": -77.037526, "bike_id": "f232ea327545ad62795e2dcfca0aafd2", "lat": 38.9291715, "fusion_lon": 0.0, "fusion_lat": 0.0, "type": "electric_scooter", "name": "f232ea327545ad62795e2dcfca0aafd2", "is_disabled": 0, "rental_uris": {"ios": "https://dc.lft.to/lastmile_qr_scan", "android": "https://dc.lft.to/lastmile_qr_scan"}, "is_reserved": 0}, {"lon": -77.0348325, "bike_id": "081c5b685a8b74717812454b9d3f876b", "lat": 38.934327333333336, "fusion_lon": 0.0, "fusion_lat": 0.0, "type": "electric_scooter", "name": "081c5b685a8b74717812454b9d3f876b", "is_disabled": 0, "rental_uris": {"ios": "https://dc.lft.to/lastmile_qr_scan", "android": "https://dc.lft.to/lastmile_qr_scan"}, "is_reserved": 0}, {"lon": -77.05901266666666, "bike_id": "d9b02122228fc01339a8e300899ebf39", "lat": 38.90310133333333, "fusion_lon": 0.0, "fusion_lat": 0.0, "type": "electric_scooter", "name": "d9b02122228fc01339a8e300899ebf39", "is_disabled": 0, "rental_uris": {"ios": "https://dc.lft.to/lastmile_qr_scan", "android": "https://dc.lft.to/lastmile_qr_scan"}, "is_reserved": 0}, {"lon": -76.990701, "bike_id": "4cb4e556d1238aed1d383362c2fcd699", "lat": 38.89803783333333, "fusion_lon": 0.0, "fusion_lat": 0.0, "type": "electric_bike", "name": "4cb4e556d1238aed1d383362c2fcd699", "is_disabled": 0, "rental_uris": {"ios": "https://dc.lft.to/lastmile_qr_scan", "android": "https://dc.lft.to/lastmile_qr_scan"}, "is_reserved": 0}, {"lon": -76.98024033333333, "bike_id": "990411cb0d018df4717935963988c395", "lat": 38.853227333333336, "fusion_lon": 0.0, "fusion_lat": 0.0, "type": "electric_bike", "name": "990411cb0d018df4717935963988c395", "is_disabled": 0, "rental_uris": {"ios": "https://dc.lft.to/lastmile_qr_scan", "android": "https://dc.lft.to/lastmile_qr_scan"}, "is_reserved": 0}, {"lon": -77.00382483333334, "bike_id": "db8aa7f459eede81b31672720b416194", "lat": 38.876348666666665, "fusion_lon": 0.0, "fusion_lat": 0.0, "type": "electric_scooter", "name": "db8aa7f459eede81b31672720b416194", "is_disabled": 0, "rental_uris": {"ios": "https://dc.lft.to/lastmile_qr_scan", "android": "https://dc.lft.to/lastmile_qr_scan"}, "is_reserved": 0}, {"lon": -77.05746933333333, "bike_id": "19be3bd5c74189c83ea7db206d8a96e9", "lat": 38.933490666666664, "fusion_lon": 0.0, "fusion_lat": 0.0, "type": "electric_scooter", "name": "19be3bd5c74189c83ea7db206d8a96e9", "is_disabled": 0, "rental_uris": {"ios": "https://dc.lft.to/lastmile_qr_scan", "android": "https://dc.lft.to/lastmile_qr_scan"}, "is_reserved": 0}, {"lon": -77.019147, "bike_id": "6d7f55330b06c8b7c3d13035ccf21306", "lat": 38.937763833333335, "fusion_lon": 0.0, "fusion_lat": 0.0, "type": "electric_bike", "name": "6d7f55330b06c8b7c3d13035ccf21306", "is_disabled": 0, "rental_uris": {"ios": "https://dc.lft.to/lastmile_qr_scan", "android": "https://dc.lft.to/lastmile_qr_scan"}, "is_reserved": 0}, {"lon": -77.03205566666666, "bike_id": "d66e2441a53d22c247e3eeada3be3b55", "lat": 38.914727166666665, "fusion_lon": 0.0, "fusion_lat": 0.0, "type": "electric_scooter", "name": "d66e2441a53d22c247e3eeada3be3b55", "is_disabled": 0, "rental_uris": {"ios": "https://dc.lft.to/lastmile_qr_scan", "android": "https://dc.lft.to/lastmile_qr_scan"}, "is_reserved": 0}, {"lon": -76.98989383333333, "bike_id": "8f5f69b072bc9d7d5739176cf6ff6510", "lat": 38.9336535, "fusion_lon": 0.0, "fusion_lat": 0.0, "type": "electric_scooter", "name": "8f5f69b072bc9d7d5739176cf6ff6510", "is_disabled": 0, "rental_uris": {"ios": "https://dc.lft.to/lastmile_qr_scan", "android": "https://dc.lft.to/lastmile_qr_scan"}, "is_reserved": 0}, {"lon": -77.03279533333334, "bike_id": "460996c620b885c76b432ec6cf3bdab9", "lat": 38.901552, "fusion_lon": 0.0, "fusion_lat": 0.0, "type": "electric_scooter", "name": "460996c620b885c76b432ec6cf3bdab9", "is_disabled": 0, "rental_uris": {"ios": "https://dc.lft.to/lastmile_qr_scan", "android": "https://dc.lft.to/lastmile_qr_scan"}, "is_reserved": 0}, {"lon": -77.0319675, "bike_id": "39ba44ba78ac21e4ec1fba546c5d6791", "lat": 38.892246, "fusion_lon": 0.0, "fusion_lat": 0.0, "type": "electric_scooter", "name": "39ba44ba78ac21e4ec1fba546c5d6791", "is_disabled": 0, "rental_uris": {"ios": "https://dc.lft.to/lastmile_qr_scan", "android": "https://dc.lft.to/lastmile_qr_scan"}, "is_reserved": 0}, {"lon": -77.02011083333333, "bike_id": "b954aeb990b6493d88d64ac8564ec3e6", "lat": 38.924215, "fusion_lon": 0.0, "fusion_lat": 0.0, "type": "electric_scooter", "name": "b954aeb990b6493d88d64ac8564ec3e6", "is_disabled": 0, "rental_uris": {"ios": "https://dc.lft.to/lastmile_qr_scan", "android": "https://dc.lft.to/lastmile_qr_scan"}, "is_reserved": 0}, {"lon": -77.03664016666667, "bike_id": "7261982e0d63a2dbff6a84e1ead74478", "lat": 38.91721366666667, "fusion_lon": 0.0, "fusion_lat": 0.0, "type": "electric_scooter", "name": "7261982e0d63a2dbff6a84e1ead74478", "is_disabled": 0, "rental_uris": {"ios": "https://dc.lft.to/lastmile_qr_scan", "android": "https://dc.lft.to/lastmile_qr_scan"}, "is_reserved": 0}, {"lon": -77.04643233333333, "bike_id": "afad8edcdffba3d842ee6499f98e901c", "lat": 38.892230833333336, "fusion_lon": 0.0, "fusion_lat": 0.0, "type": "electric_scooter", "name": "afad8edcdffba3d842ee6499f98e901c", "is_disabled": 0, "rental_uris": {"ios": "https://dc.lft.to/lastmile_qr_scan", "android": "https://dc.lft.to/lastmile_qr_scan"}, "is_reserved": 0}, {"lon": -77.035378, "bike_id": "09e81ef05a982a6b0425ed42b7e8c8f0", "lat": 38.9248185, "fusion_lon": 0.0, "fusion_lat": 0.0, "type": "electric_scooter", "name": "09e81ef05a982a6b0425ed42b7e8c8f0", "is_disabled": 0, "rental_uris": {"ios": "https://dc.lft.to/lastmile_qr_scan", "android": "https://dc.lft.to/lastmile_qr_scan"}, "is_reserved": 0}, {"lon": -77.031933, "bike_id": "197e3676a2c744a2ff459fbe4150913d", "lat": 38.917449500000004, "fusion_lon": 0.0, "fusion_lat": 0.0, "type": "electric_scooter", "name": "197e3676a2c744a2ff459fbe4150913d", "is_disabled": 0, "rental_uris": {"ios": "https://dc.lft.to/lastmile_qr_scan", "android": "https://dc.lft.to/lastmile_qr_scan"}, "is_reserved": 0}, {"lon": -77.01106316666667, "bike_id": "f5cf1c7085385c4f775b4b5931289071", "lat": 38.90796666666667, "fusion_lon": 0.0, "fusion_lat": 0.0, "type": "electric_scooter", "name": "f5cf1c7085385c4f775b4b5931289071", "is_disabled": 0, "rental_uris": {"ios": "https://dc.lft.to/lastmile_qr_scan", "android": "https://dc.lft.to/lastmile_qr_scan"}, "is_reserved": 0}, {"lon": -76.94886766666667, "bike_id": "328d5b4a75f5bce193af801e86b56343", "lat": 38.89511866666667, "fusion_lon": 0.0, "fusion_lat": 0.0, "type": "electric_scooter", "name": "328d5b4a75f5bce193af801e86b56343", "is_disabled": 0, "rental_uris": {"ios": "https://dc.lft.to/lastmile_qr_scan", "android": "https://dc.lft.to/lastmile_qr_scan"}, "is_reserved": 0}, {"lon": -77.03211616666667, "bike_id": "cf1daa3eee9c902584a1504aa3e48a3e", "lat": 38.897413666666665, "fusion_lon": 0.0, "fusion_lat": 0.0, "type": "electric_scooter", "name": "cf1daa3eee9c902584a1504aa3e48a3e", "is_disabled": 0, "rental_uris": {"ios": "https://dc.lft.to/lastmile_qr_scan", "android": "https://dc.lft.to/lastmile_qr_scan"}, "is_reserved": 0}, {"lon": -77.00294816666667, "bike_id": "839f1e9f4a3232bdf9e97959b766111a", "lat": 38.891995666666666, "fusion_lon": 0.0, "fusion_lat": 0.0, "type": "electric_scooter", "name": "839f1e9f4a3232bdf9e97959b766111a", "is_disabled": 0, "rental_uris": {"ios": "https://dc.lft.to/lastmile_qr_scan", "android": "https://dc.lft.to/lastmile_qr_scan"}, "is_reserved": 0}, {"lon": -77.03278016666667, "bike_id": "15ddfc1b5fb320c6631dea4549d7d8d9", "lat": 38.93251433333333, "fusion_lon": 0.0, "fusion_lat": 0.0, "type": "electric_scooter", "name": "15ddfc1b5fb320c6631dea4549d7d8d9", "is_disabled": 0, "rental_uris": {"ios": "https://dc.lft.to/lastmile_qr_scan", "android": "https://dc.lft.to/lastmile_qr_scan"}, "is_reserved": 0}, {"lon": -77.03081166666666, "bike_id": "3b94f6eb8626645267c536555b2d4e86", "lat": 38.91702516666667, "fusion_lon": 0.0, "fusion_lat": 0.0, "type": "electric_scooter", "name": "3b94f6eb8626645267c536555b2d4e86", "is_disabled": 0, "rental_uris": {"ios": "https://dc.lft.to/lastmile_qr_scan", "android": "https://dc.lft.to/lastmile_qr_scan"}, "is_reserved": 0}, {"lon": -76.98563833333333, "bike_id": "540186aca66049485ca77203ad218bfd", "lat": 38.9091625, "fusion_lon": 0.0, "fusion_lat": 0.0, "type": "electric_scooter", "name": "540186aca66049485ca77203ad218bfd", "is_disabled": 0, "rental_uris": {"ios": "https://dc.lft.to/lastmile_qr_scan", "android": "https://dc.lft.to/lastmile_qr_scan"}, "is_reserved": 0}, {"lon": -76.99602783333333, "bike_id": "4740dbe723d5e4245cffaf63f6efb5d1", "lat": 38.884300833333334, "fusion_lon": 0.0, "fusion_lat": 0.0, "type": "electric_scooter", "name": "4740dbe723d5e4245cffaf63f6efb5d1", "is_disabled": 0, "rental_uris": {"ios": "https://dc.lft.to/lastmile_qr_scan", "android": "https://dc.lft.to/lastmile_qr_scan"}, "is_reserved": 0}, {"lon": -77.02806533333333, "bike_id": "09a7c4231edcf1d2a7a28730d89cbc9c", "lat": 38.9014825, "fusion_lon": 0.0, "fusion_lat": 0.0, "type": "electric_scooter", "name": "09a7c4231edcf1d2a7a28730d89cbc9c", "is_disabled": 0, "rental_uris": {"ios": "https://dc.lft.to/lastmile_qr_scan", "android": "https://dc.lft.to/lastmile_qr_scan"}, "is_reserved": 0}, {"lon": -77.0122555, "bike_id": "ba555c89999b2fbf1620d817fb879845", "lat": 38.90179666666667, "fusion_lon": 0.0, "fusion_lat": 0.0, "type": "electric_scooter", "name": "ba555c89999b2fbf1620d817fb879845", "is_disabled": 0, "rental_uris": {"ios": "https://dc.lft.to/lastmile_qr_scan", "android": "https://dc.lft.to/lastmile_qr_scan"}, "is_reserved": 0}, {"lon": -77.03347833333333, "bike_id": "39c5ab506c4bf4e1fb7db3e7c6ecfc18", "lat": 38.89905816666667, "fusion_lon": 0.0, "fusion_lat": 0.0, "type": "electric_scooter", "name": "39c5ab506c4bf4e1fb7db3e7c6ecfc18", "is_disabled": 0, "rental_uris": {"ios": "https://dc.lft.to/lastmile_qr_scan", "android": "https://dc.lft.to/lastmile_qr_scan"}, "is_reserved": 0}, {"lon": -77.02963983333333, "bike_id": "af3da9e6d24ca02a5e57073f31cd9d38", "lat": 38.9168775, "fusion_lon": 0.0, "fusion_lat": 0.0, "type": "electric_scooter", "name": "af3da9e6d24ca02a5e57073f31cd9d38", "is_disabled": 0, "rental_uris": {"ios": "https://dc.lft.to/lastmile_qr_scan", "android": "https://dc.lft.to/lastmile_qr_scan"}, "is_reserved": 0}, {"lon": -76.973369, "bike_id": "28c8d84d60e1dcdd40470226e4e529bd", "lat": 38.8652225, "fusion_lon": 0.0, "fusion_lat": 0.0, "type": "electric_bike", "name": "28c8d84d60e1dcdd40470226e4e529bd", "is_disabled": 0, "rental_uris": {"ios": "https://dc.lft.to/lastmile_qr_scan", "android": "https://dc.lft.to/lastmile_qr_scan"}, "is_reserved": 0}, {"lon": -76.98500483333333, "bike_id": "fa3ea8ff19e0a0d789daeb6ea9723add", "lat": 38.86671366666667, "fusion_lon": 0.0, "fusion_lat": 0.0, "type": "electric_scooter", "name": "fa3ea8ff19e0a0d789daeb6ea9723add", "is_disabled": 0, "rental_uris": {"ios": "https://dc.lft.to/lastmile_qr_scan", "android": "https://dc.lft.to/lastmile_qr_scan"}, "is_reserved": 0}, {"lon": -77.02892666666666, "bike_id": "18552854240b932404c0052952fbda19", "lat": 38.917131499999996, "fusion_lon": 0.0, "fusion_lat": 0.0, "type": "electric_scooter", "name": "18552854240b932404c0052952fbda19", "is_disabled": 0, "rental_uris": {"ios": "https://dc.lft.to/lastmile_qr_scan", "android": "https://dc.lft.to/lastmile_qr_scan"}, "is_reserved": 0}, {"lon": -77.0423585, "bike_id": "0d28f05db350a2d5a3995388e7da182d", "lat": 38.922003833333335, "fusion_lon": 0.0, "fusion_lat": 0.0, "type": "electric_scooter", "name": "0d28f05db350a2d5a3995388e7da182d", "is_disabled": 0, "rental_uris": {"ios": "https://dc.lft.to/lastmile_qr_scan", "android": "https://dc.lft.to/lastmile_qr_scan"}, "is_reserved": 0}, {"lon": -77.05046683333333, "bike_id": "e74a9442549a3589b60526d69998cd6a", "lat": 38.923655, "fusion_lon": 0.0, "fusion_lat": 0.0, "type": "electric_scooter", "name": "e74a9442549a3589b60526d69998cd6a", "is_disabled": 0, "rental_uris": {"ios": "https://dc.lft.to/lastmile_qr_scan", "android": "https://dc.lft.to/lastmile_qr_scan"}, "is_reserved": 0}, {"lon": -76.94997116666667, "bike_id": "1a4e6e83fa444d880a6995d8c41a6557", "lat": 38.89383383333333, "fusion_lon": 0.0, "fusion_lat": 0.0, "type": "electric_scooter", "name": "1a4e6e83fa444d880a6995d8c41a6557", "is_disabled": 0, "rental_uris": {"ios": "https://dc.lft.to/lastmile_qr_scan", "android": "https://dc.lft.to/lastmile_qr_scan"}, "is_reserved": 0}, {"lon": -77.05003633333334, "bike_id": "64ea8d4dfc8c136c53e6693b0f30066f", "lat": 38.891928, "fusion_lon": 0.0, "fusion_lat": 0.0, "type": "electric_scooter", "name": "64ea8d4dfc8c136c53e6693b0f30066f", "is_disabled": 0, "rental_uris": {"ios": "https://dc.lft.to/lastmile_qr_scan", "android": "https://dc.lft.to/lastmile_qr_scan"}, "is_reserved": 0}, {"lon": -77.01198733333334, "bike_id": "47ec38e9cc2475de22ff4673c5443d83", "lat": 38.908485166666665, "fusion_lon": 0.0, "fusion_lat": 0.0, "type": "electric_scooter", "name": "47ec38e9cc2475de22ff4673c5443d83", "is_disabled": 0, "rental_uris": {"ios": "https://dc.lft.to/lastmile_qr_scan", "android": "https://dc.lft.to/lastmile_qr_scan"}, "is_reserved": 0}, {"lon": -77.03269283333333, "bike_id": "be2d8639376baf3f5822923a75c161e5", "lat": 38.937799, "fusion_lon": 0.0, "fusion_lat": 0.0, "type": "electric_scooter", "name": "be2d8639376baf3f5822923a75c161e5", "is_disabled": 0, "rental_uris": {"ios": "https://dc.lft.to/lastmile_qr_scan", "android": "https://dc.lft.to/lastmile_qr_scan"}, "is_reserved": 0}, {"lon": -77.04470533333334, "bike_id": "2766030f6ba4fca61a545eb33cb8a160", "lat": 38.90546616666666, "fusion_lon": 0.0, "fusion_lat": 0.0, "type": "electric_scooter", "name": "2766030f6ba4fca61a545eb33cb8a160", "is_disabled": 0, "rental_uris": {"ios": "https://dc.lft.to/lastmile_qr_scan", "android": "https://dc.lft.to/lastmile_qr_scan"}, "is_reserved": 0}, {"lon": -77.0393375, "bike_id": "b041d32cce932028d96b3805fca57bc2", "lat": 38.89891516666667, "fusion_lon": 0.0, "fusion_lat": 0.0, "type": "electric_scooter", "name": "b041d32cce932028d96b3805fca57bc2", "is_disabled": 0, "rental_uris": {"ios": "https://dc.lft.to/lastmile_qr_scan", "android": "https://dc.lft.to/lastmile_qr_scan"}, "is_reserved": 0}, {"lon": -77.03257083333334, "bike_id": "69b0d9b5797ae4b18ca0de1ec9af81db", "lat": 38.929893166666666, "fusion_lon": 0.0, "fusion_lat": 0.0, "type": "electric_scooter", "name": "69b0d9b5797ae4b18ca0de1ec9af81db", "is_disabled": 0, "rental_uris": {"ios": "https://dc.lft.to/lastmile_qr_scan", "android": "https://dc.lft.to/lastmile_qr_scan"}, "is_reserved": 0}, {"lon": -77.03551833333333, "bike_id": "72e95e05f6edfff3680aec7837b17616", "lat": 38.93383166666667, "fusion_lon": 0.0, "fusion_lat": 0.0, "type": "electric_scooter", "name": "72e95e05f6edfff3680aec7837b17616", "is_disabled": 0, "rental_uris": {"ios": "https://dc.lft.to/lastmile_qr_scan", "android": "https://dc.lft.to/lastmile_qr_scan"}, "is_reserved": 0}, {"lon": -77.02089583333333, "bike_id": "f2b9de3b6311993ec719e35780b3e5cb", "lat": 38.929133666666665, "fusion_lon": 0.0, "fusion_lat": 0.0, "type": "electric_scooter", "name": "f2b9de3b6311993ec719e35780b3e5cb", "is_disabled": 0, "rental_uris": {"ios": "https://dc.lft.to/lastmile_qr_scan", "android": "https://dc.lft.to/lastmile_qr_scan"}, "is_reserved": 0}, {"lon": -77.03441183333334, "bike_id": "edb2f18433805f25d72bcd977b2f3fb5", "lat": 38.90984866666667, "fusion_lon": 0.0, "fusion_lat": 0.0, "type": "electric_scooter", "name": "edb2f18433805f25d72bcd977b2f3fb5", "is_disabled": 0, "rental_uris": {"ios": "https://dc.lft.to/lastmile_qr_scan", "android": "https://dc.lft.to/lastmile_qr_scan"}, "is_reserved": 0}, {"lon": -77.03720866666667, "bike_id": "0043520521cb69f8a4324693b7e75325", "lat": 38.92654066666667, "fusion_lon": 0.0, "fusion_lat": 0.0, "type": "electric_scooter", "name": "0043520521cb69f8a4324693b7e75325", "is_disabled": 0, "rental_uris": {"ios": "https://dc.lft.to/lastmile_qr_scan", "android": "https://dc.lft.to/lastmile_qr_scan"}, "is_reserved": 0}, {"lon": -76.97859583333333, "bike_id": "b0f98a83a14979f0bd080d5e039fb27e", "lat": 38.907208, "fusion_lon": 0.0, "fusion_lat": 0.0, "type": "electric_scooter", "name": "b0f98a83a14979f0bd080d5e039fb27e", "is_disabled": 0, "rental_uris": {"ios": "https://dc.lft.to/lastmile_qr_scan", "android": "https://dc.lft.to/lastmile_qr_scan"}, "is_reserved": 0}, {"lon": -77.0467695, "bike_id": "e6ed70bf040c551edef363f9cbf6993d", "lat": 38.89234916666667, "fusion_lon": 0.0, "fusion_lat": 0.0, "type": "electric_scooter", "name": "e6ed70bf040c551edef363f9cbf6993d", "is_disabled": 0, "rental_uris": {"ios": "https://dc.lft.to/lastmile_qr_scan", "android": "https://dc.lft.to/lastmile_qr_scan"}, "is_reserved": 0}, {"lon": -77.017799, "bike_id": "c9548d9ed67d427434c4dbcc6342cc54", "lat": 38.8862705, "fusion_lon": 0.0, "fusion_lat": 0.0, "type": "electric_scooter", "name": "c9548d9ed67d427434c4dbcc6342cc54", "is_disabled": 0, "rental_uris": {"ios": "https://dc.lft.to/lastmile_qr_scan", "android": "https://dc.lft.to/lastmile_qr_scan"}, "is_reserved": 0}, {"lon": -77.05373916666667, "bike_id": "b748cef378afd4b386ee368eb3bcc622", "lat": 38.92756883333333, "fusion_lon": 0.0, "fusion_lat": 0.0, "type": "electric_scooter", "name": "b748cef378afd4b386ee368eb3bcc622", "is_disabled": 0, "rental_uris": {"ios": "https://dc.lft.to/lastmile_qr_scan", "android": "https://dc.lft.to/lastmile_qr_scan"}, "is_reserved": 0}, {"lon": -76.97563116666667, "bike_id": "865e15aef4d84f3ae96b68347dc13534", "lat": 38.92460283333333, "fusion_lon": 0.0, "fusion_lat": 0.0, "type": "electric_bike", "name": "865e15aef4d84f3ae96b68347dc13534", "is_disabled": 0, "rental_uris": {"ios": "https://dc.lft.to/lastmile_qr_scan", "android": "https://dc.lft.to/lastmile_qr_scan"}, "is_reserved": 0}, {"lon": -76.99599766666667, "bike_id": "77703419b219ab63cb7d46129f79ac54", "lat": 38.95075083333333, "fusion_lon": 0.0, "fusion_lat": 0.0, "type": "electric_bike", "name": "77703419b219ab63cb7d46129f79ac54", "is_disabled": 0, "rental_uris": {"ios": "https://dc.lft.to/lastmile_qr_scan", "android": "https://dc.lft.to/lastmile_qr_scan"}, "is_reserved": 0}, {"lon": -77.032935, "bike_id": "abb9be9891ed685cf31be1765772814e", "lat": 38.910457, "fusion_lon": 0.0, "fusion_lat": 0.0, "type": "electric_scooter", "name": "abb9be9891ed685cf31be1765772814e", "is_disabled": 0, "rental_uris": {"ios": "https://dc.lft.to/lastmile_qr_scan", "android": "https://dc.lft.to/lastmile_qr_scan"}, "is_reserved": 0}, {"lon": -77.04378033333333, "bike_id": "ba8fabdb88385feda9bbbfba6cdb4dea", "lat": 38.89227616666667, "fusion_lon": 0.0, "fusion_lat": 0.0, "type": "electric_scooter", "name": "ba8fabdb88385feda9bbbfba6cdb4dea", "is_disabled": 0, "rental_uris": {"ios": "https://dc.lft.to/lastmile_qr_scan", "android": "https://dc.lft.to/lastmile_qr_scan"}, "is_reserved": 0}, {"lon": -77.03205783333334, "bike_id": "89d4d8bb2e64983abcdba5659fde91c3", "lat": 38.93867633333333, "fusion_lon": 0.0, "fusion_lat": 0.0, "type": "electric_scooter", "name": "89d4d8bb2e64983abcdba5659fde91c3", "is_disabled": 0, "rental_uris": {"ios": "https://dc.lft.to/lastmile_qr_scan", "android": "https://dc.lft.to/lastmile_qr_scan"}, "is_reserved": 0}, {"lon": -76.9912625, "bike_id": "ff03af0e4911f7a43f8b1d82cb108891", "lat": 38.909012833333335, "fusion_lon": 0.0, "fusion_lat": 0.0, "type": "electric_scooter", "name": "ff03af0e4911f7a43f8b1d82cb108891", "is_disabled": 0, "rental_uris": {"ios": "https://dc.lft.to/lastmile_qr_scan", "android": "https://dc.lft.to/lastmile_qr_scan"}, "is_reserved": 0}, {"lon": -76.9871605, "bike_id": "e0a2b53a54cd0eb5585c91c3e152a69f", "lat": 38.8669695, "fusion_lon": 0.0, "fusion_lat": 0.0, "type": "electric_scooter", "name": "e0a2b53a54cd0eb5585c91c3e152a69f", "is_disabled": 0, "rental_uris": {"ios": "https://dc.lft.to/lastmile_qr_scan", "android": "https://dc.lft.to/lastmile_qr_scan"}, "is_reserved": 0}, {"lon": -77.04675816666666, "bike_id": "85c431d69ef8ae510a565576cd5273a1", "lat": 38.8955825, "fusion_lon": 0.0, "fusion_lat": 0.0, "type": "electric_scooter", "name": "85c431d69ef8ae510a565576cd5273a1", "is_disabled": 0, "rental_uris": {"ios": "https://dc.lft.to/lastmile_qr_scan", "android": "https://dc.lft.to/lastmile_qr_scan"}, "is_reserved": 0}, {"lon": -77.01403633333334, "bike_id": "4e9e4396e29fea35f075f5547786f883", "lat": 38.928362166666666, "fusion_lon": 0.0, "fusion_lat": 0.0, "type": "electric_scooter", "name": "4e9e4396e29fea35f075f5547786f883", "is_disabled": 0, "rental_uris": {"ios": "https://dc.lft.to/lastmile_qr_scan", "android": "https://dc.lft.to/lastmile_qr_scan"}, "is_reserved": 0}, {"lon": -77.00892033333334, "bike_id": "446d0d335a8b6f8d0ca5687c43302337", "lat": 38.926510666666665, "fusion_lon": 0.0, "fusion_lat": 0.0, "type": "electric_scooter", "name": "446d0d335a8b6f8d0ca5687c43302337", "is_disabled": 0, "rental_uris": {"ios": "https://dc.lft.to/lastmile_qr_scan", "android": "https://dc.lft.to/lastmile_qr_scan"}, "is_reserved": 0}, {"lon": -77.01999716666667, "bike_id": "2eec683f701daa4411ea1cd09a0102dd", "lat": 38.88742666666667, "fusion_lon": 0.0, "fusion_lat": 0.0, "type": "electric_scooter", "name": "2eec683f701daa4411ea1cd09a0102dd", "is_disabled": 0, "rental_uris": {"ios": "https://dc.lft.to/lastmile_qr_scan", "android": "https://dc.lft.to/lastmile_qr_scan"}, "is_reserved": 0}, {"lon": -77.02143216666667, "bike_id": "2be677977cc1ebf2b3b24ea8f188fa05", "lat": 38.89721516666667, "fusion_lon": 0.0, "fusion_lat": 0.0, "type": "electric_scooter", "name": "2be677977cc1ebf2b3b24ea8f188fa05", "is_disabled": 0, "rental_uris": {"ios": "https://dc.lft.to/lastmile_qr_scan", "android": "https://dc.lft.to/lastmile_qr_scan"}, "is_reserved": 0}, {"lon": -77.03790216666667, "bike_id": "acd130547118c595bda040a01f7673ad", "lat": 38.925430166666665, "fusion_lon": 0.0, "fusion_lat": 0.0, "type": "electric_scooter", "name": "acd130547118c595bda040a01f7673ad", "is_disabled": 0, "rental_uris": {"ios": "https://dc.lft.to/lastmile_qr_scan", "android": "https://dc.lft.to/lastmile_qr_scan"}, "is_reserved": 0}, {"lon": -77.02143833333334, "bike_id": "8326d807029b9cf4861bff6e6d93b85e", "lat": 38.89502533333334, "fusion_lon": 0.0, "fusion_lat": 0.0, "type": "electric_scooter", "name": "8326d807029b9cf4861bff6e6d93b85e", "is_disabled": 0, "rental_uris": {"ios": "https://dc.lft.to/lastmile_qr_scan", "android": "https://dc.lft.to/lastmile_qr_scan"}, "is_reserved": 0}, {"lon": -77.02604783333334, "bike_id": "7b0b45855faf3b8a75209d316cb7c0d5", "lat": 38.92588416666667, "fusion_lon": 0.0, "fusion_lat": 0.0, "type": "electric_scooter", "name": "7b0b45855faf3b8a75209d316cb7c0d5", "is_disabled": 0, "rental_uris": {"ios": "https://dc.lft.to/lastmile_qr_scan", "android": "https://dc.lft.to/lastmile_qr_scan"}, "is_reserved": 0}, {"lon": -77.04506583333334, "bike_id": "6f173b56f7859a6815a06cd1c4f4a0ac", "lat": 38.892247166666664, "fusion_lon": 0.0, "fusion_lat": 0.0, "type": "electric_scooter", "name": "6f173b56f7859a6815a06cd1c4f4a0ac", "is_disabled": 0, "rental_uris": {"ios": "https://dc.lft.to/lastmile_qr_scan", "android": "https://dc.lft.to/lastmile_qr_scan"}, "is_reserved": 0}, {"lon": -77.04538516666666, "bike_id": "38f0e949fd540782827441be60bd712c", "lat": 38.913276833333335, "fusion_lon": 0.0, "fusion_lat": 0.0, "type": "electric_scooter", "name": "38f0e949fd540782827441be60bd712c", "is_disabled": 0, "rental_uris": {"ios": "https://dc.lft.to/lastmile_qr_scan", "android": "https://dc.lft.to/lastmile_qr_scan"}, "is_reserved": 0}, {"lon": -77.03267983333333, "bike_id": "d668a74069a7e9b1888e541c6ea11192", "lat": 38.932573, "fusion_lon": 0.0, "fusion_lat": 0.0, "type": "electric_scooter", "name": "d668a74069a7e9b1888e541c6ea11192", "is_disabled": 0, "rental_uris": {"ios": "https://dc.lft.to/lastmile_qr_scan", "android": "https://dc.lft.to/lastmile_qr_scan"}, "is_reserved": 0}, {"lon": -77.04381183333334, "bike_id": "1bb1d56db7d093dad81bf4038b171d0d", "lat": 38.8922315, "fusion_lon": 0.0, "fusion_lat": 0.0, "type": "electric_scooter", "name": "1bb1d56db7d093dad81bf4038b171d0d", "is_disabled": 0, "rental_uris": {"ios": "https://dc.lft.to/lastmile_qr_scan", "android": "https://dc.lft.to/lastmile_qr_scan"}, "is_reserved": 0}, {"lon": -77.01984933333334, "bike_id": "1a2d3a1c6d596399c70f6099d2d22345", "lat": 38.960308, "fusion_lon": 0.0, "fusion_lat": 0.0, "type": "electric_scooter", "name": "1a2d3a1c6d596399c70f6099d2d22345", "is_disabled": 0, "rental_uris": {"ios": "https://dc.lft.to/lastmile_qr_scan", "android": "https://dc.lft.to/lastmile_qr_scan"}, "is_reserved": 0}, {"lon": -77.04862166666666, "bike_id": "cbefd3edb9e94d886481467dcf48cf05", "lat": 38.902704, "fusion_lon": 0.0, "fusion_lat": 0.0, "type": "electric_scooter", "name": "cbefd3edb9e94d886481467dcf48cf05", "is_disabled": 0, "rental_uris": {"ios": "https://dc.lft.to/lastmile_qr_scan", "android": "https://dc.lft.to/lastmile_qr_scan"}, "is_reserved": 0}, {"lon": -76.97425433333333, "bike_id": "ed6ef8ce17790568ac170b64d9ba7327", "lat": 38.93242883333333, "fusion_lon": 0.0, "fusion_lat": 0.0, "type": "electric_bike", "name": "ed6ef8ce17790568ac170b64d9ba7327", "is_disabled": 0, "rental_uris": {"ios": "https://dc.lft.to/lastmile_qr_scan", "android": "https://dc.lft.to/lastmile_qr_scan"}, "is_reserved": 0}, {"lon": -77.05490233333333, "bike_id": "7de28b9453905a9d93fdcba66ac18a28", "lat": 38.935495333333336, "fusion_lon": 0.0, "fusion_lat": 0.0, "type": "electric_scooter", "name": "7de28b9453905a9d93fdcba66ac18a28", "is_disabled": 0, "rental_uris": {"ios": "https://dc.lft.to/lastmile_qr_scan", "android": "https://dc.lft.to/lastmile_qr_scan"}, "is_reserved": 0}, {"lon": -77.06100933333333, "bike_id": "82a0bfe68ed49d231fad61d4bba863c1", "lat": 38.905277833333336, "fusion_lon": 0.0, "fusion_lat": 0.0, "type": "electric_scooter", "name": "82a0bfe68ed49d231fad61d4bba863c1", "is_disabled": 0, "rental_uris": {"ios": "https://dc.lft.to/lastmile_qr_scan", "android": "https://dc.lft.to/lastmile_qr_scan"}, "is_reserved": 0}, {"lon": -76.931749, "bike_id": "68432944d19b16774927d41132a89e21", "lat": 38.89887366666667, "fusion_lon": 0.0, "fusion_lat": 0.0, "type": "electric_scooter", "name": "68432944d19b16774927d41132a89e21", "is_disabled": 0, "rental_uris": {"ios": "https://dc.lft.to/lastmile_qr_scan", "android": "https://dc.lft.to/lastmile_qr_scan"}, "is_reserved": 0}, {"lon": -76.98710266666667, "bike_id": "fe2668ba54bcc35ba3eb14a93800b25d", "lat": 38.86703333333333, "fusion_lon": 0.0, "fusion_lat": 0.0, "type": "electric_scooter", "name": "fe2668ba54bcc35ba3eb14a93800b25d", "is_disabled": 0, "rental_uris": {"ios": "https://dc.lft.to/lastmile_qr_scan", "android": "https://dc.lft.to/lastmile_qr_scan"}, "is_reserved": 0}, {"lon": -77.05024616666667, "bike_id": "c6ef72c71fa9bbc783b73d3032f91176", "lat": 38.90508533333333, "fusion_lon": 0.0, "fusion_lat": 0.0, "type": "electric_bike", "name": "c6ef72c71fa9bbc783b73d3032f91176", "is_disabled": 0, "rental_uris": {"ios": "https://dc.lft.to/lastmile_qr_scan", "android": "https://dc.lft.to/lastmile_qr_scan"}, "is_reserved": 0}, {"lon": -77.1268045, "bike_id": "b09ebd76b5cff70cbf7bde9852e9e6c7", "lat": 38.815172, "fusion_lon": 0.0, "fusion_lat": 0.0, "type": "electric_bike", "name": "b09ebd76b5cff70cbf7bde9852e9e6c7", "is_disabled": 0, "rental_uris": {"ios": "https://dc.lft.to/lastmile_qr_scan", "android": "https://dc.lft.to/lastmile_qr_scan"}, "is_reserved": 0}, {"lon": -77.027148, "bike_id": "27fcb582b84567fdab65e47a77a754aa", "lat": 38.916714666666664, "fusion_lon": 0.0, "fusion_lat": 0.0, "type": "electric_scooter", "name": "27fcb582b84567fdab65e47a77a754aa", "is_disabled": 0, "rental_uris": {"ios": "https://dc.lft.to/lastmile_qr_scan", "android": "https://dc.lft.to/lastmile_qr_scan"}, "is_reserved": 0}, {"lon": -77.00452466666667, "bike_id": "bc2a7110e7e09e4e820b46f40291a72a", "lat": 38.8765585, "fusion_lon": 0.0, "fusion_lat": 0.0, "type": "electric_scooter", "name": "bc2a7110e7e09e4e820b46f40291a72a", "is_disabled": 0, "rental_uris": {"ios": "https://dc.lft.to/lastmile_qr_scan", "android": "https://dc.lft.to/lastmile_qr_scan"}, "is_reserved": 0}, {"lon": -76.93380366666666, "bike_id": "4c1cf66b5cd42b932390a5bae4da4827", "lat": 38.910367666666666, "fusion_lon": 0.0, "fusion_lat": 0.0, "type": "electric_scooter", "name": "4c1cf66b5cd42b932390a5bae4da4827", "is_disabled": 0, "rental_uris": {"ios": "https://dc.lft.to/lastmile_qr_scan", "android": "https://dc.lft.to/lastmile_qr_scan"}, "is_reserved": 0}, {"lon": -77.017756, "bike_id": "02e85f128d19fa02027abb77cc2594df", "lat": 38.883904666666666, "fusion_lon": 0.0, "fusion_lat": 0.0, "type": "electric_scooter", "name": "02e85f128d19fa02027abb77cc2594df", "is_disabled": 0, "rental_uris": {"ios": "https://dc.lft.to/lastmile_qr_scan", "android": "https://dc.lft.to/lastmile_qr_scan"}, "is_reserved": 0}, {"lon": -77.02681333333334, "bike_id": "fa2d9d85ea20219075e0c1819007fec8", "lat": 38.94325766666667, "fusion_lon": 0.0, "fusion_lat": 0.0, "type": "electric_scooter", "name": "fa2d9d85ea20219075e0c1819007fec8", "is_disabled": 0, "rental_uris": {"ios": "https://dc.lft.to/lastmile_qr_scan", "android": "https://dc.lft.to/lastmile_qr_scan"}, "is_reserved": 0}, {"lon": -77.02020516666667, "bike_id": "7e69ea6a7dc8a6be234d07a9b4209922", "lat": 38.89477216666667, "fusion_lon": 0.0, "fusion_lat": 0.0, "type": "electric_scooter", "name": "7e69ea6a7dc8a6be234d07a9b4209922", "is_disabled": 0, "rental_uris": {"ios": "https://dc.lft.to/lastmile_qr_scan", "android": "https://dc.lft.to/lastmile_qr_scan"}, "is_reserved": 0}, {"lon": -77.031892, "bike_id": "427001fa54b2c4bbb7bb55306b56c3d3", "lat": 38.89226216666667, "fusion_lon": 0.0, "fusion_lat": 0.0, "type": "electric_scooter", "name": "427001fa54b2c4bbb7bb55306b56c3d3", "is_disabled": 0, "rental_uris": {"ios": "https://dc.lft.to/lastmile_qr_scan", "android": "https://dc.lft.to/lastmile_qr_scan"}, "is_reserved": 0}, {"lon": -76.98503383333333, "bike_id": "3301effcfa65e8f84f12812b4363c4c0", "lat": 38.8667175, "fusion_lon": 0.0, "fusion_lat": 0.0, "type": "electric_scooter", "name": "3301effcfa65e8f84f12812b4363c4c0", "is_disabled": 0, "rental_uris": {"ios": "https://dc.lft.to/lastmile_qr_scan", "android": "https://dc.lft.to/lastmile_qr_scan"}, "is_reserved": 0}, {"lon": -76.981926, "bike_id": "52c7842741ffd8ce64bce538df7f5896", "lat": 38.926074, "fusion_lon": 0.0, "fusion_lat": 0.0, "type": "electric_scooter", "name": "52c7842741ffd8ce64bce538df7f5896", "is_disabled": 0, "rental_uris": {"ios": "https://dc.lft.to/lastmile_qr_scan", "android": "https://dc.lft.to/lastmile_qr_scan"}, "is_reserved": 0}, {"lon": -77.04481233333334, "bike_id": "a1133d8b3653467d5384b076b6a9eda5", "lat": 38.910294666666665, "fusion_lon": 0.0, "fusion_lat": 0.0, "type": "electric_scooter", "name": "a1133d8b3653467d5384b076b6a9eda5", "is_disabled": 0, "rental_uris": {"ios": "https://dc.lft.to/lastmile_qr_scan", "android": "https://dc.lft.to/lastmile_qr_scan"}, "is_reserved": 0}, {"lon": -76.98563933333334, "bike_id": "36b4e06a99f4657fc2b0c712962d2f4c", "lat": 38.8996095, "fusion_lon": 0.0, "fusion_lat": 0.0, "type": "electric_scooter", "name": "36b4e06a99f4657fc2b0c712962d2f4c", "is_disabled": 0, "rental_uris": {"ios": "https://dc.lft.to/lastmile_qr_scan", "android": "https://dc.lft.to/lastmile_qr_scan"}, "is_reserved": 0}, {"lon": -77.04167583333333, "bike_id": "10f0cb211dc1710044ae3c3da1b02c34", "lat": 38.90565466666666, "fusion_lon": 0.0, "fusion_lat": 0.0, "type": "electric_scooter", "name": "10f0cb211dc1710044ae3c3da1b02c34", "is_disabled": 0, "rental_uris": {"ios": "https://dc.lft.to/lastmile_qr_scan", "android": "https://dc.lft.to/lastmile_qr_scan"}, "is_reserved": 0}, {"lon": -76.93354566666666, "bike_id": "595abe5e23b583f272af6f58a569a804", "lat": 38.89907516666667, "fusion_lon": 0.0, "fusion_lat": 0.0, "type": "electric_scooter", "name": "595abe5e23b583f272af6f58a569a804", "is_disabled": 0, "rental_uris": {"ios": "https://dc.lft.to/lastmile_qr_scan", "android": "https://dc.lft.to/lastmile_qr_scan"}, "is_reserved": 0}, {"lon": -76.99107033333334, "bike_id": "05cdf0a0ce838819fd91c1ab91248700", "lat": 38.9032135, "fusion_lon": 0.0, "fusion_lat": 0.0, "type": "electric_scooter", "name": "05cdf0a0ce838819fd91c1ab91248700", "is_disabled": 0, "rental_uris": {"ios": "https://dc.lft.to/lastmile_qr_scan", "android": "https://dc.lft.to/lastmile_qr_scan"}, "is_reserved": 0}, {"lon": -77.04609133333334, "bike_id": "2ecd760c955ea3b30adef7f46ae4e24b", "lat": 38.90288483333333, "fusion_lon": 0.0, "fusion_lat": 0.0, "type": "electric_scooter", "name": "2ecd760c955ea3b30adef7f46ae4e24b", "is_disabled": 0, "rental_uris": {"ios": "https://dc.lft.to/lastmile_qr_scan", "android": "https://dc.lft.to/lastmile_qr_scan"}, "is_reserved": 0}, {"lon": -77.04431233333334, "bike_id": "35bf7ae0992379e4d60a53908f01d53a", "lat": 38.911314833333336, "fusion_lon": 0.0, "fusion_lat": 0.0, "type": "electric_scooter", "name": "35bf7ae0992379e4d60a53908f01d53a", "is_disabled": 0, "rental_uris": {"ios": "https://dc.lft.to/lastmile_qr_scan", "android": "https://dc.lft.to/lastmile_qr_scan"}, "is_reserved": 0}, {"lon": -77.08199033333334, "bike_id": "c7bfae58854fdf45270dcd60ebdc78c3", "lat": 38.9351965, "fusion_lon": 0.0, "fusion_lat": 0.0, "type": "electric_scooter", "name": "c7bfae58854fdf45270dcd60ebdc78c3", "is_disabled": 0, "rental_uris": {"ios": "https://dc.lft.to/lastmile_qr_scan", "android": "https://dc.lft.to/lastmile_qr_scan"}, "is_reserved": 0}, {"lon": -77.04473133333333, "bike_id": "1eea771d172dae76a11f8cdd8bddcbb1", "lat": 38.9053845, "fusion_lon": 0.0, "fusion_lat": 0.0, "type": "electric_scooter", "name": "1eea771d172dae76a11f8cdd8bddcbb1", "is_disabled": 0, "rental_uris": {"ios": "https://dc.lft.to/lastmile_qr_scan", "android": "https://dc.lft.to/lastmile_qr_scan"}, "is_reserved": 0}, {"lon": -77.02815583333333, "bike_id": "d270077efc9e45e7508999b1a8a7df5e", "lat": 38.93171816666667, "fusion_lon": 0.0, "fusion_lat": 0.0, "type": "electric_scooter", "name": "d270077efc9e45e7508999b1a8a7df5e", "is_disabled": 0, "rental_uris": {"ios": "https://dc.lft.to/lastmile_qr_scan", "android": "https://dc.lft.to/lastmile_qr_scan"}, "is_reserved": 0}, {"lon": -77.06279433333333, "bike_id": "c96ebe4260951dd2d8cca7ed6ced8115", "lat": 38.90567566666667, "fusion_lon": 0.0, "fusion_lat": 0.0, "type": "electric_scooter", "name": "c96ebe4260951dd2d8cca7ed6ced8115", "is_disabled": 0, "rental_uris": {"ios": "https://dc.lft.to/lastmile_qr_scan", "android": "https://dc.lft.to/lastmile_qr_scan"}, "is_reserved": 0}, {"lon": -77.02226016666667, "bike_id": "cf5409fc9a3d1422e841c3ee491fd793", "lat": 38.89324583333333, "fusion_lon": 0.0, "fusion_lat": 0.0, "type": "electric_scooter", "name": "cf5409fc9a3d1422e841c3ee491fd793", "is_disabled": 0, "rental_uris": {"ios": "https://dc.lft.to/lastmile_qr_scan", "android": "https://dc.lft.to/lastmile_qr_scan"}, "is_reserved": 0}, {"lon": -77.03936816666666, "bike_id": "418c1ce2487cacbcbbc2397f521c75be", "lat": 38.915514333333334, "fusion_lon": 0.0, "fusion_lat": 0.0, "type": "electric_scooter", "name": "418c1ce2487cacbcbbc2397f521c75be", "is_disabled": 0, "rental_uris": {"ios": "https://dc.lft.to/lastmile_qr_scan", "android": "https://dc.lft.to/lastmile_qr_scan"}, "is_reserved": 0}, {"lon": -76.93031183333333, "bike_id": "ccb03a880eb281095446503862af2c2e", "lat": 38.9001645, "fusion_lon": 0.0, "fusion_lat": 0.0, "type": "electric_scooter", "name": "ccb03a880eb281095446503862af2c2e", "is_disabled": 0, "rental_uris": {"ios": "https://dc.lft.to/lastmile_qr_scan", "android": "https://dc.lft.to/lastmile_qr_scan"}, "is_reserved": 0}, {"lon": -76.97331816666667, "bike_id": "077ac27d08eb8f1e38d99deb51b6b703", "lat": 38.9048355, "fusion_lon": 0.0, "fusion_lat": 0.0, "type": "electric_bike", "name": "077ac27d08eb8f1e38d99deb51b6b703", "is_disabled": 0, "rental_uris": {"ios": "https://dc.lft.to/lastmile_qr_scan", "android": "https://dc.lft.to/lastmile_qr_scan"}, "is_reserved": 0}, {"lon": -77.023079, "bike_id": "71fa2a142ae9112f06d9ab17a9d51277", "lat": 38.932875, "fusion_lon": 0.0, "fusion_lat": 0.0, "type": "electric_scooter", "name": "71fa2a142ae9112f06d9ab17a9d51277", "is_disabled": 0, "rental_uris": {"ios": "https://dc.lft.to/lastmile_qr_scan", "android": "https://dc.lft.to/lastmile_qr_scan"}, "is_reserved": 0}, {"lon": -77.02498216666666, "bike_id": "a7116fca9dd37f8b42d90bbed6d0e80c", "lat": 38.919507, "fusion_lon": 0.0, "fusion_lat": 0.0, "type": "electric_scooter", "name": "a7116fca9dd37f8b42d90bbed6d0e80c", "is_disabled": 0, "rental_uris": {"ios": "https://dc.lft.to/lastmile_qr_scan", "android": "https://dc.lft.to/lastmile_qr_scan"}, "is_reserved": 0}, {"lon": -76.90083166666666, "bike_id": "f21ffecb5183d6cacf827eba38105b8e", "lat": 38.88762166666667, "fusion_lon": 0.0, "fusion_lat": 0.0, "type": "electric_bike", "name": "f21ffecb5183d6cacf827eba38105b8e", "is_disabled": 0, "rental_uris": {"ios": "https://dc.lft.to/lastmile_qr_scan", "android": "https://dc.lft.to/lastmile_qr_scan"}, "is_reserved": 0}, {"lon": -77.0257795, "bike_id": "b0b872275b55ef46b3563997623203c1", "lat": 38.90362566666667, "fusion_lon": 0.0, "fusion_lat": 0.0, "type": "electric_scooter", "name": "b0b872275b55ef46b3563997623203c1", "is_disabled": 0, "rental_uris": {"ios": "https://dc.lft.to/lastmile_qr_scan", "android": "https://dc.lft.to/lastmile_qr_scan"}, "is_reserved": 0}, {"lon": -77.03662116666666, "bike_id": "12314b31fde837efc66956fd3caf715a", "lat": 38.9171925, "fusion_lon": 0.0, "fusion_lat": 0.0, "type": "electric_scooter", "name": "12314b31fde837efc66956fd3caf715a", "is_disabled": 0, "rental_uris": {"ios": "https://dc.lft.to/lastmile_qr_scan", "android": "https://dc.lft.to/lastmile_qr_scan"}, "is_reserved": 0}, {"lon": -76.94973333333333, "bike_id": "009e3b26ec9142a154f799d1c9382f1d", "lat": 38.893778166666664, "fusion_lon": 0.0, "fusion_lat": 0.0, "type": "electric_scooter", "name": "009e3b26ec9142a154f799d1c9382f1d", "is_disabled": 0, "rental_uris": {"ios": "https://dc.lft.to/lastmile_qr_scan", "android": "https://dc.lft.to/lastmile_qr_scan"}, "is_reserved": 0}, {"lon": -77.02214016666667, "bike_id": "211a2a2093e8c8e932496075d8b06202", "lat": 38.912737166666666, "fusion_lon": 0.0, "fusion_lat": 0.0, "type": "electric_scooter", "name": "211a2a2093e8c8e932496075d8b06202", "is_disabled": 0, "rental_uris": {"ios": "https://dc.lft.to/lastmile_qr_scan", "android": "https://dc.lft.to/lastmile_qr_scan"}, "is_reserved": 0}, {"lon": -77.050248, "bike_id": "47ca62f94bf7809c9d4efbf07bc7ff9f", "lat": 38.896542833333335, "fusion_lon": 0.0, "fusion_lat": 0.0, "type": "electric_scooter", "name": "47ca62f94bf7809c9d4efbf07bc7ff9f", "is_disabled": 0, "rental_uris": {"ios": "https://dc.lft.to/lastmile_qr_scan", "android": "https://dc.lft.to/lastmile_qr_scan"}, "is_reserved": 0}, {"lon": -77.04302516666667, "bike_id": "46ae3003041955f56e4e9b2a9334a565", "lat": 38.909009, "fusion_lon": 0.0, "fusion_lat": 0.0, "type": "electric_scooter", "name": "46ae3003041955f56e4e9b2a9334a565", "is_disabled": 0, "rental_uris": {"ios": "https://dc.lft.to/lastmile_qr_scan", "android": "https://dc.lft.to/lastmile_qr_scan"}, "is_reserved": 0}, {"lon": -77.04184233333334, "bike_id": "53ac9ef611030973dc898259db96988a", "lat": 38.905342, "fusion_lon": 0.0, "fusion_lat": 0.0, "type": "electric_scooter", "name": "53ac9ef611030973dc898259db96988a", "is_disabled": 0, "rental_uris": {"ios": "https://dc.lft.to/lastmile_qr_scan", "android": "https://dc.lft.to/lastmile_qr_scan"}, "is_reserved": 0}, {"lon": -77.00361783333334, "bike_id": "e453f7b68a6b487ba679447f4534185f", "lat": 38.892621166666665, "fusion_lon": 0.0, "fusion_lat": 0.0, "type": "electric_scooter", "name": "e453f7b68a6b487ba679447f4534185f", "is_disabled": 0, "rental_uris": {"ios": "https://dc.lft.to/lastmile_qr_scan", "android": "https://dc.lft.to/lastmile_qr_scan"}, "is_reserved": 0}, {"lon": -77.048898, "bike_id": "c54f8ca0839f11f2dd1032bded9de92b", "lat": 38.91144116666667, "fusion_lon": 0.0, "fusion_lat": 0.0, "type": "electric_scooter", "name": "c54f8ca0839f11f2dd1032bded9de92b", "is_disabled": 0, "rental_uris": {"ios": "https://dc.lft.to/lastmile_qr_scan", "android": "https://dc.lft.to/lastmile_qr_scan"}, "is_reserved": 0},