{"data": {"bikes": [{"is_reserved": 0, "bike_id": "b12d584fcd6f246ee55b3561922bc4a4", "type": "electric_scooter", "name": "b12d584fcd6f246ee55b3561922bc4a4", "is_disabled": 0, "fusion_lon": 0.0, "rental_uris": {"android": "https://dc.lft.to/lastmile_qr_scan", "ios": "https://dc.lft.to/lastmile_qr_scan"}, "lat": 38.897011666666664, "lon": -77.02988533333334, "fusion_lat": 0.0}, {"is_reserved": 0, "bike_id": "d73c8b28922004ba28563f0b66a9d70c", "type": "electric_scooter", "name": "d73c8b28922004ba28563f0b66a9d70c", "is_disabled": 0, "fusion_lon": 0.0, "rental_uris": {"android": "https://dc.lft.to/lastmile_qr_scan", "ios": "https://dc.lft.to/lastmile_qr_scan"}, "lat": 38.915631, "lon": -77.03187916666667, "fusion_lat": 0.0}, {"is_reserved": 0, "bike_id": "05887a46c2f878ed4a5323eacb31e35d", "type": "electric_scooter", "name": "05887a46c2f878ed4a5323eacb31e35d", "is_disabled": 0, "fusion_lon": 0.0, "rental_uris": {"android": "https://dc.lft.to/lastmile_qr_scan", "ios": "https://dc.lft.to/lastmile_qr_scan"}, "lat": 38.92230083333333, "lon": -77.023368, "fusion_lat": 0.0}, {"is_reserved": 0, "bike_id": "aeeae1376f5f4ff13a8d0dd00a00401b", "type": "electric_bike", "name": "aeeae1376f5f4ff13a8d0dd00a00401b", "is_disabled": 0, "fusion_lon": 0.0, "rental_uris": {"android": "https://dc.lft.to/lastmile_qr_scan", "ios": "https://dc.lft.to/lastmile_qr_scan"}, "lat": 38.89620383333333, "lon": -76.90751133333333, "fusion_lat": 0.0}, {"is_reserved": 0, "bike_id": "db51c19b2aa2d13ec5a063e45a98f8e5", "type": "electric_scooter", "name": "db51c19b2aa2d13ec5a063e45a98f8e5", "is_disabled": 0, "fusion_lon": 0.0, "rental_uris": {"android": "https://dc.lft.to/lastmile_qr_scan", "ios": "https://dc.lft.to/lastmile_qr_scan"}, "lat": 38.914140833333335, "lon": -77.0314465, "fusion_lat": 0.0}, {"is_reserved": 0, "bike_id": "c026be45897383cc3befab8088a0af2c", "type": "electric_scooter", "name": "c026be45897383cc3befab8088a0af2c", "is_disabled": 0, "fusion_lon": 0.0, "rental_uris": {"android": "https://dc.lft.to/lastmile_qr_scan", "ios": "https://dc.lft.to/lastmile_qr_scan"}, "lat": 38.88511333333334, "lon": -76.92437216666667, "fusion_lat": 0.0}, {"is_reserved": 0, "bike_id": "8d6a9267b89533f8ce6c073f01f62203", "type": "electric_scooter", "name": "8d6a9267b89533f8ce6c073f01f62203", "is_disabled": 0, "fusion_lon": 0.0, "rental_uris": {"android": "https://dc.lft.to/lastmile_qr_scan", "ios": "https://dc.lft.to/lastmile_qr_scan"}, "lat": 38.897315, "lon": -77.007521, "fusion_lat": 0.0}, {"is_reserved": 0, "bike_id": "9c38af26789cbbd71d02038313e46982", "type": "electric_scooter", "name": "9c38af26789cbbd71d02038313e46982", "is_disabled": 0, "fusion_lon": 0.0, "rental_uris": {"android": "https://dc.lft.to/lastmile_qr_scan", "ios": "https://dc.lft.to/lastmile_qr_scan"}, "lat": 38.9055955, "lon": -77.00603016666666, "fusion_lat": 0.0}, {"is_reserved": 0, "bike_id": "672125e85daae1096465fe25838824fd", "type": "electric_scooter", "name": "672125e85daae1096465fe25838824fd", "is_disabled": 0, "fusion_lon": 0.0, "rental_uris": {"android": "https://dc.lft.to/lastmile_qr_scan", "ios": "https://dc.lft.to/lastmile_qr_scan"}, "lat": 38.898165166666665, "lon": -77.031805, "fusion_lat": 0.0}, {"is_reserved": 0, "bike_id": "7a2a953224360c88c9bab2c62be505a5", "type": "electric_bike", "name": "7a2a953224360c88c9bab2c62be505a5", "is_disabled": 0, "fusion_lon": 0.0, "rental_uris": {"android": "https://dc.lft.to/lastmile_qr_scan", "ios": "https://dc.lft.to/lastmile_qr_scan"}, "lat": 38.9003505, "lon": -76.97223583333333, "fusion_lat": 0.0}, {"is_reserved": 0, "bike_id": "0479f21017539207e3f461b25ac87301", "type": "electric_scooter", "name": "0479f21017539207e3f461b25ac87301", "is_disabled": 0, "fusion_lon": 0.0, "rental_uris": {"android": "https://dc.lft.to/lastmile_qr_scan", "ios": "https://dc.lft.to/lastmile_qr_scan"}, "lat": 38.9311475, "lon": -77.0561505, "fusion_lat": 0.0}, {"is_reserved": 0, "bike_id": "853627e3b835fb64fdf8cc0909678fc4", "type": "electric_scooter", "name": "853627e3b835fb64fdf8cc0909678fc4", "is_disabled": 0, "fusion_lon": 0.0, "rental_uris": {"android": "https://dc.lft.to/lastmile_qr_scan", "ios": "https://dc.lft.to/lastmile_qr_scan"}, "lat": 38.90497583333333, "lon": -77.029454, "fusion_lat": 0.0}, {"is_reserved": 0, "bike_id": "85cfd6ea38db293143d581321ed7d0c1", "type": "electric_scooter", "name": "85cfd6ea38db293143d581321ed7d0c1", "is_disabled": 0, "fusion_lon": 0.0, "rental_uris": {"android": "https://dc.lft.to/lastmile_qr_scan", "ios": "https://dc.lft.to/lastmile_qr_scan"}, "lat": 38.91691933333333, "lon": -77.02672033333333, "fusion_lat": 0.0}, {"is_reserved": 0, "bike_id": "1d1f6e33c0e3aec1a78fb88fa0234d95", "type": "electric_scooter", "name": "1d1f6e33c0e3aec1a78fb88fa0234d95", "is_disabled": 0, "fusion_lon": 0.0, "rental_uris": {"android": "https://dc.lft.to/lastmile_qr_scan", "ios": "https://dc.lft.to/lastmile_qr_scan"}, "lat": 38.902694333333336, "lon": -77.01817133333333, "fusion_lat": 0.0}, {"is_reserved": 0, "bike_id": "badb2f6b0ad97b7e2f862132f0095181", "type": "electric_scooter", "name": "badb2f6b0ad97b7e2f862132f0095181", "is_disabled": 0, "fusion_lon": 0.0, "rental_uris": {"android": "https://dc.lft.to/lastmile_qr_scan", "ios": "https://dc.lft.to/lastmile_qr_scan"}, "lat": 38.88713833333333, "lon": -77.02166866666667, "fusion_lat": 0.0}, {"is_reserved": 0, "bike_id": "e3efa86b7d15ad978d33590c9952239a", "type": "electric_scooter", "name": "e3efa86b7d15ad978d33590c9952239a", "is_disabled": 0, "fusion_lon": 0.0, "rental_uris": {"android": "https://dc.lft.to/lastmile_qr_scan", "ios": "https://dc.lft.to/lastmile_qr_scan"}, "lat": 38.91672833333333, "lon": -77.03455716666667, "fusion_lat": 0.0}, {"is_reserved": 0, "bike_id": "e3ff0be1c53aa83dee91c60d32e94045", "type": "electric_scooter", "name": "e3ff0be1c53aa83dee91c60d32e94045", "is_disabled": 0, "fusion_lon": 0.0, "rental_uris": {"android": "https://dc.lft.to/lastmile_qr_scan", "ios": "https://dc.lft.to/lastmile_qr_scan"}, "lat": 38.92326116666667, "lon": -77.043024, "fusion_lat": 0.0}, {"is_reserved": 0, "bike_id": "982f0950f02007f3d7b8fcd8216f7c6a", "type": "electric_scooter", "name": "982f0950f02007f3d7b8fcd8216f7c6a", "is_disabled": 0, "fusion_lon": 0.0, "rental_uris": {"android": "https://dc.lft.to/lastmile_qr_scan", "ios": "https://dc.lft.to/lastmile_qr_scan"}, "lat": 38.884902, "lon": -77.00714333333333, "fusion_lat": 0.0}, {"is_reserved": 0, "bike_id": "9531f573f4ad323b98ab6a095c4d6ffa", "type": "electric_scooter", "name": "9531f573f4ad323b98ab6a095c4d6ffa", "is_disabled": 0, "fusion_lon": 0.0, "rental_uris": {"android": "https://dc.lft.to/lastmile_qr_scan", "ios": "https://dc.lft.to/lastmile_qr_scan"}, "lat": 38.93066866666667, "lon": -77.03197133333333, "fusion_lat": 0.0}, {"is_reserved": 0, "bike_id": "44384bd0842ac81959d81a02009f5510", "type": "electric_scooter", "name": "44384bd0842ac81959d81a02009f5510", "is_disabled": 0, "fusion_lon": 0.0, "rental_uris": {"android": "https://dc.lft.to/lastmile_qr_scan", "ios": "https://dc.lft.to/lastmile_qr_scan"}, "lat": 38.8956205, "lon": -77.02711166666667, "fusion_lat": 0.0}, {"is_reserved": 0, "bike_id": "3b0c441eac15d6f9aa8e3110f970f314", "type": "electric_scooter", "name": "3b0c441eac15d6f9aa8e3110f970f314", "is_disabled": 0, "fusion_lon": 0.0, "rental_uris": {"android": "https://dc.lft.to/lastmile_qr_scan", "ios": "https://dc.lft.to/lastmile_qr_scan"}, "lat": 38.90663033333333, "lon": -77.07333433333334, "fusion_lat": 0.0}, {"is_reserved": 0, "bike_id": "45608c0930e9d8c838f5bb070111a931", "type": "electric_scooter", "name": "45608c0930e9d8c838f5bb070111a931", "is_disabled": 0, "fusion_lon": 0.0, "rental_uris": {"android": "https://dc.lft.to/lastmile_qr_scan", "ios": "https://dc.lft.to/lastmile_qr_scan"}, "lat": 38.9233365, "lon": -77.02288, "fusion_lat": 0.0}, {"is_reserved": 0, "bike_id": "d0baf75def06750f5abffa27312bf928", "type": "electric_scooter", "name": "d0baf75def06750f5abffa27312bf928", "is_disabled": 0, "fusion_lon": 0.0, "rental_uris": {"android": "https://dc.lft.to/lastmile_qr_scan", "ios": "https://dc.lft.to/lastmile_qr_scan"}, "lat": 38.91416183333333, "lon": -77.03169266666667, "fusion_lat": 0.0}, {"is_reserved": 0, "bike_id": "bf579ed66fc918c6d497d147c13e9e23", "type": "electric_scooter", "name": "bf579ed66fc918c6d497d147c13e9e23", "is_disabled": 0, "fusion_lon": 0.0, "rental_uris": {"android": "https://dc.lft.to/lastmile_qr_scan", "ios": "https://dc.lft.to/lastmile_qr_scan"}, "lat": 38.899752166666666, "lon": -77.022698, "fusion_lat": 0.0}, {"is_reserved": 0, "bike_id": "bc50facbbbe1cd88786657e47b37d8d2", "type": "electric_scooter", "name": "bc50facbbbe1cd88786657e47b37d8d2", "is_disabled": 0, "fusion_lon": 0.0, "rental_uris": {"android": "https://dc.lft.to/lastmile_qr_scan", "ios": "https://dc.lft.to/lastmile_qr_scan"}, "lat": 38.89366866666667, "lon": -77.047742, "fusion_lat": 0.0}, {"is_reserved": 0, "bike_id": "b16c36a887e96a4818190ebe4d349d0a", "type": "electric_scooter", "name": "b16c36a887e96a4818190ebe4d349d0a", "is_disabled": 0, "fusion_lon": 0.0, "rental_uris": {"android": "https://dc.lft.to/lastmile_qr_scan", "ios": "https://dc.lft.to/lastmile_qr_scan"}, "lat": 38.905514833333335, "lon": -77.05004783333334, "fusion_lat": 0.0}, {"is_reserved": 0, "bike_id": "9728cf00c5854f536b98a8b27c9cda43", "type": "electric_scooter", "name": "9728cf00c5854f536b98a8b27c9cda43", "is_disabled": 0, "fusion_lon": 0.0, "rental_uris": {"android": "https://dc.lft.to/lastmile_qr_scan", "ios": "https://dc.lft.to/lastmile_qr_scan"}, "lat": 38.90241983333333, "lon": -77.03953183333333, "fusion_lat": 0.0}, {"is_reserved": 0, "bike_id": "a00b3dc2cdc5dd0f78064149c3208e2d", "type": "electric_scooter", "name": "a00b3dc2cdc5dd0f78064149c3208e2d", "is_disabled": 0, "fusion_lon": 0.0, "rental_uris": {"android": "https://dc.lft.to/lastmile_qr_scan", "ios": "https://dc.lft.to/lastmile_qr_scan"}, "lat": 38.8922565, "lon": -77.04498316666667, "fusion_lat": 0.0}, {"is_reserved": 0, "bike_id": "609cb0c7df57dbde8f3cd3020121119e", "type": "electric_scooter", "name": "609cb0c7df57dbde8f3cd3020121119e", "is_disabled": 0, "fusion_lon": 0.0, "rental_uris": {"android": "https://dc.lft.to/lastmile_qr_scan", "ios": "https://dc.lft.to/lastmile_qr_scan"}, "lat": 38.922212333333334, "lon": -77.04241, "fusion_lat": 0.0}, {"is_reserved": 0, "bike_id": "b5731ac8025a598083a25ef70e173be5", "type": "electric_scooter", "name": "b5731ac8025a598083a25ef70e173be5", "is_disabled": 0, "fusion_lon": 0.0, "rental_uris": {"android": "https://dc.lft.to/lastmile_qr_scan", "ios": "https://dc.lft.to/lastmile_qr_scan"}, "lat": 38.9079955, "lon": -76.9970105, "fusion_lat": 0.0}, {"is_reserved": 0, "bike_id": "85f70910a7efcca31155c353ce5181fd", "type": "electric_bike", "name": "85f70910a7efcca31155c353ce5181fd", "is_disabled": 0, "fusion_lon": 0.0, "rental_uris": {"android": "https://dc.lft.to/lastmile_qr_scan", "ios": "https://dc.lft.to/lastmile_qr_scan"}, "lat": 38.9821345, "lon": -77.0966145, "fusion_lat": 0.0}, {"is_reserved": 0, "bike_id": "e17fbaf6511e1d3122f1b1d79c649e08", "type": "electric_bike", "name": "e17fbaf6511e1d3122f1b1d79c649e08", "is_disabled": 0, "fusion_lon": 0.0, "rental_uris": {"android": "https://dc.lft.to/lastmile_qr_scan", "ios": "https://dc.lft.to/lastmile_qr_scan"}, "lat": 38.992262833333335, "lon": -77.06528633333333, "fusion_lat": 0.0}, {"is_reserved": 0, "bike_id": "c32957eeaea26c4e2dd63cd33418d073", "type": "electric_scooter", "name": "c32957eeaea26c4e2dd63cd33418d073", "is_disabled": 0, "fusion_lon": 0.0, "rental_uris": {"android": "https://dc.lft.to/lastmile_qr_scan", "ios": "https://dc.lft.to/lastmile_qr_scan"}, "lat": 38.900317, "lon": -76.98834366666667, "fusion_lat": 0.0}, {"is_reserved": 0, "bike_id": "db50eba582ec175e28edf9f4319d6796", "type": "electric_scooter", "name": "db50eba582ec175e28edf9f4319d6796", "is_disabled": 0, "fusion_lon": 0.0, "rental_uris": {"android": "https://dc.lft.to/lastmile_qr_scan", "ios": "https://dc.lft.to/lastmile_qr_scan"}, "lat": 38.925864833333335, "lon": -77.02502116666666, "fusion_lat": 0.0}, {"is_reserved": 0, "bike_id": "8f79587cb353722e27323cb3e4cdfd2e", "type": "electric_scooter", "name": "8f79587cb353722e27323cb3e4cdfd2e", "is_disabled": 0, "fusion_lon": 0.0, "rental_uris": {"android": "https://dc.lft.to/lastmile_qr_scan", "ios": "https://dc.lft.to/lastmile_qr_scan"}, "lat": 38.88433633333333, "lon": -76.996838, "fusion_lat": 0.0}, {"is_reserved": 0, "bike_id": "7ccfa0ff1e5073b011dd2f66bfeb12c1", "type": "electric_scooter", "name": "7ccfa0ff1e5073b011dd2f66bfeb12c1", "is_disabled": 0, "fusion_lon": 0.0, "rental_uris": {"android": "https://dc.lft.to/lastmile_qr_scan", "ios": "https://dc.lft.to/lastmile_qr_scan"}, "lat": 38.922886166666665, "lon": -77.02241883333333, "fusion_lat": 0.0}, {"is_reserved": 0, "bike_id": "4306dfe1ad987bd1340397045f9b1d76", "type": "electric_scooter", "name": "4306dfe1ad987bd1340397045f9b1d76", "is_disabled": 0, "fusion_lon": 0.0, "rental_uris": {"android": "https://dc.lft.to/lastmile_qr_scan", "ios": "https://dc.lft.to/lastmile_qr_scan"}, "lat": 38.90889633333333, "lon": -76.98234783333334, "fusion_lat": 0.0}, {"is_reserved": 0, "bike_id": "3f974f63eb1701aa2e5728fa9267bc81", "type": "electric_scooter", "name": "3f974f63eb1701aa2e5728fa9267bc81", "is_disabled": 0, "fusion_lon": 0.0, "rental_uris": {"android": "https://dc.lft.to/lastmile_qr_scan", "ios": "https://dc.lft.to/lastmile_qr_scan"}, "lat": 38.9009585, "lon": -77.01615983333333, "fusion_lat": 0.0}, {"is_reserved": 0, "bike_id": "20e883f7acf4c7c4b7406b75874bccb8", "type": "electric_scooter", "name": "20e883f7acf4c7c4b7406b75874bccb8", "is_disabled": 0, "fusion_lon": 0.0, "rental_uris": {"android": "https://dc.lft.to/lastmile_qr_scan", "ios": "https://dc.lft.to/lastmile_qr_scan"}, "lat": 38.8920135, "lon": -76.99022983333333, "fusion_lat": 0.0}, {"is_reserved": 0, "bike_id": "44410f68af98b3a50d7e47dc89036e89", "type": "electric_scooter", "name": "44410f68af98b3a50d7e47dc89036e89", "is_disabled": 0, "fusion_lon": 0.0, "rental_uris": {"android": "https://dc.lft.to/lastmile_qr_scan", "ios": "https://dc.lft.to/lastmile_qr_scan"}, "lat": 38.880449166666665, "lon": -76.93218433333334, "fusion_lat": 0.0}, {"is_reserved": 0, "bike_id": "d307897040b42675e070a9cf4bc506c7", "type": "electric_scooter", "name": "d307897040b42675e070a9cf4bc506c7", "is_disabled": 0, "fusion_lon": 0.0, "rental_uris": {"android": "https://dc.lft.to/lastmile_qr_scan", "ios": "https://dc.lft.to/lastmile_qr_scan"}, "lat": 38.92702233333333, "lon": -77.02082883333334, "fusion_lat": 0.0}, {"is_reserved": 0, "bike_id": "4c3c76dac77d32723ef76c7347564778", "type": "electric_scooter", "name": "4c3c76dac77d32723ef76c7347564778", "is_disabled": 0, "fusion_lon": 0.0, "rental_uris": {"android": "https://dc.lft.to/lastmile_qr_scan", "ios": "https://dc.lft.to/lastmile_qr_scan"}, "lat": 38.929649166666664, "lon": -77.04114633333333, "fusion_lat": 0.0}, {"is_reserved": 0, "bike_id": "78f83973e43d74409d3ebb8700cdf188", "type": "electric_scooter", "name": "78f83973e43d74409d3ebb8700cdf188", "is_disabled": 0, "fusion_lon": 0.0, "rental_uris": {"android": "https://dc.lft.to/lastmile_qr_scan", "ios": "https://dc.lft.to/lastmile_qr_scan"}, "lat": 38.912048166666665, "lon": -77.03205833333334, "fusion_lat": 0.0}, {"is_reserved": 0, "bike_id": "0d8860f2ea23ae3dde4eab44c1f8b51b", "type": "electric_scooter", "name": "0d8860f2ea23ae3dde4eab44c1f8b51b", "is_disabled": 0, "fusion_lon": 0.0, "rental_uris": {"android": "https://dc.lft.to/lastmile_qr_scan", "ios": "https://dc.lft.to/lastmile_qr_scan"}, "lat": 38.8768255, "lon": -77.00058016666667, "fusion_lat": 0.0}, {"is_reserved": 0, "bike_id": "75857d83fcf2f7fb49707af467cf643b", "type": "electric_scooter", "name": "75857d83fcf2f7fb49707af467cf643b", "is_disabled": 0, "fusion_lon": 0.0, "rental_uris": {"android": "https://dc.lft.to/lastmile_qr_scan", "ios": "https://dc.lft.to/lastmile_qr_scan"}, "lat": 38.872898, "lon": -77.01700666666666, "fusion_lat": 0.0}, {"is_reserved": 0, "bike_id": "7105dab6d8459dea7dba1808e432d14b", "type": "electric_scooter", "name": "7105dab6d8459dea7dba1808e432d14b", "is_disabled": 0, "fusion_lon": 0.0, "rental_uris": {"android": "https://dc.lft.to/lastmile_qr_scan", "ios": "https://dc.lft.to/lastmile_qr_scan"}, "lat": 38.9560975, "lon": -77.02761233333334, "fusion_lat": 0.0}, {"is_reserved": 0, "bike_id": "671a7a694446bb3b5d27a058177bd25e", "type": "electric_scooter", "name": "671a7a694446bb3b5d27a058177bd25e", "is_disabled": 0, "fusion_lon": 0.0, "rental_uris": {"android": "https://dc.lft.to/lastmile_qr_scan", "ios": "https://dc.lft.to/lastmile_qr_scan"}, "lat": 38.930746666666664, "lon": -77.0235245, "fusion_lat": 0.0}, {"is_reserved": 0, "bike_id": "0a842842c9f2a39d92451a64939f9cc7", "type": "electric_scooter", "name": "0a842842c9f2a39d92451a64939f9cc7", "is_disabled": 0, "fusion_lon": 0.0, "rental_uris": {"android": "https://dc.lft.to/lastmile_qr_scan", "ios": "https://dc.lft.to/lastmile_qr_scan"}, "lat": 38.92415716666667, "lon": -77.035309, "fusion_lat": 0.0}, {"is_reserved": 0, "bike_id": "561103b22850e1f552da41436f730b9d", "type": "electric_scooter", "name": "561103b22850e1f552da41436f730b9d", "is_disabled": 0, "fusion_lon": 0.0, "rental_uris": {"android": "https://dc.lft.to/lastmile_qr_scan", "ios": "https://dc.lft.to/lastmile_qr_scan"}, "lat": 38.884833666666665, "lon": -76.996175, "fusion_lat": 0.0}, {"is_reserved": 0, "bike_id": "fb0137c486fdd2261d31b5d5ee860ac1", "type": "electric_scooter", "name": "fb0137c486fdd2261d31b5d5ee860ac1", "is_disabled": 0, "fusion_lon": 0.0, "rental_uris": {"android": "https://dc.lft.to/lastmile_qr_scan", "ios": "https://dc.lft.to/lastmile_qr_scan"}, "lat": 38.916086, "lon": -77.0416155, "fusion_lat": 0.0}, {"is_reserved": 0, "bike_id": "f525f548e2611676331e0e376e54e0dc", "type": "electric_scooter", "name": "f525f548e2611676331e0e376e54e0dc", "is_disabled": 0, "fusion_lon": 0.0, "rental_uris": {"android": "https://dc.lft.to/lastmile_qr_scan", "ios": "https://dc.lft.to/lastmile_qr_scan"}, "lat": 38.92595633333333, "lon": -77.035379, "fusion_lat": 0.0}, {"is_reserved": 0, "bike_id": "17fb8fde748d9569d8ceddab80d8acdf", "type": "electric_scooter", "name": "17fb8fde748d9569d8ceddab80d8acdf", "is_disabled": 0, "fusion_lon": 0.0, "rental_uris": {"android": "https://dc.lft.to/lastmile_qr_scan", "ios": "https://dc.lft.to/lastmile_qr_scan"}, "lat": 38.88600733333333, "lon": -76.92508133333334, "fusion_lat": 0.0}, {"is_reserved": 0, "bike_id": "218452dc0fce81a454c68fedfce3d997", "type": "electric_scooter", "name": "218452dc0fce81a454c68fedfce3d997", "is_disabled": 0, "fusion_lon": 0.0, "rental_uris": {"android": "https://dc.lft.to/lastmile_qr_scan", "ios": "https://dc.lft.to/lastmile_qr_scan"}, "lat": 38.918562333333334, "lon": -76.965434, "fusion_lat": 0.0}, {"is_reserved": 0, "bike_id": "26114c56b7cd9b853ec911b0b3a7e811", "type": "electric_scooter", "name": "26114c56b7cd9b853ec911b0b3a7e811", "is_disabled": 0, "fusion_lon": 0.0, "rental_uris": {"android": "https://dc.lft.to/lastmile_qr_scan", "ios": "https://dc.lft.to/lastmile_qr_scan"}, "lat": 38.876755833333334, "lon": -77.003457, "fusion_lat": 0.0}, {"is_reserved": 0, "bike_id": "eb76c2cba7b8fc314f677b2865d2c8e5", "type": "electric_scooter", "name": "eb76c2cba7b8fc314f677b2865d2c8e5", "is_disabled": 0, "fusion_lon": 0.0, "rental_uris": {"android": "https://dc.lft.to/lastmile_qr_scan", "ios": "https://dc.lft.to/lastmile_qr_scan"}, "lat": 38.934124833333335, "lon": -77.02781016666667, "fusion_lat": 0.0}, {"is_reserved": 0, "bike_id": "7382d40ce9ec634a5a5c8490ce4558b3", "type": "electric_scooter", "name": "7382d40ce9ec634a5a5c8490ce4558b3", "is_disabled": 0, "fusion_lon": 0.0, "rental_uris": {"android": "https://dc.lft.to/lastmile_qr_scan", "ios": "https://dc.lft.to/lastmile_qr_scan"}, "lat": 38.87180766666667, "lon": -77.00602883333333, "fusion_lat": 0.0}, {"is_reserved": 0, "bike_id": "dc8e8c96ad787c3b830c490fdab0ea96", "type": "electric_scooter", "name": "dc8e8c96ad787c3b830c490fdab0ea96", "is_disabled": 0, "fusion_lon": 0.0, "rental_uris": {"android": "https://dc.lft.to/lastmile_qr_scan", "ios": "https://dc.lft.to/lastmile_qr_scan"}, "lat": 38.905951, "lon": -77.07012816666666, "fusion_lat": 0.0}, {"is_reserved": 0, "bike_id": "b598aa7607746a0d40fa7dbe928b7e25", "type": "electric_scooter", "name": "b598aa7607746a0d40fa7dbe928b7e25", "is_disabled": 0, "fusion_lon": 0.0, "rental_uris": {"android": "https://dc.lft.to/lastmile_qr_scan", "ios": "https://dc.lft.to/lastmile_qr_scan"}, "lat": 38.9227145, "lon": -77.0212585, "fusion_lat": 0.0}, {"is_reserved": 0, "bike_id": "54736734ec5013131da70ec4204b470c", "type": "electric_scooter", "name": "54736734ec5013131da70ec4204b470c", "is_disabled": 0, "fusion_lon": 0.0, "rental_uris": {"android": "https://dc.lft.to/lastmile_qr_scan", "ios": "https://dc.lft.to/lastmile_qr_scan"}, "lat": 38.9110525, "lon": -77.026381, "fusion_lat": 0.0}, {"is_reserved": 0, "bike_id": "52b9e6762634d7effa75839f5dbce5f5", "type": "electric_scooter", "name": "52b9e6762634d7effa75839f5dbce5f5", "is_disabled": 0, "fusion_lon": 0.0, "rental_uris": {"android": "https://dc.lft.to/lastmile_qr_scan", "ios": "https://dc.lft.to/lastmile_qr_scan"}, "lat": 38.887109833333334, "lon": -77.02167366666667, "fusion_lat": 0.0}, {"is_reserved": 0, "bike_id": "1d1bc3b6cd91fdf97ecedb4eb62c6296", "type": "electric_scooter", "name": "1d1bc3b6cd91fdf97ecedb4eb62c6296", "is_disabled": 0, "fusion_lon": 0.0, "rental_uris": {"android": "https://dc.lft.to/lastmile_qr_scan", "ios": "https://dc.lft.to/lastmile_qr_scan"}, "lat": 38.90013616666667, "lon": -77.0035245, "fusion_lat": 0.0}, {"is_reserved": 0, "bike_id": "d23787ad1cd64fd4814513a5e0f19f98", "type": "electric_bike", "name": "d23787ad1cd64fd4814513a5e0f19f98", "is_disabled": 0, "fusion_lon": 0.0, "rental_uris": {"android": "https://dc.lft.to/lastmile_qr_scan", "ios": "https://dc.lft.to/lastmile_qr_scan"}, "lat": 38.881268666666664, "lon": -77.00142033333333, "fusion_lat": 0.0}, {"is_reserved": 0, "bike_id": "06bc47a07f54c04f4608565c5e5e716e", "type": "electric_scooter", "name": "06bc47a07f54c04f4608565c5e5e716e", "is_disabled": 0, "fusion_lon": 0.0, "rental_uris": {"android": "https://dc.lft.to/lastmile_qr_scan", "ios": "https://dc.lft.to/lastmile_qr_scan"}, "lat": 38.89712516666667, "lon": -77.03242433333334, "fusion_lat": 0.0}, {"is_reserved": 0, "bike_id": "1e9f95576dcccb599b841cc550d27c92", "type": "electric_scooter", "name": "1e9f95576dcccb599b841cc550d27c92", "is_disabled": 0, "fusion_lon": 0.0, "rental_uris": {"android": "https://dc.lft.to/lastmile_qr_scan", "ios": "https://dc.lft.to/lastmile_qr_scan"}, "lat": 38.975166333333334, "lon": -77.01730316666666, "fusion_lat": 0.0}, {"is_reserved": 0, "bike_id": "94e3ebcb9521cf48af9bfc35411336dd", "type": "electric_scooter", "name": "94e3ebcb9521cf48af9bfc35411336dd", "is_disabled": 0, "fusion_lon": 0.0, "rental_uris": {"android": "https://dc.lft.to/lastmile_qr_scan", "ios": "https://dc.lft.to/lastmile_qr_scan"}, "lat": 38.89565616666667, "lon": -77.02165166666667, "fusion_lat": 0.0}, {"is_reserved": 0, "bike_id": "9700822b165edd8b0594ee47874e3ef1", "type": "electric_scooter", "name": "9700822b165edd8b0594ee47874e3ef1", "is_disabled": 0, "fusion_lon": 0.0, "rental_uris": {"android": "https://dc.lft.to/lastmile_qr_scan", "ios": "https://dc.lft.to/lastmile_qr_scan"}, "lat": 38.8987625, "lon": -76.93183983333333, "fusion_lat": 0.0}, {"is_reserved": 0, "bike_id": "f83d591cb02e42e0f4f5bb9f977d3e52", "type": "electric_scooter", "name": "f83d591cb02e42e0f4f5bb9f977d3e52", "is_disabled": 0, "fusion_lon": 0.0, "rental_uris": {"android": "https://dc.lft.to/lastmile_qr_scan", "ios": "https://dc.lft.to/lastmile_qr_scan"}, "lat": 38.895504, "lon": -77.029706, "fusion_lat": 0.0}, {"is_reserved": 0, "bike_id": "82842f8d1f467e2afe992c9cd6815fed", "type": "electric_scooter", "name": "82842f8d1f467e2afe992c9cd6815fed", "is_disabled": 0, "fusion_lon": 0.0, "rental_uris": {"android": "https://dc.lft.to/lastmile_qr_scan", "ios": "https://dc.lft.to/lastmile_qr_scan"}, "lat": 38.92330883333333, "lon": -77.05480783333333, "fusion_lat": 0.0}, {"is_reserved": 0, "bike_id": "43ba2164502d76a10274a69b0a60ce15", "type": "electric_bike", "name": "43ba2164502d76a10274a69b0a60ce15", "is_disabled": 0, "fusion_lon": 0.0, "rental_uris": {"android": "https://dc.lft.to/lastmile_qr_scan", "ios": "https://dc.lft.to/lastmile_qr_scan"}, "lat": 38.967727333333336, "lon": -76.99656633333333, "fusion_lat": 0.0}, {"is_reserved": 0, "bike_id": "572821b11325af61989dfe447b68b9b5", "type": "electric_scooter", "name": "572821b11325af61989dfe447b68b9b5", "is_disabled": 0, "fusion_lon": 0.0, "rental_uris": {"android": "https://dc.lft.to/lastmile_qr_scan", "ios": "https://dc.lft.to/lastmile_qr_scan"}, "lat": 38.8652815, "lon": -76.97321683333334, "fusion_lat": 0.0}, {"is_reserved": 0, "bike_id": "195399ee8024e982cb24e5f0720a0a49", "type": "electric_scooter", "name": "195399ee8024e982cb24e5f0720a0a49", "is_disabled": 0, "fusion_lon": 0.0, "rental_uris": {"android": "https://dc.lft.to/lastmile_qr_scan", "ios": "https://dc.lft.to/lastmile_qr_scan"}, "lat": 38.92493966666667, "lon": -77.02168, "fusion_lat": 0.0}, {"is_reserved": 0, "bike_id": "0c7a5978bd1b3236e222ba2fb478e105", "type": "electric_scooter", "name": "0c7a5978bd1b3236e222ba2fb478e105", "is_disabled": 0, "fusion_lon": 0.0, "rental_uris": {"android": "https://dc.lft.to/lastmile_qr_scan", "ios": "https://dc.lft.to/lastmile_qr_scan"}, "lat": 38.916923833333335, "lon": -77.02721083333333, "fusion_lat": 0.0}, {"is_reserved": 0, "bike_id": "8a0ca05c760f8891422b37870cf268ec", "type": "electric_scooter", "name": "8a0ca05c760f8891422b37870cf268ec", "is_disabled": 0, "fusion_lon": 0.0, "rental_uris": {"android": "https://dc.lft.to/lastmile_qr_scan", "ios": "https://dc.lft.to/lastmile_qr_scan"}, "lat": 38.875608166666666, "lon": -77.0058975, "fusion_lat": 0.0}, {"is_reserved": 0, "bike_id": "06674a52d11a07e3cbada0d1239243d4", "type": "electric_scooter", "name": "06674a52d11a07e3cbada0d1239243d4", "is_disabled": 0, "fusion_lon": 0.0, "rental_uris": {"android": "https://dc.lft.to/lastmile_qr_scan", "ios": "https://dc.lft.to/lastmile_qr_scan"}, "lat": 38.90959816666667, "lon": -77.03394816666666, "fusion_lat": 0.0}, {"is_reserved": 0, "bike_id": "9f04fc0ffa3f9828940c763a93deb43a", "type": "electric_scooter", "name": "9f04fc0ffa3f9828940c763a93deb43a", "is_disabled": 0, "fusion_lon": 0.0, "rental_uris": {"android": "https://dc.lft.to/lastmile_qr_scan", "ios": "https://dc.lft.to/lastmile_qr_scan"}, "lat": 38.9408685, "lon": -77.02323216666667, "fusion_lat": 0.0}, {"is_reserved": 0, "bike_id": "4cfcd74058b2557fe80238d5d41d81a7", "type": "electric_bike", "name": "4cfcd74058b2557fe80238d5d41d81a7", "is_disabled": 0, "fusion_lon": 0.0, "rental_uris": {"android": "https://dc.lft.to/lastmile_qr_scan", "ios": "https://dc.lft.to/lastmile_qr_scan"}, "lat": 38.8790125, "lon": -77.00778316666667, "fusion_lat": 0.0}, {"is_reserved": 0, "bike_id": "11ab9465daa2349f36ea038853961eda", "type": "electric_scooter", "name": "11ab9465daa2349f36ea038853961eda", "is_disabled": 0, "fusion_lon": 0.0, "rental_uris": {"android": "https://dc.lft.to/lastmile_qr_scan", "ios": "https://dc.lft.to/lastmile_qr_scan"}, "lat": 38.9140225, "lon": -77.02169483333333, "fusion_lat": 0.0}, {"is_reserved": 0, "bike_id": "50e174e7b5afd387bdbc404e9f96c7de", "type": "electric_scooter", "name": "50e174e7b5afd387bdbc404e9f96c7de", "is_disabled": 0, "fusion_lon": 0.0, "rental_uris": {"android": "https://dc.lft.to/lastmile_qr_scan", "ios": "https://dc.lft.to/lastmile_qr_scan"}, "lat": 38.8813765, "lon": -76.99619616666666, "fusion_lat": 0.0}, {"is_reserved": 0, "bike_id": "bde76a89dfe8641828ac8fa27ddaf994", "type": "electric_bike", "name": "bde76a89dfe8641828ac8fa27ddaf994", "is_disabled": 0, "fusion_lon": 0.0, "rental_uris": {"android": "https://dc.lft.to/lastmile_qr_scan", "ios": "https://dc.lft.to/lastmile_qr_scan"}, "lat": 38.8792255, "lon": -76.99521066666667, "fusion_lat": 0.0}, {"is_reserved": 0, "bike_id": "ac7f58cbfc494f62ce578a7a6949f2d5", "type": "electric_scooter", "name": "ac7f58cbfc494f62ce578a7a6949f2d5", "is_disabled": 0, "fusion_lon": 0.0, "rental_uris": {"android": "https://dc.lft.to/lastmile_qr_scan", "ios": "https://dc.lft.to/lastmile_qr_scan"}, "lat": 38.90279116666667, "lon": -77.03844033333333, "fusion_lat": 0.0}, {"is_reserved": 0, "bike_id": "e60fadbf0905142eaaae6a9c418a86c3", "type": "electric_scooter", "name": "e60fadbf0905142eaaae6a9c418a86c3", "is_disabled": 0, "fusion_lon": 0.0, "rental_uris": {"android": "https://dc.lft.to/lastmile_qr_scan", "ios": "https://dc.lft.to/lastmile_qr_scan"}, "lat": 38.93104533333333, "lon": -77.024762, "fusion_lat": 0.0}, {"is_reserved": 0, "bike_id": "484ca9968ee2a270d1059d8d270e0539", "type": "electric_scooter", "name": "484ca9968ee2a270d1059d8d270e0539", "is_disabled": 0, "fusion_lon": 0.0, "rental_uris": {"android": "https://dc.lft.to/lastmile_qr_scan", "ios": "https://dc.lft.to/lastmile_qr_scan"}, "lat": 38.8983895, "lon": -77.03182666666666, "fusion_lat": 0.0}, {"is_reserved": 0, "bike_id": "2fa4e985a99ccec184eec2b21f18b9c0", "type": "electric_scooter", "name": "2fa4e985a99ccec184eec2b21f18b9c0", "is_disabled": 0, "fusion_lon": 0.0, "rental_uris": {"android": "https://dc.lft.to/lastmile_qr_scan", "ios": "https://dc.lft.to/lastmile_qr_scan"}, "lat": 38.91976233333333, "lon": -77.07104416666667, "fusion_lat": 0.0}, {"is_reserved": 0, "bike_id": "d739d8d352f11305e157ee6b8c774680", "type": "electric_bike", "name": "d739d8d352f11305e157ee6b8c774680", "is_disabled": 0, "fusion_lon": 0.0, "rental_uris": {"android": "https://dc.lft.to/lastmile_qr_scan", "ios": "https://dc.lft.to/lastmile_qr_scan"}, "lat": 38.990939833333336, "lon": -76.99362166666667, "fusion_lat": 0.0}, {"is_reserved": 0, "bike_id": "44f8453b724800bb03c5abb04a79953c", "type": "electric_scooter", "name": "44f8453b724800bb03c5abb04a79953c", "is_disabled": 0, "fusion_lon": 0.0, "rental_uris": {"android": "https://dc.lft.to/lastmile_qr_scan", "ios": "https://dc.lft.to/lastmile_qr_scan"}, "lat": 38.8995065, "lon": -77.01603533333333, "fusion_lat": 0.0}, {"is_reserved": 0, "bike_id": "faa0f349e1575a0d55b4c921abbcf706", "type": "electric_scooter", "name": "faa0f349e1575a0d55b4c921abbcf706", "is_disabled": 0, "fusion_lon": 0.0, "rental_uris": {"android": "https://dc.lft.to/lastmile_qr_scan", "ios": "https://dc.lft.to/lastmile_qr_scan"}, "lat": 38.87435466666667, "lon": -77.00113816666666, "fusion_lat": 0.0}, {"is_reserved": 0, "bike_id": "3aac62ddc6bff842ea13e4f83ce067ba", "type": "electric_scooter", "name": "3aac62ddc6bff842ea13e4f83ce067ba", "is_disabled": 0, "fusion_lon": 0.0, "rental_uris": {"android": "https://dc.lft.to/lastmile_qr_scan", "ios": "https://dc.lft.to/lastmile_qr_scan"}, "lat": 38.9140555, "lon": -77.03227016666666, "fusion_lat": 0.0}, {"is_reserved": 0, "bike_id": "b89003f2f9f60b09df7da6ff6d2ede34", "type": "electric_scooter", "name": "b89003f2f9f60b09df7da6ff6d2ede34", "is_disabled": 0, "fusion_lon": 0.0, "rental_uris": {"android": "https://dc.lft.to/lastmile_qr_scan", "ios": "https://dc.lft.to/lastmile_qr_scan"}, "lat": 38.934266666666666, "lon": -77.04001783333334, "fusion_lat": 0.0}, {"is_reserved": 0, "bike_id": "e402ec563eb59456623379b1905aea46", "type": "electric_scooter", "name": "e402ec563eb59456623379b1905aea46", "is_disabled": 0, "fusion_lon": 0.0, "rental_uris": {"android": "https://dc.lft.to/lastmile_qr_scan", "ios": "https://dc.lft.to/lastmile_qr_scan"}, "lat": 38.923702, "lon": -77.04427783333334, "fusion_lat": 0.0}, {"is_reserved": 0, "bike_id": "1240d2e7588796e138e59cc6a5ceb3e7", "type": "electric_scooter", "name": "1240d2e7588796e138e59cc6a5ceb3e7", "is_disabled": 0, "fusion_lon": 0.0, "rental_uris": {"android": "https://dc.lft.to/lastmile_qr_scan", "ios": "https://dc.lft.to/lastmile_qr_scan"}, "lat": 38.883498333333335, "lon": -76.93630116666667, "fusion_lat": 0.0}, {"is_reserved": 0, "bike_id": "c3c171bb9ff4fa585e91e609c380af5f", "type": "electric_scooter", "name": "c3c171bb9ff4fa585e91e609c380af5f", "is_disabled": 0, "fusion_lon": 0.0, "rental_uris": {"android": "https://dc.lft.to/lastmile_qr_scan", "ios": "https://dc.lft.to/lastmile_qr_scan"}, "lat": 38.90363583333333, "lon": -77.025952, "fusion_lat": 0.0}, {"is_reserved": 0, "bike_id": "2ab27309ccd3e7966781c23b5b339d1f", "type": "electric_scooter", "name": "2ab27309ccd3e7966781c23b5b339d1f", "is_disabled": 0, "fusion_lon": 0.0, "rental_uris": {"android": "https://dc.lft.to/lastmile_qr_scan", "ios": "https://dc.lft.to/lastmile_qr_scan"}, "lat": 38.905388333333335, "lon": -77.02216116666666, "fusion_lat": 0.0}, {"is_reserved": 0, "bike_id": "d5a00a65171f17a59398d4f514541eae", "type": "electric_scooter", "name": "d5a00a65171f17a59398d4f514541eae", "is_disabled": 0, "fusion_lon": 0.0, "rental_uris": {"android": "https://dc.lft.to/lastmile_qr_scan", "ios": "https://dc.lft.to/lastmile_qr_scan"}, "lat": 38.916758333333334, "lon": -77.03691833333333, "fusion_lat": 0.0}, {"is_reserved": 0, "bike_id": "d19318a16ffb7eefeca8d30ab46867c4", "type": "electric_scooter", "name": "d19318a16ffb7eefeca8d30ab46867c4", "is_disabled": 0, "fusion_lon": 0.0, "rental_uris": {"android": "https://dc.lft.to/lastmile_qr_scan", "ios": "https://dc.lft.to/lastmile_qr_scan"}, "lat": 38.9186645, "lon": -77.036565, "fusion_lat": 0.0}, {"is_reserved": 0, "bike_id": "29341aa4c97ef8a9942c973cc0696957", "type": "electric_scooter", "name": "29341aa4c97ef8a9942c973cc0696957", "is_disabled": 0, "fusion_lon": 0.0, "rental_uris": {"android": "https://dc.lft.to/lastmile_qr_scan", "ios": "https://dc.lft.to/lastmile_qr_scan"}, "lat": 38.929553166666665, "lon": -77.02781866666666, "fusion_lat": 0.0}, {"is_reserved": 0, "bike_id": "4937b53199789456ed454186d6726290", "type": "electric_scooter", "name": "4937b53199789456ed454186d6726290", "is_disabled": 0, "fusion_lon": 0.0, "rental_uris": {"android": "https://dc.lft.to/lastmile_qr_scan", "ios": "https://dc.lft.to/lastmile_qr_scan"}, "lat": 38.91834633333333, "lon": -77.034322, "fusion_lat": 0.0}, {"is_reserved": 0, "bike_id": "821f1928653fd2b2c6aa30e9d63dd8ed", "type": "electric_scooter", "name": "821f1928653fd2b2c6aa30e9d63dd8ed", "is_disabled": 0, "fusion_lon": 0.0, "rental_uris": {"android": "https://dc.lft.to/lastmile_qr_scan", "ios": "https://dc.lft.to/lastmile_qr_scan"}, "lat": 38.90345833333333, "lon": -76.986161, "fusion_lat": 0.0}, {"is_reserved": 0, "bike_id": "808eba8333d02d8ff06823ae6660e7c2", "type": "electric_scooter", "name": "808eba8333d02d8ff06823ae6660e7c2", "is_disabled": 0, "fusion_lon": 0.0, "rental_uris": {"android": "https://dc.lft.to/lastmile_qr_scan", "ios": "https://dc.lft.to/lastmile_qr_scan"}, "lat": 38.9155295, "lon": -77.01031816666666, "fusion_lat": 0.0}, {"is_reserved": 0, "bike_id": "2e71627f1d6be35d4a5daf0a68780dc1", "type": "electric_bike", "name": "2e71627f1d6be35d4a5daf0a68780dc1", "is_disabled": 0, "fusion_lon": 0.0, "rental_uris": {"android": "https://dc.lft.to/lastmile_qr_scan", "ios": "https://dc.lft.to/lastmile_qr_scan"}, "lat": 38.8657805, "lon": -77.12933866666667, "fusion_lat": 0.0}, {"is_reserved": 0, "bike_id": "f22f1cfba8fd61e7e765af91af56a273", "type": "electric_scooter", "name": "f22f1cfba8fd61e7e765af91af56a273", "is_disabled": 0, "fusion_lon": 0.0, "rental_uris": {"android": "https://dc.lft.to/lastmile_qr_scan", "ios": "https://dc.lft.to/lastmile_qr_scan"}, "lat": 38.914800666666665, "lon": -77.021898, "fusion_lat": 0.0}, {"is_reserved": 0, "bike_id": "39d3cc41d7c5f6be4deea8e32e2663f9", "type": "electric_scooter", "name": "39d3cc41d7c5f6be4deea8e32e2663f9", "is_disabled": 0, "fusion_lon": 0.0, "rental_uris": {"android": "https://dc.lft.to/lastmile_qr_scan", "ios": "https://dc.lft.to/lastmile_qr_scan"}, "lat": 38.89628666666667, "lon": -76.92962716666666, "fusion_lat": 0.0}, {"is_reserved": 0, "bike_id": "119e603fbbda7a40d776cff946998b82", "type": "electric_scooter", "name": "119e603fbbda7a40d776cff946998b82", "is_disabled": 0, "fusion_lon": 0.0, "rental_uris": {"android": "https://dc.lft.to/lastmile_qr_scan", "ios": "https://dc.lft.to/lastmile_qr_scan"}, "lat": 38.9198515, "lon": -77.03792866666667, "fusion_lat": 0.0}, {"is_reserved": 0, "bike_id": "468b17b232f4c3a191eeb9511394d41e", "type": "electric_scooter", "name": "468b17b232f4c3a191eeb9511394d41e", "is_disabled": 0, "fusion_lon": 0.0, "rental_uris": {"android": "https://dc.lft.to/lastmile_qr_scan", "ios": "https://dc.lft.to/lastmile_qr_scan"}, "lat": 38.9488105, "lon": -77.0804945, "fusion_lat": 0.0}, {"is_reserved": 0, "bike_id": "c45f83dfc906855b169c578a53b26204", "type": "electric_scooter", "name": "c45f83dfc906855b169c578a53b26204", "is_disabled": 0, "fusion_lon": 0.0, "rental_uris": {"android": "https://dc.lft.to/lastmile_qr_scan", "ios": "https://dc.lft.to/lastmile_qr_scan"}, "lat": 38.92189366666667, "lon": -77.03522733333334, "fusion_lat": 0.0}, {"is_reserved": 0, "bike_id": "c16ab829ac7367bb866222686d4448d0", "type": "electric_scooter", "name": "c16ab829ac7367bb866222686d4448d0", "is_disabled": 0, "fusion_lon": 0.0, "rental_uris": {"android": "https://dc.lft.to/lastmile_qr_scan", "ios": "https://dc.lft.to/lastmile_qr_scan"}, "lat": 38.93810533333333, "lon": -77.02665116666667, "fusion_lat": 0.0}, {"is_reserved": 0, "bike_id": "8207fe5363cc328374a796d531c6a0dc", "type": "electric_scooter", "name": "8207fe5363cc328374a796d531c6a0dc", "is_disabled": 0, "fusion_lon": 0.0, "rental_uris": {"android": "https://dc.lft.to/lastmile_qr_scan", "ios": "https://dc.lft.to/lastmile_qr_scan"}, "lat": 38.920305, "lon": -77.04180216666667, "fusion_lat": 0.0}, {"is_reserved": 0, "bike_id": "0db03973adbe79256858b2ab6a879a53", "type": "electric_bike", "name": "0db03973adbe79256858b2ab6a879a53", "is_disabled": 0, "fusion_lon": 0.0, "rental_uris": {"android": "https://dc.lft.to/lastmile_qr_scan", "ios": "https://dc.lft.to/lastmile_qr_scan"}, "lat": 38.928919666666665, "lon": -77.23173583333333, "fusion_lat": 0.0}, {"is_reserved": 0, "bike_id": "2abea374b24385f97b8a386e58b6a325", "type": "electric_scooter", "name": "2abea374b24385f97b8a386e58b6a325", "is_disabled": 0, "fusion_lon": 0.0, "rental_uris": {"android": "https://dc.lft.to/lastmile_qr_scan", "ios": "https://dc.lft.to/lastmile_qr_scan"}, "lat": 38.9224145, "lon": -77.04255466666666, "fusion_lat": 0.0}, {"is_reserved": 0, "bike_id": "7daad714376a72c7f89149a3aa497fc7", "type": "electric_scooter", "name": "7daad714376a72c7f89149a3aa497fc7", "is_disabled": 0, "fusion_lon": 0.0, "rental_uris": {"android": "https://dc.lft.to/lastmile_qr_scan", "ios": "https://dc.lft.to/lastmile_qr_scan"}, "lat": 38.886434666666666, "lon": -77.00099333333333, "fusion_lat": 0.0}, {"is_reserved": 0, "bike_id": "ef06d92df35f95e62f8bba57c9bddeb1", "type": "electric_bike", "name": "ef06d92df35f95e62f8bba57c9bddeb1", "is_disabled": 0, "fusion_lon": 0.0, "rental_uris": {"android": "https://dc.lft.to/lastmile_qr_scan", "ios": "https://dc.lft.to/lastmile_qr_scan"}, "lat": 38.838264, "lon": -77.07926533333334, "fusion_lat": 0.0}, {"is_reserved": 0, "bike_id": "e4846aa6606c45ef1ebdee781aeab7ca", "type": "electric_scooter", "name": "e4846aa6606c45ef1ebdee781aeab7ca", "is_disabled": 0, "fusion_lon": 0.0, "rental_uris": {"android": "https://dc.lft.to/lastmile_qr_scan", "ios": "https://dc.lft.to/lastmile_qr_scan"}, "lat": 38.901236833333336, "lon": -77.04339866666666, "fusion_lat": 0.0}, {"is_reserved": 0, "bike_id": "7eb258c7f75d5637afee81faf7006ec7", "type": "electric_scooter", "name": "7eb258c7f75d5637afee81faf7006ec7", "is_disabled": 0, "fusion_lon": 0.0, "rental_uris": {"android": "https://dc.lft.to/lastmile_qr_scan", "ios": "https://dc.lft.to/lastmile_qr_scan"}, "lat": 38.958120666666666, "lon": -77.01453416666666, "fusion_lat": 0.0}, {"is_reserved": 0, "bike_id": "c747e357472ca7b7a657aacc8e14c9a0", "type": "electric_bike", "name": "c747e357472ca7b7a657aacc8e14c9a0", "is_disabled": 0, "fusion_lon": 0.0, "rental_uris": {"android": "https://dc.lft.to/lastmile_qr_scan", "ios": "https://dc.lft.to/lastmile_qr_scan"}, "lat": 38.90972883333333, "lon": -77.0882275, "fusion_lat": 0.0}, {"is_reserved": 0, "bike_id": "df4fa431443cefd41893d4dbbca344f6", "type": "electric_scooter", "name": "df4fa431443cefd41893d4dbbca344f6", "is_disabled": 0, "fusion_lon": 0.0, "rental_uris": {"android": "https://dc.lft.to/lastmile_qr_scan", "ios": "https://dc.lft.to/lastmile_qr_scan"}, "lat": 38.92249283333334, "lon": -77.019484, "fusion_lat": 0.0}, {"is_reserved": 0, "bike_id": "222ba13e52de6b70cffe1b8110586237", "type": "electric_scooter", "name": "222ba13e52de6b70cffe1b8110586237", "is_disabled": 0, "fusion_lon": 0.0, "rental_uris": {"android": "https://dc.lft.to/lastmile_qr_scan", "ios": "https://dc.lft.to/lastmile_qr_scan"}, "lat": 38.91820216666667, "lon": -77.0417125, "fusion_lat": 0.0}, {"is_reserved": 0, "bike_id": "10e31d1d8d5b018c3d4f453bd457e09f", "type": "electric_scooter", "name": "10e31d1d8d5b018c3d4f453bd457e09f", "is_disabled": 0, "fusion_lon": 0.0, "rental_uris": {"android": "https://dc.lft.to/lastmile_qr_scan", "ios": "https://dc.lft.to/lastmile_qr_scan"}, "lat": 38.90988633333333, "lon": -77.00909283333333, "fusion_lat": 0.0}, {"is_reserved": 0, "bike_id": "91788d20a2958c91cac13d70257d2594", "type": "electric_bike", "name": "91788d20a2958c91cac13d70257d2594", "is_disabled": 0, "fusion_lon": 0.0, "rental_uris": {"android": "https://dc.lft.to/lastmile_qr_scan", "ios": "https://dc.lft.to/lastmile_qr_scan"}, "lat": 38.831392666666666, "lon": -77.11318516666667, "fusion_lat": 0.0}, {"is_reserved": 0, "bike_id": "9514f1d2c5dde9b7e31913bc93122034", "type": "electric_scooter", "name": "9514f1d2c5dde9b7e31913bc93122034", "is_disabled": 0, "fusion_lon": 0.0, "rental_uris": {"android": "https://dc.lft.to/lastmile_qr_scan", "ios": "https://dc.lft.to/lastmile_qr_scan"}, "lat": 38.923304333333334, "lon": -77.019496, "fusion_lat": 0.0}, {"is_reserved": 0, "bike_id": "a7ef2361ced516c06b0876ec0ab58372", "type": "electric_scooter", "name": "a7ef2361ced516c06b0876ec0ab58372", "is_disabled": 0, "fusion_lon": 0.0, "rental_uris": {"android": "https://dc.lft.to/lastmile_qr_scan", "ios": "https://dc.lft.to/lastmile_qr_scan"}, "lat": 38.93581283333333, "lon": -77.03347516666666, "fusion_lat": 0.0}, {"is_reserved": 0, "bike_id": "51e1cd432af2f820bc2103ebc5a2de7c", "type": "electric_scooter", "name": "51e1cd432af2f820bc2103ebc5a2de7c", "is_disabled": 0, "fusion_lon": 0.0, "rental_uris": {"android": "https://dc.lft.to/lastmile_qr_scan", "ios": "https://dc.lft.to/lastmile_qr_scan"}, "lat": 38.901442, "lon": -77.05906366666666, "fusion_lat": 0.0}, {"is_reserved": 0, "bike_id": "c080fb4ef89f7cdd09f08e3a6cb00e80", "type": "electric_scooter", "name": "c080fb4ef89f7cdd09f08e3a6cb00e80", "is_disabled": 0, "fusion_lon": 0.0, "rental_uris": {"android": "https://dc.lft.to/lastmile_qr_scan", "ios": "https://dc.lft.to/lastmile_qr_scan"}, "lat": 38.90994166666667, "lon": -77.04004066666667, "fusion_lat": 0.0}, {"is_reserved": 0, "bike_id": "04d7b1f1a4df1a0d4cb01144688a4cac", "type": "electric_scooter", "name": "04d7b1f1a4df1a0d4cb01144688a4cac", "is_disabled": 0, "fusion_lon": 0.0, "rental_uris": {"android": "https://dc.lft.to/lastmile_qr_scan", "ios": "https://dc.lft.to/lastmile_qr_scan"}, "lat": 38.900472666666666, "lon": -77.02950966666667, "fusion_lat": 0.0}, {"is_reserved": 0, "bike_id": "b9ec0445eb75f1558dd280e607064ba0", "type": "electric_scooter", "name": "b9ec0445eb75f1558dd280e607064ba0", "is_disabled": 0, "fusion_lon": 0.0, "rental_uris": {"android": "https://dc.lft.to/lastmile_qr_scan", "ios": "https://dc.lft.to/lastmile_qr_scan"}, "lat": 38.895498333333336, "lon": -77.00913966666667, "fusion_lat": 0.0}, {"is_reserved": 0, "bike_id": "6f4678fce2a47fb6b8e1bc73f415ac26", "type": "electric_scooter", "name": "6f4678fce2a47fb6b8e1bc73f415ac26", "is_disabled": 0, "fusion_lon": 0.0, "rental_uris": {"android": "https://dc.lft.to/lastmile_qr_scan", "ios": "https://dc.lft.to/lastmile_qr_scan"}, "lat": 38.9147095, "lon": -77.04551416666666, "fusion_lat": 0.0}, {"is_reserved": 0, "bike_id": "17d8e99dca0285e0d57b357fb4af5000", "type": "electric_scooter", "name": "17d8e99dca0285e0d57b357fb4af5000", "is_disabled": 0, "fusion_lon": 0.0, "rental_uris": {"android": "https://dc.lft.to/lastmile_qr_scan", "ios": "https://dc.lft.to/lastmile_qr_scan"}, "lat": 38.91196983333333, "lon": -77.00726283333333, "fusion_lat": 0.0}, {"is_reserved": 0, "bike_id": "2fb700e58f61dad9319e3dd2c6d9f177", "type": "electric_scooter", "name": "2fb700e58f61dad9319e3dd2c6d9f177", "is_disabled": 0, "fusion_lon": 0.0, "rental_uris": {"android": "https://dc.lft.to/lastmile_qr_scan", "ios": "https://dc.lft.to/lastmile_qr_scan"}, "lat": 38.89351033333333, "lon": -77.00334133333334, "fusion_lat": 0.0}, {"is_reserved": 0, "bike_id": "1b2753f83707c12b2bd919679c17c023", "type": "electric_scooter", "name": "1b2753f83707c12b2bd919679c17c023", "is_disabled": 0, "fusion_lon": 0.0, "rental_uris": {"android": "https://dc.lft.to/lastmile_qr_scan", "ios": "https://dc.lft.to/lastmile_qr_scan"}, "lat": 38.918724833333336, "lon": -77.04193616666667, "fusion_lat": 0.0}, {"is_reserved": 0, "bike_id": "25039e61c70e13426ed8dc1201fe555e", "type": "electric_scooter", "name": "25039e61c70e13426ed8dc1201fe555e", "is_disabled": 0, "fusion_lon": 0.0, "rental_uris": {"android": "https://dc.lft.to/lastmile_qr_scan", "ios": "https://dc.lft.to/lastmile_qr_scan"}, "lat": 38.8812065, "lon": -76.99344816666667, "fusion_lat": 0.0}, {"is_reserved": 0, "bike_id": "1fa6de78cd65d1b2a0c2d42fdf5d6a95", "type": "electric_scooter", "name": "1fa6de78cd65d1b2a0c2d42fdf5d6a95", "is_disabled": 0, "fusion_lon": 0.0, "rental_uris": {"android": "https://dc.lft.to/lastmile_qr_scan", "ios": "https://dc.lft.to/lastmile_qr_scan"}, "lat": 38.936175666666664, "lon": -77.03281133333333, "fusion_lat": 0.0}, {"is_reserved": 0, "bike_id": "b0a807935ed62b1ba61b1e3c0940cbb7", "type": "electric_scooter", "name": "b0a807935ed62b1ba61b1e3c0940cbb7", "is_disabled": 0, "fusion_lon": 0.0, "rental_uris": {"android": "https://dc.lft.to/lastmile_qr_scan", "ios": "https://dc.lft.to/lastmile_qr_scan"}, "lat": 38.8971965, "lon": -76.98356966666667, "fusion_lat": 0.0}, {"is_reserved": 0, "bike_id": "9f897c4860dc67fb92a2a5dbea674df8", "type": "electric_scooter", "name": "9f897c4860dc67fb92a2a5dbea674df8", "is_disabled": 0, "fusion_lon": 0.0, "rental_uris": {"android": "https://dc.lft.to/lastmile_qr_scan", "ios": "https://dc.lft.to/lastmile_qr_scan"}, "lat": 38.922376666666665, "lon": -77.03364333333333, "fusion_lat": 0.0}, {"is_reserved": 0, "bike_id": "8ebbc9f9555e9518dae6176ded4a4ffa", "type": "electric_scooter", "name": "8ebbc9f9555e9518dae6176ded4a4ffa", "is_disabled": 0, "fusion_lon": 0.0, "rental_uris": {"android": "https://dc.lft.to/lastmile_qr_scan", "ios": "https://dc.lft.to/lastmile_qr_scan"}, "lat": 38.90234616666667, "lon": -77.0197235, "fusion_lat": 0.0}, {"is_reserved": 0, "bike_id": "ffa1f9d54829c34dc39c9d021da55392", "type": "electric_bike", "name": "ffa1f9d54829c34dc39c9d021da55392", "is_disabled": 0, "fusion_lon": 0.0, "rental_uris": {"android": "https://dc.lft.to/lastmile_qr_scan", "ios": "https://dc.lft.to/lastmile_qr_scan"}, "lat": 38.90691433333333, "lon": -76.95253533333333, "fusion_lat": 0.0}, {"is_reserved": 0, "bike_id": "f2008506dd412c6a06b7821f495d086a", "type": "electric_scooter", "name": "f2008506dd412c6a06b7821f495d086a", "is_disabled": 0, "fusion_lon": 0.0, "rental_uris": {"android": "https://dc.lft.to/lastmile_qr_scan", "ios": "https://dc.lft.to/lastmile_qr_scan"}, "lat": 38.87629916666667, "lon": -77.009547, "fusion_lat": 0.0}, {"is_reserved": 0, "bike_id": "691dc26ada29918b2c3259ecab508511", "type": "electric_scooter", "name": "691dc26ada29918b2c3259ecab508511", "is_disabled": 0, "fusion_lon": 0.0, "rental_uris": {"android": "https://dc.lft.to/lastmile_qr_scan", "ios": "https://dc.lft.to/lastmile_qr_scan"}, "lat": 38.923549333333334, "lon": -77.03405483333333, "fusion_lat": 0.0}, {"is_reserved": 0, "bike_id": "74b52c3d29aee22db74ec3771ca61223", "type": "electric_scooter", "name": "74b52c3d29aee22db74ec3771ca61223", "is_disabled": 0, "fusion_lon": 0.0, "rental_uris": {"android": "https://dc.lft.to/lastmile_qr_scan", "ios": "https://dc.lft.to/lastmile_qr_scan"}, "lat": 38.9289465, "lon": -77.03261083333334, "fusion_lat": 0.0}, {"is_reserved": 0, "bike_id": "9761adc48e7b423d9d6469c6d93a78d7", "type": "electric_scooter", "name": "9761adc48e7b423d9d6469c6d93a78d7", "is_disabled": 0, "fusion_lon": 0.0, "rental_uris": {"android": "https://dc.lft.to/lastmile_qr_scan", "ios": "https://dc.lft.to/lastmile_qr_scan"}, "lat": 38.93503183333333, "lon": -77.03629316666667, "fusion_lat": 0.0}, {"is_reserved": 0, "bike_id": "ae10a4eea55833207332ea490237a5da", "type": "electric_scooter", "name": "ae10a4eea55833207332ea490237a5da", "is_disabled": 0, "fusion_lon": 0.0, "rental_uris": {"android": "https://dc.lft.to/lastmile_qr_scan", "ios": "https://dc.lft.to/lastmile_qr_scan"}, "lat": 38.8953115, "lon": -77.031818, "fusion_lat": 0.0}, {"is_reserved": 0, "bike_id": "4368348f7778053bb45b221b34e44403", "type": "electric_scooter", "name": "4368348f7778053bb45b221b34e44403", "is_disabled": 0, "fusion_lon": 0.0, "rental_uris": {"android": "https://dc.lft.to/lastmile_qr_scan", "ios": "https://dc.lft.to/lastmile_qr_scan"}, "lat": 38.92885833333333, "lon": -77.034855, "fusion_lat": 0.0}, {"is_reserved": 0, "bike_id": "21a79bcf286d6c9fc21d06d18f16eef7", "type": "electric_scooter", "name": "21a79bcf286d6c9fc21d06d18f16eef7", "is_disabled": 0, "fusion_lon": 0.0, "rental_uris": {"android": "https://dc.lft.to/lastmile_qr_scan", "ios": "https://dc.lft.to/lastmile_qr_scan"}, "lat": 38.94886266666666, "lon": -77.018518, "fusion_lat": 0.0}, {"is_reserved": 0, "bike_id": "6ec661f7cc430fd390dd34b0ea4951f6", "type": "electric_bike", "name": "6ec661f7cc430fd390dd34b0ea4951f6", "is_disabled": 0, "fusion_lon": 0.0, "rental_uris": {"android": "https://dc.lft.to/lastmile_qr_scan", "ios": "https://dc.lft.to/lastmile_qr_scan"}, "lat": 38.95772216666667, "lon": -77.08016833333333, "fusion_lat": 0.0}, {"is_reserved": 0, "bike_id": "db32767b4894772b57c8a79624ac9078", "type": "electric_bike", "name": "db32767b4894772b57c8a79624ac9078", "is_disabled": 0, "fusion_lon": 0.0, "rental_uris": {"android": "https://dc.lft.to/lastmile_qr_scan", "ios": "https://dc.lft.to/lastmile_qr_scan"}, "lat": 38.8047635, "lon": -76.9909555, "fusion_lat": 0.0}, {"is_reserved": 0, "bike_id": "76a2fd0e63985ac9867085cc68f40e54", "type": "electric_scooter", "name": "76a2fd0e63985ac9867085cc68f40e54", "is_disabled": 0, "fusion_lon": 0.0, "rental_uris": {"android": "https://dc.lft.to/lastmile_qr_scan", "ios": "https://dc.lft.to/lastmile_qr_scan"}, "lat": 38.92282066666667, "lon": -77.03660266666667, "fusion_lat": 0.0}, {"is_reserved": 0, "bike_id": "51ae497bd90246582a74800a65b36930", "type": "electric_scooter", "name": "51ae497bd90246582a74800a65b36930", "is_disabled": 0, "fusion_lon": 0.0, "rental_uris": {"android": "https://dc.lft.to/lastmile_qr_scan", "ios": "https://dc.lft.to/lastmile_qr_scan"}, "lat": 38.89665766666667, "lon": -76.93209116666667, "fusion_lat": 0.0}, {"is_reserved": 0, "bike_id": "4cb3eb9e49c686a4833296fe19037071", "type": "electric_scooter", "name": "4cb3eb9e49c686a4833296fe19037071", "is_disabled": 0, "fusion_lon": 0.0, "rental_uris": {"android": "https://dc.lft.to/lastmile_qr_scan", "ios": "https://dc.lft.to/lastmile_qr_scan"}, "lat": 38.9215995, "lon": -77.03305416666667, "fusion_lat": 0.0}, {"is_reserved": 0, "bike_id": "80705d633c4c89ad8da0737df9a9dc56", "type": "electric_bike", "name": "80705d633c4c89ad8da0737df9a9dc56", "is_disabled": 0, "fusion_lon": 0.0, "rental_uris": {"android": "https://dc.lft.to/lastmile_qr_scan", "ios": "https://dc.lft.to/lastmile_qr_scan"}, "lat": 38.9446905, "lon": -76.98688266666667, "fusion_lat": 0.0}, {"is_reserved": 0, "bike_id": "da0c1951b84f13fe8ec34f0254aab1c8", "type": "electric_scooter", "name": "da0c1951b84f13fe8ec34f0254aab1c8", "is_disabled": 0, "fusion_lon": 0.0, "rental_uris": {"android": "https://dc.lft.to/lastmile_qr_scan", "ios": "https://dc.lft.to/lastmile_qr_scan"}, "lat": 38.89636216666667, "lon": -77.02258433333333, "fusion_lat": 0.0}, {"is_reserved": 0, "bike_id": "a16e68d7e9eb7df6712122ab7b861051", "type": "electric_scooter", "name": "a16e68d7e9eb7df6712122ab7b861051", "is_disabled": 0, "fusion_lon": 0.0, "rental_uris": {"android": "https://dc.lft.to/lastmile_qr_scan", "ios": "https://dc.lft.to/lastmile_qr_scan"}, "lat": 38.924522, "lon": -77.03963, "fusion_lat": 0.0}, {"is_reserved": 0, "bike_id": "8bd2263475e8dbd33b193619f5fd8bd5", "type": "electric_scooter", "name": "8bd2263475e8dbd33b193619f5fd8bd5", "is_disabled": 0, "fusion_lon": 0.0, "rental_uris": {"android": "https://dc.lft.to/lastmile_qr_scan", "ios": "https://dc.lft.to/lastmile_qr_scan"}, "lat": 38.90514733333333, "lon": -77.04349766666667, "fusion_lat": 0.0}, {"is_reserved": 0, "bike_id": "653615f1e13058a747af7c23aa0b94fe", "type": "electric_scooter", "name": "653615f1e13058a747af7c23aa0b94fe", "is_disabled": 0, "fusion_lon": 0.0, "rental_uris": {"android": "https://dc.lft.to/lastmile_qr_scan", "ios": "https://dc.lft.to/lastmile_qr_scan"}, "lat": 38.88109816666667, "lon": -77.01665583333333, "fusion_lat": 0.0}, {"is_reserved": 0, "bike_id": "53ffdf3078cab98784d47761f36f7db6", "type": "electric_scooter", "name": "53ffdf3078cab98784d47761f36f7db6", "is_disabled": 0, "fusion_lon": 0.0, "rental_uris": {"android": "https://dc.lft.to/lastmile_qr_scan", "ios": "https://dc.lft.to/lastmile_qr_scan"}, "lat": 38.891608166666664, "lon": -76.99149266666667, "fusion_lat": 0.0}, {"is_reserved": 0, "bike_id": "9dbe7bffc111f70d476e9b96654a6b9f", "type": "electric_scooter", "name": "9dbe7bffc111f70d476e9b96654a6b9f", "is_disabled": 0, "fusion_lon": 0.0, "rental_uris": {"android": "https://dc.lft.to/lastmile_qr_scan", "ios": "https://dc.lft.to/lastmile_qr_scan"}, "lat": 38.89193366666667, "lon": -76.988425, "fusion_lat": 0.0}, {"is_reserved": 0, "bike_id": "342fb7087a1aedae88feb5b8934840ce", "type": "electric_scooter", "name": "342fb7087a1aedae88feb5b8934840ce", "is_disabled": 0, "fusion_lon": 0.0, "rental_uris": {"android": "https://dc.lft.to/lastmile_qr_scan", "ios": "https://dc.lft.to/lastmile_qr_scan"}, "lat": 38.878931, "lon": -77.0138885, "fusion_lat": 0.0}, {"is_reserved": 0, "bike_id": "8107b8eaa5526d86e378c644654f385a", "type": "electric_scooter", "name": "8107b8eaa5526d86e378c644654f385a", "is_disabled": 0, "fusion_lon": 0.0, "rental_uris": {"android": "https://dc.lft.to/lastmile_qr_scan", "ios": "https://dc.lft.to/lastmile_qr_scan"}, "lat": 38.9231645, "lon": -77.02798383333334, "fusion_lat": 0.0}, {"is_reserved": 0, "bike_id": "c64683fd1a6772110b273c527e045a24", "type": "electric_scooter", "name": "c64683fd1a6772110b273c527e045a24", "is_disabled": 0, "fusion_lon": 0.0, "rental_uris": {"android": "https://dc.lft.to/lastmile_qr_scan", "ios": "https://dc.lft.to/lastmile_qr_scan"}, "lat": 38.87603283333333, "lon": -77.02092833333333, "fusion_lat": 0.0}, {"is_reserved": 0, "bike_id": "7178b3db7b3c0f207688994c10aaa9c4", "type": "electric_scooter", "name": "7178b3db7b3c0f207688994c10aaa9c4", "is_disabled": 0, "fusion_lon": 0.0, "rental_uris": {"android": "https://dc.lft.to/lastmile_qr_scan", "ios": "https://dc.lft.to/lastmile_qr_scan"}, "lat": 38.884342833333335, "lon": -77.0013725, "fusion_lat": 0.0}, {"is_reserved": 0, "bike_id": "e65b328a229c1beb921518baa446526f", "type": "electric_scooter", "name": "e65b328a229c1beb921518baa446526f", "is_disabled": 0, "fusion_lon": 0.0, "rental_uris": {"android": "https://dc.lft.to/lastmile_qr_scan", "ios": "https://dc.lft.to/lastmile_qr_scan"}, "lat": 38.90998883333334, "lon": -77.0400275, "fusion_lat": 0.0}, {"is_reserved": 0, "bike_id": "745acfcb9ff644684b65d21ae184eb50", "type": "electric_scooter", "name": "745acfcb9ff644684b65d21ae184eb50", "is_disabled": 0, "fusion_lon": 0.0, "rental_uris": {"android": "https://dc.lft.to/lastmile_qr_scan", "ios": "https://dc.lft.to/lastmile_qr_scan"}, "lat": 38.92602316666667, "lon": -77.02290183333334, "fusion_lat": 0.0}, {"is_reserved": 0, "bike_id": "c1c529d49021b3ec9ade319a8ad6880f", "type": "electric_scooter", "name": "c1c529d49021b3ec9ade319a8ad6880f", "is_disabled": 0, "fusion_lon": 0.0, "rental_uris": {"android": "https://dc.lft.to/lastmile_qr_scan", "ios": "https://dc.lft.to/lastmile_qr_scan"}, "lat": 38.88576066666667, "lon": -77.03128216666667, "fusion_lat": 0.0}, {"is_reserved": 0, "bike_id": "4ebca0597be6471a7fe50ccc26f73558", "type": "electric_scooter", "name": "4ebca0597be6471a7fe50ccc26f73558", "is_disabled": 0, "fusion_lon": 0.0, "rental_uris": {"android": "https://dc.lft.to/lastmile_qr_scan", "ios": "https://dc.lft.to/lastmile_qr_scan"}, "lat": 38.90422733333333, "lon": -77.02872383333333, "fusion_lat": 0.0}, {"is_reserved": 0, "bike_id": "26b78693dbeac1afa4fce9f7f97fc03e", "type": "electric_scooter", "name": "26b78693dbeac1afa4fce9f7f97fc03e", "is_disabled": 0, "fusion_lon": 0.0, "rental_uris": {"android": "https://dc.lft.to/lastmile_qr_scan", "ios": "https://dc.lft.to/lastmile_qr_scan"}, "lat": 38.90977783333334, "lon": -77.0383575, "fusion_lat": 0.0}, {"is_reserved": 0, "bike_id": "c8404dd47317b48e18f71ab111764e3b", "type": "electric_scooter", "name": "c8404dd47317b48e18f71ab111764e3b", "is_disabled": 0, "fusion_lon": 0.0, "rental_uris": {"android": "https://dc.lft.to/lastmile_qr_scan", "ios": "https://dc.lft.to/lastmile_qr_scan"}, "lat": 38.90028266666667, "lon": -76.98575166666667, "fusion_lat": 0.0}, {"is_reserved": 0, "bike_id": "133723057f79a5525e001cbaa13d4fa7", "type": "electric_scooter", "name": "133723057f79a5525e001cbaa13d4fa7", "is_disabled": 0, "fusion_lon": 0.0, "rental_uris": {"android": "https://dc.lft.to/lastmile_qr_scan", "ios": "https://dc.lft.to/lastmile_qr_scan"}, "lat": 38.923318, "lon": -77.045637, "fusion_lat": 0.0}, {"is_reserved": 0, "bike_id": "3d31882db89275682badc0d24a91eb4b", "type": "electric_scooter", "name": "3d31882db89275682badc0d24a91eb4b", "is_disabled": 0, "fusion_lon": 0.0, "rental_uris": {"android": "https://dc.lft.to/lastmile_qr_scan", "ios": "https://dc.lft.to/lastmile_qr_scan"}, "lat": 38.907313333333335, "lon": -77.00705816666667, "fusion_lat": 0.0}, {"is_reserved": 0, "bike_id": "46c518ba42bb4bfde8376ec536b83b99", "type": "electric_scooter", "name": "46c518ba42bb4bfde8376ec536b83b99", "is_disabled": 0, "fusion_lon": 0.0, "rental_uris": {"android": "https://dc.lft.to/lastmile_qr_scan", "ios": "https://dc.lft.to/lastmile_qr_scan"}, "lat": 38.91036016666666, "lon": -76.99751833333333, "fusion_lat": 0.0}, {"is_reserved": 0, "bike_id": "f1ee26344123ce8261025a56c4652ac5", "type": "electric_scooter", "name": "f1ee26344123ce8261025a56c4652ac5", "is_disabled": 0, "fusion_lon": 0.0, "rental_uris": {"android": "https://dc.lft.to/lastmile_qr_scan", "ios": "https://dc.lft.to/lastmile_qr_scan"}, "lat": 38.91785933333333, "lon": -77.0239345, "fusion_lat": 0.0}, {"is_reserved": 0, "bike_id": "87a40d628710cf579ffa730e4de1b677", "type": "electric_scooter", "name": "87a40d628710cf579ffa730e4de1b677", "is_disabled": 0, "fusion_lon": 0.0, "rental_uris": {"android": "https://dc.lft.to/lastmile_qr_scan", "ios": "https://dc.lft.to/lastmile_qr_scan"}, "lat": 38.8985915, "lon": -77.0426605, "fusion_lat": 0.0}, {"is_reserved": 0, "bike_id": "09f58041a5d862f574e7420b18ab713b", "type": "electric_scooter", "name": "09f58041a5d862f574e7420b18ab713b", "is_disabled": 0, "fusion_lon": 0.0, "rental_uris": {"android": "https://dc.lft.to/lastmile_qr_scan", "ios": "https://dc.lft.to/lastmile_qr_scan"}, "lat": 38.902578, "lon": -76.99516316666667, "fusion_lat": 0.0}, {"is_reserved": 0, "bike_id": "6fff347cf87d5933180e37c9edd714f3", "type": "electric_scooter", "name": "6fff347cf87d5933180e37c9edd714f3", "is_disabled": 0, "fusion_lon": 0.0, "rental_uris": {"android": "https://dc.lft.to/lastmile_qr_scan", "ios": "https://dc.lft.to/lastmile_qr_scan"}, "lat": 38.894238, "lon": -77.05595266666667, "fusion_lat": 0.0}, {"is_reserved": 0, "bike_id": "2983dbef567c12d3b0ce2a3a611d4416", "type": "electric_scooter", "name": "2983dbef567c12d3b0ce2a3a611d4416", "is_disabled": 0, "fusion_lon": 0.0, "rental_uris": {"android": "https://dc.lft.to/lastmile_qr_scan", "ios": "https://dc.lft.to/lastmile_qr_scan"}, "lat": 38.89849533333334, "lon": -77.01381233333333, "fusion_lat": 0.0}, {"is_reserved": 0, "bike_id": "651f8676e2dc2c9c8de032b0262af86f", "type": "electric_scooter", "name": "651f8676e2dc2c9c8de032b0262af86f", "is_disabled": 0, "fusion_lon": 0.0, "rental_uris": {"android": "https://dc.lft.to/lastmile_qr_scan", "ios": "https://dc.lft.to/lastmile_qr_scan"}, "lat": 38.89418283333333, "lon": -77.0213865, "fusion_lat": 0.0}, {"is_reserved": 0, "bike_id": "538e3792a011542b10b4606a6b0a5ba6", "type": "electric_scooter", "name": "538e3792a011542b10b4606a6b0a5ba6", "is_disabled": 0, "fusion_lon": 0.0, "rental_uris": {"android": "https://dc.lft.to/lastmile_qr_scan", "ios": "https://dc.lft.to/lastmile_qr_scan"}, "lat": 38.898345166666665, "lon": -77.01963416666666, "fusion_lat": 0.0}, {"is_reserved": 0, "bike_id": "b4740204afd7463a5e4522c1097f30d1", "type": "electric_scooter", "name": "b4740204afd7463a5e4522c1097f30d1", "is_disabled": 0, "fusion_lon": 0.0, "rental_uris": {"android": "https://dc.lft.to/lastmile_qr_scan", "ios": "https://dc.lft.to/lastmile_qr_scan"}, "lat": 38.899303833333335, "lon": -77.04316416666667, "fusion_lat": 0.0}, {"is_reserved": 0, "bike_id": "b488dd78d41c2ad2bdd8d99276984e03", "type": "electric_scooter", "name": "b488dd78d41c2ad2bdd8d99276984e03", "is_disabled": 0, "fusion_lon": 0.0, "rental_uris": {"android": "https://dc.lft.to/lastmile_qr_scan", "ios": "https://dc.lft.to/lastmile_qr_scan"}, "lat": 38.92237433333333, "lon": -77.0290975, "fusion_lat": 0.0}, {"is_reserved": 0, "bike_id": "d7ad19077a7b927b6118469d19d0e7fa", "type": "electric_scooter", "name": "d7ad19077a7b927b6118469d19d0e7fa", "is_disabled": 0, "fusion_lon": 0.0, "rental_uris": {"android": "https://dc.lft.to/lastmile_qr_scan", "ios": "https://dc.lft.to/lastmile_qr_scan"}, "lat": 38.93065, "lon": -77.0382115, "fusion_lat": 0.0}, {"is_reserved": 0, "bike_id": "533b689d9a2ac6162e99f7bf33ceb068", "type": "electric_scooter", "name": "533b689d9a2ac6162e99f7bf33ceb068", "is_disabled": 0, "fusion_lon": 0.0, "rental_uris": {"android": "https://dc.lft.to/lastmile_qr_scan", "ios": "https://dc.lft.to/lastmile_qr_scan"}, "lat": 38.9243845, "lon": -77.02028233333333, "fusion_lat": 0.0}, {"is_reserved": 0, "bike_id": "47fab9e11fd6b154b73e66729721c075", "type": "electric_scooter", "name": "47fab9e11fd6b154b73e66729721c075", "is_disabled": 0, "fusion_lon": 0.0, "rental_uris": {"android": "https://dc.lft.to/lastmile_qr_scan", "ios": "https://dc.lft.to/lastmile_qr_scan"}, "lat": 38.92072916666667, "lon": -77.03221816666667, "fusion_lat": 0.0}, {"is_reserved": 0, "bike_id": "7e702d16f76948e321c5ebd1db4647d2", "type": "electric_scooter", "name": "7e702d16f76948e321c5ebd1db4647d2", "is_disabled": 0, "fusion_lon": 0.0, "rental_uris": {"android": "https://dc.lft.to/lastmile_qr_scan", "ios": "https://dc.lft.to/lastmile_qr_scan"}, "lat": 38.924175166666664, "lon": -77.01936366666666, "fusion_lat": 0.0}, {"is_reserved": 0, "bike_id": "f23badf67ccd5fe0e4dbf45ddf31d2e2", "type": "electric_bike", "name": "f23badf67ccd5fe0e4dbf45ddf31d2e2", "is_disabled": 0, "fusion_lon": 0.0, "rental_uris": {"android": "https://dc.lft.to/lastmile_qr_scan", "ios": "https://dc.lft.to/lastmile_qr_scan"}, "lat": 38.98507883333333, "lon": -76.9820845, "fusion_lat": 0.0}, {"is_reserved": 0, "bike_id": "e464ded597d1d97442132238f22545b0", "type": "electric_scooter", "name": "e464ded597d1d97442132238f22545b0", "is_disabled": 0, "fusion_lon": 0.0, "rental_uris": {"android": "https://dc.lft.to/lastmile_qr_scan", "ios": "https://dc.lft.to/lastmile_qr_scan"}, "lat": 38.915789333333336, "lon": -76.98373016666666, "fusion_lat": 0.0}, {"is_reserved": 0, "bike_id": "770a7383993b1ec560bad8e8b29041cb", "type": "electric_bike", "name": "770a7383993b1ec560bad8e8b29041cb", "is_disabled": 0, "fusion_lon": 0.0, "rental_uris": {"android": "https://dc.lft.to/lastmile_qr_scan", "ios": "https://dc.lft.to/lastmile_qr_scan"}, "lat": 38.86313883333333, "lon": -77.08510366666667, "fusion_lat": 0.0}, {"is_reserved": 0, "bike_id": "078c0effb434f5abf8925214d6c5b634", "type": "electric_scooter", "name": "078c0effb434f5abf8925214d6c5b634", "is_disabled": 0, "fusion_lon": 0.0, "rental_uris": {"android": "https://dc.lft.to/lastmile_qr_scan", "ios": "https://dc.lft.to/lastmile_qr_scan"}, "lat": 38.87546783333333, "lon": -77.00594166666667, "fusion_lat": 0.0}, {"is_reserved": 0, "bike_id": "7565e1a36fe5d0d66b6f6139ffc65820", "type": "electric_scooter", "name": "7565e1a36fe5d0d66b6f6139ffc65820", "is_disabled": 0, "fusion_lon": 0.0, "rental_uris": {"android": "https://dc.lft.to/lastmile_qr_scan", "ios": "https://dc.lft.to/lastmile_qr_scan"}, "lat": 38.91104983333334, "lon": -77.03829416666666, "fusion_lat": 0.0}, {"is_reserved": 0, "bike_id": "8d5b24a77d4d54c4ac1895abdb2a4fd5", "type": "electric_scooter", "name": "8d5b24a77d4d54c4ac1895abdb2a4fd5", "is_disabled": 0, "fusion_lon": 0.0, "rental_uris": {"android": "https://dc.lft.to/lastmile_qr_scan", "ios": "https://dc.lft.to/lastmile_qr_scan"}, "lat": 38.9382185, "lon": -76.9905105, "fusion_lat": 0.0}, {"is_reserved": 0, "bike_id": "0ab4c96af3de64ce6830f724a56307e3", "type": "electric_scooter", "name": "0ab4c96af3de64ce6830f724a56307e3", "is_disabled": 0, "fusion_lon": 0.0, "rental_uris": {"android": "https://dc.lft.to/lastmile_qr_scan", "ios": "https://dc.lft.to/lastmile_qr_scan"}, "lat": 38.92109966666666, "lon": -77.04125733333333, "fusion_lat": 0.0}, {"is_reserved": 0, "bike_id": "2a2ddc364cbb81819f121f962d3f3d83", "type": "electric_scooter", "name": "2a2ddc364cbb81819f121f962d3f3d83", "is_disabled": 0, "fusion_lon": 0.0, "rental_uris": {"android": "https://dc.lft.to/lastmile_qr_scan", "ios": "https://dc.lft.to/lastmile_qr_scan"}, "lat": 38.901517, "lon": -77.04062116666667, "fusion_lat": 0.0}, {"is_reserved": 0, "bike_id": "60b5fdca0be2406cf0aef24c80b17787", "type": "electric_scooter", "name": "60b5fdca0be2406cf0aef24c80b17787", "is_disabled": 0, "fusion_lon": 0.0, "rental_uris": {"android": "https://dc.lft.to/lastmile_qr_scan", "ios": "https://dc.lft.to/lastmile_qr_scan"}, "lat": 38.92128016666667, "lon": -77.01802666666667, "fusion_lat": 0.0}, {"is_reserved": 0, "bike_id": "4fe428da972735fc1a128de7d0c1647b", "type": "electric_bike", "name": "4fe428da972735fc1a128de7d0c1647b", "is_disabled": 0, "fusion_lon": 0.0, "rental_uris": {"android": "https://dc.lft.to/lastmile_qr_scan", "ios": "https://dc.lft.to/lastmile_qr_scan"}, "lat": 38.8655195, "lon": -76.94164866666667, "fusion_lat": 0.0}, {"is_reserved": 0, "bike_id": "f1070d6b54c46220c4f6c5ed2db9daef", "type": "electric_scooter", "name": "f1070d6b54c46220c4f6c5ed2db9daef", "is_disabled": 0, "fusion_lon": 0.0, "rental_uris": {"android": "https://dc.lft.to/lastmile_qr_scan", "ios": "https://dc.lft.to/lastmile_qr_scan"}, "lat": 38.89876966666667, "lon": -77.04870366666667, "fusion_lat": 0.0}, {"is_reserved": 0, "bike_id": "a58440b5ca39ed6dd461951f81aefb54", "type": "electric_scooter", "name": "a58440b5ca39ed6dd461951f81aefb54", "is_disabled": 0, "fusion_lon": 0.0, "rental_uris": {"android": "https://dc.lft.to/lastmile_qr_scan", "ios": "https://dc.lft.to/lastmile_qr_scan"}, "lat": 38.918777166666665, "lon": -77.04310166666667, "fusion_lat": 0.0}, {"is_reserved": 0, "bike_id": "dd22b81294114932a29729d49e522cf5", "type": "electric_scooter", "name": "dd22b81294114932a29729d49e522cf5", "is_disabled": 0, "fusion_lon": 0.0, "rental_uris": {"android": "https://dc.lft.to/lastmile_qr_scan", "ios": "https://dc.lft.to/lastmile_qr_scan"}, "lat": 38.8970805, "lon": -77.013188, "fusion_lat": 0.0}, {"is_reserved": 0, "bike_id": "03dbb08a56228b159f6d8f2d97bba820", "type": "electric_scooter", "name": "03dbb08a56228b159f6d8f2d97bba820", "is_disabled": 0, "fusion_lon": 0.0, "rental_uris": {"android": "https://dc.lft.to/lastmile_qr_scan", "ios": "https://dc.lft.to/lastmile_qr_scan"}, "lat": 38.91699116666667, "lon": -77.0408295, "fusion_lat": 0.0}, {"is_reserved": 0, "bike_id": "9717ca55dab3b587ffa5d7dbf9c04198", "type": "electric_bike", "name": "9717ca55dab3b587ffa5d7dbf9c04198", "is_disabled": 0, "fusion_lon": 0.0, "rental_uris": {"android": "https://dc.lft.to/lastmile_qr_scan", "ios": "https://dc.lft.to/lastmile_qr_scan"}, "lat": 38.85663733333333, "lon": -77.08532116666666, "fusion_lat": 0.0}, {"is_reserved": 0, "bike_id": "3f7bd666d7c111c3d696aec9505fb52a", "type": "electric_scooter", "name": "3f7bd666d7c111c3d696aec9505fb52a", "is_disabled": 0, "fusion_lon": 0.0, "rental_uris": {"android": "https://dc.lft.to/lastmile_qr_scan", "ios": "https://dc.lft.to/lastmile_qr_scan"}, "lat": 38.8817595, "lon": -77.02813383333333, "fusion_lat": 0.0}, {"is_reserved": 0, "bike_id": "8f248af4bd1afff44dfa70f2ba943fd8", "type": "electric_scooter", "name": "8f248af4bd1afff44dfa70f2ba943fd8", "is_disabled": 0, "fusion_lon": 0.0, "rental_uris": {"android": "https://dc.lft.to/lastmile_qr_scan", "ios": "https://dc.lft.to/lastmile_qr_scan"}, "lat": 38.91664883333333, "lon": -77.027086, "fusion_lat": 0.0}, {"is_reserved": 0, "bike_id": "5b5fef6ca4a4d3b4770d622c1f1440cc", "type": "electric_scooter", "name": "5b5fef6ca4a4d3b4770d622c1f1440cc", "is_disabled": 0, "fusion_lon": 0.0, "rental_uris": {"android": "https://dc.lft.to/lastmile_qr_scan", "ios": "https://dc.lft.to/lastmile_qr_scan"}, "lat": 38.92220866666667, "lon": -77.03443816666666, "fusion_lat": 0.0}, {"is_reserved": 0, "bike_id": "e2a165ebfa3ccaa2e2cf0a5d86c58eff", "type": "electric_scooter", "name": "e2a165ebfa3ccaa2e2cf0a5d86c58eff", "is_disabled": 0, "fusion_lon": 0.0, "rental_uris": {"android": "https://dc.lft.to/lastmile_qr_scan", "ios": "https://dc.lft.to/lastmile_qr_scan"}, "lat": 38.914062333333334, "lon": -77.037006, "fusion_lat": 0.0}, {"is_reserved": 0, "bike_id": "58ea68d3500d49c0ebc54104acf8e3f9", "type": "electric_scooter", "name": "58ea68d3500d49c0ebc54104acf8e3f9", "is_disabled": 0, "fusion_lon": 0.0, "rental_uris": {"android": "https://dc.lft.to/lastmile_qr_scan", "ios": "https://dc.lft.to/lastmile_qr_scan"}, "lat": 38.90056166666667, "lon": -77.01717583333334, "fusion_lat": 0.0}, {"is_reserved": 0, "bike_id": "08e3ffd918649745c14f4d296f653db7", "type": "electric_scooter", "name": "08e3ffd918649745c14f4d296f653db7", "is_disabled": 0, "fusion_lon": 0.0, "rental_uris": {"android": "https://dc.lft.to/lastmile_qr_scan", "ios": "https://dc.lft.to/lastmile_qr_scan"}, "lat": 38.90070433333333, "lon": -77.0122355, "fusion_lat": 0.0}, {"is_reserved": 0, "bike_id": "52cc68886a0a53b6ee6de10b71c953dc", "type": "electric_scooter", "name": "52cc68886a0a53b6ee6de10b71c953dc", "is_disabled": 0, "fusion_lon": 0.0, "rental_uris": {"android": "https://dc.lft.to/lastmile_qr_scan", "ios": "https://dc.lft.to/lastmile_qr_scan"}, "lat": 38.90345216666667, "lon": -77.01606166666667, "fusion_lat": 0.0}, {"is_reserved": 0, "bike_id": "c753cb8ce8d64e286271517362e87861", "type": "electric_scooter", "name": "c753cb8ce8d64e286271517362e87861", "is_disabled": 0, "fusion_lon": 0.0, "rental_uris": {"android": "https://dc.lft.to/lastmile_qr_scan", "ios": "https://dc.lft.to/lastmile_qr_scan"}, "lat": 38.90265016666667, "lon": -77.01910133333334, "fusion_lat": 0.0}, {"is_reserved": 0, "bike_id": "4cb70ac44ff3e76be18b5ecc7623a9db", "type": "electric_scooter", "name": "4cb70ac44ff3e76be18b5ecc7623a9db", "is_disabled": 0, "fusion_lon": 0.0, "rental_uris": {"android": "https://dc.lft.to/lastmile_qr_scan", "ios": "https://dc.lft.to/lastmile_qr_scan"}, "lat": 38.905894833333335, "lon": -76.98545983333334, "fusion_lat": 0.0}, {"is_reserved": 0, "bike_id": "b2ebb5edfb183636c1faa0c37b1fba82", "type": "electric_scooter", "name": "b2ebb5edfb183636c1faa0c37b1fba82", "is_disabled": 0, "fusion_lon": 0.0, "rental_uris": {"android": "https://dc.lft.to/lastmile_qr_scan", "ios": "https://dc.lft.to/lastmile_qr_scan"}, "lat": 38.87646066666667, "lon": -77.00571766666667, "fusion_lat": 0.0}, {"is_reserved": 0, "bike_id": "57cc28f889143eef92e560d287679de4", "type": "electric_scooter", "name": "57cc28f889143eef92e560d287679de4", "is_disabled": 0, "fusion_lon": 0.0, "rental_uris": {"android": "https://dc.lft.to/lastmile_qr_scan", "ios": "https://dc.lft.to/lastmile_qr_scan"}, "lat": 38.91685, "lon": -77.02946766666666, "fusion_lat": 0.0}, {"is_reserved": 0, "bike_id": "1fa20307a161add286ec6b711fa17443", "type": "electric_scooter", "name": "1fa20307a161add286ec6b711fa17443", "is_disabled": 0, "fusion_lon": 0.0, "rental_uris": {"android": "https://dc.lft.to/lastmile_qr_scan", "ios": "https://dc.lft.to/lastmile_qr_scan"}, "lat": 38.923611666666666, "lon": -77.07234066666666, "fusion_lat": 0.0}, {"is_reserved": 0, "bike_id": "e72022a6a960e23a1169cf3360f4c34c", "type": "electric_scooter", "name": "e72022a6a960e23a1169cf3360f4c34c", "is_disabled": 0, "fusion_lon": 0.0, "rental_uris": {"android": "https://dc.lft.to/lastmile_qr_scan", "ios": "https://dc.lft.to/lastmile_qr_scan"}, "lat": 38.892195, "lon": -77.04496166666667, "fusion_lat": 0.0}, {"is_reserved": 0, "bike_id": "2fb0265de80d44cdd1bcd3e50ddf761e", "type": "electric_bike", "name": "2fb0265de80d44cdd1bcd3e50ddf761e", "is_disabled": 0, "fusion_lon": 0.0, "rental_uris": {"android": "https://dc.lft.to/lastmile_qr_scan", "ios": "https://dc.lft.to/lastmile_qr_scan"}, "lat": 38.82205833333333, "lon": -76.97702233333334, "fusion_lat": 0.0}, {"is_reserved": 0, "bike_id": "c509c7bd29c6e368b589629932182b79", "type": "electric_scooter", "name": "c509c7bd29c6e368b589629932182b79", "is_disabled": 0, "fusion_lon": 0.0, "rental_uris": {"android": "https://dc.lft.to/lastmile_qr_scan", "ios": "https://dc.lft.to/lastmile_qr_scan"}, "lat": 38.93447716666667, "lon": -77.03071566666667, "fusion_lat": 0.0}, {"is_reserved": 0, "bike_id": "8f8984302e2c509f3ce5d0665ad2a8f2", "type": "electric_scooter", "name": "8f8984302e2c509f3ce5d0665ad2a8f2", "is_disabled": 0, "fusion_lon": 0.0, "rental_uris": {"android": "https://dc.lft.to/lastmile_qr_scan", "ios": "https://dc.lft.to/lastmile_qr_scan"}, "lat": 38.878960666666664, "lon": -76.9351905, "fusion_lat": 0.0}, {"is_reserved": 0, "bike_id": "af99a538df25ecc30902e48e6c0186ea", "type": "electric_scooter", "name": "af99a538df25ecc30902e48e6c0186ea", "is_disabled": 0, "fusion_lon": 0.0, "rental_uris": {"android": "https://dc.lft.to/lastmile_qr_scan", "ios": "https://dc.lft.to/lastmile_qr_scan"}, "lat": 38.929154, "lon": -77.03477, "fusion_lat": 0.0}, {"is_reserved": 0, "bike_id": "dd4585dca8f3eb907a2a8e1208d57d46", "type": "electric_scooter", "name": "dd4585dca8f3eb907a2a8e1208d57d46", "is_disabled": 0, "fusion_lon": 0.0, "rental_uris": {"android": "https://dc.lft.to/lastmile_qr_scan", "ios": "https://dc.lft.to/lastmile_qr_scan"}, "lat": 38.957346, "lon": -77.02388133333334, "fusion_lat": 0.0}, {"is_reserved": 0, "bike_id": "d2a5fc650b4f5f2abbbfdc61e060ed36", "type": "electric_scooter", "name": "d2a5fc650b4f5f2abbbfdc61e060ed36", "is_disabled": 0, "fusion_lon": 0.0, "rental_uris": {"android": "https://dc.lft.to/lastmile_qr_scan", "ios": "https://dc.lft.to/lastmile_qr_scan"}, "lat": 38.8997675, "lon": -76.99142983333333, "fusion_lat": 0.0}, {"is_reserved": 0, "bike_id": "d9af45bf56dd2d0634df9c80ca10cf94", "type": "electric_scooter", "name": "d9af45bf56dd2d0634df9c80ca10cf94", "is_disabled": 0, "fusion_lon": 0.0, "rental_uris": {"android": "https://dc.lft.to/lastmile_qr_scan", "ios": "https://dc.lft.to/lastmile_qr_scan"}, "lat": 38.915538, "lon": -77.031711, "fusion_lat": 0.0}, {"is_reserved": 0, "bike_id": "94a17ca64a6eddb46b5f13ad467389cb", "type": "electric_scooter", "name": "94a17ca64a6eddb46b5f13ad467389cb", "is_disabled": 0, "fusion_lon": 0.0, "rental_uris": {"android": "https://dc.lft.to/lastmile_qr_scan", "ios": "https://dc.lft.to/lastmile_qr_scan"}, "lat": 38.921726666666665, "lon": -77.0219245, "fusion_lat": 0.0}, {"is_reserved": 0, "bike_id": "03671faeb603e18207408bcb48ec7a78", "type": "electric_scooter", "name": "03671faeb603e18207408bcb48ec7a78", "is_disabled": 0, "fusion_lon": 0.0, "rental_uris": {"android": "https://dc.lft.to/lastmile_qr_scan", "ios": "https://dc.lft.to/lastmile_qr_scan"}, "lat": 38.91602116666667, "lon": -77.04159233333333, "fusion_lat": 0.0}, {"is_reserved": 0, "bike_id": "944ed4790e3d41a6430d33fb68d79cf0", "type": "electric_scooter", "name": "944ed4790e3d41a6430d33fb68d79cf0", "is_disabled": 0, "fusion_lon": 0.0, "rental_uris": {"android": "https://dc.lft.to/lastmile_qr_scan", "ios": "https://dc.lft.to/lastmile_qr_scan"}, "lat": 38.8922095, "lon": -77.04866866666667, "fusion_lat": 0.0}, {"is_reserved": 0, "bike_id": "e07d57648bcaacc210146b53fb06714d", "type": "electric_scooter", "name": "e07d57648bcaacc210146b53fb06714d", "is_disabled": 0, "fusion_lon": 0.0, "rental_uris": {"android": "https://dc.lft.to/lastmile_qr_scan", "ios": "https://dc.lft.to/lastmile_qr_scan"}, "lat": 38.92695333333333, "lon": -77.02575316666666, "fusion_lat": 0.0}, {"is_reserved": 0, "bike_id": "326bc5e801ed95c931397267bb0cb5b3", "type": "electric_scooter", "name": "326bc5e801ed95c931397267bb0cb5b3", "is_disabled": 0, "fusion_lon": 0.0, "rental_uris": {"android": "https://dc.lft.to/lastmile_qr_scan", "ios": "https://dc.lft.to/lastmile_qr_scan"}, "lat": 38.895537, "lon": -76.93053083333334, "fusion_lat": 0.0}, {"is_reserved": 0, "bike_id": "6653f067669feefb98444e9ec8533ab4", "type": "electric_scooter", "name": "6653f067669feefb98444e9ec8533ab4", "is_disabled": 0, "fusion_lon": 0.0, "rental_uris": {"android": "https://dc.lft.to/lastmile_qr_scan", "ios": "https://dc.lft.to/lastmile_qr_scan"}, "lat": 38.92305483333333, "lon": -77.03654666666667, "fusion_lat": 0.0}, {"is_reserved": 0, "bike_id": "b5c2cf8687e81c1f9d84141c5f769e10", "type": "electric_scooter", "name": "b5c2cf8687e81c1f9d84141c5f769e10", "is_disabled": 0, "fusion_lon": 0.0, "rental_uris": {"android": "https://dc.lft.to/lastmile_qr_scan", "ios": "https://dc.lft.to/lastmile_qr_scan"}, "lat": 38.92295466666667, "lon": -77.04141033333333, "fusion_lat": 0.0}, {"is_reserved": 0, "bike_id": "678acc9fd48804b24d55d880b16a47f0", "type": "electric_scooter", "name": "678acc9fd48804b24d55d880b16a47f0", "is_disabled": 0, "fusion_lon": 0.0, "rental_uris": {"android": "https://dc.lft.to/lastmile_qr_scan", "ios": "https://dc.lft.to/lastmile_qr_scan"}, "lat": 38.905390833333335, "lon": -77.02207366666667, "fusion_lat": 0.0}, {"is_reserved": 0, "bike_id": "6a78738cd08794af76f2d0dce63267ed", "type": "electric_scooter", "name": "6a78738cd08794af76f2d0dce63267ed", "is_disabled": 0, "fusion_lon": 0.0, "rental_uris": {"android": "https://dc.lft.to/lastmile_qr_scan", "ios": "https://dc.lft.to/lastmile_qr_scan"}, "lat": 38.900749166666664, "lon": -77.05403316666667, "fusion_lat": 0.0}, {"is_reserved": 0, "bike_id": "360074f9c481d3db84c7fd3dc145ace3", "type": "electric_scooter", "name": "360074f9c481d3db84c7fd3dc145ace3", "is_disabled": 0, "fusion_lon": 0.0, "rental_uris": {"android": "https://dc.lft.to/lastmile_qr_scan", "ios": "https://dc.lft.to/lastmile_qr_scan"}, "lat": 38.88507416666667, "lon": -77.011151, "fusion_lat": 0.0}, {"is_reserved": 0, "bike_id": "7d182a05e2dd97e62ee2a7d351cadb0c", "type": "electric_scooter", "name": "7d182a05e2dd97e62ee2a7d351cadb0c", "is_disabled": 0, "fusion_lon": 0.0, "rental_uris": {"android": "https://dc.lft.to/lastmile_qr_scan", "ios": "https://dc.lft.to/lastmile_qr_scan"}, "lat": 38.9361905, "lon": -77.032827, "fusion_lat": 0.0}, {"is_reserved": 0, "bike_id": "8e4ff92f0d375be7a33fce6de56d3e33", "type": "electric_scooter", "name": "8e4ff92f0d375be7a33fce6de56d3e33", "is_disabled": 0, "fusion_lon": 0.0, "rental_uris": {"android": "https://dc.lft.to/lastmile_qr_scan", "ios": "https://dc.lft.to/lastmile_qr_scan"}, "lat": 38.92495233333333, "lon": -77.03930083333333, "fusion_lat": 0.0}, {"is_reserved": 0, "bike_id": "d9a8b948bce513c0c38cc4992089f863", "type": "electric_scooter", "name": "d9a8b948bce513c0c38cc4992089f863", "is_disabled": 0, "fusion_lon": 0.0, "rental_uris": {"android": "https://dc.lft.to/lastmile_qr_scan", "ios": "https://dc.lft.to/lastmile_qr_scan"}, "lat": 38.90020633333334, "lon": -77.033294, "fusion_lat": 0.0}, {"is_reserved": 0, "bike_id": "3e1c4b963fd3dfe426fe1eecd5233bdd", "type": "electric_scooter", "name": "3e1c4b963fd3dfe426fe1eecd5233bdd", "is_disabled": 0, "fusion_lon": 0.0, "rental_uris": {"android": "https://dc.lft.to/lastmile_qr_scan", "ios": "https://dc.lft.to/lastmile_qr_scan"}, "lat": 38.924182333333334, "lon": -77.01940566666667, "fusion_lat": 0.0}, {"is_reserved": 0, "bike_id": "c8edd524c6d9281ebce27b6d6a03b30c", "type": "electric_scooter", "name": "c8edd524c6d9281ebce27b6d6a03b30c", "is_disabled": 0, "fusion_lon": 0.0, "rental_uris": {"android": "https://dc.lft.to/lastmile_qr_scan", "ios": "https://dc.lft.to/lastmile_qr_scan"}, "lat": 38.9160845, "lon": -77.02129, "fusion_lat": 0.0}, {"is_reserved": 0, "bike_id": "697961a8e3fc0e472df0ed7d0ffdf972", "type": "electric_bike", "name": "697961a8e3fc0e472df0ed7d0ffdf972", "is_disabled": 0, "fusion_lon": 0.0, "rental_uris": {"android": "https://dc.lft.to/lastmile_qr_scan", "ios": "https://dc.lft.to/lastmile_qr_scan"}, "lat": 38.99223766666667, "lon": -77.03585183333334, "fusion_lat": 0.0}, {"is_reserved": 0, "bike_id": "df68214223468f3b25eab1868a671403", "type": "electric_scooter", "name": "df68214223468f3b25eab1868a671403", "is_disabled": 0, "fusion_lon": 0.0, "rental_uris": {"android": "https://dc.lft.to/lastmile_qr_scan", "ios": "https://dc.lft.to/lastmile_qr_scan"}, "lat": 38.915790333333334, "lon": -77.01456383333333, "fusion_lat": 0.0}, {"is_reserved": 0, "bike_id": "5eb21df165c02ee57d863ed4e493ec40", "type": "electric_scooter", "name": "5eb21df165c02ee57d863ed4e493ec40", "is_disabled": 0, "fusion_lon": 0.0, "rental_uris": {"android": "https://dc.lft.to/lastmile_qr_scan", "ios": "https://dc.lft.to/lastmile_qr_scan"}, "lat": 38.89934083333333, "lon": -77.02821116666667, "fusion_lat": 0.0}, {"is_reserved": 0, "bike_id": "e8459d05e7292991f06367704b8c7bb9", "type": "electric_scooter", "name": "e8459d05e7292991f06367704b8c7bb9", "is_disabled": 0, "fusion_lon": 0.0, "rental_uris": {"android": "https://dc.lft.to/lastmile_qr_scan", "ios": "https://dc.lft.to/lastmile_qr_scan"}, "lat": 38.91926933333333, "lon": -77.034258, "fusion_lat": 0.0}, {"is_reserved": 0, "bike_id": "0485fb37e72cd094647bac86ea6a9762", "type": "electric_bike", "name": "0485fb37e72cd094647bac86ea6a9762", "is_disabled": 0, "fusion_lon": 0.0, "rental_uris": {"android": "https://dc.lft.to/lastmile_qr_scan", "ios": "https://dc.lft.to/lastmile_qr_scan"}, "lat": 38.836034, "lon": -77.00379033333333, "fusion_lat": 0.0}, {"is_reserved": 0, "bike_id": "bdf0399d737062b7bf879fca1953f986", "type": "electric_scooter", "name": "bdf0399d737062b7bf879fca1953f986", "is_disabled": 0, "fusion_lon": 0.0, "rental_uris": {"android": "https://dc.lft.to/lastmile_qr_scan", "ios": "https://dc.lft.to/lastmile_qr_scan"}, "lat": 38.966467, "lon": -77.02746483333334, "fusion_lat": 0.0}, {"is_reserved": 0, "bike_id": "cf9868f1a5bff1e84bf3f8916a27c6e8", "type": "electric_scooter", "name": "cf9868f1a5bff1e84bf3f8916a27c6e8", "is_disabled": 0, "fusion_lon": 0.0, "rental_uris": {"android": "https://dc.lft.to/lastmile_qr_scan", "ios": "https://dc.lft.to/lastmile_qr_scan"}, "lat": 38.92866383333333, "lon": -77.0339675, "fusion_lat": 0.0}, {"is_reserved": 0, "bike_id": "27fd97c515566d7433935f74528b56c2", "type": "electric_bike", "name": "27fd97c515566d7433935f74528b56c2", "is_disabled": 0, "fusion_lon": 0.0, "rental_uris": {"android": "https://dc.lft.to/lastmile_qr_scan", "ios": "https://dc.lft.to/lastmile_qr_scan"}, "lat": 38.838046, "lon": -77.00277966666667, "fusion_lat": 0.0}, {"is_reserved": 0, "bike_id": "297ddc5e49c79d33c1c34c973c67f2ca", "type": "electric_scooter", "name": "297ddc5e49c79d33c1c34c973c67f2ca", "is_disabled": 0, "fusion_lon": 0.0, "rental_uris": {"android": "https://dc.lft.to/lastmile_qr_scan", "ios": "https://dc.lft.to/lastmile_qr_scan"}, "lat": 38.914757333333334, "lon": -77.01884333333334, "fusion_lat": 0.0}, {"is_reserved": 0, "bike_id": "b5b8633578309cbea9770e59be439c01", "type": "electric_scooter", "name": "b5b8633578309cbea9770e59be439c01", "is_disabled": 0, "fusion_lon": 0.0, "rental_uris": {"android": "https://dc.lft.to/lastmile_qr_scan", "ios": "https://dc.lft.to/lastmile_qr_scan"}, "lat": 38.89735616666667, "lon": -77.0078025, "fusion_lat": 0.0}, {"is_reserved": 0, "bike_id": "917caa6d31c204a78af47f143fccfb06", "type": "electric_scooter", "name": "917caa6d31c204a78af47f143fccfb06", "is_disabled": 0, "fusion_lon": 0.0, "rental_uris": {"android": "https://dc.lft.to/lastmile_qr_scan", "ios": "https://dc.lft.to/lastmile_qr_scan"}, "lat": 38.899805, "lon": -77.024548, "fusion_lat": 0.0}, {"is_reserved": 0, "bike_id": "257d6ac5acd32aeb0b37830f5741dc2d", "type": "electric_bike", "name": "257d6ac5acd32aeb0b37830f5741dc2d", "is_disabled": 0, "fusion_lon": 0.0, "rental_uris": {"android": "https://dc.lft.to/lastmile_qr_scan", "ios": "https://dc.lft.to/lastmile_qr_scan"}, "lat": 38.921106, "lon": -76.988788, "fusion_lat": 0.0}, {"is_reserved": 0, "bike_id": "a10aaf98cfe7b1ea3b5d96d8cef9524b", "type": "electric_scooter", "name": "a10aaf98cfe7b1ea3b5d96d8cef9524b", "is_disabled": 0, "fusion_lon": 0.0, "rental_uris": {"android": "https://dc.lft.to/lastmile_qr_scan", "ios": "https://dc.lft.to/lastmile_qr_scan"}, "lat": 38.917387, "lon": -77.02290716666667, "fusion_lat": 0.0}, {"is_reserved": 0, "bike_id": "d29c19c607aa8e2c4a0f12821d92c25a", "type": "electric_bike", "name": "d29c19c607aa8e2c4a0f12821d92c25a", "is_disabled": 0, "fusion_lon": 0.0, "rental_uris": {"android": "https://dc.lft.to/lastmile_qr_scan", "ios": "https://dc.lft.to/lastmile_qr_scan"}, "lat": 38.830625, "lon": -77.04078183333333, "fusion_lat": 0.0}, {"is_reserved": 0, "bike_id": "f3489bcbc5d26fba80674292ccb0a339", "type": "electric_scooter", "name": "f3489bcbc5d26fba80674292ccb0a339", "is_disabled": 0, "fusion_lon": 0.0, "rental_uris": {"android": "https://dc.lft.to/lastmile_qr_scan", "ios": "https://dc.lft.to/lastmile_qr_scan"}, "lat": 38.9012445, "lon": -77.03836283333334, "fusion_lat": 0.0}, {"is_reserved": 0, "bike_id": "d18bd858b211d82c542b2c262f1f174d", "type": "electric_scooter", "name": "d18bd858b211d82c542b2c262f1f174d", "is_disabled": 0, "fusion_lon": 0.0, "rental_uris": {"android": "https://dc.lft.to/lastmile_qr_scan", "ios": "https://dc.lft.to/lastmile_qr_scan"}, "lat": 38.9036465, "lon": -77.007552, "fusion_lat": 0.0}, {"is_reserved": 0, "bike_id": "cf00b1d34e24991e8a952c66bb2322e0", "type": "electric_scooter", "name": "cf00b1d34e24991e8a952c66bb2322e0", "is_disabled": 0, "fusion_lon": 0.0, "rental_uris": {"android": "https://dc.lft.to/lastmile_qr_scan", "ios": "https://dc.lft.to/lastmile_qr_scan"}, "lat": 38.919306, "lon": -77.04496616666667, "fusion_lat": 0.0}, {"is_reserved": 0, "bike_id": "5107e6ee88bdbec136986faacf0645b4", "type": "electric_scooter", "name": "5107e6ee88bdbec136986faacf0645b4", "is_disabled": 0, "fusion_lon": 0.0, "rental_uris": {"android": "https://dc.lft.to/lastmile_qr_scan", "ios": "https://dc.lft.to/lastmile_qr_scan"}, "lat": 38.923289833333335, "lon": -77.04628633333333, "fusion_lat": 0.0}, {"is_reserved": 0, "bike_id": "9f77411be9517abbb7bee590fe6e3091", "type": "electric_scooter", "name": "9f77411be9517abbb7bee590fe6e3091", "is_disabled": 0, "fusion_lon": 0.0, "rental_uris": {"android": "https://dc.lft.to/lastmile_qr_scan", "ios": "https://dc.lft.to/lastmile_qr_scan"}, "lat": 38.89956033333333, "lon": -76.98554616666667, "fusion_lat": 0.0}, {"is_reserved": 0, "bike_id": "35ea636dd3c5953456102c16350678ad", "type": "electric_scooter", "name": "35ea636dd3c5953456102c16350678ad", "is_disabled": 0, "fusion_lon": 0.0, "rental_uris": {"android": "https://dc.lft.to/lastmile_qr_scan", "ios": "https://dc.lft.to/lastmile_qr_scan"}, "lat": 38.88731933333333, "lon": -77.02578433333333, "fusion_lat": 0.0}, {"is_reserved": 0, "bike_id": "06b5ecd8332001ca972dff45f3c83bfe", "type": "electric_scooter", "name": "06b5ecd8332001ca972dff45f3c83bfe", "is_disabled": 0, "fusion_lon": 0.0, "rental_uris": {"android": "https://dc.lft.to/lastmile_qr_scan", "ios": "https://dc.lft.to/lastmile_qr_scan"}, "lat": 38.92811433333333, "lon": -77.02734833333334, "fusion_lat": 0.0}, {"is_reserved": 0, "bike_id": "abe60a3b6489dbd1ecf11fbfada26cea", "type": "electric_scooter", "name": "abe60a3b6489dbd1ecf11fbfada26cea", "is_disabled": 0, "fusion_lon": 0.0, "rental_uris": {"android": "https://dc.lft.to/lastmile_qr_scan", "ios": "https://dc.lft.to/lastmile_qr_scan"}, "lat": 38.894741333333336, "lon": -77.02676233333334, "fusion_lat": 0.0}, {"is_reserved": 0, "bike_id": "d32d47dbcdd08785572371b957ed6b9f", "type": "electric_scooter", "name": "d32d47dbcdd08785572371b957ed6b9f", "is_disabled": 0, "fusion_lon": 0.0, "rental_uris": {"android": "https://dc.lft.to/lastmile_qr_scan", "ios": "https://dc.lft.to/lastmile_qr_scan"}, "lat": 38.916574, "lon": -77.04382983333333, "fusion_lat": 0.0}, {"is_reserved": 0, "bike_id": "e782d5383718a833edbedd4b90d54753", "type": "electric_scooter", "name": "e782d5383718a833edbedd4b90d54753", "is_disabled": 0, "fusion_lon": 0.0, "rental_uris": {"android": "https://dc.lft.to/lastmile_qr_scan", "ios": "https://dc.lft.to/lastmile_qr_scan"}, "lat": 38.903735833333336, "lon": -76.987125, "fusion_lat": 0.0}, {"is_reserved": 0, "bike_id": "75264b732c9526c4151f75f3aba1759d", "type": "electric_scooter", "name": "75264b732c9526c4151f75f3aba1759d", "is_disabled": 0, "fusion_lon": 0.0, "rental_uris": {"android": "https://dc.lft.to/lastmile_qr_scan", "ios": "https://dc.lft.to/lastmile_qr_scan"}, "lat": 38.918991166666665, "lon": -77.03130383333334, "fusion_lat": 0.0}, {"is_reserved": 0, "bike_id": "db7e71a8c075b4e5068c40d60b89eeb6", "type": "electric_scooter", "name": "db7e71a8c075b4e5068c40d60b89eeb6", "is_disabled": 0, "fusion_lon": 0.0, "rental_uris": {"android": "https://dc.lft.to/lastmile_qr_scan", "ios": "https://dc.lft.to/lastmile_qr_scan"}, "lat": 38.904121333333336, "lon": -76.973304, "fusion_lat": 0.0}, {"is_reserved": 0, "bike_id": "80fdad08a6d2b14f9c0a287384bae205", "type": "electric_scooter", "name": "80fdad08a6d2b14f9c0a287384bae205", "is_disabled": 0, "fusion_lon": 0.0, "rental_uris": {"android": "https://dc.lft.to/lastmile_qr_scan", "ios": "https://dc.lft.to/lastmile_qr_scan"}, "lat": 38.91232266666667, "lon": -77.0188865, "fusion_lat": 0.0}, {"is_reserved": 0, "bike_id": "4128616558c2af60beb808a128b2fd5a", "type": "electric_scooter", "name": "4128616558c2af60beb808a128b2fd5a", "is_disabled": 0, "fusion_lon": 0.0, "rental_uris": {"android": "https://dc.lft.to/lastmile_qr_scan", "ios": "https://dc.lft.to/lastmile_qr_scan"}, "lat": 38.913464166666664, "lon": -77.03183033333333, "fusion_lat": 0.0}, {"is_reserved": 0, "bike_id": "61a6af9eb5edd52549b3d25a3fcbbe93", "type": "electric_scooter", "name": "61a6af9eb5edd52549b3d25a3fcbbe93", "is_disabled": 0, "fusion_lon": 0.0, "rental_uris": {"android": "https://dc.lft.to/lastmile_qr_scan", "ios": "https://dc.lft.to/lastmile_qr_scan"}, "lat": 38.911856, "lon": -77.03261516666667, "fusion_lat": 0.0}, {"is_reserved": 0, "bike_id": "6150e41cdf4f9a1a893a214697d7e5c7", "type": "electric_scooter", "name": "6150e41cdf4f9a1a893a214697d7e5c7", "is_disabled": 0, "fusion_lon": 0.0, "rental_uris": {"android": "https://dc.lft.to/lastmile_qr_scan", "ios": "https://dc.lft.to/lastmile_qr_scan"}, "lat": 38.919239833333336, "lon": -77.07995283333334, "fusion_lat": 0.0}, {"is_reserved": 0, "bike_id": "9cf2274f775e41183adc8f93b7b1a38f", "type": "electric_scooter", "name": "9cf2274f775e41183adc8f93b7b1a38f", "is_disabled": 0, "fusion_lon": 0.0, "rental_uris": {"android": "https://dc.lft.to/lastmile_qr_scan", "ios": "https://dc.lft.to/lastmile_qr_scan"}, "lat": 38.90647383333334, "lon": -77.00597483333334, "fusion_lat": 0.0}, {"is_reserved": 0, "bike_id": "5e16ddabee3abf74880d6d77aae16716", "type": "electric_scooter", "name": "5e16ddabee3abf74880d6d77aae16716", "is_disabled": 0, "fusion_lon": 0.0, "rental_uris": {"android": "https://dc.lft.to/lastmile_qr_scan", "ios": "https://dc.lft.to/lastmile_qr_scan"}, "lat": 38.922523166666664, "lon": -77.01969533333333, "fusion_lat": 0.0}, {"is_reserved": 0, "bike_id": "8862747b81bfd530e1e728858f7e8118", "type": "electric_scooter", "name": "8862747b81bfd530e1e728858f7e8118", "is_disabled": 0, "fusion_lon": 0.0, "rental_uris": {"android": "https://dc.lft.to/lastmile_qr_scan", "ios": "https://dc.lft.to/lastmile_qr_scan"}, "lat": 38.942970833333334, "lon": -77.0588725, "fusion_lat": 0.0}, {"is_reserved": 0, "bike_id": "e4eabfd0b3963eb6b524662fcf742403", "type": "electric_scooter", "name": "e4eabfd0b3963eb6b524662fcf742403", "is_disabled": 0, "fusion_lon": 0.0, "rental_uris": {"android": "https://dc.lft.to/lastmile_qr_scan", "ios": "https://dc.lft.to/lastmile_qr_scan"}, "lat": 38.8717925, "lon": -77.00599766666667, "fusion_lat": 0.0}, {"is_reserved": 0, "bike_id": "7a65de187cd9f8a8c001b2cf35dd358c", "type": "electric_scooter", "name": "7a65de187cd9f8a8c001b2cf35dd358c", "is_disabled": 0, "fusion_lon": 0.0, "rental_uris": {"android": "https://dc.lft.to/lastmile_qr_scan", "ios": "https://dc.lft.to/lastmile_qr_scan"}, "lat": 38.9041245, "lon": -77.0659145, "fusion_lat": 0.0}, {"is_reserved": 0, "bike_id": "a9fe16fb05dd657ba1e0815795b89045", "type": "electric_scooter", "name": "a9fe16fb05dd657ba1e0815795b89045", "is_disabled": 0, "fusion_lon": 0.0, "rental_uris": {"android": "https://dc.lft.to/lastmile_qr_scan", "ios": "https://dc.lft.to/lastmile_qr_scan"}, "lat": 38.902806166666664, "lon": -77.001896, "fusion_lat": 0.0}, {"is_reserved": 0, "bike_id": "c5f335db62b82f890b66994e334186ca", "type": "electric_scooter", "name": "c5f335db62b82f890b66994e334186ca", "is_disabled": 0, "fusion_lon": 0.0, "rental_uris": {"android": "https://dc.lft.to/lastmile_qr_scan", "ios": "https://dc.lft.to/lastmile_qr_scan"}, "lat": 38.9184625, "lon": -77.0129285, "fusion_lat": 0.0}, {"is_reserved": 0, "bike_id": "6d647b43c705457aa1ad32de08547918", "type": "electric_scooter", "name": "6d647b43c705457aa1ad32de08547918", "is_disabled": 0, "fusion_lon": 0.0, "rental_uris": {"android": "https://dc.lft.to/lastmile_qr_scan", "ios": "https://dc.lft.to/lastmile_qr_scan"}, "lat": 38.91269, "lon": -77.01679233333333, "fusion_lat": 0.0}, {"is_reserved": 0, "bike_id": "566f67d4e7450dccf1e7284365a7df4f", "type": "electric_scooter", "name": "566f67d4e7450dccf1e7284365a7df4f", "is_disabled": 0, "fusion_lon": 0.0, "rental_uris": {"android": "https://dc.lft.to/lastmile_qr_scan", "ios": "https://dc.lft.to/lastmile_qr_scan"}, "lat": 38.900954166666665, "lon": -76.98337183333334, "fusion_lat": 0.0}, {"is_reserved": 0, "bike_id": "e682cea82a91ac3b49243940079bc364", "type": "electric_scooter", "name": "e682cea82a91ac3b49243940079bc364", "is_disabled": 0, "fusion_lon": 0.0, "rental_uris": {"android": "https://dc.lft.to/lastmile_qr_scan", "ios": "https://dc.lft.to/lastmile_qr_scan"}, "lat": 38.89834333333334, "lon": -77.04033333333334, "fusion_lat": 0.0}, {"is_reserved": 0, "bike_id": "f6b144c8e633f6c09d5e8e2573a61616", "type": "electric_scooter", "name": "f6b144c8e633f6c09d5e8e2573a61616", "is_disabled": 0, "fusion_lon": 0.0, "rental_uris": {"android": "https://dc.lft.to/lastmile_qr_scan", "ios": "https://dc.lft.to/lastmile_qr_scan"}, "lat": 38.897278166666666, "lon": -77.0552395, "fusion_lat": 0.0}, {"is_reserved": 0, "bike_id": "4cefef47be1a061f6ae8ded92f108925", "type": "electric_scooter", "name": "4cefef47be1a061f6ae8ded92f108925", "is_disabled": 0, "fusion_lon": 0.0, "rental_uris": {"android": "https://dc.lft.to/lastmile_qr_scan", "ios": "https://dc.lft.to/lastmile_qr_scan"}, "lat": 38.930397, "lon": -77.03217833333333, "fusion_lat": 0.0}, {"is_reserved": 0, "bike_id": "c23e8f1ea29ca73f8011f61b364e1242", "type": "electric_scooter", "name": "c23e8f1ea29ca73f8011f61b364e1242", "is_disabled": 0, "fusion_lon": 0.0, "rental_uris": {"android": "https://dc.lft.to/lastmile_qr_scan", "ios": "https://dc.lft.to/lastmile_qr_scan"}, "lat": 38.912725333333334, "lon": -77.071514, "fusion_lat": 0.0}, {"is_reserved": 0, "bike_id": "4906e08f0eb2b2ffac209f6797cd1a2c", "type": "electric_scooter", "name": "4906e08f0eb2b2ffac209f6797cd1a2c", "is_disabled": 0, "fusion_lon": 0.0, "rental_uris": {"android": "https://dc.lft.to/lastmile_qr_scan", "ios": "https://dc.lft.to/lastmile_qr_scan"}, "lat": 38.902606, "lon": -77.01828616666667, "fusion_lat": 0.0}, {"is_reserved": 0, "bike_id": "5288adc9402bb753959ad219cfe11fb7", "type": "electric_scooter", "name": "5288adc9402bb753959ad219cfe11fb7", "is_disabled": 0, "fusion_lon": 0.0, "rental_uris": {"android": "https://dc.lft.to/lastmile_qr_scan", "ios": "https://dc.lft.to/lastmile_qr_scan"}, "lat": 38.9060205, "lon": -77.0637115, "fusion_lat": 0.0}, {"is_reserved": 0, "bike_id": "3e6d7cc55b6998b4aaf68c1adba9af75", "type": "electric_scooter", "name": "3e6d7cc55b6998b4aaf68c1adba9af75", "is_disabled": 0, "fusion_lon": 0.0, "rental_uris": {"android": "https://dc.lft.to/lastmile_qr_scan", "ios": "https://dc.lft.to/lastmile_qr_scan"}, "lat": 38.94313016666667, "lon": -77.0615015, "fusion_lat": 0.0}, {"is_reserved": 0, "bike_id": "f293abc81d4d550010c8f5ba68d04466", "type": "electric_bike", "name": "f293abc81d4d550010c8f5ba68d04466", "is_disabled": 0, "fusion_lon": 0.0, "rental_uris": {"android": "https://dc.lft.to/lastmile_qr_scan", "ios": "https://dc.lft.to/lastmile_qr_scan"}, "lat": 38.92907733333333, "lon": -77.023896, "fusion_lat": 0.0}, {"is_reserved": 0, "bike_id": "ef76a4947acf09f9aa9b22e0d907a952", "type": "electric_scooter", "name": "ef76a4947acf09f9aa9b22e0d907a952", "is_disabled": 0, "fusion_lon": 0.0, "rental_uris": {"android": "https://dc.lft.to/lastmile_qr_scan", "ios": "https://dc.lft.to/lastmile_qr_scan"}, "lat": 38.9046195, "lon": -77.02819533333333, "fusion_lat": 0.0}, {"is_reserved": 0, "bike_id": "328b0a18f79f534a02b4a725ad6636c6", "type": "electric_scooter", "name": "328b0a18f79f534a02b4a725ad6636c6", "is_disabled": 0, "fusion_lon": 0.0, "rental_uris": {"android": "https://dc.lft.to/lastmile_qr_scan", "ios": "https://dc.lft.to/lastmile_qr_scan"}, "lat": 38.902914833333334, "lon": -77.02418166666666, "fusion_lat": 0.0}, {"is_reserved": 0, "bike_id": "e3d74b4ebed2a5b0b12669d8fa21bc97", "type": "electric_scooter", "name": "e3d74b4ebed2a5b0b12669d8fa21bc97", "is_disabled": 0, "fusion_lon": 0.0, "rental_uris": {"android": "https://dc.lft.to/lastmile_qr_scan", "ios": "https://dc.lft.to/lastmile_qr_scan"}, "lat": 38.962716, "lon": -77.03020533333333, "fusion_lat": 0.0}, {"is_reserved": 0, "bike_id": "b62e667d4cedc7bd16f4fb46e5f4b15c", "type": "electric_scooter", "name": "b62e667d4cedc7bd16f4fb46e5f4b15c", "is_disabled": 0, "fusion_lon": 0.0, "rental_uris": {"android": "https://dc.lft.to/lastmile_qr_scan", "ios": "https://dc.lft.to/lastmile_qr_scan"}, "lat": 38.91655, "lon": -77.0230755, "fusion_lat": 0.0}, {"is_reserved": 0, "bike_id": "bd1ed930312276c95c4307bb728f301c", "type": "electric_scooter", "name": "bd1ed930312276c95c4307bb728f301c", "is_disabled": 0, "fusion_lon": 0.0, "rental_uris": {"android": "https://dc.lft.to/lastmile_qr_scan", "ios": "https://dc.lft.to/lastmile_qr_scan"}, "lat": 38.91732116666667, "lon": -77.0683985, "fusion_lat": 0.0}, {"is_reserved": 0, "bike_id": "73da652f65dbc742a991e925ea7dbaa5", "type": "electric_scooter", "name": "73da652f65dbc742a991e925ea7dbaa5", "is_disabled": 0, "fusion_lon": 0.0, "rental_uris": {"android": "https://dc.lft.to/lastmile_qr_scan", "ios": "https://dc.lft.to/lastmile_qr_scan"}, "lat": 38.920421166666664, "lon": -77.03886083333333, "fusion_lat": 0.0}, {"is_reserved": 0, "bike_id": "72c004f1504ee786e8dc8b4e120a2611", "type": "electric_bike", "name": "72c004f1504ee786e8dc8b4e120a2611", "is_disabled": 0, "fusion_lon": 0.0, "rental_uris": {"android": "https://dc.lft.to/lastmile_qr_scan", "ios": "https://dc.lft.to/lastmile_qr_scan"}, "lat": 38.9456965, "lon": -76.98114699999999, "fusion_lat": 0.0},