{"data": {"bikes": [{"lon": -76.9318815, "bike_id": "eb972c4d6e72f8fd56e4cab8755ddd8e", "lat": 38.89879716666667, "fusion_lon": 0.0, "fusion_lat": 0.0, "type": "electric_scooter", "name": "eb972c4d6e72f8fd56e4cab8755ddd8e", "is_disabled": 0, "rental_uris": {"ios": "https://dc.lft.to/lastmile_qr_scan", "android": "https://dc.lft.to/lastmile_qr_scan"}, "is_reserved": 0}, {"lon": -76.98542516666667, "bike_id": "6c9940a4d8fcbc76b370c2577a070b73", "lat": 38.896602333333334, "fusion_lon": 0.0, "fusion_lat": 0.0, "type": "electric_scooter", "name": "6c9940a4d8fcbc76b370c2577a070b73", "is_disabled": 0, "rental_uris": {"ios": "https://dc.lft.to/lastmile_qr_scan", "android": "https://dc.lft.to/lastmile_qr_scan"}, "is_reserved": 0}, {"lon": -77.03664683333334, "bike_id": "61132c37731dddb13b37d6173833fb60", "lat": 38.918185, "fusion_lon": 0.0, "fusion_lat": 0.0, "type": "electric_scooter", "name": "61132c37731dddb13b37d6173833fb60", "is_disabled": 0, "rental_uris": {"ios": "https://dc.lft.to/lastmile_qr_scan", "android": "https://dc.lft.to/lastmile_qr_scan"}, "is_reserved": 0}, {"lon": -77.0527075, "bike_id": "339850155ffed69a6ddb6accb0f2e81a", "lat": 38.899721, "fusion_lon": 0.0, "fusion_lat": 0.0, "type": "electric_scooter", "name": "339850155ffed69a6ddb6accb0f2e81a", "is_disabled": 0, "rental_uris": {"ios": "https://dc.lft.to/lastmile_qr_scan", "android": "https://dc.lft.to/lastmile_qr_scan"}, "is_reserved": 0}, {"lon": -77.05359716666666, "bike_id": "c1225bf9a0dfb92168a8e62313f6b83a", "lat": 38.927235833333334, "fusion_lon": 0.0, "fusion_lat": 0.0, "type": "electric_scooter", "name": "c1225bf9a0dfb92168a8e62313f6b83a", "is_disabled": 0, "rental_uris": {"ios": "https://dc.lft.to/lastmile_qr_scan", "android": "https://dc.lft.to/lastmile_qr_scan"}, "is_reserved": 0}, {"lon": -77.03855016666667, "bike_id": "137f083cf1a2a2b6f22e1961f4f90de7", "lat": 38.91786583333333, "fusion_lon": 0.0, "fusion_lat": 0.0, "type": "electric_scooter", "name": "137f083cf1a2a2b6f22e1961f4f90de7", "is_disabled": 0, "rental_uris": {"ios": "https://dc.lft.to/lastmile_qr_scan", "android": "https://dc.lft.to/lastmile_qr_scan"}, "is_reserved": 0}, {"lon": -77.054475, "bike_id": "9ad045387883a0667e51356a54366dd1", "lat": 38.943640333333335, "fusion_lon": 0.0, "fusion_lat": 0.0, "type": "electric_bike", "name": "9ad045387883a0667e51356a54366dd1", "is_disabled": 0, "rental_uris": {"ios": "https://dc.lft.to/lastmile_qr_scan", "android": "https://dc.lft.to/lastmile_qr_scan"}, "is_reserved": 0}, {"lon": -76.990173, "bike_id": "32ab42c8b8055e14cba16cf0fa6d0b60", "lat": 38.881628666666664, "fusion_lon": 0.0, "fusion_lat": 0.0, "type": "electric_scooter", "name": "32ab42c8b8055e14cba16cf0fa6d0b60", "is_disabled": 0, "rental_uris": {"ios": "https://dc.lft.to/lastmile_qr_scan", "android": "https://dc.lft.to/lastmile_qr_scan"}, "is_reserved": 0}, {"lon": -77.01938916666667, "bike_id": "66b9b1bdb463e36cd79e02da732b5972", "lat": 38.93693366666667, "fusion_lon": 0.0, "fusion_lat": 0.0, "type": "electric_scooter", "name": "66b9b1bdb463e36cd79e02da732b5972", "is_disabled": 0, "rental_uris": {"ios": "https://dc.lft.to/lastmile_qr_scan", "android": "https://dc.lft.to/lastmile_qr_scan"}, "is_reserved": 0}, {"lon": -77.04697183333333, "bike_id": "9fa97b7647b57563a1cf9cc4ba9f5e47", "lat": 38.920634666666665, "fusion_lon": 0.0, "fusion_lat": 0.0, "type": "electric_scooter", "name": "9fa97b7647b57563a1cf9cc4ba9f5e47", "is_disabled": 0, "rental_uris": {"ios": "https://dc.lft.to/lastmile_qr_scan", "android": "https://dc.lft.to/lastmile_qr_scan"}, "is_reserved": 0}, {"lon": -76.9953115, "bike_id": "9b9168c23d29c0ef383418ce9ddd3f35", "lat": 38.883704, "fusion_lon": 0.0, "fusion_lat": 0.0, "type": "electric_scooter", "name": "9b9168c23d29c0ef383418ce9ddd3f35", "is_disabled": 0, "rental_uris": {"ios": "https://dc.lft.to/lastmile_qr_scan", "android": "https://dc.lft.to/lastmile_qr_scan"}, "is_reserved": 0}, {"lon": -77.01418666666666, "bike_id": "54fd93bb787c443d3f9ad341671084be", "lat": 38.928329166666664, "fusion_lon": 0.0, "fusion_lat": 0.0, "type": "electric_scooter", "name": "54fd93bb787c443d3f9ad341671084be", "is_disabled": 0, "rental_uris": {"ios": "https://dc.lft.to/lastmile_qr_scan", "android": "https://dc.lft.to/lastmile_qr_scan"}, "is_reserved": 0}, {"lon": -77.04214183333333, "bike_id": "a6aa5f703d90598a37b727b4b266498d", "lat": 38.921106333333334, "fusion_lon": 0.0, "fusion_lat": 0.0, "type": "electric_scooter", "name": "a6aa5f703d90598a37b727b4b266498d", "is_disabled": 0, "rental_uris": {"ios": "https://dc.lft.to/lastmile_qr_scan", "android": "https://dc.lft.to/lastmile_qr_scan"}, "is_reserved": 0}, {"lon": -77.0211525, "bike_id": "3988b6f9a3e59372991164a46c9f70dc", "lat": 38.9530405, "fusion_lon": 0.0, "fusion_lat": 0.0, "type": "electric_bike", "name": "3988b6f9a3e59372991164a46c9f70dc", "is_disabled": 0, "rental_uris": {"ios": "https://dc.lft.to/lastmile_qr_scan", "android": "https://dc.lft.to/lastmile_qr_scan"}, "is_reserved": 0}, {"lon": -77.109162, "bike_id": "6fc07cf3ebbf5b6f5c79670569494c87", "lat": 39.052019, "fusion_lon": 0.0, "fusion_lat": 0.0, "type": "electric_bike", "name": "6fc07cf3ebbf5b6f5c79670569494c87", "is_disabled": 0, "rental_uris": {"ios": "https://dc.lft.to/lastmile_qr_scan", "android": "https://dc.lft.to/lastmile_qr_scan"}, "is_reserved": 0}, {"lon": -77.02711233333333, "bike_id": "3648d368bb455e6208583535ab3caedc", "lat": 38.92768916666667, "fusion_lon": 0.0, "fusion_lat": 0.0, "type": "electric_scooter", "name": "3648d368bb455e6208583535ab3caedc", "is_disabled": 0, "rental_uris": {"ios": "https://dc.lft.to/lastmile_qr_scan", "android": "https://dc.lft.to/lastmile_qr_scan"}, "is_reserved": 0}, {"lon": -77.065117, "bike_id": "d93f39b2a3b3efb2e378159102573a87", "lat": 38.905895666666666, "fusion_lon": 0.0, "fusion_lat": 0.0, "type": "electric_scooter", "name": "d93f39b2a3b3efb2e378159102573a87", "is_disabled": 0, "rental_uris": {"ios": "https://dc.lft.to/lastmile_qr_scan", "android": "https://dc.lft.to/lastmile_qr_scan"}, "is_reserved": 0}, {"lon": -77.04605, "bike_id": "0e4107d9b67f3890ae8bd56b26974681", "lat": 38.883877166666664, "fusion_lon": 0.0, "fusion_lat": 0.0, "type": "electric_scooter", "name": "0e4107d9b67f3890ae8bd56b26974681", "is_disabled": 0, "rental_uris": {"ios": "https://dc.lft.to/lastmile_qr_scan", "android": "https://dc.lft.to/lastmile_qr_scan"}, "is_reserved": 0}, {"lon": -76.92997183333334, "bike_id": "03d8da177271b915d036bd3c36565abc", "lat": 38.90185566666667, "fusion_lon": 0.0, "fusion_lat": 0.0, "type": "electric_scooter", "name": "03d8da177271b915d036bd3c36565abc", "is_disabled": 0, "rental_uris": {"ios": "https://dc.lft.to/lastmile_qr_scan", "android": "https://dc.lft.to/lastmile_qr_scan"}, "is_reserved": 0}, {"lon": -77.03485216666667, "bike_id": "7bf4254236a284be4349ed0139647a13", "lat": 38.9208745, "fusion_lon": 0.0, "fusion_lat": 0.0, "type": "electric_scooter", "name": "7bf4254236a284be4349ed0139647a13", "is_disabled": 0, "rental_uris": {"ios": "https://dc.lft.to/lastmile_qr_scan", "android": "https://dc.lft.to/lastmile_qr_scan"}, "is_reserved": 0}, {"lon": -77.02080583333333, "bike_id": "d1b75353cb06be785be09548697fd8bc", "lat": 38.930114333333336, "fusion_lon": 0.0, "fusion_lat": 0.0, "type": "electric_scooter", "name": "d1b75353cb06be785be09548697fd8bc", "is_disabled": 0, "rental_uris": {"ios": "https://dc.lft.to/lastmile_qr_scan", "android": "https://dc.lft.to/lastmile_qr_scan"}, "is_reserved": 0}, {"lon": -77.038837, "bike_id": "112d164c01818863f0c96a43e0612631", "lat": 38.920076333333334, "fusion_lon": 0.0, "fusion_lat": 0.0, "type": "electric_scooter", "name": "112d164c01818863f0c96a43e0612631", "is_disabled": 0, "rental_uris": {"ios": "https://dc.lft.to/lastmile_qr_scan", "android": "https://dc.lft.to/lastmile_qr_scan"}, "is_reserved": 0}, {"lon": -77.03130816666666, "bike_id": "ca8bf3516fda847e8c0ec276ccffc952", "lat": 38.91566983333333, "fusion_lon": 0.0, "fusion_lat": 0.0, "type": "electric_scooter", "name": "ca8bf3516fda847e8c0ec276ccffc952", "is_disabled": 0, "rental_uris": {"ios": "https://dc.lft.to/lastmile_qr_scan", "android": "https://dc.lft.to/lastmile_qr_scan"}, "is_reserved": 0}, {"lon": -76.96525183333333, "bike_id": "86a7c80954b72b20bc0d2bbc2821f34a", "lat": 38.87632933333333, "fusion_lon": 0.0, "fusion_lat": 0.0, "type": "electric_scooter", "name": "86a7c80954b72b20bc0d2bbc2821f34a", "is_disabled": 0, "rental_uris": {"ios": "https://dc.lft.to/lastmile_qr_scan", "android": "https://dc.lft.to/lastmile_qr_scan"}, "is_reserved": 0}, {"lon": -77.00563916666667, "bike_id": "1639751b0188f0fa23502f16db728cb9", "lat": 38.905726333333334, "fusion_lon": 0.0, "fusion_lat": 0.0, "type": "electric_scooter", "name": "1639751b0188f0fa23502f16db728cb9", "is_disabled": 0, "rental_uris": {"ios": "https://dc.lft.to/lastmile_qr_scan", "android": "https://dc.lft.to/lastmile_qr_scan"}, "is_reserved": 0}, {"lon": -77.038521, "bike_id": "ee85734af4fb266fb9613c6b8cc16b5a", "lat": 38.93131616666667, "fusion_lon": 0.0, "fusion_lat": 0.0, "type": "electric_scooter", "name": "ee85734af4fb266fb9613c6b8cc16b5a", "is_disabled": 0, "rental_uris": {"ios": "https://dc.lft.to/lastmile_qr_scan", "android": "https://dc.lft.to/lastmile_qr_scan"}, "is_reserved": 0}, {"lon": -77.10024833333334, "bike_id": "9d938d2fa2fd7eb1ef2a176b2fc3b17d", "lat": 38.8713845, "fusion_lon": 0.0, "fusion_lat": 0.0, "type": "electric_bike", "name": "9d938d2fa2fd7eb1ef2a176b2fc3b17d", "is_disabled": 0, "rental_uris": {"ios": "https://dc.lft.to/lastmile_qr_scan", "android": "https://dc.lft.to/lastmile_qr_scan"}, "is_reserved": 0}, {"lon": -77.02354233333334, "bike_id": "0e80b5b231f081b65cfea8e849293f7d", "lat": 38.93535383333333, "fusion_lon": 0.0, "fusion_lat": 0.0, "type": "electric_scooter", "name": "0e80b5b231f081b65cfea8e849293f7d", "is_disabled": 0, "rental_uris": {"ios": "https://dc.lft.to/lastmile_qr_scan", "android": "https://dc.lft.to/lastmile_qr_scan"}, "is_reserved": 0}, {"lon": -77.02874916666667, "bike_id": "19238fe7809b92f9f115daa0cb6735bb", "lat": 38.917012166666666, "fusion_lon": 0.0, "fusion_lat": 0.0, "type": "electric_scooter", "name": "19238fe7809b92f9f115daa0cb6735bb", "is_disabled": 0, "rental_uris": {"ios": "https://dc.lft.to/lastmile_qr_scan", "android": "https://dc.lft.to/lastmile_qr_scan"}, "is_reserved": 0}, {"lon": -76.98726116666667, "bike_id": "e68ed2c69c599de2d01c90fb578409a8", "lat": 38.867185, "fusion_lon": 0.0, "fusion_lat": 0.0, "type": "electric_scooter", "name": "e68ed2c69c599de2d01c90fb578409a8", "is_disabled": 0, "rental_uris": {"ios": "https://dc.lft.to/lastmile_qr_scan", "android": "https://dc.lft.to/lastmile_qr_scan"}, "is_reserved": 0}, {"lon": -77.03311483333333, "bike_id": "7ddd81927e6e994b23b9e4d276133086", "lat": 38.9035905, "fusion_lon": 0.0, "fusion_lat": 0.0, "type": "electric_scooter", "name": "7ddd81927e6e994b23b9e4d276133086", "is_disabled": 0, "rental_uris": {"ios": "https://dc.lft.to/lastmile_qr_scan", "android": "https://dc.lft.to/lastmile_qr_scan"}, "is_reserved": 0}, {"lon": -76.9870645, "bike_id": "ea1197a6848fb0cddb910f06ad666e7d", "lat": 38.865420666666665, "fusion_lon": 0.0, "fusion_lat": 0.0, "type": "electric_scooter", "name": "ea1197a6848fb0cddb910f06ad666e7d", "is_disabled": 0, "rental_uris": {"ios": "https://dc.lft.to/lastmile_qr_scan", "android": "https://dc.lft.to/lastmile_qr_scan"}, "is_reserved": 0}, {"lon": -76.99333933333334, "bike_id": "2c80b37bce654b51161e2e650f031ba9", "lat": 38.871438166666664, "fusion_lon": 0.0, "fusion_lat": 0.0, "type": "electric_scooter", "name": "2c80b37bce654b51161e2e650f031ba9", "is_disabled": 0, "rental_uris": {"ios": "https://dc.lft.to/lastmile_qr_scan", "android": "https://dc.lft.to/lastmile_qr_scan"}, "is_reserved": 0}, {"lon": -76.94887316666667, "bike_id": "85f74d11ca6292ec7fe818789047cc71", "lat": 38.895107833333334, "fusion_lon": 0.0, "fusion_lat": 0.0, "type": "electric_scooter", "name": "85f74d11ca6292ec7fe818789047cc71", "is_disabled": 0, "rental_uris": {"ios": "https://dc.lft.to/lastmile_qr_scan", "android": "https://dc.lft.to/lastmile_qr_scan"}, "is_reserved": 0}, {"lon": -77.02729783333334, "bike_id": "e6ba6e419bd101b63b4c049e677f9701", "lat": 38.91078016666667, "fusion_lon": 0.0, "fusion_lat": 0.0, "type": "electric_scooter", "name": "e6ba6e419bd101b63b4c049e677f9701", "is_disabled": 0, "rental_uris": {"ios": "https://dc.lft.to/lastmile_qr_scan", "android": "https://dc.lft.to/lastmile_qr_scan"}, "is_reserved": 0}, {"lon": -76.9809435, "bike_id": "e919f0c9cf20426755bda765853e2f59", "lat": 38.95359366666667, "fusion_lon": 0.0, "fusion_lat": 0.0, "type": "electric_bike", "name": "e919f0c9cf20426755bda765853e2f59", "is_disabled": 0, "rental_uris": {"ios": "https://dc.lft.to/lastmile_qr_scan", "android": "https://dc.lft.to/lastmile_qr_scan"}, "is_reserved": 0}, {"lon": -77.0166385, "bike_id": "eaa97ed17265d14c0b86078dc091318f", "lat": 38.881151333333335, "fusion_lon": 0.0, "fusion_lat": 0.0, "type": "electric_scooter", "name": "eaa97ed17265d14c0b86078dc091318f", "is_disabled": 0, "rental_uris": {"ios": "https://dc.lft.to/lastmile_qr_scan", "android": "https://dc.lft.to/lastmile_qr_scan"}, "is_reserved": 0}, {"lon": -77.0241795, "bike_id": "7282072c5c52c539b23bec679ae964ed", "lat": 38.89987983333333, "fusion_lon": 0.0, "fusion_lat": 0.0, "type": "electric_scooter", "name": "7282072c5c52c539b23bec679ae964ed", "is_disabled": 0, "rental_uris": {"ios": "https://dc.lft.to/lastmile_qr_scan", "android": "https://dc.lft.to/lastmile_qr_scan"}, "is_reserved": 0}, {"lon": -77.02086983333334, "bike_id": "61b1e7e51f6643c13d863fdc9b0b7516", "lat": 38.9574405, "fusion_lon": 0.0, "fusion_lat": 0.0, "type": "electric_scooter", "name": "61b1e7e51f6643c13d863fdc9b0b7516", "is_disabled": 0, "rental_uris": {"ios": "https://dc.lft.to/lastmile_qr_scan", "android": "https://dc.lft.to/lastmile_qr_scan"}, "is_reserved": 0}, {"lon": -77.02626116666667, "bike_id": "2417bba478fb9b9e2583698f1af738cd", "lat": 38.89725833333333, "fusion_lon": 0.0, "fusion_lat": 0.0, "type": "electric_scooter", "name": "2417bba478fb9b9e2583698f1af738cd", "is_disabled": 0, "rental_uris": {"ios": "https://dc.lft.to/lastmile_qr_scan", "android": "https://dc.lft.to/lastmile_qr_scan"}, "is_reserved": 0}, {"lon": -76.99001116666666, "bike_id": "3f1361ce521dfc848f38807e941fa5b3", "lat": 38.86505983333333, "fusion_lon": 0.0, "fusion_lat": 0.0, "type": "electric_scooter", "name": "3f1361ce521dfc848f38807e941fa5b3", "is_disabled": 0, "rental_uris": {"ios": "https://dc.lft.to/lastmile_qr_scan", "android": "https://dc.lft.to/lastmile_qr_scan"}, "is_reserved": 0}, {"lon": -77.05575533333334, "bike_id": "fede8836a833d0e06564a384062db322", "lat": 38.91600416666667, "fusion_lon": 0.0, "fusion_lat": 0.0, "type": "electric_scooter", "name": "fede8836a833d0e06564a384062db322", "is_disabled": 0, "rental_uris": {"ios": "https://dc.lft.to/lastmile_qr_scan", "android": "https://dc.lft.to/lastmile_qr_scan"}, "is_reserved": 0}, {"lon": -77.02331266666667, "bike_id": "08a12d10e3a6c683870ae21787624389", "lat": 38.92226466666666, "fusion_lon": 0.0, "fusion_lat": 0.0, "type": "electric_scooter", "name": "08a12d10e3a6c683870ae21787624389", "is_disabled": 0, "rental_uris": {"ios": "https://dc.lft.to/lastmile_qr_scan", "android": "https://dc.lft.to/lastmile_qr_scan"}, "is_reserved": 0}, {"lon": -77.04387516666667, "bike_id": "9d52586c48a7ed09d199c75f7c0ea655", "lat": 38.9089475, "fusion_lon": 0.0, "fusion_lat": 0.0, "type": "electric_scooter", "name": "9d52586c48a7ed09d199c75f7c0ea655", "is_disabled": 0, "rental_uris": {"ios": "https://dc.lft.to/lastmile_qr_scan", "android": "https://dc.lft.to/lastmile_qr_scan"}, "is_reserved": 0}, {"lon": -77.03336283333333, "bike_id": "9e94d0cb6ec6b66caf4068ac473aa7ab", "lat": 38.936431666666664, "fusion_lon": 0.0, "fusion_lat": 0.0, "type": "electric_scooter", "name": "9e94d0cb6ec6b66caf4068ac473aa7ab", "is_disabled": 0, "rental_uris": {"ios": "https://dc.lft.to/lastmile_qr_scan", "android": "https://dc.lft.to/lastmile_qr_scan"}, "is_reserved": 0}, {"lon": -77.03961016666666, "bike_id": "f6fcec49fb6a5d4ca047d597e965cdad", "lat": 38.902338666666665, "fusion_lon": 0.0, "fusion_lat": 0.0, "type": "electric_scooter", "name": "f6fcec49fb6a5d4ca047d597e965cdad", "is_disabled": 0, "rental_uris": {"ios": "https://dc.lft.to/lastmile_qr_scan", "android": "https://dc.lft.to/lastmile_qr_scan"}, "is_reserved": 0}, {"lon": -77.02435516666667, "bike_id": "93422ed4c35d1059833c4704ac6195c8", "lat": 38.9226075, "fusion_lon": 0.0, "fusion_lat": 0.0, "type": "electric_scooter", "name": "93422ed4c35d1059833c4704ac6195c8", "is_disabled": 0, "rental_uris": {"ios": "https://dc.lft.to/lastmile_qr_scan", "android": "https://dc.lft.to/lastmile_qr_scan"}, "is_reserved": 0}, {"lon": -76.99013466666666, "bike_id": "49726d887c47454f67881fa72d9add35", "lat": 38.9460445, "fusion_lon": 0.0, "fusion_lat": 0.0, "type": "electric_scooter", "name": "49726d887c47454f67881fa72d9add35", "is_disabled": 0, "rental_uris": {"ios": "https://dc.lft.to/lastmile_qr_scan", "android": "https://dc.lft.to/lastmile_qr_scan"}, "is_reserved": 0}, {"lon": -76.99483, "bike_id": "5f0849e5007895323af52e7d5c92584f", "lat": 38.87953233333333, "fusion_lon": 0.0, "fusion_lat": 0.0, "type": "electric_scooter", "name": "5f0849e5007895323af52e7d5c92584f", "is_disabled": 0, "rental_uris": {"ios": "https://dc.lft.to/lastmile_qr_scan", "android": "https://dc.lft.to/lastmile_qr_scan"}, "is_reserved": 0}, {"lon": -77.038592, "bike_id": "adb21f29b25309a1dfed71f88c816d3a", "lat": 38.9201695, "fusion_lon": 0.0, "fusion_lat": 0.0, "type": "electric_scooter", "name": "adb21f29b25309a1dfed71f88c816d3a", "is_disabled": 0, "rental_uris": {"ios": "https://dc.lft.to/lastmile_qr_scan", "android": "https://dc.lft.to/lastmile_qr_scan"}, "is_reserved": 0}, {"lon": -76.989858, "bike_id": "8cb2822252222a1595a56181cc97ec1f", "lat": 38.859269833333336, "fusion_lon": 0.0, "fusion_lat": 0.0, "type": "electric_scooter", "name": "8cb2822252222a1595a56181cc97ec1f", "is_disabled": 0, "rental_uris": {"ios": "https://dc.lft.to/lastmile_qr_scan", "android": "https://dc.lft.to/lastmile_qr_scan"}, "is_reserved": 0}, {"lon": -76.99367233333334, "bike_id": "57a31e57f3a9029f51022d7202bd59f3", "lat": 38.940259833333336, "fusion_lon": 0.0, "fusion_lat": 0.0, "type": "electric_scooter", "name": "57a31e57f3a9029f51022d7202bd59f3", "is_disabled": 0, "rental_uris": {"ios": "https://dc.lft.to/lastmile_qr_scan", "android": "https://dc.lft.to/lastmile_qr_scan"}, "is_reserved": 0}, {"lon": -77.04979083333333, "bike_id": "142ebc56d0acb7368a3b0934249e999d", "lat": 39.062980833333334, "fusion_lon": 0.0, "fusion_lat": 0.0, "type": "electric_bike", "name": "142ebc56d0acb7368a3b0934249e999d", "is_disabled": 0, "rental_uris": {"ios": "https://dc.lft.to/lastmile_qr_scan", "android": "https://dc.lft.to/lastmile_qr_scan"}, "is_reserved": 0}, {"lon": -77.05142983333333, "bike_id": "7969213bdcbb4dc7258d50eb3d910812", "lat": 38.898700166666664, "fusion_lon": 0.0, "fusion_lat": 0.0, "type": "electric_scooter", "name": "7969213bdcbb4dc7258d50eb3d910812", "is_disabled": 0, "rental_uris": {"ios": "https://dc.lft.to/lastmile_qr_scan", "android": "https://dc.lft.to/lastmile_qr_scan"}, "is_reserved": 0}, {"lon": -76.998526, "bike_id": "e5e242ccd1f2db6f15de605880d6d09b", "lat": 38.90102016666667, "fusion_lon": 0.0, "fusion_lat": 0.0, "type": "electric_scooter", "name": "e5e242ccd1f2db6f15de605880d6d09b", "is_disabled": 0, "rental_uris": {"ios": "https://dc.lft.to/lastmile_qr_scan", "android": "https://dc.lft.to/lastmile_qr_scan"}, "is_reserved": 0}, {"lon": -77.0766495, "bike_id": "fba4a7c94b06aba2d3df468827bdde93", "lat": 38.86277916666667, "fusion_lon": 0.0, "fusion_lat": 0.0, "type": "electric_bike", "name": "fba4a7c94b06aba2d3df468827bdde93", "is_disabled": 0, "rental_uris": {"ios": "https://dc.lft.to/lastmile_qr_scan", "android": "https://dc.lft.to/lastmile_qr_scan"}, "is_reserved": 0}, {"lon": -77.0366235, "bike_id": "887792f9240433cc1a11b78048a82e5b", "lat": 38.9298575, "fusion_lon": 0.0, "fusion_lat": 0.0, "type": "electric_scooter", "name": "887792f9240433cc1a11b78048a82e5b", "is_disabled": 0, "rental_uris": {"ios": "https://dc.lft.to/lastmile_qr_scan", "android": "https://dc.lft.to/lastmile_qr_scan"}, "is_reserved": 0}, {"lon": -76.9415615, "bike_id": "8ed7a2cc58944e42350988916049c303", "lat": 38.908328833333336, "fusion_lon": 0.0, "fusion_lat": 0.0, "type": "electric_bike", "name": "8ed7a2cc58944e42350988916049c303", "is_disabled": 0, "rental_uris": {"ios": "https://dc.lft.to/lastmile_qr_scan", "android": "https://dc.lft.to/lastmile_qr_scan"}, "is_reserved": 0}, {"lon": -77.06413416666666, "bike_id": "00594f4d4a63edaeaa53e24259e0efaa", "lat": 38.993298333333335, "fusion_lon": 0.0, "fusion_lat": 0.0, "type": "electric_scooter", "name": "00594f4d4a63edaeaa53e24259e0efaa", "is_disabled": 0, "rental_uris": {"ios": "https://dc.lft.to/lastmile_qr_scan", "android": "https://dc.lft.to/lastmile_qr_scan"}, "is_reserved": 0}, {"lon": -77.02967683333334, "bike_id": "7f99eb9b46207f5feedd7c8f012f1409", "lat": 38.91459316666667, "fusion_lon": 0.0, "fusion_lat": 0.0, "type": "electric_scooter", "name": "7f99eb9b46207f5feedd7c8f012f1409", "is_disabled": 0, "rental_uris": {"ios": "https://dc.lft.to/lastmile_qr_scan", "android": "https://dc.lft.to/lastmile_qr_scan"}, "is_reserved": 0}, {"lon": -76.96526483333334, "bike_id": "3b7ca6112ba86ccbfb84ba165ff116ba", "lat": 38.87631066666667, "fusion_lon": 0.0, "fusion_lat": 0.0, "type": "electric_scooter", "name": "3b7ca6112ba86ccbfb84ba165ff116ba", "is_disabled": 0, "rental_uris": {"ios": "https://dc.lft.to/lastmile_qr_scan", "android": "https://dc.lft.to/lastmile_qr_scan"}, "is_reserved": 0}, {"lon": -77.03517, "bike_id": "a46dc90d0bc96d0209306a4082baadf4", "lat": 38.92722766666667, "fusion_lon": 0.0, "fusion_lat": 0.0, "type": "electric_scooter", "name": "a46dc90d0bc96d0209306a4082baadf4", "is_disabled": 0, "rental_uris": {"ios": "https://dc.lft.to/lastmile_qr_scan", "android": "https://dc.lft.to/lastmile_qr_scan"}, "is_reserved": 0}, {"lon": -77.03627966666667, "bike_id": "0275e5c7145dd1200dfa9b373baed4d9", "lat": 38.94495516666667, "fusion_lon": 0.0, "fusion_lat": 0.0, "type": "electric_scooter", "name": "0275e5c7145dd1200dfa9b373baed4d9", "is_disabled": 0, "rental_uris": {"ios": "https://dc.lft.to/lastmile_qr_scan", "android": "https://dc.lft.to/lastmile_qr_scan"}, "is_reserved": 0}, {"lon": -77.03956516666666, "bike_id": "5529e55ef7d5b1b0f9f8bc59fbf3354d", "lat": 38.9156185, "fusion_lon": 0.0, "fusion_lat": 0.0, "type": "electric_scooter", "name": "5529e55ef7d5b1b0f9f8bc59fbf3354d", "is_disabled": 0, "rental_uris": {"ios": "https://dc.lft.to/lastmile_qr_scan", "android": "https://dc.lft.to/lastmile_qr_scan"}, "is_reserved": 0}, {"lon": -76.9754525, "bike_id": "385be39da44811f18197a5a9797b650e", "lat": 38.90315066666667, "fusion_lon": 0.0, "fusion_lat": 0.0, "type": "electric_scooter", "name": "385be39da44811f18197a5a9797b650e", "is_disabled": 0, "rental_uris": {"ios": "https://dc.lft.to/lastmile_qr_scan", "android": "https://dc.lft.to/lastmile_qr_scan"}, "is_reserved": 0}, {"lon": -77.019916, "bike_id": "98d84b844df3e9686058b17d80261ca7", "lat": 38.90151016666667, "fusion_lon": 0.0, "fusion_lat": 0.0, "type": "electric_scooter", "name": "98d84b844df3e9686058b17d80261ca7", "is_disabled": 0, "rental_uris": {"ios": "https://dc.lft.to/lastmile_qr_scan", "android": "https://dc.lft.to/lastmile_qr_scan"}, "is_reserved": 0}, {"lon": -77.02978316666666, "bike_id": "f9d66e78934313681e7a1bfdc8634c2f", "lat": 38.939364833333336, "fusion_lon": 0.0, "fusion_lat": 0.0, "type": "electric_scooter", "name": "f9d66e78934313681e7a1bfdc8634c2f", "is_disabled": 0, "rental_uris": {"ios": "https://dc.lft.to/lastmile_qr_scan", "android": "https://dc.lft.to/lastmile_qr_scan"}, "is_reserved": 0}, {"lon": -77.03793683333333, "bike_id": "5832eafd3dd5218b7f91086797462a75", "lat": 38.92568283333333, "fusion_lon": 0.0, "fusion_lat": 0.0, "type": "electric_scooter", "name": "5832eafd3dd5218b7f91086797462a75", "is_disabled": 0, "rental_uris": {"ios": "https://dc.lft.to/lastmile_qr_scan", "android": "https://dc.lft.to/lastmile_qr_scan"}, "is_reserved": 0}, {"lon": -77.02181316666666, "bike_id": "93c24ec765294da540d0454edba8caf6", "lat": 38.914827333333335, "fusion_lon": 0.0, "fusion_lat": 0.0, "type": "electric_scooter", "name": "93c24ec765294da540d0454edba8caf6", "is_disabled": 0, "rental_uris": {"ios": "https://dc.lft.to/lastmile_qr_scan", "android": "https://dc.lft.to/lastmile_qr_scan"}, "is_reserved": 0}, {"lon": -76.98737083333333, "bike_id": "abd9b0b83ada3d4d06dd8c7b826f24bc", "lat": 38.86583816666667, "fusion_lon": 0.0, "fusion_lat": 0.0, "type": "electric_bike", "name": "abd9b0b83ada3d4d06dd8c7b826f24bc", "is_disabled": 0, "rental_uris": {"ios": "https://dc.lft.to/lastmile_qr_scan", "android": "https://dc.lft.to/lastmile_qr_scan"}, "is_reserved": 0}, {"lon": -77.03933416666666, "bike_id": "eefeb6a5c07fff96eface8a558591ad4", "lat": 38.917024, "fusion_lon": 0.0, "fusion_lat": 0.0, "type": "electric_scooter", "name": "eefeb6a5c07fff96eface8a558591ad4", "is_disabled": 0, "rental_uris": {"ios": "https://dc.lft.to/lastmile_qr_scan", "android": "https://dc.lft.to/lastmile_qr_scan"}, "is_reserved": 0}, {"lon": -77.05402983333333, "bike_id": "4c46d97d2cda2e609e2937e7fb61e128", "lat": 38.90159833333333, "fusion_lon": 0.0, "fusion_lat": 0.0, "type": "electric_scooter", "name": "4c46d97d2cda2e609e2937e7fb61e128", "is_disabled": 0, "rental_uris": {"ios": "https://dc.lft.to/lastmile_qr_scan", "android": "https://dc.lft.to/lastmile_qr_scan"}, "is_reserved": 0}, {"lon": -77.00541, "bike_id": "157663caaf5102bd580fb4d999c33590", "lat": 38.8746055, "fusion_lon": 0.0, "fusion_lat": 0.0, "type": "electric_scooter", "name": "157663caaf5102bd580fb4d999c33590", "is_disabled": 0, "rental_uris": {"ios": "https://dc.lft.to/lastmile_qr_scan", "android": "https://dc.lft.to/lastmile_qr_scan"}, "is_reserved": 0}, {"lon": -77.0004135, "bike_id": "b33947627a6cb40ddc21651625a55694", "lat": 38.96790016666667, "fusion_lon": 0.0, "fusion_lat": 0.0, "type": "electric_bike", "name": "b33947627a6cb40ddc21651625a55694", "is_disabled": 0, "rental_uris": {"ios": "https://dc.lft.to/lastmile_qr_scan", "android": "https://dc.lft.to/lastmile_qr_scan"}, "is_reserved": 0}, {"lon": -77.01625816666666, "bike_id": "81380288da048205d7dc88768592aca2", "lat": 38.90100233333333, "fusion_lon": 0.0, "fusion_lat": 0.0, "type": "electric_scooter", "name": "81380288da048205d7dc88768592aca2", "is_disabled": 0, "rental_uris": {"ios": "https://dc.lft.to/lastmile_qr_scan", "android": "https://dc.lft.to/lastmile_qr_scan"}, "is_reserved": 0}, {"lon": -77.03203866666666, "bike_id": "91de1db8345f8f4c2d6af498c045a24b", "lat": 38.94412616666666, "fusion_lon": 0.0, "fusion_lat": 0.0, "type": "electric_scooter", "name": "91de1db8345f8f4c2d6af498c045a24b", "is_disabled": 0, "rental_uris": {"ios": "https://dc.lft.to/lastmile_qr_scan", "android": "https://dc.lft.to/lastmile_qr_scan"}, "is_reserved": 0}, {"lon": -77.04323466666666, "bike_id": "2017fc0e9a5d683e261b31dfc95d9858", "lat": 38.90040966666667, "fusion_lon": 0.0, "fusion_lat": 0.0, "type": "electric_scooter", "name": "2017fc0e9a5d683e261b31dfc95d9858", "is_disabled": 0, "rental_uris": {"ios": "https://dc.lft.to/lastmile_qr_scan", "android": "https://dc.lft.to/lastmile_qr_scan"}, "is_reserved": 0}, {"lon": -77.02213616666667, "bike_id": "0c2723b1880c448c6fa0498ca2793356", "lat": 38.898602333333336, "fusion_lon": 0.0, "fusion_lat": 0.0, "type": "electric_scooter", "name": "0c2723b1880c448c6fa0498ca2793356", "is_disabled": 0, "rental_uris": {"ios": "https://dc.lft.to/lastmile_qr_scan", "android": "https://dc.lft.to/lastmile_qr_scan"}, "is_reserved": 0}, {"lon": -77.03766983333334, "bike_id": "555842797a2271c14d3ae35d242550d0", "lat": 38.92948366666667, "fusion_lon": 0.0, "fusion_lat": 0.0, "type": "electric_scooter", "name": "555842797a2271c14d3ae35d242550d0", "is_disabled": 0, "rental_uris": {"ios": "https://dc.lft.to/lastmile_qr_scan", "android": "https://dc.lft.to/lastmile_qr_scan"}, "is_reserved": 0}, {"lon": -77.02371266666667, "bike_id": "7f8f14d8376cb60715d9e5a7a5014473", "lat": 38.90216516666667, "fusion_lon": 0.0, "fusion_lat": 0.0, "type": "electric_scooter", "name": "7f8f14d8376cb60715d9e5a7a5014473", "is_disabled": 0, "rental_uris": {"ios": "https://dc.lft.to/lastmile_qr_scan", "android": "https://dc.lft.to/lastmile_qr_scan"}, "is_reserved": 0}, {"lon": -77.00068983333334, "bike_id": "a2b8052500af0dc5e780cf4e36784f3b", "lat": 38.89731366666667, "fusion_lon": 0.0, "fusion_lat": 0.0, "type": "electric_scooter", "name": "a2b8052500af0dc5e780cf4e36784f3b", "is_disabled": 0, "rental_uris": {"ios": "https://dc.lft.to/lastmile_qr_scan", "android": "https://dc.lft.to/lastmile_qr_scan"}, "is_reserved": 0}, {"lon": -77.08810866666667, "bike_id": "0703b9cfb5be60495d925621cf3f7d04", "lat": 38.911779833333334, "fusion_lon": 0.0, "fusion_lat": 0.0, "type": "electric_bike", "name": "0703b9cfb5be60495d925621cf3f7d04", "is_disabled": 0, "rental_uris": {"ios": "https://dc.lft.to/lastmile_qr_scan", "android": "https://dc.lft.to/lastmile_qr_scan"}, "is_reserved": 0}, {"lon": -76.97614216666666, "bike_id": "848b8adcf59f358b26b438cc2f03df1a", "lat": 38.926535, "fusion_lon": 0.0, "fusion_lat": 0.0, "type": "electric_scooter", "name": "848b8adcf59f358b26b438cc2f03df1a", "is_disabled": 0, "rental_uris": {"ios": "https://dc.lft.to/lastmile_qr_scan", "android": "https://dc.lft.to/lastmile_qr_scan"}, "is_reserved": 0}, {"lon": -77.02222133333333, "bike_id": "7091018f5cc94e39d9c5b1b3d9c3f7b7", "lat": 38.9127395, "fusion_lon": 0.0, "fusion_lat": 0.0, "type": "electric_scooter", "name": "7091018f5cc94e39d9c5b1b3d9c3f7b7", "is_disabled": 0, "rental_uris": {"ios": "https://dc.lft.to/lastmile_qr_scan", "android": "https://dc.lft.to/lastmile_qr_scan"}, "is_reserved": 0}, {"lon": -77.018657, "bike_id": "2de96567266ba420784abfbd786a0eba", "lat": 38.95152983333333, "fusion_lon": 0.0, "fusion_lat": 0.0, "type": "electric_scooter", "name": "2de96567266ba420784abfbd786a0eba", "is_disabled": 0, "rental_uris": {"ios": "https://dc.lft.to/lastmile_qr_scan", "android": "https://dc.lft.to/lastmile_qr_scan"}, "is_reserved": 0}, {"lon": -77.04184633333334, "bike_id": "6058a5df2d22aaaa2b797bbe4f1697e6", "lat": 38.926306, "fusion_lon": 0.0, "fusion_lat": 0.0, "type": "electric_scooter", "name": "6058a5df2d22aaaa2b797bbe4f1697e6", "is_disabled": 0, "rental_uris": {"ios": "https://dc.lft.to/lastmile_qr_scan", "android": "https://dc.lft.to/lastmile_qr_scan"}, "is_reserved": 0}, {"lon": -77.06007333333334, "bike_id": "424d19f2ccd27e970458d6bc4a949e2a", "lat": 38.807281833333334, "fusion_lon": 0.0, "fusion_lat": 0.0, "type": "electric_bike", "name": "424d19f2ccd27e970458d6bc4a949e2a", "is_disabled": 0, "rental_uris": {"ios": "https://dc.lft.to/lastmile_qr_scan", "android": "https://dc.lft.to/lastmile_qr_scan"}, "is_reserved": 0}, {"lon": -76.99781216666666, "bike_id": "9216fee842a9e8c747d15ebda3217b7e", "lat": 38.910530666666666, "fusion_lon": 0.0, "fusion_lat": 0.0, "type": "electric_scooter", "name": "9216fee842a9e8c747d15ebda3217b7e", "is_disabled": 0, "rental_uris": {"ios": "https://dc.lft.to/lastmile_qr_scan", "android": "https://dc.lft.to/lastmile_qr_scan"}, "is_reserved": 0}, {"lon": -77.03925416666667, "bike_id": "5eabacef0b67d65d755a23dcb3b3f495", "lat": 38.9280175, "fusion_lon": 0.0, "fusion_lat": 0.0, "type": "electric_scooter", "name": "5eabacef0b67d65d755a23dcb3b3f495", "is_disabled": 0, "rental_uris": {"ios": "https://dc.lft.to/lastmile_qr_scan", "android": "https://dc.lft.to/lastmile_qr_scan"}, "is_reserved": 0}, {"lon": -77.0363555, "bike_id": "a3d2656caa42fd87f6ee46b9057eb28b", "lat": 38.92464233333333, "fusion_lon": 0.0, "fusion_lat": 0.0, "type": "electric_scooter", "name": "a3d2656caa42fd87f6ee46b9057eb28b", "is_disabled": 0, "rental_uris": {"ios": "https://dc.lft.to/lastmile_qr_scan", "android": "https://dc.lft.to/lastmile_qr_scan"}, "is_reserved": 0}, {"lon": -77.00692483333333, "bike_id": "13400dd64ca9800ff99f36d7dacf9732", "lat": 38.900293, "fusion_lon": 0.0, "fusion_lat": 0.0, "type": "electric_scooter", "name": "13400dd64ca9800ff99f36d7dacf9732", "is_disabled": 0, "rental_uris": {"ios": "https://dc.lft.to/lastmile_qr_scan", "android": "https://dc.lft.to/lastmile_qr_scan"}, "is_reserved": 0}, {"lon": -77.03175016666667, "bike_id": "7d17c4d3bdab8d098e98f63c23191814", "lat": 38.9051625, "fusion_lon": 0.0, "fusion_lat": 0.0, "type": "electric_scooter", "name": "7d17c4d3bdab8d098e98f63c23191814", "is_disabled": 0, "rental_uris": {"ios": "https://dc.lft.to/lastmile_qr_scan", "android": "https://dc.lft.to/lastmile_qr_scan"}, "is_reserved": 0}, {"lon": -76.982314, "bike_id": "9179d81d6d3ceb984aa22d77b28f4264", "lat": 38.916583, "fusion_lon": 0.0, "fusion_lat": 0.0, "type": "electric_scooter", "name": "9179d81d6d3ceb984aa22d77b28f4264", "is_disabled": 0, "rental_uris": {"ios": "https://dc.lft.to/lastmile_qr_scan", "android": "https://dc.lft.to/lastmile_qr_scan"}, "is_reserved": 0}, {"lon": -77.04753283333334, "bike_id": "53806220ad6edb1d300f569f4640dbee", "lat": 38.917748333333336, "fusion_lon": 0.0, "fusion_lat": 0.0, "type": "electric_scooter", "name": "53806220ad6edb1d300f569f4640dbee", "is_disabled": 0, "rental_uris": {"ios": "https://dc.lft.to/lastmile_qr_scan", "android": "https://dc.lft.to/lastmile_qr_scan"}, "is_reserved": 0}, {"lon": -77.03092, "bike_id": "89e3d0473c4c106998af2ffe14cf07e8", "lat": 38.916950166666666, "fusion_lon": 0.0, "fusion_lat": 0.0, "type": "electric_scooter", "name": "89e3d0473c4c106998af2ffe14cf07e8", "is_disabled": 0, "rental_uris": {"ios": "https://dc.lft.to/lastmile_qr_scan", "android": "https://dc.lft.to/lastmile_qr_scan"}, "is_reserved": 0}, {"lon": -77.02960183333333, "bike_id": "d88c6c8b3eb4418d85b465c4ec7d4819", "lat": 38.9064865, "fusion_lon": 0.0, "fusion_lat": 0.0, "type": "electric_scooter", "name": "d88c6c8b3eb4418d85b465c4ec7d4819", "is_disabled": 0, "rental_uris": {"ios": "https://dc.lft.to/lastmile_qr_scan", "android": "https://dc.lft.to/lastmile_qr_scan"}, "is_reserved": 0}, {"lon": -77.02232366666667, "bike_id": "05bc716cce304d1b76caa52a8e0396bf", "lat": 38.962036166666664, "fusion_lon": 0.0, "fusion_lat": 0.0, "type": "electric_scooter", "name": "05bc716cce304d1b76caa52a8e0396bf", "is_disabled": 0, "rental_uris": {"ios": "https://dc.lft.to/lastmile_qr_scan", "android": "https://dc.lft.to/lastmile_qr_scan"}, "is_reserved": 0}, {"lon": -77.0036945, "bike_id": "7a9830e60c8d824b6089093447972578", "lat": 38.89729766666667, "fusion_lon": 0.0, "fusion_lat": 0.0, "type": "electric_scooter", "name": "7a9830e60c8d824b6089093447972578", "is_disabled": 0, "rental_uris": {"ios": "https://dc.lft.to/lastmile_qr_scan", "android": "https://dc.lft.to/lastmile_qr_scan"}, "is_reserved": 0}, {"lon": -77.131005, "bike_id": "17de0a159308b93ce9282538f61164f4", "lat": 39.02436, "fusion_lon": 0.0, "fusion_lat": 0.0, "type": "electric_bike", "name": "17de0a159308b93ce9282538f61164f4", "is_disabled": 0, "rental_uris": {"ios": "https://dc.lft.to/lastmile_qr_scan", "android": "https://dc.lft.to/lastmile_qr_scan"}, "is_reserved": 0}, {"lon": -77.019306, "bike_id": "1141a4c1ec010845fa4842a976a65540", "lat": 38.9222645, "fusion_lon": 0.0, "fusion_lat": 0.0, "type": "electric_scooter", "name": "1141a4c1ec010845fa4842a976a65540", "is_disabled": 0, "rental_uris": {"ios": "https://dc.lft.to/lastmile_qr_scan", "android": "https://dc.lft.to/lastmile_qr_scan"}, "is_reserved": 0}, {"lon": -77.034674, "bike_id": "95661d57a892207b973a5339b1a4089c", "lat": 38.92155133333333, "fusion_lon": 0.0, "fusion_lat": 0.0, "type": "electric_scooter", "name": "95661d57a892207b973a5339b1a4089c", "is_disabled": 0, "rental_uris": {"ios": "https://dc.lft.to/lastmile_qr_scan", "android": "https://dc.lft.to/lastmile_qr_scan"}, "is_reserved": 0}, {"lon": -77.05070666666667, "bike_id": "cac2f61fe05096d3adaf4ab01d69d198", "lat": 38.900815, "fusion_lon": 0.0, "fusion_lat": 0.0, "type": "electric_scooter", "name": "cac2f61fe05096d3adaf4ab01d69d198", "is_disabled": 0, "rental_uris": {"ios": "https://dc.lft.to/lastmile_qr_scan", "android": "https://dc.lft.to/lastmile_qr_scan"}, "is_reserved": 0}, {"lon": -77.056263, "bike_id": "8dd4f59de562028c7f01303630e28ab2", "lat": 38.960886333333335, "fusion_lon": 0.0, "fusion_lat": 0.0, "type": "electric_scooter", "name": "8dd4f59de562028c7f01303630e28ab2", "is_disabled": 0, "rental_uris": {"ios": "https://dc.lft.to/lastmile_qr_scan", "android": "https://dc.lft.to/lastmile_qr_scan"}, "is_reserved": 0}, {"lon": -77.00348816666667, "bike_id": "59bec88404c748855ac534e0fb08d051", "lat": 38.88722833333333, "fusion_lon": 0.0, "fusion_lat": 0.0, "type": "electric_scooter", "name": "59bec88404c748855ac534e0fb08d051", "is_disabled": 0, "rental_uris": {"ios": "https://dc.lft.to/lastmile_qr_scan", "android": "https://dc.lft.to/lastmile_qr_scan"}, "is_reserved": 0}, {"lon": -77.0397085, "bike_id": "cb498dbf5b1c2772fdb0b3fddad04067", "lat": 38.911939333333336, "fusion_lon": 0.0, "fusion_lat": 0.0, "type": "electric_scooter", "name": "cb498dbf5b1c2772fdb0b3fddad04067", "is_disabled": 0, "rental_uris": {"ios": "https://dc.lft.to/lastmile_qr_scan", "android": "https://dc.lft.to/lastmile_qr_scan"}, "is_reserved": 0}, {"lon": -77.02068216666666, "bike_id": "eb384b415b38127a17bb809550beaa86", "lat": 38.932645666666666, "fusion_lon": 0.0, "fusion_lat": 0.0, "type": "electric_bike", "name": "eb384b415b38127a17bb809550beaa86", "is_disabled": 0, "rental_uris": {"ios": "https://dc.lft.to/lastmile_qr_scan", "android": "https://dc.lft.to/lastmile_qr_scan"}, "is_reserved": 0}, {"lon": -77.03290366666667, "bike_id": "9fc715fdbee3ceb94d3d45c685fefb81", "lat": 38.90980883333334, "fusion_lon": 0.0, "fusion_lat": 0.0, "type": "electric_scooter", "name": "9fc715fdbee3ceb94d3d45c685fefb81", "is_disabled": 0, "rental_uris": {"ios": "https://dc.lft.to/lastmile_qr_scan", "android": "https://dc.lft.to/lastmile_qr_scan"}, "is_reserved": 0}, {"lon": -76.98017133333333, "bike_id": "fcd613a464505fa16758fbdb81879a7a", "lat": 38.903302, "fusion_lon": 0.0, "fusion_lat": 0.0, "type": "electric_scooter", "name": "fcd613a464505fa16758fbdb81879a7a", "is_disabled": 0, "rental_uris": {"ios": "https://dc.lft.to/lastmile_qr_scan", "android": "https://dc.lft.to/lastmile_qr_scan"}, "is_reserved": 0}, {"lon": -77.02939666666667, "bike_id": "2478d81e63d9e3ba9ea04b0199b44694", "lat": 38.906466333333334, "fusion_lon": 0.0, "fusion_lat": 0.0, "type": "electric_scooter", "name": "2478d81e63d9e3ba9ea04b0199b44694", "is_disabled": 0, "rental_uris": {"ios": "https://dc.lft.to/lastmile_qr_scan", "android": "https://dc.lft.to/lastmile_qr_scan"}, "is_reserved": 0}, {"lon": -76.94122733333333, "bike_id": "80be8f4bfa76a77471ba1ce573fda0d8", "lat": 38.90829266666667, "fusion_lon": 0.0, "fusion_lat": 0.0, "type": "electric_scooter", "name": "80be8f4bfa76a77471ba1ce573fda0d8", "is_disabled": 0, "rental_uris": {"ios": "https://dc.lft.to/lastmile_qr_scan", "android": "https://dc.lft.to/lastmile_qr_scan"}, "is_reserved": 0}, {"lon": -76.99050316666667, "bike_id": "e6ebc9c679ae300a57206d76d9be120d", "lat": 38.86382233333333, "fusion_lon": 0.0, "fusion_lat": 0.0, "type": "electric_scooter", "name": "e6ebc9c679ae300a57206d76d9be120d", "is_disabled": 0, "rental_uris": {"ios": "https://dc.lft.to/lastmile_qr_scan", "android": "https://dc.lft.to/lastmile_qr_scan"}, "is_reserved": 0}, {"lon": -77.05288066666667, "bike_id": "fb07c51d7b6555dedb0354cb1e80c831", "lat": 38.90339016666667, "fusion_lon": 0.0, "fusion_lat": 0.0, "type": "electric_scooter", "name": "fb07c51d7b6555dedb0354cb1e80c831", "is_disabled": 0, "rental_uris": {"ios": "https://dc.lft.to/lastmile_qr_scan", "android": "https://dc.lft.to/lastmile_qr_scan"}, "is_reserved": 0}, {"lon": -77.0338625, "bike_id": "bc364c7b95e5d951c230ffa2023dd84f", "lat": 38.9387675, "fusion_lon": 0.0, "fusion_lat": 0.0, "type": "electric_scooter", "name": "bc364c7b95e5d951c230ffa2023dd84f", "is_disabled": 0, "rental_uris": {"ios": "https://dc.lft.to/lastmile_qr_scan", "android": "https://dc.lft.to/lastmile_qr_scan"}, "is_reserved": 0}, {"lon": -77.000662, "bike_id": "0b6499f17c7a59049fe97aa4dca558a0", "lat": 38.900869, "fusion_lon": 0.0, "fusion_lat": 0.0, "type": "electric_scooter", "name": "0b6499f17c7a59049fe97aa4dca558a0", "is_disabled": 0, "rental_uris": {"ios": "https://dc.lft.to/lastmile_qr_scan", "android": "https://dc.lft.to/lastmile_qr_scan"}, "is_reserved": 0}, {"lon": -76.99361466666667, "bike_id": "c75dc35b7e6b591c163b7a2ced1e7344", "lat": 38.89378383333333, "fusion_lon": 0.0, "fusion_lat": 0.0, "type": "electric_scooter", "name": "c75dc35b7e6b591c163b7a2ced1e7344", "is_disabled": 0, "rental_uris": {"ios": "https://dc.lft.to/lastmile_qr_scan", "android": "https://dc.lft.to/lastmile_qr_scan"}, "is_reserved": 0}, {"lon": -77.023254, "bike_id": "0c9bf361d4b2ab0a015d8100f8c11b7c", "lat": 38.949784, "fusion_lon": 0.0, "fusion_lat": 0.0, "type": "electric_scooter", "name": "0c9bf361d4b2ab0a015d8100f8c11b7c", "is_disabled": 0, "rental_uris": {"ios": "https://dc.lft.to/lastmile_qr_scan", "android": "https://dc.lft.to/lastmile_qr_scan"}, "is_reserved": 0}, {"lon": -76.94788816666667, "bike_id": "4b4607dbcacac21650ec069cb66c18bb", "lat": 38.86189816666667, "fusion_lon": 0.0, "fusion_lat": 0.0, "type": "electric_bike", "name": "4b4607dbcacac21650ec069cb66c18bb", "is_disabled": 0, "rental_uris": {"ios": "https://dc.lft.to/lastmile_qr_scan", "android": "https://dc.lft.to/lastmile_qr_scan"}, "is_reserved": 0}, {"lon": -77.0067845, "bike_id": "7fcb88792d88a322972690896264c9f4", "lat": 38.834963333333334, "fusion_lon": 0.0, "fusion_lat": 0.0, "type": "electric_scooter", "name": "7fcb88792d88a322972690896264c9f4", "is_disabled": 0, "rental_uris": {"ios": "https://dc.lft.to/lastmile_qr_scan", "android": "https://dc.lft.to/lastmile_qr_scan"}, "is_reserved": 0}, {"lon": -76.94880533333334, "bike_id": "d7c10bb7848164cce5613605e61f0269", "lat": 38.8942855, "fusion_lon": 0.0, "fusion_lat": 0.0, "type": "electric_scooter", "name": "d7c10bb7848164cce5613605e61f0269", "is_disabled": 0, "rental_uris": {"ios": "https://dc.lft.to/lastmile_qr_scan", "android": "https://dc.lft.to/lastmile_qr_scan"}, "is_reserved": 0}, {"lon": -77.01820116666667, "bike_id": "e4734333cffea024323a23108a05563f", "lat": 38.901236833333336, "fusion_lon": 0.0, "fusion_lat": 0.0, "type": "electric_scooter", "name": "e4734333cffea024323a23108a05563f", "is_disabled": 0, "rental_uris": {"ios": "https://dc.lft.to/lastmile_qr_scan", "android": "https://dc.lft.to/lastmile_qr_scan"}, "is_reserved": 0}, {"lon": -76.99622533333333, "bike_id": "78e43ce69dee7b483b116567c50fb443", "lat": 38.88800166666667, "fusion_lon": 0.0, "fusion_lat": 0.0, "type": "electric_scooter", "name": "78e43ce69dee7b483b116567c50fb443", "is_disabled": 0, "rental_uris": {"ios": "https://dc.lft.to/lastmile_qr_scan", "android": "https://dc.lft.to/lastmile_qr_scan"}, "is_reserved": 0}, {"lon": -77.03424133333333, "bike_id": "54cac07ceb7181b810f2eb3b3a7b55c2", "lat": 38.927487, "fusion_lon": 0.0, "fusion_lat": 0.0, "type": "electric_scooter", "name": "54cac07ceb7181b810f2eb3b3a7b55c2", "is_disabled": 0, "rental_uris": {"ios": "https://dc.lft.to/lastmile_qr_scan", "android": "https://dc.lft.to/lastmile_qr_scan"}, "is_reserved": 0}, {"lon": -77.002802, "bike_id": "b8be2ce3ac887b883939d1623211efa0", "lat": 38.957106, "fusion_lon": 0.0, "fusion_lat": 0.0, "type": "electric_bike", "name": "b8be2ce3ac887b883939d1623211efa0", "is_disabled": 0, "rental_uris": {"ios": "https://dc.lft.to/lastmile_qr_scan", "android": "https://dc.lft.to/lastmile_qr_scan"}, "is_reserved": 0}, {"lon": -76.96576783333333, "bike_id": "ae09f718e7c7069341415426e71e2258", "lat": 38.871437, "fusion_lon": 0.0, "fusion_lat": 0.0, "type": "electric_scooter", "name": "ae09f718e7c7069341415426e71e2258", "is_disabled": 0, "rental_uris": {"ios": "https://dc.lft.to/lastmile_qr_scan", "android": "https://dc.lft.to/lastmile_qr_scan"}, "is_reserved": 0}, {"lon": -76.99521833333333, "bike_id": "325bb03e166fb350ead72e8c0735f895", "lat": 38.9001225, "fusion_lon": 0.0, "fusion_lat": 0.0, "type": "electric_scooter", "name": "325bb03e166fb350ead72e8c0735f895", "is_disabled": 0, "rental_uris": {"ios": "https://dc.lft.to/lastmile_qr_scan", "android": "https://dc.lft.to/lastmile_qr_scan"}, "is_reserved": 0}, {"lon": -77.02849283333333, "bike_id": "e94708c249f1b80a0ae7742505146609", "lat": 38.92761516666667, "fusion_lon": 0.0, "fusion_lat": 0.0, "type": "electric_scooter", "name": "e94708c249f1b80a0ae7742505146609", "is_disabled": 0, "rental_uris": {"ios": "https://dc.lft.to/lastmile_qr_scan", "android": "https://dc.lft.to/lastmile_qr_scan"}, "is_reserved": 0}, {"lon": -76.99608716666667, "bike_id": "18faeda5fcb08b78930100c94fced892", "lat": 38.887198, "fusion_lon": 0.0, "fusion_lat": 0.0, "type": "electric_scooter", "name": "18faeda5fcb08b78930100c94fced892", "is_disabled": 0, "rental_uris": {"ios": "https://dc.lft.to/lastmile_qr_scan", "android": "https://dc.lft.to/lastmile_qr_scan"}, "is_reserved": 0}, {"lon": -77.04321983333334, "bike_id": "2e16ca4ed1e390c55e58ad281318613d", "lat": 38.91878083333334, "fusion_lon": 0.0, "fusion_lat": 0.0, "type": "electric_scooter", "name": "2e16ca4ed1e390c55e58ad281318613d", "is_disabled": 0, "rental_uris": {"ios": "https://dc.lft.to/lastmile_qr_scan", "android": "https://dc.lft.to/lastmile_qr_scan"}, "is_reserved": 0}, {"lon": -76.99850566666667, "bike_id": "8772bb071b23d1e216d511b523f9575e", "lat": 38.8416155, "fusion_lon": 0.0, "fusion_lat": 0.0, "type": "electric_scooter", "name": "8772bb071b23d1e216d511b523f9575e", "is_disabled": 0, "rental_uris": {"ios": "https://dc.lft.to/lastmile_qr_scan", "android": "https://dc.lft.to/lastmile_qr_scan"}, "is_reserved": 0}, {"lon": -77.06426283333333, "bike_id": "6fe07dcd74d2f77232a2b95dff1ffc51", "lat": 38.908985666666666, "fusion_lon": 0.0, "fusion_lat": 0.0, "type": "electric_scooter", "name": "6fe07dcd74d2f77232a2b95dff1ffc51", "is_disabled": 0, "rental_uris": {"ios": "https://dc.lft.to/lastmile_qr_scan", "android": "https://dc.lft.to/lastmile_qr_scan"}, "is_reserved": 0}, {"lon": -77.0417195, "bike_id": "6974cfb65462c3a56ce6e35435f2c465", "lat": 38.919773666666664, "fusion_lon": 0.0, "fusion_lat": 0.0, "type": "electric_scooter", "name": "6974cfb65462c3a56ce6e35435f2c465", "is_disabled": 0, "rental_uris": {"ios": "https://dc.lft.to/lastmile_qr_scan", "android": "https://dc.lft.to/lastmile_qr_scan"}, "is_reserved": 0}, {"lon": -77.02254816666667, "bike_id": "c1e073107209097fbb0a4f3031cfa34c", "lat": 38.92827066666667, "fusion_lon": 0.0, "fusion_lat": 0.0, "type": "electric_scooter", "name": "c1e073107209097fbb0a4f3031cfa34c", "is_disabled": 0, "rental_uris": {"ios": "https://dc.lft.to/lastmile_qr_scan", "android": "https://dc.lft.to/lastmile_qr_scan"}, "is_reserved": 0}, {"lon": -77.05763966666666, "bike_id": "6089ad4a1af6dc1433d6126cb1a46e73", "lat": 38.936245666666665, "fusion_lon": 0.0, "fusion_lat": 0.0, "type": "electric_scooter", "name": "6089ad4a1af6dc1433d6126cb1a46e73", "is_disabled": 0, "rental_uris": {"ios": "https://dc.lft.to/lastmile_qr_scan", "android": "https://dc.lft.to/lastmile_qr_scan"}, "is_reserved": 0}, {"lon": -77.027186, "bike_id": "16ad4b644becc858a5260c75731f83a8", "lat": 38.93476483333333, "fusion_lon": 0.0, "fusion_lat": 0.0, "type": "electric_scooter", "name": "16ad4b644becc858a5260c75731f83a8", "is_disabled": 0, "rental_uris": {"ios": "https://dc.lft.to/lastmile_qr_scan", "android": "https://dc.lft.to/lastmile_qr_scan"}, "is_reserved": 0}, {"lon": -77.02390783333334, "bike_id": "6ff42f06b71639af3b42234ff5ba2531", "lat": 38.93409, "fusion_lon": 0.0, "fusion_lat": 0.0, "type": "electric_scooter", "name": "6ff42f06b71639af3b42234ff5ba2531", "is_disabled": 0, "rental_uris": {"ios": "https://dc.lft.to/lastmile_qr_scan", "android": "https://dc.lft.to/lastmile_qr_scan"}, "is_reserved": 0}, {"lon": -77.1248665, "bike_id": "49d0af40699154d2f4c90a4e4b56f9ce", "lat": 38.827883166666666, "fusion_lon": 0.0, "fusion_lat": 0.0, "type": "electric_bike", "name": "49d0af40699154d2f4c90a4e4b56f9ce", "is_disabled": 0, "rental_uris": {"ios": "https://dc.lft.to/lastmile_qr_scan", "android": "https://dc.lft.to/lastmile_qr_scan"}, "is_reserved": 0}, {"lon": -77.051767, "bike_id": "80966f9e97afb61371ea58474360401f", "lat": 38.92429383333333, "fusion_lon": 0.0, "fusion_lat": 0.0, "type": "electric_scooter", "name": "80966f9e97afb61371ea58474360401f", "is_disabled": 0, "rental_uris": {"ios": "https://dc.lft.to/lastmile_qr_scan", "android": "https://dc.lft.to/lastmile_qr_scan"}, "is_reserved": 0}, {"lon": -77.03401216666667, "bike_id": "2ca8f2f2e1b4fcd774cf230472ccb056", "lat": 38.960354, "fusion_lon": 0.0, "fusion_lat": 0.0, "type": "electric_bike", "name": "2ca8f2f2e1b4fcd774cf230472ccb056", "is_disabled": 0, "rental_uris": {"ios": "https://dc.lft.to/lastmile_qr_scan", "android": "https://dc.lft.to/lastmile_qr_scan"}, "is_reserved": 0}, {"lon": -77.003038, "bike_id": "7887c056c9a43487c3560bffd288b04e", "lat": 38.90737, "fusion_lon": 0.0, "fusion_lat": 0.0, "type": "electric_bike", "name": "7887c056c9a43487c3560bffd288b04e", "is_disabled": 0, "rental_uris": {"ios": "https://dc.lft.to/lastmile_qr_scan", "android": "https://dc.lft.to/lastmile_qr_scan"}, "is_reserved": 0}, {"lon": -77.02266333333333, "bike_id": "ac3416a3cddbc68419bca668023a9544", "lat": 38.937719333333334, "fusion_lon": 0.0, "fusion_lat": 0.0, "type": "electric_scooter", "name": "ac3416a3cddbc68419bca668023a9544", "is_disabled": 0, "rental_uris": {"ios": "https://dc.lft.to/lastmile_qr_scan", "android": "https://dc.lft.to/lastmile_qr_scan"}, "is_reserved": 0}, {"lon": -77.03270816666667, "bike_id": "5f1d38e52027f21eb0d5822f52ee1d54", "lat": 38.927519, "fusion_lon": 0.0, "fusion_lat": 0.0, "type": "electric_scooter", "name": "5f1d38e52027f21eb0d5822f52ee1d54", "is_disabled": 0, "rental_uris": {"ios": "https://dc.lft.to/lastmile_qr_scan", "android": "https://dc.lft.to/lastmile_qr_scan"}, "is_reserved": 0}, {"lon": -77.03212733333334, "bike_id": "1641d8a4227b278fd192aa784c68d9ee", "lat": 38.916971833333335, "fusion_lon": 0.0, "fusion_lat": 0.0, "type": "electric_scooter", "name": "1641d8a4227b278fd192aa784c68d9ee", "is_disabled": 0, "rental_uris": {"ios": "https://dc.lft.to/lastmile_qr_scan", "android": "https://dc.lft.to/lastmile_qr_scan"}, "is_reserved": 0}, {"lon": -77.04253333333334, "bike_id": "06dec08e3c3aa9b9f95c986934a15f6b", "lat": 38.92633466666667, "fusion_lon": 0.0, "fusion_lat": 0.0, "type": "electric_scooter", "name": "06dec08e3c3aa9b9f95c986934a15f6b", "is_disabled": 0, "rental_uris": {"ios": "https://dc.lft.to/lastmile_qr_scan", "android": "https://dc.lft.to/lastmile_qr_scan"}, "is_reserved": 0}, {"lon": -77.04588383333333, "bike_id": "5ad9643b8735f0f914f3d8a6ea2cfcef", "lat": 38.921406166666664, "fusion_lon": 0.0, "fusion_lat": 0.0, "type": "electric_scooter", "name": "5ad9643b8735f0f914f3d8a6ea2cfcef", "is_disabled": 0, "rental_uris": {"ios": "https://dc.lft.to/lastmile_qr_scan", "android": "https://dc.lft.to/lastmile_qr_scan"}, "is_reserved": 0}, {"lon": -77.04398433333333, "bike_id": "81b4b0296ff0d5414bb42ddd430a10b9", "lat": 38.933219333333334, "fusion_lon": 0.0, "fusion_lat": 0.0, "type": "electric_scooter", "name": "81b4b0296ff0d5414bb42ddd430a10b9", "is_disabled": 0, "rental_uris": {"ios": "https://dc.lft.to/lastmile_qr_scan", "android": "https://dc.lft.to/lastmile_qr_scan"}, "is_reserved": 0}, {"lon": -77.03259916666667, "bike_id": "3f84984b601283cab5527fb849cf8122", "lat": 38.925458666666664, "fusion_lon": 0.0, "fusion_lat": 0.0, "type": "electric_scooter", "name": "3f84984b601283cab5527fb849cf8122", "is_disabled": 0, "rental_uris": {"ios": "https://dc.lft.to/lastmile_qr_scan", "android": "https://dc.lft.to/lastmile_qr_scan"}, "is_reserved": 0}, {"lon": -77.05236583333334, "bike_id": "b15f44b8d6382c3531bb7bf6b7537c61", "lat": 38.92463383333333, "fusion_lon": 0.0, "fusion_lat": 0.0, "type": "electric_scooter", "name": "b15f44b8d6382c3531bb7bf6b7537c61", "is_disabled": 0, "rental_uris": {"ios": "https://dc.lft.to/lastmile_qr_scan", "android": "https://dc.lft.to/lastmile_qr_scan"}, "is_reserved": 0}, {"lon": -77.02730683333333, "bike_id": "40c390494ad53589f2b681f382831a60", "lat": 38.93212166666667, "fusion_lon": 0.0, "fusion_lat": 0.0, "type": "electric_scooter", "name": "40c390494ad53589f2b681f382831a60", "is_disabled": 0, "rental_uris": {"ios": "https://dc.lft.to/lastmile_qr_scan", "android": "https://dc.lft.to/lastmile_qr_scan"}, "is_reserved": 0}, {"lon": -77.0230145, "bike_id": "1b1d82002124d869eca1194dc9d0b6b3", "lat": 38.918463833333334, "fusion_lon": 0.0, "fusion_lat": 0.0, "type": "electric_scooter", "name": "1b1d82002124d869eca1194dc9d0b6b3", "is_disabled": 0, "rental_uris": {"ios": "https://dc.lft.to/lastmile_qr_scan", "android": "https://dc.lft.to/lastmile_qr_scan"}, "is_reserved": 0}, {"lon": -77.01476666666667, "bike_id": "3b5f366b8d5e08a404aa944c23bf7957", "lat": 38.917699166666665, "fusion_lon": 0.0, "fusion_lat": 0.0, "type": "electric_scooter", "name": "3b5f366b8d5e08a404aa944c23bf7957", "is_disabled": 0, "rental_uris": {"ios": "https://dc.lft.to/lastmile_qr_scan", "android": "https://dc.lft.to/lastmile_qr_scan"}, "is_reserved": 0}, {"lon": -77.0529, "bike_id": "749790df9c798514d2db3064c5cf990d", "lat": 38.910232, "fusion_lon": 0.0, "fusion_lat": 0.0, "type": "electric_scooter", "name": "749790df9c798514d2db3064c5cf990d", "is_disabled": 0, "rental_uris": {"ios": "https://dc.lft.to/lastmile_qr_scan", "android": "https://dc.lft.to/lastmile_qr_scan"}, "is_reserved": 0}, {"lon": -77.0278355, "bike_id": "7d0ba118a2f0e5c8c807e7548da6569f", "lat": 38.956841833333336, "fusion_lon": 0.0, "fusion_lat": 0.0, "type": "electric_scooter", "name": "7d0ba118a2f0e5c8c807e7548da6569f", "is_disabled": 0, "rental_uris": {"ios": "https://dc.lft.to/lastmile_qr_scan", "android": "https://dc.lft.to/lastmile_qr_scan"}, "is_reserved": 0}, {"lon": -77.0179915, "bike_id": "8a14d62982a0a7955862007c52e79b39", "lat": 38.903961, "fusion_lon": 0.0, "fusion_lat": 0.0, "type": "electric_scooter", "name": "8a14d62982a0a7955862007c52e79b39", "is_disabled": 0, "rental_uris": {"ios": "https://dc.lft.to/lastmile_qr_scan", "android": "https://dc.lft.to/lastmile_qr_scan"}, "is_reserved": 0}, {"lon": -77.061016, "bike_id": "ac83d50c0fa2721564fca35f117fdb7e", "lat": 38.94358316666667, "fusion_lon": 0.0, "fusion_lat": 0.0, "type": "electric_scooter", "name": "ac83d50c0fa2721564fca35f117fdb7e", "is_disabled": 0, "rental_uris": {"ios": "https://dc.lft.to/lastmile_qr_scan", "android": "https://dc.lft.to/lastmile_qr_scan"}, "is_reserved": 0}, {"lon": -76.99480316666667, "bike_id": "ce8298b7649a58eb5bff499a7c74aee5", "lat": 38.86217633333333, "fusion_lon": 0.0, "fusion_lat": 0.0, "type": "electric_scooter", "name": "ce8298b7649a58eb5bff499a7c74aee5", "is_disabled": 0, "rental_uris": {"ios": "https://dc.lft.to/lastmile_qr_scan", "android": "https://dc.lft.to/lastmile_qr_scan"}, "is_reserved": 0}, {"lon": -77.02581383333333, "bike_id": "61bb80a6b8942f875e2aff5f8e028daf", "lat": 38.93932816666667, "fusion_lon": 0.0, "fusion_lat": 0.0, "type": "electric_scooter", "name": "61bb80a6b8942f875e2aff5f8e028daf", "is_disabled": 0, "rental_uris": {"ios": "https://dc.lft.to/lastmile_qr_scan", "android": "https://dc.lft.to/lastmile_qr_scan"}, "is_reserved": 0}, {"lon": -77.04235266666667, "bike_id": "b805377c60f40781ec56bbb3b5423e52", "lat": 38.91640133333333, "fusion_lon": 0.0, "fusion_lat": 0.0, "type": "electric_scooter", "name": "b805377c60f40781ec56bbb3b5423e52", "is_disabled": 0, "rental_uris": {"ios": "https://dc.lft.to/lastmile_qr_scan", "android": "https://dc.lft.to/lastmile_qr_scan"}, "is_reserved": 0}, {"lon": -77.03182933333333, "bike_id": "276813fdee1db8aec3e668c020407360", "lat": 38.9361385, "fusion_lon": 0.0, "fusion_lat": 0.0, "type": "electric_scooter", "name": "276813fdee1db8aec3e668c020407360", "is_disabled": 0, "rental_uris": {"ios": "https://dc.lft.to/lastmile_qr_scan", "android": "https://dc.lft.to/lastmile_qr_scan"}, "is_reserved": 0}, {"lon": -76.98374483333333, "bike_id": "1fd5313a93a72b2ae9432cb4c83381ab", "lat": 38.891469, "fusion_lon": 0.0, "fusion_lat": 0.0, "type": "electric_scooter", "name": "1fd5313a93a72b2ae9432cb4c83381ab", "is_disabled": 0, "rental_uris": {"ios": "https://dc.lft.to/lastmile_qr_scan", "android": "https://dc.lft.to/lastmile_qr_scan"}, "is_reserved": 0}, {"lon": -77.00575266666667, "bike_id": "d4887c389df43c74b6324e9913fe6434", "lat": 38.90560883333333, "fusion_lon": 0.0, "fusion_lat": 0.0, "type": "electric_scooter", "name": "d4887c389df43c74b6324e9913fe6434", "is_disabled": 0, "rental_uris": {"ios": "https://dc.lft.to/lastmile_qr_scan", "android": "https://dc.lft.to/lastmile_qr_scan"}, "is_reserved": 0}, {"lon": -76.98833983333333, "bike_id": "6408534bf9e08b7d10694a1d249c87e9", "lat": 38.9007785, "fusion_lon": 0.0, "fusion_lat": 0.0, "type": "electric_scooter", "name": "6408534bf9e08b7d10694a1d249c87e9", "is_disabled": 0, "rental_uris": {"ios": "https://dc.lft.to/lastmile_qr_scan", "android": "https://dc.lft.to/lastmile_qr_scan"}, "is_reserved": 0}, {"lon": -77.00333233333333, "bike_id": "9baff29dafab49f1a4f928924907dd91", "lat": 38.891887833333335, "fusion_lon": 0.0, "fusion_lat": 0.0, "type": "electric_scooter", "name": "9baff29dafab49f1a4f928924907dd91", "is_disabled": 0, "rental_uris": {"ios": "https://dc.lft.to/lastmile_qr_scan", "android": "https://dc.lft.to/lastmile_qr_scan"}, "is_reserved": 0}, {"lon": -77.05610716666666, "bike_id": "f19e74c2e3f8a879be16a24b82759038", "lat": 38.931613, "fusion_lon": 0.0, "fusion_lat": 0.0, "type": "electric_scooter", "name": "f19e74c2e3f8a879be16a24b82759038", "is_disabled": 0, "rental_uris": {"ios": "https://dc.lft.to/lastmile_qr_scan", "android": "https://dc.lft.to/lastmile_qr_scan"}, "is_reserved": 0}, {"lon": -77.00747983333333, "bike_id": "0d212732f965d34814606b3d6064f51e", "lat": 38.904819, "fusion_lon": 0.0, "fusion_lat": 0.0, "type": "electric_scooter", "name": "0d212732f965d34814606b3d6064f51e", "is_disabled": 0, "rental_uris": {"ios": "https://dc.lft.to/lastmile_qr_scan", "android": "https://dc.lft.to/lastmile_qr_scan"}, "is_reserved": 0}, {"lon": -76.99530066666667, "bike_id": "eb908e818914c537bbd222def69d5232", "lat": 38.88374433333333, "fusion_lon": 0.0, "fusion_lat": 0.0, "type": "electric_scooter", "name": "eb908e818914c537bbd222def69d5232", "is_disabled": 0, "rental_uris": {"ios": "https://dc.lft.to/lastmile_qr_scan", "android": "https://dc.lft.to/lastmile_qr_scan"}, "is_reserved": 0}, {"lon": -77.01912966666667, "bike_id": "977f08812b649314664e8e0b3330d8b7", "lat": 38.886035, "fusion_lon": 0.0, "fusion_lat": 0.0, "type": "electric_scooter", "name": "977f08812b649314664e8e0b3330d8b7", "is_disabled": 0, "rental_uris": {"ios": "https://dc.lft.to/lastmile_qr_scan", "android": "https://dc.lft.to/lastmile_qr_scan"}, "is_reserved": 0}, {"lon": -77.01016166666666, "bike_id": "62d6e9e5c45f4f90ad4482aadb6bda0d", "lat": 38.89476583333333, "fusion_lon": 0.0, "fusion_lat": 0.0, "type": "electric_scooter", "name": "62d6e9e5c45f4f90ad4482aadb6bda0d", "is_disabled": 0, "rental_uris": {"ios": "https://dc.lft.to/lastmile_qr_scan", "android": "https://dc.lft.to/lastmile_qr_scan"}, "is_reserved": 0}, {"lon": -77.03663616666667, "bike_id": "b5415927980dd7a9a54e29bdf3e78df0", "lat": 38.910668666666666, "fusion_lon": 0.0, "fusion_lat": 0.0, "type": "electric_scooter", "name": "b5415927980dd7a9a54e29bdf3e78df0", "is_disabled": 0, "rental_uris": {"ios": "https://dc.lft.to/lastmile_qr_scan", "android": "https://dc.lft.to/lastmile_qr_scan"}, "is_reserved": 0}, {"lon": -77.034281, "bike_id": "ac1fd4d690baef3f1fbe20b340022c85", "lat": 38.9193275, "fusion_lon": 0.0, "fusion_lat": 0.0, "type": "electric_scooter", "name": "ac1fd4d690baef3f1fbe20b340022c85", "is_disabled": 0, "rental_uris": {"ios": "https://dc.lft.to/lastmile_qr_scan", "android": "https://dc.lft.to/lastmile_qr_scan"}, "is_reserved": 0}, {"lon": -77.02627033333333, "bike_id": "81060aa8b8305f771994751ed6539fac", "lat": 38.962224, "fusion_lon": 0.0, "fusion_lat": 0.0, "type": "electric_bike", "name": "81060aa8b8305f771994751ed6539fac", "is_disabled": 0, "rental_uris": {"ios": "https://dc.lft.to/lastmile_qr_scan", "android": "https://dc.lft.to/lastmile_qr_scan"}, "is_reserved": 0}, {"lon": -77.0320575, "bike_id": "1f412e81c679e2dc5143424bacdbec5d", "lat": 38.92198333333333, "fusion_lon": 0.0, "fusion_lat": 0.0, "type": "electric_scooter", "name": "1f412e81c679e2dc5143424bacdbec5d", "is_disabled": 0, "rental_uris": {"ios": "https://dc.lft.to/lastmile_qr_scan", "android": "https://dc.lft.to/lastmile_qr_scan"}, "is_reserved": 0}, {"lon": -77.0092205, "bike_id": "9fcf05f278a143a5235c93bb0e92e095", "lat": 38.89612116666667, "fusion_lon": 0.0, "fusion_lat": 0.0, "type": "electric_scooter", "name": "9fcf05f278a143a5235c93bb0e92e095", "is_disabled": 0, "rental_uris": {"ios": "https://dc.lft.to/lastmile_qr_scan", "android": "https://dc.lft.to/lastmile_qr_scan"}, "is_reserved": 0}, {"lon": -77.04226183333333, "bike_id": "5e03423a228a75fe52c781c38ddeae0f", "lat": 38.91699333333333, "fusion_lon": 0.0, "fusion_lat": 0.0, "type": "electric_scooter", "name": "5e03423a228a75fe52c781c38ddeae0f", "is_disabled": 0, "rental_uris": {"ios": "https://dc.lft.to/lastmile_qr_scan", "android": "https://dc.lft.to/lastmile_qr_scan"}, "is_reserved": 0}, {"lon": -76.97307766666667, "bike_id": "b305b8ff705d4618daad8fe52cac0fba", "lat": 38.91984566666667, "fusion_lon": 0.0, "fusion_lat": 0.0, "type": "electric_scooter", "name": "b305b8ff705d4618daad8fe52cac0fba", "is_disabled": 0, "rental_uris": {"ios": "https://dc.lft.to/lastmile_qr_scan", "android": "https://dc.lft.to/lastmile_qr_scan"}, "is_reserved": 0}, {"lon": -76.9822935, "bike_id": "f4ba33c23b9cb97ad02f44160c830d44", "lat": 38.9164975, "fusion_lon": 0.0, "fusion_lat": 0.0, "type": "electric_scooter", "name": "f4ba33c23b9cb97ad02f44160c830d44", "is_disabled": 0, "rental_uris": {"ios": "https://dc.lft.to/lastmile_qr_scan", "android": "https://dc.lft.to/lastmile_qr_scan"}, "is_reserved": 0}, {"lon": -76.97308916666667, "bike_id": "801e0c76284db976abbbb69af9b22550", "lat": 38.86585266666667, "fusion_lon": 0.0, "fusion_lat": 0.0, "type": "electric_scooter", "name": "801e0c76284db976abbbb69af9b22550", "is_disabled": 0, "rental_uris": {"ios": "https://dc.lft.to/lastmile_qr_scan", "android": "https://dc.lft.to/lastmile_qr_scan"}, "is_reserved": 0}, {"lon": -77.03180116666667, "bike_id": "310bf5cb0d985158962e8adc831cb5b5", "lat": 38.9369475, "fusion_lon": 0.0, "fusion_lat": 0.0, "type": "electric_scooter", "name": "310bf5cb0d985158962e8adc831cb5b5", "is_disabled": 0, "rental_uris": {"ios": "https://dc.lft.to/lastmile_qr_scan", "android": "https://dc.lft.to/lastmile_qr_scan"}, "is_reserved": 0}, {"lon": -77.025796, "bike_id": "d539154ee41d2ee98301522e444ab6fe", "lat": 38.93092216666667, "fusion_lon": 0.0, "fusion_lat": 0.0, "type": "electric_scooter", "name": "d539154ee41d2ee98301522e444ab6fe", "is_disabled": 0, "rental_uris": {"ios": "https://dc.lft.to/lastmile_qr_scan", "android": "https://dc.lft.to/lastmile_qr_scan"}, "is_reserved": 0}, {"lon": -77.03354933333334, "bike_id": "2e4c8874b0492f67de1febcf0d71f160", "lat": 38.9072075, "fusion_lon": 0.0, "fusion_lat": 0.0, "type": "electric_scooter", "name": "2e4c8874b0492f67de1febcf0d71f160", "is_disabled": 0, "rental_uris": {"ios": "https://dc.lft.to/lastmile_qr_scan", "android": "https://dc.lft.to/lastmile_qr_scan"}, "is_reserved": 0}, {"lon": -77.00958683333333, "bike_id": "368e3b50c469dd8ff59beaf46efa51ba", "lat": 38.91707733333333, "fusion_lon": 0.0, "fusion_lat": 0.0, "type": "electric_scooter", "name": "368e3b50c469dd8ff59beaf46efa51ba", "is_disabled": 0, "rental_uris": {"ios": "https://dc.lft.to/lastmile_qr_scan", "android": "https://dc.lft.to/lastmile_qr_scan"}, "is_reserved": 0}, {"lon": -76.99506033333333, "bike_id": "30ec19b1eeed7d1cf0067e195c247d6d", "lat": 38.877799833333334, "fusion_lon": 0.0, "fusion_lat": 0.0, "type": "electric_scooter", "name": "30ec19b1eeed7d1cf0067e195c247d6d", "is_disabled": 0, "rental_uris": {"ios": "https://dc.lft.to/lastmile_qr_scan", "android": "https://dc.lft.to/lastmile_qr_scan"}, "is_reserved": 0}, {"lon": -77.04254, "bike_id": "2618b19a6822aaa19e2ad5a0d68657d7", "lat": 38.92290216666667, "fusion_lon": 0.0, "fusion_lat": 0.0, "type": "electric_scooter", "name": "2618b19a6822aaa19e2ad5a0d68657d7", "is_disabled": 0, "rental_uris": {"ios": "https://dc.lft.to/lastmile_qr_scan", "android": "https://dc.lft.to/lastmile_qr_scan"}, "is_reserved": 0}, {"lon": -76.930124, "bike_id": "7769b22078e949c892cd39929d60b78b", "lat": 38.89196316666666, "fusion_lon": 0.0, "fusion_lat": 0.0, "type": "electric_scooter", "name": "7769b22078e949c892cd39929d60b78b", "is_disabled": 0, "rental_uris": {"ios": "https://dc.lft.to/lastmile_qr_scan", "android": "https://dc.lft.to/lastmile_qr_scan"}, "is_reserved": 0}, {"lon": -77.03212116666667, "bike_id": "c6aaaf8d0fe3acaa81bb0e91a12196e8", "lat": 38.916081166666665, "fusion_lon": 0.0, "fusion_lat": 0.0, "type": "electric_scooter", "name": "c6aaaf8d0fe3acaa81bb0e91a12196e8", "is_disabled": 0, "rental_uris": {"ios": "https://dc.lft.to/lastmile_qr_scan", "android": "https://dc.lft.to/lastmile_qr_scan"}, "is_reserved": 0}, {"lon": -77.02184983333333, "bike_id": "d51ef99f65fdef0090bf40fbe438e885", "lat": 38.91550733333333, "fusion_lon": 0.0, "fusion_lat": 0.0, "type": "electric_scooter", "name": "d51ef99f65fdef0090bf40fbe438e885", "is_disabled": 0, "rental_uris": {"ios": "https://dc.lft.to/lastmile_qr_scan", "android": "https://dc.lft.to/lastmile_qr_scan"}, "is_reserved": 0}, {"lon": -77.05508116666667, "bike_id": "0ebc9ae431d08ae82045efa1022bf4ed", "lat": 38.89987883333333, "fusion_lon": 0.0, "fusion_lat": 0.0, "type": "electric_scooter", "name": "0ebc9ae431d08ae82045efa1022bf4ed", "is_disabled": 0, "rental_uris": {"ios": "https://dc.lft.to/lastmile_qr_scan", "android": "https://dc.lft.to/lastmile_qr_scan"}, "is_reserved": 0}, {"lon": -77.0569695, "bike_id": "589b3e7cd116c719d54d037c5bd30e6f", "lat": 38.937146166666665, "fusion_lon": 0.0, "fusion_lat": 0.0, "type": "electric_scooter", "name": "589b3e7cd116c719d54d037c5bd30e6f", "is_disabled": 0, "rental_uris": {"ios": "https://dc.lft.to/lastmile_qr_scan", "android": "https://dc.lft.to/lastmile_qr_scan"}, "is_reserved": 0}, {"lon": -77.01220133333334, "bike_id": "4da326acbb1462cee830f8afff8d8d0a", "lat": 38.92037116666667, "fusion_lon": 0.0, "fusion_lat": 0.0, "type": "electric_scooter", "name": "4da326acbb1462cee830f8afff8d8d0a", "is_disabled": 0, "rental_uris": {"ios": "https://dc.lft.to/lastmile_qr_scan", "android": "https://dc.lft.to/lastmile_qr_scan"}, "is_reserved": 0}, {"lon": -76.98228733333333, "bike_id": "d0500fa87712d38e1d9e0e705993ea46", "lat": 38.88650833333333, "fusion_lon": 0.0, "fusion_lat": 0.0, "type": "electric_scooter", "name": "d0500fa87712d38e1d9e0e705993ea46", "is_disabled": 0, "rental_uris": {"ios": "https://dc.lft.to/lastmile_qr_scan", "android": "https://dc.lft.to/lastmile_qr_scan"}, "is_reserved": 0}, {"lon": -77.00626633333333, "bike_id": "4c8d5aa0aacb0d5ed6d6408124605714", "lat": 38.912608, "fusion_lon": 0.0, "fusion_lat": 0.0, "type": "electric_scooter", "name": "4c8d5aa0aacb0d5ed6d6408124605714", "is_disabled": 0, "rental_uris": {"ios": "https://dc.lft.to/lastmile_qr_scan", "android": "https://dc.lft.to/lastmile_qr_scan"}, "is_reserved": 0}, {"lon": -77.01870116666667, "bike_id": "2d83d14e3975b46716d427ddf9ad65cf", "lat": 38.91828366666667, "fusion_lon": 0.0, "fusion_lat": 0.0, "type": "electric_scooter", "name": "2d83d14e3975b46716d427ddf9ad65cf", "is_disabled": 0, "rental_uris": {"ios": "https://dc.lft.to/lastmile_qr_scan", "android": "https://dc.lft.to/lastmile_qr_scan"}, "is_reserved": 0}, {"lon": -77.0020645, "bike_id": "2ab8dbeeec961cf6ff924c3a767a0acc", "lat": 38.902431166666666, "fusion_lon": 0.0, "fusion_lat": 0.0, "type": "electric_scooter", "name": "2ab8dbeeec961cf6ff924c3a767a0acc", "is_disabled": 0, "rental_uris": {"ios": "https://dc.lft.to/lastmile_qr_scan", "android": "https://dc.lft.to/lastmile_qr_scan"}, "is_reserved": 0}, {"lon": -77.052992, "bike_id": "97f24af669c04dacd52dea14c9650310", "lat": 38.92551483333333, "fusion_lon": 0.0, "fusion_lat": 0.0, "type": "electric_scooter", "name": "97f24af669c04dacd52dea14c9650310", "is_disabled": 0, "rental_uris": {"ios": "https://dc.lft.to/lastmile_qr_scan", "android": "https://dc.lft.to/lastmile_qr_scan"}, "is_reserved": 0}, {"lon": -77.05729166666667, "bike_id": "62d5ca8170f2fff0f13d6db03c545825", "lat": 38.93366666666667, "fusion_lon": 0.0, "fusion_lat": 0.0, "type": "electric_scooter", "name": "62d5ca8170f2fff0f13d6db03c545825", "is_disabled": 0, "rental_uris": {"ios": "https://dc.lft.to/lastmile_qr_scan", "android": "https://dc.lft.to/lastmile_qr_scan"}, "is_reserved": 0}, {"lon": -77.1048925, "bike_id": "2290f5b42290b19301f9fb397b3c510c", "lat": 38.8561465, "fusion_lon": 0.0, "fusion_lat": 0.0, "type": "electric_bike", "name": "2290f5b42290b19301f9fb397b3c510c", "is_disabled": 0, "rental_uris": {"ios": "https://dc.lft.to/lastmile_qr_scan", "android": "https://dc.lft.to/lastmile_qr_scan"}, "is_reserved": 0}, {"lon": -77.111608, "bike_id": "e43c6ca0c9880aeda16dc2940e0dfe25", "lat": 38.855176166666666, "fusion_lon": 0.0, "fusion_lat": 0.0, "type": "electric_bike", "name": "e43c6ca0c9880aeda16dc2940e0dfe25", "is_disabled": 0, "rental_uris": {"ios": "https://dc.lft.to/lastmile_qr_scan", "android": "https://dc.lft.to/lastmile_qr_scan"}, "is_reserved": 0}, {"lon": -76.99531616666667, "bike_id": "25cbbec58c55542c0a9b855145605f9a", "lat": 38.88371183333334, "fusion_lon": 0.0, "fusion_lat": 0.0, "type": "electric_scooter", "name": "25cbbec58c55542c0a9b855145605f9a", "is_disabled": 0, "rental_uris": {"ios": "https://dc.lft.to/lastmile_qr_scan", "android": "https://dc.lft.to/lastmile_qr_scan"}, "is_reserved": 0}, {"lon": -77.05156883333333, "bike_id": "2f37f36fcc7c64f507903755497fa3b9", "lat": 39.043073166666666, "fusion_lon": 0.0, "fusion_lat": 0.0, "type": "electric_bike", "name": "2f37f36fcc7c64f507903755497fa3b9", "is_disabled": 0, "rental_uris": {"ios": "https://dc.lft.to/lastmile_qr_scan", "android": "https://dc.lft.to/lastmile_qr_scan"}, "is_reserved": 0}, {"lon": -77.03099066666667, "bike_id": "d739728907abd73c2be883241c9b84ce", "lat": 38.92859966666666, "fusion_lon": 0.0, "fusion_lat": 0.0, "type": "electric_scooter", "name": "d739728907abd73c2be883241c9b84ce", "is_disabled": 0, "rental_uris": {"ios": "https://dc.lft.to/lastmile_qr_scan", "android": "https://dc.lft.to/lastmile_qr_scan"}, "is_reserved": 0}, {"lon": -77.02098166666667, "bike_id": "1b5ce9f69255fd5cdf351c328a62497b", "lat": 38.9163555, "fusion_lon": 0.0, "fusion_lat": 0.0, "type": "electric_scooter", "name": "1b5ce9f69255fd5cdf351c328a62497b", "is_disabled": 0, "rental_uris": {"ios": "https://dc.lft.to/lastmile_qr_scan", "android": "https://dc.lft.to/lastmile_qr_scan"}, "is_reserved": 0}, {"lon": -77.0396115, "bike_id": "eb899114716b38da6a1984bff1af300c", "lat": 38.913865, "fusion_lon": 0.0, "fusion_lat": 0.0, "type": "electric_scooter", "name": "eb899114716b38da6a1984bff1af300c", "is_disabled": 0, "rental_uris": {"ios": "https://dc.lft.to/lastmile_qr_scan", "android": "https://dc.lft.to/lastmile_qr_scan"}, "is_reserved": 0}, {"lon": -77.0413655, "bike_id": "65449fa7c94527867eff59e47ce62d4d", "lat": 38.90634083333333, "fusion_lon": 0.0, "fusion_lat": 0.0, "type": "electric_scooter", "name": "65449fa7c94527867eff59e47ce62d4d", "is_disabled": 0, "rental_uris": {"ios": "https://dc.lft.to/lastmile_qr_scan", "android": "https://dc.lft.to/lastmile_qr_scan"}, "is_reserved": 0}, {"lon": -77.027457, "bike_id": "b849555afa72168d02047dce07a6056c", "lat": 38.941852833333336, "fusion_lon": 0.0, "fusion_lat": 0.0, "type": "electric_scooter", "name": "b849555afa72168d02047dce07a6056c", "is_disabled": 0, "rental_uris": {"ios": "https://dc.lft.to/lastmile_qr_scan", "android": "https://dc.lft.to/lastmile_qr_scan"}, "is_reserved": 0}, {"lon": -77.03201366666667, "bike_id": "4a6fcbd3feb9eb4eaddd241eab2d9f55", "lat": 38.90706733333333, "fusion_lon": 0.0, "fusion_lat": 0.0, "type": "electric_scooter", "name": "4a6fcbd3feb9eb4eaddd241eab2d9f55", "is_disabled": 0, "rental_uris": {"ios": "https://dc.lft.to/lastmile_qr_scan", "android": "https://dc.lft.to/lastmile_qr_scan"}, "is_reserved": 0}, {"lon": -76.99702916666666, "bike_id": "e547d5436e49f6605ff64675721d8d3a", "lat": 38.908413833333334, "fusion_lon": 0.0, "fusion_lat": 0.0, "type": "electric_scooter", "name": "e547d5436e49f6605ff64675721d8d3a", "is_disabled": 0, "rental_uris": {"ios": "https://dc.lft.to/lastmile_qr_scan", "android": "https://dc.lft.to/lastmile_qr_scan"}, "is_reserved": 0}, {"lon": -76.99646133333333, "bike_id": "3da66a118846faf1f1bddeceae8114bd", "lat": 38.900223, "fusion_lon": 0.0, "fusion_lat": 0.0, "type": "electric_scooter", "name": "3da66a118846faf1f1bddeceae8114bd", "is_disabled": 0, "rental_uris": {"ios": "https://dc.lft.to/lastmile_qr_scan", "android": "https://dc.lft.to/lastmile_qr_scan"}, "is_reserved": 0}, {"lon": -77.03057033333333, "bike_id": "8d256e13e6b3cd22962e30105c22b389", "lat": 38.88419716666667, "fusion_lon": 0.0, "fusion_lat": 0.0, "type": "electric_scooter", "name": "8d256e13e6b3cd22962e30105c22b389", "is_disabled": 0, "rental_uris": {"ios": "https://dc.lft.to/lastmile_qr_scan", "android": "https://dc.lft.to/lastmile_qr_scan"}, "is_reserved": 0}, {"lon": -77.04479916666666, "bike_id": "594d308e7534d5ae97ed58201e7bae02", "lat": 38.92425083333333, "fusion_lon": 0.0, "fusion_lat": 0.0, "type": "electric_scooter", "name": "594d308e7534d5ae97ed58201e7bae02", "is_disabled": 0, "rental_uris": {"ios": "https://dc.lft.to/lastmile_qr_scan", "android": "https://dc.lft.to/lastmile_qr_scan"}, "is_reserved": 0}, {"lon": -77.074678, "bike_id": "03bf70580f79afa70a97bf3d08966de6", "lat": 38.92065783333334, "fusion_lon": 0.0, "fusion_lat": 0.0, "type": "electric_bike", "name": "03bf70580f79afa70a97bf3d08966de6", "is_disabled": 0, "rental_uris": {"ios": "https://dc.lft.to/lastmile_qr_scan", "android": "https://dc.lft.to/lastmile_qr_scan"}, "is_reserved": 0}, {"lon": -76.945934, "bike_id": "e98661b7507daacc2044a5e83d62888a", "lat": 38.9015455, "fusion_lon": 0.0, "fusion_lat": 0.0, "type": "electric_scooter", "name": "e98661b7507daacc2044a5e83d62888a", "is_disabled": 0, "rental_uris": {"ios": "https://dc.lft.to/lastmile_qr_scan", "android": "https://dc.lft.to/lastmile_qr_scan"}, "is_reserved": 0}, {"lon": -77.02713066666666, "bike_id": "a2c6050c8228afadc8b375f84ac3d1d6", "lat": 38.924692666666665, "fusion_lon": 0.0, "fusion_lat": 0.0, "type": "electric_scooter", "name": "a2c6050c8228afadc8b375f84ac3d1d6", "is_disabled": 0, "rental_uris": {"ios": "https://dc.lft.to/lastmile_qr_scan", "android": "https://dc.lft.to/lastmile_qr_scan"}, "is_reserved": 0}, {"lon": -77.02713466666667, "bike_id": "7fd8c62507138ed058500a4e977565ac", "lat": 38.92467366666666, "fusion_lon": 0.0, "fusion_lat": 0.0, "type": "electric_scooter", "name": "7fd8c62507138ed058500a4e977565ac", "is_disabled": 0, "rental_uris": {"ios": "https://dc.lft.to/lastmile_qr_scan", "android": "https://dc.lft.to/lastmile_qr_scan"}, "is_reserved": 0}, {"lon": -76.973969, "bike_id": "01e3b797513faff7ce3921dfc38ea4bd", "lat": 38.9029865, "fusion_lon": 0.0, "fusion_lat": 0.0, "type": "electric_scooter", "name": "01e3b797513faff7ce3921dfc38ea4bd", "is_disabled": 0, "rental_uris": {"ios": "https://dc.lft.to/lastmile_qr_scan", "android": "https://dc.lft.to/lastmile_qr_scan"}, "is_reserved": 0}, {"lon": -77.04168066666666, "bike_id": "62cda59bc87585d81321628e726dc9d7", "lat": 38.919963, "fusion_lon": 0.0, "fusion_lat": 0.0, "type": "electric_scooter", "name": "62cda59bc87585d81321628e726dc9d7", "is_disabled": 0, "rental_uris": {"ios": "https://dc.lft.to/lastmile_qr_scan", "android": "https://dc.lft.to/lastmile_qr_scan"}, "is_reserved": 0}, {"lon": -77.04706983333334, "bike_id": "8c4f7530c56fc4c3261d44bd3e41598d", "lat": 38.903214166666665, "fusion_lon": 0.0, "fusion_lat": 0.0, "type": "electric_scooter", "name": "8c4f7530c56fc4c3261d44bd3e41598d", "is_disabled": 0, "rental_uris": {"ios": "https://dc.lft.to/lastmile_qr_scan", "android": "https://dc.lft.to/lastmile_qr_scan"}, "is_reserved": 0}, {"lon": -77.08804616666667, "bike_id": "e66e6f37f3afba521281211ffce944aa", "lat": 38.91177316666667, "fusion_lon": 0.0, "fusion_lat": 0.0, "type": "electric_scooter", "name": "e66e6f37f3afba521281211ffce944aa", "is_disabled": 0, "rental_uris": {"ios": "https://dc.lft.to/lastmile_qr_scan", "android": "https://dc.lft.to/lastmile_qr_scan"}, "is_reserved": 0}, {"lon": -77.04005883333333, "bike_id": "8a634720b6e6868027f59f21ee9134e4", "lat": 38.934366833333335, "fusion_lon": 0.0, "fusion_lat": 0.0, "type": "electric_scooter", "name": "8a634720b6e6868027f59f21ee9134e4", "is_disabled": 0, "rental_uris": {"ios": "https://dc.lft.to/lastmile_qr_scan", "android": "https://dc.lft.to/lastmile_qr_scan"}, "is_reserved": 0}, {"lon": -76.98899316666666, "bike_id": "af814224aa50867bdc1fdef057414de1", "lat": 38.864954833333336, "fusion_lon": 0.0, "fusion_lat": 0.0, "type": "electric_scooter", "name": "af814224aa50867bdc1fdef057414de1", "is_disabled": 0, "rental_uris": {"ios": "https://dc.lft.to/lastmile_qr_scan", "android": "https://dc.lft.to/lastmile_qr_scan"}, "is_reserved": 0}, {"lon": -76.9806195, "bike_id": "5e314a32232c7eaa79496386660af363", "lat": 38.88497183333333, "fusion_lon": 0.0, "fusion_lat": 0.0, "type": "electric_scooter", "name": "5e314a32232c7eaa79496386660af363", "is_disabled": 0, "rental_uris": {"ios": "https://dc.lft.to/lastmile_qr_scan", "android": "https://dc.lft.to/lastmile_qr_scan"}, "is_reserved": 0}, {"lon": -77.04473516666667, "bike_id": "6f0c3aa0d46fa77c7a4db82f1066ce41", "lat": 38.92435016666667, "fusion_lon": 0.0, "fusion_lat": 0.0, "type": "electric_scooter", "name": "6f0c3aa0d46fa77c7a4db82f1066ce41", "is_disabled": 0, "rental_uris": {"ios": "https://dc.lft.to/lastmile_qr_scan", "android": "https://dc.lft.to/lastmile_qr_scan"}, "is_reserved": 0}, {"lon": -77.0342145, "bike_id": "ac46b0f96aaed2256bef4192d1a96225", "lat": 38.919321333333336, "fusion_lon": 0.0, "fusion_lat": 0.0, "type": "electric_scooter", "name": "ac46b0f96aaed2256bef4192d1a96225", "is_disabled": 0, "rental_uris": {"ios": "https://dc.lft.to/lastmile_qr_scan", "android": "https://dc.lft.to/lastmile_qr_scan"}, "is_reserved": 0}, {"lon": -77.02101983333333, "bike_id": "13a7d1738e04cfd9fb705c6abe9e188f", "lat": 38.9491675, "fusion_lon": 0.0, "fusion_lat": 0.0, "type": "electric_scooter", "name": "13a7d1738e04cfd9fb705c6abe9e188f", "is_disabled": 0, "rental_uris": {"ios": "https://dc.lft.to/lastmile_qr_scan", "android": "https://dc.lft.to/lastmile_qr_scan"}, "is_reserved": 0}, {"lon": -77.0303455, "bike_id": "1a35863b7f686208a62cc9c6c8533317", "lat": 38.9371915, "fusion_lon": 0.0, "fusion_lat": 0.0, "type": "electric_scooter", "name": "1a35863b7f686208a62cc9c6c8533317", "is_disabled": 0, "rental_uris": {"ios": "https://dc.lft.to/lastmile_qr_scan", "android": "https://dc.lft.to/lastmile_qr_scan"}, "is_reserved": 0}, {"lon": -77.02693616666667, "bike_id": "b5a5834c7f90c6695449d87cd72d44ea", "lat": 38.904317666666664, "fusion_lon": 0.0, "fusion_lat": 0.0, "type": "electric_scooter", "name": "b5a5834c7f90c6695449d87cd72d44ea", "is_disabled": 0, "rental_uris": {"ios": "https://dc.lft.to/lastmile_qr_scan", "android": "https://dc.lft.to/lastmile_qr_scan"}, "is_reserved": 0}, {"lon": -77.08490033333334, "bike_id": "1b2ab559b0a454238f3eaac0fb5b2b6c", "lat": 38.84850683333333, "fusion_lon": 0.0, "fusion_lat": 0.0, "type": "electric_bike", "name": "1b2ab559b0a454238f3eaac0fb5b2b6c", "is_disabled": 0, "rental_uris": {"ios": "https://dc.lft.to/lastmile_qr_scan", "android": "https://dc.lft.to/lastmile_qr_scan"}, "is_reserved": 0}, {"lon": -77.07413466666667, "bike_id": "cdb37c1610b6dd78ce4e8be0dfaecc9d", "lat": 38.92892833333333, "fusion_lon": 0.0, "fusion_lat": 0.0, "type": "electric_scooter", "name": "cdb37c1610b6dd78ce4e8be0dfaecc9d", "is_disabled": 0, "rental_uris": {"ios": "https://dc.lft.to/lastmile_qr_scan", "android": "https://dc.lft.to/lastmile_qr_scan"}, "is_reserved": 0}, {"lon": -77.0215865, "bike_id": "a5a3e3a80e2f15ea5fb91f6bb5de3885", "lat": 38.89730816666667, "fusion_lon": 0.0, "fusion_lat": 0.0, "type": "electric_scooter", "name": "a5a3e3a80e2f15ea5fb91f6bb5de3885", "is_disabled": 0, "rental_uris": {"ios": "https://dc.lft.to/lastmile_qr_scan", "android": "https://dc.lft.to/lastmile_qr_scan"}, "is_reserved": 0}, {"lon": -77.0166735, "bike_id": "052326f2706976fa8d0418669d62b4fa", "lat": 38.914461833333334, "fusion_lon": 0.0, "fusion_lat": 0.0, "type": "electric_scooter", "name": "052326f2706976fa8d0418669d62b4fa", "is_disabled": 0, "rental_uris": {"ios": "https://dc.lft.to/lastmile_qr_scan", "android": "https://dc.lft.to/lastmile_qr_scan"}, "is_reserved": 0}, {"lon": -76.931887, "bike_id": "501d36bd635f4bbc10724eacdb7950c6", "lat": 38.898790166666664, "fusion_lon": 0.0, "fusion_lat": 0.0, "type": "electric_scooter", "name": "501d36bd635f4bbc10724eacdb7950c6", "is_disabled": 0, "rental_uris": {"ios": "https://dc.lft.to/lastmile_qr_scan", "android": "https://dc.lft.to/lastmile_qr_scan"}, "is_reserved": 0}, {"lon": -77.031834, "bike_id": "aea7a960a18471c6cddc785ff18bdb4f", "lat": 38.91721483333333, "fusion_lon": 0.0, "fusion_lat": 0.0, "type": "electric_scooter", "name": "aea7a960a18471c6cddc785ff18bdb4f", "is_disabled": 0, "rental_uris": {"ios": "https://dc.lft.to/lastmile_qr_scan", "android": "https://dc.lft.to/lastmile_qr_scan"}, "is_reserved": 0}, {"lon": -76.93754183333333, "bike_id": "4c6bbea210f64d2e938746eaaa8df78d", "lat": 38.8905185, "fusion_lon": 0.0, "fusion_lat": 0.0, "type": "electric_scooter", "name": "4c6bbea210f64d2e938746eaaa8df78d", "is_disabled": 0, "rental_uris": {"ios": "https://dc.lft.to/lastmile_qr_scan", "android": "https://dc.lft.to/lastmile_qr_scan"}, "is_reserved": 0}, {"lon": -76.9954505, "bike_id": "635c62b7ab5687c654d9634c95584b78", "lat": 38.8626385, "fusion_lon": 0.0, "fusion_lat": 0.0, "type": "electric_scooter", "name": "635c62b7ab5687c654d9634c95584b78", "is_disabled": 0, "rental_uris": {"ios": "https://dc.lft.to/lastmile_qr_scan", "android": "https://dc.lft.to/lastmile_qr_scan"}, "is_reserved": 0}, {"lon": -77.05228883333334, "bike_id": "c23c9b6eb8fa9ba7691bd7aff9d0411f", "lat": 38.924588, "fusion_lon": 0.0, "fusion_lat": 0.0, "type": "electric_scooter", "name": "c23c9b6eb8fa9ba7691bd7aff9d0411f", "is_disabled": 0, "rental_uris": {"ios": "https://dc.lft.to/lastmile_qr_scan", "android": "https://dc.lft.to/lastmile_qr_scan"}, "is_reserved": 0}, {"lon": -77.0164245, "bike_id": "cec25f41fbf5a4c9fe25b40bccf38d06", "lat": 38.928891166666666, "fusion_lon": 0.0, "fusion_lat": 0.0, "type": "electric_scooter", "name": "cec25f41fbf5a4c9fe25b40bccf38d06", "is_disabled": 0, "rental_uris": {"ios": "https://dc.lft.to/lastmile_qr_scan", "android": "https://dc.lft.to/lastmile_qr_scan"}, "is_reserved": 0}, {"lon": -77.07338366666667, "bike_id": "3ff2a9bdbfb6c7846575fa620ff8fc7e", "lat": 38.93559466666667, "fusion_lon": 0.0, "fusion_lat": 0.0, "type": "electric_scooter", "name": "3ff2a9bdbfb6c7846575fa620ff8fc7e", "is_disabled": 0, "rental_uris": {"ios": "https://dc.lft.to/lastmile_qr_scan", "android": "https://dc.lft.to/lastmile_qr_scan"}, "is_reserved": 0}, {"lon": -77.04889116666666, "bike_id": "d88b3c684119d40ddde5514f7b56e865", "lat": 38.903498166666665, "fusion_lon": 0.0, "fusion_lat": 0.0, "type": "electric_scooter", "name": "d88b3c684119d40ddde5514f7b56e865", "is_disabled": 0, "rental_uris": {"ios": "https://dc.lft.to/lastmile_qr_scan", "android": "https://dc.lft.to/lastmile_qr_scan"}, "is_reserved": 0}, {"lon": -77.00673866666666, "bike_id": "2c7ffce194844d839438241b65a242d3", "lat": 38.9001535, "fusion_lon": 0.0, "fusion_lat": 0.0, "type": "electric_scooter", "name": "2c7ffce194844d839438241b65a242d3", "is_disabled": 0, "rental_uris": {"ios": "https://dc.lft.to/lastmile_qr_scan", "android": "https://dc.lft.to/lastmile_qr_scan"}, "is_reserved": 0}, {"lon": -77.0298625, "bike_id": "2a1996939b14e007d66da05d3d6407a9", "lat": 38.907303666666664, "fusion_lon": 0.0, "fusion_lat": 0.0, "type": "electric_scooter", "name": "2a1996939b14e007d66da05d3d6407a9", "is_disabled": 0, "rental_uris": {"ios": "https://dc.lft.to/lastmile_qr_scan", "android": "https://dc.lft.to/lastmile_qr_scan"}, "is_reserved": 0}, {"lon": -76.93733816666666, "bike_id": "ebd1da9f87df3a066358056b9f62d5dc", "lat": 38.8900385, "fusion_lon": 0.0, "fusion_lat": 0.0, "type": "electric_scooter", "name": "ebd1da9f87df3a066358056b9f62d5dc", "is_disabled": 0, "rental_uris": {"ios": "https://dc.lft.to/lastmile_qr_scan", "android": "https://dc.lft.to/lastmile_qr_scan"}, "is_reserved": 0}, {"lon": -77.04499016666666, "bike_id": "c647c7ad90ca922b22eecfe1dbc042ce", "lat": 38.91406766666667, "fusion_lon": 0.0, "fusion_lat": 0.0, "type": "electric_scooter", "name": "c647c7ad90ca922b22eecfe1dbc042ce", "is_disabled": 0, "rental_uris": {"ios": "https://dc.lft.to/lastmile_qr_scan", "android": "https://dc.lft.to/lastmile_qr_scan"}, "is_reserved": 0}, {"lon": -77.03177183333334, "bike_id": "82078c29c31b35836b55c704b9c19382", "lat": 38.92124716666667, "fusion_lon": 0.0, "fusion_lat": 0.0, "type": "electric_scooter", "name": "82078c29c31b35836b55c704b9c19382", "is_disabled": 0, "rental_uris": {"ios": "https://dc.lft.to/lastmile_qr_scan", "android": "https://dc.lft.to/lastmile_qr_scan"}, "is_reserved": 0}, {"lon": -77.02479633333333, "bike_id": "a21a66bb37a708efb9ea3e2b4d68a33f", "lat": 38.93625483333334, "fusion_lon": 0.0, "fusion_lat": 0.0, "type": "electric_scooter", "name": "a21a66bb37a708efb9ea3e2b4d68a33f", "is_disabled": 0, "rental_uris": {"ios": "https://dc.lft.to/lastmile_qr_scan", "android": "https://dc.lft.to/lastmile_qr_scan"}, "is_reserved": 0}, {"lon": -76.99050583333333, "bike_id": "6274f17ec239dc8388c41d7a24c3dce7", "lat": 38.863805666666664, "fusion_lon": 0.0, "fusion_lat": 0.0, "type": "electric_scooter", "name": "6274f17ec239dc8388c41d7a24c3dce7", "is_disabled": 0, "rental_uris": {"ios": "https://dc.lft.to/lastmile_qr_scan", "android": "https://dc.lft.to/lastmile_qr_scan"}, "is_reserved": 0}, {"lon": -77.0347445, "bike_id": "a83ff79ca6523c11ff77236810d5000d", "lat": 38.916951, "fusion_lon": 0.0, "fusion_lat": 0.0, "type": "electric_scooter", "name": "a83ff79ca6523c11ff77236810d5000d", "is_disabled": 0, "rental_uris": {"ios": "https://dc.lft.to/lastmile_qr_scan", "android": "https://dc.lft.to/lastmile_qr_scan"}, "is_reserved": 0}, {"lon": -77.11782, "bike_id": "b17f975f98b60b09ba873000e1b5a97a", "lat": 39.05494183333333, "fusion_lon": 0.0, "fusion_lat": 0.0, "type": "electric_bike", "name": "b17f975f98b60b09ba873000e1b5a97a", "is_disabled": 0, "rental_uris": {"ios": "https://dc.lft.to/lastmile_qr_scan", "android": "https://dc.lft.to/lastmile_qr_scan"}, "is_reserved": 0}, {"lon": -77.0785665, "bike_id": "7d74c87dd1976bb55c22974242281d1b", "lat": 38.92463133333333, "fusion_lon": 0.0, "fusion_lat": 0.0, "type": "electric_scooter", "name": "7d74c87dd1976bb55c22974242281d1b", "is_disabled": 0, "rental_uris": {"ios": "https://dc.lft.to/lastmile_qr_scan", "android": "https://dc.lft.to/lastmile_qr_scan"}, "is_reserved": 0}, {"lon": -77.028318, "bike_id": "03b77a09d779062e80ea1de2f5545149", "lat": 38.931925, "fusion_lon": 0.0, "fusion_lat": 0.0, "type": "electric_scooter", "name": "03b77a09d779062e80ea1de2f5545149", "is_disabled": 0, "rental_uris": {"ios": "https://dc.lft.to/lastmile_qr_scan", "android": "https://dc.lft.to/lastmile_qr_scan"}, "is_reserved": 0}, {"lon": -77.03285066666666, "bike_id": "48636ec5df946057a98deaa26ae688e3", "lat": 38.9564835, "fusion_lon": 0.0, "fusion_lat": 0.0, "type": "electric_scooter", "name": "48636ec5df946057a98deaa26ae688e3", "is_disabled": 0, "rental_uris": {"ios": "https://dc.lft.to/lastmile_qr_scan", "android": "https://dc.lft.to/lastmile_qr_scan"}, "is_reserved": 0}, {"lon": -77.0185595, "bike_id": "5db505ed0fcce66bece8a5d1e605b4b1", "lat": 38.930192166666664, "fusion_lon": 0.0, "fusion_lat": 0.0, "type": "electric_bike", "name": "5db505ed0fcce66bece8a5d1e605b4b1", "is_disabled": 0, "rental_uris": {"ios": "https://dc.lft.to/lastmile_qr_scan", "android": "https://dc.lft.to/lastmile_qr_scan"}, "is_reserved": 0}, {"lon": -77.17837166666666, "bike_id": "7e66cfcefd978055a274a1a8cd25231e", "lat": 39.08859316666667, "fusion_lon": 0.0, "fusion_lat": 0.0, "type": "electric_bike", "name": "7e66cfcefd978055a274a1a8cd25231e", "is_disabled": 0, "rental_uris": {"ios": "https://dc.lft.to/lastmile_qr_scan", "android": "https://dc.lft.to/lastmile_qr_scan"}, "is_reserved": 0}, {"lon": -77.11708116666667, "bike_id": "f0719b11ebd4730e27683f0c17dd6997", "lat": 38.867485333333335, "fusion_lon": 0.0, "fusion_lat": 0.0, "type": "electric_bike", "name": "f0719b11ebd4730e27683f0c17dd6997", "is_disabled": 0, "rental_uris": {"ios": "https://dc.lft.to/lastmile_qr_scan", "android": "https://dc.lft.to/lastmile_qr_scan"}, "is_reserved": 0}, {"lon": -77.00069533333334, "bike_id": "b91a01b05ff8d515bdf374fbba3eaefe", "lat": 38.917348, "fusion_lon": 0.0, "fusion_lat": 0.0, "type": "electric_scooter", "name": "b91a01b05ff8d515bdf374fbba3eaefe", "is_disabled": 0, "rental_uris": {"ios": "https://dc.lft.to/lastmile_qr_scan", "android": "https://dc.lft.to/lastmile_qr_scan"}, "is_reserved": 0}, {"lon": -77.02319333333334, "bike_id": "8415947f5c9e68163b1e366a4cb3e3ca", "lat": 38.8948875, "fusion_lon": 0.0, "fusion_lat": 0.0, "type": "electric_scooter", "name": "8415947f5c9e68163b1e366a4cb3e3ca", "is_disabled": 0, "rental_uris": {"ios": "https://dc.lft.to/lastmile_qr_scan", "android": "https://dc.lft.to/lastmile_qr_scan"}, "is_reserved": 0}, {"lon": -77.031727, "bike_id": "3d9819587c1dd39a0986e38d52eb2786", "lat": 38.897741333333336, "fusion_lon": 0.0, "fusion_lat": 0.0, "type": "electric_scooter", "name": "3d9819587c1dd39a0986e38d52eb2786", "is_disabled": 0, "rental_uris": {"ios": "https://dc.lft.to/lastmile_qr_scan", "android": "https://dc.lft.to/lastmile_qr_scan"}, "is_reserved": 0}, {"lon": -76.98528333333333, "bike_id": "605d720911e7c6a2b61eab61e4e8740e", "lat": 38.90461966666667, "fusion_lon": 0.0, "fusion_lat": 0.0, "type": "electric_scooter", "name": "605d720911e7c6a2b61eab61e4e8740e", "is_disabled": 0, "rental_uris": {"ios": "https://dc.lft.to/lastmile_qr_scan", "android": "https://dc.lft.to/lastmile_qr_scan"}, "is_reserved": 0}, {"lon": -77.03447866666667, "bike_id": "904668141a0d7e33de968284726080fc", "lat": 38.92737016666667, "fusion_lon": 0.0, "fusion_lat": 0.0, "type": "electric_scooter", "name": "904668141a0d7e33de968284726080fc", "is_disabled": 0, "rental_uris": {"ios": "https://dc.lft.to/lastmile_qr_scan", "android": "https://dc.lft.to/lastmile_qr_scan"}, "is_reserved": 0}, {"lon": -77.01200316666667, "bike_id": "2c3e352d7bf3ccf829409697e302b386", "lat": 38.824076, "fusion_lon": 0.0, "fusion_lat": 0.0, "type": "electric_bike", "name": "2c3e352d7bf3ccf829409697e302b386", "is_disabled": 0, "rental_uris": {"ios": "https://dc.lft.to/lastmile_qr_scan", "android": "https://dc.lft.to/lastmile_qr_scan"}, "is_reserved": 0}, {"lon": -76.95745783333334, "bike_id": "81dff4b96a20a8e5ec6264b104adc326", "lat": 38.88431516666667, "fusion_lon": 0.0, "fusion_lat": 0.0, "type": "electric_scooter", "name": "81dff4b96a20a8e5ec6264b104adc326", "is_disabled": 0, "rental_uris": {"ios": "https://dc.lft.to/lastmile_qr_scan", "android": "https://dc.lft.to/lastmile_qr_scan"}, "is_reserved": 0}, {"lon": -77.04745966666667, "bike_id": "b6c3bb9cc9b10c8bc682e68e869a7fbf", "lat": 38.917753166666664, "fusion_lon": 0.0, "fusion_lat": 0.0, "type": "electric_scooter", "name": "b6c3bb9cc9b10c8bc682e68e869a7fbf", "is_disabled": 0, "rental_uris": {"ios": "https://dc.lft.to/lastmile_qr_scan", "android": "https://dc.lft.to/lastmile_qr_scan"}, "is_reserved": 0}, {"lon": -77.00151866666667, "bike_id": "24d307b1b3e2f84c6eb8db43f95940a8", "lat": 38.910837, "fusion_lon": 0.0, "fusion_lat": 0.0, "type": "electric_scooter", "name": "24d307b1b3e2f84c6eb8db43f95940a8", "is_disabled": 0, "rental_uris": {"ios": "https://dc.lft.to/lastmile_qr_scan", "android": "https://dc.lft.to/lastmile_qr_scan"}, "is_reserved": 0}, {"lon": -77.01344666666667, "bike_id": "9588011afcdad58cb3f15e362214d1c7", "lat": 38.87817283333333, "fusion_lon": 0.0, "fusion_lat": 0.0, "type": "electric_scooter", "name": "9588011afcdad58cb3f15e362214d1c7", "is_disabled": 0, "rental_uris": {"ios": "https://dc.lft.to/lastmile_qr_scan", "android": "https://dc.lft.to/lastmile_qr_scan"}, "is_reserved": 0}, {"lon": -77.02361466666666, "bike_id": "628a941b8a49a61c89bce15e40ed64b7", "lat": 38.92224683333333, "fusion_lon": 0.0, "fusion_lat": 0.0, "type": "electric_scooter", "name": "628a941b8a49a61c89bce15e40ed64b7", "is_disabled": 0, "rental_uris": {"ios": "https://dc.lft.to/lastmile_qr_scan", "android": "https://dc.lft.to/lastmile_qr_scan"}, "is_reserved": 0}, {"lon": -77.045624, "bike_id": "abe8729cde118d882459529902608686", "lat": 38.91473116666667, "fusion_lon": 0.0, "fusion_lat": 0.0, "type": "electric_scooter", "name": "abe8729cde118d882459529902608686", "is_disabled": 0, "rental_uris": {"ios": "https://dc.lft.to/lastmile_qr_scan", "android": "https://dc.lft.to/lastmile_qr_scan"}, "is_reserved": 0}, {"lon": -77.03202933333333, "bike_id": "f42fb228a0a7417e64109d4503a38cb1", "lat": 38.907324333333335, "fusion_lon": 0.0, "fusion_lat": 0.0, "type": "electric_scooter", "name": "f42fb228a0a7417e64109d4503a38cb1", "is_disabled": 0, "rental_uris": {"ios": "https://dc.lft.to/lastmile_qr_scan", "android": "https://dc.lft.to/lastmile_qr_scan"}, "is_reserved": 0}, {"lon": -77.04047883333334, "bike_id": "1ad57daf7549818f1af04dab5e416266", "lat": 38.92878816666666, "fusion_lon": 0.0, "fusion_lat": 0.0, "type": "electric_scooter", "name": "1ad57daf7549818f1af04dab5e416266", "is_disabled": 0, "rental_uris": {"ios": "https://dc.lft.to/lastmile_qr_scan", "android": "https://dc.lft.to/lastmile_qr_scan"}, "is_reserved": 0}, {"lon": -77.00335116666666, "bike_id": "33b5f530944259c778ba9b9d2fc13ba2", "lat": 38.8918895, "fusion_lon": 0.0, "fusion_lat": 0.0, "type": "electric_scooter", "name": "33b5f530944259c778ba9b9d2fc13ba2", "is_disabled": 0, "rental_uris": {"ios": "https://dc.lft.to/lastmile_qr_scan", "android": "https://dc.lft.to/lastmile_qr_scan"}, "is_reserved": 0}, {"lon": -77.12650716666667, "bike_id": "e1a3e07f912fa49b5f8b1de09518f2d3", "lat": 38.815227, "fusion_lon": 0.0, "fusion_lat": 0.0, "type": "electric_bike", "name": "e1a3e07f912fa49b5f8b1de09518f2d3", "is_disabled": 0, "rental_uris": {"ios": "https://dc.lft.to/lastmile_qr_scan", "android": "https://dc.lft.to/lastmile_qr_scan"}, "is_reserved": 0}, {"lon": -76.98187333333334, "bike_id": "3075d1d3ffd95e98bee825dd90eb133e", "lat": 38.9260645, "fusion_lon": 0.0, "fusion_lat": 0.0, "type": "electric_scooter", "name": "3075d1d3ffd95e98bee825dd90eb133e", "is_disabled": 0, "rental_uris": {"ios": "https://dc.lft.to/lastmile_qr_scan", "android": "https://dc.lft.to/lastmile_qr_scan"}, "is_reserved": 0}, {"lon": -77.04491866666666, "bike_id": "51bfb81aea746089c34db46a77b441e6", "lat": 38.91611666666667, "fusion_lon": 0.0, "fusion_lat": 0.0, "type": "electric_scooter", "name": "51bfb81aea746089c34db46a77b441e6", "is_disabled": 0, "rental_uris": {"ios": "https://dc.lft.to/lastmile_qr_scan", "android": "https://dc.lft.to/lastmile_qr_scan"}, "is_reserved": 0}, {"lon": -77.0444435, "bike_id": "21b93132b07bad635130b312b9c14554", "lat": 38.918806833333335, "fusion_lon": 0.0, "fusion_lat": 0.0, "type": "electric_scooter", "name": "21b93132b07bad635130b312b9c14554", "is_disabled": 0, "rental_uris": {"ios": "https://dc.lft.to/lastmile_qr_scan", "android": "https://dc.lft.to/lastmile_qr_scan"}, "is_reserved": 0}, {"lon": -77.0020835, "bike_id": "fcdf00620a90875dd1440fd778d8d442", "lat": 38.881344666666664, "fusion_lon": 0.0, "fusion_lat": 0.0, "type": "electric_scooter", "name": "fcdf00620a90875dd1440fd778d8d442", "is_disabled": 0, "rental_uris": {"ios": "https://dc.lft.to/lastmile_qr_scan", "android": "https://dc.lft.to/lastmile_qr_scan"}, "is_reserved": 0}, {"lon": -77.08316716666667, "bike_id": "e6e7f9998a7cb0ada6b1b10ca05f61dc", "lat": 38.92987016666667, "fusion_lon": 0.0, "fusion_lat": 0.0, "type": "electric_scooter", "name": "e6e7f9998a7cb0ada6b1b10ca05f61dc", "is_disabled": 0, "rental_uris": {"ios": "https://dc.lft.to/lastmile_qr_scan", "android": "https://dc.lft.to/lastmile_qr_scan"}, "is_reserved": 0}, {"lon": -77.02712133333333, "bike_id": "d3e60d56aed9dec9ef9ab9913a4e0362", "lat": 38.927718, "fusion_lon": 0.0, "fusion_lat": 0.0, "type": "electric_scooter", "name": "d3e60d56aed9dec9ef9ab9913a4e0362", "is_disabled": 0, "rental_uris": {"ios": "https://dc.lft.to/lastmile_qr_scan", "android": "https://dc.lft.to/lastmile_qr_scan"}, "is_reserved": 0}, {"lon": -77.04632616666666, "bike_id": "0b56b5774a8807e9dafd38aeffb0271c", "lat": 38.91910683333333, "fusion_lon": 0.0, "fusion_lat": 0.0, "type": "electric_scooter", "name": "0b56b5774a8807e9dafd38aeffb0271c", "is_disabled": 0, "rental_uris": {"ios": "https://dc.lft.to/lastmile_qr_scan", "android": "https://dc.lft.to/lastmile_qr_scan"}, "is_reserved": 0}, {"lon": -76.933476, "bike_id": "f80db670befb6d454ae73de632c973bc", "lat": 38.89915033333333, "fusion_lon": 0.0, "fusion_lat": 0.0, "type": "electric_scooter", "name": "f80db670befb6d454ae73de632c973bc", "is_disabled": 0, "rental_uris": {"ios": "https://dc.lft.to/lastmile_qr_scan", "android": "https://dc.lft.to/lastmile_qr_scan"}, "is_reserved": 0}, {"lon": -77.04792216666667, "bike_id": "5ba7e8f6cbf782bf333a1c3362e87f80", "lat": 38.9096335, "fusion_lon": 0.0, "fusion_lat": 0.0, "type": "electric_scooter", "name": "5ba7e8f6cbf782bf333a1c3362e87f80", "is_disabled": 0, "rental_uris": {"ios": "https://dc.lft.to/lastmile_qr_scan", "android": "https://dc.lft.to/lastmile_qr_scan"}, "is_reserved": 0}, {"lon": -76.92732866666667, "bike_id": "0db21372c4338b9d4fcfe9f43388f810", "lat": 38.889681, "fusion_lon": 0.0, "fusion_lat": 0.0, "type": "electric_scooter", "name": "0db21372c4338b9d4fcfe9f43388f810", "is_disabled": 0, "rental_uris": {"ios": "https://dc.lft.to/lastmile_qr_scan", "android": "https://dc.lft.to/lastmile_qr_scan"}, "is_reserved": 0}, {"lon": -77.05352066666667, "bike_id": "dbb69da8668858dabd59f912740aa472", "lat": 38.92698333333333, "fusion_lon": 0.0, "fusion_lat": 0.0, "type": "electric_scooter", "name": "dbb69da8668858dabd59f912740aa472", "is_disabled": 0, "rental_uris": {"ios": "https://dc.lft.to/lastmile_qr_scan", "android": "https://dc.lft.to/lastmile_qr_scan"}, "is_reserved": 0}, {"lon": -77.022523, "bike_id": "d2661fde43113c1eb08d313f62163af6", "lat": 38.928252, "fusion_lon": 0.0, "fusion_lat": 0.0, "type": "electric_scooter", "name": "d2661fde43113c1eb08d313f62163af6", "is_disabled": 0, "rental_uris": {"ios": "https://dc.lft.to/lastmile_qr_scan", "android": "https://dc.lft.to/lastmile_qr_scan"}, "is_reserved": 0}, {"lon": -77.023559, "bike_id": "a46ddc3a60a6eeb5e6e484e53d9bc2e1", "lat": 38.92058733333333, "fusion_lon": 0.0, "fusion_lat": 0.0, "type": "electric_scooter", "name": "a46ddc3a60a6eeb5e6e484e53d9bc2e1", "is_disabled": 0, "rental_uris": {"ios": "https://dc.lft.to/lastmile_qr_scan", "android": "https://dc.lft.to/lastmile_qr_scan"}, "is_reserved": 0}, {"lon": -76.9828835, "bike_id": "7152bf32d6fde89183f017dedd613313", "lat": 38.90048516666667, "fusion_lon": 0.0, "fusion_lat": 0.0, "type": "electric_scooter", "name": "7152bf32d6fde89183f017dedd613313", "is_disabled": 0, "rental_uris": {"ios": "https://dc.lft.to/lastmile_qr_scan", "android": "https://dc.lft.to/lastmile_qr_scan"}, "is_reserved": 0}, {"lon": -76.985666, "bike_id": "1d6f6d5dacd684bd6b553d829a5aae97", "lat": 38.8995875, "fusion_lon": 0.0, "fusion_lat": 0.0, "type": "electric_scooter", "name": "1d6f6d5dacd684bd6b553d829a5aae97", "is_disabled": 0, "rental_uris": {"ios": "https://dc.lft.to/lastmile_qr_scan", "android": "https://dc.lft.to/lastmile_qr_scan"}, "is_reserved": 0},