{"data": {"bikes": [{"lat": 38.920841833333334, "type": "electric_scooter", "is_disabled": 0, "name": "827ca12f36a757b37a38bc6013c8cfd0", "bike_id": "827ca12f36a757b37a38bc6013c8cfd0", "fusion_lon": 0.0, "rental_uris": {"ios": "https://dc.lft.to/lastmile_qr_scan", "android": "https://dc.lft.to/lastmile_qr_scan"}, "is_reserved": 0, "fusion_lat": 0.0, "lon": -77.02533433333333}, {"lat": 38.86722683333333, "type": "electric_scooter", "is_disabled": 0, "name": "30835a2879d2dedeabe5db73f8fac2eb", "bike_id": "30835a2879d2dedeabe5db73f8fac2eb", "fusion_lon": 0.0, "rental_uris": {"ios": "https://dc.lft.to/lastmile_qr_scan", "android": "https://dc.lft.to/lastmile_qr_scan"}, "is_reserved": 0, "fusion_lat": 0.0, "lon": -77.0101415}, {"lat": 38.90700616666667, "type": "electric_scooter", "is_disabled": 0, "name": "c6471e344809bfb40a5c500f887eb212", "bike_id": "c6471e344809bfb40a5c500f887eb212", "fusion_lon": 0.0, "rental_uris": {"ios": "https://dc.lft.to/lastmile_qr_scan", "android": "https://dc.lft.to/lastmile_qr_scan"}, "is_reserved": 0, "fusion_lat": 0.0, "lon": -77.0320865}, {"lat": 38.870715, "type": "electric_scooter", "is_disabled": 0, "name": "38f10dfd2407340535ac391160f1e2a6", "bike_id": "38f10dfd2407340535ac391160f1e2a6", "fusion_lon": 0.0, "rental_uris": {"ios": "https://dc.lft.to/lastmile_qr_scan", "android": "https://dc.lft.to/lastmile_qr_scan"}, "is_reserved": 0, "fusion_lat": 0.0, "lon": -76.980008}, {"lat": 38.824278666666665, "type": "electric_bike", "is_disabled": 0, "name": "60a38407d44332a9210b26eaa6c877d5", "bike_id": "60a38407d44332a9210b26eaa6c877d5", "fusion_lon": 0.0, "rental_uris": {"ios": "https://dc.lft.to/lastmile_qr_scan", "android": "https://dc.lft.to/lastmile_qr_scan"}, "is_reserved": 0, "fusion_lat": 0.0, "lon": -77.12037666666667}, {"lat": 38.939692666666666, "type": "electric_bike", "is_disabled": 0, "name": "b23cd0a5b31e5499f2040f9afa0bfad1", "bike_id": "b23cd0a5b31e5499f2040f9afa0bfad1", "fusion_lon": 0.0, "rental_uris": {"ios": "https://dc.lft.to/lastmile_qr_scan", "android": "https://dc.lft.to/lastmile_qr_scan"}, "is_reserved": 0, "fusion_lat": 0.0, "lon": -76.986142}, {"lat": 38.902556833333335, "type": "electric_scooter", "is_disabled": 0, "name": "6af08ead098bb4415b86937ee4844b73", "bike_id": "6af08ead098bb4415b86937ee4844b73", "fusion_lon": 0.0, "rental_uris": {"ios": "https://dc.lft.to/lastmile_qr_scan", "android": "https://dc.lft.to/lastmile_qr_scan"}, "is_reserved": 0, "fusion_lat": 0.0, "lon": -77.04506683333334}, {"lat": 38.865601166666664, "type": "electric_bike", "is_disabled": 0, "name": "8a8f7d3bff55be283e2b7a9f805e8921", "bike_id": "8a8f7d3bff55be283e2b7a9f805e8921", "fusion_lon": 0.0, "rental_uris": {"ios": "https://dc.lft.to/lastmile_qr_scan", "android": "https://dc.lft.to/lastmile_qr_scan"}, "is_reserved": 0, "fusion_lat": 0.0, "lon": -76.97479433333334}, {"lat": 38.92930166666667, "type": "electric_scooter", "is_disabled": 0, "name": "22ecb9b5e91f6c1861f693be0fc3be5a", "bike_id": "22ecb9b5e91f6c1861f693be0fc3be5a", "fusion_lon": 0.0, "rental_uris": {"ios": "https://dc.lft.to/lastmile_qr_scan", "android": "https://dc.lft.to/lastmile_qr_scan"}, "is_reserved": 0, "fusion_lat": 0.0, "lon": -77.00678766666667}, {"lat": 38.957837833333336, "type": "electric_scooter", "is_disabled": 0, "name": "a3c0274234c96a35afa3ed826548b800", "bike_id": "a3c0274234c96a35afa3ed826548b800", "fusion_lon": 0.0, "rental_uris": {"ios": "https://dc.lft.to/lastmile_qr_scan", "android": "https://dc.lft.to/lastmile_qr_scan"}, "is_reserved": 0, "fusion_lat": 0.0, "lon": -77.02834133333333}, {"lat": 38.905801, "type": "electric_scooter", "is_disabled": 0, "name": "f056b6866ec90c0dcf7a0bd157fba422", "bike_id": "f056b6866ec90c0dcf7a0bd157fba422", "fusion_lon": 0.0, "rental_uris": {"ios": "https://dc.lft.to/lastmile_qr_scan", "android": "https://dc.lft.to/lastmile_qr_scan"}, "is_reserved": 0, "fusion_lat": 0.0, "lon": -77.00614983333334}, {"lat": 38.904114166666666, "type": "electric_scooter", "is_disabled": 0, "name": "21a18d5f913845c32316587b3e169618", "bike_id": "21a18d5f913845c32316587b3e169618", "fusion_lon": 0.0, "rental_uris": {"ios": "https://dc.lft.to/lastmile_qr_scan", "android": "https://dc.lft.to/lastmile_qr_scan"}, "is_reserved": 0, "fusion_lat": 0.0, "lon": -77.02594166666667}, {"lat": 38.9151725, "type": "electric_scooter", "is_disabled": 0, "name": "297ad8cd7521a6267c5b2f60ebd8f007", "bike_id": "297ad8cd7521a6267c5b2f60ebd8f007", "fusion_lon": 0.0, "rental_uris": {"ios": "https://dc.lft.to/lastmile_qr_scan", "android": "https://dc.lft.to/lastmile_qr_scan"}, "is_reserved": 0, "fusion_lat": 0.0, "lon": -77.0448435}, {"lat": 38.89766516666667, "type": "electric_scooter", "is_disabled": 0, "name": "7ddb61ac5b9db6eb01acfe86aebb8b25", "bike_id": "7ddb61ac5b9db6eb01acfe86aebb8b25", "fusion_lon": 0.0, "rental_uris": {"ios": "https://dc.lft.to/lastmile_qr_scan", "android": "https://dc.lft.to/lastmile_qr_scan"}, "is_reserved": 0, "fusion_lat": 0.0, "lon": -77.026899}, {"lat": 38.922495166666664, "type": "electric_scooter", "is_disabled": 0, "name": "15acead0c8ed6c2609f44214811b4089", "bike_id": "15acead0c8ed6c2609f44214811b4089", "fusion_lon": 0.0, "rental_uris": {"ios": "https://dc.lft.to/lastmile_qr_scan", "android": "https://dc.lft.to/lastmile_qr_scan"}, "is_reserved": 0, "fusion_lat": 0.0, "lon": -77.03087533333333}, {"lat": 38.90215966666667, "type": "electric_scooter", "is_disabled": 0, "name": "c90a909e95f7f208e219a511c20548db", "bike_id": "c90a909e95f7f208e219a511c20548db", "fusion_lon": 0.0, "rental_uris": {"ios": "https://dc.lft.to/lastmile_qr_scan", "android": "https://dc.lft.to/lastmile_qr_scan"}, "is_reserved": 0, "fusion_lat": 0.0, "lon": -77.0236835}, {"lat": 38.8922405, "type": "electric_scooter", "is_disabled": 0, "name": "917c6781e9dc92194425f0b7b1ec7efa", "bike_id": "917c6781e9dc92194425f0b7b1ec7efa", "fusion_lon": 0.0, "rental_uris": {"ios": "https://dc.lft.to/lastmile_qr_scan", "android": "https://dc.lft.to/lastmile_qr_scan"}, "is_reserved": 0, "fusion_lat": 0.0, "lon": -77.04504666666666}, {"lat": 38.93462666666667, "type": "electric_scooter", "is_disabled": 0, "name": "a1324f5c43ab876c3e9236941f79f8ea", "bike_id": "a1324f5c43ab876c3e9236941f79f8ea", "fusion_lon": 0.0, "rental_uris": {"ios": "https://dc.lft.to/lastmile_qr_scan", "android": "https://dc.lft.to/lastmile_qr_scan"}, "is_reserved": 0, "fusion_lat": 0.0, "lon": -77.05809716666667}, {"lat": 38.926735, "type": "electric_scooter", "is_disabled": 0, "name": "d39c0a0e2a52a381b541212f0e1714d1", "bike_id": "d39c0a0e2a52a381b541212f0e1714d1", "fusion_lon": 0.0, "rental_uris": {"ios": "https://dc.lft.to/lastmile_qr_scan", "android": "https://dc.lft.to/lastmile_qr_scan"}, "is_reserved": 0, "fusion_lat": 0.0, "lon": -77.02764166666667}, {"lat": 38.908578, "type": "electric_scooter", "is_disabled": 0, "name": "125c94a4e0843cfacb29a9f41aad6453", "bike_id": "125c94a4e0843cfacb29a9f41aad6453", "fusion_lon": 0.0, "rental_uris": {"ios": "https://dc.lft.to/lastmile_qr_scan", "android": "https://dc.lft.to/lastmile_qr_scan"}, "is_reserved": 0, "fusion_lat": 0.0, "lon": -76.99679933333333}, {"lat": 38.92864516666667, "type": "electric_scooter", "is_disabled": 0, "name": "34c704291dafa1abd90a3d26ee5cd5c6", "bike_id": "34c704291dafa1abd90a3d26ee5cd5c6", "fusion_lon": 0.0, "rental_uris": {"ios": "https://dc.lft.to/lastmile_qr_scan", "android": "https://dc.lft.to/lastmile_qr_scan"}, "is_reserved": 0, "fusion_lat": 0.0, "lon": -77.03713333333333}, {"lat": 38.887423166666665, "type": "electric_scooter", "is_disabled": 0, "name": "d70d40f3d099984d9fabd52b516bf0a5", "bike_id": "d70d40f3d099984d9fabd52b516bf0a5", "fusion_lon": 0.0, "rental_uris": {"ios": "https://dc.lft.to/lastmile_qr_scan", "android": "https://dc.lft.to/lastmile_qr_scan"}, "is_reserved": 0, "fusion_lat": 0.0, "lon": -77.0286055}, {"lat": 38.880313, "type": "electric_scooter", "is_disabled": 0, "name": "b54ab20f6646dc706c572a5849c231e6", "bike_id": "b54ab20f6646dc706c572a5849c231e6", "fusion_lon": 0.0, "rental_uris": {"ios": "https://dc.lft.to/lastmile_qr_scan", "android": "https://dc.lft.to/lastmile_qr_scan"}, "is_reserved": 0, "fusion_lat": 0.0, "lon": -77.00546016666667}, {"lat": 38.90277866666667, "type": "electric_scooter", "is_disabled": 0, "name": "a3c4beda05e076bc7ddefc7dad0722e2", "bike_id": "a3c4beda05e076bc7ddefc7dad0722e2", "fusion_lon": 0.0, "rental_uris": {"ios": "https://dc.lft.to/lastmile_qr_scan", "android": "https://dc.lft.to/lastmile_qr_scan"}, "is_reserved": 0, "fusion_lat": 0.0, "lon": -77.06015066666667}, {"lat": 38.908425333333334, "type": "electric_scooter", "is_disabled": 0, "name": "c25cb8931c74e2410ea6dce9415b5acd", "bike_id": "c25cb8931c74e2410ea6dce9415b5acd", "fusion_lon": 0.0, "rental_uris": {"ios": "https://dc.lft.to/lastmile_qr_scan", "android": "https://dc.lft.to/lastmile_qr_scan"}, "is_reserved": 0, "fusion_lat": 0.0, "lon": -77.04009166666667}, {"lat": 38.928870833333335, "type": "electric_scooter", "is_disabled": 0, "name": "c564ac9c8739e34d6ce6722651253317", "bike_id": "c564ac9c8739e34d6ce6722651253317", "fusion_lon": 0.0, "rental_uris": {"ios": "https://dc.lft.to/lastmile_qr_scan", "android": "https://dc.lft.to/lastmile_qr_scan"}, "is_reserved": 0, "fusion_lat": 0.0, "lon": -77.032643}, {"lat": 38.90225816666667, "type": "electric_scooter", "is_disabled": 0, "name": "4a22eae29ef4cc7c31b9d32c1a960081", "bike_id": "4a22eae29ef4cc7c31b9d32c1a960081", "fusion_lon": 0.0, "rental_uris": {"ios": "https://dc.lft.to/lastmile_qr_scan", "android": "https://dc.lft.to/lastmile_qr_scan"}, "is_reserved": 0, "fusion_lat": 0.0, "lon": -77.03768216666667}, {"lat": 38.893471166666664, "type": "electric_scooter", "is_disabled": 0, "name": "fa63b55281cf9b85699f268a8990337b", "bike_id": "fa63b55281cf9b85699f268a8990337b", "fusion_lon": 0.0, "rental_uris": {"ios": "https://dc.lft.to/lastmile_qr_scan", "android": "https://dc.lft.to/lastmile_qr_scan"}, "is_reserved": 0, "fusion_lat": 0.0, "lon": -77.0152285}, {"lat": 38.93592016666667, "type": "electric_scooter", "is_disabled": 0, "name": "6102930bc545a1e0742ffc831a076ad1", "bike_id": "6102930bc545a1e0742ffc831a076ad1", "fusion_lon": 0.0, "rental_uris": {"ios": "https://dc.lft.to/lastmile_qr_scan", "android": "https://dc.lft.to/lastmile_qr_scan"}, "is_reserved": 0, "fusion_lat": 0.0, "lon": -77.0583935}, {"lat": 38.923070833333334, "type": "electric_scooter", "is_disabled": 0, "name": "a68f88a32483e36d233bb71fa55ebcd6", "bike_id": "a68f88a32483e36d233bb71fa55ebcd6", "fusion_lon": 0.0, "rental_uris": {"ios": "https://dc.lft.to/lastmile_qr_scan", "android": "https://dc.lft.to/lastmile_qr_scan"}, "is_reserved": 0, "fusion_lat": 0.0, "lon": -77.03106283333334}, {"lat": 38.88876166666667, "type": "electric_scooter", "is_disabled": 0, "name": "58cab1be340691b53744b9880363d2c9", "bike_id": "58cab1be340691b53744b9880363d2c9", "fusion_lon": 0.0, "rental_uris": {"ios": "https://dc.lft.to/lastmile_qr_scan", "android": "https://dc.lft.to/lastmile_qr_scan"}, "is_reserved": 0, "fusion_lat": 0.0, "lon": -76.986771}, {"lat": 38.903624666666666, "type": "electric_scooter", "is_disabled": 0, "name": "d74f871f9f4f742d85f78773fcf2e6aa", "bike_id": "d74f871f9f4f742d85f78773fcf2e6aa", "fusion_lon": 0.0, "rental_uris": {"ios": "https://dc.lft.to/lastmile_qr_scan", "android": "https://dc.lft.to/lastmile_qr_scan"}, "is_reserved": 0, "fusion_lat": 0.0, "lon": -77.038578}, {"lat": 38.88790783333334, "type": "electric_scooter", "is_disabled": 0, "name": "7581846b44b80932a8c10f3e50c396b5", "bike_id": "7581846b44b80932a8c10f3e50c396b5", "fusion_lon": 0.0, "rental_uris": {"ios": "https://dc.lft.to/lastmile_qr_scan", "android": "https://dc.lft.to/lastmile_qr_scan"}, "is_reserved": 0, "fusion_lat": 0.0, "lon": -77.015949}, {"lat": 38.900559, "type": "electric_scooter", "is_disabled": 0, "name": "f21bd0ac692af0b1f7526fddbf0c8a5e", "bike_id": "f21bd0ac692af0b1f7526fddbf0c8a5e", "fusion_lon": 0.0, "rental_uris": {"ios": "https://dc.lft.to/lastmile_qr_scan", "android": "https://dc.lft.to/lastmile_qr_scan"}, "is_reserved": 0, "fusion_lat": 0.0, "lon": -76.98485666666667}, {"lat": 38.89850666666667, "type": "electric_bike", "is_disabled": 0, "name": "28818711b982882150e532e81f0491fd", "bike_id": "28818711b982882150e532e81f0491fd", "fusion_lon": 0.0, "rental_uris": {"ios": "https://dc.lft.to/lastmile_qr_scan", "android": "https://dc.lft.to/lastmile_qr_scan"}, "is_reserved": 0, "fusion_lat": 0.0, "lon": -76.9318545}, {"lat": 38.9104425, "type": "electric_scooter", "is_disabled": 0, "name": "346e771fcaa581c8be7dc7fb7f8e6857", "bike_id": "346e771fcaa581c8be7dc7fb7f8e6857", "fusion_lon": 0.0, "rental_uris": {"ios": "https://dc.lft.to/lastmile_qr_scan", "android": "https://dc.lft.to/lastmile_qr_scan"}, "is_reserved": 0, "fusion_lat": 0.0, "lon": -77.04496333333333}, {"lat": 38.819121833333334, "type": "electric_bike", "is_disabled": 0, "name": "57f522933a2fbd16b93d7c61d59214f4", "bike_id": "57f522933a2fbd16b93d7c61d59214f4", "fusion_lon": 0.0, "rental_uris": {"ios": "https://dc.lft.to/lastmile_qr_scan", "android": "https://dc.lft.to/lastmile_qr_scan"}, "is_reserved": 0, "fusion_lat": 0.0, "lon": -77.12662816666666}, {"lat": 38.92466566666667, "type": "electric_scooter", "is_disabled": 0, "name": "cfc6fee65219b872261d399e330e9450", "bike_id": "cfc6fee65219b872261d399e330e9450", "fusion_lon": 0.0, "rental_uris": {"ios": "https://dc.lft.to/lastmile_qr_scan", "android": "https://dc.lft.to/lastmile_qr_scan"}, "is_reserved": 0, "fusion_lat": 0.0, "lon": -77.03822483333333}, {"lat": 38.90562633333333, "type": "electric_scooter", "is_disabled": 0, "name": "6a36f3ace292e98dd526fd0af0774a0d", "bike_id": "6a36f3ace292e98dd526fd0af0774a0d", "fusion_lon": 0.0, "rental_uris": {"ios": "https://dc.lft.to/lastmile_qr_scan", "android": "https://dc.lft.to/lastmile_qr_scan"}, "is_reserved": 0, "fusion_lat": 0.0, "lon": -77.00579333333333}, {"lat": 38.901368, "type": "electric_scooter", "is_disabled": 0, "name": "75fa17946ee746a61246234adddb6a35", "bike_id": "75fa17946ee746a61246234adddb6a35", "fusion_lon": 0.0, "rental_uris": {"ios": "https://dc.lft.to/lastmile_qr_scan", "android": "https://dc.lft.to/lastmile_qr_scan"}, "is_reserved": 0, "fusion_lat": 0.0, "lon": -77.049008}, {"lat": 38.924131333333335, "type": "electric_scooter", "is_disabled": 0, "name": "a57dcb7e26f33413520a8bd976e76037", "bike_id": "a57dcb7e26f33413520a8bd976e76037", "fusion_lon": 0.0, "rental_uris": {"ios": "https://dc.lft.to/lastmile_qr_scan", "android": "https://dc.lft.to/lastmile_qr_scan"}, "is_reserved": 0, "fusion_lat": 0.0, "lon": -77.02300716666667}, {"lat": 38.901861333333336, "type": "electric_scooter", "is_disabled": 0, "name": "98c7105efe8e6bc9f30ced99908f3bc0", "bike_id": "98c7105efe8e6bc9f30ced99908f3bc0", "fusion_lon": 0.0, "rental_uris": {"ios": "https://dc.lft.to/lastmile_qr_scan", "android": "https://dc.lft.to/lastmile_qr_scan"}, "is_reserved": 0, "fusion_lat": 0.0, "lon": -76.93005033333333}, {"lat": 38.91976783333333, "type": "electric_scooter", "is_disabled": 0, "name": "d00d1c1db92364e531f8a9deb5f61481", "bike_id": "d00d1c1db92364e531f8a9deb5f61481", "fusion_lon": 0.0, "rental_uris": {"ios": "https://dc.lft.to/lastmile_qr_scan", "android": "https://dc.lft.to/lastmile_qr_scan"}, "is_reserved": 0, "fusion_lat": 0.0, "lon": -77.0218115}, {"lat": 38.919789333333334, "type": "electric_scooter", "is_disabled": 0, "name": "b342d409b8c7dd63e376867aca9274ca", "bike_id": "b342d409b8c7dd63e376867aca9274ca", "fusion_lon": 0.0, "rental_uris": {"ios": "https://dc.lft.to/lastmile_qr_scan", "android": "https://dc.lft.to/lastmile_qr_scan"}, "is_reserved": 0, "fusion_lat": 0.0, "lon": -77.02185033333333}, {"lat": 38.899327166666666, "type": "electric_scooter", "is_disabled": 0, "name": "85ec7abc7dff836c01879ab6d6d50a88", "bike_id": "85ec7abc7dff836c01879ab6d6d50a88", "fusion_lon": 0.0, "rental_uris": {"ios": "https://dc.lft.to/lastmile_qr_scan", "android": "https://dc.lft.to/lastmile_qr_scan"}, "is_reserved": 0, "fusion_lat": 0.0, "lon": -77.02940733333334}, {"lat": 38.900318, "type": "electric_scooter", "is_disabled": 0, "name": "561ace41c376f848714dff03d4326839", "bike_id": "561ace41c376f848714dff03d4326839", "fusion_lon": 0.0, "rental_uris": {"ios": "https://dc.lft.to/lastmile_qr_scan", "android": "https://dc.lft.to/lastmile_qr_scan"}, "is_reserved": 0, "fusion_lat": 0.0, "lon": -77.01231216666666}, {"lat": 38.905092833333335, "type": "electric_scooter", "is_disabled": 0, "name": "bae9c4b3393d42788f8973e81659e68b", "bike_id": "bae9c4b3393d42788f8973e81659e68b", "fusion_lon": 0.0, "rental_uris": {"ios": "https://dc.lft.to/lastmile_qr_scan", "android": "https://dc.lft.to/lastmile_qr_scan"}, "is_reserved": 0, "fusion_lat": 0.0, "lon": -77.05168816666666}, {"lat": 38.90550666666667, "type": "electric_scooter", "is_disabled": 0, "name": "afdaa4799a8b9587034ba2db6f926b00", "bike_id": "afdaa4799a8b9587034ba2db6f926b00", "fusion_lon": 0.0, "rental_uris": {"ios": "https://dc.lft.to/lastmile_qr_scan", "android": "https://dc.lft.to/lastmile_qr_scan"}, "is_reserved": 0, "fusion_lat": 0.0, "lon": -77.04330883333333}, {"lat": 38.89972, "type": "electric_scooter", "is_disabled": 0, "name": "a2fe78e0bec7129483de335e2fb5af8d", "bike_id": "a2fe78e0bec7129483de335e2fb5af8d", "fusion_lon": 0.0, "rental_uris": {"ios": "https://dc.lft.to/lastmile_qr_scan", "android": "https://dc.lft.to/lastmile_qr_scan"}, "is_reserved": 0, "fusion_lat": 0.0, "lon": -77.03079866666667}, {"lat": 38.898331166666665, "type": "electric_scooter", "is_disabled": 0, "name": "3b518dc107992a5e286762607b17b3fa", "bike_id": "3b518dc107992a5e286762607b17b3fa", "fusion_lon": 0.0, "rental_uris": {"ios": "https://dc.lft.to/lastmile_qr_scan", "android": "https://dc.lft.to/lastmile_qr_scan"}, "is_reserved": 0, "fusion_lat": 0.0, "lon": -77.0291295}, {"lat": 38.92648166666667, "type": "electric_bike", "is_disabled": 0, "name": "1202f38e446886d1e7f8cc14646689b5", "bike_id": "1202f38e446886d1e7f8cc14646689b5", "fusion_lon": 0.0, "rental_uris": {"ios": "https://dc.lft.to/lastmile_qr_scan", "android": "https://dc.lft.to/lastmile_qr_scan"}, "is_reserved": 0, "fusion_lat": 0.0, "lon": -77.09018}, {"lat": 38.901619333333336, "type": "electric_scooter", "is_disabled": 0, "name": "0e4d62d81b138c406715df551c23e033", "bike_id": "0e4d62d81b138c406715df551c23e033", "fusion_lon": 0.0, "rental_uris": {"ios": "https://dc.lft.to/lastmile_qr_scan", "android": "https://dc.lft.to/lastmile_qr_scan"}, "is_reserved": 0, "fusion_lat": 0.0, "lon": -76.9497685}, {"lat": 38.92139183333333, "type": "electric_scooter", "is_disabled": 0, "name": "1cd9a6f106118cebe26d9a5a0f05838e", "bike_id": "1cd9a6f106118cebe26d9a5a0f05838e", "fusion_lon": 0.0, "rental_uris": {"ios": "https://dc.lft.to/lastmile_qr_scan", "android": "https://dc.lft.to/lastmile_qr_scan"}, "is_reserved": 0, "fusion_lat": 0.0, "lon": -77.01218933333334}, {"lat": 38.922366833333335, "type": "electric_scooter", "is_disabled": 0, "name": "9333312bd06bc0993e1caefe13a35e69", "bike_id": "9333312bd06bc0993e1caefe13a35e69", "fusion_lon": 0.0, "rental_uris": {"ios": "https://dc.lft.to/lastmile_qr_scan", "android": "https://dc.lft.to/lastmile_qr_scan"}, "is_reserved": 0, "fusion_lat": 0.0, "lon": -77.02828616666666}, {"lat": 38.93589933333333, "type": "electric_scooter", "is_disabled": 0, "name": "0fb20d02ae4f9f9356202d3a1130b9c4", "bike_id": "0fb20d02ae4f9f9356202d3a1130b9c4", "fusion_lon": 0.0, "rental_uris": {"ios": "https://dc.lft.to/lastmile_qr_scan", "android": "https://dc.lft.to/lastmile_qr_scan"}, "is_reserved": 0, "fusion_lat": 0.0, "lon": -77.05845883333333}, {"lat": 38.901828, "type": "electric_scooter", "is_disabled": 0, "name": "e96c3e8988155f3f501a40ddddeb0416", "bike_id": "e96c3e8988155f3f501a40ddddeb0416", "fusion_lon": 0.0, "rental_uris": {"ios": "https://dc.lft.to/lastmile_qr_scan", "android": "https://dc.lft.to/lastmile_qr_scan"}, "is_reserved": 0, "fusion_lat": 0.0, "lon": -77.01273583333334}, {"lat": 38.916813833333336, "type": "electric_scooter", "is_disabled": 0, "name": "7afc9f927c7adcc76bb8fe0836208e12", "bike_id": "7afc9f927c7adcc76bb8fe0836208e12", "fusion_lon": 0.0, "rental_uris": {"ios": "https://dc.lft.to/lastmile_qr_scan", "android": "https://dc.lft.to/lastmile_qr_scan"}, "is_reserved": 0, "fusion_lat": 0.0, "lon": -77.02894466666666}, {"lat": 38.92109633333333, "type": "electric_scooter", "is_disabled": 0, "name": "bd2594c6f218884f933439607eb02f13", "bike_id": "bd2594c6f218884f933439607eb02f13", "fusion_lon": 0.0, "rental_uris": {"ios": "https://dc.lft.to/lastmile_qr_scan", "android": "https://dc.lft.to/lastmile_qr_scan"}, "is_reserved": 0, "fusion_lat": 0.0, "lon": -77.04361516666667}, {"lat": 38.892447, "type": "electric_scooter", "is_disabled": 0, "name": "1b7493b1b8803dad33192e968415a9a2", "bike_id": "1b7493b1b8803dad33192e968415a9a2", "fusion_lon": 0.0, "rental_uris": {"ios": "https://dc.lft.to/lastmile_qr_scan", "android": "https://dc.lft.to/lastmile_qr_scan"}, "is_reserved": 0, "fusion_lat": 0.0, "lon": -77.03191116666666}, {"lat": 38.88460333333333, "type": "electric_scooter", "is_disabled": 0, "name": "c20d114ceea49933533386c0b1158ed2", "bike_id": "c20d114ceea49933533386c0b1158ed2", "fusion_lon": 0.0, "rental_uris": {"ios": "https://dc.lft.to/lastmile_qr_scan", "android": "https://dc.lft.to/lastmile_qr_scan"}, "is_reserved": 0, "fusion_lat": 0.0, "lon": -76.9262155}, {"lat": 38.91127983333333, "type": "electric_scooter", "is_disabled": 0, "name": "cdb64f8723d0a3ea3195220fe20c3117", "bike_id": "cdb64f8723d0a3ea3195220fe20c3117", "fusion_lon": 0.0, "rental_uris": {"ios": "https://dc.lft.to/lastmile_qr_scan", "android": "https://dc.lft.to/lastmile_qr_scan"}, "is_reserved": 0, "fusion_lat": 0.0, "lon": -77.02201133333334}, {"lat": 38.921796666666665, "type": "electric_scooter", "is_disabled": 0, "name": "863e13e89b91bcaea254bc1a706f16be", "bike_id": "863e13e89b91bcaea254bc1a706f16be", "fusion_lon": 0.0, "rental_uris": {"ios": "https://dc.lft.to/lastmile_qr_scan", "android": "https://dc.lft.to/lastmile_qr_scan"}, "is_reserved": 0, "fusion_lat": 0.0, "lon": -77.03664733333333}, {"lat": 38.921171, "type": "electric_scooter", "is_disabled": 0, "name": "7781cae2a1c7463da608d94f8e1c3dd9", "bike_id": "7781cae2a1c7463da608d94f8e1c3dd9", "fusion_lon": 0.0, "rental_uris": {"ios": "https://dc.lft.to/lastmile_qr_scan", "android": "https://dc.lft.to/lastmile_qr_scan"}, "is_reserved": 0, "fusion_lat": 0.0, "lon": -77.02066866666667}, {"lat": 38.973458, "type": "electric_bike", "is_disabled": 0, "name": "b863e8aa42d8fe9f204ec28908be9915", "bike_id": "b863e8aa42d8fe9f204ec28908be9915", "fusion_lon": 0.0, "rental_uris": {"ios": "https://dc.lft.to/lastmile_qr_scan", "android": "https://dc.lft.to/lastmile_qr_scan"}, "is_reserved": 0, "fusion_lat": 0.0, "lon": -76.995993}, {"lat": 38.922231333333336, "type": "electric_scooter", "is_disabled": 0, "name": "830264bf1eca70fc6cb71f84da727d5a", "bike_id": "830264bf1eca70fc6cb71f84da727d5a", "fusion_lon": 0.0, "rental_uris": {"ios": "https://dc.lft.to/lastmile_qr_scan", "android": "https://dc.lft.to/lastmile_qr_scan"}, "is_reserved": 0, "fusion_lat": 0.0, "lon": -77.02118216666666}, {"lat": 38.85879166666667, "type": "electric_scooter", "is_disabled": 0, "name": "b4ebd7e00f2798f88e5d3135ceaeb967", "bike_id": "b4ebd7e00f2798f88e5d3135ceaeb967", "fusion_lon": 0.0, "rental_uris": {"ios": "https://dc.lft.to/lastmile_qr_scan", "android": "https://dc.lft.to/lastmile_qr_scan"}, "is_reserved": 0, "fusion_lat": 0.0, "lon": -76.98935866666666}, {"lat": 38.92057916666667, "type": "electric_scooter", "is_disabled": 0, "name": "186c84c4a296a0c4d82bb0b94fb49834", "bike_id": "186c84c4a296a0c4d82bb0b94fb49834", "fusion_lon": 0.0, "rental_uris": {"ios": "https://dc.lft.to/lastmile_qr_scan", "android": "https://dc.lft.to/lastmile_qr_scan"}, "is_reserved": 0, "fusion_lat": 0.0, "lon": -76.98432183333334}, {"lat": 38.87721283333333, "type": "electric_scooter", "is_disabled": 0, "name": "844173cfbefb189942b07c3d62b0a1f7", "bike_id": "844173cfbefb189942b07c3d62b0a1f7", "fusion_lon": 0.0, "rental_uris": {"ios": "https://dc.lft.to/lastmile_qr_scan", "android": "https://dc.lft.to/lastmile_qr_scan"}, "is_reserved": 0, "fusion_lat": 0.0, "lon": -77.017618}, {"lat": 38.93524933333333, "type": "electric_scooter", "is_disabled": 0, "name": "1d822afea30d3a1a244b868ab777884d", "bike_id": "1d822afea30d3a1a244b868ab777884d", "fusion_lon": 0.0, "rental_uris": {"ios": "https://dc.lft.to/lastmile_qr_scan", "android": "https://dc.lft.to/lastmile_qr_scan"}, "is_reserved": 0, "fusion_lat": 0.0, "lon": -77.02357866666667}, {"lat": 38.913198, "type": "electric_scooter", "is_disabled": 0, "name": "3efd64c3a394561aa1a7e303b2afb898", "bike_id": "3efd64c3a394561aa1a7e303b2afb898", "fusion_lon": 0.0, "rental_uris": {"ios": "https://dc.lft.to/lastmile_qr_scan", "android": "https://dc.lft.to/lastmile_qr_scan"}, "is_reserved": 0, "fusion_lat": 0.0, "lon": -77.04534233333334}, {"lat": 38.91341766666667, "type": "electric_scooter", "is_disabled": 0, "name": "2b36cf6278ee7105ee70b68e5f7070a7", "bike_id": "2b36cf6278ee7105ee70b68e5f7070a7", "fusion_lon": 0.0, "rental_uris": {"ios": "https://dc.lft.to/lastmile_qr_scan", "android": "https://dc.lft.to/lastmile_qr_scan"}, "is_reserved": 0, "fusion_lat": 0.0, "lon": -77.02048316666666}, {"lat": 38.90054416666667, "type": "electric_scooter", "is_disabled": 0, "name": "dec3dab411315a84c7013bb08d22cf2e", "bike_id": "dec3dab411315a84c7013bb08d22cf2e", "fusion_lon": 0.0, "rental_uris": {"ios": "https://dc.lft.to/lastmile_qr_scan", "android": "https://dc.lft.to/lastmile_qr_scan"}, "is_reserved": 0, "fusion_lat": 0.0, "lon": -76.98488116666667}, {"lat": 38.924182333333334, "type": "electric_scooter", "is_disabled": 0, "name": "972b3c2c4d279208bb3acb685ae7b097", "bike_id": "972b3c2c4d279208bb3acb685ae7b097", "fusion_lon": 0.0, "rental_uris": {"ios": "https://dc.lft.to/lastmile_qr_scan", "android": "https://dc.lft.to/lastmile_qr_scan"}, "is_reserved": 0, "fusion_lat": 0.0, "lon": -77.020354}, {"lat": 38.9296755, "type": "electric_scooter", "is_disabled": 0, "name": "53e5a6b577ea0aa45f5a0c070aadf201", "bike_id": "53e5a6b577ea0aa45f5a0c070aadf201", "fusion_lon": 0.0, "rental_uris": {"ios": "https://dc.lft.to/lastmile_qr_scan", "android": "https://dc.lft.to/lastmile_qr_scan"}, "is_reserved": 0, "fusion_lat": 0.0, "lon": -77.04114383333334}, {"lat": 38.905024833333336, "type": "electric_scooter", "is_disabled": 0, "name": "445ba81df12a57e502dcd89d0a6180cc", "bike_id": "445ba81df12a57e502dcd89d0a6180cc", "fusion_lon": 0.0, "rental_uris": {"ios": "https://dc.lft.to/lastmile_qr_scan", "android": "https://dc.lft.to/lastmile_qr_scan"}, "is_reserved": 0, "fusion_lat": 0.0, "lon": -77.054819}, {"lat": 38.91942783333333, "type": "electric_scooter", "is_disabled": 0, "name": "8f600c72aa7adaecb8604bf54e0ad971", "bike_id": "8f600c72aa7adaecb8604bf54e0ad971", "fusion_lon": 0.0, "rental_uris": {"ios": "https://dc.lft.to/lastmile_qr_scan", "android": "https://dc.lft.to/lastmile_qr_scan"}, "is_reserved": 0, "fusion_lat": 0.0, "lon": -77.01799266666667}, {"lat": 38.902655833333334, "type": "electric_scooter", "is_disabled": 0, "name": "9724c2f813abd53cdbe4375b98748443", "bike_id": "9724c2f813abd53cdbe4375b98748443", "fusion_lon": 0.0, "rental_uris": {"ios": "https://dc.lft.to/lastmile_qr_scan", "android": "https://dc.lft.to/lastmile_qr_scan"}, "is_reserved": 0, "fusion_lat": 0.0, "lon": -77.01130683333334}, {"lat": 38.90398316666667, "type": "electric_scooter", "is_disabled": 0, "name": "dd7c14636fa87d1b0193443249d399a9", "bike_id": "dd7c14636fa87d1b0193443249d399a9", "fusion_lon": 0.0, "rental_uris": {"ios": "https://dc.lft.to/lastmile_qr_scan", "android": "https://dc.lft.to/lastmile_qr_scan"}, "is_reserved": 0, "fusion_lat": 0.0, "lon": -77.04357783333333}, {"lat": 38.89886466666667, "type": "electric_scooter", "is_disabled": 0, "name": "e61f85bf92e5e69966dbbf4f3ebf1be1", "bike_id": "e61f85bf92e5e69966dbbf4f3ebf1be1", "fusion_lon": 0.0, "rental_uris": {"ios": "https://dc.lft.to/lastmile_qr_scan", "android": "https://dc.lft.to/lastmile_qr_scan"}, "is_reserved": 0, "fusion_lat": 0.0, "lon": -76.93172783333333}, {"lat": 38.90539183333333, "type": "electric_scooter", "is_disabled": 0, "name": "40386a8b0e3904bf914a6df6737139f3", "bike_id": "40386a8b0e3904bf914a6df6737139f3", "fusion_lon": 0.0, "rental_uris": {"ios": "https://dc.lft.to/lastmile_qr_scan", "android": "https://dc.lft.to/lastmile_qr_scan"}, "is_reserved": 0, "fusion_lat": 0.0, "lon": -77.04201433333333}, {"lat": 38.87783533333333, "type": "electric_scooter", "is_disabled": 0, "name": "e3792b617903219b1b59d23d05c017ea", "bike_id": "e3792b617903219b1b59d23d05c017ea", "fusion_lon": 0.0, "rental_uris": {"ios": "https://dc.lft.to/lastmile_qr_scan", "android": "https://dc.lft.to/lastmile_qr_scan"}, "is_reserved": 0, "fusion_lat": 0.0, "lon": -76.994098}, {"lat": 38.924635, "type": "electric_scooter", "is_disabled": 0, "name": "389f2dff643f8db951f5d051433dc5be", "bike_id": "389f2dff643f8db951f5d051433dc5be", "fusion_lon": 0.0, "rental_uris": {"ios": "https://dc.lft.to/lastmile_qr_scan", "android": "https://dc.lft.to/lastmile_qr_scan"}, "is_reserved": 0, "fusion_lat": 0.0, "lon": -77.03930616666666}, {"lat": 38.9229245, "type": "electric_scooter", "is_disabled": 0, "name": "8989722000daced09e5cd9d123ca1826", "bike_id": "8989722000daced09e5cd9d123ca1826", "fusion_lon": 0.0, "rental_uris": {"ios": "https://dc.lft.to/lastmile_qr_scan", "android": "https://dc.lft.to/lastmile_qr_scan"}, "is_reserved": 0, "fusion_lat": 0.0, "lon": -77.0421725}, {"lat": 38.907232, "type": "electric_scooter", "is_disabled": 0, "name": "90501d1206b3bcb8271df58a3c4828ba", "bike_id": "90501d1206b3bcb8271df58a3c4828ba", "fusion_lon": 0.0, "rental_uris": {"ios": "https://dc.lft.to/lastmile_qr_scan", "android": "https://dc.lft.to/lastmile_qr_scan"}, "is_reserved": 0, "fusion_lat": 0.0, "lon": -77.03350516666667}, {"lat": 38.903013666666666, "type": "electric_scooter", "is_disabled": 0, "name": "a12c710923dcf38480b47db4279bb421", "bike_id": "a12c710923dcf38480b47db4279bb421", "fusion_lon": 0.0, "rental_uris": {"ios": "https://dc.lft.to/lastmile_qr_scan", "android": "https://dc.lft.to/lastmile_qr_scan"}, "is_reserved": 0, "fusion_lat": 0.0, "lon": -77.032287}, {"lat": 38.9268585, "type": "electric_scooter", "is_disabled": 0, "name": "6b9bc23a90158e60cd29549ed470a9d8", "bike_id": "6b9bc23a90158e60cd29549ed470a9d8", "fusion_lon": 0.0, "rental_uris": {"ios": "https://dc.lft.to/lastmile_qr_scan", "android": "https://dc.lft.to/lastmile_qr_scan"}, "is_reserved": 0, "fusion_lat": 0.0, "lon": -77.027836}, {"lat": 38.9057305, "type": "electric_scooter", "is_disabled": 0, "name": "10714d12b8a1c7be36b16fd84ec722c0", "bike_id": "10714d12b8a1c7be36b16fd84ec722c0", "fusion_lon": 0.0, "rental_uris": {"ios": "https://dc.lft.to/lastmile_qr_scan", "android": "https://dc.lft.to/lastmile_qr_scan"}, "is_reserved": 0, "fusion_lat": 0.0, "lon": -77.022112}, {"lat": 38.900482833333335, "type": "electric_scooter", "is_disabled": 0, "name": "8ce970bb0481be85ea8f208a1d66169c", "bike_id": "8ce970bb0481be85ea8f208a1d66169c", "fusion_lon": 0.0, "rental_uris": {"ios": "https://dc.lft.to/lastmile_qr_scan", "android": "https://dc.lft.to/lastmile_qr_scan"}, "is_reserved": 0, "fusion_lat": 0.0, "lon": -77.043328}, {"lat": 38.92363266666667, "type": "electric_scooter", "is_disabled": 0, "name": "24c03a34a934da564e83d22ff278e6ce", "bike_id": "24c03a34a934da564e83d22ff278e6ce", "fusion_lon": 0.0, "rental_uris": {"ios": "https://dc.lft.to/lastmile_qr_scan", "android": "https://dc.lft.to/lastmile_qr_scan"}, "is_reserved": 0, "fusion_lat": 0.0, "lon": -77.02056066666667}, {"lat": 38.90829166666666, "type": "electric_scooter", "is_disabled": 0, "name": "34b44fa1278fb82bf5537f8b30acf269", "bike_id": "34b44fa1278fb82bf5537f8b30acf269", "fusion_lon": 0.0, "rental_uris": {"ios": "https://dc.lft.to/lastmile_qr_scan", "android": "https://dc.lft.to/lastmile_qr_scan"}, "is_reserved": 0, "fusion_lat": 0.0, "lon": -77.07308}, {"lat": 38.91918966666667, "type": "electric_scooter", "is_disabled": 0, "name": "47333d8e5ef859d8fe61374c756f14c6", "bike_id": "47333d8e5ef859d8fe61374c756f14c6", "fusion_lon": 0.0, "rental_uris": {"ios": "https://dc.lft.to/lastmile_qr_scan", "android": "https://dc.lft.to/lastmile_qr_scan"}, "is_reserved": 0, "fusion_lat": 0.0, "lon": -77.030261}, {"lat": 38.91548866666667, "type": "electric_scooter", "is_disabled": 0, "name": "8ab541a93e73de63cb66a1edf0f3fbab", "bike_id": "8ab541a93e73de63cb66a1edf0f3fbab", "fusion_lon": 0.0, "rental_uris": {"ios": "https://dc.lft.to/lastmile_qr_scan", "android": "https://dc.lft.to/lastmile_qr_scan"}, "is_reserved": 0, "fusion_lat": 0.0, "lon": -77.044498}, {"lat": 38.92885583333333, "type": "electric_scooter", "is_disabled": 0, "name": "3eb187033871e2019737a2c51fa19f36", "bike_id": "3eb187033871e2019737a2c51fa19f36", "fusion_lon": 0.0, "rental_uris": {"ios": "https://dc.lft.to/lastmile_qr_scan", "android": "https://dc.lft.to/lastmile_qr_scan"}, "is_reserved": 0, "fusion_lat": 0.0, "lon": -77.0256245}, {"lat": 38.91692716666667, "type": "electric_scooter", "is_disabled": 0, "name": "8a1b26e0fd0e8ff57e67296d2fd559df", "bike_id": "8a1b26e0fd0e8ff57e67296d2fd559df", "fusion_lon": 0.0, "rental_uris": {"ios": "https://dc.lft.to/lastmile_qr_scan", "android": "https://dc.lft.to/lastmile_qr_scan"}, "is_reserved": 0, "fusion_lat": 0.0, "lon": -77.025972}, {"lat": 38.90598983333334, "type": "electric_scooter", "is_disabled": 0, "name": "3d451fd0ca0118a345767fb2873a2356", "bike_id": "3d451fd0ca0118a345767fb2873a2356", "fusion_lon": 0.0, "rental_uris": {"ios": "https://dc.lft.to/lastmile_qr_scan", "android": "https://dc.lft.to/lastmile_qr_scan"}, "is_reserved": 0, "fusion_lat": 0.0, "lon": -77.0466135}, {"lat": 38.892194333333336, "type": "electric_scooter", "is_disabled": 0, "name": "17718371f3101457c6becd2a14355a23", "bike_id": "17718371f3101457c6becd2a14355a23", "fusion_lon": 0.0, "rental_uris": {"ios": "https://dc.lft.to/lastmile_qr_scan", "android": "https://dc.lft.to/lastmile_qr_scan"}, "is_reserved": 0, "fusion_lat": 0.0, "lon": -77.027953}, {"lat": 38.8895935, "type": "electric_scooter", "is_disabled": 0, "name": "5715e91d8c17d11d0d1e95459930e66f", "bike_id": "5715e91d8c17d11d0d1e95459930e66f", "fusion_lon": 0.0, "rental_uris": {"ios": "https://dc.lft.to/lastmile_qr_scan", "android": "https://dc.lft.to/lastmile_qr_scan"}, "is_reserved": 0, "fusion_lat": 0.0, "lon": -76.98820883333333}, {"lat": 38.89834366666667, "type": "electric_scooter", "is_disabled": 0, "name": "4f10675c134b85f4e9152fe2423ca13d", "bike_id": "4f10675c134b85f4e9152fe2423ca13d", "fusion_lon": 0.0, "rental_uris": {"ios": "https://dc.lft.to/lastmile_qr_scan", "android": "https://dc.lft.to/lastmile_qr_scan"}, "is_reserved": 0, "fusion_lat": 0.0, "lon": -76.946438}, {"lat": 38.888373, "type": "electric_scooter", "is_disabled": 0, "name": "a8c4af16bdf15a4e228cf722cda8628a", "bike_id": "a8c4af16bdf15a4e228cf722cda8628a", "fusion_lon": 0.0, "rental_uris": {"ios": "https://dc.lft.to/lastmile_qr_scan", "android": "https://dc.lft.to/lastmile_qr_scan"}, "is_reserved": 0, "fusion_lat": 0.0, "lon": -76.97718716666667}, {"lat": 38.938091166666666, "type": "electric_scooter", "is_disabled": 0, "name": "17281890d5399b66ac6add81caebcc58", "bike_id": "17281890d5399b66ac6add81caebcc58", "fusion_lon": 0.0, "rental_uris": {"ios": "https://dc.lft.to/lastmile_qr_scan", "android": "https://dc.lft.to/lastmile_qr_scan"}, "is_reserved": 0, "fusion_lat": 0.0, "lon": -77.059728}, {"lat": 38.911193, "type": "electric_scooter", "is_disabled": 0, "name": "624d0deb9e2136b07ec8ed5d8cb7d125", "bike_id": "624d0deb9e2136b07ec8ed5d8cb7d125", "fusion_lon": 0.0, "rental_uris": {"ios": "https://dc.lft.to/lastmile_qr_scan", "android": "https://dc.lft.to/lastmile_qr_scan"}, "is_reserved": 0, "fusion_lat": 0.0, "lon": -77.04512933333334}, {"lat": 38.91632033333333, "type": "electric_scooter", "is_disabled": 0, "name": "e0d9d30a5d58c8c9f51815f6787503c2", "bike_id": "e0d9d30a5d58c8c9f51815f6787503c2", "fusion_lon": 0.0, "rental_uris": {"ios": "https://dc.lft.to/lastmile_qr_scan", "android": "https://dc.lft.to/lastmile_qr_scan"}, "is_reserved": 0, "fusion_lat": 0.0, "lon": -77.04807183333334}, {"lat": 38.90041316666667, "type": "electric_scooter", "is_disabled": 0, "name": "d8b7a282e3050aec13a6cbf3d1c699d4", "bike_id": "d8b7a282e3050aec13a6cbf3d1c699d4", "fusion_lon": 0.0, "rental_uris": {"ios": "https://dc.lft.to/lastmile_qr_scan", "android": "https://dc.lft.to/lastmile_qr_scan"}, "is_reserved": 0, "fusion_lat": 0.0, "lon": -77.04326516666667}, {"lat": 38.8923525, "type": "electric_scooter", "is_disabled": 0, "name": "a85592d1eae6d4c37704787c8bc330c3", "bike_id": "a85592d1eae6d4c37704787c8bc330c3", "fusion_lon": 0.0, "rental_uris": {"ios": "https://dc.lft.to/lastmile_qr_scan", "android": "https://dc.lft.to/lastmile_qr_scan"}, "is_reserved": 0, "fusion_lat": 0.0, "lon": -77.032083}, {"lat": 38.9038515, "type": "electric_scooter", "is_disabled": 0, "name": "7cf5eae37153d19b140eb702a0139a4c", "bike_id": "7cf5eae37153d19b140eb702a0139a4c", "fusion_lon": 0.0, "rental_uris": {"ios": "https://dc.lft.to/lastmile_qr_scan", "android": "https://dc.lft.to/lastmile_qr_scan"}, "is_reserved": 0, "fusion_lat": 0.0, "lon": -77.06855166666666}, {"lat": 38.887062666666665, "type": "electric_scooter", "is_disabled": 0, "name": "0a428844b68c74f4d27971b128664eb9", "bike_id": "0a428844b68c74f4d27971b128664eb9", "fusion_lon": 0.0, "rental_uris": {"ios": "https://dc.lft.to/lastmile_qr_scan", "android": "https://dc.lft.to/lastmile_qr_scan"}, "is_reserved": 0, "fusion_lat": 0.0, "lon": -77.02827766666667}, {"lat": 38.90342666666667, "type": "electric_scooter", "is_disabled": 0, "name": "b978ad11142a681d6ae5eebcb7de5fc5", "bike_id": "b978ad11142a681d6ae5eebcb7de5fc5", "fusion_lon": 0.0, "rental_uris": {"ios": "https://dc.lft.to/lastmile_qr_scan", "android": "https://dc.lft.to/lastmile_qr_scan"}, "is_reserved": 0, "fusion_lat": 0.0, "lon": -76.98276083333333}, {"lat": 38.92757783333333, "type": "electric_scooter", "is_disabled": 0, "name": "1fdd426e64adb268030a90ad72e5e2d8", "bike_id": "1fdd426e64adb268030a90ad72e5e2d8", "fusion_lon": 0.0, "rental_uris": {"ios": "https://dc.lft.to/lastmile_qr_scan", "android": "https://dc.lft.to/lastmile_qr_scan"}, "is_reserved": 0, "fusion_lat": 0.0, "lon": -77.032044}, {"lat": 38.90437083333333, "type": "electric_scooter", "is_disabled": 0, "name": "c58f0108a8bfc03ef7aecdc232cfb026", "bike_id": "c58f0108a8bfc03ef7aecdc232cfb026", "fusion_lon": 0.0, "rental_uris": {"ios": "https://dc.lft.to/lastmile_qr_scan", "android": "https://dc.lft.to/lastmile_qr_scan"}, "is_reserved": 0, "fusion_lat": 0.0, "lon": -77.034345}, {"lat": 38.9051535, "type": "electric_scooter", "is_disabled": 0, "name": "e8e76e70d771e659dc541f69b3ae9ba8", "bike_id": "e8e76e70d771e659dc541f69b3ae9ba8", "fusion_lon": 0.0, "rental_uris": {"ios": "https://dc.lft.to/lastmile_qr_scan", "android": "https://dc.lft.to/lastmile_qr_scan"}, "is_reserved": 0, "fusion_lat": 0.0, "lon": -77.06452283333333}, {"lat": 38.8848925, "type": "electric_scooter", "is_disabled": 0, "name": "42511b310ce1d4d890ec26b9ad7f4245", "bike_id": "42511b310ce1d4d890ec26b9ad7f4245", "fusion_lon": 0.0, "rental_uris": {"ios": "https://dc.lft.to/lastmile_qr_scan", "android": "https://dc.lft.to/lastmile_qr_scan"}, "is_reserved": 0, "fusion_lat": 0.0, "lon": -77.00713866666666}, {"lat": 38.899677833333335, "type": "electric_scooter", "is_disabled": 0, "name": "dc6a2a9df2f7e6575fa2cd74396aac11", "bike_id": "dc6a2a9df2f7e6575fa2cd74396aac11", "fusion_lon": 0.0, "rental_uris": {"ios": "https://dc.lft.to/lastmile_qr_scan", "android": "https://dc.lft.to/lastmile_qr_scan"}, "is_reserved": 0, "fusion_lat": 0.0, "lon": -77.033465}, {"lat": 38.8922575, "type": "electric_scooter", "is_disabled": 0, "name": "c3bfbf77587dab66a2a7b13e9282f77d", "bike_id": "c3bfbf77587dab66a2a7b13e9282f77d", "fusion_lon": 0.0, "rental_uris": {"ios": "https://dc.lft.to/lastmile_qr_scan", "android": "https://dc.lft.to/lastmile_qr_scan"}, "is_reserved": 0, "fusion_lat": 0.0, "lon": -77.04374083333333}, {"lat": 38.9342645, "type": "electric_scooter", "is_disabled": 0, "name": "2744c744b6080046c7216c4b70119cda", "bike_id": "2744c744b6080046c7216c4b70119cda", "fusion_lon": 0.0, "rental_uris": {"ios": "https://dc.lft.to/lastmile_qr_scan", "android": "https://dc.lft.to/lastmile_qr_scan"}, "is_reserved": 0, "fusion_lat": 0.0, "lon": -77.04002733333333}, {"lat": 38.910632666666665, "type": "electric_scooter", "is_disabled": 0, "name": "82102d50fb4445c43f6b6122febead11", "bike_id": "82102d50fb4445c43f6b6122febead11", "fusion_lon": 0.0, "rental_uris": {"ios": "https://dc.lft.to/lastmile_qr_scan", "android": "https://dc.lft.to/lastmile_qr_scan"}, "is_reserved": 0, "fusion_lat": 0.0, "lon": -77.05387316666666}, {"lat": 38.919451, "type": "electric_scooter", "is_disabled": 0, "name": "e79f9142484e865255edeeceef462f13", "bike_id": "e79f9142484e865255edeeceef462f13", "fusion_lon": 0.0, "rental_uris": {"ios": "https://dc.lft.to/lastmile_qr_scan", "android": "https://dc.lft.to/lastmile_qr_scan"}, "is_reserved": 0, "fusion_lat": 0.0, "lon": -77.0217925}, {"lat": 38.8823545, "type": "electric_scooter", "is_disabled": 0, "name": "00e2b32acfa94f0b9668c1c9624e3b8d", "bike_id": "00e2b32acfa94f0b9668c1c9624e3b8d", "fusion_lon": 0.0, "rental_uris": {"ios": "https://dc.lft.to/lastmile_qr_scan", "android": "https://dc.lft.to/lastmile_qr_scan"}, "is_reserved": 0, "fusion_lat": 0.0, "lon": -76.99485233333333}, {"lat": 38.883961666666664, "type": "electric_scooter", "is_disabled": 0, "name": "73a4fa207d54cae42b4ee4b46b6fd7bb", "bike_id": "73a4fa207d54cae42b4ee4b46b6fd7bb", "fusion_lon": 0.0, "rental_uris": {"ios": "https://dc.lft.to/lastmile_qr_scan", "android": "https://dc.lft.to/lastmile_qr_scan"}, "is_reserved": 0, "fusion_lat": 0.0, "lon": -76.93041266666667}, {"lat": 38.918497, "type": "electric_scooter", "is_disabled": 0, "name": "0d9a5a919888f047e5534f7e41af18d0", "bike_id": "0d9a5a919888f047e5534f7e41af18d0", "fusion_lon": 0.0, "rental_uris": {"ios": "https://dc.lft.to/lastmile_qr_scan", "android": "https://dc.lft.to/lastmile_qr_scan"}, "is_reserved": 0, "fusion_lat": 0.0, "lon": -77.02542783333334}, {"lat": 39.08427616666667, "type": "electric_bike", "is_disabled": 0, "name": "96a8311dd8152ce51904788165314885", "bike_id": "96a8311dd8152ce51904788165314885", "fusion_lon": 0.0, "rental_uris": {"ios": "https://dc.lft.to/lastmile_qr_scan", "android": "https://dc.lft.to/lastmile_qr_scan"}, "is_reserved": 0, "fusion_lat": 0.0, "lon": -76.95143883333333}, {"lat": 38.945386166666665, "type": "electric_bike", "is_disabled": 0, "name": "e59630dc58eca647f9ecdf706625d97c", "bike_id": "e59630dc58eca647f9ecdf706625d97c", "fusion_lon": 0.0, "rental_uris": {"ios": "https://dc.lft.to/lastmile_qr_scan", "android": "https://dc.lft.to/lastmile_qr_scan"}, "is_reserved": 0, "fusion_lat": 0.0, "lon": -77.3446465}, {"lat": 38.92153233333333, "type": "electric_scooter", "is_disabled": 0, "name": "77a1148d3d98773020600a4e3f0d0d7b", "bike_id": "77a1148d3d98773020600a4e3f0d0d7b", "fusion_lon": 0.0, "rental_uris": {"ios": "https://dc.lft.to/lastmile_qr_scan", "android": "https://dc.lft.to/lastmile_qr_scan"}, "is_reserved": 0, "fusion_lat": 0.0, "lon": -77.02081916666667}, {"lat": 38.921324166666665, "type": "electric_scooter", "is_disabled": 0, "name": "43f729e7ef7b1dc9d5cc308242ef760e", "bike_id": "43f729e7ef7b1dc9d5cc308242ef760e", "fusion_lon": 0.0, "rental_uris": {"ios": "https://dc.lft.to/lastmile_qr_scan", "android": "https://dc.lft.to/lastmile_qr_scan"}, "is_reserved": 0, "fusion_lat": 0.0, "lon": -77.0116885}, {"lat": 38.886632, "type": "electric_scooter", "is_disabled": 0, "name": "5410f7b2e0df8adfc2737df29f170036", "bike_id": "5410f7b2e0df8adfc2737df29f170036", "fusion_lon": 0.0, "rental_uris": {"ios": "https://dc.lft.to/lastmile_qr_scan", "android": "https://dc.lft.to/lastmile_qr_scan"}, "is_reserved": 0, "fusion_lat": 0.0, "lon": -76.9367475}, {"lat": 38.91710833333333, "type": "electric_scooter", "is_disabled": 0, "name": "7ea3ef36e9a806541ee01cd09e454fae", "bike_id": "7ea3ef36e9a806541ee01cd09e454fae", "fusion_lon": 0.0, "rental_uris": {"ios": "https://dc.lft.to/lastmile_qr_scan", "android": "https://dc.lft.to/lastmile_qr_scan"}, "is_reserved": 0, "fusion_lat": 0.0, "lon": -77.028875}, {"lat": 38.8984415, "type": "electric_scooter", "is_disabled": 0, "name": "0044254a5e62a68c458c5ee6276d321a", "bike_id": "0044254a5e62a68c458c5ee6276d321a", "fusion_lon": 0.0, "rental_uris": {"ios": "https://dc.lft.to/lastmile_qr_scan", "android": "https://dc.lft.to/lastmile_qr_scan"}, "is_reserved": 0, "fusion_lat": 0.0, "lon": -77.04343083333333}, {"lat": 38.92473066666667, "type": "electric_scooter", "is_disabled": 0, "name": "c579fbfb0881ae8bf200baff3e38ab04", "bike_id": "c579fbfb0881ae8bf200baff3e38ab04", "fusion_lon": 0.0, "rental_uris": {"ios": "https://dc.lft.to/lastmile_qr_scan", "android": "https://dc.lft.to/lastmile_qr_scan"}, "is_reserved": 0, "fusion_lat": 0.0, "lon": -77.02220333333334}, {"lat": 38.920392666666665, "type": "electric_scooter", "is_disabled": 0, "name": "af6724d45099c7d3b8664e35e2e1059f", "bike_id": "af6724d45099c7d3b8664e35e2e1059f", "fusion_lon": 0.0, "rental_uris": {"ios": "https://dc.lft.to/lastmile_qr_scan", "android": "https://dc.lft.to/lastmile_qr_scan"}, "is_reserved": 0, "fusion_lat": 0.0, "lon": -77.01728483333333}, {"lat": 38.92606383333333, "type": "electric_scooter", "is_disabled": 0, "name": "fb4048198a20c377e3bd0db618fdb8e1", "bike_id": "fb4048198a20c377e3bd0db618fdb8e1", "fusion_lon": 0.0, "rental_uris": {"ios": "https://dc.lft.to/lastmile_qr_scan", "android": "https://dc.lft.to/lastmile_qr_scan"}, "is_reserved": 0, "fusion_lat": 0.0, "lon": -77.02157266666667}, {"lat": 38.9192955, "type": "electric_scooter", "is_disabled": 0, "name": "1364bd1c707b5648da6870f95e6ce33b", "bike_id": "1364bd1c707b5648da6870f95e6ce33b", "fusion_lon": 0.0, "rental_uris": {"ios": "https://dc.lft.to/lastmile_qr_scan", "android": "https://dc.lft.to/lastmile_qr_scan"}, "is_reserved": 0, "fusion_lat": 0.0, "lon": -77.00990816666666}, {"lat": 38.92066366666667, "type": "electric_scooter", "is_disabled": 0, "name": "fc245bdbc0141c1405ce413c3cb8df66", "bike_id": "fc245bdbc0141c1405ce413c3cb8df66", "fusion_lon": 0.0, "rental_uris": {"ios": "https://dc.lft.to/lastmile_qr_scan", "android": "https://dc.lft.to/lastmile_qr_scan"}, "is_reserved": 0, "fusion_lat": 0.0, "lon": -77.0454125}, {"lat": 38.928999166666664, "type": "electric_scooter", "is_disabled": 0, "name": "e788220a97559fa7d571f50c44ab7e7f", "bike_id": "e788220a97559fa7d571f50c44ab7e7f", "fusion_lon": 0.0, "rental_uris": {"ios": "https://dc.lft.to/lastmile_qr_scan", "android": "https://dc.lft.to/lastmile_qr_scan"}, "is_reserved": 0, "fusion_lat": 0.0, "lon": -77.03251033333333}, {"lat": 38.916303166666665, "type": "electric_scooter", "is_disabled": 0, "name": "0300c246606b867563ad73c38dee5d29", "bike_id": "0300c246606b867563ad73c38dee5d29", "fusion_lon": 0.0, "rental_uris": {"ios": "https://dc.lft.to/lastmile_qr_scan", "android": "https://dc.lft.to/lastmile_qr_scan"}, "is_reserved": 0, "fusion_lat": 0.0, "lon": -77.04619066666666}, {"lat": 38.917440666666664, "type": "electric_scooter", "is_disabled": 0, "name": "46f4f82a0385113b29521f0c52aadb39", "bike_id": "46f4f82a0385113b29521f0c52aadb39", "fusion_lon": 0.0, "rental_uris": {"ios": "https://dc.lft.to/lastmile_qr_scan", "android": "https://dc.lft.to/lastmile_qr_scan"}, "is_reserved": 0, "fusion_lat": 0.0, "lon": -77.02492516666666}, {"lat": 38.894770666666666, "type": "electric_scooter", "is_disabled": 0, "name": "8d920cb9a032e2a263f8e761afdc802b", "bike_id": "8d920cb9a032e2a263f8e761afdc802b", "fusion_lon": 0.0, "rental_uris": {"ios": "https://dc.lft.to/lastmile_qr_scan", "android": "https://dc.lft.to/lastmile_qr_scan"}, "is_reserved": 0, "fusion_lat": 0.0, "lon": -77.02004133333334}, {"lat": 38.89568666666667, "type": "electric_scooter", "is_disabled": 0, "name": "e8a0915c1a6a97b0f0bbc4c28266bc96", "bike_id": "e8a0915c1a6a97b0f0bbc4c28266bc96", "fusion_lon": 0.0, "rental_uris": {"ios": "https://dc.lft.to/lastmile_qr_scan", "android": "https://dc.lft.to/lastmile_qr_scan"}, "is_reserved": 0, "fusion_lat": 0.0, "lon": -76.9940505}, {"lat": 38.924255, "type": "electric_scooter", "is_disabled": 0, "name": "3e7a657619461914062fe88bd7a8b75a", "bike_id": "3e7a657619461914062fe88bd7a8b75a", "fusion_lon": 0.0, "rental_uris": {"ios": "https://dc.lft.to/lastmile_qr_scan", "android": "https://dc.lft.to/lastmile_qr_scan"}, "is_reserved": 0, "fusion_lat": 0.0, "lon": -77.01947916666667}, {"lat": 38.911103, "type": "electric_scooter", "is_disabled": 0, "name": "31f67af97cd9cd969aaabc25b669d535", "bike_id": "31f67af97cd9cd969aaabc25b669d535", "fusion_lon": 0.0, "rental_uris": {"ios": "https://dc.lft.to/lastmile_qr_scan", "android": "https://dc.lft.to/lastmile_qr_scan"}, "is_reserved": 0, "fusion_lat": 0.0, "lon": -76.99711533333334}, {"lat": 38.90139033333333, "type": "electric_scooter", "is_disabled": 0, "name": "705c48b06996665e24cf396aa038a8c3", "bike_id": "705c48b06996665e24cf396aa038a8c3", "fusion_lon": 0.0, "rental_uris": {"ios": "https://dc.lft.to/lastmile_qr_scan", "android": "https://dc.lft.to/lastmile_qr_scan"}, "is_reserved": 0, "fusion_lat": 0.0, "lon": -77.03615533333334}, {"lat": 38.924862, "type": "electric_scooter", "is_disabled": 0, "name": "3a67ccd120ae662017255dc923dcf5e1", "bike_id": "3a67ccd120ae662017255dc923dcf5e1", "fusion_lon": 0.0, "rental_uris": {"ios": "https://dc.lft.to/lastmile_qr_scan", "android": "https://dc.lft.to/lastmile_qr_scan"}, "is_reserved": 0, "fusion_lat": 0.0, "lon": -77.02266683333333}, {"lat": 38.933153833333336, "type": "electric_scooter", "is_disabled": 0, "name": "0b47622febaefa36fcea3f346baa30cd", "bike_id": "0b47622febaefa36fcea3f346baa30cd", "fusion_lon": 0.0, "rental_uris": {"ios": "https://dc.lft.to/lastmile_qr_scan", "android": "https://dc.lft.to/lastmile_qr_scan"}, "is_reserved": 0, "fusion_lat": 0.0, "lon": -77.03618366666667}, {"lat": 38.884341166666665, "type": "electric_scooter", "is_disabled": 0, "name": "d10320c4b119aaec6f5f426c520685ea", "bike_id": "d10320c4b119aaec6f5f426c520685ea", "fusion_lon": 0.0, "rental_uris": {"ios": "https://dc.lft.to/lastmile_qr_scan", "android": "https://dc.lft.to/lastmile_qr_scan"}, "is_reserved": 0, "fusion_lat": 0.0, "lon": -76.99592366666667}, {"lat": 38.90666866666667, "type": "electric_scooter", "is_disabled": 0, "name": "dac3574b56b27247ed96771351a78f8f", "bike_id": "dac3574b56b27247ed96771351a78f8f", "fusion_lon": 0.0, "rental_uris": {"ios": "https://dc.lft.to/lastmile_qr_scan", "android": "https://dc.lft.to/lastmile_qr_scan"}, "is_reserved": 0, "fusion_lat": 0.0, "lon": -77.02709466666667}, {"lat": 38.88234816666667, "type": "electric_scooter", "is_disabled": 0, "name": "9ba992c06d9c74757ca9fbad088d36d0", "bike_id": "9ba992c06d9c74757ca9fbad088d36d0", "fusion_lon": 0.0, "rental_uris": {"ios": "https://dc.lft.to/lastmile_qr_scan", "android": "https://dc.lft.to/lastmile_qr_scan"}, "is_reserved": 0, "fusion_lat": 0.0, "lon": -76.99493033333333}, {"lat": 38.9132345, "type": "electric_scooter", "is_disabled": 0, "name": "66191ffd76d95b79992461a8e9ae8ffc", "bike_id": "66191ffd76d95b79992461a8e9ae8ffc", "fusion_lon": 0.0, "rental_uris": {"ios": "https://dc.lft.to/lastmile_qr_scan", "android": "https://dc.lft.to/lastmile_qr_scan"}, "is_reserved": 0, "fusion_lat": 0.0, "lon": -77.045349}, {"lat": 38.920807833333335, "type": "electric_scooter", "is_disabled": 0, "name": "7a97b6b30b4dc83bfd07e263bdc34f78", "bike_id": "7a97b6b30b4dc83bfd07e263bdc34f78", "fusion_lon": 0.0, "rental_uris": {"ios": "https://dc.lft.to/lastmile_qr_scan", "android": "https://dc.lft.to/lastmile_qr_scan"}, "is_reserved": 0, "fusion_lat": 0.0, "lon": -77.02533366666667}, {"lat": 38.91742633333333, "type": "electric_scooter", "is_disabled": 0, "name": "befa4d99297f50f99571c3a63f0af5ec", "bike_id": "befa4d99297f50f99571c3a63f0af5ec", "fusion_lon": 0.0, "rental_uris": {"ios": "https://dc.lft.to/lastmile_qr_scan", "android": "https://dc.lft.to/lastmile_qr_scan"}, "is_reserved": 0, "fusion_lat": 0.0, "lon": -77.0227785}, {"lat": 38.91590766666667, "type": "electric_scooter", "is_disabled": 0, "name": "5bca8939efca40cd60483c115fd60913", "bike_id": "5bca8939efca40cd60483c115fd60913", "fusion_lon": 0.0, "rental_uris": {"ios": "https://dc.lft.to/lastmile_qr_scan", "android": "https://dc.lft.to/lastmile_qr_scan"}, "is_reserved": 0, "fusion_lat": 0.0, "lon": -77.044595}, {"lat": 38.895747666666665, "type": "electric_scooter", "is_disabled": 0, "name": "5e1e797ce4f1eac562a0b625008e5f67", "bike_id": "5e1e797ce4f1eac562a0b625008e5f67", "fusion_lon": 0.0, "rental_uris": {"ios": "https://dc.lft.to/lastmile_qr_scan", "android": "https://dc.lft.to/lastmile_qr_scan"}, "is_reserved": 0, "fusion_lat": 0.0, "lon": -77.0318215}, {"lat": 38.91931616666667, "type": "electric_scooter", "is_disabled": 0, "name": "068f2e5673e1e9efdabbeb5dea9e2b6c", "bike_id": "068f2e5673e1e9efdabbeb5dea9e2b6c", "fusion_lon": 0.0, "rental_uris": {"ios": "https://dc.lft.to/lastmile_qr_scan", "android": "https://dc.lft.to/lastmile_qr_scan"}, "is_reserved": 0, "fusion_lat": 0.0, "lon": -77.03472466666666}, {"lat": 38.90665283333333, "type": "electric_scooter", "is_disabled": 0, "name": "4f8434554e963eb3895cf7b1936531c5", "bike_id": "4f8434554e963eb3895cf7b1936531c5", "fusion_lon": 0.0, "rental_uris": {"ios": "https://dc.lft.to/lastmile_qr_scan", "android": "https://dc.lft.to/lastmile_qr_scan"}, "is_reserved": 0, "fusion_lat": 0.0, "lon": -77.027146}, {"lat": 38.9027555, "type": "electric_scooter", "is_disabled": 0, "name": "dc7d0a4e0a7142e664ece8d4cfb45805", "bike_id": "dc7d0a4e0a7142e664ece8d4cfb45805", "fusion_lon": 0.0, "rental_uris": {"ios": "https://dc.lft.to/lastmile_qr_scan", "android": "https://dc.lft.to/lastmile_qr_scan"}, "is_reserved": 0, "fusion_lat": 0.0, "lon": -77.04593533333333}, {"lat": 38.9426145, "type": "electric_scooter", "is_disabled": 0, "name": "8255672ab06deaf5922a74c9253b0e97", "bike_id": "8255672ab06deaf5922a74c9253b0e97", "fusion_lon": 0.0, "rental_uris": {"ios": "https://dc.lft.to/lastmile_qr_scan", "android": "https://dc.lft.to/lastmile_qr_scan"}, "is_reserved": 0, "fusion_lat": 0.0, "lon": -77.02845233333333}, {"lat": 38.915633166666666, "type": "electric_scooter", "is_disabled": 0, "name": "b4a21b5ae0cc3c179ce700d601a6168e", "bike_id": "b4a21b5ae0cc3c179ce700d601a6168e", "fusion_lon": 0.0, "rental_uris": {"ios": "https://dc.lft.to/lastmile_qr_scan", "android": "https://dc.lft.to/lastmile_qr_scan"}, "is_reserved": 0, "fusion_lat": 0.0, "lon": -77.044367}, {"lat": 38.93491216666666, "type": "electric_scooter", "is_disabled": 0, "name": "c6136ed7ee70eea475d25c81d50cd20c", "bike_id": "c6136ed7ee70eea475d25c81d50cd20c", "fusion_lon": 0.0, "rental_uris": {"ios": "https://dc.lft.to/lastmile_qr_scan", "android": "https://dc.lft.to/lastmile_qr_scan"}, "is_reserved": 0, "fusion_lat": 0.0, "lon": -76.9818915}, {"lat": 38.86626616666667, "type": "electric_scooter", "is_disabled": 0, "name": "6f4e41d5b22b07ebf03d997a413b3312", "bike_id": "6f4e41d5b22b07ebf03d997a413b3312", "fusion_lon": 0.0, "rental_uris": {"ios": "https://dc.lft.to/lastmile_qr_scan", "android": "https://dc.lft.to/lastmile_qr_scan"}, "is_reserved": 0, "fusion_lat": 0.0, "lon": -76.98712366666666}, {"lat": 38.9326625, "type": "electric_scooter", "is_disabled": 0, "name": "83603019b9f925f7d861bdfd22522e22", "bike_id": "83603019b9f925f7d861bdfd22522e22", "fusion_lon": 0.0, "rental_uris": {"ios": "https://dc.lft.to/lastmile_qr_scan", "android": "https://dc.lft.to/lastmile_qr_scan"}, "is_reserved": 0, "fusion_lat": 0.0, "lon": -76.9961125}, {"lat": 38.893943, "type": "electric_scooter", "is_disabled": 0, "name": "7932cc4d2ed69dcfd24b934d15c38e58", "bike_id": "7932cc4d2ed69dcfd24b934d15c38e58", "fusion_lon": 0.0, "rental_uris": {"ios": "https://dc.lft.to/lastmile_qr_scan", "android": "https://dc.lft.to/lastmile_qr_scan"}, "is_reserved": 0, "fusion_lat": 0.0, "lon": -77.046575}, {"lat": 38.912662833333336, "type": "electric_scooter", "is_disabled": 0, "name": "9fb40312fbb4bd567be12748db0ed060", "bike_id": "9fb40312fbb4bd567be12748db0ed060", "fusion_lon": 0.0, "rental_uris": {"ios": "https://dc.lft.to/lastmile_qr_scan", "android": "https://dc.lft.to/lastmile_qr_scan"}, "is_reserved": 0, "fusion_lat": 0.0, "lon": -77.044492}, {"lat": 38.89291633333333, "type": "electric_bike", "is_disabled": 0, "name": "2542c6464ba48379d752a89e15a7d0d9", "bike_id": "2542c6464ba48379d752a89e15a7d0d9", "fusion_lon": 0.0, "rental_uris": {"ios": "https://dc.lft.to/lastmile_qr_scan", "android": "https://dc.lft.to/lastmile_qr_scan"}, "is_reserved": 0, "fusion_lat": 0.0, "lon": -76.97619383333333}, {"lat": 38.898774833333334, "type": "electric_scooter", "is_disabled": 0, "name": "67ee63d13d24788ab2db83d7e720f068", "bike_id": "67ee63d13d24788ab2db83d7e720f068", "fusion_lon": 0.0, "rental_uris": {"ios": "https://dc.lft.to/lastmile_qr_scan", "android": "https://dc.lft.to/lastmile_qr_scan"}, "is_reserved": 0, "fusion_lat": 0.0, "lon": -77.03285433333333}, {"lat": 38.93526683333333, "type": "electric_scooter", "is_disabled": 0, "name": "85fba3c3daf5e69963abccd127be8e1a", "bike_id": "85fba3c3daf5e69963abccd127be8e1a", "fusion_lon": 0.0, "rental_uris": {"ios": "https://dc.lft.to/lastmile_qr_scan", "android": "https://dc.lft.to/lastmile_qr_scan"}, "is_reserved": 0, "fusion_lat": 0.0, "lon": -77.0730195}, {"lat": 38.8998465, "type": "electric_scooter", "is_disabled": 0, "name": "0baebac392cec3473c5fabd31bd29752", "bike_id": "0baebac392cec3473c5fabd31bd29752", "fusion_lon": 0.0, "rental_uris": {"ios": "https://dc.lft.to/lastmile_qr_scan", "android": "https://dc.lft.to/lastmile_qr_scan"}, "is_reserved": 0, "fusion_lat": 0.0, "lon": -77.00912516666666}, {"lat": 38.92340683333333, "type": "electric_bike", "is_disabled": 0, "name": "daa24f83e755fc1ab0bf981c9248dc10", "bike_id": "daa24f83e755fc1ab0bf981c9248dc10", "fusion_lon": 0.0, "rental_uris": {"ios": "https://dc.lft.to/lastmile_qr_scan", "android": "https://dc.lft.to/lastmile_qr_scan"}, "is_reserved": 0, "fusion_lat": 0.0, "lon": -76.97145816666666}, {"lat": 38.909167, "type": "electric_scooter", "is_disabled": 0, "name": "19702a938b15b5dcf1d126e9ca1c2f7e", "bike_id": "19702a938b15b5dcf1d126e9ca1c2f7e", "fusion_lon": 0.0, "rental_uris": {"ios": "https://dc.lft.to/lastmile_qr_scan", "android": "https://dc.lft.to/lastmile_qr_scan"}, "is_reserved": 0, "fusion_lat": 0.0, "lon": -77.07279216666667}, {"lat": 38.90113216666666, "type": "electric_scooter", "is_disabled": 0, "name": "0b9a686df760fe0eb0dce6c98ad133be", "bike_id": "0b9a686df760fe0eb0dce6c98ad133be", "fusion_lon": 0.0, "rental_uris": {"ios": "https://dc.lft.to/lastmile_qr_scan", "android": "https://dc.lft.to/lastmile_qr_scan"}, "is_reserved": 0, "fusion_lat": 0.0, "lon": -77.049926}, {"lat": 38.92478716666667, "type": "electric_scooter", "is_disabled": 0, "name": "eac0f566fe5d4c5d13a0b1c4d2c53d84", "bike_id": "eac0f566fe5d4c5d13a0b1c4d2c53d84", "fusion_lon": 0.0, "rental_uris": {"ios": "https://dc.lft.to/lastmile_qr_scan", "android": "https://dc.lft.to/lastmile_qr_scan"}, "is_reserved": 0, "fusion_lat": 0.0, "lon": -77.02246166666667}, {"lat": 38.89986366666667, "type": "electric_scooter", "is_disabled": 0, "name": "73dbf9ee434be73a9b6e3237b701fb16", "bike_id": "73dbf9ee434be73a9b6e3237b701fb16", "fusion_lon": 0.0, "rental_uris": {"ios": "https://dc.lft.to/lastmile_qr_scan", "android": "https://dc.lft.to/lastmile_qr_scan"}, "is_reserved": 0, "fusion_lat": 0.0, "lon": -77.04180366666667}, {"lat": 38.87479116666667, "type": "electric_bike", "is_disabled": 0, "name": "1d4cef00bc705e2e5b8e78a57ca360c1", "bike_id": "1d4cef00bc705e2e5b8e78a57ca360c1", "fusion_lon": 0.0, "rental_uris": {"ios": "https://dc.lft.to/lastmile_qr_scan", "android": "https://dc.lft.to/lastmile_qr_scan"}, "is_reserved": 0, "fusion_lat": 0.0, "lon": -76.97151416666667}, {"lat": 38.9049345, "type": "electric_scooter", "is_disabled": 0, "name": "8c8968f3d00bef4860bf1ea32dc2b2fe", "bike_id": "8c8968f3d00bef4860bf1ea32dc2b2fe", "fusion_lon": 0.0, "rental_uris": {"ios": "https://dc.lft.to/lastmile_qr_scan", "android": "https://dc.lft.to/lastmile_qr_scan"}, "is_reserved": 0, "fusion_lat": 0.0, "lon": -77.04053133333333}, {"lat": 38.9246005, "type": "electric_scooter", "is_disabled": 0, "name": "d6de1062b95ba2642f497b65005f5a16", "bike_id": "d6de1062b95ba2642f497b65005f5a16", "fusion_lon": 0.0, "rental_uris": {"ios": "https://dc.lft.to/lastmile_qr_scan", "android": "https://dc.lft.to/lastmile_qr_scan"}, "is_reserved": 0, "fusion_lat": 0.0, "lon": -77.0392685}, {"lat": 38.91361, "type": "electric_scooter", "is_disabled": 0, "name": "67fcc5bd55307c7c28ddf3c07123462b", "bike_id": "67fcc5bd55307c7c28ddf3c07123462b", "fusion_lon": 0.0, "rental_uris": {"ios": "https://dc.lft.to/lastmile_qr_scan", "android": "https://dc.lft.to/lastmile_qr_scan"}, "is_reserved": 0, "fusion_lat": 0.0, "lon": -77.0455915}, {"lat": 38.90045816666667, "type": "electric_scooter", "is_disabled": 0, "name": "f22ceaef2182aab87418b3766c6b88c2", "bike_id": "f22ceaef2182aab87418b3766c6b88c2", "fusion_lon": 0.0, "rental_uris": {"ios": "https://dc.lft.to/lastmile_qr_scan", "android": "https://dc.lft.to/lastmile_qr_scan"}, "is_reserved": 0, "fusion_lat": 0.0, "lon": -76.98555266666666}, {"lat": 38.94139416666667, "type": "electric_scooter", "is_disabled": 0, "name": "99bc97a2eebaf7ca495641b5a291ea06", "bike_id": "99bc97a2eebaf7ca495641b5a291ea06", "fusion_lon": 0.0, "rental_uris": {"ios": "https://dc.lft.to/lastmile_qr_scan", "android": "https://dc.lft.to/lastmile_qr_scan"}, "is_reserved": 0, "fusion_lat": 0.0, "lon": -77.0232295}, {"lat": 38.90385583333333, "type": "electric_scooter", "is_disabled": 0, "name": "4296ba0694d8fb40f4bd07643632766b", "bike_id": "4296ba0694d8fb40f4bd07643632766b", "fusion_lon": 0.0, "rental_uris": {"ios": "https://dc.lft.to/lastmile_qr_scan", "android": "https://dc.lft.to/lastmile_qr_scan"}, "is_reserved": 0, "fusion_lat": 0.0, "lon": -77.04521416666667}, {"lat": 38.93718533333333, "type": "electric_scooter", "is_disabled": 0, "name": "bd3e00326af14c6bccabee7142f45eea", "bike_id": "bd3e00326af14c6bccabee7142f45eea", "fusion_lon": 0.0, "rental_uris": {"ios": "https://dc.lft.to/lastmile_qr_scan", "android": "https://dc.lft.to/lastmile_qr_scan"}, "is_reserved": 0, "fusion_lat": 0.0, "lon": -77.032895}, {"lat": 38.9528355, "type": "electric_scooter", "is_disabled": 0, "name": "68bb8ded08bed01d521486cecbde9466", "bike_id": "68bb8ded08bed01d521486cecbde9466", "fusion_lon": 0.0, "rental_uris": {"ios": "https://dc.lft.to/lastmile_qr_scan", "android": "https://dc.lft.to/lastmile_qr_scan"}, "is_reserved": 0, "fusion_lat": 0.0, "lon": -77.03630616666666}, {"lat": 38.92647633333333, "type": "electric_scooter", "is_disabled": 0, "name": "4d50fbff544c91708cd720dd81957f38", "bike_id": "4d50fbff544c91708cd720dd81957f38", "fusion_lon": 0.0, "rental_uris": {"ios": "https://dc.lft.to/lastmile_qr_scan", "android": "https://dc.lft.to/lastmile_qr_scan"}, "is_reserved": 0, "fusion_lat": 0.0, "lon": -77.0384995}, {"lat": 38.89362233333333, "type": "electric_scooter", "is_disabled": 0, "name": "aee51548b3705aec0e65b95fc2e09195", "bike_id": "aee51548b3705aec0e65b95fc2e09195", "fusion_lon": 0.0, "rental_uris": {"ios": "https://dc.lft.to/lastmile_qr_scan", "android": "https://dc.lft.to/lastmile_qr_scan"}, "is_reserved": 0, "fusion_lat": 0.0, "lon": -77.04615666666666}, {"lat": 38.902603166666665, "type": "electric_scooter", "is_disabled": 0, "name": "3bdd7f154cd038ca1e06b20bbd4e30f5", "bike_id": "3bdd7f154cd038ca1e06b20bbd4e30f5", "fusion_lon": 0.0, "rental_uris": {"ios": "https://dc.lft.to/lastmile_qr_scan", "android": "https://dc.lft.to/lastmile_qr_scan"}, "is_reserved": 0, "fusion_lat": 0.0, "lon": -77.00884733333334}, {"lat": 38.8970195, "type": "electric_scooter", "is_disabled": 0, "name": "2738c1d40232047f722d0e5bd73e73f8", "bike_id": "2738c1d40232047f722d0e5bd73e73f8", "fusion_lon": 0.0, "rental_uris": {"ios": "https://dc.lft.to/lastmile_qr_scan", "android": "https://dc.lft.to/lastmile_qr_scan"}, "is_reserved": 0, "fusion_lat": 0.0, "lon": -76.93915916666667}, {"lat": 38.876604666666665, "type": "electric_scooter", "is_disabled": 0, "name": "45e301ad230c8017d035340e3110df22", "bike_id": "45e301ad230c8017d035340e3110df22", "fusion_lon": 0.0, "rental_uris": {"ios": "https://dc.lft.to/lastmile_qr_scan", "android": "https://dc.lft.to/lastmile_qr_scan"}, "is_reserved": 0, "fusion_lat": 0.0, "lon": -77.01169766666666}, {"lat": 38.964649333333334, "type": "electric_bike", "is_disabled": 0, "name": "e1f9e404d3a9ddd5e3b59fba7cffadda", "bike_id": "e1f9e404d3a9ddd5e3b59fba7cffadda", "fusion_lon": 0.0, "rental_uris": {"ios": "https://dc.lft.to/lastmile_qr_scan", "android": "https://dc.lft.to/lastmile_qr_scan"}, "is_reserved": 0, "fusion_lat": 0.0, "lon": -77.1065445}, {"lat": 38.960257, "type": "electric_bike", "is_disabled": 0, "name": "5873e87cf162c4a3cf6feaa66aed8544", "bike_id": "5873e87cf162c4a3cf6feaa66aed8544", "fusion_lon": 0.0, "rental_uris": {"ios": "https://dc.lft.to/lastmile_qr_scan", "android": "https://dc.lft.to/lastmile_qr_scan"}, "is_reserved": 0, "fusion_lat": 0.0, "lon": -77.00284866666667}, {"lat": 38.9038515, "type": "electric_scooter", "is_disabled": 0, "name": "c47768891610021fa2875384ba62678e", "bike_id": "c47768891610021fa2875384ba62678e", "fusion_lon": 0.0, "rental_uris": {"ios": "https://dc.lft.to/lastmile_qr_scan", "android": "https://dc.lft.to/lastmile_qr_scan"}, "is_reserved": 0, "fusion_lat": 0.0, "lon": -77.038743}, {"lat": 38.88526433333333, "type": "electric_scooter", "is_disabled": 0, "name": "41c054fd64c0a22a2f40d0c9a8d3cd85", "bike_id": "41c054fd64c0a22a2f40d0c9a8d3cd85", "fusion_lon": 0.0, "rental_uris": {"ios": "https://dc.lft.to/lastmile_qr_scan", "android": "https://dc.lft.to/lastmile_qr_scan"}, "is_reserved": 0, "fusion_lat": 0.0, "lon": -77.01134383333333}, {"lat": 38.902856, "type": "electric_scooter", "is_disabled": 0, "name": "ed02c4e12c028603e55f8f51a2526bc2", "bike_id": "ed02c4e12c028603e55f8f51a2526bc2", "fusion_lon": 0.0, "rental_uris": {"ios": "https://dc.lft.to/lastmile_qr_scan", "android": "https://dc.lft.to/lastmile_qr_scan"}, "is_reserved": 0, "fusion_lat": 0.0, "lon": -77.0326865}, {"lat": 38.9113995, "type": "electric_scooter", "is_disabled": 0, "name": "102c8fcff5ae245c2fce483c7faaca65", "bike_id": "102c8fcff5ae245c2fce483c7faaca65", "fusion_lon": 0.0, "rental_uris": {"ios": "https://dc.lft.to/lastmile_qr_scan", "android": "https://dc.lft.to/lastmile_qr_scan"}, "is_reserved": 0, "fusion_lat": 0.0, "lon": -77.02194183333333}, {"lat": 38.90677183333333, "type": "electric_scooter", "is_disabled": 0, "name": "3a6550939f96d26d4e925761b97eee56", "bike_id": "3a6550939f96d26d4e925761b97eee56", "fusion_lon": 0.0, "rental_uris": {"ios": "https://dc.lft.to/lastmile_qr_scan", "android": "https://dc.lft.to/lastmile_qr_scan"}, "is_reserved": 0, "fusion_lat": 0.0, "lon": -77.038436}, {"lat": 38.89051, "type": "electric_scooter", "is_disabled": 0, "name": "953711456db16267e7ed8182344b24d6", "bike_id": "953711456db16267e7ed8182344b24d6", "fusion_lon": 0.0, "rental_uris": {"ios": "https://dc.lft.to/lastmile_qr_scan", "android": "https://dc.lft.to/lastmile_qr_scan"}, "is_reserved": 0, "fusion_lat": 0.0, "lon": -77.04495583333333}, {"lat": 38.91091933333333, "type": "electric_scooter", "is_disabled": 0, "name": "6976f8b5de7b7f2de60f472010010956", "bike_id": "6976f8b5de7b7f2de60f472010010956", "fusion_lon": 0.0, "rental_uris": {"ios": "https://dc.lft.to/lastmile_qr_scan", "android": "https://dc.lft.to/lastmile_qr_scan"}, "is_reserved": 0, "fusion_lat": 0.0, "lon": -77.04484566666666}, {"lat": 38.89512933333334, "type": "electric_scooter", "is_disabled": 0, "name": "dafb55092c5e7860764d8a9c10acd5b3", "bike_id": "dafb55092c5e7860764d8a9c10acd5b3", "fusion_lon": 0.0, "rental_uris": {"ios": "https://dc.lft.to/lastmile_qr_scan", "android": "https://dc.lft.to/lastmile_qr_scan"}, "is_reserved": 0, "fusion_lat": 0.0, "lon": -76.948854}, {"lat": 38.924678166666666, "type": "electric_scooter", "is_disabled": 0, "name": "65782e8b4da04db8d5665cf49ee601f8", "bike_id": "65782e8b4da04db8d5665cf49ee601f8", "fusion_lon": 0.0, "rental_uris": {"ios": "https://dc.lft.to/lastmile_qr_scan", "android": "https://dc.lft.to/lastmile_qr_scan"}, "is_reserved": 0, "fusion_lat": 0.0, "lon": -77.0576115}, {"lat": 38.89751316666667, "type": "electric_scooter", "is_disabled": 0, "name": "888bb2af38b8944e998dee0019f778ed", "bike_id": "888bb2af38b8944e998dee0019f778ed", "fusion_lon": 0.0, "rental_uris": {"ios": "https://dc.lft.to/lastmile_qr_scan", "android": "https://dc.lft.to/lastmile_qr_scan"}, "is_reserved": 0, "fusion_lat": 0.0, "lon": -77.019028}, {"lat": 38.888179, "type": "electric_scooter", "is_disabled": 0, "name": "6a57441aa9815cb3d20c2677f31a1605", "bike_id": "6a57441aa9815cb3d20c2677f31a1605", "fusion_lon": 0.0, "rental_uris": {"ios": "https://dc.lft.to/lastmile_qr_scan", "android": "https://dc.lft.to/lastmile_qr_scan"}, "is_reserved": 0, "fusion_lat": 0.0, "lon": -76.977074}, {"lat": 38.92434133333333, "type": "electric_scooter", "is_disabled": 0, "name": "33975756e6ee145c7c20b50870212e3e", "bike_id": "33975756e6ee145c7c20b50870212e3e", "fusion_lon": 0.0, "rental_uris": {"ios": "https://dc.lft.to/lastmile_qr_scan", "android": "https://dc.lft.to/lastmile_qr_scan"}, "is_reserved": 0, "fusion_lat": 0.0, "lon": -77.00320683333334}, {"lat": 38.930125833333335, "type": "electric_scooter", "is_disabled": 0, "name": "a888244f9cf3a3ea50a5a61846c8837a", "bike_id": "a888244f9cf3a3ea50a5a61846c8837a", "fusion_lon": 0.0, "rental_uris": {"ios": "https://dc.lft.to/lastmile_qr_scan", "android": "https://dc.lft.to/lastmile_qr_scan"}, "is_reserved": 0, "fusion_lat": 0.0, "lon": -77.06186033333333}, {"lat": 38.922275166666665, "type": "electric_scooter", "is_disabled": 0, "name": "3f1828ff86cfaad4516926a58a812c0c", "bike_id": "3f1828ff86cfaad4516926a58a812c0c", "fusion_lon": 0.0, "rental_uris": {"ios": "https://dc.lft.to/lastmile_qr_scan", "android": "https://dc.lft.to/lastmile_qr_scan"}, "is_reserved": 0, "fusion_lat": 0.0, "lon": -77.0211305}, {"lat": 38.918802, "type": "electric_bike", "is_disabled": 0, "name": "2e4c7711f6b61ed3f5717f636678ee44", "bike_id": "2e4c7711f6b61ed3f5717f636678ee44", "fusion_lon": 0.0, "rental_uris": {"ios": "https://dc.lft.to/lastmile_qr_scan", "android": "https://dc.lft.to/lastmile_qr_scan"}, "is_reserved": 0, "fusion_lat": 0.0, "lon": -76.96432716666666}, {"lat": 38.884914, "type": "electric_scooter", "is_disabled": 0, "name": "eaffd412a92b5bbc87053de0591603f6", "bike_id": "eaffd412a92b5bbc87053de0591603f6", "fusion_lon": 0.0, "rental_uris": {"ios": "https://dc.lft.to/lastmile_qr_scan", "android": "https://dc.lft.to/lastmile_qr_scan"}, "is_reserved": 0, "fusion_lat": 0.0, "lon": -77.00712366666667}, {"lat": 38.924634, "type": "electric_scooter", "is_disabled": 0, "name": "f0da9b42de53de97c973d96104473c5d", "bike_id": "f0da9b42de53de97c973d96104473c5d", "fusion_lon": 0.0, "rental_uris": {"ios": "https://dc.lft.to/lastmile_qr_scan", "android": "https://dc.lft.to/lastmile_qr_scan"}, "is_reserved": 0, "fusion_lat": 0.0, "lon": -77.03286983333334}, {"lat": 38.882783833333335, "type": "electric_bike", "is_disabled": 0, "name": "bb706cb210885c31b7ea41fd93e611f0", "bike_id": "bb706cb210885c31b7ea41fd93e611f0", "fusion_lon": 0.0, "rental_uris": {"ios": "https://dc.lft.to/lastmile_qr_scan", "android": "https://dc.lft.to/lastmile_qr_scan"}, "is_reserved": 0, "fusion_lat": 0.0, "lon": -76.9324085}, {"lat": 38.852148166666666, "type": "electric_bike", "is_disabled": 0, "name": "c0c0de4582c34a44f3309c3ad12e6d0a", "bike_id": "c0c0de4582c34a44f3309c3ad12e6d0a", "fusion_lon": 0.0, "rental_uris": {"ios": "https://dc.lft.to/lastmile_qr_scan", "android": "https://dc.lft.to/lastmile_qr_scan"}, "is_reserved": 0, "fusion_lat": 0.0, "lon": -76.9936985}, {"lat": 38.892368166666664, "type": "electric_scooter", "is_disabled": 0, "name": "8aa58841c2c4f0417c4b0986bfb9628d", "bike_id": "8aa58841c2c4f0417c4b0986bfb9628d", "fusion_lon": 0.0, "rental_uris": {"ios": "https://dc.lft.to/lastmile_qr_scan", "android": "https://dc.lft.to/lastmile_qr_scan"}, "is_reserved": 0, "fusion_lat": 0.0, "lon": -77.03178883333334}, {"lat": 38.897171166666666, "type": "electric_scooter", "is_disabled": 0, "name": "40062a187ed8587540511a9923ac936c", "bike_id": "40062a187ed8587540511a9923ac936c", "fusion_lon": 0.0, "rental_uris": {"ios": "https://dc.lft.to/lastmile_qr_scan", "android": "https://dc.lft.to/lastmile_qr_scan"}, "is_reserved": 0, "fusion_lat": 0.0, "lon": -77.03207016666667}, {"lat": 38.92245066666667, "type": "electric_scooter", "is_disabled": 0, "name": "0494d2f2049b040edd80d1bc11c0cbce", "bike_id": "0494d2f2049b040edd80d1bc11c0cbce", "fusion_lon": 0.0, "rental_uris": {"ios": "https://dc.lft.to/lastmile_qr_scan", "android": "https://dc.lft.to/lastmile_qr_scan"}, "is_reserved": 0, "fusion_lat": 0.0, "lon": -77.03519766666666}, {"lat": 38.884762333333335, "type": "electric_scooter", "is_disabled": 0, "name": "0a85be6cbadf4e8fd29155fb52f3581b", "bike_id": "0a85be6cbadf4e8fd29155fb52f3581b", "fusion_lon": 0.0, "rental_uris": {"ios": "https://dc.lft.to/lastmile_qr_scan", "android": "https://dc.lft.to/lastmile_qr_scan"}, "is_reserved": 0, "fusion_lat": 0.0, "lon": -77.025599}, {"lat": 38.89656166666666, "type": "electric_scooter", "is_disabled": 0, "name": "9468c348f3446464dd124017fc131e30", "bike_id": "9468c348f3446464dd124017fc131e30", "fusion_lon": 0.0, "rental_uris": {"ios": "https://dc.lft.to/lastmile_qr_scan", "android": "https://dc.lft.to/lastmile_qr_scan"}, "is_reserved": 0, "fusion_lat": 0.0, "lon": -77.05023283333334}, {"lat": 38.919129166666664, "type": "electric_scooter", "is_disabled": 0, "name": "cda7c5dc302c99bffc99982bd2dfa94a", "bike_id": "cda7c5dc302c99bffc99982bd2dfa94a", "fusion_lon": 0.0, "rental_uris": {"ios": "https://dc.lft.to/lastmile_qr_scan", "android": "https://dc.lft.to/lastmile_qr_scan"}, "is_reserved": 0, "fusion_lat": 0.0, "lon": -77.03428116666667}, {"lat": 38.909043833333335, "type": "electric_scooter", "is_disabled": 0, "name": "f911c8bd7e50174c9d19153b05016696", "bike_id": "f911c8bd7e50174c9d19153b05016696", "fusion_lon": 0.0, "rental_uris": {"ios": "https://dc.lft.to/lastmile_qr_scan", "android": "https://dc.lft.to/lastmile_qr_scan"}, "is_reserved": 0, "fusion_lat": 0.0, "lon": -77.072724}, {"lat": 38.90307816666667, "type": "electric_scooter", "is_disabled": 0, "name": "01045418bd60e77bbe0878f68dc9f290", "bike_id": "01045418bd60e77bbe0878f68dc9f290", "fusion_lon": 0.0, "rental_uris": {"ios": "https://dc.lft.to/lastmile_qr_scan", "android": "https://dc.lft.to/lastmile_qr_scan"}, "is_reserved": 0, "fusion_lat": 0.0, "lon": -77.043308}, {"lat": 38.930714333333334, "type": "electric_scooter", "is_disabled": 0, "name": "019c02fe7fba92347e6299e363ce05cc", "bike_id": "019c02fe7fba92347e6299e363ce05cc", "fusion_lon": 0.0, "rental_uris": {"ios": "https://dc.lft.to/lastmile_qr_scan", "android": "https://dc.lft.to/lastmile_qr_scan"}, "is_reserved": 0, "fusion_lat": 0.0, "lon": -77.0234385}, {"lat": 38.90870066666667, "type": "electric_scooter", "is_disabled": 0, "name": "320bbab40887bb61e9143390e217806e", "bike_id": "320bbab40887bb61e9143390e217806e", "fusion_lon": 0.0, "rental_uris": {"ios": "https://dc.lft.to/lastmile_qr_scan", "android": "https://dc.lft.to/lastmile_qr_scan"}, "is_reserved": 0, "fusion_lat": 0.0, "lon": -77.03755766666667}, {"lat": 38.80251583333333, "type": "electric_bike", "is_disabled": 0, "name": "35bfe31b657697e87216d0c3a5253467", "bike_id": "35bfe31b657697e87216d0c3a5253467", "fusion_lon": 0.0, "rental_uris": {"ios": "https://dc.lft.to/lastmile_qr_scan", "android": "https://dc.lft.to/lastmile_qr_scan"}, "is_reserved": 0, "fusion_lat": 0.0, "lon": -77.11451766666667}, {"lat": 38.91659683333334, "type": "electric_scooter", "is_disabled": 0, "name": "d9e637c926d856b00179f13e18767b83", "bike_id": "d9e637c926d856b00179f13e18767b83", "fusion_lon": 0.0, "rental_uris": {"ios": "https://dc.lft.to/lastmile_qr_scan", "android": "https://dc.lft.to/lastmile_qr_scan"}, "is_reserved": 0, "fusion_lat": 0.0, "lon": -77.0461865}, {"lat": 38.8471445, "type": "electric_scooter", "is_disabled": 0, "name": "ebb03cd5d80e4c0e5efb65114a86ebda", "bike_id": "ebb03cd5d80e4c0e5efb65114a86ebda", "fusion_lon": 0.0, "rental_uris": {"ios": "https://dc.lft.to/lastmile_qr_scan", "android": "https://dc.lft.to/lastmile_qr_scan"}, "is_reserved": 0, "fusion_lat": 0.0, "lon": -76.96817516666667}, {"lat": 38.923532333333334, "type": "electric_scooter", "is_disabled": 0, "name": "c7e2bd2e1db220af9a27ad5b4f86edfd", "bike_id": "c7e2bd2e1db220af9a27ad5b4f86edfd", "fusion_lon": 0.0, "rental_uris": {"ios": "https://dc.lft.to/lastmile_qr_scan", "android": "https://dc.lft.to/lastmile_qr_scan"}, "is_reserved": 0, "fusion_lat": 0.0, "lon": -77.053712}, {"lat": 38.908805, "type": "electric_scooter", "is_disabled": 0, "name": "f099243d05802ba072fbf015456c95e7", "bike_id": "f099243d05802ba072fbf015456c95e7", "fusion_lon": 0.0, "rental_uris": {"ios": "https://dc.lft.to/lastmile_qr_scan", "android": "https://dc.lft.to/lastmile_qr_scan"}, "is_reserved": 0, "fusion_lat": 0.0, "lon": -77.0753165}, {"lat": 38.900340666666665, "type": "electric_scooter", "is_disabled": 0, "name": "ed9220533b5c74bf1dddb124c5682312", "bike_id": "ed9220533b5c74bf1dddb124c5682312", "fusion_lon": 0.0, "rental_uris": {"ios": "https://dc.lft.to/lastmile_qr_scan", "android": "https://dc.lft.to/lastmile_qr_scan"}, "is_reserved": 0, "fusion_lat": 0.0, "lon": -76.98836733333333}, {"lat": 38.89746433333333, "type": "electric_scooter", "is_disabled": 0, "name": "1e06c5866ad0e6c47948c43dfb98c1d8", "bike_id": "1e06c5866ad0e6c47948c43dfb98c1d8", "fusion_lon": 0.0, "rental_uris": {"ios": "https://dc.lft.to/lastmile_qr_scan", "android": "https://dc.lft.to/lastmile_qr_scan"}, "is_reserved": 0, "fusion_lat": 0.0, "lon": -77.0408115}, {"lat": 38.91924683333333, "type": "electric_scooter", "is_disabled": 0, "name": "26b4db52c40e61995545b420159e58d0", "bike_id": "26b4db52c40e61995545b420159e58d0", "fusion_lon": 0.0, "rental_uris": {"ios": "https://dc.lft.to/lastmile_qr_scan", "android": "https://dc.lft.to/lastmile_qr_scan"}, "is_reserved": 0, "fusion_lat": 0.0, "lon": -77.03094816666666}, {"lat": 39.0747045, "type": "electric_bike", "is_disabled": 0, "name": "4395315644d74683d76a9afb005779e7", "bike_id": "4395315644d74683d76a9afb005779e7", "fusion_lon": 0.0, "rental_uris": {"ios": "https://dc.lft.to/lastmile_qr_scan", "android": "https://dc.lft.to/lastmile_qr_scan"}, "is_reserved": 0, "fusion_lat": 0.0, "lon": -77.11522416666666}, {"lat": 38.932491166666665, "type": "electric_scooter", "is_disabled": 0, "name": "23d8a344da1d7580da64c70500ede52f", "bike_id": "23d8a344da1d7580da64c70500ede52f", "fusion_lon": 0.0, "rental_uris": {"ios": "https://dc.lft.to/lastmile_qr_scan", "android": "https://dc.lft.to/lastmile_qr_scan"}, "is_reserved": 0, "fusion_lat": 0.0, "lon": -77.03283466666667}, {"lat": 38.961254333333336, "type": "electric_bike", "is_disabled": 0, "name": "24f8a26f22e1c9d496d8c14b5dc04990", "bike_id": "24f8a26f22e1c9d496d8c14b5dc04990", "fusion_lon": 0.0, "rental_uris": {"ios": "https://dc.lft.to/lastmile_qr_scan", "android": "https://dc.lft.to/lastmile_qr_scan"}, "is_reserved": 0, "fusion_lat": 0.0, "lon": -77.03274016666667}, {"lat": 38.898964666666664, "type": "electric_scooter", "is_disabled": 0, "name": "fd5db27f419d081ca9cb813804ded964", "bike_id": "fd5db27f419d081ca9cb813804ded964", "fusion_lon": 0.0, "rental_uris": {"ios": "https://dc.lft.to/lastmile_qr_scan", "android": "https://dc.lft.to/lastmile_qr_scan"}, "is_reserved": 0, "fusion_lat": 0.0, "lon": -77.03280966666667}, {"lat": 38.92685866666667, "type": "electric_scooter", "is_disabled": 0, "name": "531b95e307cfb7c295154c1066636dd7", "bike_id": "531b95e307cfb7c295154c1066636dd7", "fusion_lon": 0.0, "rental_uris": {"ios": "https://dc.lft.to/lastmile_qr_scan", "android": "https://dc.lft.to/lastmile_qr_scan"}, "is_reserved": 0, "fusion_lat": 0.0, "lon": -77.02963433333333}, {"lat": 38.9208145, "type": "electric_scooter", "is_disabled": 0, "name": "c35ec855f04a9a625f0a0dc55067e9b3", "bike_id": "c35ec855f04a9a625f0a0dc55067e9b3", "fusion_lon": 0.0, "rental_uris": {"ios": "https://dc.lft.to/lastmile_qr_scan", "android": "https://dc.lft.to/lastmile_qr_scan"}, "is_reserved": 0, "fusion_lat": 0.0, "lon": -77.02532733333334}, {"lat": 38.922489, "type": "electric_scooter", "is_disabled": 0, "name": "f204e7f6387275d1d544ead2dfb327f1", "bike_id": "f204e7f6387275d1d544ead2dfb327f1", "fusion_lon": 0.0, "rental_uris": {"ios": "https://dc.lft.to/lastmile_qr_scan", "android": "https://dc.lft.to/lastmile_qr_scan"}, "is_reserved": 0, "fusion_lat": 0.0, "lon": -77.01945516666666}, {"lat": 38.928426, "type": "electric_scooter", "is_disabled": 0, "name": "2a5fe1b6d4ea23424ff0e3f1065dfcd2", "bike_id": "2a5fe1b6d4ea23424ff0e3f1065dfcd2", "fusion_lon": 0.0, "rental_uris": {"ios": "https://dc.lft.to/lastmile_qr_scan", "android": "https://dc.lft.to/lastmile_qr_scan"}, "is_reserved": 0, "fusion_lat": 0.0, "lon": -77.032706}, {"lat": 38.906183666666664, "type": "electric_scooter", "is_disabled": 0, "name": "2ce5f6fcf656a3ad3a02758bc46cc05f", "bike_id": "2ce5f6fcf656a3ad3a02758bc46cc05f", "fusion_lon": 0.0, "rental_uris": {"ios": "https://dc.lft.to/lastmile_qr_scan", "android": "https://dc.lft.to/lastmile_qr_scan"}, "is_reserved": 0, "fusion_lat": 0.0, "lon": -77.04363166666667}, {"lat": 38.9238745, "type": "electric_scooter", "is_disabled": 0, "name": "79aa3306fc3940db8363d5c9ac6f1133", "bike_id": "79aa3306fc3940db8363d5c9ac6f1133", "fusion_lon": 0.0, "rental_uris": {"ios": "https://dc.lft.to/lastmile_qr_scan", "android": "https://dc.lft.to/lastmile_qr_scan"}, "is_reserved": 0, "fusion_lat": 0.0, "lon": -77.034116}, {"lat": 38.917074166666666, "type": "electric_scooter", "is_disabled": 0, "name": "8a3c924ae2465f846f3c23cd93eb46fc", "bike_id": "8a3c924ae2465f846f3c23cd93eb46fc", "fusion_lon": 0.0, "rental_uris": {"ios": "https://dc.lft.to/lastmile_qr_scan", "android": "https://dc.lft.to/lastmile_qr_scan"}, "is_reserved": 0, "fusion_lat": 0.0, "lon": -77.03729133333333}, {"lat": 38.9641005, "type": "electric_scooter", "is_disabled": 0, "name": "15752566b4ce1e545e3893d0c8dfc552", "bike_id": "15752566b4ce1e545e3893d0c8dfc552", "fusion_lon": 0.0, "rental_uris": {"ios": "https://dc.lft.to/lastmile_qr_scan", "android": "https://dc.lft.to/lastmile_qr_scan"}, "is_reserved": 0, "fusion_lat": 0.0, "lon": -77.032857}, {"lat": 38.93242133333333, "type": "electric_scooter", "is_disabled": 0, "name": "0d9892d2bc543a43fe268470a58309ca", "bike_id": "0d9892d2bc543a43fe268470a58309ca", "fusion_lon": 0.0, "rental_uris": {"ios": "https://dc.lft.to/lastmile_qr_scan", "android": "https://dc.lft.to/lastmile_qr_scan"}, "is_reserved": 0, "fusion_lat": 0.0, "lon": -77.03849116666666}, {"lat": 38.8998455, "type": "electric_scooter", "is_disabled": 0, "name": "0cb396a9fce172bbd75a20425b10be26", "bike_id": "0cb396a9fce172bbd75a20425b10be26", "fusion_lon": 0.0, "rental_uris": {"ios": "https://dc.lft.to/lastmile_qr_scan", "android": "https://dc.lft.to/lastmile_qr_scan"}, "is_reserved": 0, "fusion_lat": 0.0, "lon": -77.00914733333333}, {"lat": 38.897279833333336, "type": "electric_scooter", "is_disabled": 0, "name": "c6aff9aa95542b801ab946a9bb58ce19", "bike_id": "c6aff9aa95542b801ab946a9bb58ce19", "fusion_lon": 0.0, "rental_uris": {"ios": "https://dc.lft.to/lastmile_qr_scan", "android": "https://dc.lft.to/lastmile_qr_scan"}, "is_reserved": 0, "fusion_lat": 0.0, "lon": -77.055245}, {"lat": 38.90369966666667, "type": "electric_scooter", "is_disabled": 0, "name": "00b290b3fc27762aab14cbc88528c61a", "bike_id": "00b290b3fc27762aab14cbc88528c61a", "fusion_lon": 0.0, "rental_uris": {"ios": "https://dc.lft.to/lastmile_qr_scan", "android": "https://dc.lft.to/lastmile_qr_scan"}, "is_reserved": 0, "fusion_lat": 0.0, "lon": -77.045}, {"lat": 38.8749645, "type": "electric_scooter", "is_disabled": 0, "name": "5af098ef6200c4efca163de01d41d80b", "bike_id": "5af098ef6200c4efca163de01d41d80b", "fusion_lon": 0.0, "rental_uris": {"ios": "https://dc.lft.to/lastmile_qr_scan", "android": "https://dc.lft.to/lastmile_qr_scan"}, "is_reserved": 0, "fusion_lat": 0.0, "lon": -76.9979525}, {"lat": 38.90938583333333, "type": "electric_scooter", "is_disabled": 0, "name": "664131c3888893e3106823089542f32f", "bike_id": "664131c3888893e3106823089542f32f", "fusion_lon": 0.0, "rental_uris": {"ios": "https://dc.lft.to/lastmile_qr_scan", "android": "https://dc.lft.to/lastmile_qr_scan"}, "is_reserved": 0, "fusion_lat": 0.0, "lon": -77.03200383333333}, {"lat": 38.90271766666667, "type": "electric_scooter", "is_disabled": 0, "name": "3163000657d34fa64f7bc7edf63ab394", "bike_id": "3163000657d34fa64f7bc7edf63ab394", "fusion_lon": 0.0, "rental_uris": {"ios": "https://dc.lft.to/lastmile_qr_scan", "android": "https://dc.lft.to/lastmile_qr_scan"}, "is_reserved": 0, "fusion_lat": 0.0, "lon": -77.04592283333334}, {"lat": 38.894927, "type": "electric_scooter", "is_disabled": 0, "name": "941381c000ca065de208e2ac5199a3eb", "bike_id": "941381c000ca065de208e2ac5199a3eb", "fusion_lon": 0.0, "rental_uris": {"ios": "https://dc.lft.to/lastmile_qr_scan", "android": "https://dc.lft.to/lastmile_qr_scan"}, "is_reserved": 0, "fusion_lat": 0.0, "lon": -77.02291383333333}, {"lat": 38.87051666666667, "type": "electric_bike", "is_disabled": 0, "name": "b51bfd59a4bf3c04d0f027c7073106c3", "bike_id": "b51bfd59a4bf3c04d0f027c7073106c3", "fusion_lon": 0.0, "rental_uris": {"ios": "https://dc.lft.to/lastmile_qr_scan", "android": "https://dc.lft.to/lastmile_qr_scan"}, "is_reserved": 0, "fusion_lat": 0.0, "lon": -77.1104585}, {"lat": 38.896068, "type": "electric_scooter", "is_disabled": 0, "name": "6becca27092150a115b0394bcb29c756", "bike_id": "6becca27092150a115b0394bcb29c756", "fusion_lon": 0.0, "rental_uris": {"ios": "https://dc.lft.to/lastmile_qr_scan", "android": "https://dc.lft.to/lastmile_qr_scan"}, "is_reserved": 0, "fusion_lat": 0.0, "lon": -77.00927366666667}, {"lat": 38.902603166666665, "type": "electric_scooter", "is_disabled": 0, "name": "e736a6658265b146578f7544967096ff", "bike_id": "e736a6658265b146578f7544967096ff", "fusion_lon": 0.0, "rental_uris": {"ios": "https://dc.lft.to/lastmile_qr_scan", "android": "https://dc.lft.to/lastmile_qr_scan"}, "is_reserved": 0, "fusion_lat": 0.0, "lon": -77.028236}, {"lat": 38.901961666666665, "type": "electric_scooter", "is_disabled": 0, "name": "3a1c463407754af4a3aab35adc8d63a8", "bike_id": "3a1c463407754af4a3aab35adc8d63a8", "fusion_lon": 0.0, "rental_uris": {"ios": "https://dc.lft.to/lastmile_qr_scan", "android": "https://dc.lft.to/lastmile_qr_scan"}, "is_reserved": 0, "fusion_lat": 0.0, "lon": -77.059089}, {"lat": 38.934385, "type": "electric_scooter", "is_disabled": 0, "name": "ed8b47a536ae358996e7bb9b1125da1d", "bike_id": "ed8b47a536ae358996e7bb9b1125da1d", "fusion_lon": 0.0, "rental_uris": {"ios": "https://dc.lft.to/lastmile_qr_scan", "android": "https://dc.lft.to/lastmile_qr_scan"}, "is_reserved": 0, "fusion_lat": 0.0, "lon": -77.03440833333333}, {"lat": 38.919486666666664, "type": "electric_scooter", "is_disabled": 0, "name": "2b7c03dbe2555b81e9f1180cb9437a40", "bike_id": "2b7c03dbe2555b81e9f1180cb9437a40", "fusion_lon": 0.0, "rental_uris": {"ios": "https://dc.lft.to/lastmile_qr_scan", "android": "https://dc.lft.to/lastmile_qr_scan"}, "is_reserved": 0, "fusion_lat": 0.0, "lon": -77.07978883333334}, {"lat": 38.89876566666667, "type": "electric_scooter", "is_disabled": 0, "name": "b1e1552c238abb17ed1a9d33cefdb7ff", "bike_id": "b1e1552c238abb17ed1a9d33cefdb7ff", "fusion_lon": 0.0, "rental_uris": {"ios": "https://dc.lft.to/lastmile_qr_scan", "android": "https://dc.lft.to/lastmile_qr_scan"}, "is_reserved": 0, "fusion_lat": 0.0, "lon": -77.02738}, {"lat": 38.9038505, "type": "electric_scooter", "is_disabled": 0, "name": "d36511a7e16bfbc958395a6e0bfcfeb5", "bike_id": "d36511a7e16bfbc958395a6e0bfcfeb5", "fusion_lon": 0.0, "rental_uris": {"ios": "https://dc.lft.to/lastmile_qr_scan", "android": "https://dc.lft.to/lastmile_qr_scan"}, "is_reserved": 0, "fusion_lat": 0.0, "lon": -77.045246}, {"lat": 39.0848825, "type": "electric_bike", "is_disabled": 0, "name": "60fecbee7e7b9a2769c90486cbfdffc0", "bike_id": "60fecbee7e7b9a2769c90486cbfdffc0", "fusion_lon": 0.0, "rental_uris": {"ios": "https://dc.lft.to/lastmile_qr_scan", "android": "https://dc.lft.to/lastmile_qr_scan"}, "is_reserved": 0, "fusion_lat": 0.0, "lon": -76.95041533333334}, {"lat": 38.91571533333333, "type": "electric_scooter", "is_disabled": 0, "name": "dac3f2dcd949750bd7704971830c9fb5", "bike_id": "dac3f2dcd949750bd7704971830c9fb5", "fusion_lon": 0.0, "rental_uris": {"ios": "https://dc.lft.to/lastmile_qr_scan", "android": "https://dc.lft.to/lastmile_qr_scan"}, "is_reserved": 0, "fusion_lat": 0.0, "lon": -77.04634733333333}, {"lat": 38.901757833333335, "type": "electric_scooter", "is_disabled": 0, "name": "47e460ec62adeb2d80141e284eb5ab6c", "bike_id": "47e460ec62adeb2d80141e284eb5ab6c", "fusion_lon": 0.0, "rental_uris": {"ios": "https://dc.lft.to/lastmile_qr_scan", "android": "https://dc.lft.to/lastmile_qr_scan"}, "is_reserved": 0, "fusion_lat": 0.0, "lon": -77.050928}, {"lat": 38.94423466666667, "type": "electric_scooter", "is_disabled": 0, "name": "70d91763916a5ad948c48a50047c699e", "bike_id": "70d91763916a5ad948c48a50047c699e", "fusion_lon": 0.0, "rental_uris": {"ios": "https://dc.lft.to/lastmile_qr_scan", "android": "https://dc.lft.to/lastmile_qr_scan"}, "is_reserved": 0, "fusion_lat": 0.0, "lon": -77.05520116666666}, {"lat": 38.884836, "type": "electric_scooter", "is_disabled": 0, "name": "1ad26886dadbf4d20aee973f2bc525c4", "bike_id": "1ad26886dadbf4d20aee973f2bc525c4", "fusion_lon": 0.0, "rental_uris": {"ios": "https://dc.lft.to/lastmile_qr_scan", "android": "https://dc.lft.to/lastmile_qr_scan"}, "is_reserved": 0, "fusion_lat": 0.0, "lon": -77.01527916666667}, {"lat": 38.90216783333334, "type": "electric_scooter", "is_disabled": 0, "name": "c654cb63fdfc6a8986fcb6e997ce8c36", "bike_id": "c654cb63fdfc6a8986fcb6e997ce8c36", "fusion_lon": 0.0, "rental_uris": {"ios": "https://dc.lft.to/lastmile_qr_scan", "android": "https://dc.lft.to/lastmile_qr_scan"}, "is_reserved": 0, "fusion_lat": 0.0, "lon": -77.02369333333333}, {"lat": 38.90547183333334, "type": "electric_scooter", "is_disabled": 0, "name": "63c5ad5fdace7823e84ff35979c37709", "bike_id": "63c5ad5fdace7823e84ff35979c37709", "fusion_lon": 0.0, "rental_uris": {"ios": "https://dc.lft.to/lastmile_qr_scan", "android": "https://dc.lft.to/lastmile_qr_scan"}, "is_reserved": 0, "fusion_lat": 0.0, "lon": -77.02185916666667}, {"lat": 38.896202333333335, "type": "electric_scooter", "is_disabled": 0, "name": "6458232b83a2ba8264ef9d3f85fa14ba", "bike_id": "6458232b83a2ba8264ef9d3f85fa14ba", "fusion_lon": 0.0, "rental_uris": {"ios": "https://dc.lft.to/lastmile_qr_scan", "android": "https://dc.lft.to/lastmile_qr_scan"}, "is_reserved": 0, "fusion_lat": 0.0, "lon": -77.03180616666667}, {"lat": 38.90355866666667, "type": "electric_scooter", "is_disabled": 0, "name": "3c9d1c60540ff04b8f8391d70eae4c89", "bike_id": "3c9d1c60540ff04b8f8391d70eae4c89", "fusion_lon": 0.0, "rental_uris": {"ios": "https://dc.lft.to/lastmile_qr_scan", "android": "https://dc.lft.to/lastmile_qr_scan"}, "is_reserved": 0, "fusion_lat": 0.0, "lon": -77.01945183333333}, {"lat": 38.98965033333333, "type": "electric_bike", "is_disabled": 0, "name": "26394a6c9d88d343ccc13dd2166cc5e9", "bike_id": "26394a6c9d88d343ccc13dd2166cc5e9", "fusion_lon": 0.0, "rental_uris": {"ios": "https://dc.lft.to/lastmile_qr_scan", "android": "https://dc.lft.to/lastmile_qr_scan"}, "is_reserved": 0, "fusion_lat": 0.0, "lon": -77.09897233333334}, {"lat": 38.895608833333334, "type": "electric_scooter", "is_disabled": 0, "name": "be11601facb529bc01fbdd4c3697cb8a", "bike_id": "be11601facb529bc01fbdd4c3697cb8a", "fusion_lon": 0.0, "rental_uris": {"ios": "https://dc.lft.to/lastmile_qr_scan", "android": "https://dc.lft.to/lastmile_qr_scan"}, "is_reserved": 0, "fusion_lat": 0.0, "lon": -77.04676416666666}, {"lat": 38.900612, "type": "electric_scooter", "is_disabled": 0, "name": "e742943dacc7391d940cf230a71fae63", "bike_id": "e742943dacc7391d940cf230a71fae63", "fusion_lon": 0.0, "rental_uris": {"ios": "https://dc.lft.to/lastmile_qr_scan", "android": "https://dc.lft.to/lastmile_qr_scan"}, "is_reserved": 0, "fusion_lat": 0.0, "lon": -77.03177866666667}, {"lat": 38.919426666666666, "type": "electric_scooter", "is_disabled": 0, "name": "54a228d301bc51981cf769b8260ed4c3", "bike_id": "54a228d301bc51981cf769b8260ed4c3", "fusion_lon": 0.0, "rental_uris": {"ios": "https://dc.lft.to/lastmile_qr_scan", "android": "https://dc.lft.to/lastmile_qr_scan"}, "is_reserved": 0, "fusion_lat": 0.0, "lon": -77.01799533333333}, {"lat": 38.922494666666665, "type": "electric_scooter", "is_disabled": 0, "name": "0a6d7002d5c4468771afd65cc826d115", "bike_id": "0a6d7002d5c4468771afd65cc826d115", "fusion_lon": 0.0, "rental_uris": {"ios": "https://dc.lft.to/lastmile_qr_scan", "android": "https://dc.lft.to/lastmile_qr_scan"}, "is_reserved": 0, "fusion_lat": 0.0, "lon": -77.019518}, {"lat": 38.933274, "type": "electric_scooter", "is_disabled": 0, "name": "42995a5417f2722fed6b6b5419ba28e7", "bike_id": "42995a5417f2722fed6b6b5419ba28e7", "fusion_lon": 0.0, "rental_uris": {"ios": "https://dc.lft.to/lastmile_qr_scan", "android": "https://dc.lft.to/lastmile_qr_scan"}, "is_reserved": 0, "fusion_lat": 0.0, "lon": -77.02921883333333}, {"lat": 38.909684166666665, "type": "electric_scooter", "is_disabled": 0, "name": "f34836f3f38f6e7dbc11f52bb57332b5", "bike_id": "f34836f3f38f6e7dbc11f52bb57332b5", "fusion_lon": 0.0, "rental_uris": {"ios": "https://dc.lft.to/lastmile_qr_scan", "android": "https://dc.lft.to/lastmile_qr_scan"}, "is_reserved": 0, "fusion_lat": 0.0, "lon": -76.9846025}, {"lat": 38.89650283333334, "type": "electric_scooter", "is_disabled": 0, "name": "f2574477e6f5189df6bbcca5926fcd27", "bike_id": "f2574477e6f5189df6bbcca5926fcd27", "fusion_lon": 0.0, "rental_uris": {"ios": "https://dc.lft.to/lastmile_qr_scan", "android": "https://dc.lft.to/lastmile_qr_scan"}, "is_reserved": 0, "fusion_lat": 0.0, "lon": -77.04032816666667}, {"lat": 38.924295666666666, "type": "electric_scooter", "is_disabled": 0, "name": "27dd4f3c7ebe71cb153f787b0836e43a", "bike_id": "27dd4f3c7ebe71cb153f787b0836e43a", "fusion_lon": 0.0, "rental_uris": {"ios": "https://dc.lft.to/lastmile_qr_scan", "android": "https://dc.lft.to/lastmile_qr_scan"}, "is_reserved": 0, "fusion_lat": 0.0, "lon": -77.05177516666667}, {"lat": 38.944974, "type": "electric_scooter", "is_disabled": 0, "name": "23d753a9679a90cbe69c6a0bb0ea8949", "bike_id": "23d753a9679a90cbe69c6a0bb0ea8949", "fusion_lon": 0.0, "rental_uris": {"ios": "https://dc.lft.to/lastmile_qr_scan", "android": "https://dc.lft.to/lastmile_qr_scan"}, "is_reserved": 0, "fusion_lat": 0.0, "lon": -77.03423616666667}, {"lat": 38.906527833333335, "type": "electric_scooter", "is_disabled": 0, "name": "4436a7af56eabe09b75f5a6ff809b60c", "bike_id": "4436a7af56eabe09b75f5a6ff809b60c", "fusion_lon": 0.0, "rental_uris": {"ios": "https://dc.lft.to/lastmile_qr_scan", "android": "https://dc.lft.to/lastmile_qr_scan"}, "is_reserved": 0, "fusion_lat": 0.0, "lon": -77.04288333333334}, {"lat": 38.93334383333333, "type": "electric_bike", "is_disabled": 0, "name": "90d47562e0894de93b6ed28b15e495ab", "bike_id": "90d47562e0894de93b6ed28b15e495ab", "fusion_lon": 0.0, "rental_uris": {"ios": "https://dc.lft.to/lastmile_qr_scan", "android": "https://dc.lft.to/lastmile_qr_scan"}, "is_reserved": 0, "fusion_lat": 0.0, "lon": -77.042112}, {"lat": 38.91796033333333, "type": "electric_scooter", "is_disabled": 0, "name": "6f0f5ef44f286b22618544e66597c58e", "bike_id": "6f0f5ef44f286b22618544e66597c58e", "fusion_lon": 0.0, "rental_uris": {"ios": "https://dc.lft.to/lastmile_qr_scan", "android": "https://dc.lft.to/lastmile_qr_scan"}, "is_reserved": 0, "fusion_lat": 0.0, "lon": -77.04018816666667}, {"lat": 38.9156, "type": "electric_scooter", "is_disabled": 0, "name": "06db8c474405eab805f5dc9e33b6e8a8", "bike_id": "06db8c474405eab805f5dc9e33b6e8a8", "fusion_lon": 0.0, "rental_uris": {"ios": "https://dc.lft.to/lastmile_qr_scan", "android": "https://dc.lft.to/lastmile_qr_scan"}, "is_reserved": 0, "fusion_lat": 0.0, "lon": -77.0488095}, {"lat": 38.958959166666666, "type": "electric_scooter", "is_disabled": 0, "name": "27f915c45326398318e9410a4dc61037", "bike_id": "27f915c45326398318e9410a4dc61037", "fusion_lon": 0.0, "rental_uris": {"ios": "https://dc.lft.to/lastmile_qr_scan", "android": "https://dc.lft.to/lastmile_qr_scan"}, "is_reserved": 0, "fusion_lat": 0.0, "lon": -77.00017716666666}, {"lat": 38.91230216666666, "type": "electric_scooter", "is_disabled": 0, "name": "2aee08c326c5f0a22bd3f9d5879b3901", "bike_id": "2aee08c326c5f0a22bd3f9d5879b3901", "fusion_lon": 0.0, "rental_uris": {"ios": "https://dc.lft.to/lastmile_qr_scan", "android": "https://dc.lft.to/lastmile_qr_scan"}, "is_reserved": 0, "fusion_lat": 0.0, "lon": -77.06590533333333}, {"lat": 38.85269133333333, "type": "electric_bike", "is_disabled": 0, "name": "eae9f12a1cfe0103be101f64b1e11ef2", "bike_id": "eae9f12a1cfe0103be101f64b1e11ef2", "fusion_lon": 0.0, "rental_uris": {"ios": "https://dc.lft.to/lastmile_qr_scan", "android": "https://dc.lft.to/lastmile_qr_scan"}, "is_reserved": 0, "fusion_lat": 0.0, "lon": -77.0513205}, {"lat": 38.904389, "type": "electric_scooter", "is_disabled": 0, "name": "a356dab3835d8aa2a749649a05c1f554", "bike_id": "a356dab3835d8aa2a749649a05c1f554", "fusion_lon": 0.0, "rental_uris": {"ios": "https://dc.lft.to/lastmile_qr_scan", "android": "https://dc.lft.to/lastmile_qr_scan"}, "is_reserved": 0, "fusion_lat": 0.0, "lon": -77.0532635}, {"lat": 38.9288115, "type": "electric_scooter", "is_disabled": 0, "name": "f10f73ca0350bf6440fb252df5255e2c", "bike_id": "f10f73ca0350bf6440fb252df5255e2c", "fusion_lon": 0.0, "rental_uris": {"ios": "https://dc.lft.to/lastmile_qr_scan", "android": "https://dc.lft.to/lastmile_qr_scan"}, "is_reserved": 0, "fusion_lat": 0.0, "lon": -77.034627}, {"lat": 38.903083, "type": "electric_scooter", "is_disabled": 0, "name": "e46936db36b93c482e3619132991e5bb", "bike_id": "e46936db36b93c482e3619132991e5bb", "fusion_lon": 0.0, "rental_uris": {"ios": "https://dc.lft.to/lastmile_qr_scan", "android": "https://dc.lft.to/lastmile_qr_scan"}, "is_reserved": 0, "fusion_lat": 0.0, "lon": -77.05048833333333}, {"lat": 38.93353533333333, "type": "electric_scooter", "is_disabled": 0, "name": "39d7aff548529a86eec8a1095d21465b", "bike_id": "39d7aff548529a86eec8a1095d21465b", "fusion_lon": 0.0, "rental_uris": {"ios": "https://dc.lft.to/lastmile_qr_scan", "android": "https://dc.lft.to/lastmile_qr_scan"}, "is_reserved": 0, "fusion_lat": 0.0, "lon": -77.08580283333333}, {"lat": 38.889693, "type": "electric_scooter", "is_disabled": 0, "name": "57a5b601bf830f78915043b566fe6ff0", "bike_id": "57a5b601bf830f78915043b566fe6ff0", "fusion_lon": 0.0, "rental_uris": {"ios": "https://dc.lft.to/lastmile_qr_scan", "android": "https://dc.lft.to/lastmile_qr_scan"}, "is_reserved": 0, "fusion_lat": 0.0, "lon": -76.98035366666667}, {"lat": 38.895086, "type": "electric_scooter", "is_disabled": 0, "name": "a9f4e5c56a83e30703cbde45de8a831a", "bike_id": "a9f4e5c56a83e30703cbde45de8a831a", "fusion_lon": 0.0, "rental_uris": {"ios": "https://dc.lft.to/lastmile_qr_scan", "android": "https://dc.lft.to/lastmile_qr_scan"}, "is_reserved": 0, "fusion_lat": 0.0, "lon": -77.04479333333333}, {"lat": 38.9415335, "type": "electric_bike", "is_disabled": 0, "name": "98c52d948e6135e9b4d77c3f88372455", "bike_id": "98c52d948e6135e9b4d77c3f88372455", "fusion_lon": 0.0, "rental_uris": {"ios": "https://dc.lft.to/lastmile_qr_scan", "android": "https://dc.lft.to/lastmile_qr_scan"}, "is_reserved": 0, "fusion_lat": 0.0, "lon": -77.00197866666667},