{"data": {"bikes": [{"fusion_lat": 0.0, "name": "ec55d1cd8e1e046a0fead71416e597fe", "is_disabled": 0, "rental_uris": {"android": "https://dc.lft.to/lastmile_qr_scan", "ios": "https://dc.lft.to/lastmile_qr_scan"}, "fusion_lon": 0.0, "lat": 38.9225625, "bike_id": "ec55d1cd8e1e046a0fead71416e597fe", "type": "electric_bike", "is_reserved": 0, "lon": -77.02214433333333}, {"fusion_lat": 0.0, "name": "13c1831fd198711d64adb65ea330a187", "is_disabled": 0, "rental_uris": {"android": "https://dc.lft.to/lastmile_qr_scan", "ios": "https://dc.lft.to/lastmile_qr_scan"}, "fusion_lon": 0.0, "lat": 38.9072855, "bike_id": "13c1831fd198711d64adb65ea330a187", "type": "electric_scooter", "is_reserved": 0, "lon": -77.011153}, {"fusion_lat": 0.0, "name": "02a8f0ff06a76664d8554414c188db2c", "is_disabled": 0, "rental_uris": {"android": "https://dc.lft.to/lastmile_qr_scan", "ios": "https://dc.lft.to/lastmile_qr_scan"}, "fusion_lon": 0.0, "lat": 38.900263333333335, "bike_id": "02a8f0ff06a76664d8554414c188db2c", "type": "electric_scooter", "is_reserved": 0, "lon": -76.99852516666667}, {"fusion_lat": 0.0, "name": "8fdf9c1a9c12e3e04555233c52b18a8c", "is_disabled": 0, "rental_uris": {"android": "https://dc.lft.to/lastmile_qr_scan", "ios": "https://dc.lft.to/lastmile_qr_scan"}, "fusion_lon": 0.0, "lat": 38.98822833333333, "bike_id": "8fdf9c1a9c12e3e04555233c52b18a8c", "type": "electric_bike", "is_reserved": 0, "lon": -76.9964905}, {"fusion_lat": 0.0, "name": "1a9481e1f81379200b8e1621e7e2be1c", "is_disabled": 0, "rental_uris": {"android": "https://dc.lft.to/lastmile_qr_scan", "ios": "https://dc.lft.to/lastmile_qr_scan"}, "fusion_lon": 0.0, "lat": 38.92776466666667, "bike_id": "1a9481e1f81379200b8e1621e7e2be1c", "type": "electric_scooter", "is_reserved": 0, "lon": -77.02703866666667}, {"fusion_lat": 0.0, "name": "11ac494623eff28980da74ee029632dd", "is_disabled": 0, "rental_uris": {"android": "https://dc.lft.to/lastmile_qr_scan", "ios": "https://dc.lft.to/lastmile_qr_scan"}, "fusion_lon": 0.0, "lat": 38.901517166666665, "bike_id": "11ac494623eff28980da74ee029632dd", "type": "electric_scooter", "is_reserved": 0, "lon": -76.93066533333334}, {"fusion_lat": 0.0, "name": "4be77bfd756b340f7aaf9848279821b0", "is_disabled": 0, "rental_uris": {"android": "https://dc.lft.to/lastmile_qr_scan", "ios": "https://dc.lft.to/lastmile_qr_scan"}, "fusion_lon": 0.0, "lat": 38.9178655, "bike_id": "4be77bfd756b340f7aaf9848279821b0", "type": "electric_scooter", "is_reserved": 0, "lon": -77.02307583333334}, {"fusion_lat": 0.0, "name": "0b9151d5bddf2687c30374134e326ed0", "is_disabled": 0, "rental_uris": {"android": "https://dc.lft.to/lastmile_qr_scan", "ios": "https://dc.lft.to/lastmile_qr_scan"}, "fusion_lon": 0.0, "lat": 38.90590816666667, "bike_id": "0b9151d5bddf2687c30374134e326ed0", "type": "electric_scooter", "is_reserved": 0, "lon": -77.0442805}, {"fusion_lat": 0.0, "name": "6d8fdf5a39d2931b79ec22475e5d87a5", "is_disabled": 0, "rental_uris": {"android": "https://dc.lft.to/lastmile_qr_scan", "ios": "https://dc.lft.to/lastmile_qr_scan"}, "fusion_lon": 0.0, "lat": 38.8875845, "bike_id": "6d8fdf5a39d2931b79ec22475e5d87a5", "type": "electric_scooter", "is_reserved": 0, "lon": -76.97745016666667}, {"fusion_lat": 0.0, "name": "2b1ea3039b4fd74df32d288bb2eed1eb", "is_disabled": 0, "rental_uris": {"android": "https://dc.lft.to/lastmile_qr_scan", "ios": "https://dc.lft.to/lastmile_qr_scan"}, "fusion_lon": 0.0, "lat": 38.89821933333333, "bike_id": "2b1ea3039b4fd74df32d288bb2eed1eb", "type": "electric_scooter", "is_reserved": 0, "lon": -77.0072425}, {"fusion_lat": 0.0, "name": "f3cb98bf16f6d28533eb0761d0924434", "is_disabled": 0, "rental_uris": {"android": "https://dc.lft.to/lastmile_qr_scan", "ios": "https://dc.lft.to/lastmile_qr_scan"}, "fusion_lon": 0.0, "lat": 38.98456183333333, "bike_id": "f3cb98bf16f6d28533eb0761d0924434", "type": "electric_bike", "is_reserved": 0, "lon": -76.97050433333334}, {"fusion_lat": 0.0, "name": "b7b7e86e56e7f676169269576dcd7edd", "is_disabled": 0, "rental_uris": {"android": "https://dc.lft.to/lastmile_qr_scan", "ios": "https://dc.lft.to/lastmile_qr_scan"}, "fusion_lon": 0.0, "lat": 38.8873975, "bike_id": "b7b7e86e56e7f676169269576dcd7edd", "type": "electric_scooter", "is_reserved": 0, "lon": -77.0319505}, {"fusion_lat": 0.0, "name": "39b010183ae0ba9263c29d4905523c34", "is_disabled": 0, "rental_uris": {"android": "https://dc.lft.to/lastmile_qr_scan", "ios": "https://dc.lft.to/lastmile_qr_scan"}, "fusion_lon": 0.0, "lat": 38.878440833333336, "bike_id": "39b010183ae0ba9263c29d4905523c34", "type": "electric_bike", "is_reserved": 0, "lon": -77.030234}, {"fusion_lat": 0.0, "name": "2a8e21fb5e6c29a85fde2f1551ce570b", "is_disabled": 0, "rental_uris": {"android": "https://dc.lft.to/lastmile_qr_scan", "ios": "https://dc.lft.to/lastmile_qr_scan"}, "fusion_lon": 0.0, "lat": 38.906809333333335, "bike_id": "2a8e21fb5e6c29a85fde2f1551ce570b", "type": "electric_bike", "is_reserved": 0, "lon": -76.944933}, {"fusion_lat": 0.0, "name": "d66cc35f7ca3d35fb14c08762e6f3dad", "is_disabled": 0, "rental_uris": {"android": "https://dc.lft.to/lastmile_qr_scan", "ios": "https://dc.lft.to/lastmile_qr_scan"}, "fusion_lon": 0.0, "lat": 38.9354835, "bike_id": "d66cc35f7ca3d35fb14c08762e6f3dad", "type": "electric_scooter", "is_reserved": 0, "lon": -77.03259066666666}, {"fusion_lat": 0.0, "name": "2d2d7a0c0ad62653cce32c00a60bea90", "is_disabled": 0, "rental_uris": {"android": "https://dc.lft.to/lastmile_qr_scan", "ios": "https://dc.lft.to/lastmile_qr_scan"}, "fusion_lon": 0.0, "lat": 38.939039, "bike_id": "2d2d7a0c0ad62653cce32c00a60bea90", "type": "electric_scooter", "is_reserved": 0, "lon": -77.02473483333333}, {"fusion_lat": 0.0, "name": "451a7db38cdb23c225624056d350933d", "is_disabled": 0, "rental_uris": {"android": "https://dc.lft.to/lastmile_qr_scan", "ios": "https://dc.lft.to/lastmile_qr_scan"}, "fusion_lon": 0.0, "lat": 38.9191355, "bike_id": "451a7db38cdb23c225624056d350933d", "type": "electric_scooter", "is_reserved": 0, "lon": -77.035768}, {"fusion_lat": 0.0, "name": "c61d72678ae1e7adb06be3b847e88249", "is_disabled": 0, "rental_uris": {"android": "https://dc.lft.to/lastmile_qr_scan", "ios": "https://dc.lft.to/lastmile_qr_scan"}, "fusion_lon": 0.0, "lat": 38.84505983333333, "bike_id": "c61d72678ae1e7adb06be3b847e88249", "type": "electric_bike", "is_reserved": 0, "lon": -76.99351483333334}, {"fusion_lat": 0.0, "name": "f18f2e59e59de27e31bea5e09e1f9c5c", "is_disabled": 0, "rental_uris": {"android": "https://dc.lft.to/lastmile_qr_scan", "ios": "https://dc.lft.to/lastmile_qr_scan"}, "fusion_lon": 0.0, "lat": 38.912873166666664, "bike_id": "f18f2e59e59de27e31bea5e09e1f9c5c", "type": "electric_scooter", "is_reserved": 0, "lon": -77.04740866666667}, {"fusion_lat": 0.0, "name": "d61ef5b71a551c1c999556096752d469", "is_disabled": 0, "rental_uris": {"android": "https://dc.lft.to/lastmile_qr_scan", "ios": "https://dc.lft.to/lastmile_qr_scan"}, "fusion_lon": 0.0, "lat": 38.896120833333335, "bike_id": "d61ef5b71a551c1c999556096752d469", "type": "electric_scooter", "is_reserved": 0, "lon": -77.04479666666667}, {"fusion_lat": 0.0, "name": "1f45ce4de67a5cdd05f2a2b09d3705b8", "is_disabled": 0, "rental_uris": {"android": "https://dc.lft.to/lastmile_qr_scan", "ios": "https://dc.lft.to/lastmile_qr_scan"}, "fusion_lon": 0.0, "lat": 38.91778766666667, "bike_id": "1f45ce4de67a5cdd05f2a2b09d3705b8", "type": "electric_scooter", "is_reserved": 0, "lon": -77.0231225}, {"fusion_lat": 0.0, "name": "0bd2c5cdf4fb70fcf2d400753cafa90e", "is_disabled": 0, "rental_uris": {"android": "https://dc.lft.to/lastmile_qr_scan", "ios": "https://dc.lft.to/lastmile_qr_scan"}, "fusion_lon": 0.0, "lat": 38.85777516666667, "bike_id": "0bd2c5cdf4fb70fcf2d400753cafa90e", "type": "electric_scooter", "is_reserved": 0, "lon": -76.97298583333334}, {"fusion_lat": 0.0, "name": "58e2fdbc2a65545b2f0da2026073adf1", "is_disabled": 0, "rental_uris": {"android": "https://dc.lft.to/lastmile_qr_scan", "ios": "https://dc.lft.to/lastmile_qr_scan"}, "fusion_lon": 0.0, "lat": 38.95793483333333, "bike_id": "58e2fdbc2a65545b2f0da2026073adf1", "type": "electric_bike", "is_reserved": 0, "lon": -76.9996485}, {"fusion_lat": 0.0, "name": "e65e5913d872751a20ec78d0bd6b4619", "is_disabled": 0, "rental_uris": {"android": "https://dc.lft.to/lastmile_qr_scan", "ios": "https://dc.lft.to/lastmile_qr_scan"}, "fusion_lon": 0.0, "lat": 38.903877, "bike_id": "e65e5913d872751a20ec78d0bd6b4619", "type": "electric_scooter", "is_reserved": 0, "lon": -77.06136016666666}, {"fusion_lat": 0.0, "name": "9ac8023a12f48550c918046a261f2afb", "is_disabled": 0, "rental_uris": {"android": "https://dc.lft.to/lastmile_qr_scan", "ios": "https://dc.lft.to/lastmile_qr_scan"}, "fusion_lon": 0.0, "lat": 38.96952733333333, "bike_id": "9ac8023a12f48550c918046a261f2afb", "type": "electric_bike", "is_reserved": 0, "lon": -77.03343266666667}, {"fusion_lat": 0.0, "name": "6d79726a4e38dea7f99024b9bc3f5a73", "is_disabled": 0, "rental_uris": {"android": "https://dc.lft.to/lastmile_qr_scan", "ios": "https://dc.lft.to/lastmile_qr_scan"}, "fusion_lon": 0.0, "lat": 38.90061216666667, "bike_id": "6d79726a4e38dea7f99024b9bc3f5a73", "type": "electric_scooter", "is_reserved": 0, "lon": -76.933828}, {"fusion_lat": 0.0, "name": "b7bc5fd2c28e1412c207249709604962", "is_disabled": 0, "rental_uris": {"android": "https://dc.lft.to/lastmile_qr_scan", "ios": "https://dc.lft.to/lastmile_qr_scan"}, "fusion_lon": 0.0, "lat": 38.92059316666667, "bike_id": "b7bc5fd2c28e1412c207249709604962", "type": "electric_scooter", "is_reserved": 0, "lon": -77.0253445}, {"fusion_lat": 0.0, "name": "3205c87c59142710acb062dfc405124b", "is_disabled": 0, "rental_uris": {"android": "https://dc.lft.to/lastmile_qr_scan", "ios": "https://dc.lft.to/lastmile_qr_scan"}, "fusion_lon": 0.0, "lat": 38.9297125, "bike_id": "3205c87c59142710acb062dfc405124b", "type": "electric_scooter", "is_reserved": 0, "lon": -77.02813066666667}, {"fusion_lat": 0.0, "name": "3b254a3c22aabdf9d59627f12f469c46", "is_disabled": 0, "rental_uris": {"android": "https://dc.lft.to/lastmile_qr_scan", "ios": "https://dc.lft.to/lastmile_qr_scan"}, "fusion_lon": 0.0, "lat": 38.9254275, "bike_id": "3b254a3c22aabdf9d59627f12f469c46", "type": "electric_scooter", "is_reserved": 0, "lon": -77.05578866666667}, {"fusion_lat": 0.0, "name": "e64d574cb297801c8b3a60aa07f5da6c", "is_disabled": 0, "rental_uris": {"android": "https://dc.lft.to/lastmile_qr_scan", "ios": "https://dc.lft.to/lastmile_qr_scan"}, "fusion_lon": 0.0, "lat": 38.900306666666665, "bike_id": "e64d574cb297801c8b3a60aa07f5da6c", "type": "electric_scooter", "is_reserved": 0, "lon": -77.039695}, {"fusion_lat": 0.0, "name": "072f3e09c26c754427da3e17ae6a543b", "is_disabled": 0, "rental_uris": {"android": "https://dc.lft.to/lastmile_qr_scan", "ios": "https://dc.lft.to/lastmile_qr_scan"}, "fusion_lon": 0.0, "lat": 38.90457116666666, "bike_id": "072f3e09c26c754427da3e17ae6a543b", "type": "electric_scooter", "is_reserved": 0, "lon": -76.98529616666667}, {"fusion_lat": 0.0, "name": "4f912c9dd33a3877f5e7051ac4c83955", "is_disabled": 0, "rental_uris": {"android": "https://dc.lft.to/lastmile_qr_scan", "ios": "https://dc.lft.to/lastmile_qr_scan"}, "fusion_lon": 0.0, "lat": 38.88764916666667, "bike_id": "4f912c9dd33a3877f5e7051ac4c83955", "type": "electric_scooter", "is_reserved": 0, "lon": -76.98348133333333}, {"fusion_lat": 0.0, "name": "e53bb197a2f8dd76fe8d242374546b39", "is_disabled": 0, "rental_uris": {"android": "https://dc.lft.to/lastmile_qr_scan", "ios": "https://dc.lft.to/lastmile_qr_scan"}, "fusion_lon": 0.0, "lat": 38.880489833333336, "bike_id": "e53bb197a2f8dd76fe8d242374546b39", "type": "electric_scooter", "is_reserved": 0, "lon": -76.93222766666666}, {"fusion_lat": 0.0, "name": "15217f92eba28700902a6a78d4d7800c", "is_disabled": 0, "rental_uris": {"android": "https://dc.lft.to/lastmile_qr_scan", "ios": "https://dc.lft.to/lastmile_qr_scan"}, "fusion_lon": 0.0, "lat": 38.908693666666665, "bike_id": "15217f92eba28700902a6a78d4d7800c", "type": "electric_scooter", "is_reserved": 0, "lon": -77.0345765}, {"fusion_lat": 0.0, "name": "eacf9f80dafe4421f10a5dd859884df4", "is_disabled": 0, "rental_uris": {"android": "https://dc.lft.to/lastmile_qr_scan", "ios": "https://dc.lft.to/lastmile_qr_scan"}, "fusion_lon": 0.0, "lat": 38.89829266666667, "bike_id": "eacf9f80dafe4421f10a5dd859884df4", "type": "electric_scooter", "is_reserved": 0, "lon": -77.03340083333333}, {"fusion_lat": 0.0, "name": "6c0bc14c3cca1e8cf41413b807172f49", "is_disabled": 0, "rental_uris": {"android": "https://dc.lft.to/lastmile_qr_scan", "ios": "https://dc.lft.to/lastmile_qr_scan"}, "fusion_lon": 0.0, "lat": 38.9096195, "bike_id": "6c0bc14c3cca1e8cf41413b807172f49", "type": "electric_bike", "is_reserved": 0, "lon": -77.22886983333333}, {"fusion_lat": 0.0, "name": "d59ebe2dcec899a4c5c5d4bbc5359552", "is_disabled": 0, "rental_uris": {"android": "https://dc.lft.to/lastmile_qr_scan", "ios": "https://dc.lft.to/lastmile_qr_scan"}, "fusion_lon": 0.0, "lat": 38.9170955, "bike_id": "d59ebe2dcec899a4c5c5d4bbc5359552", "type": "electric_scooter", "is_reserved": 0, "lon": -77.03655133333334}, {"fusion_lat": 0.0, "name": "c6b240846ff2009e2c1f54ac25af770a", "is_disabled": 0, "rental_uris": {"android": "https://dc.lft.to/lastmile_qr_scan", "ios": "https://dc.lft.to/lastmile_qr_scan"}, "fusion_lon": 0.0, "lat": 38.925519666666666, "bike_id": "c6b240846ff2009e2c1f54ac25af770a", "type": "electric_scooter", "is_reserved": 0, "lon": -77.02275333333333}, {"fusion_lat": 0.0, "name": "2eb26e11d58fbde65a2ac53efd624269", "is_disabled": 0, "rental_uris": {"android": "https://dc.lft.to/lastmile_qr_scan", "ios": "https://dc.lft.to/lastmile_qr_scan"}, "fusion_lon": 0.0, "lat": 38.91731033333333, "bike_id": "2eb26e11d58fbde65a2ac53efd624269", "type": "electric_scooter", "is_reserved": 0, "lon": -77.02952183333333}, {"fusion_lat": 0.0, "name": "b437bd901433122bcd767cbd4adfbaf5", "is_disabled": 0, "rental_uris": {"android": "https://dc.lft.to/lastmile_qr_scan", "ios": "https://dc.lft.to/lastmile_qr_scan"}, "fusion_lon": 0.0, "lat": 38.8794245, "bike_id": "b437bd901433122bcd767cbd4adfbaf5", "type": "electric_scooter", "is_reserved": 0, "lon": -77.005777}, {"fusion_lat": 0.0, "name": "e94af9b6d5725654070f09a007fe81a7", "is_disabled": 0, "rental_uris": {"android": "https://dc.lft.to/lastmile_qr_scan", "ios": "https://dc.lft.to/lastmile_qr_scan"}, "fusion_lon": 0.0, "lat": 38.932493666666666, "bike_id": "e94af9b6d5725654070f09a007fe81a7", "type": "electric_scooter", "is_reserved": 0, "lon": -77.03272566666666}, {"fusion_lat": 0.0, "name": "a9f24ed78d0bde5dc354f4668d49196b", "is_disabled": 0, "rental_uris": {"android": "https://dc.lft.to/lastmile_qr_scan", "ios": "https://dc.lft.to/lastmile_qr_scan"}, "fusion_lon": 0.0, "lat": 38.92500666666667, "bike_id": "a9f24ed78d0bde5dc354f4668d49196b", "type": "electric_scooter", "is_reserved": 0, "lon": -77.03794616666667}, {"fusion_lat": 0.0, "name": "30766d8ea2ef799b2b20c79dc3ae6529", "is_disabled": 0, "rental_uris": {"android": "https://dc.lft.to/lastmile_qr_scan", "ios": "https://dc.lft.to/lastmile_qr_scan"}, "fusion_lon": 0.0, "lat": 38.934919666666666, "bike_id": "30766d8ea2ef799b2b20c79dc3ae6529", "type": "electric_scooter", "is_reserved": 0, "lon": -77.03078666666667}, {"fusion_lat": 0.0, "name": "e02a35cc2578a94a18e5979e84e0e735", "is_disabled": 0, "rental_uris": {"android": "https://dc.lft.to/lastmile_qr_scan", "ios": "https://dc.lft.to/lastmile_qr_scan"}, "fusion_lon": 0.0, "lat": 38.888964666666666, "bike_id": "e02a35cc2578a94a18e5979e84e0e735", "type": "electric_bike", "is_reserved": 0, "lon": -77.11525916666666}, {"fusion_lat": 0.0, "name": "bf760256f0cba1c97acc59fabd3060fa", "is_disabled": 0, "rental_uris": {"android": "https://dc.lft.to/lastmile_qr_scan", "ios": "https://dc.lft.to/lastmile_qr_scan"}, "fusion_lon": 0.0, "lat": 38.88477016666667, "bike_id": "bf760256f0cba1c97acc59fabd3060fa", "type": "electric_scooter", "is_reserved": 0, "lon": -77.0059265}, {"fusion_lat": 0.0, "name": "d870478d5bc284a3dc21665adc8efdb9", "is_disabled": 0, "rental_uris": {"android": "https://dc.lft.to/lastmile_qr_scan", "ios": "https://dc.lft.to/lastmile_qr_scan"}, "fusion_lon": 0.0, "lat": 38.89904466666667, "bike_id": "d870478d5bc284a3dc21665adc8efdb9", "type": "electric_scooter", "is_reserved": 0, "lon": -77.04081266666667}, {"fusion_lat": 0.0, "name": "c76cd358c875da994b25e68fdf8f9cf8", "is_disabled": 0, "rental_uris": {"android": "https://dc.lft.to/lastmile_qr_scan", "ios": "https://dc.lft.to/lastmile_qr_scan"}, "fusion_lon": 0.0, "lat": 38.8922495, "bike_id": "c76cd358c875da994b25e68fdf8f9cf8", "type": "electric_scooter", "is_reserved": 0, "lon": -77.032167}, {"fusion_lat": 0.0, "name": "7320a712b51715fd1306dbec90425779", "is_disabled": 0, "rental_uris": {"android": "https://dc.lft.to/lastmile_qr_scan", "ios": "https://dc.lft.to/lastmile_qr_scan"}, "fusion_lon": 0.0, "lat": 38.8763215, "bike_id": "7320a712b51715fd1306dbec90425779", "type": "electric_scooter", "is_reserved": 0, "lon": -77.009436}, {"fusion_lat": 0.0, "name": "c5f81e172dcb81f7fefd3f71e9bca1db", "is_disabled": 0, "rental_uris": {"android": "https://dc.lft.to/lastmile_qr_scan", "ios": "https://dc.lft.to/lastmile_qr_scan"}, "fusion_lon": 0.0, "lat": 38.915413666666666, "bike_id": "c5f81e172dcb81f7fefd3f71e9bca1db", "type": "electric_scooter", "is_reserved": 0, "lon": -77.03229516666667}, {"fusion_lat": 0.0, "name": "701fe46668140f7c3c7427537e9a5521", "is_disabled": 0, "rental_uris": {"android": "https://dc.lft.to/lastmile_qr_scan", "ios": "https://dc.lft.to/lastmile_qr_scan"}, "fusion_lon": 0.0, "lat": 38.897425166666665, "bike_id": "701fe46668140f7c3c7427537e9a5521", "type": "electric_scooter", "is_reserved": 0, "lon": -77.03172683333334}, {"fusion_lat": 0.0, "name": "3415b7c0d0051437b1f4f50bc6df6dd8", "is_disabled": 0, "rental_uris": {"android": "https://dc.lft.to/lastmile_qr_scan", "ios": "https://dc.lft.to/lastmile_qr_scan"}, "fusion_lon": 0.0, "lat": 38.91803083333333, "bike_id": "3415b7c0d0051437b1f4f50bc6df6dd8", "type": "electric_scooter", "is_reserved": 0, "lon": -77.03337883333333}, {"fusion_lat": 0.0, "name": "00c2c555cabd3b5d51ed46348204ed19", "is_disabled": 0, "rental_uris": {"android": "https://dc.lft.to/lastmile_qr_scan", "ios": "https://dc.lft.to/lastmile_qr_scan"}, "fusion_lon": 0.0, "lat": 38.91147183333333, "bike_id": "00c2c555cabd3b5d51ed46348204ed19", "type": "electric_scooter", "is_reserved": 0, "lon": -77.01071983333334}, {"fusion_lat": 0.0, "name": "9dd2b29b89bcf19371705a80f7efdc7c", "is_disabled": 0, "rental_uris": {"android": "https://dc.lft.to/lastmile_qr_scan", "ios": "https://dc.lft.to/lastmile_qr_scan"}, "fusion_lon": 0.0, "lat": 38.94018416666667, "bike_id": "9dd2b29b89bcf19371705a80f7efdc7c", "type": "electric_scooter", "is_reserved": 0, "lon": -77.02762466666667}, {"fusion_lat": 0.0, "name": "e94c86066f0bea0815eb0c1b15849182", "is_disabled": 0, "rental_uris": {"android": "https://dc.lft.to/lastmile_qr_scan", "ios": "https://dc.lft.to/lastmile_qr_scan"}, "fusion_lon": 0.0, "lat": 38.92611683333333, "bike_id": "e94c86066f0bea0815eb0c1b15849182", "type": "electric_scooter", "is_reserved": 0, "lon": -77.02213683333333}, {"fusion_lat": 0.0, "name": "380244f193373a330ddca7f3bf25617f", "is_disabled": 0, "rental_uris": {"android": "https://dc.lft.to/lastmile_qr_scan", "ios": "https://dc.lft.to/lastmile_qr_scan"}, "fusion_lon": 0.0, "lat": 38.91916633333334, "bike_id": "380244f193373a330ddca7f3bf25617f", "type": "electric_scooter", "is_reserved": 0, "lon": -77.02511466666667}, {"fusion_lat": 0.0, "name": "705296f5f5dc8cd73ec09081a40d4be8", "is_disabled": 0, "rental_uris": {"android": "https://dc.lft.to/lastmile_qr_scan", "ios": "https://dc.lft.to/lastmile_qr_scan"}, "fusion_lon": 0.0, "lat": 38.921313, "bike_id": "705296f5f5dc8cd73ec09081a40d4be8", "type": "electric_scooter", "is_reserved": 0, "lon": -77.00950933333333}, {"fusion_lat": 0.0, "name": "b1892dc2cdb63b24ec85e1de31515185", "is_disabled": 0, "rental_uris": {"android": "https://dc.lft.to/lastmile_qr_scan", "ios": "https://dc.lft.to/lastmile_qr_scan"}, "fusion_lon": 0.0, "lat": 38.961307, "bike_id": "b1892dc2cdb63b24ec85e1de31515185", "type": "electric_bike", "is_reserved": 0, "lon": -77.03332733333333}, {"fusion_lat": 0.0, "name": "b73fe1515c583485e8e425a37eb2bda5", "is_disabled": 0, "rental_uris": {"android": "https://dc.lft.to/lastmile_qr_scan", "ios": "https://dc.lft.to/lastmile_qr_scan"}, "fusion_lon": 0.0, "lat": 38.87372383333334, "bike_id": "b73fe1515c583485e8e425a37eb2bda5", "type": "electric_scooter", "is_reserved": 0, "lon": -77.00089233333334}, {"fusion_lat": 0.0, "name": "ba6b936a695f24e58b46846ea95c094d", "is_disabled": 0, "rental_uris": {"android": "https://dc.lft.to/lastmile_qr_scan", "ios": "https://dc.lft.to/lastmile_qr_scan"}, "fusion_lon": 0.0, "lat": 38.854570833333334, "bike_id": "ba6b936a695f24e58b46846ea95c094d", "type": "electric_scooter", "is_reserved": 0, "lon": -76.97223683333333}, {"fusion_lat": 0.0, "name": "5c327108fe07d0945fae43d44e427f47", "is_disabled": 0, "rental_uris": {"android": "https://dc.lft.to/lastmile_qr_scan", "ios": "https://dc.lft.to/lastmile_qr_scan"}, "fusion_lon": 0.0, "lat": 38.905363333333334, "bike_id": "5c327108fe07d0945fae43d44e427f47", "type": "electric_scooter", "is_reserved": 0, "lon": -77.03477066666666}, {"fusion_lat": 0.0, "name": "48aab15f96ae4f8bb1517fc25c49adba", "is_disabled": 0, "rental_uris": {"android": "https://dc.lft.to/lastmile_qr_scan", "ios": "https://dc.lft.to/lastmile_qr_scan"}, "fusion_lon": 0.0, "lat": 38.892294, "bike_id": "48aab15f96ae4f8bb1517fc25c49adba", "type": "electric_scooter", "is_reserved": 0, "lon": -77.01707066666667}, {"fusion_lat": 0.0, "name": "83f82749736d9f9940dea69c9a1ff5b1", "is_disabled": 0, "rental_uris": {"android": "https://dc.lft.to/lastmile_qr_scan", "ios": "https://dc.lft.to/lastmile_qr_scan"}, "fusion_lon": 0.0, "lat": 38.96368316666667, "bike_id": "83f82749736d9f9940dea69c9a1ff5b1", "type": "electric_scooter", "is_reserved": 0, "lon": -77.0204785}, {"fusion_lat": 0.0, "name": "b3ea542b29a3d7d1e05053c61dbe4df6", "is_disabled": 0, "rental_uris": {"android": "https://dc.lft.to/lastmile_qr_scan", "ios": "https://dc.lft.to/lastmile_qr_scan"}, "fusion_lon": 0.0, "lat": 38.90689716666667, "bike_id": "b3ea542b29a3d7d1e05053c61dbe4df6", "type": "electric_scooter", "is_reserved": 0, "lon": -76.98506783333333}, {"fusion_lat": 0.0, "name": "328ab909a6c1c1e8af2e5857b1fbcce0", "is_disabled": 0, "rental_uris": {"android": "https://dc.lft.to/lastmile_qr_scan", "ios": "https://dc.lft.to/lastmile_qr_scan"}, "fusion_lon": 0.0, "lat": 38.9284905, "bike_id": "328ab909a6c1c1e8af2e5857b1fbcce0", "type": "electric_scooter", "is_reserved": 0, "lon": -77.02437733333333}, {"fusion_lat": 0.0, "name": "d5e84b44d47ad2dcb90ff4effeaa4100", "is_disabled": 0, "rental_uris": {"android": "https://dc.lft.to/lastmile_qr_scan", "ios": "https://dc.lft.to/lastmile_qr_scan"}, "fusion_lon": 0.0, "lat": 38.907225333333336, "bike_id": "d5e84b44d47ad2dcb90ff4effeaa4100", "type": "electric_scooter", "is_reserved": 0, "lon": -77.0343285}, {"fusion_lat": 0.0, "name": "aac2794b5d1258d91fb6abf45b78c45a", "is_disabled": 0, "rental_uris": {"android": "https://dc.lft.to/lastmile_qr_scan", "ios": "https://dc.lft.to/lastmile_qr_scan"}, "fusion_lon": 0.0, "lat": 38.896364166666665, "bike_id": "aac2794b5d1258d91fb6abf45b78c45a", "type": "electric_scooter", "is_reserved": 0, "lon": -77.009138}, {"fusion_lat": 0.0, "name": "7fe687a87992413199ed9a46aadbc524", "is_disabled": 0, "rental_uris": {"android": "https://dc.lft.to/lastmile_qr_scan", "ios": "https://dc.lft.to/lastmile_qr_scan"}, "fusion_lon": 0.0, "lat": 38.887671, "bike_id": "7fe687a87992413199ed9a46aadbc524", "type": "electric_scooter", "is_reserved": 0, "lon": -76.97747016666666}, {"fusion_lat": 0.0, "name": "2ae96b7fc4a7e674de011d6001a2dcfd", "is_disabled": 0, "rental_uris": {"android": "https://dc.lft.to/lastmile_qr_scan", "ios": "https://dc.lft.to/lastmile_qr_scan"}, "fusion_lon": 0.0, "lat": 38.877081833333335, "bike_id": "2ae96b7fc4a7e674de011d6001a2dcfd", "type": "electric_scooter", "is_reserved": 0, "lon": -77.017613}, {"fusion_lat": 0.0, "name": "de3b1712afff74ba4fc204fd84267753", "is_disabled": 0, "rental_uris": {"android": "https://dc.lft.to/lastmile_qr_scan", "ios": "https://dc.lft.to/lastmile_qr_scan"}, "fusion_lon": 0.0, "lat": 38.90976216666667, "bike_id": "de3b1712afff74ba4fc204fd84267753", "type": "electric_scooter", "is_reserved": 0, "lon": -77.00890016666666}, {"fusion_lat": 0.0, "name": "7186726eaf8307083e9e6abbd5addcda", "is_disabled": 0, "rental_uris": {"android": "https://dc.lft.to/lastmile_qr_scan", "ios": "https://dc.lft.to/lastmile_qr_scan"}, "fusion_lon": 0.0, "lat": 38.9165765, "bike_id": "7186726eaf8307083e9e6abbd5addcda", "type": "electric_scooter", "is_reserved": 0, "lon": -77.03849633333333}, {"fusion_lat": 0.0, "name": "f19880af3bd931b7f868e825b34f1570", "is_disabled": 0, "rental_uris": {"android": "https://dc.lft.to/lastmile_qr_scan", "ios": "https://dc.lft.to/lastmile_qr_scan"}, "fusion_lon": 0.0, "lat": 38.886113, "bike_id": "f19880af3bd931b7f868e825b34f1570", "type": "electric_scooter", "is_reserved": 0, "lon": -77.01557316666667}, {"fusion_lat": 0.0, "name": "e6630ea5af1a972b89203e8b45a8c16a", "is_disabled": 0, "rental_uris": {"android": "https://dc.lft.to/lastmile_qr_scan", "ios": "https://dc.lft.to/lastmile_qr_scan"}, "fusion_lon": 0.0, "lat": 38.8998875, "bike_id": "e6630ea5af1a972b89203e8b45a8c16a", "type": "electric_scooter", "is_reserved": 0, "lon": -76.98434816666666}, {"fusion_lat": 0.0, "name": "ea51e5ae380dc239550c07a2cd13e280", "is_disabled": 0, "rental_uris": {"android": "https://dc.lft.to/lastmile_qr_scan", "ios": "https://dc.lft.to/lastmile_qr_scan"}, "fusion_lon": 0.0, "lat": 38.928316, "bike_id": "ea51e5ae380dc239550c07a2cd13e280", "type": "electric_scooter", "is_reserved": 0, "lon": -77.05971683333334}, {"fusion_lat": 0.0, "name": "776aee95956f95d9d6caefd96a09b052", "is_disabled": 0, "rental_uris": {"android": "https://dc.lft.to/lastmile_qr_scan", "ios": "https://dc.lft.to/lastmile_qr_scan"}, "fusion_lon": 0.0, "lat": 38.924114, "bike_id": "776aee95956f95d9d6caefd96a09b052", "type": "electric_scooter", "is_reserved": 0, "lon": -77.03635833333334}, {"fusion_lat": 0.0, "name": "104cefa8567f7c7926c4c24a9374ff28", "is_disabled": 0, "rental_uris": {"android": "https://dc.lft.to/lastmile_qr_scan", "ios": "https://dc.lft.to/lastmile_qr_scan"}, "fusion_lon": 0.0, "lat": 38.918123333333334, "bike_id": "104cefa8567f7c7926c4c24a9374ff28", "type": "electric_scooter", "is_reserved": 0, "lon": -77.0247975}, {"fusion_lat": 0.0, "name": "9fa4092949c2f692637a44bb1df3e8c9", "is_disabled": 0, "rental_uris": {"android": "https://dc.lft.to/lastmile_qr_scan", "ios": "https://dc.lft.to/lastmile_qr_scan"}, "fusion_lon": 0.0, "lat": 39.036075833333335, "bike_id": "9fa4092949c2f692637a44bb1df3e8c9", "type": "electric_bike", "is_reserved": 0, "lon": -77.0554165}, {"fusion_lat": 0.0, "name": "fe8e7519051ad8dce43cea1067bad219", "is_disabled": 0, "rental_uris": {"android": "https://dc.lft.to/lastmile_qr_scan", "ios": "https://dc.lft.to/lastmile_qr_scan"}, "fusion_lon": 0.0, "lat": 38.918144, "bike_id": "fe8e7519051ad8dce43cea1067bad219", "type": "electric_scooter", "is_reserved": 0, "lon": -77.02653566666666}, {"fusion_lat": 0.0, "name": "144fcad0b5f7c7557a67c72f0d1fc41c", "is_disabled": 0, "rental_uris": {"android": "https://dc.lft.to/lastmile_qr_scan", "ios": "https://dc.lft.to/lastmile_qr_scan"}, "fusion_lon": 0.0, "lat": 38.923567166666665, "bike_id": "144fcad0b5f7c7557a67c72f0d1fc41c", "type": "electric_scooter", "is_reserved": 0, "lon": -77.04312516666667}, {"fusion_lat": 0.0, "name": "b9c9459c7ca7f16a70a0e00a54f47ef7", "is_disabled": 0, "rental_uris": {"android": "https://dc.lft.to/lastmile_qr_scan", "ios": "https://dc.lft.to/lastmile_qr_scan"}, "fusion_lon": 0.0, "lat": 38.91693883333333, "bike_id": "b9c9459c7ca7f16a70a0e00a54f47ef7", "type": "electric_scooter", "is_reserved": 0, "lon": -77.04106666666667}, {"fusion_lat": 0.0, "name": "66f8b8ec0c4194098e25af5348c80ca3", "is_disabled": 0, "rental_uris": {"android": "https://dc.lft.to/lastmile_qr_scan", "ios": "https://dc.lft.to/lastmile_qr_scan"}, "fusion_lon": 0.0, "lat": 38.9126685, "bike_id": "66f8b8ec0c4194098e25af5348c80ca3", "type": "electric_scooter", "is_reserved": 0, "lon": -77.03872933333334}, {"fusion_lat": 0.0, "name": "14988664fd9b665395587c5cb80b1155", "is_disabled": 0, "rental_uris": {"android": "https://dc.lft.to/lastmile_qr_scan", "ios": "https://dc.lft.to/lastmile_qr_scan"}, "fusion_lon": 0.0, "lat": 38.899555166666666, "bike_id": "14988664fd9b665395587c5cb80b1155", "type": "electric_scooter", "is_reserved": 0, "lon": -77.0161015}, {"fusion_lat": 0.0, "name": "7f96197a416fd683f9eee309abd2abb9", "is_disabled": 0, "rental_uris": {"android": "https://dc.lft.to/lastmile_qr_scan", "ios": "https://dc.lft.to/lastmile_qr_scan"}, "fusion_lon": 0.0, "lat": 38.90612816666667, "bike_id": "7f96197a416fd683f9eee309abd2abb9", "type": "electric_scooter", "is_reserved": 0, "lon": -77.05897733333333}, {"fusion_lat": 0.0, "name": "178c02d7164e1da0e15f4a9565a38a31", "is_disabled": 0, "rental_uris": {"android": "https://dc.lft.to/lastmile_qr_scan", "ios": "https://dc.lft.to/lastmile_qr_scan"}, "fusion_lon": 0.0, "lat": 38.9082545, "bike_id": "178c02d7164e1da0e15f4a9565a38a31", "type": "electric_scooter", "is_reserved": 0, "lon": -77.04326216666666}, {"fusion_lat": 0.0, "name": "66680d08c9841e5e4b40d21f7fa97efb", "is_disabled": 0, "rental_uris": {"android": "https://dc.lft.to/lastmile_qr_scan", "ios": "https://dc.lft.to/lastmile_qr_scan"}, "fusion_lon": 0.0, "lat": 38.900921, "bike_id": "66680d08c9841e5e4b40d21f7fa97efb", "type": "electric_bike", "is_reserved": 0, "lon": -76.97683166666667}, {"fusion_lat": 0.0, "name": "63b78a982aeed3852b76b4026c8e4601", "is_disabled": 0, "rental_uris": {"android": "https://dc.lft.to/lastmile_qr_scan", "ios": "https://dc.lft.to/lastmile_qr_scan"}, "fusion_lon": 0.0, "lat": 38.9168395, "bike_id": "63b78a982aeed3852b76b4026c8e4601", "type": "electric_scooter", "is_reserved": 0, "lon": -77.04141283333334}, {"fusion_lat": 0.0, "name": "30b09b09d39408d21b7e534e099f687f", "is_disabled": 0, "rental_uris": {"android": "https://dc.lft.to/lastmile_qr_scan", "ios": "https://dc.lft.to/lastmile_qr_scan"}, "fusion_lon": 0.0, "lat": 38.87784683333334, "bike_id": "30b09b09d39408d21b7e534e099f687f", "type": "electric_scooter", "is_reserved": 0, "lon": -77.00112633333333}, {"fusion_lat": 0.0, "name": "7782f8b772049e5b149cd0114dffb660", "is_disabled": 0, "rental_uris": {"android": "https://dc.lft.to/lastmile_qr_scan", "ios": "https://dc.lft.to/lastmile_qr_scan"}, "fusion_lon": 0.0, "lat": 38.920494833333336, "bike_id": "7782f8b772049e5b149cd0114dffb660", "type": "electric_scooter", "is_reserved": 0, "lon": -77.02189566666667}, {"fusion_lat": 0.0, "name": "64197d09c6fc3ca3ec6421f3cd23034b", "is_disabled": 0, "rental_uris": {"android": "https://dc.lft.to/lastmile_qr_scan", "ios": "https://dc.lft.to/lastmile_qr_scan"}, "fusion_lon": 0.0, "lat": 38.9078355, "bike_id": "64197d09c6fc3ca3ec6421f3cd23034b", "type": "electric_scooter", "is_reserved": 0, "lon": -77.0386045}, {"fusion_lat": 0.0, "name": "8b64c141cb7e9ccf7efc13098600ae5d", "is_disabled": 0, "rental_uris": {"android": "https://dc.lft.to/lastmile_qr_scan", "ios": "https://dc.lft.to/lastmile_qr_scan"}, "fusion_lon": 0.0, "lat": 38.879423, "bike_id": "8b64c141cb7e9ccf7efc13098600ae5d", "type": "electric_scooter", "is_reserved": 0, "lon": -77.0085945}, {"fusion_lat": 0.0, "name": "be7e054051a5dfd60639c6a8b7fc585d", "is_disabled": 0, "rental_uris": {"android": "https://dc.lft.to/lastmile_qr_scan", "ios": "https://dc.lft.to/lastmile_qr_scan"}, "fusion_lon": 0.0, "lat": 38.884133166666665, "bike_id": "be7e054051a5dfd60639c6a8b7fc585d", "type": "electric_bike", "is_reserved": 0, "lon": -76.9540795}, {"fusion_lat": 0.0, "name": "5d0a60e62c8a9a9116066ed70d74adcb", "is_disabled": 0, "rental_uris": {"android": "https://dc.lft.to/lastmile_qr_scan", "ios": "https://dc.lft.to/lastmile_qr_scan"}, "fusion_lon": 0.0, "lat": 38.89736416666667, "bike_id": "5d0a60e62c8a9a9116066ed70d74adcb", "type": "electric_scooter", "is_reserved": 0, "lon": -77.044256}, {"fusion_lat": 0.0, "name": "15528680d66718e399161f6987da5605", "is_disabled": 0, "rental_uris": {"android": "https://dc.lft.to/lastmile_qr_scan", "ios": "https://dc.lft.to/lastmile_qr_scan"}, "fusion_lon": 0.0, "lat": 38.951830666666666, "bike_id": "15528680d66718e399161f6987da5605", "type": "electric_scooter", "is_reserved": 0, "lon": -77.027224}, {"fusion_lat": 0.0, "name": "0d188541ddc735f41e39a87e8c8f4a4f", "is_disabled": 0, "rental_uris": {"android": "https://dc.lft.to/lastmile_qr_scan", "ios": "https://dc.lft.to/lastmile_qr_scan"}, "fusion_lon": 0.0, "lat": 38.929806666666664, "bike_id": "0d188541ddc735f41e39a87e8c8f4a4f", "type": "electric_scooter", "is_reserved": 0, "lon": -77.01965133333333}, {"fusion_lat": 0.0, "name": "e727f84590a2c48f1b901e96fce21fdd", "is_disabled": 0, "rental_uris": {"android": "https://dc.lft.to/lastmile_qr_scan", "ios": "https://dc.lft.to/lastmile_qr_scan"}, "fusion_lon": 0.0, "lat": 38.89209666666667, "bike_id": "e727f84590a2c48f1b901e96fce21fdd", "type": "electric_scooter", "is_reserved": 0, "lon": -76.99712283333334}, {"fusion_lat": 0.0, "name": "ddbe096a38c8695130a3c2ef272321e3", "is_disabled": 0, "rental_uris": {"android": "https://dc.lft.to/lastmile_qr_scan", "ios": "https://dc.lft.to/lastmile_qr_scan"}, "fusion_lon": 0.0, "lat": 38.915978833333334, "bike_id": "ddbe096a38c8695130a3c2ef272321e3", "type": "electric_scooter", "is_reserved": 0, "lon": -77.02202733333333}, {"fusion_lat": 0.0, "name": "10d85af0e61a22c88731e71095a0967f", "is_disabled": 0, "rental_uris": {"android": "https://dc.lft.to/lastmile_qr_scan", "ios": "https://dc.lft.to/lastmile_qr_scan"}, "fusion_lon": 0.0, "lat": 38.96988283333334, "bike_id": "10d85af0e61a22c88731e71095a0967f", "type": "electric_scooter", "is_reserved": 0, "lon": -77.0115815}, {"fusion_lat": 0.0, "name": "f385deb22bd89996952fc012dd67f8b6", "is_disabled": 0, "rental_uris": {"android": "https://dc.lft.to/lastmile_qr_scan", "ios": "https://dc.lft.to/lastmile_qr_scan"}, "fusion_lon": 0.0, "lat": 38.908787833333335, "bike_id": "f385deb22bd89996952fc012dd67f8b6", "type": "electric_scooter", "is_reserved": 0, "lon": -77.042763}, {"fusion_lat": 0.0, "name": "09cb2091247ef77bb913ffc30e7072b1", "is_disabled": 0, "rental_uris": {"android": "https://dc.lft.to/lastmile_qr_scan", "ios": "https://dc.lft.to/lastmile_qr_scan"}, "fusion_lon": 0.0, "lat": 38.91107866666667, "bike_id": "09cb2091247ef77bb913ffc30e7072b1", "type": "electric_scooter", "is_reserved": 0, "lon": -77.0290485}, {"fusion_lat": 0.0, "name": "1d0232154d654c051eba1aa40af099f2", "is_disabled": 0, "rental_uris": {"android": "https://dc.lft.to/lastmile_qr_scan", "ios": "https://dc.lft.to/lastmile_qr_scan"}, "fusion_lon": 0.0, "lat": 38.930602666666665, "bike_id": "1d0232154d654c051eba1aa40af099f2", "type": "electric_scooter", "is_reserved": 0, "lon": -77.04053833333333}, {"fusion_lat": 0.0, "name": "abbab0e5a308a440835e652a648e0fbb", "is_disabled": 0, "rental_uris": {"android": "https://dc.lft.to/lastmile_qr_scan", "ios": "https://dc.lft.to/lastmile_qr_scan"}, "fusion_lon": 0.0, "lat": 38.9090785, "bike_id": "abbab0e5a308a440835e652a648e0fbb", "type": "electric_scooter", "is_reserved": 0, "lon": -77.07267433333334}, {"fusion_lat": 0.0, "name": "37a25f3c78eaae7c3fa391f52c10426b", "is_disabled": 0, "rental_uris": {"android": "https://dc.lft.to/lastmile_qr_scan", "ios": "https://dc.lft.to/lastmile_qr_scan"}, "fusion_lon": 0.0, "lat": 38.897361, "bike_id": "37a25f3c78eaae7c3fa391f52c10426b", "type": "electric_bike", "is_reserved": 0, "lon": -76.92047266666667}, {"fusion_lat": 0.0, "name": "83845f08c5ae094f6102866674c5d83c", "is_disabled": 0, "rental_uris": {"android": "https://dc.lft.to/lastmile_qr_scan", "ios": "https://dc.lft.to/lastmile_qr_scan"}, "fusion_lon": 0.0, "lat": 38.881137333333335, "bike_id": "83845f08c5ae094f6102866674c5d83c", "type": "electric_bike", "is_reserved": 0, "lon": -77.0165065}, {"fusion_lat": 0.0, "name": "befa0de0d996b7701c06d8702258ffee", "is_disabled": 0, "rental_uris": {"android": "https://dc.lft.to/lastmile_qr_scan", "ios": "https://dc.lft.to/lastmile_qr_scan"}, "fusion_lon": 0.0, "lat": 38.897336, "bike_id": "befa0de0d996b7701c06d8702258ffee", "type": "electric_scooter", "is_reserved": 0, "lon": -77.00370816666667}, {"fusion_lat": 0.0, "name": "d297bf1af965eadda45941e6d6304414", "is_disabled": 0, "rental_uris": {"android": "https://dc.lft.to/lastmile_qr_scan", "ios": "https://dc.lft.to/lastmile_qr_scan"}, "fusion_lon": 0.0, "lat": 38.919095, "bike_id": "d297bf1af965eadda45941e6d6304414", "type": "electric_scooter", "is_reserved": 0, "lon": -77.00215733333333}, {"fusion_lat": 0.0, "name": "c518ec40e07fbfcd128239bc1bfca595", "is_disabled": 0, "rental_uris": {"android": "https://dc.lft.to/lastmile_qr_scan", "ios": "https://dc.lft.to/lastmile_qr_scan"}, "fusion_lon": 0.0, "lat": 38.9751005, "bike_id": "c518ec40e07fbfcd128239bc1bfca595", "type": "electric_scooter", "is_reserved": 0, "lon": -77.01726916666667}, {"fusion_lat": 0.0, "name": "7511cb8c04080e03f9e23ddd593ab99e", "is_disabled": 0, "rental_uris": {"android": "https://dc.lft.to/lastmile_qr_scan", "ios": "https://dc.lft.to/lastmile_qr_scan"}, "fusion_lon": 0.0, "lat": 38.896838, "bike_id": "7511cb8c04080e03f9e23ddd593ab99e", "type": "electric_scooter", "is_reserved": 0, "lon": -77.04319333333333}, {"fusion_lat": 0.0, "name": "fada220340a054b9c8ec9ad97feeb57f", "is_disabled": 0, "rental_uris": {"android": "https://dc.lft.to/lastmile_qr_scan", "ios": "https://dc.lft.to/lastmile_qr_scan"}, "fusion_lon": 0.0, "lat": 38.926282666666665, "bike_id": "fada220340a054b9c8ec9ad97feeb57f", "type": "electric_scooter", "is_reserved": 0, "lon": -77.0331805}, {"fusion_lat": 0.0, "name": "dc146664bb66aa36297141b516eb6719", "is_disabled": 0, "rental_uris": {"android": "https://dc.lft.to/lastmile_qr_scan", "ios": "https://dc.lft.to/lastmile_qr_scan"}, "fusion_lon": 0.0, "lat": 38.907003, "bike_id": "dc146664bb66aa36297141b516eb6719", "type": "electric_scooter", "is_reserved": 0, "lon": -77.02709433333334}, {"fusion_lat": 0.0, "name": "eee5545475886c462678682561f07244", "is_disabled": 0, "rental_uris": {"android": "https://dc.lft.to/lastmile_qr_scan", "ios": "https://dc.lft.to/lastmile_qr_scan"}, "fusion_lon": 0.0, "lat": 38.91120883333333, "bike_id": "eee5545475886c462678682561f07244", "type": "electric_scooter", "is_reserved": 0, "lon": -77.02094333333334}, {"fusion_lat": 0.0, "name": "d87f2cbaaa8db667dfacc0c28205d231", "is_disabled": 0, "rental_uris": {"android": "https://dc.lft.to/lastmile_qr_scan", "ios": "https://dc.lft.to/lastmile_qr_scan"}, "fusion_lon": 0.0, "lat": 38.891139, "bike_id": "d87f2cbaaa8db667dfacc0c28205d231", "type": "electric_scooter", "is_reserved": 0, "lon": -76.94380266666667}, {"fusion_lat": 0.0, "name": "d949a0ef81286abeada6e85f64058ae8", "is_disabled": 0, "rental_uris": {"android": "https://dc.lft.to/lastmile_qr_scan", "ios": "https://dc.lft.to/lastmile_qr_scan"}, "fusion_lon": 0.0, "lat": 38.9221525, "bike_id": "d949a0ef81286abeada6e85f64058ae8", "type": "electric_bike", "is_reserved": 0, "lon": -77.201396}, {"fusion_lat": 0.0, "name": "d37eb5744a220e32f0401341e730ac76", "is_disabled": 0, "rental_uris": {"android": "https://dc.lft.to/lastmile_qr_scan", "ios": "https://dc.lft.to/lastmile_qr_scan"}, "fusion_lon": 0.0, "lat": 38.92823516666667, "bike_id": "d37eb5744a220e32f0401341e730ac76", "type": "electric_scooter", "is_reserved": 0, "lon": -77.054287}, {"fusion_lat": 0.0, "name": "f0ac1674ba65765fe5a987a477293fd5", "is_disabled": 0, "rental_uris": {"android": "https://dc.lft.to/lastmile_qr_scan", "ios": "https://dc.lft.to/lastmile_qr_scan"}, "fusion_lon": 0.0, "lat": 38.9173255, "bike_id": "f0ac1674ba65765fe5a987a477293fd5", "type": "electric_scooter", "is_reserved": 0, "lon": -77.032046}, {"fusion_lat": 0.0, "name": "7b3444efcb3446d73f5e7c923f095dec", "is_disabled": 0, "rental_uris": {"android": "https://dc.lft.to/lastmile_qr_scan", "ios": "https://dc.lft.to/lastmile_qr_scan"}, "fusion_lon": 0.0, "lat": 38.94195083333334, "bike_id": "7b3444efcb3446d73f5e7c923f095dec", "type": "electric_scooter", "is_reserved": 0, "lon": -77.02592883333334}, {"fusion_lat": 0.0, "name": "1d3b9ea21aafceb6baaa6a46ede1811b", "is_disabled": 0, "rental_uris": {"android": "https://dc.lft.to/lastmile_qr_scan", "ios": "https://dc.lft.to/lastmile_qr_scan"}, "fusion_lon": 0.0, "lat": 38.96403383333333, "bike_id": "1d3b9ea21aafceb6baaa6a46ede1811b", "type": "electric_scooter", "is_reserved": 0, "lon": -77.07527966666666}, {"fusion_lat": 0.0, "name": "0899647257abaa6edbc6e0af0e11b713", "is_disabled": 0, "rental_uris": {"android": "https://dc.lft.to/lastmile_qr_scan", "ios": "https://dc.lft.to/lastmile_qr_scan"}, "fusion_lon": 0.0, "lat": 38.938424, "bike_id": "0899647257abaa6edbc6e0af0e11b713", "type": "electric_scooter", "is_reserved": 0, "lon": -77.03392716666667}, {"fusion_lat": 0.0, "name": "792c0df30ed550782653998365710d52", "is_disabled": 0, "rental_uris": {"android": "https://dc.lft.to/lastmile_qr_scan", "ios": "https://dc.lft.to/lastmile_qr_scan"}, "fusion_lon": 0.0, "lat": 38.89397266666667, "bike_id": "792c0df30ed550782653998365710d52", "type": "electric_scooter", "is_reserved": 0, "lon": -76.99489566666666}, {"fusion_lat": 0.0, "name": "f6586078be84b0bad7e14b5193015dda", "is_disabled": 0, "rental_uris": {"android": "https://dc.lft.to/lastmile_qr_scan", "ios": "https://dc.lft.to/lastmile_qr_scan"}, "fusion_lon": 0.0, "lat": 38.90369966666667, "bike_id": "f6586078be84b0bad7e14b5193015dda", "type": "electric_scooter", "is_reserved": 0, "lon": -77.05157233333334}, {"fusion_lat": 0.0, "name": "27a4c24369cd0c38227c1b00965cb3d4", "is_disabled": 0, "rental_uris": {"android": "https://dc.lft.to/lastmile_qr_scan", "ios": "https://dc.lft.to/lastmile_qr_scan"}, "fusion_lon": 0.0, "lat": 38.88729816666667, "bike_id": "27a4c24369cd0c38227c1b00965cb3d4", "type": "electric_scooter", "is_reserved": 0, "lon": -77.03164783333334}, {"fusion_lat": 0.0, "name": "9a8de895a54761e27785bfb100312bf6", "is_disabled": 0, "rental_uris": {"android": "https://dc.lft.to/lastmile_qr_scan", "ios": "https://dc.lft.to/lastmile_qr_scan"}, "fusion_lon": 0.0, "lat": 38.917716166666665, "bike_id": "9a8de895a54761e27785bfb100312bf6", "type": "electric_scooter", "is_reserved": 0, "lon": -77.01210183333333}, {"fusion_lat": 0.0, "name": "58df954c7df40b25393f4b4df5a3d219", "is_disabled": 0, "rental_uris": {"android": "https://dc.lft.to/lastmile_qr_scan", "ios": "https://dc.lft.to/lastmile_qr_scan"}, "fusion_lon": 0.0, "lat": 38.921442666666664, "bike_id": "58df954c7df40b25393f4b4df5a3d219", "type": "electric_scooter", "is_reserved": 0, "lon": -77.04339783333333}, {"fusion_lat": 0.0, "name": "e55a5fdb77d33d9637648f3afb711a00", "is_disabled": 0, "rental_uris": {"android": "https://dc.lft.to/lastmile_qr_scan", "ios": "https://dc.lft.to/lastmile_qr_scan"}, "fusion_lon": 0.0, "lat": 38.91911966666667, "bike_id": "e55a5fdb77d33d9637648f3afb711a00", "type": "electric_scooter", "is_reserved": 0, "lon": -77.02502483333333}, {"fusion_lat": 0.0, "name": "4f339ec4e86c4a37c340c620f039d426", "is_disabled": 0, "rental_uris": {"android": "https://dc.lft.to/lastmile_qr_scan", "ios": "https://dc.lft.to/lastmile_qr_scan"}, "fusion_lon": 0.0, "lat": 38.90975483333333, "bike_id": "4f339ec4e86c4a37c340c620f039d426", "type": "electric_scooter", "is_reserved": 0, "lon": -77.02181333333333}, {"fusion_lat": 0.0, "name": "7870c91472b7467b6e17fca69e126858", "is_disabled": 0, "rental_uris": {"android": "https://dc.lft.to/lastmile_qr_scan", "ios": "https://dc.lft.to/lastmile_qr_scan"}, "fusion_lon": 0.0, "lat": 38.866271166666664, "bike_id": "7870c91472b7467b6e17fca69e126858", "type": "electric_scooter", "is_reserved": 0, "lon": -76.98716233333333}, {"fusion_lat": 0.0, "name": "2c94eb8bd7b17f3a35414379657b9e3b", "is_disabled": 0, "rental_uris": {"android": "https://dc.lft.to/lastmile_qr_scan", "ios": "https://dc.lft.to/lastmile_qr_scan"}, "fusion_lon": 0.0, "lat": 38.919872166666664, "bike_id": "2c94eb8bd7b17f3a35414379657b9e3b", "type": "electric_scooter", "is_reserved": 0, "lon": -77.02372266666667}, {"fusion_lat": 0.0, "name": "daf6642ae0774abd483dd67ba965fd3b", "is_disabled": 0, "rental_uris": {"android": "https://dc.lft.to/lastmile_qr_scan", "ios": "https://dc.lft.to/lastmile_qr_scan"}, "fusion_lon": 0.0, "lat": 38.900326666666665, "bike_id": "daf6642ae0774abd483dd67ba965fd3b", "type": "electric_scooter", "is_reserved": 0, "lon": -77.02962583333333}, {"fusion_lat": 0.0, "name": "a2a32192ed195d474522a794d594762e", "is_disabled": 0, "rental_uris": {"android": "https://dc.lft.to/lastmile_qr_scan", "ios": "https://dc.lft.to/lastmile_qr_scan"}, "fusion_lon": 0.0, "lat": 38.902835333333336, "bike_id": "a2a32192ed195d474522a794d594762e", "type": "electric_scooter", "is_reserved": 0, "lon": -77.04375666666667}, {"fusion_lat": 0.0, "name": "4a86bdfdb2ecc58691c4f8be577c8733", "is_disabled": 0, "rental_uris": {"android": "https://dc.lft.to/lastmile_qr_scan", "ios": "https://dc.lft.to/lastmile_qr_scan"}, "fusion_lon": 0.0, "lat": 38.94446633333333, "bike_id": "4a86bdfdb2ecc58691c4f8be577c8733", "type": "electric_scooter", "is_reserved": 0, "lon": -77.02343566666667}, {"fusion_lat": 0.0, "name": "f10e7a4974f180f91d3b4a8297fdc29c", "is_disabled": 0, "rental_uris": {"android": "https://dc.lft.to/lastmile_qr_scan", "ios": "https://dc.lft.to/lastmile_qr_scan"}, "fusion_lon": 0.0, "lat": 38.9008715, "bike_id": "f10e7a4974f180f91d3b4a8297fdc29c", "type": "electric_scooter", "is_reserved": 0, "lon": -77.05826816666666}, {"fusion_lat": 0.0, "name": "7b9c8902c7f49f6b8930a3240e640269", "is_disabled": 0, "rental_uris": {"android": "https://dc.lft.to/lastmile_qr_scan", "ios": "https://dc.lft.to/lastmile_qr_scan"}, "fusion_lon": 0.0, "lat": 38.93130766666667, "bike_id": "7b9c8902c7f49f6b8930a3240e640269", "type": "electric_scooter", "is_reserved": 0, "lon": -77.07845733333333}, {"fusion_lat": 0.0, "name": "96ad60db9b6f5f6f729bc5afe69e8bcb", "is_disabled": 0, "rental_uris": {"android": "https://dc.lft.to/lastmile_qr_scan", "ios": "https://dc.lft.to/lastmile_qr_scan"}, "fusion_lon": 0.0, "lat": 38.924456166666666, "bike_id": "96ad60db9b6f5f6f729bc5afe69e8bcb", "type": "electric_scooter", "is_reserved": 0, "lon": -77.00873866666667}, {"fusion_lat": 0.0, "name": "fa7acee6d37467819297b31ab9e86d6f", "is_disabled": 0, "rental_uris": {"android": "https://dc.lft.to/lastmile_qr_scan", "ios": "https://dc.lft.to/lastmile_qr_scan"}, "fusion_lon": 0.0, "lat": 38.923983166666666, "bike_id": "fa7acee6d37467819297b31ab9e86d6f", "type": "electric_scooter", "is_reserved": 0, "lon": -77.03635083333333}, {"fusion_lat": 0.0, "name": "0510eb5b9f9a7ba0a35a455b80ceae06", "is_disabled": 0, "rental_uris": {"android": "https://dc.lft.to/lastmile_qr_scan", "ios": "https://dc.lft.to/lastmile_qr_scan"}, "fusion_lon": 0.0, "lat": 38.972574333333334, "bike_id": "0510eb5b9f9a7ba0a35a455b80ceae06", "type": "electric_bike", "is_reserved": 0, "lon": -76.99276816666666}, {"fusion_lat": 0.0, "name": "497a03c1d5daa76848613bdbd0bdb7eb", "is_disabled": 0, "rental_uris": {"android": "https://dc.lft.to/lastmile_qr_scan", "ios": "https://dc.lft.to/lastmile_qr_scan"}, "fusion_lon": 0.0, "lat": 38.883206, "bike_id": "497a03c1d5daa76848613bdbd0bdb7eb", "type": "electric_scooter", "is_reserved": 0, "lon": -77.01390716666667}, {"fusion_lat": 0.0, "name": "2f4d1f0e1ca8fa90ca1e216161cd6d8e", "is_disabled": 0, "rental_uris": {"android": "https://dc.lft.to/lastmile_qr_scan", "ios": "https://dc.lft.to/lastmile_qr_scan"}, "fusion_lon": 0.0, "lat": 38.902787000000004, "bike_id": "2f4d1f0e1ca8fa90ca1e216161cd6d8e", "type": "electric_scooter", "is_reserved": 0, "lon": -77.0437135}, {"fusion_lat": 0.0, "name": "d94774674f1bf5ce9c9668d1683559e1", "is_disabled": 0, "rental_uris": {"android": "https://dc.lft.to/lastmile_qr_scan", "ios": "https://dc.lft.to/lastmile_qr_scan"}, "fusion_lon": 0.0, "lat": 38.9233545, "bike_id": "d94774674f1bf5ce9c9668d1683559e1", "type": "electric_scooter", "is_reserved": 0, "lon": -77.04135483333333}, {"fusion_lat": 0.0, "name": "ed988080bb6e7adfd1373ef59a9a8b17", "is_disabled": 0, "rental_uris": {"android": "https://dc.lft.to/lastmile_qr_scan", "ios": "https://dc.lft.to/lastmile_qr_scan"}, "fusion_lon": 0.0, "lat": 38.894484, "bike_id": "ed988080bb6e7adfd1373ef59a9a8b17", "type": "electric_scooter", "is_reserved": 0, "lon": -77.02681583333333}, {"fusion_lat": 0.0, "name": "fd9e7cb1cbfa2fa595311999a121f980", "is_disabled": 0, "rental_uris": {"android": "https://dc.lft.to/lastmile_qr_scan", "ios": "https://dc.lft.to/lastmile_qr_scan"}, "fusion_lon": 0.0, "lat": 38.896716, "bike_id": "fd9e7cb1cbfa2fa595311999a121f980", "type": "electric_scooter", "is_reserved": 0, "lon": -77.05092366666666}, {"fusion_lat": 0.0, "name": "0eedfa214ca850422d749a0d02209ccc", "is_disabled": 0, "rental_uris": {"android": "https://dc.lft.to/lastmile_qr_scan", "ios": "https://dc.lft.to/lastmile_qr_scan"}, "fusion_lon": 0.0, "lat": 38.9069405, "bike_id": "0eedfa214ca850422d749a0d02209ccc", "type": "electric_scooter", "is_reserved": 0, "lon": -77.06527083333333}, {"fusion_lat": 0.0, "name": "7c68259a6f31f59cb4f01fa581f46b21", "is_disabled": 0, "rental_uris": {"android": "https://dc.lft.to/lastmile_qr_scan", "ios": "https://dc.lft.to/lastmile_qr_scan"}, "fusion_lon": 0.0, "lat": 38.923179, "bike_id": "7c68259a6f31f59cb4f01fa581f46b21", "type": "electric_scooter", "is_reserved": 0, "lon": -77.02960583333333}, {"fusion_lat": 0.0, "name": "5b39542cbf87e000cd04b8bad4fc98ee", "is_disabled": 0, "rental_uris": {"android": "https://dc.lft.to/lastmile_qr_scan", "ios": "https://dc.lft.to/lastmile_qr_scan"}, "fusion_lon": 0.0, "lat": 39.03428916666667, "bike_id": "5b39542cbf87e000cd04b8bad4fc98ee", "type": "electric_bike", "is_reserved": 0, "lon": -77.04299216666666}, {"fusion_lat": 0.0, "name": "7ec8c061b9fe5962c5d527dd911a0f61", "is_disabled": 0, "rental_uris": {"android": "https://dc.lft.to/lastmile_qr_scan", "ios": "https://dc.lft.to/lastmile_qr_scan"}, "fusion_lon": 0.0, "lat": 38.956363, "bike_id": "7ec8c061b9fe5962c5d527dd911a0f61", "type": "electric_scooter", "is_reserved": 0, "lon": -77.03302683333334}, {"fusion_lat": 0.0, "name": "c8c1f509e85547ec3fed549496478ad6", "is_disabled": 0, "rental_uris": {"android": "https://dc.lft.to/lastmile_qr_scan", "ios": "https://dc.lft.to/lastmile_qr_scan"}, "fusion_lon": 0.0, "lat": 38.900561333333336, "bike_id": "c8c1f509e85547ec3fed549496478ad6", "type": "electric_scooter", "is_reserved": 0, "lon": -77.0500555}, {"fusion_lat": 0.0, "name": "dae12cb7d1eef6d517bedea6483defb9", "is_disabled": 0, "rental_uris": {"android": "https://dc.lft.to/lastmile_qr_scan", "ios": "https://dc.lft.to/lastmile_qr_scan"}, "fusion_lon": 0.0, "lat": 38.932744166666666, "bike_id": "dae12cb7d1eef6d517bedea6483defb9", "type": "electric_scooter", "is_reserved": 0, "lon": -77.02740833333333}, {"fusion_lat": 0.0, "name": "9112233060d08735b59844891c41781e", "is_disabled": 0, "rental_uris": {"android": "https://dc.lft.to/lastmile_qr_scan", "ios": "https://dc.lft.to/lastmile_qr_scan"}, "fusion_lon": 0.0, "lat": 38.94125866666667, "bike_id": "9112233060d08735b59844891c41781e", "type": "electric_scooter", "is_reserved": 0, "lon": -77.01539566666666}, {"fusion_lat": 0.0, "name": "4eca4e9d37d19a77acfead8fe3b2c755", "is_disabled": 0, "rental_uris": {"android": "https://dc.lft.to/lastmile_qr_scan", "ios": "https://dc.lft.to/lastmile_qr_scan"}, "fusion_lon": 0.0, "lat": 38.910129833333336, "bike_id": "4eca4e9d37d19a77acfead8fe3b2c755", "type": "electric_scooter", "is_reserved": 0, "lon": -77.03845483333333}, {"fusion_lat": 0.0, "name": "dc68586873795d689454b525bd38d706", "is_disabled": 0, "rental_uris": {"android": "https://dc.lft.to/lastmile_qr_scan", "ios": "https://dc.lft.to/lastmile_qr_scan"}, "fusion_lon": 0.0, "lat": 38.95019583333333, "bike_id": "dc68586873795d689454b525bd38d706", "type": "electric_scooter", "is_reserved": 0, "lon": -77.033492}, {"fusion_lat": 0.0, "name": "23a5345f3951d74e5b760ad574663b1d", "is_disabled": 0, "rental_uris": {"android": "https://dc.lft.to/lastmile_qr_scan", "ios": "https://dc.lft.to/lastmile_qr_scan"}, "fusion_lon": 0.0, "lat": 38.93896216666667, "bike_id": "23a5345f3951d74e5b760ad574663b1d", "type": "electric_scooter", "is_reserved": 0, "lon": -77.03334566666666}, {"fusion_lat": 0.0, "name": "1a2b680767e9d430d72d0e8f9a996114", "is_disabled": 0, "rental_uris": {"android": "https://dc.lft.to/lastmile_qr_scan", "ios": "https://dc.lft.to/lastmile_qr_scan"}, "fusion_lon": 0.0, "lat": 38.94089016666667, "bike_id": "1a2b680767e9d430d72d0e8f9a996114", "type": "electric_scooter", "is_reserved": 0, "lon": -77.02317616666667}, {"fusion_lat": 0.0, "name": "014e68e2aea4ca57486c65ce69c818b7", "is_disabled": 0, "rental_uris": {"android": "https://dc.lft.to/lastmile_qr_scan", "ios": "https://dc.lft.to/lastmile_qr_scan"}, "fusion_lon": 0.0, "lat": 38.882937, "bike_id": "014e68e2aea4ca57486c65ce69c818b7", "type": "electric_bike", "is_reserved": 0, "lon": -77.0302375}, {"fusion_lat": 0.0, "name": "3177f92bc2124f4945b0a293cf5aa487", "is_disabled": 0, "rental_uris": {"android": "https://dc.lft.to/lastmile_qr_scan", "ios": "https://dc.lft.to/lastmile_qr_scan"}, "fusion_lon": 0.0, "lat": 38.92697416666667, "bike_id": "3177f92bc2124f4945b0a293cf5aa487", "type": "electric_scooter", "is_reserved": 0, "lon": -77.0231955}, {"fusion_lat": 0.0, "name": "b245951838b397dd675db23d18b2f74b", "is_disabled": 0, "rental_uris": {"android": "https://dc.lft.to/lastmile_qr_scan", "ios": "https://dc.lft.to/lastmile_qr_scan"}, "fusion_lon": 0.0, "lat": 38.92497483333333, "bike_id": "b245951838b397dd675db23d18b2f74b", "type": "electric_scooter", "is_reserved": 0, "lon": -77.02171133333333}, {"fusion_lat": 0.0, "name": "eadf7104f1ddca182d11661674be2a8d", "is_disabled": 0, "rental_uris": {"android": "https://dc.lft.to/lastmile_qr_scan", "ios": "https://dc.lft.to/lastmile_qr_scan"}, "fusion_lon": 0.0, "lat": 38.932539, "bike_id": "eadf7104f1ddca182d11661674be2a8d", "type": "electric_scooter", "is_reserved": 0, "lon": -77.03273483333334}, {"fusion_lat": 0.0, "name": "b0958d367e2b457297501f3131955909", "is_disabled": 0, "rental_uris": {"android": "https://dc.lft.to/lastmile_qr_scan", "ios": "https://dc.lft.to/lastmile_qr_scan"}, "fusion_lon": 0.0, "lat": 38.95880366666667, "bike_id": "b0958d367e2b457297501f3131955909", "type": "electric_scooter", "is_reserved": 0, "lon": -77.01168833333334}, {"fusion_lat": 0.0, "name": "f7d758e0883f3e703f8fa5c6f5b39b32", "is_disabled": 0, "rental_uris": {"android": "https://dc.lft.to/lastmile_qr_scan", "ios": "https://dc.lft.to/lastmile_qr_scan"}, "fusion_lon": 0.0, "lat": 38.876602166666665, "bike_id": "f7d758e0883f3e703f8fa5c6f5b39b32", "type": "electric_scooter", "is_reserved": 0, "lon": -77.00918366666667}, {"fusion_lat": 0.0, "name": "4098dbe975c5ac1f02613fc5dd5734f1", "is_disabled": 0, "rental_uris": {"android": "https://dc.lft.to/lastmile_qr_scan", "ios": "https://dc.lft.to/lastmile_qr_scan"}, "fusion_lon": 0.0, "lat": 38.8822805, "bike_id": "4098dbe975c5ac1f02613fc5dd5734f1", "type": "electric_scooter", "is_reserved": 0, "lon": -77.0261385}, {"fusion_lat": 0.0, "name": "0a349f43e6770b0b2dac687baae3947f", "is_disabled": 0, "rental_uris": {"android": "https://dc.lft.to/lastmile_qr_scan", "ios": "https://dc.lft.to/lastmile_qr_scan"}, "fusion_lon": 0.0, "lat": 38.91544, "bike_id": "0a349f43e6770b0b2dac687baae3947f", "type": "electric_scooter", "is_reserved": 0, "lon": -77.0322215}, {"fusion_lat": 0.0, "name": "7e7e49ab655eec800b7181865c225e58", "is_disabled": 0, "rental_uris": {"android": "https://dc.lft.to/lastmile_qr_scan", "ios": "https://dc.lft.to/lastmile_qr_scan"}, "fusion_lon": 0.0, "lat": 38.90967633333333, "bike_id": "7e7e49ab655eec800b7181865c225e58", "type": "electric_scooter", "is_reserved": 0, "lon": -77.022838}, {"fusion_lat": 0.0, "name": "3744b92d8fc15986441ae6db33e1130d", "is_disabled": 0, "rental_uris": {"android": "https://dc.lft.to/lastmile_qr_scan", "ios": "https://dc.lft.to/lastmile_qr_scan"}, "fusion_lon": 0.0, "lat": 38.924831833333336, "bike_id": "3744b92d8fc15986441ae6db33e1130d", "type": "electric_scooter", "is_reserved": 0, "lon": -77.02547033333333}, {"fusion_lat": 0.0, "name": "43ae33233401302de5af456153b04f96", "is_disabled": 0, "rental_uris": {"android": "https://dc.lft.to/lastmile_qr_scan", "ios": "https://dc.lft.to/lastmile_qr_scan"}, "fusion_lon": 0.0, "lat": 38.91906066666667, "bike_id": "43ae33233401302de5af456153b04f96", "type": "electric_scooter", "is_reserved": 0, "lon": -77.02377016666667}, {"fusion_lat": 0.0, "name": "3f01dc7e514c7907fb142be127dcdeb8", "is_disabled": 0, "rental_uris": {"android": "https://dc.lft.to/lastmile_qr_scan", "ios": "https://dc.lft.to/lastmile_qr_scan"}, "fusion_lon": 0.0, "lat": 38.91558933333334, "bike_id": "3f01dc7e514c7907fb142be127dcdeb8", "type": "electric_scooter", "is_reserved": 0, "lon": -77.03219966666667}, {"fusion_lat": 0.0, "name": "e2f3962900092d904673d5dd1c228137", "is_disabled": 0, "rental_uris": {"android": "https://dc.lft.to/lastmile_qr_scan", "ios": "https://dc.lft.to/lastmile_qr_scan"}, "fusion_lon": 0.0, "lat": 38.87910566666667, "bike_id": "e2f3962900092d904673d5dd1c228137", "type": "electric_scooter", "is_reserved": 0, "lon": -77.0088325}, {"fusion_lat": 0.0, "name": "5830a9fa8bb465c3fbdb23597869a756", "is_disabled": 0, "rental_uris": {"android": "https://dc.lft.to/lastmile_qr_scan", "ios": "https://dc.lft.to/lastmile_qr_scan"}, "fusion_lon": 0.0, "lat": 38.92476, "bike_id": "5830a9fa8bb465c3fbdb23597869a756", "type": "electric_scooter", "is_reserved": 0, "lon": -77.02645966666667}, {"fusion_lat": 0.0, "name": "b788d27b36156eaa9962c401188d7d30", "is_disabled": 0, "rental_uris": {"android": "https://dc.lft.to/lastmile_qr_scan", "ios": "https://dc.lft.to/lastmile_qr_scan"}, "fusion_lon": 0.0, "lat": 38.94289766666667, "bike_id": "b788d27b36156eaa9962c401188d7d30", "type": "electric_scooter", "is_reserved": 0, "lon": -77.0216835}, {"fusion_lat": 0.0, "name": "a3e6be3264da9ea5c66bfab117002400", "is_disabled": 0, "rental_uris": {"android": "https://dc.lft.to/lastmile_qr_scan", "ios": "https://dc.lft.to/lastmile_qr_scan"}, "fusion_lon": 0.0, "lat": 38.90033916666667, "bike_id": "a3e6be3264da9ea5c66bfab117002400", "type": "electric_scooter", "is_reserved": 0, "lon": -76.99251466666666}, {"fusion_lat": 0.0, "name": "3108b60bd713d810bb0e2c38f4b2b29e", "is_disabled": 0, "rental_uris": {"android": "https://dc.lft.to/lastmile_qr_scan", "ios": "https://dc.lft.to/lastmile_qr_scan"}, "fusion_lon": 0.0, "lat": 38.905001666666664, "bike_id": "3108b60bd713d810bb0e2c38f4b2b29e", "type": "electric_scooter", "is_reserved": 0, "lon": -76.979516}, {"fusion_lat": 0.0, "name": "b16542662511a830f1b85cd82822e4b0", "is_disabled": 0, "rental_uris": {"android": "https://dc.lft.to/lastmile_qr_scan", "ios": "https://dc.lft.to/lastmile_qr_scan"}, "fusion_lon": 0.0, "lat": 38.907192, "bike_id": "b16542662511a830f1b85cd82822e4b0", "type": "electric_scooter", "is_reserved": 0, "lon": -77.034597}, {"fusion_lat": 0.0, "name": "519d10a16275f3a46e57834a417e9b13", "is_disabled": 0, "rental_uris": {"android": "https://dc.lft.to/lastmile_qr_scan", "ios": "https://dc.lft.to/lastmile_qr_scan"}, "fusion_lon": 0.0, "lat": 38.920512, "bike_id": "519d10a16275f3a46e57834a417e9b13", "type": "electric_scooter", "is_reserved": 0, "lon": -77.02367266666667}, {"fusion_lat": 0.0, "name": "9b42b81ba2561a11fdb75d21b5545383", "is_disabled": 0, "rental_uris": {"android": "https://dc.lft.to/lastmile_qr_scan", "ios": "https://dc.lft.to/lastmile_qr_scan"}, "fusion_lon": 0.0, "lat": 38.911792166666665, "bike_id": "9b42b81ba2561a11fdb75d21b5545383", "type": "electric_scooter", "is_reserved": 0, "lon": -77.06861566666667}, {"fusion_lat": 0.0, "name": "c82e21488620dfe2b628e7b30e031f65", "is_disabled": 0, "rental_uris": {"android": "https://dc.lft.to/lastmile_qr_scan", "ios": "https://dc.lft.to/lastmile_qr_scan"}, "fusion_lon": 0.0, "lat": 38.92658683333333, "bike_id": "c82e21488620dfe2b628e7b30e031f65", "type": "electric_scooter", "is_reserved": 0, "lon": -77.02425433333333}, {"fusion_lat": 0.0, "name": "f2f3c36b2ff1af40baae2c634ddf9b85", "is_disabled": 0, "rental_uris": {"android": "https://dc.lft.to/lastmile_qr_scan", "ios": "https://dc.lft.to/lastmile_qr_scan"}, "fusion_lon": 0.0, "lat": 38.94183066666667, "bike_id": "f2f3c36b2ff1af40baae2c634ddf9b85", "type": "electric_scooter", "is_reserved": 0, "lon": -77.02402916666666}, {"fusion_lat": 0.0, "name": "e652a488b655c5ce241ec042fecf9f12", "is_disabled": 0, "rental_uris": {"android": "https://dc.lft.to/lastmile_qr_scan", "ios": "https://dc.lft.to/lastmile_qr_scan"}, "fusion_lon": 0.0, "lat": 38.86139983333333, "bike_id": "e652a488b655c5ce241ec042fecf9f12", "type": "electric_bike", "is_reserved": 0, "lon": -76.97167966666666}, {"fusion_lat": 0.0, "name": "5e0093bd2c5306c57f967717ae416697", "is_disabled": 0, "rental_uris": {"android": "https://dc.lft.to/lastmile_qr_scan", "ios": "https://dc.lft.to/lastmile_qr_scan"}, "fusion_lon": 0.0, "lat": 38.89899283333333, "bike_id": "5e0093bd2c5306c57f967717ae416697", "type": "electric_scooter", "is_reserved": 0, "lon": -76.97607833333333}, {"fusion_lat": 0.0, "name": "13b62c0d5c764918b3e9194ad620eb0b", "is_disabled": 0, "rental_uris": {"android": "https://dc.lft.to/lastmile_qr_scan", "ios": "https://dc.lft.to/lastmile_qr_scan"}, "fusion_lon": 0.0, "lat": 38.9659765, "bike_id": "13b62c0d5c764918b3e9194ad620eb0b", "type": "electric_bike", "is_reserved": 0, "lon": -77.02803416666667}, {"fusion_lat": 0.0, "name": "5fdeab76cc5662b7f20f12ddf0f8857a", "is_disabled": 0, "rental_uris": {"android": "https://dc.lft.to/lastmile_qr_scan", "ios": "https://dc.lft.to/lastmile_qr_scan"}, "fusion_lon": 0.0, "lat": 38.90694283333333, "bike_id": "5fdeab76cc5662b7f20f12ddf0f8857a", "type": "electric_scooter", "is_reserved": 0, "lon": -77.07484516666666}, {"fusion_lat": 0.0, "name": "ce5e9cd25df842117ee7a64761470751", "is_disabled": 0, "rental_uris": {"android": "https://dc.lft.to/lastmile_qr_scan", "ios": "https://dc.lft.to/lastmile_qr_scan"}, "fusion_lon": 0.0, "lat": 38.893460166666664, "bike_id": "ce5e9cd25df842117ee7a64761470751", "type": "electric_scooter", "is_reserved": 0, "lon": -77.02795666666667}, {"fusion_lat": 0.0, "name": "793a04e6b7b8c535f51dfba546617828", "is_disabled": 0, "rental_uris": {"android": "https://dc.lft.to/lastmile_qr_scan", "ios": "https://dc.lft.to/lastmile_qr_scan"}, "fusion_lon": 0.0, "lat": 38.941621166666664, "bike_id": "793a04e6b7b8c535f51dfba546617828", "type": "electric_scooter", "is_reserved": 0, "lon": -77.02514766666667}, {"fusion_lat": 0.0, "name": "3e6785760d4f6192cef6de89a751d835", "is_disabled": 0, "rental_uris": {"android": "https://dc.lft.to/lastmile_qr_scan", "ios": "https://dc.lft.to/lastmile_qr_scan"}, "fusion_lon": 0.0, "lat": 38.907326, "bike_id": "3e6785760d4f6192cef6de89a751d835", "type": "electric_scooter", "is_reserved": 0, "lon": -77.02977633333333}, {"fusion_lat": 0.0, "name": "ae5baaa7c4842ecc9afa16b0b785f356", "is_disabled": 0, "rental_uris": {"android": "https://dc.lft.to/lastmile_qr_scan", "ios": "https://dc.lft.to/lastmile_qr_scan"}, "fusion_lon": 0.0, "lat": 38.93088683333333, "bike_id": "ae5baaa7c4842ecc9afa16b0b785f356", "type": "electric_scooter", "is_reserved": 0, "lon": -77.02395216666666}, {"fusion_lat": 0.0, "name": "941ad91afadf76682248d5caf58c0c56", "is_disabled": 0, "rental_uris": {"android": "https://dc.lft.to/lastmile_qr_scan", "ios": "https://dc.lft.to/lastmile_qr_scan"}, "fusion_lon": 0.0, "lat": 38.888083333333334, "bike_id": "941ad91afadf76682248d5caf58c0c56", "type": "electric_scooter", "is_reserved": 0, "lon": -76.98348133333333}, {"fusion_lat": 0.0, "name": "09e9c79cee482c4202ab918e8331425a", "is_disabled": 0, "rental_uris": {"android": "https://dc.lft.to/lastmile_qr_scan", "ios": "https://dc.lft.to/lastmile_qr_scan"}, "fusion_lon": 0.0, "lat": 38.8663, "bike_id": "09e9c79cee482c4202ab918e8331425a", "type": "electric_scooter", "is_reserved": 0, "lon": -76.98301116666667}, {"fusion_lat": 0.0, "name": "bb4982d0eade0964c171f29925ecc038", "is_disabled": 0, "rental_uris": {"android": "https://dc.lft.to/lastmile_qr_scan", "ios": "https://dc.lft.to/lastmile_qr_scan"}, "fusion_lon": 0.0, "lat": 38.91982566666667, "bike_id": "bb4982d0eade0964c171f29925ecc038", "type": "electric_scooter", "is_reserved": 0, "lon": -77.02368783333333}, {"fusion_lat": 0.0, "name": "77425dd9e6463ee4857bb61de3091011", "is_disabled": 0, "rental_uris": {"android": "https://dc.lft.to/lastmile_qr_scan", "ios": "https://dc.lft.to/lastmile_qr_scan"}, "fusion_lon": 0.0, "lat": 38.90547266666667, "bike_id": "77425dd9e6463ee4857bb61de3091011", "type": "electric_scooter", "is_reserved": 0, "lon": -77.00578066666667}, {"fusion_lat": 0.0, "name": "dcbe6cb1df1a971a24afb3d6e2609e01", "is_disabled": 0, "rental_uris": {"android": "https://dc.lft.to/lastmile_qr_scan", "ios": "https://dc.lft.to/lastmile_qr_scan"}, "fusion_lon": 0.0, "lat": 38.931227166666666, "bike_id": "dcbe6cb1df1a971a24afb3d6e2609e01", "type": "electric_scooter", "is_reserved": 0, "lon": -77.02191866666666}, {"fusion_lat": 0.0, "name": "12a08c59e6ed08f681de7dc517c33cc5", "is_disabled": 0, "rental_uris": {"android": "https://dc.lft.to/lastmile_qr_scan", "ios": "https://dc.lft.to/lastmile_qr_scan"}, "fusion_lon": 0.0, "lat": 38.913343833333336, "bike_id": "12a08c59e6ed08f681de7dc517c33cc5", "type": "electric_scooter", "is_reserved": 0, "lon": -77.04334666666666}, {"fusion_lat": 0.0, "name": "eeb5ef86815ad1d7471b67c3682bf7b0", "is_disabled": 0, "rental_uris": {"android": "https://dc.lft.to/lastmile_qr_scan", "ios": "https://dc.lft.to/lastmile_qr_scan"}, "fusion_lon": 0.0, "lat": 38.92548333333333, "bike_id": "eeb5ef86815ad1d7471b67c3682bf7b0", "type": "electric_scooter", "is_reserved": 0, "lon": -76.98299783333333}, {"fusion_lat": 0.0, "name": "011154768e7a4851918fc68cb6587172", "is_disabled": 0, "rental_uris": {"android": "https://dc.lft.to/lastmile_qr_scan", "ios": "https://dc.lft.to/lastmile_qr_scan"}, "fusion_lon": 0.0, "lat": 38.90189383333333, "bike_id": "011154768e7a4851918fc68cb6587172", "type": "electric_scooter", "is_reserved": 0, "lon": -77.015865}, {"fusion_lat": 0.0, "name": "eee0b792d991f0cfcaa91cae456cdfe8", "is_disabled": 0, "rental_uris": {"android": "https://dc.lft.to/lastmile_qr_scan", "ios": "https://dc.lft.to/lastmile_qr_scan"}, "fusion_lon": 0.0, "lat": 38.916608833333335, "bike_id": "eee0b792d991f0cfcaa91cae456cdfe8", "type": "electric_scooter", "is_reserved": 0, "lon": -77.03846266666666}, {"fusion_lat": 0.0, "name": "7bfb7712b90873b37fe3a620f6d217fa", "is_disabled": 0, "rental_uris": {"android": "https://dc.lft.to/lastmile_qr_scan", "ios": "https://dc.lft.to/lastmile_qr_scan"}, "fusion_lon": 0.0, "lat": 38.92675216666667, "bike_id": "7bfb7712b90873b37fe3a620f6d217fa", "type": "electric_scooter", "is_reserved": 0, "lon": -77.03140083333334}, {"fusion_lat": 0.0, "name": "90081da264bcec19bdbd923fb8b5c446", "is_disabled": 0, "rental_uris": {"android": "https://dc.lft.to/lastmile_qr_scan", "ios": "https://dc.lft.to/lastmile_qr_scan"}, "fusion_lon": 0.0, "lat": 38.913187, "bike_id": "90081da264bcec19bdbd923fb8b5c446", "type": "electric_scooter", "is_reserved": 0, "lon": -77.03167983333333}, {"fusion_lat": 0.0, "name": "a5a128dc8237a9cc1f0c4a7504f083b8", "is_disabled": 0, "rental_uris": {"android": "https://dc.lft.to/lastmile_qr_scan", "ios": "https://dc.lft.to/lastmile_qr_scan"}, "fusion_lon": 0.0, "lat": 38.916607666666664, "bike_id": "a5a128dc8237a9cc1f0c4a7504f083b8", "type": "electric_scooter", "is_reserved": 0, "lon": -77.03845883333334}, {"fusion_lat": 0.0, "name": "5704d6157d0dd32b0324c9647a9ee3ec", "is_disabled": 0, "rental_uris": {"android": "https://dc.lft.to/lastmile_qr_scan", "ios": "https://dc.lft.to/lastmile_qr_scan"}, "fusion_lon": 0.0, "lat": 38.92599466666667, "bike_id": "5704d6157d0dd32b0324c9647a9ee3ec", "type": "electric_scooter", "is_reserved": 0, "lon": -77.021507}, {"fusion_lat": 0.0, "name": "bff5c6f79cbd0aa62396fa96e416a69e", "is_disabled": 0, "rental_uris": {"android": "https://dc.lft.to/lastmile_qr_scan", "ios": "https://dc.lft.to/lastmile_qr_scan"}, "fusion_lon": 0.0, "lat": 38.8982685, "bike_id": "bff5c6f79cbd0aa62396fa96e416a69e", "type": "electric_scooter", "is_reserved": 0, "lon": -76.94651233333333}, {"fusion_lat": 0.0, "name": "c8d1639c8e50f709537e03b39fd4f42d", "is_disabled": 0, "rental_uris": {"android": "https://dc.lft.to/lastmile_qr_scan", "ios": "https://dc.lft.to/lastmile_qr_scan"}, "fusion_lon": 0.0, "lat": 38.906572, "bike_id": "c8d1639c8e50f709537e03b39fd4f42d", "type": "electric_scooter", "is_reserved": 0, "lon": -77.04721483333333}, {"fusion_lat": 0.0, "name": "9c89c257e5c0504847dabc27c025ce72", "is_disabled": 0, "rental_uris": {"android": "https://dc.lft.to/lastmile_qr_scan", "ios": "https://dc.lft.to/lastmile_qr_scan"}, "fusion_lon": 0.0, "lat": 38.87897516666666, "bike_id": "9c89c257e5c0504847dabc27c025ce72", "type": "electric_scooter", "is_reserved": 0, "lon": -77.01358366666666}, {"fusion_lat": 0.0, "name": "7ad1835c01e5a274f780d93aea801cc1", "is_disabled": 0, "rental_uris": {"android": "https://dc.lft.to/lastmile_qr_scan", "ios": "https://dc.lft.to/lastmile_qr_scan"}, "fusion_lon": 0.0, "lat": 38.904992166666666, "bike_id": "7ad1835c01e5a274f780d93aea801cc1", "type": "electric_scooter", "is_reserved": 0, "lon": -77.01014066666667}, {"fusion_lat": 0.0, "name": "38ba0842b016a1b20798f8b8fb7966cf", "is_disabled": 0, "rental_uris": {"android": "https://dc.lft.to/lastmile_qr_scan", "ios": "https://dc.lft.to/lastmile_qr_scan"}, "fusion_lon": 0.0, "lat": 38.91761066666667, "bike_id": "38ba0842b016a1b20798f8b8fb7966cf", "type": "electric_scooter", "is_reserved": 0, "lon": -77.01494233333334}, {"fusion_lat": 0.0, "name": "2d5c4c1fabedfa98b714172f08e7e69b", "is_disabled": 0, "rental_uris": {"android": "https://dc.lft.to/lastmile_qr_scan", "ios": "https://dc.lft.to/lastmile_qr_scan"}, "fusion_lon": 0.0, "lat": 38.90267383333333, "bike_id": "2d5c4c1fabedfa98b714172f08e7e69b", "type": "electric_scooter", "is_reserved": 0, "lon": -77.0178945}, {"fusion_lat": 0.0, "name": "8bde42db108fbd3097eee20d6e7510af", "is_disabled": 0, "rental_uris": {"android": "https://dc.lft.to/lastmile_qr_scan", "ios": "https://dc.lft.to/lastmile_qr_scan"}, "fusion_lon": 0.0, "lat": 38.94406716666667, "bike_id": "8bde42db108fbd3097eee20d6e7510af", "type": "electric_scooter", "is_reserved": 0, "lon": -77.03203033333334}, {"fusion_lat": 0.0, "name": "3717d2240e6c90d31a9e13148dfe8f81", "is_disabled": 0, "rental_uris": {"android": "https://dc.lft.to/lastmile_qr_scan", "ios": "https://dc.lft.to/lastmile_qr_scan"}, "fusion_lon": 0.0, "lat": 38.92961866666667, "bike_id": "3717d2240e6c90d31a9e13148dfe8f81", "type": "electric_scooter", "is_reserved": 0, "lon": -77.03092266666667}, {"fusion_lat": 0.0, "name": "a66f057acfeca5fda0f657111a9f59ea", "is_disabled": 0, "rental_uris": {"android": "https://dc.lft.to/lastmile_qr_scan", "ios": "https://dc.lft.to/lastmile_qr_scan"}, "fusion_lon": 0.0, "lat": 38.89896016666667, "bike_id": "a66f057acfeca5fda0f657111a9f59ea", "type": "electric_scooter", "is_reserved": 0, "lon": -76.9337805}, {"fusion_lat": 0.0, "name": "0b8d40b1ba33c8318c51c2c49a5e10cc", "is_disabled": 0, "rental_uris": {"android": "https://dc.lft.to/lastmile_qr_scan", "ios": "https://dc.lft.to/lastmile_qr_scan"}, "fusion_lon": 0.0, "lat": 38.897818666666666, "bike_id": "0b8d40b1ba33c8318c51c2c49a5e10cc", "type": "electric_scooter", "is_reserved": 0, "lon": -77.04658466666666}, {"fusion_lat": 0.0, "name": "47ce3cb9b5e3073c3d76211bc934c78a", "is_disabled": 0, "rental_uris": {"android": "https://dc.lft.to/lastmile_qr_scan", "ios": "https://dc.lft.to/lastmile_qr_scan"}, "fusion_lon": 0.0, "lat": 38.90057783333334, "bike_id": "47ce3cb9b5e3073c3d76211bc934c78a", "type": "electric_scooter", "is_reserved": 0, "lon": -77.05637483333334}, {"fusion_lat": 0.0, "name": "dfd6155176de4b4f2eedc97e99edead7", "is_disabled": 0, "rental_uris": {"android": "https://dc.lft.to/lastmile_qr_scan", "ios": "https://dc.lft.to/lastmile_qr_scan"}, "fusion_lon": 0.0, "lat": 38.9483565, "bike_id": "dfd6155176de4b4f2eedc97e99edead7", "type": "electric_scooter", "is_reserved": 0, "lon": -77.02562933333333}, {"fusion_lat": 0.0, "name": "ad56365c53d32402aebdb2601b8048f4", "is_disabled": 0, "rental_uris": {"android": "https://dc.lft.to/lastmile_qr_scan", "ios": "https://dc.lft.to/lastmile_qr_scan"}, "fusion_lon": 0.0, "lat": 38.918978833333334, "bike_id": "ad56365c53d32402aebdb2601b8048f4", "type": "electric_scooter", "is_reserved": 0, "lon": -77.02753016666666}, {"fusion_lat": 0.0, "name": "11dcf383f51470d8237b2e598a67c982", "is_disabled": 0, "rental_uris": {"android": "https://dc.lft.to/lastmile_qr_scan", "ios": "https://dc.lft.to/lastmile_qr_scan"}, "fusion_lon": 0.0, "lat": 38.922511, "bike_id": "11dcf383f51470d8237b2e598a67c982", "type": "electric_scooter", "is_reserved": 0, "lon": -77.02970633333334}, {"fusion_lat": 0.0, "name": "120659299d3afd105f30a6099384f638", "is_disabled": 0, "rental_uris": {"android": "https://dc.lft.to/lastmile_qr_scan", "ios": "https://dc.lft.to/lastmile_qr_scan"}, "fusion_lon": 0.0, "lat": 38.91699783333333, "bike_id": "120659299d3afd105f30a6099384f638", "type": "electric_scooter", "is_reserved": 0, "lon": -77.04170533333334}, {"fusion_lat": 0.0, "name": "182ea80e2ed7f1fc3e79e75421c9f572", "is_disabled": 0, "rental_uris": {"android": "https://dc.lft.to/lastmile_qr_scan", "ios": "https://dc.lft.to/lastmile_qr_scan"}, "fusion_lon": 0.0, "lat": 38.7946845, "bike_id": "182ea80e2ed7f1fc3e79e75421c9f572", "type": "electric_bike", "is_reserved": 0, "lon": -76.99245333333333}, {"fusion_lat": 0.0, "name": "d9fe78aa76899e00a572097e18aaf95f", "is_disabled": 0, "rental_uris": {"android": "https://dc.lft.to/lastmile_qr_scan", "ios": "https://dc.lft.to/lastmile_qr_scan"}, "fusion_lon": 0.0, "lat": 38.9003335, "bike_id": "d9fe78aa76899e00a572097e18aaf95f", "type": "electric_scooter", "is_reserved": 0, "lon": -77.058178}, {"fusion_lat": 0.0, "name": "91c07cf6ea1035f78ef910d5736a4144", "is_disabled": 0, "rental_uris": {"android": "https://dc.lft.to/lastmile_qr_scan", "ios": "https://dc.lft.to/lastmile_qr_scan"}, "fusion_lon": 0.0, "lat": 38.8928995, "bike_id": "91c07cf6ea1035f78ef910d5736a4144", "type": "electric_scooter", "is_reserved": 0, "lon": -77.0214295}, {"fusion_lat": 0.0, "name": "8e4ef5e45a4d0d7df77a0929da84117e", "is_disabled": 0, "rental_uris": {"android": "https://dc.lft.to/lastmile_qr_scan", "ios": "https://dc.lft.to/lastmile_qr_scan"}, "fusion_lon": 0.0, "lat": 38.9466155, "bike_id": "8e4ef5e45a4d0d7df77a0929da84117e", "type": "electric_bike", "is_reserved": 0, "lon": -76.956674}, {"fusion_lat": 0.0, "name": "5f0f92e831c4c50196c3a863cb1c51a3", "is_disabled": 0, "rental_uris": {"android": "https://dc.lft.to/lastmile_qr_scan", "ios": "https://dc.lft.to/lastmile_qr_scan"}, "fusion_lon": 0.0, "lat": 38.920991, "bike_id": "5f0f92e831c4c50196c3a863cb1c51a3", "type": "electric_scooter", "is_reserved": 0, "lon": -77.04690383333333}, {"fusion_lat": 0.0, "name": "fe2b4efdd6215d5ea4a6b6234c856d80", "is_disabled": 0, "rental_uris": {"android": "https://dc.lft.to/lastmile_qr_scan", "ios": "https://dc.lft.to/lastmile_qr_scan"}, "fusion_lon": 0.0, "lat": 38.9429195, "bike_id": "fe2b4efdd6215d5ea4a6b6234c856d80", "type": "electric_scooter", "is_reserved": 0, "lon": -77.02167783333333}, {"fusion_lat": 0.0, "name": "beff949995085d29eede6da66813141d", "is_disabled": 0, "rental_uris": {"android": "https://dc.lft.to/lastmile_qr_scan", "ios": "https://dc.lft.to/lastmile_qr_scan"}, "fusion_lon": 0.0, "lat": 38.985457833333335, "bike_id": "beff949995085d29eede6da66813141d", "type": "electric_bike", "is_reserved": 0, "lon": -77.00401533333333}, {"fusion_lat": 0.0, "name": "1b973f94e40aca47ba3d8735712eca01", "is_disabled": 0, "rental_uris": {"android": "https://dc.lft.to/lastmile_qr_scan", "ios": "https://dc.lft.to/lastmile_qr_scan"}, "fusion_lon": 0.0, "lat": 38.90032083333333, "bike_id": "1b973f94e40aca47ba3d8735712eca01", "type": "electric_scooter", "is_reserved": 0, "lon": -77.03462633333334}, {"fusion_lat": 0.0, "name": "b90816cf4385b19c3e7ddd6178eda397", "is_disabled": 0, "rental_uris": {"android": "https://dc.lft.to/lastmile_qr_scan", "ios": "https://dc.lft.to/lastmile_qr_scan"}, "fusion_lon": 0.0, "lat": 38.88298233333333, "bike_id": "b90816cf4385b19c3e7ddd6178eda397", "type": "electric_scooter", "is_reserved": 0, "lon": -76.94853666666667}, {"fusion_lat": 0.0, "name": "fd939cb255bd14df4cff91b94e0c7cad", "is_disabled": 0, "rental_uris": {"android": "https://dc.lft.to/lastmile_qr_scan", "ios": "https://dc.lft.to/lastmile_qr_scan"}, "fusion_lon": 0.0, "lat": 38.8784495, "bike_id": "fd939cb255bd14df4cff91b94e0c7cad", "type": "electric_bike", "is_reserved": 0, "lon": -77.030249}, {"fusion_lat": 0.0, "name": "ba14ec20e07e89d91efebf13be123133", "is_disabled": 0, "rental_uris": {"android": "https://dc.lft.to/lastmile_qr_scan", "ios": "https://dc.lft.to/lastmile_qr_scan"}, "fusion_lon": 0.0, "lat": 38.8984095, "bike_id": "ba14ec20e07e89d91efebf13be123133", "type": "electric_scooter", "is_reserved": 0, "lon": -77.01334216666666}, {"fusion_lat": 0.0, "name": "5873432a833b6a912c36863c2fc4b485", "is_disabled": 0, "rental_uris": {"android": "https://dc.lft.to/lastmile_qr_scan", "ios": "https://dc.lft.to/lastmile_qr_scan"}, "fusion_lon": 0.0, "lat": 38.88424833333333, "bike_id": "5873432a833b6a912c36863c2fc4b485", "type": "electric_scooter", "is_reserved": 0, "lon": -76.95751233333333}, {"fusion_lat": 0.0, "name": "d8154d6406084e0d54af05c9a97ab80c", "is_disabled": 0, "rental_uris": {"android": "https://dc.lft.to/lastmile_qr_scan", "ios": "https://dc.lft.to/lastmile_qr_scan"}, "fusion_lon": 0.0, "lat": 38.92413166666667, "bike_id": "d8154d6406084e0d54af05c9a97ab80c", "type": "electric_scooter", "is_reserved": 0, "lon": -76.99621516666667}, {"fusion_lat": 0.0, "name": "c159f782c05a837104916abbce0e8407", "is_disabled": 0, "rental_uris": {"android": "https://dc.lft.to/lastmile_qr_scan", "ios": "https://dc.lft.to/lastmile_qr_scan"}, "fusion_lon": 0.0, "lat": 38.88768733333333, "bike_id": "c159f782c05a837104916abbce0e8407", "type": "electric_scooter", "is_reserved": 0, "lon": -77.03301766666667}, {"fusion_lat": 0.0, "name": "f2d02a14d34e21b00221174a48c80d23", "is_disabled": 0, "rental_uris": {"android": "https://dc.lft.to/lastmile_qr_scan", "ios": "https://dc.lft.to/lastmile_qr_scan"}, "fusion_lon": 0.0, "lat": 38.92509016666666, "bike_id": "f2d02a14d34e21b00221174a48c80d23", "type": "electric_scooter", "is_reserved": 0, "lon": -77.022849}, {"fusion_lat": 0.0, "name": "7bd6064f9c8239994fb42a3818bd47cb", "is_disabled": 0, "rental_uris": {"android": "https://dc.lft.to/lastmile_qr_scan", "ios": "https://dc.lft.to/lastmile_qr_scan"}, "fusion_lon": 0.0, "lat": 38.9357925, "bike_id": "7bd6064f9c8239994fb42a3818bd47cb", "type": "electric_scooter", "is_reserved": 0, "lon": -77.0284495}, {"fusion_lat": 0.0, "name": "d2694a5095a80afdf3d0aec758ff9f8f", "is_disabled": 0, "rental_uris": {"android": "https://dc.lft.to/lastmile_qr_scan", "ios": "https://dc.lft.to/lastmile_qr_scan"}, "fusion_lon": 0.0, "lat": 38.907729833333335, "bike_id": "d2694a5095a80afdf3d0aec758ff9f8f", "type": "electric_scooter", "is_reserved": 0, "lon": -77.055938}, {"fusion_lat": 0.0, "name": "1687726aa236dc16df3b701ca0c63fd2", "is_disabled": 0, "rental_uris": {"android": "https://dc.lft.to/lastmile_qr_scan", "ios": "https://dc.lft.to/lastmile_qr_scan"}, "fusion_lon": 0.0, "lat": 38.91203733333333, "bike_id": "1687726aa236dc16df3b701ca0c63fd2", "type": "electric_scooter", "is_reserved": 0, "lon": -77.03166433333334}, {"fusion_lat": 0.0, "name": "869f5c7a4c8b558b7286be3928c84018", "is_disabled": 0, "rental_uris": {"android": "https://dc.lft.to/lastmile_qr_scan", "ios": "https://dc.lft.to/lastmile_qr_scan"}, "fusion_lon": 0.0, "lat": 38.952212833333334, "bike_id": "869f5c7a4c8b558b7286be3928c84018", "type": "electric_scooter", "is_reserved": 0, "lon": -77.082173}, {"fusion_lat": 0.0, "name": "8d18d637fbcea3354fca570c0e45562e", "is_disabled": 0, "rental_uris": {"android": "https://dc.lft.to/lastmile_qr_scan", "ios": "https://dc.lft.to/lastmile_qr_scan"}, "fusion_lon": 0.0, "lat": 38.897216666666665, "bike_id": "8d18d637fbcea3354fca570c0e45562e", "type": "electric_scooter", "is_reserved": 0, "lon": -77.04621166666666}, {"fusion_lat": 0.0, "name": "a4d16a204d5210d862981c1de1c92800", "is_disabled": 0, "rental_uris": {"android": "https://dc.lft.to/lastmile_qr_scan", "ios": "https://dc.lft.to/lastmile_qr_scan"}, "fusion_lon": 0.0, "lat": 38.908588333333334, "bike_id": "a4d16a204d5210d862981c1de1c92800", "type": "electric_scooter", "is_reserved": 0, "lon": -77.0447935}, {"fusion_lat": 0.0, "name": "b96fa86d247ce2e7c738659c59818f1f", "is_disabled": 0, "rental_uris": {"android": "https://dc.lft.to/lastmile_qr_scan", "ios": "https://dc.lft.to/lastmile_qr_scan"}, "fusion_lon": 0.0, "lat": 38.85413233333333, "bike_id": "b96fa86d247ce2e7c738659c59818f1f", "type": "electric_bike", "is_reserved": 0, "lon": -77.12084633333333}, {"fusion_lat": 0.0, "name": "bf5e3ac03be254b4e6a48566f31d640a", "is_disabled": 0, "rental_uris": {"android": "https://dc.lft.to/lastmile_qr_scan", "ios": "https://dc.lft.to/lastmile_qr_scan"}, "fusion_lon": 0.0, "lat": 38.919896666666666, "bike_id": "bf5e3ac03be254b4e6a48566f31d640a", "type": "electric_scooter", "is_reserved": 0, "lon": -77.0718185}, {"fusion_lat": 0.0, "name": "e4d910bd844ac42b0bdc96f65d1c26c3", "is_disabled": 0, "rental_uris": {"android": "https://dc.lft.to/lastmile_qr_scan", "ios": "https://dc.lft.to/lastmile_qr_scan"}, "fusion_lon": 0.0, "lat": 38.92093416666667, "bike_id": "e4d910bd844ac42b0bdc96f65d1c26c3", "type": "electric_scooter", "is_reserved": 0, "lon": -76.99463116666666}, {"fusion_lat": 0.0, "name": "e491e7f0b1a71273c6c478cc53ff9230", "is_disabled": 0, "rental_uris": {"android": "https://dc.lft.to/lastmile_qr_scan", "ios": "https://dc.lft.to/lastmile_qr_scan"}, "fusion_lon": 0.0, "lat": 38.8900415, "bike_id": "e491e7f0b1a71273c6c478cc53ff9230", "type": "electric_scooter", "is_reserved": 0, "lon": -76.93739966666666}, {"fusion_lat": 0.0, "name": "b51bbbfd8f8d262aa074ad054d1e75e6", "is_disabled": 0, "rental_uris": {"android": "https://dc.lft.to/lastmile_qr_scan", "ios": "https://dc.lft.to/lastmile_qr_scan"}, "fusion_lon": 0.0, "lat": 38.87489333333333, "bike_id": "b51bbbfd8f8d262aa074ad054d1e75e6", "type": "electric_bike", "is_reserved": 0, "lon": -77.21120983333333}, {"fusion_lat": 0.0, "name": "dcb096d37583cb4dcc47cad0ee18fa5f", "is_disabled": 0, "rental_uris": {"android": "https://dc.lft.to/lastmile_qr_scan", "ios": "https://dc.lft.to/lastmile_qr_scan"}, "fusion_lon": 0.0, "lat": 38.89615383333334, "bike_id": "dcb096d37583cb4dcc47cad0ee18fa5f", "type": "electric_bike", "is_reserved": 0, "lon": -76.90741933333334}, {"fusion_lat": 0.0, "name": "8d35c72b25df711bc702b47612f62004", "is_disabled": 0, "rental_uris": {"android": "https://dc.lft.to/lastmile_qr_scan", "ios": "https://dc.lft.to/lastmile_qr_scan"}, "fusion_lon": 0.0, "lat": 38.917341666666665, "bike_id": "8d35c72b25df711bc702b47612f62004", "type": "electric_scooter", "is_reserved": 0, "lon": -77.02274866666667}, {"fusion_lat": 0.0, "name": "1105f96ac802c9140a45259ea52a506e", "is_disabled": 0, "rental_uris": {"android": "https://dc.lft.to/lastmile_qr_scan", "ios": "https://dc.lft.to/lastmile_qr_scan"}, "fusion_lon": 0.0, "lat": 38.8774395, "bike_id": "1105f96ac802c9140a45259ea52a506e", "type": "electric_scooter", "is_reserved": 0, "lon": -77.00258816666667}, {"fusion_lat": 0.0, "name": "2556fd461fa962ef6c62b7ca82d45f8f", "is_disabled": 0, "rental_uris": {"android": "https://dc.lft.to/lastmile_qr_scan", "ios": "https://dc.lft.to/lastmile_qr_scan"}, "fusion_lon": 0.0, "lat": 38.948271, "bike_id": "2556fd461fa962ef6c62b7ca82d45f8f", "type": "electric_scooter", "is_reserved": 0, "lon": -77.07998133333334}, {"fusion_lat": 0.0, "name": "b245a6821b096234e889cd4176d20b53", "is_disabled": 0, "rental_uris": {"android": "https://dc.lft.to/lastmile_qr_scan", "ios": "https://dc.lft.to/lastmile_qr_scan"}, "fusion_lon": 0.0, "lat": 38.92319916666667, "bike_id": "b245a6821b096234e889cd4176d20b53", "type": "electric_scooter", "is_reserved": 0, "lon": -77.029577}, {"fusion_lat": 0.0, "name": "0609094a4afc4fbc60ab1d08b5001b30", "is_disabled": 0, "rental_uris": {"android": "https://dc.lft.to/lastmile_qr_scan", "ios": "https://dc.lft.to/lastmile_qr_scan"}, "fusion_lon": 0.0, "lat": 38.926751833333334, "bike_id": "0609094a4afc4fbc60ab1d08b5001b30", "type": "electric_scooter", "is_reserved": 0, "lon": -77.036354}, {"fusion_lat": 0.0, "name": "046ef17150df7f66eb903a219ea50476", "is_disabled": 0, "rental_uris": {"android": "https://dc.lft.to/lastmile_qr_scan", "ios": "https://dc.lft.to/lastmile_qr_scan"}, "fusion_lon": 0.0, "lat": 38.94619216666667, "bike_id": "046ef17150df7f66eb903a219ea50476", "type": "electric_scooter", "is_reserved": 0, "lon": -77.08018}, {"fusion_lat": 0.0, "name": "443a1cfa5c03aff1f7b10ecf58c4945b", "is_disabled": 0, "rental_uris": {"android": "https://dc.lft.to/lastmile_qr_scan", "ios": "https://dc.lft.to/lastmile_qr_scan"}, "fusion_lon": 0.0, "lat": 38.9226555, "bike_id": "443a1cfa5c03aff1f7b10ecf58c4945b", "type": "electric_scooter", "is_reserved": 0, "lon": -77.02966616666667}, {"fusion_lat": 0.0, "name": "1f252004bdbfe1142ea5f6529efb9eed", "is_disabled": 0, "rental_uris": {"android": "https://dc.lft.to/lastmile_qr_scan", "ios": "https://dc.lft.to/lastmile_qr_scan"}, "fusion_lon": 0.0, "lat": 38.896875666666666, "bike_id": "1f252004bdbfe1142ea5f6529efb9eed", "type": "electric_scooter", "is_reserved": 0, "lon": -77.04337183333334}, {"fusion_lat": 0.0, "name": "9ddaed95c9d952724cf0f74c6159a58d", "is_disabled": 0, "rental_uris": {"android": "https://dc.lft.to/lastmile_qr_scan", "ios": "https://dc.lft.to/lastmile_qr_scan"}, "fusion_lon": 0.0, "lat": 38.91520933333334, "bike_id": "9ddaed95c9d952724cf0f74c6159a58d", "type": "electric_scooter", "is_reserved": 0, "lon": -77.07553316666667}, {"fusion_lat": 0.0, "name": "312dc5b3cf6a189ec56cfb8b089b71a4", "is_disabled": 0, "rental_uris": {"android": "https://dc.lft.to/lastmile_qr_scan", "ios": "https://dc.lft.to/lastmile_qr_scan"}, "fusion_lon": 0.0, "lat": 38.958848, "bike_id": "312dc5b3cf6a189ec56cfb8b089b71a4", "type": "electric_bike", "is_reserved": 0, "lon": -76.92481316666667}, {"fusion_lat": 0.0, "name": "757cd057723724f25e0b2337d5a938c9", "is_disabled": 0, "rental_uris": {"android": "https://dc.lft.to/lastmile_qr_scan", "ios": "https://dc.lft.to/lastmile_qr_scan"}, "fusion_lon": 0.0, "lat": 38.846138, "bike_id": "757cd057723724f25e0b2337d5a938c9", "type": "electric_bike", "is_reserved": 0, "lon": -76.96905883333334}, {"fusion_lat": 0.0, "name": "22afc0f3387b2d969deec08f56420afe", "is_disabled": 0, "rental_uris": {"android": "https://dc.lft.to/lastmile_qr_scan", "ios": "https://dc.lft.to/lastmile_qr_scan"}, "fusion_lon": 0.0, "lat": 38.93119433333333, "bike_id": "22afc0f3387b2d969deec08f56420afe", "type": "electric_scooter", "is_reserved": 0, "lon": -77.03032666666667}, {"fusion_lat": 0.0, "name": "91fd20b7af52f8bb22f7281ae38c4ef9", "is_disabled": 0, "rental_uris": {"android": "https://dc.lft.to/lastmile_qr_scan", "ios": "https://dc.lft.to/lastmile_qr_scan"}, "fusion_lon": 0.0, "lat": 38.91661, "bike_id": "91fd20b7af52f8bb22f7281ae38c4ef9", "type": "electric_scooter", "is_reserved": 0, "lon": -77.02817666666667}, {"fusion_lat": 0.0, "name": "81f402f1ebc7ac65bd66cc873656dd04", "is_disabled": 0, "rental_uris": {"android": "https://dc.lft.to/lastmile_qr_scan", "ios": "https://dc.lft.to/lastmile_qr_scan"}, "fusion_lon": 0.0, "lat": 38.90183116666667, "bike_id": "81f402f1ebc7ac65bd66cc873656dd04", "type": "electric_scooter", "is_reserved": 0, "lon": -77.01609683333334}, {"fusion_lat": 0.0, "name": "e0d4d0e396637b8f35a53e7692955be9", "is_disabled": 0, "rental_uris": {"android": "https://dc.lft.to/lastmile_qr_scan", "ios": "https://dc.lft.to/lastmile_qr_scan"}, "fusion_lon": 0.0, "lat": 38.92410016666667, "bike_id": "e0d4d0e396637b8f35a53e7692955be9", "type": "electric_scooter", "is_reserved": 0, "lon": -77.04458416666667}, {"fusion_lat": 0.0, "name": "48c2d938715219f88ce8123fe0c83646", "is_disabled": 0, "rental_uris": {"android": "https://dc.lft.to/lastmile_qr_scan", "ios": "https://dc.lft.to/lastmile_qr_scan"}, "fusion_lon": 0.0, "lat": 38.8787405, "bike_id": "48c2d938715219f88ce8123fe0c83646", "type": "electric_scooter", "is_reserved": 0, "lon": -77.02219966666667}, {"fusion_lat": 0.0, "name": "193075ae468ebfa97498d08da9b7ec3c", "is_disabled": 0, "rental_uris": {"android": "https://dc.lft.to/lastmile_qr_scan", "ios": "https://dc.lft.to/lastmile_qr_scan"}, "fusion_lon": 0.0, "lat": 38.896161666666664, "bike_id": "193075ae468ebfa97498d08da9b7ec3c", "type": "electric_bike", "is_reserved": 0, "lon": -76.9074045}, {"fusion_lat": 0.0, "name": "05207af0bd435ec67effa48631e32231", "is_disabled": 0, "rental_uris": {"android": "https://dc.lft.to/lastmile_qr_scan", "ios": "https://dc.lft.to/lastmile_qr_scan"}, "fusion_lon": 0.0, "lat": 38.941155, "bike_id": "05207af0bd435ec67effa48631e32231", "type": "electric_scooter", "is_reserved": 0, "lon": -77.02535116666667}, {"fusion_lat": 0.0, "name": "ce1532b7735733534bac1cbc3bd84126", "is_disabled": 0, "rental_uris": {"android": "https://dc.lft.to/lastmile_qr_scan", "ios": "https://dc.lft.to/lastmile_qr_scan"}, "fusion_lon": 0.0, "lat": 38.92337966666667, "bike_id": "ce1532b7735733534bac1cbc3bd84126", "type": "electric_scooter", "is_reserved": 0, "lon": -77.05297466666667}, {"fusion_lat": 0.0, "name": "192d5ab15b71e4ad58bfc17bd5b80d1e", "is_disabled": 0, "rental_uris": {"android": "https://dc.lft.to/lastmile_qr_scan", "ios": "https://dc.lft.to/lastmile_qr_scan"}, "fusion_lon": 0.0, "lat": 38.92671333333333, "bike_id": "192d5ab15b71e4ad58bfc17bd5b80d1e", "type": "electric_scooter", "is_reserved": 0, "lon": -77.01488466666666}, {"fusion_lat": 0.0, "name": "0dcd3ab1f852e0c2c32e0d47017eb604", "is_disabled": 0, "rental_uris": {"android": "https://dc.lft.to/lastmile_qr_scan", "ios": "https://dc.lft.to/lastmile_qr_scan"}, "fusion_lon": 0.0, "lat": 38.9313895, "bike_id": "0dcd3ab1f852e0c2c32e0d47017eb604", "type": "electric_scooter", "is_reserved": 0, "lon": -77.029847}, {"fusion_lat": 0.0, "name": "bc608076f719b0893dfb7a0c37480038", "is_disabled": 0, "rental_uris": {"android": "https://dc.lft.to/lastmile_qr_scan", "ios": "https://dc.lft.to/lastmile_qr_scan"}, "fusion_lon": 0.0, "lat": 38.927429000000004, "bike_id": "bc608076f719b0893dfb7a0c37480038", "type": "electric_scooter", "is_reserved": 0, "lon": -77.02533166666667}, {"fusion_lat": 0.0, "name": "32ab6a4f3617ab991b6b88ca7e903575", "is_disabled": 0, "rental_uris": {"android": "https://dc.lft.to/lastmile_qr_scan", "ios": "https://dc.lft.to/lastmile_qr_scan"}, "fusion_lon": 0.0, "lat": 38.898292166666664, "bike_id": "32ab6a4f3617ab991b6b88ca7e903575", "type": "electric_scooter", "is_reserved": 0, "lon": -77.0414225}, {"fusion_lat": 0.0, "name": "fe45a50f62b068fc1530a7954949eff2", "is_disabled": 0, "rental_uris": {"android": "https://dc.lft.to/lastmile_qr_scan", "ios": "https://dc.lft.to/lastmile_qr_scan"}, "fusion_lon": 0.0, "lat": 38.901359, "bike_id": "fe45a50f62b068fc1530a7954949eff2", "type": "electric_scooter", "is_reserved": 0, "lon": -76.99043416666666}, {"fusion_lat": 0.0, "name": "cff246af0ae1f931a9fe77d390edc4f7", "is_disabled": 0, "rental_uris": {"android": "https://dc.lft.to/lastmile_qr_scan", "ios": "https://dc.lft.to/lastmile_qr_scan"}, "fusion_lon": 0.0, "lat": 38.915107166666665, "bike_id": "cff246af0ae1f931a9fe77d390edc4f7", "type": "electric_scooter", "is_reserved": 0, "lon": -77.01316916666667}, {"fusion_lat": 0.0, "name": "12febe863ffa304870b1adac4aa7a0d0", "is_disabled": 0, "rental_uris": {"android": "https://dc.lft.to/lastmile_qr_scan", "ios": "https://dc.lft.to/lastmile_qr_scan"}, "fusion_lon": 0.0, "lat": 38.85511366666667, "bike_id": "12febe863ffa304870b1adac4aa7a0d0", "type": "electric_bike", "is_reserved": 0, "lon": -77.12047983333333}, {"fusion_lat": 0.0, "name": "855568196be96c4debe5d0af49e68b9e", "is_disabled": 0, "rental_uris": {"android": "https://dc.lft.to/lastmile_qr_scan", "ios": "https://dc.lft.to/lastmile_qr_scan"}, "fusion_lon": 0.0, "lat": 38.937117666666666, "bike_id": "855568196be96c4debe5d0af49e68b9e", "type": "electric_scooter", "is_reserved": 0, "lon": -77.02527016666667}, {"fusion_lat": 0.0, "name": "08db4a60f46904e8aed0e287844dc56e", "is_disabled": 0, "rental_uris": {"android": "https://dc.lft.to/lastmile_qr_scan", "ios": "https://dc.lft.to/lastmile_qr_scan"}, "fusion_lon": 0.0, "lat": 38.902655833333334, "bike_id": "08db4a60f46904e8aed0e287844dc56e", "type": "electric_scooter", "is_reserved": 0, "lon": -77.03957383333334}, {"fusion_lat": 0.0, "name": "1e6b44df925d2c143625b541c23e2382", "is_disabled": 0, "rental_uris": {"android": "https://dc.lft.to/lastmile_qr_scan", "ios": "https://dc.lft.to/lastmile_qr_scan"}, "fusion_lon": 0.0, "lat": 38.922306166666665, "bike_id": "1e6b44df925d2c143625b541c23e2382", "type": "electric_scooter", "is_reserved": 0, "lon": -77.04647683333333}, {"fusion_lat": 0.0, "name": "b4034fe16b711abab6cb2baedeecb87a", "is_disabled": 0, "rental_uris": {"android": "https://dc.lft.to/lastmile_qr_scan", "ios": "https://dc.lft.to/lastmile_qr_scan"}, "fusion_lon": 0.0, "lat": 38.918088166666664, "bike_id": "b4034fe16b711abab6cb2baedeecb87a", "type": "electric_scooter", "is_reserved": 0, "lon": -77.02474216666667}, {"fusion_lat": 0.0, "name": "0b5b2731ef939d6d03a6f0a40337d7ce", "is_disabled": 0, "rental_uris": {"android": "https://dc.lft.to/lastmile_qr_scan", "ios": "https://dc.lft.to/lastmile_qr_scan"}, "fusion_lon": 0.0, "lat": 38.91253016666667, "bike_id": "0b5b2731ef939d6d03a6f0a40337d7ce", "type": "electric_scooter", "is_reserved": 0, "lon": -77.007732}, {"fusion_lat": 0.0, "name": "6e01a2142f3754d0b2cfcdc8ab4a531a", "is_disabled": 0, "rental_uris": {"android": "https://dc.lft.to/lastmile_qr_scan", "ios": "https://dc.lft.to/lastmile_qr_scan"}, "fusion_lon": 0.0, "lat": 38.9922415, "bike_id": "6e01a2142f3754d0b2cfcdc8ab4a531a", "type": "electric_bike", "is_reserved": 0, "lon": -76.94430733333333}, {"fusion_lat": 0.0, "name": "27358329c6a074f9c0ce1421013ff59b", "is_disabled": 0, "rental_uris": {"android": "https://dc.lft.to/lastmile_qr_scan", "ios": "https://dc.lft.to/lastmile_qr_scan"}, "fusion_lon": 0.0, "lat": 38.919608833333335, "bike_id": "27358329c6a074f9c0ce1421013ff59b", "type": "electric_scooter", "is_reserved": 0, "lon": -77.0237095}, {"fusion_lat": 0.0, "name": "a06961105fec3f734322e094fdabfdd4", "is_disabled": 0, "rental_uris": {"android": "https://dc.lft.to/lastmile_qr_scan", "ios": "https://dc.lft.to/lastmile_qr_scan"}, "fusion_lon": 0.0, "lat": 38.91715033333333, "bike_id": "a06961105fec3f734322e094fdabfdd4", "type": "electric_scooter", "is_reserved": 0, "lon": -77.01205983333334}, {"fusion_lat": 0.0, "name": "9cc08820d744646424d56cd5c9b1a052", "is_disabled": 0, "rental_uris": {"android": "https://dc.lft.to/lastmile_qr_scan", "ios": "https://dc.lft.to/lastmile_qr_scan"}, "fusion_lon": 0.0, "lat": 38.9082415, "bike_id": "9cc08820d744646424d56cd5c9b1a052", "type": "electric_scooter", "is_reserved": 0, "lon": -77.05493316666667}, {"fusion_lat": 0.0, "name": "d34368751920cadf4ad0111b86b10a65", "is_disabled": 0, "rental_uris": {"android": "https://dc.lft.to/lastmile_qr_scan", "ios": "https://dc.lft.to/lastmile_qr_scan"}, "fusion_lon": 0.0, "lat": 38.91803066666667, "bike_id": "d34368751920cadf4ad0111b86b10a65", "type": "electric_scooter", "is_reserved": 0, "lon": -76.99976916666667}, {"fusion_lat": 0.0, "name": "59d9f39948c2aed7150512f4c75cb284", "is_disabled": 0, "rental_uris": {"android": "https://dc.lft.to/lastmile_qr_scan", "ios": "https://dc.lft.to/lastmile_qr_scan"}, "fusion_lon": 0.0, "lat": 38.929481833333334, "bike_id": "59d9f39948c2aed7150512f4c75cb284", "type": "electric_scooter", "is_reserved": 0, "lon": -77.0440125}, {"fusion_lat": 0.0, "name": "5c1f7c6e0e8cab2938883202ddb7a43e", "is_disabled": 0, "rental_uris": {"android": "https://dc.lft.to/lastmile_qr_scan", "ios": "https://dc.lft.to/lastmile_qr_scan"}, "fusion_lon": 0.0, "lat": 38.9511715, "bike_id": "5c1f7c6e0e8cab2938883202ddb7a43e", "type": "electric_scooter", "is_reserved": 0, "lon": -77.013609}, {"fusion_lat": 0.0, "name": "6ab3dbffbece1cb184bca14255c2b8aa", "is_disabled": 0, "rental_uris": {"android": "https://dc.lft.to/lastmile_qr_scan", "ios": "https://dc.lft.to/lastmile_qr_scan"}, "fusion_lon": 0.0, "lat": 38.96113916666667, "bike_id": "6ab3dbffbece1cb184bca14255c2b8aa", "type": "electric_scooter", "is_reserved": 0, "lon": -77.02861333333334}, {"fusion_lat": 0.0, "name": "3418592f6efc502fc3835fe9ca07513d", "is_disabled": 0, "rental_uris": {"android": "https://dc.lft.to/lastmile_qr_scan", "ios": "https://dc.lft.to/lastmile_qr_scan"}, "fusion_lon": 0.0, "lat": 38.94696866666666, "bike_id": "3418592f6efc502fc3835fe9ca07513d", "type": "electric_scooter", "is_reserved": 0, "lon": -77.01942933333333}, {"fusion_lat": 0.0, "name": "14f28eb05d6df635e7ca0d21fa37b6f3", "is_disabled": 0, "rental_uris": {"android": "https://dc.lft.to/lastmile_qr_scan", "ios": "https://dc.lft.to/lastmile_qr_scan"}, "fusion_lon": 0.0, "lat": 38.974967, "bike_id": "14f28eb05d6df635e7ca0d21fa37b6f3", "type": "electric_scooter", "is_reserved": 0, "lon": -77.0169195}, {"fusion_lat": 0.0, "name": "12489d043e8e1f206e723fbbe211165f", "is_disabled": 0, "rental_uris": {"android": "https://dc.lft.to/lastmile_qr_scan", "ios": "https://dc.lft.to/lastmile_qr_scan"}, "fusion_lon": 0.0, "lat": 38.9176685, "bike_id": "12489d043e8e1f206e723fbbe211165f", "type": "electric_scooter", "is_reserved": 0, "lon": -77.01899383333334}, {"fusion_lat": 0.0, "name": "e592cac939bb2b3c92878587e7eb7f5f", "is_disabled": 0, "rental_uris": {"android": "https://dc.lft.to/lastmile_qr_scan", "ios": "https://dc.lft.to/lastmile_qr_scan"}, "fusion_lon": 0.0, "lat": 38.885026, "bike_id": "e592cac939bb2b3c92878587e7eb7f5f", "type": "electric_scooter", "is_reserved": 0, "lon": -76.929472}, {"fusion_lat": 0.0, "name": "7c1932aeecf935002cc29fc8141c1463", "is_disabled": 0, "rental_uris": {"android": "https://dc.lft.to/lastmile_qr_scan", "ios": "https://dc.lft.to/lastmile_qr_scan"}, "fusion_lon": 0.0, "lat": 38.94640366666667, "bike_id": "7c1932aeecf935002cc29fc8141c1463", "type": "electric_bike", "is_reserved": 0, "lon": -77.03048983333333}, {"fusion_lat": 0.0, "name": "63c0afb45afcac4fbd79cbad6cecf85b", "is_disabled": 0, "rental_uris": {"android": "https://dc.lft.to/lastmile_qr_scan", "ios": "https://dc.lft.to/lastmile_qr_scan"}, "fusion_lon": 0.0, "lat": 38.88457966666667, "bike_id": "63c0afb45afcac4fbd79cbad6cecf85b", "type": "electric_scooter", "is_reserved": 0, "lon": -76.99839866666667}, {"fusion_lat": 0.0, "name": "8e4ce2932831532d17f453cbdca31adb", "is_disabled": 0, "rental_uris": {"android": "https://dc.lft.to/lastmile_qr_scan", "ios": "https://dc.lft.to/lastmile_qr_scan"}, "fusion_lon": 0.0, "lat": 38.93773, "bike_id": "8e4ce2932831532d17f453cbdca31adb", "type": "electric_scooter", "is_reserved": 0, "lon": -77.02449466666667}, {"fusion_lat": 0.0, "name": "390933f2e25149685ad5f3c8ddae20c8", "is_disabled": 0, "rental_uris": {"android": "https://dc.lft.to/lastmile_qr_scan", "ios": "https://dc.lft.to/lastmile_qr_scan"}, "fusion_lon": 0.0, "lat": 38.91117966666667, "bike_id": "390933f2e25149685ad5f3c8ddae20c8", "type": "electric_scooter", "is_reserved": 0, "lon": -77.02093283333333}, {"fusion_lat": 0.0, "name": "8a53137b3adbcda2df6877b2881eb872", "is_disabled": 0, "rental_uris": {"android": "https://dc.lft.to/lastmile_qr_scan", "ios": "https://dc.lft.to/lastmile_qr_scan"}, "fusion_lon": 0.0, "lat": 38.919108, "bike_id": "8a53137b3adbcda2df6877b2881eb872", "type": "electric_scooter", "is_reserved": 0, "lon": -77.03311266666667},