{"data": {"bikes": [{"rental_uris": {"android": "https://dc.lft.to/lastmile_qr_scan", "ios": "https://dc.lft.to/lastmile_qr_scan"}, "lon": -77.0433525, "name": "1255a45cf0488d639a1a4164237d2040", "lat": 38.914250833333334, "is_reserved": 0, "fusion_lat": 0.0, "bike_id": "1255a45cf0488d639a1a4164237d2040", "type": "electric_scooter", "is_disabled": 0, "fusion_lon": 0.0}, {"rental_uris": {"android": "https://dc.lft.to/lastmile_qr_scan", "ios": "https://dc.lft.to/lastmile_qr_scan"}, "lon": -77.01608866666666, "name": "6960ae8301d4bfa5e275c983aa665ec9", "lat": 38.89953333333333, "is_reserved": 0, "fusion_lat": 0.0, "bike_id": "6960ae8301d4bfa5e275c983aa665ec9", "type": "electric_scooter", "is_disabled": 0, "fusion_lon": 0.0}, {"rental_uris": {"android": "https://dc.lft.to/lastmile_qr_scan", "ios": "https://dc.lft.to/lastmile_qr_scan"}, "lon": -77.032012, "name": "295d83500e7227b4b2984ed6114160be", "lat": 38.9194355, "is_reserved": 0, "fusion_lat": 0.0, "bike_id": "295d83500e7227b4b2984ed6114160be", "type": "electric_scooter", "is_disabled": 0, "fusion_lon": 0.0}, {"rental_uris": {"android": "https://dc.lft.to/lastmile_qr_scan", "ios": "https://dc.lft.to/lastmile_qr_scan"}, "lon": -77.046246, "name": "455dc4d87fd5db0f3ebe3e969a1bd41e", "lat": 38.906734666666665, "is_reserved": 0, "fusion_lat": 0.0, "bike_id": "455dc4d87fd5db0f3ebe3e969a1bd41e", "type": "electric_scooter", "is_disabled": 0, "fusion_lon": 0.0}, {"rental_uris": {"android": "https://dc.lft.to/lastmile_qr_scan", "ios": "https://dc.lft.to/lastmile_qr_scan"}, "lon": -77.02791783333333, "name": "1fcc494f7ce0dfb5c6b971009ff97eae", "lat": 38.960537, "is_reserved": 0, "fusion_lat": 0.0, "bike_id": "1fcc494f7ce0dfb5c6b971009ff97eae", "type": "electric_scooter", "is_disabled": 0, "fusion_lon": 0.0}, {"rental_uris": {"android": "https://dc.lft.to/lastmile_qr_scan", "ios": "https://dc.lft.to/lastmile_qr_scan"}, "lon": -77.0283175, "name": "45a11ce3d165bcc4891001bc664ea329", "lat": 38.8873355, "is_reserved": 0, "fusion_lat": 0.0, "bike_id": "45a11ce3d165bcc4891001bc664ea329", "type": "electric_scooter", "is_disabled": 0, "fusion_lon": 0.0}, {"rental_uris": {"android": "https://dc.lft.to/lastmile_qr_scan", "ios": "https://dc.lft.to/lastmile_qr_scan"}, "lon": -77.01632816666667, "name": "58bc783a262f8f1976d2f29f08dc4637", "lat": 38.900905, "is_reserved": 0, "fusion_lat": 0.0, "bike_id": "58bc783a262f8f1976d2f29f08dc4637", "type": "electric_scooter", "is_disabled": 0, "fusion_lon": 0.0}, {"rental_uris": {"android": "https://dc.lft.to/lastmile_qr_scan", "ios": "https://dc.lft.to/lastmile_qr_scan"}, "lon": -77.0422415, "name": "e7f49678bad3635de9bd88a407dacd5e", "lat": 38.924539833333334, "is_reserved": 0, "fusion_lat": 0.0, "bike_id": "e7f49678bad3635de9bd88a407dacd5e", "type": "electric_scooter", "is_disabled": 0, "fusion_lon": 0.0}, {"rental_uris": {"android": "https://dc.lft.to/lastmile_qr_scan", "ios": "https://dc.lft.to/lastmile_qr_scan"}, "lon": -77.028104, "name": "fe770a33115ba97aaf77a0a0a1b8470a", "lat": 38.961721, "is_reserved": 0, "fusion_lat": 0.0, "bike_id": "fe770a33115ba97aaf77a0a0a1b8470a", "type": "electric_bike", "is_disabled": 0, "fusion_lon": 0.0}, {"rental_uris": {"android": "https://dc.lft.to/lastmile_qr_scan", "ios": "https://dc.lft.to/lastmile_qr_scan"}, "lon": -77.02695566666667, "name": "f56684462d0f28eefbb05652d87de476", "lat": 38.93640333333333, "is_reserved": 0, "fusion_lat": 0.0, "bike_id": "f56684462d0f28eefbb05652d87de476", "type": "electric_scooter", "is_disabled": 0, "fusion_lon": 0.0}, {"rental_uris": {"android": "https://dc.lft.to/lastmile_qr_scan", "ios": "https://dc.lft.to/lastmile_qr_scan"}, "lon": -77.04324116666666, "name": "27b77f5d52959b13f5c15d50c66a192f", "lat": 38.92252583333333, "is_reserved": 0, "fusion_lat": 0.0, "bike_id": "27b77f5d52959b13f5c15d50c66a192f", "type": "electric_scooter", "is_disabled": 0, "fusion_lon": 0.0}, {"rental_uris": {"android": "https://dc.lft.to/lastmile_qr_scan", "ios": "https://dc.lft.to/lastmile_qr_scan"}, "lon": -77.00918933333334, "name": "4e77b0d20c9020002fc447cb28d1bbd8", "lat": 38.96816783333333, "is_reserved": 0, "fusion_lat": 0.0, "bike_id": "4e77b0d20c9020002fc447cb28d1bbd8", "type": "electric_scooter", "is_disabled": 0, "fusion_lon": 0.0}, {"rental_uris": {"android": "https://dc.lft.to/lastmile_qr_scan", "ios": "https://dc.lft.to/lastmile_qr_scan"}, "lon": -77.02382783333333, "name": "2d31b0ccc51b8a7fc517eb438a306dfb", "lat": 38.89230933333333, "is_reserved": 0, "fusion_lat": 0.0, "bike_id": "2d31b0ccc51b8a7fc517eb438a306dfb", "type": "electric_scooter", "is_disabled": 0, "fusion_lon": 0.0}, {"rental_uris": {"android": "https://dc.lft.to/lastmile_qr_scan", "ios": "https://dc.lft.to/lastmile_qr_scan"}, "lon": -76.999997, "name": "273e518fbec197245008dc029d021b46", "lat": 38.92389766666667, "is_reserved": 0, "fusion_lat": 0.0, "bike_id": "273e518fbec197245008dc029d021b46", "type": "electric_bike", "is_disabled": 0, "fusion_lon": 0.0}, {"rental_uris": {"android": "https://dc.lft.to/lastmile_qr_scan", "ios": "https://dc.lft.to/lastmile_qr_scan"}, "lon": -77.02203483333334, "name": "c7883f1e76096daabfe25e755b77c18d", "lat": 38.911402333333335, "is_reserved": 0, "fusion_lat": 0.0, "bike_id": "c7883f1e76096daabfe25e755b77c18d", "type": "electric_scooter", "is_disabled": 0, "fusion_lon": 0.0}, {"rental_uris": {"android": "https://dc.lft.to/lastmile_qr_scan", "ios": "https://dc.lft.to/lastmile_qr_scan"}, "lon": -77.01286083333333, "name": "038c71c852f1865f4bcc3cd836c761cd", "lat": 38.918168, "is_reserved": 0, "fusion_lat": 0.0, "bike_id": "038c71c852f1865f4bcc3cd836c761cd", "type": "electric_scooter", "is_disabled": 0, "fusion_lon": 0.0}, {"rental_uris": {"android": "https://dc.lft.to/lastmile_qr_scan", "ios": "https://dc.lft.to/lastmile_qr_scan"}, "lon": -77.01626066666667, "name": "5b07cb512073471d169ab2b92fdfff28", "lat": 38.89968316666667, "is_reserved": 0, "fusion_lat": 0.0, "bike_id": "5b07cb512073471d169ab2b92fdfff28", "type": "electric_scooter", "is_disabled": 0, "fusion_lon": 0.0}, {"rental_uris": {"android": "https://dc.lft.to/lastmile_qr_scan", "ios": "https://dc.lft.to/lastmile_qr_scan"}, "lon": -77.017438, "name": "bba204098bd30e1eb71c21365cde1197", "lat": 38.939945, "is_reserved": 0, "fusion_lat": 0.0, "bike_id": "bba204098bd30e1eb71c21365cde1197", "type": "electric_scooter", "is_disabled": 0, "fusion_lon": 0.0}, {"rental_uris": {"android": "https://dc.lft.to/lastmile_qr_scan", "ios": "https://dc.lft.to/lastmile_qr_scan"}, "lon": -76.95668416666666, "name": "fb7bff530015fb8464748e19dad76a28", "lat": 38.884911833333334, "is_reserved": 0, "fusion_lat": 0.0, "bike_id": "fb7bff530015fb8464748e19dad76a28", "type": "electric_bike", "is_disabled": 0, "fusion_lon": 0.0}, {"rental_uris": {"android": "https://dc.lft.to/lastmile_qr_scan", "ios": "https://dc.lft.to/lastmile_qr_scan"}, "lon": -77.0442045, "name": "fd794284a04d6af9e0eefd27c40882c3", "lat": 38.8940435, "is_reserved": 0, "fusion_lat": 0.0, "bike_id": "fd794284a04d6af9e0eefd27c40882c3", "type": "electric_scooter", "is_disabled": 0, "fusion_lon": 0.0}, {"rental_uris": {"android": "https://dc.lft.to/lastmile_qr_scan", "ios": "https://dc.lft.to/lastmile_qr_scan"}, "lon": -77.0251625, "name": "0e8828f9d230e8f0ad7df21d9e76dd2b", "lat": 38.92137566666667, "is_reserved": 0, "fusion_lat": 0.0, "bike_id": "0e8828f9d230e8f0ad7df21d9e76dd2b", "type": "electric_scooter", "is_disabled": 0, "fusion_lon": 0.0}, {"rental_uris": {"android": "https://dc.lft.to/lastmile_qr_scan", "ios": "https://dc.lft.to/lastmile_qr_scan"}, "lon": -77.0141235, "name": "25cf6400cf75a8c20212f99efa258330", "lat": 38.91403616666667, "is_reserved": 0, "fusion_lat": 0.0, "bike_id": "25cf6400cf75a8c20212f99efa258330", "type": "electric_scooter", "is_disabled": 0, "fusion_lon": 0.0}, {"rental_uris": {"android": "https://dc.lft.to/lastmile_qr_scan", "ios": "https://dc.lft.to/lastmile_qr_scan"}, "lon": -77.0328545, "name": "c14038f1dba4f58a4e6fb6f0fc4e24b9", "lat": 38.936327166666665, "is_reserved": 0, "fusion_lat": 0.0, "bike_id": "c14038f1dba4f58a4e6fb6f0fc4e24b9", "type": "electric_scooter", "is_disabled": 0, "fusion_lon": 0.0}, {"rental_uris": {"android": "https://dc.lft.to/lastmile_qr_scan", "ios": "https://dc.lft.to/lastmile_qr_scan"}, "lon": -77.00765, "name": "086cf2b3f5b1785be953b59c87c35d36", "lat": 38.92694566666667, "is_reserved": 0, "fusion_lat": 0.0, "bike_id": "086cf2b3f5b1785be953b59c87c35d36", "type": "electric_scooter", "is_disabled": 0, "fusion_lon": 0.0}, {"rental_uris": {"android": "https://dc.lft.to/lastmile_qr_scan", "ios": "https://dc.lft.to/lastmile_qr_scan"}, "lon": -77.00069416666666, "name": "00398989902667087eaaacae9d16de50", "lat": 38.8869825, "is_reserved": 0, "fusion_lat": 0.0, "bike_id": "00398989902667087eaaacae9d16de50", "type": "electric_scooter", "is_disabled": 0, "fusion_lon": 0.0}, {"rental_uris": {"android": "https://dc.lft.to/lastmile_qr_scan", "ios": "https://dc.lft.to/lastmile_qr_scan"}, "lon": -77.02000466666667, "name": "ea76fbd6a8d0a7095bf739d405286b6b", "lat": 38.8925055, "is_reserved": 0, "fusion_lat": 0.0, "bike_id": "ea76fbd6a8d0a7095bf739d405286b6b", "type": "electric_scooter", "is_disabled": 0, "fusion_lon": 0.0}, {"rental_uris": {"android": "https://dc.lft.to/lastmile_qr_scan", "ios": "https://dc.lft.to/lastmile_qr_scan"}, "lon": -77.00107616666666, "name": "f63a096097af12bdfc2f4973cee1a8ac", "lat": 38.87368683333333, "is_reserved": 0, "fusion_lat": 0.0, "bike_id": "f63a096097af12bdfc2f4973cee1a8ac", "type": "electric_scooter", "is_disabled": 0, "fusion_lon": 0.0}, {"rental_uris": {"android": "https://dc.lft.to/lastmile_qr_scan", "ios": "https://dc.lft.to/lastmile_qr_scan"}, "lon": -76.97998166666666, "name": "4a841423233a6b1fc9ffb14fd09214ab", "lat": 38.90678483333333, "is_reserved": 0, "fusion_lat": 0.0, "bike_id": "4a841423233a6b1fc9ffb14fd09214ab", "type": "electric_scooter", "is_disabled": 0, "fusion_lon": 0.0}, {"rental_uris": {"android": "https://dc.lft.to/lastmile_qr_scan", "ios": "https://dc.lft.to/lastmile_qr_scan"}, "lon": -77.04211333333333, "name": "d08550525c7747ed84ad55a32663de5d", "lat": 38.92127983333334, "is_reserved": 0, "fusion_lat": 0.0, "bike_id": "d08550525c7747ed84ad55a32663de5d", "type": "electric_scooter", "is_disabled": 0, "fusion_lon": 0.0}, {"rental_uris": {"android": "https://dc.lft.to/lastmile_qr_scan", "ios": "https://dc.lft.to/lastmile_qr_scan"}, "lon": -77.00196733333334, "name": "8d3d6fd80878931673bbe4e3f24e067a", "lat": 38.966144166666666, "is_reserved": 0, "fusion_lat": 0.0, "bike_id": "8d3d6fd80878931673bbe4e3f24e067a", "type": "electric_scooter", "is_disabled": 0, "fusion_lon": 0.0}, {"rental_uris": {"android": "https://dc.lft.to/lastmile_qr_scan", "ios": "https://dc.lft.to/lastmile_qr_scan"}, "lon": -77.06170833333333, "name": "bf0a136e5d940648a134d16cc447ddce", "lat": 38.90264833333333, "is_reserved": 0, "fusion_lat": 0.0, "bike_id": "bf0a136e5d940648a134d16cc447ddce", "type": "electric_scooter", "is_disabled": 0, "fusion_lon": 0.0}, {"rental_uris": {"android": "https://dc.lft.to/lastmile_qr_scan", "ios": "https://dc.lft.to/lastmile_qr_scan"}, "lon": -77.01756183333333, "name": "2976d0a366f96259c42cc3dc810fe349", "lat": 38.882888333333334, "is_reserved": 0, "fusion_lat": 0.0, "bike_id": "2976d0a366f96259c42cc3dc810fe349", "type": "electric_scooter", "is_disabled": 0, "fusion_lon": 0.0}, {"rental_uris": {"android": "https://dc.lft.to/lastmile_qr_scan", "ios": "https://dc.lft.to/lastmile_qr_scan"}, "lon": -77.0334575, "name": "5cf5e7fa1c99f1d2fd2c3ba2084c9ce7", "lat": 38.91699666666667, "is_reserved": 0, "fusion_lat": 0.0, "bike_id": "5cf5e7fa1c99f1d2fd2c3ba2084c9ce7", "type": "electric_scooter", "is_disabled": 0, "fusion_lon": 0.0}, {"rental_uris": {"android": "https://dc.lft.to/lastmile_qr_scan", "ios": "https://dc.lft.to/lastmile_qr_scan"}, "lon": -77.0365835, "name": "3369085b962f6201c408a4a28f409aa3", "lat": 38.92148133333333, "is_reserved": 0, "fusion_lat": 0.0, "bike_id": "3369085b962f6201c408a4a28f409aa3", "type": "electric_scooter", "is_disabled": 0, "fusion_lon": 0.0}, {"rental_uris": {"android": "https://dc.lft.to/lastmile_qr_scan", "ios": "https://dc.lft.to/lastmile_qr_scan"}, "lon": -76.97054316666667, "name": "bd8e1778a35e4b9d1fc776c465ce8197", "lat": 38.958769, "is_reserved": 0, "fusion_lat": 0.0, "bike_id": "bd8e1778a35e4b9d1fc776c465ce8197", "type": "electric_bike", "is_disabled": 0, "fusion_lon": 0.0}, {"rental_uris": {"android": "https://dc.lft.to/lastmile_qr_scan", "ios": "https://dc.lft.to/lastmile_qr_scan"}, "lon": -77.03862666666667, "name": "88d55ee6db2b8096b6ac3d5f27cb1150", "lat": 38.90275533333333, "is_reserved": 0, "fusion_lat": 0.0, "bike_id": "88d55ee6db2b8096b6ac3d5f27cb1150", "type": "electric_scooter", "is_disabled": 0, "fusion_lon": 0.0}, {"rental_uris": {"android": "https://dc.lft.to/lastmile_qr_scan", "ios": "https://dc.lft.to/lastmile_qr_scan"}, "lon": -77.032333, "name": "67158dcd64af2f2927798d93141914d7", "lat": 38.926892333333335, "is_reserved": 0, "fusion_lat": 0.0, "bike_id": "67158dcd64af2f2927798d93141914d7", "type": "electric_scooter", "is_disabled": 0, "fusion_lon": 0.0}, {"rental_uris": {"android": "https://dc.lft.to/lastmile_qr_scan", "ios": "https://dc.lft.to/lastmile_qr_scan"}, "lon": -77.04020566666667, "name": "4a7a39c54f10ad547d4abecde8a08d4e", "lat": 38.90312483333334, "is_reserved": 0, "fusion_lat": 0.0, "bike_id": "4a7a39c54f10ad547d4abecde8a08d4e", "type": "electric_scooter", "is_disabled": 0, "fusion_lon": 0.0}, {"rental_uris": {"android": "https://dc.lft.to/lastmile_qr_scan", "ios": "https://dc.lft.to/lastmile_qr_scan"}, "lon": -77.04372783333334, "name": "b440d54d182224435f9aecfefb7e2c67", "lat": 38.90023883333333, "is_reserved": 0, "fusion_lat": 0.0, "bike_id": "b440d54d182224435f9aecfefb7e2c67", "type": "electric_scooter", "is_disabled": 0, "fusion_lon": 0.0}, {"rental_uris": {"android": "https://dc.lft.to/lastmile_qr_scan", "ios": "https://dc.lft.to/lastmile_qr_scan"}, "lon": -77.04002266666667, "name": "d90143604463a9f336ec18c2318eca6e", "lat": 38.934232333333334, "is_reserved": 0, "fusion_lat": 0.0, "bike_id": "d90143604463a9f336ec18c2318eca6e", "type": "electric_scooter", "is_disabled": 0, "fusion_lon": 0.0}, {"rental_uris": {"android": "https://dc.lft.to/lastmile_qr_scan", "ios": "https://dc.lft.to/lastmile_qr_scan"}, "lon": -77.0270245, "name": "c3cf0f6b28bbd542902b24085c038ee5", "lat": 38.973103333333334, "is_reserved": 0, "fusion_lat": 0.0, "bike_id": "c3cf0f6b28bbd542902b24085c038ee5", "type": "electric_scooter", "is_disabled": 0, "fusion_lon": 0.0}, {"rental_uris": {"android": "https://dc.lft.to/lastmile_qr_scan", "ios": "https://dc.lft.to/lastmile_qr_scan"}, "lon": -77.013747, "name": "6198c8db741a18f76fe0698205e8cb75", "lat": 38.87902033333334, "is_reserved": 0, "fusion_lat": 0.0, "bike_id": "6198c8db741a18f76fe0698205e8cb75", "type": "electric_scooter", "is_disabled": 0, "fusion_lon": 0.0}, {"rental_uris": {"android": "https://dc.lft.to/lastmile_qr_scan", "ios": "https://dc.lft.to/lastmile_qr_scan"}, "lon": -77.05258533333334, "name": "b6191e16b46a8554df5f1fdfb6fe4725", "lat": 38.925723166666664, "is_reserved": 0, "fusion_lat": 0.0, "bike_id": "b6191e16b46a8554df5f1fdfb6fe4725", "type": "electric_scooter", "is_disabled": 0, "fusion_lon": 0.0}, {"rental_uris": {"android": "https://dc.lft.to/lastmile_qr_scan", "ios": "https://dc.lft.to/lastmile_qr_scan"}, "lon": -77.0259035, "name": "5a4c5c32931ba7d7c2bfd5a6206d6179", "lat": 38.94312166666667, "is_reserved": 0, "fusion_lat": 0.0, "bike_id": "5a4c5c32931ba7d7c2bfd5a6206d6179", "type": "electric_scooter", "is_disabled": 0, "fusion_lon": 0.0}, {"rental_uris": {"android": "https://dc.lft.to/lastmile_qr_scan", "ios": "https://dc.lft.to/lastmile_qr_scan"}, "lon": -77.03907233333334, "name": "49f84056da289ea35139c3a647e3d83a", "lat": 38.901400333333335, "is_reserved": 0, "fusion_lat": 0.0, "bike_id": "49f84056da289ea35139c3a647e3d83a", "type": "electric_scooter", "is_disabled": 0, "fusion_lon": 0.0}, {"rental_uris": {"android": "https://dc.lft.to/lastmile_qr_scan", "ios": "https://dc.lft.to/lastmile_qr_scan"}, "lon": -76.94634766666667, "name": "33e075e22bb6e06fa4f9de6abadd1c7d", "lat": 38.89867433333333, "is_reserved": 0, "fusion_lat": 0.0, "bike_id": "33e075e22bb6e06fa4f9de6abadd1c7d", "type": "electric_scooter", "is_disabled": 0, "fusion_lon": 0.0}, {"rental_uris": {"android": "https://dc.lft.to/lastmile_qr_scan", "ios": "https://dc.lft.to/lastmile_qr_scan"}, "lon": -76.97324533333334, "name": "c9ecad8b97140624c779f395c9dc1dcf", "lat": 38.8652095, "is_reserved": 0, "fusion_lat": 0.0, "bike_id": "c9ecad8b97140624c779f395c9dc1dcf", "type": "electric_scooter", "is_disabled": 0, "fusion_lon": 0.0}, {"rental_uris": {"android": "https://dc.lft.to/lastmile_qr_scan", "ios": "https://dc.lft.to/lastmile_qr_scan"}, "lon": -77.0437695, "name": "0da47be4dfaf609054a0f27a71aaf493", "lat": 38.89219816666667, "is_reserved": 0, "fusion_lat": 0.0, "bike_id": "0da47be4dfaf609054a0f27a71aaf493", "type": "electric_scooter", "is_disabled": 0, "fusion_lon": 0.0}, {"rental_uris": {"android": "https://dc.lft.to/lastmile_qr_scan", "ios": "https://dc.lft.to/lastmile_qr_scan"}, "lon": -76.9983115, "name": "70af5c9f9d6c15babd660e05d2b10951", "lat": 38.88459783333333, "is_reserved": 0, "fusion_lat": 0.0, "bike_id": "70af5c9f9d6c15babd660e05d2b10951", "type": "electric_scooter", "is_disabled": 0, "fusion_lon": 0.0}, {"rental_uris": {"android": "https://dc.lft.to/lastmile_qr_scan", "ios": "https://dc.lft.to/lastmile_qr_scan"}, "lon": -77.02130733333334, "name": "8ae5f8466476f6c865a71047c4b47947", "lat": 38.92314866666667, "is_reserved": 0, "fusion_lat": 0.0, "bike_id": "8ae5f8466476f6c865a71047c4b47947", "type": "electric_scooter", "is_disabled": 0, "fusion_lon": 0.0}, {"rental_uris": {"android": "https://dc.lft.to/lastmile_qr_scan", "ios": "https://dc.lft.to/lastmile_qr_scan"}, "lon": -77.0512945, "name": "8c2b50ee6f25808ddca975af9d01ccae", "lat": 38.925208833333336, "is_reserved": 0, "fusion_lat": 0.0, "bike_id": "8c2b50ee6f25808ddca975af9d01ccae", "type": "electric_scooter", "is_disabled": 0, "fusion_lon": 0.0}, {"rental_uris": {"android": "https://dc.lft.to/lastmile_qr_scan", "ios": "https://dc.lft.to/lastmile_qr_scan"}, "lon": -77.02479033333333, "name": "65b351529fe999f63285025f7c076280", "lat": 38.9265455, "is_reserved": 0, "fusion_lat": 0.0, "bike_id": "65b351529fe999f63285025f7c076280", "type": "electric_scooter", "is_disabled": 0, "fusion_lon": 0.0}, {"rental_uris": {"android": "https://dc.lft.to/lastmile_qr_scan", "ios": "https://dc.lft.to/lastmile_qr_scan"}, "lon": -77.0405955, "name": "f8582e19d736518f5bb816124fd79207", "lat": 38.90507266666667, "is_reserved": 0, "fusion_lat": 0.0, "bike_id": "f8582e19d736518f5bb816124fd79207", "type": "electric_scooter", "is_disabled": 0, "fusion_lon": 0.0}, {"rental_uris": {"android": "https://dc.lft.to/lastmile_qr_scan", "ios": "https://dc.lft.to/lastmile_qr_scan"}, "lon": -77.03240216666667, "name": "9191e740446e9acb795b0d4758241f36", "lat": 38.927259, "is_reserved": 0, "fusion_lat": 0.0, "bike_id": "9191e740446e9acb795b0d4758241f36", "type": "electric_scooter", "is_disabled": 0, "fusion_lon": 0.0}, {"rental_uris": {"android": "https://dc.lft.to/lastmile_qr_scan", "ios": "https://dc.lft.to/lastmile_qr_scan"}, "lon": -77.03277383333334, "name": "83715e647905fcb9537f4c6a8d0c1997", "lat": 38.922631833333334, "is_reserved": 0, "fusion_lat": 0.0, "bike_id": "83715e647905fcb9537f4c6a8d0c1997", "type": "electric_scooter", "is_disabled": 0, "fusion_lon": 0.0}, {"rental_uris": {"android": "https://dc.lft.to/lastmile_qr_scan", "ios": "https://dc.lft.to/lastmile_qr_scan"}, "lon": -77.04570866666667, "name": "b5cb63794183861e718fa914907937a1", "lat": 38.908679166666666, "is_reserved": 0, "fusion_lat": 0.0, "bike_id": "b5cb63794183861e718fa914907937a1", "type": "electric_scooter", "is_disabled": 0, "fusion_lon": 0.0}, {"rental_uris": {"android": "https://dc.lft.to/lastmile_qr_scan", "ios": "https://dc.lft.to/lastmile_qr_scan"}, "lon": -76.9927485, "name": "63072323ef5cfda0a2038e9c38821b8b", "lat": 38.9725745, "is_reserved": 0, "fusion_lat": 0.0, "bike_id": "63072323ef5cfda0a2038e9c38821b8b", "type": "electric_bike", "is_disabled": 0, "fusion_lon": 0.0}, {"rental_uris": {"android": "https://dc.lft.to/lastmile_qr_scan", "ios": "https://dc.lft.to/lastmile_qr_scan"}, "lon": -77.08890266666667, "name": "ed2d3f48619027dff7a7da8588a35c39", "lat": 38.8958905, "is_reserved": 0, "fusion_lat": 0.0, "bike_id": "ed2d3f48619027dff7a7da8588a35c39", "type": "electric_bike", "is_disabled": 0, "fusion_lon": 0.0}, {"rental_uris": {"android": "https://dc.lft.to/lastmile_qr_scan", "ios": "https://dc.lft.to/lastmile_qr_scan"}, "lon": -77.05181233333333, "name": "e1cfb03e449ad6b888c45083766303dc", "lat": 38.92431333333333, "is_reserved": 0, "fusion_lat": 0.0, "bike_id": "e1cfb03e449ad6b888c45083766303dc", "type": "electric_scooter", "is_disabled": 0, "fusion_lon": 0.0}, {"rental_uris": {"android": "https://dc.lft.to/lastmile_qr_scan", "ios": "https://dc.lft.to/lastmile_qr_scan"}, "lon": -77.03871433333333, "name": "5dbf9fe289b5da07ce4d9e480a2ef8da", "lat": 38.90273883333333, "is_reserved": 0, "fusion_lat": 0.0, "bike_id": "5dbf9fe289b5da07ce4d9e480a2ef8da", "type": "electric_scooter", "is_disabled": 0, "fusion_lon": 0.0}, {"rental_uris": {"android": "https://dc.lft.to/lastmile_qr_scan", "ios": "https://dc.lft.to/lastmile_qr_scan"}, "lon": -77.03350283333333, "name": "260fbbbe15e225dd4b2d6b48687267a5", "lat": 38.935818833333336, "is_reserved": 0, "fusion_lat": 0.0, "bike_id": "260fbbbe15e225dd4b2d6b48687267a5", "type": "electric_scooter", "is_disabled": 0, "fusion_lon": 0.0}, {"rental_uris": {"android": "https://dc.lft.to/lastmile_qr_scan", "ios": "https://dc.lft.to/lastmile_qr_scan"}, "lon": -77.000329, "name": "9d1d125963983487237b16dce12802b3", "lat": 38.87397416666667, "is_reserved": 0, "fusion_lat": 0.0, "bike_id": "9d1d125963983487237b16dce12802b3", "type": "electric_scooter", "is_disabled": 0, "fusion_lon": 0.0}, {"rental_uris": {"android": "https://dc.lft.to/lastmile_qr_scan", "ios": "https://dc.lft.to/lastmile_qr_scan"}, "lon": -77.05338916666666, "name": "f5a86225ddd8b4de8e852de08d552831", "lat": 39.0408345, "is_reserved": 0, "fusion_lat": 0.0, "bike_id": "f5a86225ddd8b4de8e852de08d552831", "type": "electric_bike", "is_disabled": 0, "fusion_lon": 0.0}, {"rental_uris": {"android": "https://dc.lft.to/lastmile_qr_scan", "ios": "https://dc.lft.to/lastmile_qr_scan"}, "lon": -77.05276616666667, "name": "724c8db8958b142c87507ba6f8fcef79", "lat": 38.91018583333334, "is_reserved": 0, "fusion_lat": 0.0, "bike_id": "724c8db8958b142c87507ba6f8fcef79", "type": "electric_scooter", "is_disabled": 0, "fusion_lon": 0.0}, {"rental_uris": {"android": "https://dc.lft.to/lastmile_qr_scan", "ios": "https://dc.lft.to/lastmile_qr_scan"}, "lon": -77.02345866666667, "name": "39790698af9042b246b55a7a736f2d3b", "lat": 38.927145833333334, "is_reserved": 0, "fusion_lat": 0.0, "bike_id": "39790698af9042b246b55a7a736f2d3b", "type": "electric_scooter", "is_disabled": 0, "fusion_lon": 0.0}, {"rental_uris": {"android": "https://dc.lft.to/lastmile_qr_scan", "ios": "https://dc.lft.to/lastmile_qr_scan"}, "lon": -77.03344666666666, "name": "00e76fcb3eb10bf17178f6cc06913f7f", "lat": 38.919121, "is_reserved": 0, "fusion_lat": 0.0, "bike_id": "00e76fcb3eb10bf17178f6cc06913f7f", "type": "electric_scooter", "is_disabled": 0, "fusion_lon": 0.0}, {"rental_uris": {"android": "https://dc.lft.to/lastmile_qr_scan", "ios": "https://dc.lft.to/lastmile_qr_scan"}, "lon": -76.996188, "name": "7e6712db1620fa6157d0c03a55c7e894", "lat": 38.950736166666665, "is_reserved": 0, "fusion_lat": 0.0, "bike_id": "7e6712db1620fa6157d0c03a55c7e894", "type": "electric_scooter", "is_disabled": 0, "fusion_lon": 0.0}, {"rental_uris": {"android": "https://dc.lft.to/lastmile_qr_scan", "ios": "https://dc.lft.to/lastmile_qr_scan"}, "lon": -77.03379383333333, "name": "360057d39f4fe173e52014fad4d1a307", "lat": 38.925367666666666, "is_reserved": 0, "fusion_lat": 0.0, "bike_id": "360057d39f4fe173e52014fad4d1a307", "type": "electric_scooter", "is_disabled": 0, "fusion_lon": 0.0}, {"rental_uris": {"android": "https://dc.lft.to/lastmile_qr_scan", "ios": "https://dc.lft.to/lastmile_qr_scan"}, "lon": -77.02373016666667, "name": "f1fa10cd1516cacb6dcd3118e829c3a7", "lat": 38.90721716666667, "is_reserved": 0, "fusion_lat": 0.0, "bike_id": "f1fa10cd1516cacb6dcd3118e829c3a7", "type": "electric_scooter", "is_disabled": 0, "fusion_lon": 0.0}, {"rental_uris": {"android": "https://dc.lft.to/lastmile_qr_scan", "ios": "https://dc.lft.to/lastmile_qr_scan"}, "lon": -76.99992816666666, "name": "0833e74173c35939d467064dcd4c9203", "lat": 38.87492683333333, "is_reserved": 0, "fusion_lat": 0.0, "bike_id": "0833e74173c35939d467064dcd4c9203", "type": "electric_scooter", "is_disabled": 0, "fusion_lon": 0.0}, {"rental_uris": {"android": "https://dc.lft.to/lastmile_qr_scan", "ios": "https://dc.lft.to/lastmile_qr_scan"}, "lon": -77.044766, "name": "870bd0d95f31942b61c559bf31182cf7", "lat": 38.912739, "is_reserved": 0, "fusion_lat": 0.0, "bike_id": "870bd0d95f31942b61c559bf31182cf7", "type": "electric_scooter", "is_disabled": 0, "fusion_lon": 0.0}, {"rental_uris": {"android": "https://dc.lft.to/lastmile_qr_scan", "ios": "https://dc.lft.to/lastmile_qr_scan"}, "lon": -77.027408, "name": "af1d0550de0c26729f46db30c0f53d63", "lat": 38.943827666666664, "is_reserved": 0, "fusion_lat": 0.0, "bike_id": "af1d0550de0c26729f46db30c0f53d63", "type": "electric_scooter", "is_disabled": 0, "fusion_lon": 0.0}, {"rental_uris": {"android": "https://dc.lft.to/lastmile_qr_scan", "ios": "https://dc.lft.to/lastmile_qr_scan"}, "lon": -76.9970555, "name": "4506febc816113f1639769831ee6f30f", "lat": 38.89471366666667, "is_reserved": 0, "fusion_lat": 0.0, "bike_id": "4506febc816113f1639769831ee6f30f", "type": "electric_scooter", "is_disabled": 0, "fusion_lon": 0.0}, {"rental_uris": {"android": "https://dc.lft.to/lastmile_qr_scan", "ios": "https://dc.lft.to/lastmile_qr_scan"}, "lon": -76.99038316666666, "name": "400defd95e4b183a58530637b57541d3", "lat": 38.8639155, "is_reserved": 0, "fusion_lat": 0.0, "bike_id": "400defd95e4b183a58530637b57541d3", "type": "electric_scooter", "is_disabled": 0, "fusion_lon": 0.0}, {"rental_uris": {"android": "https://dc.lft.to/lastmile_qr_scan", "ios": "https://dc.lft.to/lastmile_qr_scan"}, "lon": -77.040037, "name": "a2eef90c2943ae0dfdaaeb1deb1f294c", "lat": 38.8965105, "is_reserved": 0, "fusion_lat": 0.0, "bike_id": "a2eef90c2943ae0dfdaaeb1deb1f294c", "type": "electric_scooter", "is_disabled": 0, "fusion_lon": 0.0}, {"rental_uris": {"android": "https://dc.lft.to/lastmile_qr_scan", "ios": "https://dc.lft.to/lastmile_qr_scan"}, "lon": -77.03849383333333, "name": "20bc99b47f37f89bbacb0842376cbfc1", "lat": 38.902755666666664, "is_reserved": 0, "fusion_lat": 0.0, "bike_id": "20bc99b47f37f89bbacb0842376cbfc1", "type": "electric_scooter", "is_disabled": 0, "fusion_lon": 0.0}, {"rental_uris": {"android": "https://dc.lft.to/lastmile_qr_scan", "ios": "https://dc.lft.to/lastmile_qr_scan"}, "lon": -77.02952133333334, "name": "6107317c017e9eec1c91eeb8d1481e60", "lat": 38.9225085, "is_reserved": 0, "fusion_lat": 0.0, "bike_id": "6107317c017e9eec1c91eeb8d1481e60", "type": "electric_scooter", "is_disabled": 0, "fusion_lon": 0.0}, {"rental_uris": {"android": "https://dc.lft.to/lastmile_qr_scan", "ios": "https://dc.lft.to/lastmile_qr_scan"}, "lon": -76.99603433333333, "name": "f1254dbfded18f06eb7e7875a60d488f", "lat": 38.928450166666664, "is_reserved": 0, "fusion_lat": 0.0, "bike_id": "f1254dbfded18f06eb7e7875a60d488f", "type": "electric_scooter", "is_disabled": 0, "fusion_lon": 0.0}, {"rental_uris": {"android": "https://dc.lft.to/lastmile_qr_scan", "ios": "https://dc.lft.to/lastmile_qr_scan"}, "lon": -77.0141975, "name": "2c930515b0280a8d55bb0ef3b9596ad9", "lat": 38.9065015, "is_reserved": 0, "fusion_lat": 0.0, "bike_id": "2c930515b0280a8d55bb0ef3b9596ad9", "type": "electric_scooter", "is_disabled": 0, "fusion_lon": 0.0}, {"rental_uris": {"android": "https://dc.lft.to/lastmile_qr_scan", "ios": "https://dc.lft.to/lastmile_qr_scan"}, "lon": -77.00417833333333, "name": "ec5bc124e95b9ada12bb452bb19a47a3", "lat": 38.87582033333333, "is_reserved": 0, "fusion_lat": 0.0, "bike_id": "ec5bc124e95b9ada12bb452bb19a47a3", "type": "electric_scooter", "is_disabled": 0, "fusion_lon": 0.0}, {"rental_uris": {"android": "https://dc.lft.to/lastmile_qr_scan", "ios": "https://dc.lft.to/lastmile_qr_scan"}, "lon": -76.98004333333333, "name": "4ea75f2c728b713478df44ed3198ac0c", "lat": 38.864280666666666, "is_reserved": 0, "fusion_lat": 0.0, "bike_id": "4ea75f2c728b713478df44ed3198ac0c", "type": "electric_scooter", "is_disabled": 0, "fusion_lon": 0.0}, {"rental_uris": {"android": "https://dc.lft.to/lastmile_qr_scan", "ios": "https://dc.lft.to/lastmile_qr_scan"}, "lon": -76.98073533333333, "name": "73ccfb9c17498eeb05d0c3d0f0fa575e", "lat": 38.9017505, "is_reserved": 0, "fusion_lat": 0.0, "bike_id": "73ccfb9c17498eeb05d0c3d0f0fa575e", "type": "electric_scooter", "is_disabled": 0, "fusion_lon": 0.0}, {"rental_uris": {"android": "https://dc.lft.to/lastmile_qr_scan", "ios": "https://dc.lft.to/lastmile_qr_scan"}, "lon": -77.04698616666667, "name": "d9cb0c1ffa81113a53defc12c0a9ad8a", "lat": 38.92174816666667, "is_reserved": 0, "fusion_lat": 0.0, "bike_id": "d9cb0c1ffa81113a53defc12c0a9ad8a", "type": "electric_scooter", "is_disabled": 0, "fusion_lon": 0.0}, {"rental_uris": {"android": "https://dc.lft.to/lastmile_qr_scan", "ios": "https://dc.lft.to/lastmile_qr_scan"}, "lon": -77.0250025, "name": "3c03b4cdda4c53eb46cda59ee98c8a11", "lat": 38.9190975, "is_reserved": 0, "fusion_lat": 0.0, "bike_id": "3c03b4cdda4c53eb46cda59ee98c8a11", "type": "electric_scooter", "is_disabled": 0, "fusion_lon": 0.0}, {"rental_uris": {"android": "https://dc.lft.to/lastmile_qr_scan", "ios": "https://dc.lft.to/lastmile_qr_scan"}, "lon": -77.05143883333334, "name": "f4b2fc5731245a02710d1e6d865c5dc7", "lat": 38.905152333333334, "is_reserved": 0, "fusion_lat": 0.0, "bike_id": "f4b2fc5731245a02710d1e6d865c5dc7", "type": "electric_scooter", "is_disabled": 0, "fusion_lon": 0.0}, {"rental_uris": {"android": "https://dc.lft.to/lastmile_qr_scan", "ios": "https://dc.lft.to/lastmile_qr_scan"}, "lon": -77.03491883333334, "name": "5a354ae43733b3b620062b554a36e256", "lat": 38.909735166666664, "is_reserved": 0, "fusion_lat": 0.0, "bike_id": "5a354ae43733b3b620062b554a36e256", "type": "electric_scooter", "is_disabled": 0, "fusion_lon": 0.0}, {"rental_uris": {"android": "https://dc.lft.to/lastmile_qr_scan", "ios": "https://dc.lft.to/lastmile_qr_scan"}, "lon": -77.02203733333333, "name": "b349d21b1f9ae6d8809901460a4bd300", "lat": 38.895742166666665, "is_reserved": 0, "fusion_lat": 0.0, "bike_id": "b349d21b1f9ae6d8809901460a4bd300", "type": "electric_scooter", "is_disabled": 0, "fusion_lon": 0.0}, {"rental_uris": {"android": "https://dc.lft.to/lastmile_qr_scan", "ios": "https://dc.lft.to/lastmile_qr_scan"}, "lon": -77.02363783333334, "name": "110385fab6e45e38dd9653b265b86b32", "lat": 38.93267633333333, "is_reserved": 0, "fusion_lat": 0.0, "bike_id": "110385fab6e45e38dd9653b265b86b32", "type": "electric_scooter", "is_disabled": 0, "fusion_lon": 0.0}, {"rental_uris": {"android": "https://dc.lft.to/lastmile_qr_scan", "ios": "https://dc.lft.to/lastmile_qr_scan"}, "lon": -77.02203566666667, "name": "399875290a4200c1a3eadb5605a0afeb", "lat": 38.892645, "is_reserved": 0, "fusion_lat": 0.0, "bike_id": "399875290a4200c1a3eadb5605a0afeb", "type": "electric_scooter", "is_disabled": 0, "fusion_lon": 0.0}, {"rental_uris": {"android": "https://dc.lft.to/lastmile_qr_scan", "ios": "https://dc.lft.to/lastmile_qr_scan"}, "lon": -77.04334683333333, "name": "c6d999b6227e0735438f2ddaa6d9f29c", "lat": 38.91329966666667, "is_reserved": 0, "fusion_lat": 0.0, "bike_id": "c6d999b6227e0735438f2ddaa6d9f29c", "type": "electric_scooter", "is_disabled": 0, "fusion_lon": 0.0}, {"rental_uris": {"android": "https://dc.lft.to/lastmile_qr_scan", "ios": "https://dc.lft.to/lastmile_qr_scan"}, "lon": -77.0468425, "name": "5cdbe39ed98e852dc057a84ead36fecb", "lat": 38.89219166666667, "is_reserved": 0, "fusion_lat": 0.0, "bike_id": "5cdbe39ed98e852dc057a84ead36fecb", "type": "electric_scooter", "is_disabled": 0, "fusion_lon": 0.0}, {"rental_uris": {"android": "https://dc.lft.to/lastmile_qr_scan", "ios": "https://dc.lft.to/lastmile_qr_scan"}, "lon": -77.03146566666666, "name": "0b7185e502c8b0153ec6154bf78eea92", "lat": 38.941783666666666, "is_reserved": 0, "fusion_lat": 0.0, "bike_id": "0b7185e502c8b0153ec6154bf78eea92", "type": "electric_scooter", "is_disabled": 0, "fusion_lon": 0.0}, {"rental_uris": {"android": "https://dc.lft.to/lastmile_qr_scan", "ios": "https://dc.lft.to/lastmile_qr_scan"}, "lon": -76.9472145, "name": "20fe6e33729a938a16b3db18c8f79d70", "lat": 38.897413666666665, "is_reserved": 0, "fusion_lat": 0.0, "bike_id": "20fe6e33729a938a16b3db18c8f79d70", "type": "electric_scooter", "is_disabled": 0, "fusion_lon": 0.0}, {"rental_uris": {"android": "https://dc.lft.to/lastmile_qr_scan", "ios": "https://dc.lft.to/lastmile_qr_scan"}, "lon": -77.0230915, "name": "3e036af1278c24e4f7bb8066be0b1a6d", "lat": 38.89586466666667, "is_reserved": 0, "fusion_lat": 0.0, "bike_id": "3e036af1278c24e4f7bb8066be0b1a6d", "type": "electric_scooter", "is_disabled": 0, "fusion_lon": 0.0}, {"rental_uris": {"android": "https://dc.lft.to/lastmile_qr_scan", "ios": "https://dc.lft.to/lastmile_qr_scan"}, "lon": -77.01482583333333, "name": "6616eb43a9e696132a147000f67ee31f", "lat": 38.918476, "is_reserved": 0, "fusion_lat": 0.0, "bike_id": "6616eb43a9e696132a147000f67ee31f", "type": "electric_scooter", "is_disabled": 0, "fusion_lon": 0.0}, {"rental_uris": {"android": "https://dc.lft.to/lastmile_qr_scan", "ios": "https://dc.lft.to/lastmile_qr_scan"}, "lon": -77.023142, "name": "b40444afe783bb89a6ac4c8c036af413", "lat": 38.917709333333335, "is_reserved": 0, "fusion_lat": 0.0, "bike_id": "b40444afe783bb89a6ac4c8c036af413", "type": "electric_scooter", "is_disabled": 0, "fusion_lon": 0.0}, {"rental_uris": {"android": "https://dc.lft.to/lastmile_qr_scan", "ios": "https://dc.lft.to/lastmile_qr_scan"}, "lon": -77.03924966666666, "name": "aacd8b12145602fdceddac6189f1f389", "lat": 38.912707166666664, "is_reserved": 0, "fusion_lat": 0.0, "bike_id": "aacd8b12145602fdceddac6189f1f389", "type": "electric_scooter", "is_disabled": 0, "fusion_lon": 0.0}, {"rental_uris": {"android": "https://dc.lft.to/lastmile_qr_scan", "ios": "https://dc.lft.to/lastmile_qr_scan"}, "lon": -77.02200666666667, "name": "6997a98a25c8e7e8ffb2b6f027ca669d", "lat": 38.895134, "is_reserved": 0, "fusion_lat": 0.0, "bike_id": "6997a98a25c8e7e8ffb2b6f027ca669d", "type": "electric_scooter", "is_disabled": 0, "fusion_lon": 0.0}, {"rental_uris": {"android": "https://dc.lft.to/lastmile_qr_scan", "ios": "https://dc.lft.to/lastmile_qr_scan"}, "lon": -76.9861145, "name": "90ed617b5a79a474c6a0e831d9309814", "lat": 38.882921, "is_reserved": 0, "fusion_lat": 0.0, "bike_id": "90ed617b5a79a474c6a0e831d9309814", "type": "electric_scooter", "is_disabled": 0, "fusion_lon": 0.0}, {"rental_uris": {"android": "https://dc.lft.to/lastmile_qr_scan", "ios": "https://dc.lft.to/lastmile_qr_scan"}, "lon": -77.026655, "name": "8efc4427a2e5002d2a51b27262b8e941", "lat": 38.9248245, "is_reserved": 0, "fusion_lat": 0.0, "bike_id": "8efc4427a2e5002d2a51b27262b8e941", "type": "electric_scooter", "is_disabled": 0, "fusion_lon": 0.0}, {"rental_uris": {"android": "https://dc.lft.to/lastmile_qr_scan", "ios": "https://dc.lft.to/lastmile_qr_scan"}, "lon": -76.98563516666667, "name": "395ab34b885863df79d867aae400cee5", "lat": 38.8668285, "is_reserved": 0, "fusion_lat": 0.0, "bike_id": "395ab34b885863df79d867aae400cee5", "type": "electric_scooter", "is_disabled": 0, "fusion_lon": 0.0}, {"rental_uris": {"android": "https://dc.lft.to/lastmile_qr_scan", "ios": "https://dc.lft.to/lastmile_qr_scan"}, "lon": -77.04043183333333, "name": "75b2662adc68dccdca4b3c1eb62007ae", "lat": 38.9179265, "is_reserved": 0, "fusion_lat": 0.0, "bike_id": "75b2662adc68dccdca4b3c1eb62007ae", "type": "electric_scooter", "is_disabled": 0, "fusion_lon": 0.0}, {"rental_uris": {"android": "https://dc.lft.to/lastmile_qr_scan", "ios": "https://dc.lft.to/lastmile_qr_scan"}, "lon": -76.94639433333333, "name": "de842dde983066b27dbf9750af957a37", "lat": 38.89860633333333, "is_reserved": 0, "fusion_lat": 0.0, "bike_id": "de842dde983066b27dbf9750af957a37", "type": "electric_scooter", "is_disabled": 0, "fusion_lon": 0.0}, {"rental_uris": {"android": "https://dc.lft.to/lastmile_qr_scan", "ios": "https://dc.lft.to/lastmile_qr_scan"}, "lon": -77.00329133333334, "name": "c327c28fbbcbfff1f1305d25e8cbb5de", "lat": 38.899068, "is_reserved": 0, "fusion_lat": 0.0, "bike_id": "c327c28fbbcbfff1f1305d25e8cbb5de", "type": "electric_scooter", "is_disabled": 0, "fusion_lon": 0.0}, {"rental_uris": {"android": "https://dc.lft.to/lastmile_qr_scan", "ios": "https://dc.lft.to/lastmile_qr_scan"}, "lon": -77.03831616666666, "name": "5eaed70fd7d8a1a4eb8b87fbc6c36791", "lat": 38.912652333333334, "is_reserved": 0, "fusion_lat": 0.0, "bike_id": "5eaed70fd7d8a1a4eb8b87fbc6c36791", "type": "electric_scooter", "is_disabled": 0, "fusion_lon": 0.0}, {"rental_uris": {"android": "https://dc.lft.to/lastmile_qr_scan", "ios": "https://dc.lft.to/lastmile_qr_scan"}, "lon": -76.97545533333333, "name": "71fde130191cac0d45748b2cc4ff54b6", "lat": 38.9032215, "is_reserved": 0, "fusion_lat": 0.0, "bike_id": "71fde130191cac0d45748b2cc4ff54b6", "type": "electric_scooter", "is_disabled": 0, "fusion_lon": 0.0}, {"rental_uris": {"android": "https://dc.lft.to/lastmile_qr_scan", "ios": "https://dc.lft.to/lastmile_qr_scan"}, "lon": -76.94855183333334, "name": "bc68e6911d608a0714e18edaf8ee5e6d", "lat": 38.88301933333334, "is_reserved": 0, "fusion_lat": 0.0, "bike_id": "bc68e6911d608a0714e18edaf8ee5e6d", "type": "electric_scooter", "is_disabled": 0, "fusion_lon": 0.0}, {"rental_uris": {"android": "https://dc.lft.to/lastmile_qr_scan", "ios": "https://dc.lft.to/lastmile_qr_scan"}, "lon": -77.04161116666667, "name": "3d54d66df28bf7d13e2a98362ffeefac", "lat": 38.892335333333335, "is_reserved": 0, "fusion_lat": 0.0, "bike_id": "3d54d66df28bf7d13e2a98362ffeefac", "type": "electric_scooter", "is_disabled": 0, "fusion_lon": 0.0}, {"rental_uris": {"android": "https://dc.lft.to/lastmile_qr_scan", "ios": "https://dc.lft.to/lastmile_qr_scan"}, "lon": -76.9900205, "name": "2e894b3a64101b5e8b1ee88a78027196", "lat": 38.865036333333336, "is_reserved": 0, "fusion_lat": 0.0, "bike_id": "2e894b3a64101b5e8b1ee88a78027196", "type": "electric_scooter", "is_disabled": 0, "fusion_lon": 0.0}, {"rental_uris": {"android": "https://dc.lft.to/lastmile_qr_scan", "ios": "https://dc.lft.to/lastmile_qr_scan"}, "lon": -77.03206766666666, "name": "69252f51c78fe4167d5355021fe020b0", "lat": 38.903583833333336, "is_reserved": 0, "fusion_lat": 0.0, "bike_id": "69252f51c78fe4167d5355021fe020b0", "type": "electric_scooter", "is_disabled": 0, "fusion_lon": 0.0}, {"rental_uris": {"android": "https://dc.lft.to/lastmile_qr_scan", "ios": "https://dc.lft.to/lastmile_qr_scan"}, "lon": -77.0218305, "name": "ab6dead275424c5d8af3155c1dd69842", "lat": 38.91566133333333, "is_reserved": 0, "fusion_lat": 0.0, "bike_id": "ab6dead275424c5d8af3155c1dd69842", "type": "electric_scooter", "is_disabled": 0, "fusion_lon": 0.0}, {"rental_uris": {"android": "https://dc.lft.to/lastmile_qr_scan", "ios": "https://dc.lft.to/lastmile_qr_scan"}, "lon": -77.03286633333333, "name": "876a5eeeacdef48f02f82d35f43c7af2", "lat": 38.93691, "is_reserved": 0, "fusion_lat": 0.0, "bike_id": "876a5eeeacdef48f02f82d35f43c7af2", "type": "electric_scooter", "is_disabled": 0, "fusion_lon": 0.0}, {"rental_uris": {"android": "https://dc.lft.to/lastmile_qr_scan", "ios": "https://dc.lft.to/lastmile_qr_scan"}, "lon": -76.951548, "name": "835895baae4defe2d3d03255f47bfa5a", "lat": 38.8852235, "is_reserved": 0, "fusion_lat": 0.0, "bike_id": "835895baae4defe2d3d03255f47bfa5a", "type": "electric_bike", "is_disabled": 0, "fusion_lon": 0.0}, {"rental_uris": {"android": "https://dc.lft.to/lastmile_qr_scan", "ios": "https://dc.lft.to/lastmile_qr_scan"}, "lon": -76.947787, "name": "42e9ca89c1bdd1d8e9ea20748265011b", "lat": 38.89610166666667, "is_reserved": 0, "fusion_lat": 0.0, "bike_id": "42e9ca89c1bdd1d8e9ea20748265011b", "type": "electric_scooter", "is_disabled": 0, "fusion_lon": 0.0}, {"rental_uris": {"android": "https://dc.lft.to/lastmile_qr_scan", "ios": "https://dc.lft.to/lastmile_qr_scan"}, "lon": -77.046977, "name": "103b2403713171c4433b2c67775dd23d", "lat": 38.920984, "is_reserved": 0, "fusion_lat": 0.0, "bike_id": "103b2403713171c4433b2c67775dd23d", "type": "electric_scooter", "is_disabled": 0, "fusion_lon": 0.0}, {"rental_uris": {"android": "https://dc.lft.to/lastmile_qr_scan", "ios": "https://dc.lft.to/lastmile_qr_scan"}, "lon": -77.03193733333333, "name": "f04daa995bfd27f25dd8a42e7d46aeca", "lat": 38.892355, "is_reserved": 0, "fusion_lat": 0.0, "bike_id": "f04daa995bfd27f25dd8a42e7d46aeca", "type": "electric_scooter", "is_disabled": 0, "fusion_lon": 0.0}, {"rental_uris": {"android": "https://dc.lft.to/lastmile_qr_scan", "ios": "https://dc.lft.to/lastmile_qr_scan"}, "lon": -77.03172416666666, "name": "4ddaf04fffc0c872f4334b2ceefba96d", "lat": 38.9141935, "is_reserved": 0, "fusion_lat": 0.0, "bike_id": "4ddaf04fffc0c872f4334b2ceefba96d", "type": "electric_scooter", "is_disabled": 0, "fusion_lon": 0.0}, {"rental_uris": {"android": "https://dc.lft.to/lastmile_qr_scan", "ios": "https://dc.lft.to/lastmile_qr_scan"}, "lon": -77.02784416666667, "name": "141ce48140ad68587bc8a64df8900354", "lat": 38.9170585, "is_reserved": 0, "fusion_lat": 0.0, "bike_id": "141ce48140ad68587bc8a64df8900354", "type": "electric_scooter", "is_disabled": 0, "fusion_lon": 0.0}, {"rental_uris": {"android": "https://dc.lft.to/lastmile_qr_scan", "ios": "https://dc.lft.to/lastmile_qr_scan"}, "lon": -76.948915, "name": "3a3e2d2acbebb198c9e893e24b53fae2", "lat": 38.8953375, "is_reserved": 0, "fusion_lat": 0.0, "bike_id": "3a3e2d2acbebb198c9e893e24b53fae2", "type": "electric_scooter", "is_disabled": 0, "fusion_lon": 0.0}, {"rental_uris": {"android": "https://dc.lft.to/lastmile_qr_scan", "ios": "https://dc.lft.to/lastmile_qr_scan"}, "lon": -76.93399716666667, "name": "fe23d01ae9458f2b6507605cdf872a4a", "lat": 38.89898866666667, "is_reserved": 0, "fusion_lat": 0.0, "bike_id": "fe23d01ae9458f2b6507605cdf872a4a", "type": "electric_scooter", "is_disabled": 0, "fusion_lon": 0.0}, {"rental_uris": {"android": "https://dc.lft.to/lastmile_qr_scan", "ios": "https://dc.lft.to/lastmile_qr_scan"}, "lon": -77.01137133333333, "name": "f2a47ec33ada7d71b5e0e31a81381f9e", "lat": 38.906346166666665, "is_reserved": 0, "fusion_lat": 0.0, "bike_id": "f2a47ec33ada7d71b5e0e31a81381f9e", "type": "electric_scooter", "is_disabled": 0, "fusion_lon": 0.0}, {"rental_uris": {"android": "https://dc.lft.to/lastmile_qr_scan", "ios": "https://dc.lft.to/lastmile_qr_scan"}, "lon": -76.98696416666667, "name": "b9a3564c676d4be51fc632cd808ed74d", "lat": 38.90013183333333, "is_reserved": 0, "fusion_lat": 0.0, "bike_id": "b9a3564c676d4be51fc632cd808ed74d", "type": "electric_scooter", "is_disabled": 0, "fusion_lon": 0.0}, {"rental_uris": {"android": "https://dc.lft.to/lastmile_qr_scan", "ios": "https://dc.lft.to/lastmile_qr_scan"}, "lon": -77.0315575, "name": "9ed4abfafa3910e5489e9090c2cb93ad", "lat": 38.916994333333335, "is_reserved": 0, "fusion_lat": 0.0, "bike_id": "9ed4abfafa3910e5489e9090c2cb93ad", "type": "electric_scooter", "is_disabled": 0, "fusion_lon": 0.0}, {"rental_uris": {"android": "https://dc.lft.to/lastmile_qr_scan", "ios": "https://dc.lft.to/lastmile_qr_scan"}, "lon": -77.02243416666667, "name": "101f22e35e0ced8991aa32af8eda0598", "lat": 38.9228895, "is_reserved": 0, "fusion_lat": 0.0, "bike_id": "101f22e35e0ced8991aa32af8eda0598", "type": "electric_scooter", "is_disabled": 0, "fusion_lon": 0.0}, {"rental_uris": {"android": "https://dc.lft.to/lastmile_qr_scan", "ios": "https://dc.lft.to/lastmile_qr_scan"}, "lon": -77.02414283333333, "name": "91097ab6b94cca1b4bd65467f11755eb", "lat": 38.93097183333333, "is_reserved": 0, "fusion_lat": 0.0, "bike_id": "91097ab6b94cca1b4bd65467f11755eb", "type": "electric_scooter", "is_disabled": 0, "fusion_lon": 0.0}, {"rental_uris": {"android": "https://dc.lft.to/lastmile_qr_scan", "ios": "https://dc.lft.to/lastmile_qr_scan"}, "lon": -77.05699583333333, "name": "4707449a5318fb3f26b9cb345d6b0328", "lat": 38.93314866666667, "is_reserved": 0, "fusion_lat": 0.0, "bike_id": "4707449a5318fb3f26b9cb345d6b0328", "type": "electric_scooter", "is_disabled": 0, "fusion_lon": 0.0}, {"rental_uris": {"android": "https://dc.lft.to/lastmile_qr_scan", "ios": "https://dc.lft.to/lastmile_qr_scan"}, "lon": -77.029701, "name": "9ae8ad5a597ac7fb6c87947dac1a8d76", "lat": 38.91722566666667, "is_reserved": 0, "fusion_lat": 0.0, "bike_id": "9ae8ad5a597ac7fb6c87947dac1a8d76", "type": "electric_scooter", "is_disabled": 0, "fusion_lon": 0.0}, {"rental_uris": {"android": "https://dc.lft.to/lastmile_qr_scan", "ios": "https://dc.lft.to/lastmile_qr_scan"}, "lon": -77.033715, "name": "282657d2d91bb07c0361be5062e42258", "lat": 38.9243725, "is_reserved": 0, "fusion_lat": 0.0, "bike_id": "282657d2d91bb07c0361be5062e42258", "type": "electric_scooter", "is_disabled": 0, "fusion_lon": 0.0}, {"rental_uris": {"android": "https://dc.lft.to/lastmile_qr_scan", "ios": "https://dc.lft.to/lastmile_qr_scan"}, "lon": -77.02042466666667, "name": "e79fb1f188a81ac50a8759d4278d96f9", "lat": 38.936546666666665, "is_reserved": 0, "fusion_lat": 0.0, "bike_id": "e79fb1f188a81ac50a8759d4278d96f9", "type": "electric_scooter", "is_disabled": 0, "fusion_lon": 0.0}, {"rental_uris": {"android": "https://dc.lft.to/lastmile_qr_scan", "ios": "https://dc.lft.to/lastmile_qr_scan"}, "lon": -77.02021016666667, "name": "9402169116b8eaac29c5d7e4ef3e1cbb", "lat": 38.88501633333333, "is_reserved": 0, "fusion_lat": 0.0, "bike_id": "9402169116b8eaac29c5d7e4ef3e1cbb", "type": "electric_scooter", "is_disabled": 0, "fusion_lon": 0.0}, {"rental_uris": {"android": "https://dc.lft.to/lastmile_qr_scan", "ios": "https://dc.lft.to/lastmile_qr_scan"}, "lon": -77.076965, "name": "4b8aa6380914f856035dee1c43f00927", "lat": 38.99416983333333, "is_reserved": 0, "fusion_lat": 0.0, "bike_id": "4b8aa6380914f856035dee1c43f00927", "type": "electric_bike", "is_disabled": 0, "fusion_lon": 0.0}, {"rental_uris": {"android": "https://dc.lft.to/lastmile_qr_scan", "ios": "https://dc.lft.to/lastmile_qr_scan"}, "lon": -77.053976, "name": "2cee39be526b48a9697c80a05c90bac1", "lat": 38.80448283333333, "is_reserved": 0, "fusion_lat": 0.0, "bike_id": "2cee39be526b48a9697c80a05c90bac1", "type": "electric_bike", "is_disabled": 0, "fusion_lon": 0.0}, {"rental_uris": {"android": "https://dc.lft.to/lastmile_qr_scan", "ios": "https://dc.lft.to/lastmile_qr_scan"}, "lon": -76.984635, "name": "70e31434eae9c5f8cc65b794929c0711", "lat": 38.90396916666667, "is_reserved": 0, "fusion_lat": 0.0, "bike_id": "70e31434eae9c5f8cc65b794929c0711", "type": "electric_scooter", "is_disabled": 0, "fusion_lon": 0.0}, {"rental_uris": {"android": "https://dc.lft.to/lastmile_qr_scan", "ios": "https://dc.lft.to/lastmile_qr_scan"}, "lon": -77.04162083333334, "name": "7657a3e441a60c58116bf358446cd086", "lat": 38.89846983333333, "is_reserved": 0, "fusion_lat": 0.0, "bike_id": "7657a3e441a60c58116bf358446cd086", "type": "electric_scooter", "is_disabled": 0, "fusion_lon": 0.0}, {"rental_uris": {"android": "https://dc.lft.to/lastmile_qr_scan", "ios": "https://dc.lft.to/lastmile_qr_scan"}, "lon": -77.01495766666666, "name": "ec4d576f80e9fc5761cc9fd9f08c73b5", "lat": 38.92665183333333, "is_reserved": 0, "fusion_lat": 0.0, "bike_id": "ec4d576f80e9fc5761cc9fd9f08c73b5", "type": "electric_scooter", "is_disabled": 0, "fusion_lon": 0.0}, {"rental_uris": {"android": "https://dc.lft.to/lastmile_qr_scan", "ios": "https://dc.lft.to/lastmile_qr_scan"}, "lon": -76.90742383333334, "name": "467e2f828a98a73f802d2cf97b78a176", "lat": 38.896136166666665, "is_reserved": 0, "fusion_lat": 0.0, "bike_id": "467e2f828a98a73f802d2cf97b78a176", "type": "electric_bike", "is_disabled": 0, "fusion_lon": 0.0}, {"rental_uris": {"android": "https://dc.lft.to/lastmile_qr_scan", "ios": "https://dc.lft.to/lastmile_qr_scan"}, "lon": -77.02289483333334, "name": "78f08d784ebaf8b76805e139acb0dfa7", "lat": 38.908647, "is_reserved": 0, "fusion_lat": 0.0, "bike_id": "78f08d784ebaf8b76805e139acb0dfa7", "type": "electric_scooter", "is_disabled": 0, "fusion_lon": 0.0}, {"rental_uris": {"android": "https://dc.lft.to/lastmile_qr_scan", "ios": "https://dc.lft.to/lastmile_qr_scan"}, "lon": -77.04515033333334, "name": "1e46adc89801649e5bf2a122741a2947", "lat": 38.916023, "is_reserved": 0, "fusion_lat": 0.0, "bike_id": "1e46adc89801649e5bf2a122741a2947", "type": "electric_scooter", "is_disabled": 0, "fusion_lon": 0.0}, {"rental_uris": {"android": "https://dc.lft.to/lastmile_qr_scan", "ios": "https://dc.lft.to/lastmile_qr_scan"}, "lon": -77.04011416666667, "name": "0cd07321ce923f020554d694f4918eff", "lat": 38.9219795, "is_reserved": 0, "fusion_lat": 0.0, "bike_id": "0cd07321ce923f020554d694f4918eff", "type": "electric_scooter", "is_disabled": 0, "fusion_lon": 0.0}, {"rental_uris": {"android": "https://dc.lft.to/lastmile_qr_scan", "ios": "https://dc.lft.to/lastmile_qr_scan"}, "lon": -77.021756, "name": "8f2eae2c325ec83eade6d00315d63fcd", "lat": 38.924908333333335, "is_reserved": 0, "fusion_lat": 0.0, "bike_id": "8f2eae2c325ec83eade6d00315d63fcd", "type": "electric_scooter", "is_disabled": 0, "fusion_lon": 0.0}, {"rental_uris": {"android": "https://dc.lft.to/lastmile_qr_scan", "ios": "https://dc.lft.to/lastmile_qr_scan"}, "lon": -76.99622633333334, "name": "89e53f2c2d59ce4bfc86b2902bf1b8a6", "lat": 38.900643, "is_reserved": 0, "fusion_lat": 0.0, "bike_id": "89e53f2c2d59ce4bfc86b2902bf1b8a6", "type": "electric_scooter", "is_disabled": 0, "fusion_lon": 0.0}, {"rental_uris": {"android": "https://dc.lft.to/lastmile_qr_scan", "ios": "https://dc.lft.to/lastmile_qr_scan"}, "lon": -77.0347335, "name": "80c9b4506b6b4329f2908240231b729d", "lat": 38.917016333333336, "is_reserved": 0, "fusion_lat": 0.0, "bike_id": "80c9b4506b6b4329f2908240231b729d", "type": "electric_scooter", "is_disabled": 0, "fusion_lon": 0.0}, {"rental_uris": {"android": "https://dc.lft.to/lastmile_qr_scan", "ios": "https://dc.lft.to/lastmile_qr_scan"}, "lon": -76.932103, "name": "ae79724a7a7a78caaa46a3c122b88e22", "lat": 38.89669083333333, "is_reserved": 0, "fusion_lat": 0.0, "bike_id": "ae79724a7a7a78caaa46a3c122b88e22", "type": "electric_scooter", "is_disabled": 0, "fusion_lon": 0.0}, {"rental_uris": {"android": "https://dc.lft.to/lastmile_qr_scan", "ios": "https://dc.lft.to/lastmile_qr_scan"}, "lon": -77.02323816666667, "name": "52125db6099ec79b96406f3a8bdbbb4d", "lat": 38.90720133333333, "is_reserved": 0, "fusion_lat": 0.0, "bike_id": "52125db6099ec79b96406f3a8bdbbb4d", "type": "electric_scooter", "is_disabled": 0, "fusion_lon": 0.0}, {"rental_uris": {"android": "https://dc.lft.to/lastmile_qr_scan", "ios": "https://dc.lft.to/lastmile_qr_scan"}, "lon": -77.03278733333333, "name": "64d4a4801505325f76e93825c0b17e11", "lat": 38.937549, "is_reserved": 0, "fusion_lat": 0.0, "bike_id": "64d4a4801505325f76e93825c0b17e11", "type": "electric_scooter", "is_disabled": 0, "fusion_lon": 0.0}, {"rental_uris": {"android": "https://dc.lft.to/lastmile_qr_scan", "ios": "https://dc.lft.to/lastmile_qr_scan"}, "lon": -77.04062033333334, "name": "1053c79dba8aaa2d9264287d2111b775", "lat": 38.8960625, "is_reserved": 0, "fusion_lat": 0.0, "bike_id": "1053c79dba8aaa2d9264287d2111b775", "type": "electric_scooter", "is_disabled": 0, "fusion_lon": 0.0}, {"rental_uris": {"android": "https://dc.lft.to/lastmile_qr_scan", "ios": "https://dc.lft.to/lastmile_qr_scan"}, "lon": -77.04734583333334, "name": "9b86a8c9054de0f1e2f038f89bb25df4", "lat": 38.90148533333333, "is_reserved": 0, "fusion_lat": 0.0, "bike_id": "9b86a8c9054de0f1e2f038f89bb25df4", "type": "electric_scooter", "is_disabled": 0, "fusion_lon": 0.0}, {"rental_uris": {"android": "https://dc.lft.to/lastmile_qr_scan", "ios": "https://dc.lft.to/lastmile_qr_scan"}, "lon": -77.0425405, "name": "5656406baa71337cb8ae2353d85c8be7", "lat": 38.9073405, "is_reserved": 0, "fusion_lat": 0.0, "bike_id": "5656406baa71337cb8ae2353d85c8be7", "type": "electric_scooter", "is_disabled": 0, "fusion_lon": 0.0}, {"rental_uris": {"android": "https://dc.lft.to/lastmile_qr_scan", "ios": "https://dc.lft.to/lastmile_qr_scan"}, "lon": -77.02099, "name": "6c993b312a94bc781cf4771b7b0d9dcc", "lat": 38.92997066666667, "is_reserved": 0, "fusion_lat": 0.0, "bike_id": "6c993b312a94bc781cf4771b7b0d9dcc", "type": "electric_scooter", "is_disabled": 0, "fusion_lon": 0.0}, {"rental_uris": {"android": "https://dc.lft.to/lastmile_qr_scan", "ios": "https://dc.lft.to/lastmile_qr_scan"}, "lon": -77.0250935, "name": "424097bd97b73498bedcd84cbf9d4eb9", "lat": 38.918119833333336, "is_reserved": 0, "fusion_lat": 0.0, "bike_id": "424097bd97b73498bedcd84cbf9d4eb9", "type": "electric_scooter", "is_disabled": 0, "fusion_lon": 0.0}, {"rental_uris": {"android": "https://dc.lft.to/lastmile_qr_scan", "ios": "https://dc.lft.to/lastmile_qr_scan"}, "lon": -76.9853585, "name": "de3edd1a271d1fff90335f9498a44ad3", "lat": 38.8997715, "is_reserved": 0, "fusion_lat": 0.0, "bike_id": "de3edd1a271d1fff90335f9498a44ad3", "type": "electric_scooter", "is_disabled": 0, "fusion_lon": 0.0}, {"rental_uris": {"android": "https://dc.lft.to/lastmile_qr_scan", "ios": "https://dc.lft.to/lastmile_qr_scan"}, "lon": -77.03213416666667, "name": "d26e88afcea61d53ed2448d94fbbfef5", "lat": 38.91624316666667, "is_reserved": 0, "fusion_lat": 0.0, "bike_id": "d26e88afcea61d53ed2448d94fbbfef5", "type": "electric_scooter", "is_disabled": 0, "fusion_lon": 0.0}, {"rental_uris": {"android": "https://dc.lft.to/lastmile_qr_scan", "ios": "https://dc.lft.to/lastmile_qr_scan"}, "lon": -77.02067383333333, "name": "92be74c02b5441a8cb64fc627236d821", "lat": 38.894805, "is_reserved": 0, "fusion_lat": 0.0, "bike_id": "92be74c02b5441a8cb64fc627236d821", "type": "electric_scooter", "is_disabled": 0, "fusion_lon": 0.0}, {"rental_uris": {"android": "https://dc.lft.to/lastmile_qr_scan", "ios": "https://dc.lft.to/lastmile_qr_scan"}, "lon": -77.02214966666666, "name": "ac698ba5a870f25f316ebaf3e7937740", "lat": 38.955259, "is_reserved": 0, "fusion_lat": 0.0, "bike_id": "ac698ba5a870f25f316ebaf3e7937740", "type": "electric_bike", "is_disabled": 0, "fusion_lon": 0.0}, {"rental_uris": {"android": "https://dc.lft.to/lastmile_qr_scan", "ios": "https://dc.lft.to/lastmile_qr_scan"}, "lon": -77.00681933333334, "name": "b86694ae2f80766839d3cada1a1f97cf", "lat": 38.8717085, "is_reserved": 0, "fusion_lat": 0.0, "bike_id": "b86694ae2f80766839d3cada1a1f97cf", "type": "electric_scooter", "is_disabled": 0, "fusion_lon": 0.0}, {"rental_uris": {"android": "https://dc.lft.to/lastmile_qr_scan", "ios": "https://dc.lft.to/lastmile_qr_scan"}, "lon": -77.02473533333334, "name": "aaeff65fb8caad7c2517b5226327fc20", "lat": 38.905621, "is_reserved": 0, "fusion_lat": 0.0, "bike_id": "aaeff65fb8caad7c2517b5226327fc20", "type": "electric_scooter", "is_disabled": 0, "fusion_lon": 0.0}, {"rental_uris": {"android": "https://dc.lft.to/lastmile_qr_scan", "ios": "https://dc.lft.to/lastmile_qr_scan"}, "lon": -77.023827, "name": "1f381a6c1fc7807923d82c7a3459ee4c", "lat": 38.92913766666667, "is_reserved": 0, "fusion_lat": 0.0, "bike_id": "1f381a6c1fc7807923d82c7a3459ee4c", "type": "electric_bike", "is_disabled": 0, "fusion_lon": 0.0}, {"rental_uris": {"android": "https://dc.lft.to/lastmile_qr_scan", "ios": "https://dc.lft.to/lastmile_qr_scan"}, "lon": -77.0340735, "name": "78564bc659660f3268edde4456d7aac9", "lat": 38.92271916666667, "is_reserved": 0, "fusion_lat": 0.0, "bike_id": "78564bc659660f3268edde4456d7aac9", "type": "electric_scooter", "is_disabled": 0, "fusion_lon": 0.0}, {"rental_uris": {"android": "https://dc.lft.to/lastmile_qr_scan", "ios": "https://dc.lft.to/lastmile_qr_scan"}, "lon": -77.023752, "name": "2e80858f94d5b5ad2dfb9241474fe84d", "lat": 38.9072195, "is_reserved": 0, "fusion_lat": 0.0, "bike_id": "2e80858f94d5b5ad2dfb9241474fe84d", "type": "electric_scooter", "is_disabled": 0, "fusion_lon": 0.0}, {"rental_uris": {"android": "https://dc.lft.to/lastmile_qr_scan", "ios": "https://dc.lft.to/lastmile_qr_scan"}, "lon": -76.918015, "name": "dfc892a453fc798115af81651b6db84b", "lat": 38.999996833333334, "is_reserved": 0, "fusion_lat": 0.0, "bike_id": "dfc892a453fc798115af81651b6db84b", "type": "electric_bike", "is_disabled": 0, "fusion_lon": 0.0}, {"rental_uris": {"android": "https://dc.lft.to/lastmile_qr_scan", "ios": "https://dc.lft.to/lastmile_qr_scan"}, "lon": -77.03206583333333, "name": "8641a778e708f423ac4241233289765a", "lat": 38.915354666666666, "is_reserved": 0, "fusion_lat": 0.0, "bike_id": "8641a778e708f423ac4241233289765a", "type": "electric_scooter", "is_disabled": 0, "fusion_lon": 0.0}, {"rental_uris": {"android": "https://dc.lft.to/lastmile_qr_scan", "ios": "https://dc.lft.to/lastmile_qr_scan"}, "lon": -76.9397235, "name": "2cd45120b9bfc468a5d932c46bc29a41", "lat": 38.893433, "is_reserved": 0, "fusion_lat": 0.0, "bike_id": "2cd45120b9bfc468a5d932c46bc29a41", "type": "electric_scooter", "is_disabled": 0, "fusion_lon": 0.0}, {"rental_uris": {"android": "https://dc.lft.to/lastmile_qr_scan", "ios": "https://dc.lft.to/lastmile_qr_scan"}, "lon": -77.02170533333333, "name": "d994595b5e1d97d409067abf79fe16ea", "lat": 38.899123833333334, "is_reserved": 0, "fusion_lat": 0.0, "bike_id": "d994595b5e1d97d409067abf79fe16ea", "type": "electric_scooter", "is_disabled": 0, "fusion_lon": 0.0}, {"rental_uris": {"android": "https://dc.lft.to/lastmile_qr_scan", "ios": "https://dc.lft.to/lastmile_qr_scan"}, "lon": -77.00515466666667, "name": "04defadf1b11144cb95ff9d3416aeed1", "lat": 38.874697, "is_reserved": 0, "fusion_lat": 0.0, "bike_id": "04defadf1b11144cb95ff9d3416aeed1", "type": "electric_scooter", "is_disabled": 0, "fusion_lon": 0.0}, {"rental_uris": {"android": "https://dc.lft.to/lastmile_qr_scan", "ios": "https://dc.lft.to/lastmile_qr_scan"}, "lon": -77.06407266666666, "name": "6e336d3a373a388514bd13cb25b8b42c", "lat": 38.94441416666667, "is_reserved": 0, "fusion_lat": 0.0, "bike_id": "6e336d3a373a388514bd13cb25b8b42c", "type": "electric_scooter", "is_disabled": 0, "fusion_lon": 0.0}, {"rental_uris": {"android": "https://dc.lft.to/lastmile_qr_scan", "ios": "https://dc.lft.to/lastmile_qr_scan"}, "lon": -77.03879266666667, "name": "39cfd6b316078b8646e47cc679bfbf78", "lat": 38.932748333333336, "is_reserved": 0, "fusion_lat": 0.0, "bike_id": "39cfd6b316078b8646e47cc679bfbf78", "type": "electric_scooter", "is_disabled": 0, "fusion_lon": 0.0}, {"rental_uris": {"android": "https://dc.lft.to/lastmile_qr_scan", "ios": "https://dc.lft.to/lastmile_qr_scan"}, "lon": -77.0204455, "name": "8ddd3ad2cbd92b2fbffd531cba0566f8", "lat": 38.91555, "is_reserved": 0, "fusion_lat": 0.0, "bike_id": "8ddd3ad2cbd92b2fbffd531cba0566f8", "type": "electric_scooter", "is_disabled": 0, "fusion_lon": 0.0}, {"rental_uris": {"android": "https://dc.lft.to/lastmile_qr_scan", "ios": "https://dc.lft.to/lastmile_qr_scan"}, "lon": -77.00697616666666, "name": "6d5890583c7a666a6a7685b6e0991b55", "lat": 38.91739116666667, "is_reserved": 0, "fusion_lat": 0.0, "bike_id": "6d5890583c7a666a6a7685b6e0991b55", "type": "electric_scooter", "is_disabled": 0, "fusion_lon": 0.0}, {"rental_uris": {"android": "https://dc.lft.to/lastmile_qr_scan", "ios": "https://dc.lft.to/lastmile_qr_scan"}, "lon": -77.015029, "name": "083f9a6207beb091124faf7f56bf43dd", "lat": 38.91323283333333, "is_reserved": 0, "fusion_lat": 0.0, "bike_id": "083f9a6207beb091124faf7f56bf43dd", "type": "electric_scooter", "is_disabled": 0, "fusion_lon": 0.0}, {"rental_uris": {"android": "https://dc.lft.to/lastmile_qr_scan", "ios": "https://dc.lft.to/lastmile_qr_scan"}, "lon": -76.98724566666667, "name": "01aa83213ea853b64691e111c16d9d64", "lat": 38.855951833333336, "is_reserved": 0, "fusion_lat": 0.0, "bike_id": "01aa83213ea853b64691e111c16d9d64", "type": "electric_scooter", "is_disabled": 0, "fusion_lon": 0.0}, {"rental_uris": {"android": "https://dc.lft.to/lastmile_qr_scan", "ios": "https://dc.lft.to/lastmile_qr_scan"}, "lon": -77.0204005, "name": "9e7a45a9af4f07e6321c48bc64b4de5b", "lat": 38.94130033333333, "is_reserved": 0, "fusion_lat": 0.0, "bike_id": "9e7a45a9af4f07e6321c48bc64b4de5b", "type": "electric_bike", "is_disabled": 0, "fusion_lon": 0.0}, {"rental_uris": {"android": "https://dc.lft.to/lastmile_qr_scan", "ios": "https://dc.lft.to/lastmile_qr_scan"}, "lon": -77.00597016666667, "name": "29630c7b4488252efb052f4ea43d0a53", "lat": 38.87563933333333, "is_reserved": 0, "fusion_lat": 0.0, "bike_id": "29630c7b4488252efb052f4ea43d0a53", "type": "electric_scooter", "is_disabled": 0, "fusion_lon": 0.0}, {"rental_uris": {"android": "https://dc.lft.to/lastmile_qr_scan", "ios": "https://dc.lft.to/lastmile_qr_scan"}, "lon": -77.03496816666667, "name": "cbd0d7749a6238ff952de6911dbad130", "lat": 38.921557, "is_reserved": 0, "fusion_lat": 0.0, "bike_id": "cbd0d7749a6238ff952de6911dbad130", "type": "electric_scooter", "is_disabled": 0, "fusion_lon": 0.0}, {"rental_uris": {"android": "https://dc.lft.to/lastmile_qr_scan", "ios": "https://dc.lft.to/lastmile_qr_scan"}, "lon": -77.03285266666667, "name": "530999c1d84ebd842e9b8943d5e6a023", "lat": 38.92040033333333, "is_reserved": 0, "fusion_lat": 0.0, "bike_id": "530999c1d84ebd842e9b8943d5e6a023", "type": "electric_scooter", "is_disabled": 0, "fusion_lon": 0.0}, {"rental_uris": {"android": "https://dc.lft.to/lastmile_qr_scan", "ios": "https://dc.lft.to/lastmile_qr_scan"}, "lon": -77.0228875, "name": "0c4bb9e5160e8a4c87f19b4c229738cc", "lat": 38.92723266666667, "is_reserved": 0, "fusion_lat": 0.0, "bike_id": "0c4bb9e5160e8a4c87f19b4c229738cc", "type": "electric_scooter", "is_disabled": 0, "fusion_lon": 0.0}, {"rental_uris": {"android": "https://dc.lft.to/lastmile_qr_scan", "ios": "https://dc.lft.to/lastmile_qr_scan"}, "lon": -77.01370533333333, "name": "3e3e1663ffc580cd09189fdc6fd2a5f6", "lat": 38.887080166666664, "is_reserved": 0, "fusion_lat": 0.0, "bike_id": "3e3e1663ffc580cd09189fdc6fd2a5f6", "type": "electric_scooter", "is_disabled": 0, "fusion_lon": 0.0}, {"rental_uris": {"android": "https://dc.lft.to/lastmile_qr_scan", "ios": "https://dc.lft.to/lastmile_qr_scan"}, "lon": -77.02958383333333, "name": "94931421087a675752772f6fab8ce23d", "lat": 38.908698, "is_reserved": 0, "fusion_lat": 0.0, "bike_id": "94931421087a675752772f6fab8ce23d", "type": "electric_scooter", "is_disabled": 0, "fusion_lon": 0.0}, {"rental_uris": {"android": "https://dc.lft.to/lastmile_qr_scan", "ios": "https://dc.lft.to/lastmile_qr_scan"}, "lon": -76.969126, "name": "48124f7b7a5476dbddab09de69e8b02b", "lat": 38.846134166666666, "is_reserved": 0, "fusion_lat": 0.0, "bike_id": "48124f7b7a5476dbddab09de69e8b02b", "type": "electric_bike", "is_disabled": 0, "fusion_lon": 0.0}, {"rental_uris": {"android": "https://dc.lft.to/lastmile_qr_scan", "ios": "https://dc.lft.to/lastmile_qr_scan"}, "lon": -77.03788866666666, "name": "655677e92fba18462bca68f76a569191", "lat": 38.9359145, "is_reserved": 0, "fusion_lat": 0.0, "bike_id": "655677e92fba18462bca68f76a569191", "type": "electric_scooter", "is_disabled": 0, "fusion_lon": 0.0}, {"rental_uris": {"android": "https://dc.lft.to/lastmile_qr_scan", "ios": "https://dc.lft.to/lastmile_qr_scan"}, "lon": -77.0363585, "name": "6d34e75ca0a1a149ddbcf8e2be302320", "lat": 38.93068266666667, "is_reserved": 0, "fusion_lat": 0.0, "bike_id": "6d34e75ca0a1a149ddbcf8e2be302320", "type": "electric_scooter", "is_disabled": 0, "fusion_lon": 0.0}, {"rental_uris": {"android": "https://dc.lft.to/lastmile_qr_scan", "ios": "https://dc.lft.to/lastmile_qr_scan"}, "lon": -77.022987, "name": "626288a7843eaa622ab14f94eeab44f9", "lat": 38.91224016666666, "is_reserved": 0, "fusion_lat": 0.0, "bike_id": "626288a7843eaa622ab14f94eeab44f9", "type": "electric_scooter", "is_disabled": 0, "fusion_lon": 0.0}, {"rental_uris": {"android": "https://dc.lft.to/lastmile_qr_scan", "ios": "https://dc.lft.to/lastmile_qr_scan"}, "lon": -77.03710266666667, "name": "9de5c5ee93a153bb51e04edb94ff96ae", "lat": 38.902418833333336, "is_reserved": 0, "fusion_lat": 0.0, "bike_id": "9de5c5ee93a153bb51e04edb94ff96ae", "type": "electric_scooter", "is_disabled": 0, "fusion_lon": 0.0}, {"rental_uris": {"android": "https://dc.lft.to/lastmile_qr_scan", "ios": "https://dc.lft.to/lastmile_qr_scan"}, "lon": -76.983391, "name": "fc4202f914960ca5837e1354cc6bda0c", "lat": 38.865740833333334, "is_reserved": 0, "fusion_lat": 0.0, "bike_id": "fc4202f914960ca5837e1354cc6bda0c", "type": "electric_scooter", "is_disabled": 0, "fusion_lon": 0.0}, {"rental_uris": {"android": "https://dc.lft.to/lastmile_qr_scan", "ios": "https://dc.lft.to/lastmile_qr_scan"}, "lon": -76.99977016666666, "name": "4dfbc4a69f43f86a9cba4f7a16e84174", "lat": 38.8748675, "is_reserved": 0, "fusion_lat": 0.0, "bike_id": "4dfbc4a69f43f86a9cba4f7a16e84174", "type": "electric_scooter", "is_disabled": 0, "fusion_lon": 0.0}, {"rental_uris": {"android": "https://dc.lft.to/lastmile_qr_scan", "ios": "https://dc.lft.to/lastmile_qr_scan"}, "lon": -77.02608483333333, "name": "c23f0ed3f5141ab5866381e12a0a113b", "lat": 38.928498, "is_reserved": 0, "fusion_lat": 0.0, "bike_id": "c23f0ed3f5141ab5866381e12a0a113b", "type": "electric_bike", "is_disabled": 0, "fusion_lon": 0.0}, {"rental_uris": {"android": "https://dc.lft.to/lastmile_qr_scan", "ios": "https://dc.lft.to/lastmile_qr_scan"}, "lon": -77.03261016666667, "name": "2f3a07a6b63619de64c38c7f36cf825a", "lat": 38.939822, "is_reserved": 0, "fusion_lat": 0.0, "bike_id": "2f3a07a6b63619de64c38c7f36cf825a", "type": "electric_scooter", "is_disabled": 0, "fusion_lon": 0.0}, {"rental_uris": {"android": "https://dc.lft.to/lastmile_qr_scan", "ios": "https://dc.lft.to/lastmile_qr_scan"}, "lon": -77.02713, "name": "82cdaa4fae76ff8db00c9547c57b1f08", "lat": 38.92885066666667, "is_reserved": 0, "fusion_lat": 0.0, "bike_id": "82cdaa4fae76ff8db00c9547c57b1f08", "type": "electric_scooter", "is_disabled": 0, "fusion_lon": 0.0}, {"rental_uris": {"android": "https://dc.lft.to/lastmile_qr_scan", "ios": "https://dc.lft.to/lastmile_qr_scan"}, "lon": -77.02407333333333, "name": "a78d5503fb331ae12c39fc01bc8824ea", "lat": 38.9117695, "is_reserved": 0, "fusion_lat": 0.0, "bike_id": "a78d5503fb331ae12c39fc01bc8824ea", "type": "electric_scooter", "is_disabled": 0, "fusion_lon": 0.0}, {"rental_uris": {"android": "https://dc.lft.to/lastmile_qr_scan", "ios": "https://dc.lft.to/lastmile_qr_scan"}, "lon": -77.007081, "name": "77b8e5f8bcf770b84c1259a1da3e1e77", "lat": 38.8848805, "is_reserved": 0, "fusion_lat": 0.0, "bike_id": "77b8e5f8bcf770b84c1259a1da3e1e77", "type": "electric_scooter", "is_disabled": 0, "fusion_lon": 0.0}, {"rental_uris": {"android": "https://dc.lft.to/lastmile_qr_scan", "ios": "https://dc.lft.to/lastmile_qr_scan"}, "lon": -77.01381466666666, "name": "b043463acaf35b2d636891507bb108bd", "lat": 38.95232166666667, "is_reserved": 0, "fusion_lat": 0.0, "bike_id": "b043463acaf35b2d636891507bb108bd", "type": "electric_scooter", "is_disabled": 0, "fusion_lon": 0.0}, {"rental_uris": {"android": "https://dc.lft.to/lastmile_qr_scan", "ios": "https://dc.lft.to/lastmile_qr_scan"}, "lon": -77.00722683333333, "name": "5039294934093e71822318f90ada64d6", "lat": 38.9459615, "is_reserved": 0, "fusion_lat": 0.0, "bike_id": "5039294934093e71822318f90ada64d6", "type": "electric_bike", "is_disabled": 0, "fusion_lon": 0.0}, {"rental_uris": {"android": "https://dc.lft.to/lastmile_qr_scan", "ios": "https://dc.lft.to/lastmile_qr_scan"}, "lon": -77.03763916666666, "name": "079bcaa1489a37b16f45068f60cc7ea4", "lat": 38.943515166666664, "is_reserved": 0, "fusion_lat": 0.0, "bike_id": "079bcaa1489a37b16f45068f60cc7ea4", "type": "electric_scooter", "is_disabled": 0, "fusion_lon": 0.0}, {"rental_uris": {"android": "https://dc.lft.to/lastmile_qr_scan", "ios": "https://dc.lft.to/lastmile_qr_scan"}, "lon": -76.98281766666666, "name": "3f84ad84cfe02cde56e6ea87dc772c90", "lat": 38.8675745, "is_reserved": 0, "fusion_lat": 0.0, "bike_id": "3f84ad84cfe02cde56e6ea87dc772c90", "type": "electric_scooter", "is_disabled": 0, "fusion_lon": 0.0}, {"rental_uris": {"android": "https://dc.lft.to/lastmile_qr_scan", "ios": "https://dc.lft.to/lastmile_qr_scan"}, "lon": -77.01222016666667, "name": "8273c17fc0c965fc766d2a4efabf5174", "lat": 38.925999833333336, "is_reserved": 0, "fusion_lat": 0.0, "bike_id": "8273c17fc0c965fc766d2a4efabf5174", "type": "electric_scooter", "is_disabled": 0, "fusion_lon": 0.0}, {"rental_uris": {"android": "https://dc.lft.to/lastmile_qr_scan", "ios": "https://dc.lft.to/lastmile_qr_scan"}, "lon": -77.051973, "name": "2a5daef3b3d6a36fab68422b9a7be528", "lat": 38.924656666666664, "is_reserved": 0, "fusion_lat": 0.0, "bike_id": "2a5daef3b3d6a36fab68422b9a7be528", "type": "electric_scooter", "is_disabled": 0, "fusion_lon": 0.0}, {"rental_uris": {"android": "https://dc.lft.to/lastmile_qr_scan", "ios": "https://dc.lft.to/lastmile_qr_scan"}, "lon": -77.02814283333333, "name": "a508b9a6cb35057c8f3ffc42632a01a8", "lat": 38.92572116666667, "is_reserved": 0, "fusion_lat": 0.0, "bike_id": "a508b9a6cb35057c8f3ffc42632a01a8", "type": "electric_scooter", "is_disabled": 0, "fusion_lon": 0.0}, {"rental_uris": {"android": "https://dc.lft.to/lastmile_qr_scan", "ios": "https://dc.lft.to/lastmile_qr_scan"}, "lon": -77.02708666666666, "name": "4566bc6bf6338714b0eb255335623892", "lat": 38.881329666666666, "is_reserved": 0, "fusion_lat": 0.0, "bike_id": "4566bc6bf6338714b0eb255335623892", "type": "electric_scooter", "is_disabled": 0, "fusion_lon": 0.0}, {"rental_uris": {"android": "https://dc.lft.to/lastmile_qr_scan", "ios": "https://dc.lft.to/lastmile_qr_scan"}, "lon": -77.038421, "name": "ee82d03f9bfad23ae1a88732b1bb4773", "lat": 38.908748833333334, "is_reserved": 0, "fusion_lat": 0.0, "bike_id": "ee82d03f9bfad23ae1a88732b1bb4773", "type": "electric_scooter", "is_disabled": 0, "fusion_lon": 0.0}, {"rental_uris": {"android": "https://dc.lft.to/lastmile_qr_scan", "ios": "https://dc.lft.to/lastmile_qr_scan"}, "lon": -77.03281716666666, "name": "94e5b12d763d21ca1d81716ec7c4a4b0", "lat": 38.9216445, "is_reserved": 0, "fusion_lat": 0.0, "bike_id": "94e5b12d763d21ca1d81716ec7c4a4b0", "type": "electric_scooter", "is_disabled": 0, "fusion_lon": 0.0}, {"rental_uris": {"android": "https://dc.lft.to/lastmile_qr_scan", "ios": "https://dc.lft.to/lastmile_qr_scan"}, "lon": -76.99967466666666, "name": "f9676346cbfb3b74da0adcaca5410dfd", "lat": 38.874220333333334, "is_reserved": 0, "fusion_lat": 0.0, "bike_id": "f9676346cbfb3b74da0adcaca5410dfd", "type": "electric_scooter", "is_disabled": 0, "fusion_lon": 0.0}, {"rental_uris": {"android": "https://dc.lft.to/lastmile_qr_scan", "ios": "https://dc.lft.to/lastmile_qr_scan"}, "lon": -76.9725285, "name": "5654d1342471b82c06832c50d57e2fe0", "lat": 38.95741266666667, "is_reserved": 0, "fusion_lat": 0.0, "bike_id": "5654d1342471b82c06832c50d57e2fe0", "type": "electric_bike", "is_disabled": 0, "fusion_lon": 0.0}, {"rental_uris": {"android": "https://dc.lft.to/lastmile_qr_scan", "ios": "https://dc.lft.to/lastmile_qr_scan"}, "lon": -77.0006795, "name": "9e7c1b78bb588e4b63db5e1fb44efa2d", "lat": 38.925518333333336, "is_reserved": 0, "fusion_lat": 0.0, "bike_id": "9e7c1b78bb588e4b63db5e1fb44efa2d", "type": "electric_scooter", "is_disabled": 0, "fusion_lon": 0.0}, {"rental_uris": {"android": "https://dc.lft.to/lastmile_qr_scan", "ios": "https://dc.lft.to/lastmile_qr_scan"}, "lon": -76.97253983333333, "name": "8b06ea584607a55dc8325933771107e3", "lat": 38.957463833333335, "is_reserved": 0, "fusion_lat": 0.0, "bike_id": "8b06ea584607a55dc8325933771107e3", "type": "electric_bike", "is_disabled": 0, "fusion_lon": 0.0}, {"rental_uris": {"android": "https://dc.lft.to/lastmile_qr_scan", "ios": "https://dc.lft.to/lastmile_qr_scan"}, "lon": -77.0262385, "name": "ab1c291e5147136b47d984529baf1643", "lat": 38.894646, "is_reserved": 0, "fusion_lat": 0.0, "bike_id": "ab1c291e5147136b47d984529baf1643", "type": "electric_scooter", "is_disabled": 0, "fusion_lon": 0.0}, {"rental_uris": {"android": "https://dc.lft.to/lastmile_qr_scan", "ios": "https://dc.lft.to/lastmile_qr_scan"}, "lon": -77.03849616666666, "name": "c98e7aa59b1a75a40b89422d572c03ca", "lat": 38.91774916666667, "is_reserved": 0, "fusion_lat": 0.0, "bike_id": "c98e7aa59b1a75a40b89422d572c03ca", "type": "electric_scooter", "is_disabled": 0, "fusion_lon": 0.0}, {"rental_uris": {"android": "https://dc.lft.to/lastmile_qr_scan", "ios": "https://dc.lft.to/lastmile_qr_scan"}, "lon": -76.99832283333333, "name": "93d9f96c86370f709a01ef5ca18719f0", "lat": 38.90379733333333, "is_reserved": 0, "fusion_lat": 0.0, "bike_id": "93d9f96c86370f709a01ef5ca18719f0", "type": "electric_scooter", "is_disabled": 0, "fusion_lon": 0.0}, {"rental_uris": {"android": "https://dc.lft.to/lastmile_qr_scan", "ios": "https://dc.lft.to/lastmile_qr_scan"}, "lon": -77.03174883333334, "name": "c5d51e7759700a1b4cf8b6327803efc0", "lat": 38.920620166666666, "is_reserved": 0, "fusion_lat": 0.0, "bike_id": "c5d51e7759700a1b4cf8b6327803efc0", "type": "electric_scooter", "is_disabled": 0, "fusion_lon": 0.0}, {"rental_uris": {"android": "https://dc.lft.to/lastmile_qr_scan", "ios": "https://dc.lft.to/lastmile_qr_scan"}, "lon": -77.09267266666667, "name": "b220a628acce8cb567f38660daa5150d", "lat": 38.9413485, "is_reserved": 0, "fusion_lat": 0.0, "bike_id": "b220a628acce8cb567f38660daa5150d", "type": "electric_scooter", "is_disabled": 0, "fusion_lon": 0.0}, {"rental_uris": {"android": "https://dc.lft.to/lastmile_qr_scan", "ios": "https://dc.lft.to/lastmile_qr_scan"}, "lon": -77.01069016666666, "name": "82c472cc723bf4367943c8d98e192a75", "lat": 38.90960483333333, "is_reserved": 0, "fusion_lat": 0.0, "bike_id": "82c472cc723bf4367943c8d98e192a75", "type": "electric_scooter", "is_disabled": 0, "fusion_lon": 0.0}, {"rental_uris": {"android": "https://dc.lft.to/lastmile_qr_scan", "ios": "https://dc.lft.to/lastmile_qr_scan"}, "lon": -77.01482866666667, "name": "750236f7d52ab3b50ee2f8537c52036b", "lat": 38.914096, "is_reserved": 0, "fusion_lat": 0.0, "bike_id": "750236f7d52ab3b50ee2f8537c52036b", "type": "electric_scooter", "is_disabled": 0, "fusion_lon": 0.0}, {"rental_uris": {"android": "https://dc.lft.to/lastmile_qr_scan", "ios": "https://dc.lft.to/lastmile_qr_scan"}, "lon": -76.99246083333334, "name": "c018f56eff6bc60b51e24fa52350d6f5", "lat": 38.79466933333333, "is_reserved": 0, "fusion_lat": 0.0, "bike_id": "c018f56eff6bc60b51e24fa52350d6f5", "type": "electric_bike", "is_disabled": 0, "fusion_lon": 0.0}, {"rental_uris": {"android": "https://dc.lft.to/lastmile_qr_scan", "ios": "https://dc.lft.to/lastmile_qr_scan"}, "lon": -76.985425, "name": "0b516c12d68e22d5697e66838aa2136f", "lat": 38.86688483333333, "is_reserved": 0, "fusion_lat": 0.0, "bike_id": "0b516c12d68e22d5697e66838aa2136f", "type": "electric_scooter", "is_disabled": 0, "fusion_lon": 0.0}, {"rental_uris": {"android": "https://dc.lft.to/lastmile_qr_scan", "ios": "https://dc.lft.to/lastmile_qr_scan"}, "lon": -77.0333815, "name": "766f419e3a5506982f6cf7513d4f64d8", "lat": 38.9351005, "is_reserved": 0, "fusion_lat": 0.0, "bike_id": "766f419e3a5506982f6cf7513d4f64d8", "type": "electric_scooter", "is_disabled": 0, "fusion_lon": 0.0}, {"rental_uris": {"android": "https://dc.lft.to/lastmile_qr_scan", "ios": "https://dc.lft.to/lastmile_qr_scan"}, "lon": -77.00924566666667, "name": "9c2861b1d499d8b842fa16756c69a118", "lat": 38.896006666666665, "is_reserved": 0, "fusion_lat": 0.0, "bike_id": "9c2861b1d499d8b842fa16756c69a118", "type": "electric_scooter", "is_disabled": 0, "fusion_lon": 0.0}, {"rental_uris": {"android": "https://dc.lft.to/lastmile_qr_scan", "ios": "https://dc.lft.to/lastmile_qr_scan"}, "lon": -77.031264, "name": "beb9c60a5b0b345fd012b2878d0698e1", "lat": 38.91709816666667, "is_reserved": 0, "fusion_lat": 0.0, "bike_id": "beb9c60a5b0b345fd012b2878d0698e1", "type": "electric_scooter", "is_disabled": 0, "fusion_lon": 0.0}, {"rental_uris": {"android": "https://dc.lft.to/lastmile_qr_scan", "ios": "https://dc.lft.to/lastmile_qr_scan"}, "lon": -77.00595416666667, "name": "db149376178bd9b87f9b2e28af4d4148", "lat": 38.905510166666666, "is_reserved": 0, "fusion_lat": 0.0, "bike_id": "db149376178bd9b87f9b2e28af4d4148", "type": "electric_scooter", "is_disabled": 0, "fusion_lon": 0.0}, {"rental_uris": {"android": "https://dc.lft.to/lastmile_qr_scan", "ios": "https://dc.lft.to/lastmile_qr_scan"}, "lon": -77.0769835, "name": "a5005b22f25a3575d5b102dd57f5a824", "lat": 38.943811333333336, "is_reserved": 0, "fusion_lat": 0.0, "bike_id": "a5005b22f25a3575d5b102dd57f5a824", "type": "electric_scooter", "is_disabled": 0, "fusion_lon": 0.0}, {"rental_uris": {"android": "https://dc.lft.to/lastmile_qr_scan", "ios": "https://dc.lft.to/lastmile_qr_scan"}, "lon": -77.01425916666666, "name": "8155cdbdaa05657515fee2c829ce9ebd", "lat": 38.97218066666667, "is_reserved": 0, "fusion_lat": 0.0, "bike_id": "8155cdbdaa05657515fee2c829ce9ebd", "type": "electric_bike", "is_disabled": 0, "fusion_lon": 0.0}, {"rental_uris": {"android": "https://dc.lft.to/lastmile_qr_scan", "ios": "https://dc.lft.to/lastmile_qr_scan"}, "lon": -76.98382383333333, "name": "5c4c489fae754ab8422efa8539006026", "lat": 38.866693, "is_reserved": 0, "fusion_lat": 0.0, "bike_id": "5c4c489fae754ab8422efa8539006026", "type": "electric_scooter", "is_disabled": 0, "fusion_lon": 0.0}, {"rental_uris": {"android": "https://dc.lft.to/lastmile_qr_scan", "ios": "https://dc.lft.to/lastmile_qr_scan"}, "lon": -77.02404216666666, "name": "1deb94b8a32aa7f7f3189692c08c24d8", "lat": 38.90849733333334, "is_reserved": 0, "fusion_lat": 0.0, "bike_id": "1deb94b8a32aa7f7f3189692c08c24d8", "type": "electric_scooter", "is_disabled": 0, "fusion_lon": 0.0}, {"rental_uris": {"android": "https://dc.lft.to/lastmile_qr_scan", "ios": "https://dc.lft.to/lastmile_qr_scan"}, "lon": -77.02199333333333, "name": "49b176d100cfc898e84335e7e81f3802", "lat": 38.9197645, "is_reserved": 0, "fusion_lat": 0.0, "bike_id": "49b176d100cfc898e84335e7e81f3802", "type": "electric_scooter", "is_disabled": 0, "fusion_lon": 0.0}, {"rental_uris": {"android": "https://dc.lft.to/lastmile_qr_scan", "ios": "https://dc.lft.to/lastmile_qr_scan"}, "lon": -77.054708, "name": "be391366e6c4e23d41744b9820c47219", "lat": 38.89665866666667, "is_reserved": 0, "fusion_lat": 0.0, "bike_id": "be391366e6c4e23d41744b9820c47219", "type": "electric_scooter", "is_disabled": 0, "fusion_lon": 0.0}, {"rental_uris": {"android": "https://dc.lft.to/lastmile_qr_scan", "ios": "https://dc.lft.to/lastmile_qr_scan"}, "lon": -77.02795183333333, "name": "87d9010503441c231158f7dacf5d7b8e", "lat": 38.960516, "is_reserved": 0, "fusion_lat": 0.0, "bike_id": "87d9010503441c231158f7dacf5d7b8e", "type": "electric_scooter", "is_disabled": 0, "fusion_lon": 0.0}, {"rental_uris": {"android": "https://dc.lft.to/lastmile_qr_scan", "ios": "https://dc.lft.to/lastmile_qr_scan"}, "lon": -76.9856295, "name": "67c116ad8cbfae1c2294b03179c07e94", "lat": 38.88655283333333, "is_reserved": 0, "fusion_lat": 0.0, "bike_id": "67c116ad8cbfae1c2294b03179c07e94", "type": "electric_scooter", "is_disabled": 0, "fusion_lon": 0.0}, {"rental_uris": {"android": "https://dc.lft.to/lastmile_qr_scan", "ios": "https://dc.lft.to/lastmile_qr_scan"}, "lon": -77.02551216666667, "name": "6093cd6236b0eca40e501dc2286fb84d", "lat": 38.91629616666667, "is_reserved": 0, "fusion_lat": 0.0, "bike_id": "6093cd6236b0eca40e501dc2286fb84d", "type": "electric_scooter", "is_disabled": 0, "fusion_lon": 0.0}, {"rental_uris": {"android": "https://dc.lft.to/lastmile_qr_scan", "ios": "https://dc.lft.to/lastmile_qr_scan"}, "lon": -77.0371425, "name": "45ce2a8f9d76d57b9e3f23ef0694b73a", "lat": 38.926356, "is_reserved": 0, "fusion_lat": 0.0, "bike_id": "45ce2a8f9d76d57b9e3f23ef0694b73a", "type": "electric_scooter", "is_disabled": 0, "fusion_lon": 0.0}, {"rental_uris": {"android": "https://dc.lft.to/lastmile_qr_scan", "ios": "https://dc.lft.to/lastmile_qr_scan"}, "lon": -77.03070983333333, "name": "d52cea1f7a0566576cb3c22693e7f9fe", "lat": 38.924795333333336, "is_reserved": 0, "fusion_lat": 0.0, "bike_id": "d52cea1f7a0566576cb3c22693e7f9fe", "type": "electric_scooter", "is_disabled": 0, "fusion_lon": 0.0}, {"rental_uris": {"android": "https://dc.lft.to/lastmile_qr_scan", "ios": "https://dc.lft.to/lastmile_qr_scan"}, "lon": -77.0483395, "name": "6b0917619ad607c90c878e8cfb1e5b1c", "lat": 38.91488483333333, "is_reserved": 0, "fusion_lat": 0.0, "bike_id": "6b0917619ad607c90c878e8cfb1e5b1c", "type": "electric_scooter", "is_disabled": 0, "fusion_lon": 0.0}, {"rental_uris": {"android": "https://dc.lft.to/lastmile_qr_scan", "ios": "https://dc.lft.to/lastmile_qr_scan"}, "lon": -77.06340216666666, "name": "bfa447eaf6caee9ecd9f435e7481d815", "lat": 38.94453983333333, "is_reserved": 0, "fusion_lat": 0.0, "bike_id": "bfa447eaf6caee9ecd9f435e7481d815", "type": "electric_scooter", "is_disabled": 0, "fusion_lon": 0.0}, {"rental_uris": {"android": "https://dc.lft.to/lastmile_qr_scan", "ios": "https://dc.lft.to/lastmile_qr_scan"}, "lon": -77.03694333333334, "name": "e110a6998b744a231e4f44558835ccfb", "lat": 38.935623166666666, "is_reserved": 0, "fusion_lat": 0.0, "bike_id": "e110a6998b744a231e4f44558835ccfb", "type": "electric_bike", "is_disabled": 0, "fusion_lon": 0.0}, {"rental_uris": {"android": "https://dc.lft.to/lastmile_qr_scan", "ios": "https://dc.lft.to/lastmile_qr_scan"}, "lon": -77.04846516666667, "name": "c7fbf1deccc78e247a39fd3cce754f08", "lat": 38.9125985, "is_reserved": 0, "fusion_lat": 0.0, "bike_id": "c7fbf1deccc78e247a39fd3cce754f08", "type": "electric_scooter", "is_disabled": 0, "fusion_lon": 0.0}, {"rental_uris": {"android": "https://dc.lft.to/lastmile_qr_scan", "ios": "https://dc.lft.to/lastmile_qr_scan"}, "lon": -77.00886166666666, "name": "06ae45b31fc9a401ca34d40654dcabbf", "lat": 38.88497383333333, "is_reserved": 0, "fusion_lat": 0.0, "bike_id": "06ae45b31fc9a401ca34d40654dcabbf", "type": "electric_scooter", "is_disabled": 0, "fusion_lon": 0.0}, {"rental_uris": {"android": "https://dc.lft.to/lastmile_qr_scan", "ios": "https://dc.lft.to/lastmile_qr_scan"}, "lon": -76.92578766666666, "name": "5b82690e338e96a60eafcbf33ded2672", "lat": 38.8936035, "is_reserved": 0, "fusion_lat": 0.0, "bike_id": "5b82690e338e96a60eafcbf33ded2672", "type": "electric_scooter", "is_disabled": 0, "fusion_lon": 0.0}, {"rental_uris": {"android": "https://dc.lft.to/lastmile_qr_scan", "ios": "https://dc.lft.to/lastmile_qr_scan"}, "lon": -77.02463466666667, "name": "e310274108082f5336db5c1d479a8824", "lat": 38.90851816666667, "is_reserved": 0, "fusion_lat": 0.0, "bike_id": "e310274108082f5336db5c1d479a8824", "type": "electric_scooter", "is_disabled": 0, "fusion_lon": 0.0}, {"rental_uris": {"android": "https://dc.lft.to/lastmile_qr_scan", "ios": "https://dc.lft.to/lastmile_qr_scan"}, "lon": -77.0364885, "name": "ea6eee1b4b3d0eec52ae6bade8dba5c3", "lat": 38.93600983333333, "is_reserved": 0, "fusion_lat": 0.0, "bike_id": "ea6eee1b4b3d0eec52ae6bade8dba5c3", "type": "electric_scooter", "is_disabled": 0, "fusion_lon": 0.0}, {"rental_uris": {"android": "https://dc.lft.to/lastmile_qr_scan", "ios": "https://dc.lft.to/lastmile_qr_scan"}, "lon": -77.12934266666667, "name": "28bb852499231bf68f6421e5bedce8b0", "lat": 38.865149333333335, "is_reserved": 0, "fusion_lat": 0.0, "bike_id": "28bb852499231bf68f6421e5bedce8b0", "type": "electric_bike", "is_disabled": 0, "fusion_lon": 0.0}, {"rental_uris": {"android": "https://dc.lft.to/lastmile_qr_scan", "ios": "https://dc.lft.to/lastmile_qr_scan"}, "lon": -77.00444283333333, "name": "0ab74864ac47edefd48d196717b23b32", "lat": 38.911637166666665, "is_reserved": 0, "fusion_lat": 0.0, "bike_id": "0ab74864ac47edefd48d196717b23b32", "type": "electric_scooter", "is_disabled": 0, "fusion_lon": 0.0}, {"rental_uris": {"android": "https://dc.lft.to/lastmile_qr_scan", "ios": "https://dc.lft.to/lastmile_qr_scan"}, "lon": -77.0017965, "name": "ea49a24122e7a4f2cabef2e4084f50ef", "lat": 38.90694033333333, "is_reserved": 0, "fusion_lat": 0.0, "bike_id": "ea49a24122e7a4f2cabef2e4084f50ef", "type": "electric_scooter", "is_disabled": 0, "fusion_lon": 0.0}, {"rental_uris": {"android": "https://dc.lft.to/lastmile_qr_scan", "ios": "https://dc.lft.to/lastmile_qr_scan"}, "lon": -77.05012333333333, "name": "4354023bd0f9be4018becd32a3066274", "lat": 38.81697583333333, "is_reserved": 0, "fusion_lat": 0.0, "bike_id": "4354023bd0f9be4018becd32a3066274", "type": "electric_bike", "is_disabled": 0, "fusion_lon": 0.0}, {"rental_uris": {"android": "https://dc.lft.to/lastmile_qr_scan", "ios": "https://dc.lft.to/lastmile_qr_scan"}, "lon": -77.024863, "name": "b885ad2c8ef602b0e8b0f049db3f5803", "lat": 38.94183783333333, "is_reserved": 0, "fusion_lat": 0.0, "bike_id": "b885ad2c8ef602b0e8b0f049db3f5803", "type": "electric_scooter", "is_disabled": 0, "fusion_lon": 0.0}, {"rental_uris": {"android": "https://dc.lft.to/lastmile_qr_scan", "ios": "https://dc.lft.to/lastmile_qr_scan"}, "lon": -77.03260983333334, "name": "105230d51af512ad13df295d68d6008b", "lat": 38.935695333333335, "is_reserved": 0, "fusion_lat": 0.0, "bike_id": "105230d51af512ad13df295d68d6008b", "type": "electric_scooter", "is_disabled": 0, "fusion_lon": 0.0}, {"rental_uris": {"android": "https://dc.lft.to/lastmile_qr_scan", "ios": "https://dc.lft.to/lastmile_qr_scan"}, "lon": -77.13306316666667, "name": "3ea519d3177725642598df54d01c6d64", "lat": 38.887215166666664, "is_reserved": 0, "fusion_lat": 0.0, "bike_id": "3ea519d3177725642598df54d01c6d64", "type": "electric_bike", "is_disabled": 0, "fusion_lon": 0.0}, {"rental_uris": {"android": "https://dc.lft.to/lastmile_qr_scan", "ios": "https://dc.lft.to/lastmile_qr_scan"}, "lon": -77.02287133333333, "name": "ef080bb7d8c39335427ea6c5b0e02e23", "lat": 38.916534666666664, "is_reserved": 0, "fusion_lat": 0.0, "bike_id": "ef080bb7d8c39335427ea6c5b0e02e23", "type": "electric_scooter", "is_disabled": 0, "fusion_lon": 0.0}, {"rental_uris": {"android": "https://dc.lft.to/lastmile_qr_scan", "ios": "https://dc.lft.to/lastmile_qr_scan"}, "lon": -77.04043183333333, "name": "acde8b5dccb87cf638fb5c1019583564", "lat": 38.92459483333333, "is_reserved": 0, "fusion_lat": 0.0, "bike_id": "acde8b5dccb87cf638fb5c1019583564", "type": "electric_scooter", "is_disabled": 0, "fusion_lon": 0.0}, {"rental_uris": {"android": "https://dc.lft.to/lastmile_qr_scan", "ios": "https://dc.lft.to/lastmile_qr_scan"}, "lon": -77.02264616666666, "name": "2fd6a5581622c1cfafb4b908631513f1", "lat": 38.9274, "is_reserved": 0, "fusion_lat": 0.0, "bike_id": "2fd6a5581622c1cfafb4b908631513f1", "type": "electric_scooter", "is_disabled": 0, "fusion_lon": 0.0}, {"rental_uris": {"android": "https://dc.lft.to/lastmile_qr_scan", "ios": "https://dc.lft.to/lastmile_qr_scan"}, "lon": -76.97538966666667, "name": "998711cb0eff623c8ce751177fd1b0dc", "lat": 38.90323733333334, "is_reserved": 0, "fusion_lat": 0.0, "bike_id": "998711cb0eff623c8ce751177fd1b0dc", "type": "electric_scooter", "is_disabled": 0, "fusion_lon": 0.0}, {"rental_uris": {"android": "https://dc.lft.to/lastmile_qr_scan", "ios": "https://dc.lft.to/lastmile_qr_scan"}, "lon": -76.95073166666667, "name": "11e6d01b4bf66d56a3bb4f5f8a53dc35", "lat": 38.905237166666666, "is_reserved": 0, "fusion_lat": 0.0, "bike_id": "11e6d01b4bf66d56a3bb4f5f8a53dc35", "type": "electric_scooter", "is_disabled": 0, "fusion_lon": 0.0}, {"rental_uris": {"android": "https://dc.lft.to/lastmile_qr_scan", "ios": "https://dc.lft.to/lastmile_qr_scan"}, "lon": -77.01408966666666, "name": "46782d30ed8569c1ac6622dbd52fd380", "lat": 38.927907833333336, "is_reserved": 0, "fusion_lat": 0.0, "bike_id": "46782d30ed8569c1ac6622dbd52fd380", "type": "electric_scooter", "is_disabled": 0, "fusion_lon": 0.0}, {"rental_uris": {"android": "https://dc.lft.to/lastmile_qr_scan", "ios": "https://dc.lft.to/lastmile_qr_scan"}, "lon": -77.02735283333334, "name": "7f4d5e47141081fdcbc61d699489dbe1", "lat": 38.92765966666666, "is_reserved": 0, "fusion_lat": 0.0, "bike_id": "7f4d5e47141081fdcbc61d699489dbe1", "type": "electric_scooter", "is_disabled": 0, "fusion_lon": 0.0}, {"rental_uris": {"android": "https://dc.lft.to/lastmile_qr_scan", "ios": "https://dc.lft.to/lastmile_qr_scan"}, "lon": -77.02485016666667, "name": "ce8ddaa3f4b3bcc19755caa65abef0c4", "lat": 38.93888116666667, "is_reserved": 0, "fusion_lat": 0.0, "bike_id": "ce8ddaa3f4b3bcc19755caa65abef0c4", "type": "electric_scooter", "is_disabled": 0, "fusion_lon": 0.0}, {"rental_uris": {"android": "https://dc.lft.to/lastmile_qr_scan", "ios": "https://dc.lft.to/lastmile_qr_scan"}, "lon": -77.00125366666667, "name": "a2506902be7644b6d6fa8d47cb8c95b0", "lat": 38.9001975, "is_reserved": 0, "fusion_lat": 0.0, "bike_id": "a2506902be7644b6d6fa8d47cb8c95b0", "type": "electric_scooter", "is_disabled": 0, "fusion_lon": 0.0}, {"rental_uris": {"android": "https://dc.lft.to/lastmile_qr_scan", "ios": "https://dc.lft.to/lastmile_qr_scan"}, "lon": -77.03171566666667, "name": "dd1424eeb7b439467d98a4352751c2d6", "lat": 38.89837683333333, "is_reserved": 0, "fusion_lat": 0.0, "bike_id": "dd1424eeb7b439467d98a4352751c2d6", "type": "electric_scooter", "is_disabled": 0, "fusion_lon": 0.0}, {"rental_uris": {"android": "https://dc.lft.to/lastmile_qr_scan", "ios": "https://dc.lft.to/lastmile_qr_scan"}, "lon": -76.98243083333334, "name": "dc8bd492f540016d6c9384b60314208c", "lat": 38.899774, "is_reserved": 0, "fusion_lat": 0.0, "bike_id": "dc8bd492f540016d6c9384b60314208c", "type": "electric_scooter", "is_disabled": 0, "fusion_lon": 0.0}, {"rental_uris": {"android": "https://dc.lft.to/lastmile_qr_scan", "ios": "https://dc.lft.to/lastmile_qr_scan"}, "lon": -77.06402383333334, "name": "0a0ca8bf8ac40245406b0f8be9176416", "lat": 38.843459333333335, "is_reserved": 0, "fusion_lat": 0.0, "bike_id": "0a0ca8bf8ac40245406b0f8be9176416", "type": "electric_bike", "is_disabled": 0, "fusion_lon": 0.0}, {"rental_uris": {"android": "https://dc.lft.to/lastmile_qr_scan", "ios": "https://dc.lft.to/lastmile_qr_scan"}, "lon": -77.02471366666667, "name": "0c7e8b119c9c8aed8104b920b5857f22", "lat": 38.91786, "is_reserved": 0, "fusion_lat": 0.0, "bike_id": "0c7e8b119c9c8aed8104b920b5857f22", "type": "electric_scooter", "is_disabled": 0, "fusion_lon": 0.0}, {"rental_uris": {"android": "https://dc.lft.to/lastmile_qr_scan", "ios": "https://dc.lft.to/lastmile_qr_scan"}, "lon": -77.01143933333333, "name": "a25db00a35a255b6b2681e92b1b0a9f7", "lat": 38.9001235, "is_reserved": 0, "fusion_lat": 0.0, "bike_id": "a25db00a35a255b6b2681e92b1b0a9f7", "type": "electric_scooter", "is_disabled": 0, "fusion_lon": 0.0}, {"rental_uris": {"android": "https://dc.lft.to/lastmile_qr_scan", "ios": "https://dc.lft.to/lastmile_qr_scan"}, "lon": -77.06827, "name": "a4ff16d121d95a8cf7d81d6e54307e15", "lat": 38.91809883333333, "is_reserved": 0, "fusion_lat": 0.0, "bike_id": "a4ff16d121d95a8cf7d81d6e54307e15", "type": "electric_scooter", "is_disabled": 0, "fusion_lon": 0.0}, {"rental_uris": {"android": "https://dc.lft.to/lastmile_qr_scan", "ios": "https://dc.lft.to/lastmile_qr_scan"}, "lon": -76.99029533333334, "name": "9db460a28dd0707a56f25e0e5ceded82", "lat": 38.938781666666664, "is_reserved": 0, "fusion_lat": 0.0, "bike_id": "9db460a28dd0707a56f25e0e5ceded82", "type": "electric_bike", "is_disabled": 0, "fusion_lon": 0.0}, {"rental_uris": {"android": "https://dc.lft.to/lastmile_qr_scan", "ios": "https://dc.lft.to/lastmile_qr_scan"}, "lon": -77.0219105, "name": "6d94b4098127e6b1fed9f804ec1d1e66", "lat": 38.916011166666664, "is_reserved": 0, "fusion_lat": 0.0, "bike_id": "6d94b4098127e6b1fed9f804ec1d1e66", "type": "electric_scooter", "is_disabled": 0, "fusion_lon": 0.0}, {"rental_uris": {"android": "https://dc.lft.to/lastmile_qr_scan", "ios": "https://dc.lft.to/lastmile_qr_scan"}, "lon": -76.98562066666666, "name": "acc41f0443c1e3a732f5effc7cd09d98", "lat": 38.866800166666664, "is_reserved": 0, "fusion_lat": 0.0, "bike_id": "acc41f0443c1e3a732f5effc7cd09d98", "type": "electric_scooter", "is_disabled": 0, "fusion_lon": 0.0}, {"rental_uris": {"android": "https://dc.lft.to/lastmile_qr_scan", "ios": "https://dc.lft.to/lastmile_qr_scan"}, "lon": -77.02851016666666, "name": "97fa48d4a1d61a5500086f3606331645", "lat": 38.9276645, "is_reserved": 0, "fusion_lat": 0.0, "bike_id": "97fa48d4a1d61a5500086f3606331645", "type": "electric_scooter", "is_disabled": 0, "fusion_lon": 0.0}, {"rental_uris": {"android": "https://dc.lft.to/lastmile_qr_scan", "ios": "https://dc.lft.to/lastmile_qr_scan"}, "lon": -76.994838, "name": "047c497c58df8a90b9f3a6d1376fad22", "lat": 38.8777525, "is_reserved": 0, "fusion_lat": 0.0, "bike_id": "047c497c58df8a90b9f3a6d1376fad22", "type": "electric_scooter", "is_disabled": 0, "fusion_lon": 0.0}, {"rental_uris": {"android": "https://dc.lft.to/lastmile_qr_scan", "ios": "https://dc.lft.to/lastmile_qr_scan"}, "lon": -77.0171195, "name": "12700005245d6ef7944867ffad7f79a6", "lat": 38.90259966666667, "is_reserved": 0, "fusion_lat": 0.0, "bike_id": "12700005245d6ef7944867ffad7f79a6", "type": "electric_scooter", "is_disabled": 0, "fusion_lon": 0.0}, {"rental_uris": {"android": "https://dc.lft.to/lastmile_qr_scan", "ios": "https://dc.lft.to/lastmile_qr_scan"}, "lon": -77.07312, "name": "01ca1694230157bd7046f21074c41905", "lat": 38.927349166666666, "is_reserved": 0, "fusion_lat": 0.0, "bike_id": "01ca1694230157bd7046f21074c41905", "type": "electric_bike", "is_disabled": 0, "fusion_lon": 0.0}, {"rental_uris": {"android": "https://dc.lft.to/lastmile_qr_scan", "ios": "https://dc.lft.to/lastmile_qr_scan"}, "lon": -76.97436683333333, "name": "1ca0a42bfa43115f1dc7ec87db64846a", "lat": 38.902417, "is_reserved": 0, "fusion_lat": 0.0, "bike_id": "1ca0a42bfa43115f1dc7ec87db64846a", "type": "electric_scooter", "is_disabled": 0, "fusion_lon": 0.0}, {"rental_uris": {"android": "https://dc.lft.to/lastmile_qr_scan", "ios": "https://dc.lft.to/lastmile_qr_scan"}, "lon": -77.00738883333334, "name": "f62ce5b183b108c5e6c6b3d8d9cbe6a3", "lat": 38.876537, "is_reserved": 0, "fusion_lat": 0.0, "bike_id": "f62ce5b183b108c5e6c6b3d8d9cbe6a3", "type": "electric_scooter", "is_disabled": 0, "fusion_lon": 0.0}, {"rental_uris": {"android": "https://dc.lft.to/lastmile_qr_scan", "ios": "https://dc.lft.to/lastmile_qr_scan"}, "lon": -76.97915283333333, "name": "d7537415b2ef338e02c58358ad715dc4", "lat": 38.924568, "is_reserved": 0, "fusion_lat": 0.0, "bike_id": "d7537415b2ef338e02c58358ad715dc4", "type": "electric_scooter", "is_disabled": 0, "fusion_lon": 0.0}, {"rental_uris": {"android": "https://dc.lft.to/lastmile_qr_scan", "ios": "https://dc.lft.to/lastmile_qr_scan"}, "lon": -77.028, "name": "60bdb0e5a6b3fac4f932202f9f83733a", "lat": 38.93059783333333, "is_reserved": 0, "fusion_lat": 0.0, "bike_id": "60bdb0e5a6b3fac4f932202f9f83733a", "type": "electric_scooter", "is_disabled": 0, "fusion_lon": 0.0}, {"rental_uris": {"android": "https://dc.lft.to/lastmile_qr_scan", "ios": "https://dc.lft.to/lastmile_qr_scan"}, "lon": -77.03177633333334, "name": "ff2242d1d54e5b4ef75662feee658ca4", "lat": 38.916434, "is_reserved": 0, "fusion_lat": 0.0, "bike_id": "ff2242d1d54e5b4ef75662feee658ca4", "type": "electric_scooter", "is_disabled": 0, "fusion_lon": 0.0}, {"rental_uris": {"android": "https://dc.lft.to/lastmile_qr_scan", "ios": "https://dc.lft.to/lastmile_qr_scan"}, "lon": -77.055162, "name": "9d0429f7b01d917b2f9d251ca10bbcfd", "lat": 38.92837, "is_reserved": 0, "fusion_lat": 0.0, "bike_id": "9d0429f7b01d917b2f9d251ca10bbcfd", "type": "electric_scooter", "is_disabled": 0, "fusion_lon": 0.0}, {"rental_uris": {"android": "https://dc.lft.to/lastmile_qr_scan", "ios": "https://dc.lft.to/lastmile_qr_scan"}, "lon": -77.03841266666667, "name": "4052b137cd9f5fe3e1a2fbe29b5d4b2f", "lat": 38.902777, "is_reserved": 0, "fusion_lat": 0.0, "bike_id": "4052b137cd9f5fe3e1a2fbe29b5d4b2f", "type": "electric_scooter", "is_disabled": 0, "fusion_lon": 0.0}, {"rental_uris": {"android": "https://dc.lft.to/lastmile_qr_scan", "ios": "https://dc.lft.to/lastmile_qr_scan"}, "lon": -77.05524983333333, "name": "add388d86d914698f28460fdafb0aa46", "lat": 38.89727283333333, "is_reserved": 0, "fusion_lat": 0.0, "bike_id": "add388d86d914698f28460fdafb0aa46", "type": "electric_scooter", "is_disabled": 0, "fusion_lon": 0.0}, {"rental_uris": {"android": "https://dc.lft.to/lastmile_qr_scan", "ios": "https://dc.lft.to/lastmile_qr_scan"}, "lon": -77.03114066666667, "name": "fd24ee802c58685f5f4384e73fe859b8", "lat": 38.919156666666666, "is_reserved": 0, "fusion_lat": 0.0, "bike_id": "fd24ee802c58685f5f4384e73fe859b8", "type": "electric_scooter", "is_disabled": 0, "fusion_lon": 0.0}, {"rental_uris": {"android": "https://dc.lft.to/lastmile_qr_scan", "ios": "https://dc.lft.to/lastmile_qr_scan"}, "lon": -77.031497, "name": "120da86a598b4a299a59793ac3d213b4", "lat": 38.91565166666667, "is_reserved": 0, "fusion_lat": 0.0, "bike_id": "120da86a598b4a299a59793ac3d213b4", "type": "electric_scooter", "is_disabled": 0, "fusion_lon": 0.0}, {"rental_uris": {"android": "https://dc.lft.to/lastmile_qr_scan", "ios": "https://dc.lft.to/lastmile_qr_scan"}, "lon": -76.94631933333334, "name": "36bf64b7d7c670ee6d94e5a7f939cb66", "lat": 38.89864766666667, "is_reserved": 0, "fusion_lat": 0.0, "bike_id": "36bf64b7d7c670ee6d94e5a7f939cb66", "type": "electric_scooter", "is_disabled": 0, "fusion_lon": 0.0}, {"rental_uris": {"android": "https://dc.lft.to/lastmile_qr_scan", "ios": "https://dc.lft.to/lastmile_qr_scan"}, "lon": -77.03424066666666, "name": "994f420e44eba2b316a344aa54ab0b68", "lat": 38.96535633333333, "is_reserved": 0, "fusion_lat": 0.0, "bike_id": "994f420e44eba2b316a344aa54ab0b68", "type": "electric_bike", "is_disabled": 0, "fusion_lon": 0.0}, {"rental_uris": {"android": "https://dc.lft.to/lastmile_qr_scan", "ios": "https://dc.lft.to/lastmile_qr_scan"}, "lon": -77.0486415, "name": "9130f34ab2eddb44cf44536202a368f5", "lat": 38.916225, "is_reserved": 0, "fusion_lat": 0.0, "bike_id": "9130f34ab2eddb44cf44536202a368f5", "type": "electric_scooter", "is_disabled": 0, "fusion_lon": 0.0}, {"rental_uris": {"android": "https://dc.lft.to/lastmile_qr_scan", "ios": "https://dc.lft.to/lastmile_qr_scan"}, "lon": -76.99016916666666, "name": "4a78c9cfcdc09972258a23d02a2e87f8", "lat": 38.8827055, "is_reserved": 0, "fusion_lat": 0.0, "bike_id": "4a78c9cfcdc09972258a23d02a2e87f8", "type": "electric_scooter", "is_disabled": 0, "fusion_lon": 0.0}, {"rental_uris": {"android": "https://dc.lft.to/lastmile_qr_scan", "ios": "https://dc.lft.to/lastmile_qr_scan"}, "lon": -77.04021783333333, "name": "afae5e28923a48c04230ba1054aedf2b", "lat": 38.9021685, "is_reserved": 0, "fusion_lat": 0.0, "bike_id": "afae5e28923a48c04230ba1054aedf2b", "type": "electric_scooter", "is_disabled": 0, "fusion_lon": 0.0}, {"rental_uris": {"android": "https://dc.lft.to/lastmile_qr_scan", "ios": "https://dc.lft.to/lastmile_qr_scan"}, "lon": -77.06473166666666, "name": "a13817d90f0d5ff6df7b214f17552688", "lat": 38.9738055, "is_reserved": 0, "fusion_lat": 0.0, "bike_id": "a13817d90f0d5ff6df7b214f17552688", "type": "electric_bike", "is_disabled": 0, "fusion_lon": 0.0}, {"rental_uris": {"android": "https://dc.lft.to/lastmile_qr_scan", "ios": "https://dc.lft.to/lastmile_qr_scan"}, "lon": -77.04344833333333, "name": "38a86eac699b0dacae5f9cf3b333774d", "lat": 38.92349766666667, "is_reserved": 0, "fusion_lat": 0.0, "bike_id": "38a86eac699b0dacae5f9cf3b333774d", "type": "electric_scooter", "is_disabled": 0, "fusion_lon": 0.0}, {"rental_uris": {"android": "https://dc.lft.to/lastmile_qr_scan", "ios": "https://dc.lft.to/lastmile_qr_scan"}, "lon": -77.0457535, "name": "0a772759b0985e18d7bac23e5a393f53", "lat": 38.8987325, "is_reserved": 0, "fusion_lat": 0.0, "bike_id": "0a772759b0985e18d7bac23e5a393f53", "type": "electric_scooter", "is_disabled": 0, "fusion_lon": 0.0}, {"rental_uris": {"android": "https://dc.lft.to/lastmile_qr_scan", "ios": "https://dc.lft.to/lastmile_qr_scan"},