{"data": {"bikes": [{"lat": 38.921531, "is_disabled": 0, "type": "electric_scooter", "lon": -77.0350875, "bike_id": "094da6cf98b637fa706dd6c14801751b", "fusion_lat": 0.0, "name": "094da6cf98b637fa706dd6c14801751b", "is_reserved": 0, "rental_uris": {"android": "https://dc.lft.to/lastmile_qr_scan", "ios": "https://dc.lft.to/lastmile_qr_scan"}, "fusion_lon": 0.0}, {"lat": 38.90806233333333, "is_disabled": 0, "type": "electric_scooter", "lon": -77.0444245, "bike_id": "3c77beac89c33322a56f024a38b73579", "fusion_lat": 0.0, "name": "3c77beac89c33322a56f024a38b73579", "is_reserved": 0, "rental_uris": {"android": "https://dc.lft.to/lastmile_qr_scan", "ios": "https://dc.lft.to/lastmile_qr_scan"}, "fusion_lon": 0.0}, {"lat": 39.05203016666667, "is_disabled": 0, "type": "electric_bike", "lon": -77.109153, "bike_id": "f5d2e90ebc6606978018529e8c9c9161", "fusion_lat": 0.0, "name": "f5d2e90ebc6606978018529e8c9c9161", "is_reserved": 0, "rental_uris": {"android": "https://dc.lft.to/lastmile_qr_scan", "ios": "https://dc.lft.to/lastmile_qr_scan"}, "fusion_lon": 0.0}, {"lat": 38.9126975, "is_disabled": 0, "type": "electric_scooter", "lon": -77.03750983333333, "bike_id": "80412d73784da8e4cbd66da2f118d16e", "fusion_lat": 0.0, "name": "80412d73784da8e4cbd66da2f118d16e", "is_reserved": 0, "rental_uris": {"android": "https://dc.lft.to/lastmile_qr_scan", "ios": "https://dc.lft.to/lastmile_qr_scan"}, "fusion_lon": 0.0}, {"lat": 38.912465, "is_disabled": 0, "type": "electric_scooter", "lon": -77.03213733333334, "bike_id": "a3c4763b265b1458c5bf753b054865aa", "fusion_lat": 0.0, "name": "a3c4763b265b1458c5bf753b054865aa", "is_reserved": 0, "rental_uris": {"android": "https://dc.lft.to/lastmile_qr_scan", "ios": "https://dc.lft.to/lastmile_qr_scan"}, "fusion_lon": 0.0}, {"lat": 38.90010566666667, "is_disabled": 0, "type": "electric_scooter", "lon": -77.04507966666667, "bike_id": "e64c21b4d6edde56cf30235e2a281851", "fusion_lat": 0.0, "name": "e64c21b4d6edde56cf30235e2a281851", "is_reserved": 0, "rental_uris": {"android": "https://dc.lft.to/lastmile_qr_scan", "ios": "https://dc.lft.to/lastmile_qr_scan"}, "fusion_lon": 0.0}, {"lat": 38.900493, "is_disabled": 0, "type": "electric_scooter", "lon": -77.02585, "bike_id": "1f94f97a790005a2289f38113a52e364", "fusion_lat": 0.0, "name": "1f94f97a790005a2289f38113a52e364", "is_reserved": 0, "rental_uris": {"android": "https://dc.lft.to/lastmile_qr_scan", "ios": "https://dc.lft.to/lastmile_qr_scan"}, "fusion_lon": 0.0}, {"lat": 38.9026085, "is_disabled": 0, "type": "electric_scooter", "lon": -77.03864833333333, "bike_id": "9f4f4c70ca3c68f5d3923025b4d2605b", "fusion_lat": 0.0, "name": "9f4f4c70ca3c68f5d3923025b4d2605b", "is_reserved": 0, "rental_uris": {"android": "https://dc.lft.to/lastmile_qr_scan", "ios": "https://dc.lft.to/lastmile_qr_scan"}, "fusion_lon": 0.0}, {"lat": 38.88739733333333, "is_disabled": 0, "type": "electric_scooter", "lon": -77.01535516666667, "bike_id": "11404d24872b3440830c275088ea24ed", "fusion_lat": 0.0, "name": "11404d24872b3440830c275088ea24ed", "is_reserved": 0, "rental_uris": {"android": "https://dc.lft.to/lastmile_qr_scan", "ios": "https://dc.lft.to/lastmile_qr_scan"}, "fusion_lon": 0.0}, {"lat": 38.915639666666664, "is_disabled": 0, "type": "electric_scooter", "lon": -77.03243266666666, "bike_id": "364d5ed8ec44681924deb809642aa916", "fusion_lat": 0.0, "name": "364d5ed8ec44681924deb809642aa916", "is_reserved": 0, "rental_uris": {"android": "https://dc.lft.to/lastmile_qr_scan", "ios": "https://dc.lft.to/lastmile_qr_scan"}, "fusion_lon": 0.0}, {"lat": 38.91789683333333, "is_disabled": 0, "type": "electric_scooter", "lon": -77.04023716666667, "bike_id": "b8440fafa9a5bb31c54791cf73ae2e3c", "fusion_lat": 0.0, "name": "b8440fafa9a5bb31c54791cf73ae2e3c", "is_reserved": 0, "rental_uris": {"android": "https://dc.lft.to/lastmile_qr_scan", "ios": "https://dc.lft.to/lastmile_qr_scan"}, "fusion_lon": 0.0}, {"lat": 38.9192475, "is_disabled": 0, "type": "electric_scooter", "lon": -77.03129333333334, "bike_id": "53e8369edbb825832b9f4e1f47fb6e79", "fusion_lat": 0.0, "name": "53e8369edbb825832b9f4e1f47fb6e79", "is_reserved": 0, "rental_uris": {"android": "https://dc.lft.to/lastmile_qr_scan", "ios": "https://dc.lft.to/lastmile_qr_scan"}, "fusion_lon": 0.0}, {"lat": 38.929564, "is_disabled": 0, "type": "electric_scooter", "lon": -77.01893616666666, "bike_id": "b034dbd768accc87d43ff068eba17efc", "fusion_lat": 0.0, "name": "b034dbd768accc87d43ff068eba17efc", "is_reserved": 0, "rental_uris": {"android": "https://dc.lft.to/lastmile_qr_scan", "ios": "https://dc.lft.to/lastmile_qr_scan"}, "fusion_lon": 0.0}, {"lat": 38.899631166666666, "is_disabled": 0, "type": "electric_scooter", "lon": -76.9264395, "bike_id": "c5e03518fe3efdc3734949807a367faa", "fusion_lat": 0.0, "name": "c5e03518fe3efdc3734949807a367faa", "is_reserved": 0, "rental_uris": {"android": "https://dc.lft.to/lastmile_qr_scan", "ios": "https://dc.lft.to/lastmile_qr_scan"}, "fusion_lon": 0.0}, {"lat": 38.904223, "is_disabled": 0, "type": "electric_scooter", "lon": -77.0250855, "bike_id": "3b253f5b1d9c4cd5dfb7e4a9bbb2e044", "fusion_lat": 0.0, "name": "3b253f5b1d9c4cd5dfb7e4a9bbb2e044", "is_reserved": 0, "rental_uris": {"android": "https://dc.lft.to/lastmile_qr_scan", "ios": "https://dc.lft.to/lastmile_qr_scan"}, "fusion_lon": 0.0}, {"lat": 38.90449233333333, "is_disabled": 0, "type": "electric_scooter", "lon": -77.03222166666667, "bike_id": "a4b7d80f13088103e0ebf3914e03acaa", "fusion_lat": 0.0, "name": "a4b7d80f13088103e0ebf3914e03acaa", "is_reserved": 0, "rental_uris": {"android": "https://dc.lft.to/lastmile_qr_scan", "ios": "https://dc.lft.to/lastmile_qr_scan"}, "fusion_lon": 0.0}, {"lat": 38.890000666666666, "is_disabled": 0, "type": "electric_scooter", "lon": -77.04903466666667, "bike_id": "9e3977b7ccbdc95ea90f7c33aa5fe30c", "fusion_lat": 0.0, "name": "9e3977b7ccbdc95ea90f7c33aa5fe30c", "is_reserved": 0, "rental_uris": {"android": "https://dc.lft.to/lastmile_qr_scan", "ios": "https://dc.lft.to/lastmile_qr_scan"}, "fusion_lon": 0.0}, {"lat": 38.89972916666667, "is_disabled": 0, "type": "electric_scooter", "lon": -77.0184495, "bike_id": "25f1f1a777ad3db71be30ef4251a33b3", "fusion_lat": 0.0, "name": "25f1f1a777ad3db71be30ef4251a33b3", "is_reserved": 0, "rental_uris": {"android": "https://dc.lft.to/lastmile_qr_scan", "ios": "https://dc.lft.to/lastmile_qr_scan"}, "fusion_lon": 0.0}, {"lat": 38.911805333333334, "is_disabled": 0, "type": "electric_bike", "lon": -77.01150283333334, "bike_id": "acafec73a9d3d93420780e548d2cdb3a", "fusion_lat": 0.0, "name": "acafec73a9d3d93420780e548d2cdb3a", "is_reserved": 0, "rental_uris": {"android": "https://dc.lft.to/lastmile_qr_scan", "ios": "https://dc.lft.to/lastmile_qr_scan"}, "fusion_lon": 0.0}, {"lat": 38.86561233333333, "is_disabled": 0, "type": "electric_scooter", "lon": -76.989528, "bike_id": "9e5f5b940ffb3f2a6c99eabd4c7b3dec", "fusion_lat": 0.0, "name": "9e5f5b940ffb3f2a6c99eabd4c7b3dec", "is_reserved": 0, "rental_uris": {"android": "https://dc.lft.to/lastmile_qr_scan", "ios": "https://dc.lft.to/lastmile_qr_scan"}, "fusion_lon": 0.0}, {"lat": 38.93223166666667, "is_disabled": 0, "type": "electric_scooter", "lon": -77.02731166666666, "bike_id": "2a946bcfa1267d53bd6aab888892a5a4", "fusion_lat": 0.0, "name": "2a946bcfa1267d53bd6aab888892a5a4", "is_reserved": 0, "rental_uris": {"android": "https://dc.lft.to/lastmile_qr_scan", "ios": "https://dc.lft.to/lastmile_qr_scan"}, "fusion_lon": 0.0}, {"lat": 38.88430916666667, "is_disabled": 0, "type": "electric_scooter", "lon": -76.957602, "bike_id": "1a398d21dcb0de95864b58bbdb1f6e1d", "fusion_lat": 0.0, "name": "1a398d21dcb0de95864b58bbdb1f6e1d", "is_reserved": 0, "rental_uris": {"android": "https://dc.lft.to/lastmile_qr_scan", "ios": "https://dc.lft.to/lastmile_qr_scan"}, "fusion_lon": 0.0}, {"lat": 38.866170833333335, "is_disabled": 0, "type": "electric_bike", "lon": -76.9457125, "bike_id": "26a892cedecc4119542f02ab3ea5e84f", "fusion_lat": 0.0, "name": "26a892cedecc4119542f02ab3ea5e84f", "is_reserved": 0, "rental_uris": {"android": "https://dc.lft.to/lastmile_qr_scan", "ios": "https://dc.lft.to/lastmile_qr_scan"}, "fusion_lon": 0.0}, {"lat": 38.922434, "is_disabled": 0, "type": "electric_scooter", "lon": -77.0419165, "bike_id": "3ec4c66d8593e4f00c3610175c4117fb", "fusion_lat": 0.0, "name": "3ec4c66d8593e4f00c3610175c4117fb", "is_reserved": 0, "rental_uris": {"android": "https://dc.lft.to/lastmile_qr_scan", "ios": "https://dc.lft.to/lastmile_qr_scan"}, "fusion_lon": 0.0}, {"lat": 38.892229, "is_disabled": 0, "type": "electric_scooter", "lon": -76.93299733333333, "bike_id": "e3e8cb89cddb369bc0180a59cab2191a", "fusion_lat": 0.0, "name": "e3e8cb89cddb369bc0180a59cab2191a", "is_reserved": 0, "rental_uris": {"android": "https://dc.lft.to/lastmile_qr_scan", "ios": "https://dc.lft.to/lastmile_qr_scan"}, "fusion_lon": 0.0}, {"lat": 38.88972316666667, "is_disabled": 0, "type": "electric_scooter", "lon": -76.93742516666667, "bike_id": "2f2e1a95f420bda24c546c07ca79b332", "fusion_lat": 0.0, "name": "2f2e1a95f420bda24c546c07ca79b332", "is_reserved": 0, "rental_uris": {"android": "https://dc.lft.to/lastmile_qr_scan", "ios": "https://dc.lft.to/lastmile_qr_scan"}, "fusion_lon": 0.0}, {"lat": 38.94515, "is_disabled": 0, "type": "electric_scooter", "lon": -77.02174516666666, "bike_id": "a10f8ffa886a33e58713e5269a2787a8", "fusion_lat": 0.0, "name": "a10f8ffa886a33e58713e5269a2787a8", "is_reserved": 0, "rental_uris": {"android": "https://dc.lft.to/lastmile_qr_scan", "ios": "https://dc.lft.to/lastmile_qr_scan"}, "fusion_lon": 0.0}, {"lat": 38.876832, "is_disabled": 0, "type": "electric_scooter", "lon": -77.01787983333334, "bike_id": "0e1b91828e0f60daf881c2fabd95ee2c", "fusion_lat": 0.0, "name": "0e1b91828e0f60daf881c2fabd95ee2c", "is_reserved": 0, "rental_uris": {"android": "https://dc.lft.to/lastmile_qr_scan", "ios": "https://dc.lft.to/lastmile_qr_scan"}, "fusion_lon": 0.0}, {"lat": 38.895135, "is_disabled": 0, "type": "electric_scooter", "lon": -76.94895, "bike_id": "6c129c65400098c556d674cacc1cb56b", "fusion_lat": 0.0, "name": "6c129c65400098c556d674cacc1cb56b", "is_reserved": 0, "rental_uris": {"android": "https://dc.lft.to/lastmile_qr_scan", "ios": "https://dc.lft.to/lastmile_qr_scan"}, "fusion_lon": 0.0}, {"lat": 38.9079925, "is_disabled": 0, "type": "electric_scooter", "lon": -77.02966283333333, "bike_id": "b62cb71eb3b5d6c8dcf41f297bf176de", "fusion_lat": 0.0, "name": "b62cb71eb3b5d6c8dcf41f297bf176de", "is_reserved": 0, "rental_uris": {"android": "https://dc.lft.to/lastmile_qr_scan", "ios": "https://dc.lft.to/lastmile_qr_scan"}, "fusion_lon": 0.0}, {"lat": 38.91786166666667, "is_disabled": 0, "type": "electric_scooter", "lon": -77.04072516666666, "bike_id": "ff24c66eec3bfa89ba9aad4b0d427973", "fusion_lat": 0.0, "name": "ff24c66eec3bfa89ba9aad4b0d427973", "is_reserved": 0, "rental_uris": {"android": "https://dc.lft.to/lastmile_qr_scan", "ios": "https://dc.lft.to/lastmile_qr_scan"}, "fusion_lon": 0.0}, {"lat": 38.90311666666667, "is_disabled": 0, "type": "electric_scooter", "lon": -76.97804733333334, "bike_id": "fefdd5dab4313d0a06b50558efe3a13b", "fusion_lat": 0.0, "name": "fefdd5dab4313d0a06b50558efe3a13b", "is_reserved": 0, "rental_uris": {"android": "https://dc.lft.to/lastmile_qr_scan", "ios": "https://dc.lft.to/lastmile_qr_scan"}, "fusion_lon": 0.0}, {"lat": 38.97088333333333, "is_disabled": 0, "type": "electric_bike", "lon": -77.069662, "bike_id": "f1c79eb28692f7d9b27ef9d5347656d3", "fusion_lat": 0.0, "name": "f1c79eb28692f7d9b27ef9d5347656d3", "is_reserved": 0, "rental_uris": {"android": "https://dc.lft.to/lastmile_qr_scan", "ios": "https://dc.lft.to/lastmile_qr_scan"}, "fusion_lon": 0.0}, {"lat": 38.919272666666664, "is_disabled": 0, "type": "electric_scooter", "lon": -77.01344183333333, "bike_id": "14904fd30c9588f53e85abe40e07936e", "fusion_lat": 0.0, "name": "14904fd30c9588f53e85abe40e07936e", "is_reserved": 0, "rental_uris": {"android": "https://dc.lft.to/lastmile_qr_scan", "ios": "https://dc.lft.to/lastmile_qr_scan"}, "fusion_lon": 0.0}, {"lat": 38.93497433333334, "is_disabled": 0, "type": "electric_scooter", "lon": -77.05802633333333, "bike_id": "f1810fb47566987c6f2dc54d297c2cda", "fusion_lat": 0.0, "name": "f1810fb47566987c6f2dc54d297c2cda", "is_reserved": 0, "rental_uris": {"android": "https://dc.lft.to/lastmile_qr_scan", "ios": "https://dc.lft.to/lastmile_qr_scan"}, "fusion_lon": 0.0}, {"lat": 38.93038416666667, "is_disabled": 0, "type": "electric_scooter", "lon": -77.03631966666667, "bike_id": "20156ac04f8e1c7d4c0cd705e55d6712", "fusion_lat": 0.0, "name": "20156ac04f8e1c7d4c0cd705e55d6712", "is_reserved": 0, "rental_uris": {"android": "https://dc.lft.to/lastmile_qr_scan", "ios": "https://dc.lft.to/lastmile_qr_scan"}, "fusion_lon": 0.0}, {"lat": 38.90864083333334, "is_disabled": 0, "type": "electric_scooter", "lon": -77.04590483333334, "bike_id": "b46e139c214e5e372c18424d7772133c", "fusion_lat": 0.0, "name": "b46e139c214e5e372c18424d7772133c", "is_reserved": 0, "rental_uris": {"android": "https://dc.lft.to/lastmile_qr_scan", "ios": "https://dc.lft.to/lastmile_qr_scan"}, "fusion_lon": 0.0}, {"lat": 38.870082833333335, "is_disabled": 0, "type": "electric_bike", "lon": -76.960204, "bike_id": "c1730dad4601957f87680466756d57bb", "fusion_lat": 0.0, "name": "c1730dad4601957f87680466756d57bb", "is_reserved": 0, "rental_uris": {"android": "https://dc.lft.to/lastmile_qr_scan", "ios": "https://dc.lft.to/lastmile_qr_scan"}, "fusion_lon": 0.0}, {"lat": 38.933538, "is_disabled": 0, "type": "electric_scooter", "lon": -77.057054, "bike_id": "a8bb8ddbb59ad1009686ec732711c0af", "fusion_lat": 0.0, "name": "a8bb8ddbb59ad1009686ec732711c0af", "is_reserved": 0, "rental_uris": {"android": "https://dc.lft.to/lastmile_qr_scan", "ios": "https://dc.lft.to/lastmile_qr_scan"}, "fusion_lon": 0.0}, {"lat": 38.9061165, "is_disabled": 0, "type": "electric_scooter", "lon": -77.06300066666667, "bike_id": "d258d9d6959038bb29466fe1d084800c", "fusion_lat": 0.0, "name": "d258d9d6959038bb29466fe1d084800c", "is_reserved": 0, "rental_uris": {"android": "https://dc.lft.to/lastmile_qr_scan", "ios": "https://dc.lft.to/lastmile_qr_scan"}, "fusion_lon": 0.0}, {"lat": 38.83678833333333, "is_disabled": 0, "type": "electric_scooter", "lon": -77.005706, "bike_id": "95b4a4ca3f26ffbdbea843ae0f4d0502", "fusion_lat": 0.0, "name": "95b4a4ca3f26ffbdbea843ae0f4d0502", "is_reserved": 0, "rental_uris": {"android": "https://dc.lft.to/lastmile_qr_scan", "ios": "https://dc.lft.to/lastmile_qr_scan"}, "fusion_lon": 0.0}, {"lat": 38.91555433333333, "is_disabled": 0, "type": "electric_scooter", "lon": -77.024305, "bike_id": "8e40625afdc731f2a45f64e49cd4c3b9", "fusion_lat": 0.0, "name": "8e40625afdc731f2a45f64e49cd4c3b9", "is_reserved": 0, "rental_uris": {"android": "https://dc.lft.to/lastmile_qr_scan", "ios": "https://dc.lft.to/lastmile_qr_scan"}, "fusion_lon": 0.0}, {"lat": 38.95875633333333, "is_disabled": 0, "type": "electric_scooter", "lon": -77.02732166666667, "bike_id": "a38f83cc533772275e4dff8405ed1f78", "fusion_lat": 0.0, "name": "a38f83cc533772275e4dff8405ed1f78", "is_reserved": 0, "rental_uris": {"android": "https://dc.lft.to/lastmile_qr_scan", "ios": "https://dc.lft.to/lastmile_qr_scan"}, "fusion_lon": 0.0}, {"lat": 38.89916266666667, "is_disabled": 0, "type": "electric_scooter", "lon": -76.93382516666667, "bike_id": "a7f0fa85aebaec286435b46dd9fabebd", "fusion_lat": 0.0, "name": "a7f0fa85aebaec286435b46dd9fabebd", "is_reserved": 0, "rental_uris": {"android": "https://dc.lft.to/lastmile_qr_scan", "ios": "https://dc.lft.to/lastmile_qr_scan"}, "fusion_lon": 0.0}, {"lat": 38.863465, "is_disabled": 0, "type": "electric_scooter", "lon": -76.99001066666666, "bike_id": "e4a124851d92967a25164eaae14a639f", "fusion_lat": 0.0, "name": "e4a124851d92967a25164eaae14a639f", "is_reserved": 0, "rental_uris": {"android": "https://dc.lft.to/lastmile_qr_scan", "ios": "https://dc.lft.to/lastmile_qr_scan"}, "fusion_lon": 0.0}, {"lat": 38.9267755, "is_disabled": 0, "type": "electric_scooter", "lon": -77.05117516666667, "bike_id": "093c4beb46a89ad83bf82e80e6e5dedf", "fusion_lat": 0.0, "name": "093c4beb46a89ad83bf82e80e6e5dedf", "is_reserved": 0, "rental_uris": {"android": "https://dc.lft.to/lastmile_qr_scan", "ios": "https://dc.lft.to/lastmile_qr_scan"}, "fusion_lon": 0.0}, {"lat": 38.955520166666666, "is_disabled": 0, "type": "electric_bike", "lon": -76.93542583333333, "bike_id": "8c7ab318c2330fd30ba663a38bd20110", "fusion_lat": 0.0, "name": "8c7ab318c2330fd30ba663a38bd20110", "is_reserved": 0, "rental_uris": {"android": "https://dc.lft.to/lastmile_qr_scan", "ios": "https://dc.lft.to/lastmile_qr_scan"}, "fusion_lon": 0.0}, {"lat": 38.912662, "is_disabled": 0, "type": "electric_scooter", "lon": -77.01305083333334, "bike_id": "f5d2de973581b99a74c03465c76b6e99", "fusion_lat": 0.0, "name": "f5d2de973581b99a74c03465c76b6e99", "is_reserved": 0, "rental_uris": {"android": "https://dc.lft.to/lastmile_qr_scan", "ios": "https://dc.lft.to/lastmile_qr_scan"}, "fusion_lon": 0.0}, {"lat": 38.90953283333333, "is_disabled": 0, "type": "electric_scooter", "lon": -77.0479305, "bike_id": "3847e1d3493a48df9c32169ed1489819", "fusion_lat": 0.0, "name": "3847e1d3493a48df9c32169ed1489819", "is_reserved": 0, "rental_uris": {"android": "https://dc.lft.to/lastmile_qr_scan", "ios": "https://dc.lft.to/lastmile_qr_scan"}, "fusion_lon": 0.0}, {"lat": 38.84292583333333, "is_disabled": 0, "type": "electric_scooter", "lon": -76.99949983333333, "bike_id": "6db154fee119c8bf27ced42cc817a0d4", "fusion_lat": 0.0, "name": "6db154fee119c8bf27ced42cc817a0d4", "is_reserved": 0, "rental_uris": {"android": "https://dc.lft.to/lastmile_qr_scan", "ios": "https://dc.lft.to/lastmile_qr_scan"}, "fusion_lon": 0.0}, {"lat": 38.87650683333333, "is_disabled": 0, "type": "electric_scooter", "lon": -77.005686, "bike_id": "a1db5b4be8e61e7fd9639b872204aa39", "fusion_lat": 0.0, "name": "a1db5b4be8e61e7fd9639b872204aa39", "is_reserved": 0, "rental_uris": {"android": "https://dc.lft.to/lastmile_qr_scan", "ios": "https://dc.lft.to/lastmile_qr_scan"}, "fusion_lon": 0.0}, {"lat": 38.8974025, "is_disabled": 0, "type": "electric_scooter", "lon": -77.04761466666666, "bike_id": "9febbad78a4365580a9b612bdaf54840", "fusion_lat": 0.0, "name": "9febbad78a4365580a9b612bdaf54840", "is_reserved": 0, "rental_uris": {"android": "https://dc.lft.to/lastmile_qr_scan", "ios": "https://dc.lft.to/lastmile_qr_scan"}, "fusion_lon": 0.0}, {"lat": 38.898831333333334, "is_disabled": 0, "type": "electric_scooter", "lon": -76.93175616666667, "bike_id": "ff6bd2d3200f1d9c294a52f4b103888b", "fusion_lat": 0.0, "name": "ff6bd2d3200f1d9c294a52f4b103888b", "is_reserved": 0, "rental_uris": {"android": "https://dc.lft.to/lastmile_qr_scan", "ios": "https://dc.lft.to/lastmile_qr_scan"}, "fusion_lon": 0.0}, {"lat": 38.90591116666667, "is_disabled": 0, "type": "electric_scooter", "lon": -77.04099366666667, "bike_id": "498d87e9fdc2a374c684bbf3a6389333", "fusion_lat": 0.0, "name": "498d87e9fdc2a374c684bbf3a6389333", "is_reserved": 0, "rental_uris": {"android": "https://dc.lft.to/lastmile_qr_scan", "ios": "https://dc.lft.to/lastmile_qr_scan"}, "fusion_lon": 0.0}, {"lat": 38.901087, "is_disabled": 0, "type": "electric_scooter", "lon": -77.04984, "bike_id": "22a52370365d0254a27246feb03dc081", "fusion_lat": 0.0, "name": "22a52370365d0254a27246feb03dc081", "is_reserved": 0, "rental_uris": {"android": "https://dc.lft.to/lastmile_qr_scan", "ios": "https://dc.lft.to/lastmile_qr_scan"}, "fusion_lon": 0.0}, {"lat": 38.900429833333334, "is_disabled": 0, "type": "electric_scooter", "lon": -77.02615966666667, "bike_id": "6a3e722503b46d7b7866a9c5730da40e", "fusion_lat": 0.0, "name": "6a3e722503b46d7b7866a9c5730da40e", "is_reserved": 0, "rental_uris": {"android": "https://dc.lft.to/lastmile_qr_scan", "ios": "https://dc.lft.to/lastmile_qr_scan"}, "fusion_lon": 0.0}, {"lat": 38.922453, "is_disabled": 0, "type": "electric_scooter", "lon": -77.04574916666667, "bike_id": "a735814a01bc804e0690b907719f6e3d", "fusion_lat": 0.0, "name": "a735814a01bc804e0690b907719f6e3d", "is_reserved": 0, "rental_uris": {"android": "https://dc.lft.to/lastmile_qr_scan", "ios": "https://dc.lft.to/lastmile_qr_scan"}, "fusion_lon": 0.0}, {"lat": 38.936082, "is_disabled": 0, "type": "electric_scooter", "lon": -77.058948, "bike_id": "68ed51765c53ccd3276e698af82f7c62", "fusion_lat": 0.0, "name": "68ed51765c53ccd3276e698af82f7c62", "is_reserved": 0, "rental_uris": {"android": "https://dc.lft.to/lastmile_qr_scan", "ios": "https://dc.lft.to/lastmile_qr_scan"}, "fusion_lon": 0.0}, {"lat": 38.92654233333333, "is_disabled": 0, "type": "electric_scooter", "lon": -77.04059883333333, "bike_id": "9e4e41f24532dd808ebd8439662a3569", "fusion_lat": 0.0, "name": "9e4e41f24532dd808ebd8439662a3569", "is_reserved": 0, "rental_uris": {"android": "https://dc.lft.to/lastmile_qr_scan", "ios": "https://dc.lft.to/lastmile_qr_scan"}, "fusion_lon": 0.0}, {"lat": 38.9082395, "is_disabled": 0, "type": "electric_scooter", "lon": -77.06382083333334, "bike_id": "a32843454dbb491de603636389c2676c", "fusion_lat": 0.0, "name": "a32843454dbb491de603636389c2676c", "is_reserved": 0, "rental_uris": {"android": "https://dc.lft.to/lastmile_qr_scan", "ios": "https://dc.lft.to/lastmile_qr_scan"}, "fusion_lon": 0.0}, {"lat": 38.907248833333334, "is_disabled": 0, "type": "electric_scooter", "lon": -77.0533435, "bike_id": "296d28b8c6d9787d1bb29cc13338045f", "fusion_lat": 0.0, "name": "296d28b8c6d9787d1bb29cc13338045f", "is_reserved": 0, "rental_uris": {"android": "https://dc.lft.to/lastmile_qr_scan", "ios": "https://dc.lft.to/lastmile_qr_scan"}, "fusion_lon": 0.0}, {"lat": 38.8504885, "is_disabled": 0, "type": "electric_bike", "lon": -76.97320633333334, "bike_id": "d94a11bb5aa84f26386e9e6131cdf4f3", "fusion_lat": 0.0, "name": "d94a11bb5aa84f26386e9e6131cdf4f3", "is_reserved": 0, "rental_uris": {"android": "https://dc.lft.to/lastmile_qr_scan", "ios": "https://dc.lft.to/lastmile_qr_scan"}, "fusion_lon": 0.0}, {"lat": 38.91120016666667, "is_disabled": 0, "type": "electric_scooter", "lon": -77.03831816666667, "bike_id": "d8aae99c4365c15abb9f21f3a8ca1ad5", "fusion_lat": 0.0, "name": "d8aae99c4365c15abb9f21f3a8ca1ad5", "is_reserved": 0, "rental_uris": {"android": "https://dc.lft.to/lastmile_qr_scan", "ios": "https://dc.lft.to/lastmile_qr_scan"}, "fusion_lon": 0.0}, {"lat": 38.92427433333334, "is_disabled": 0, "type": "electric_scooter", "lon": -77.05181833333333, "bike_id": "5afcb7256746c9c425d49e5a074a9ae9", "fusion_lat": 0.0, "name": "5afcb7256746c9c425d49e5a074a9ae9", "is_reserved": 0, "rental_uris": {"android": "https://dc.lft.to/lastmile_qr_scan", "ios": "https://dc.lft.to/lastmile_qr_scan"}, "fusion_lon": 0.0}, {"lat": 38.90448416666667, "is_disabled": 0, "type": "electric_scooter", "lon": -77.03177533333333, "bike_id": "5b13292e74956a8cfc476a923deede9f", "fusion_lat": 0.0, "name": "5b13292e74956a8cfc476a923deede9f", "is_reserved": 0, "rental_uris": {"android": "https://dc.lft.to/lastmile_qr_scan", "ios": "https://dc.lft.to/lastmile_qr_scan"}, "fusion_lon": 0.0}, {"lat": 38.9228455, "is_disabled": 0, "type": "electric_scooter", "lon": -77.029695, "bike_id": "ec7060cc4e43a7fbd130ca2aa23870e4", "fusion_lat": 0.0, "name": "ec7060cc4e43a7fbd130ca2aa23870e4", "is_reserved": 0, "rental_uris": {"android": "https://dc.lft.to/lastmile_qr_scan", "ios": "https://dc.lft.to/lastmile_qr_scan"}, "fusion_lon": 0.0}, {"lat": 38.95013616666667, "is_disabled": 0, "type": "electric_scooter", "lon": -77.0090075, "bike_id": "47f9cf4f345afd8104e68ef00d5d211c", "fusion_lat": 0.0, "name": "47f9cf4f345afd8104e68ef00d5d211c", "is_reserved": 0, "rental_uris": {"android": "https://dc.lft.to/lastmile_qr_scan", "ios": "https://dc.lft.to/lastmile_qr_scan"}, "fusion_lon": 0.0}, {"lat": 38.91655733333333, "is_disabled": 0, "type": "electric_scooter", "lon": -77.02282566666666, "bike_id": "b998d5b6eb8964a54749f9eb547da6ce", "fusion_lat": 0.0, "name": "b998d5b6eb8964a54749f9eb547da6ce", "is_reserved": 0, "rental_uris": {"android": "https://dc.lft.to/lastmile_qr_scan", "ios": "https://dc.lft.to/lastmile_qr_scan"}, "fusion_lon": 0.0}, {"lat": 38.911247, "is_disabled": 0, "type": "electric_scooter", "lon": -77.032441, "bike_id": "310b0bf20e968ef4d82886d50254013e", "fusion_lat": 0.0, "name": "310b0bf20e968ef4d82886d50254013e", "is_reserved": 0, "rental_uris": {"android": "https://dc.lft.to/lastmile_qr_scan", "ios": "https://dc.lft.to/lastmile_qr_scan"}, "fusion_lon": 0.0}, {"lat": 38.8980185, "is_disabled": 0, "type": "electric_scooter", "lon": -77.02372666666666, "bike_id": "da67fcabef74d579aa071fe648de7cfb", "fusion_lat": 0.0, "name": "da67fcabef74d579aa071fe648de7cfb", "is_reserved": 0, "rental_uris": {"android": "https://dc.lft.to/lastmile_qr_scan", "ios": "https://dc.lft.to/lastmile_qr_scan"}, "fusion_lon": 0.0}, {"lat": 38.94090633333333, "is_disabled": 0, "type": "electric_scooter", "lon": -77.06132283333334, "bike_id": "7cbecb19b59c5f90e0cd65dcae2e8289", "fusion_lat": 0.0, "name": "7cbecb19b59c5f90e0cd65dcae2e8289", "is_reserved": 0, "rental_uris": {"android": "https://dc.lft.to/lastmile_qr_scan", "ios": "https://dc.lft.to/lastmile_qr_scan"}, "fusion_lon": 0.0}, {"lat": 38.925382666666664, "is_disabled": 0, "type": "electric_scooter", "lon": -77.0257895, "bike_id": "52f5f81904d73bc2ddea7d8415183ebc", "fusion_lat": 0.0, "name": "52f5f81904d73bc2ddea7d8415183ebc", "is_reserved": 0, "rental_uris": {"android": "https://dc.lft.to/lastmile_qr_scan", "ios": "https://dc.lft.to/lastmile_qr_scan"}, "fusion_lon": 0.0}, {"lat": 38.9490335, "is_disabled": 0, "type": "electric_bike", "lon": -76.97240133333334, "bike_id": "cef7f249a1c397c797045e15073acbff", "fusion_lat": 0.0, "name": "cef7f249a1c397c797045e15073acbff", "is_reserved": 0, "rental_uris": {"android": "https://dc.lft.to/lastmile_qr_scan", "ios": "https://dc.lft.to/lastmile_qr_scan"}, "fusion_lon": 0.0}, {"lat": 38.9335655, "is_disabled": 0, "type": "electric_bike", "lon": -77.099617, "bike_id": "396188676675c13a95992c30a3ddf93d", "fusion_lat": 0.0, "name": "396188676675c13a95992c30a3ddf93d", "is_reserved": 0, "rental_uris": {"android": "https://dc.lft.to/lastmile_qr_scan", "ios": "https://dc.lft.to/lastmile_qr_scan"}, "fusion_lon": 0.0}, {"lat": 38.920976333333336, "is_disabled": 0, "type": "electric_scooter", "lon": -77.0177695, "bike_id": "0b3d8a1637efd4724276fa632bc0ace0", "fusion_lat": 0.0, "name": "0b3d8a1637efd4724276fa632bc0ace0", "is_reserved": 0, "rental_uris": {"android": "https://dc.lft.to/lastmile_qr_scan", "ios": "https://dc.lft.to/lastmile_qr_scan"}, "fusion_lon": 0.0}, {"lat": 38.9190845, "is_disabled": 0, "type": "electric_scooter", "lon": -77.04628766666667, "bike_id": "28fe01aeb8af9665e207db9dac33ac46", "fusion_lat": 0.0, "name": "28fe01aeb8af9665e207db9dac33ac46", "is_reserved": 0, "rental_uris": {"android": "https://dc.lft.to/lastmile_qr_scan", "ios": "https://dc.lft.to/lastmile_qr_scan"}, "fusion_lon": 0.0}, {"lat": 38.90963683333333, "is_disabled": 0, "type": "electric_scooter", "lon": -77.04773033333333, "bike_id": "dbec4c8cb09f5a905788b86e47d4c5e5", "fusion_lat": 0.0, "name": "dbec4c8cb09f5a905788b86e47d4c5e5", "is_reserved": 0, "rental_uris": {"android": "https://dc.lft.to/lastmile_qr_scan", "ios": "https://dc.lft.to/lastmile_qr_scan"}, "fusion_lon": 0.0}, {"lat": 38.9096695, "is_disabled": 0, "type": "electric_scooter", "lon": -77.03720516666667, "bike_id": "395479b5c040a11b588d57830b0349fb", "fusion_lat": 0.0, "name": "395479b5c040a11b588d57830b0349fb", "is_reserved": 0, "rental_uris": {"android": "https://dc.lft.to/lastmile_qr_scan", "ios": "https://dc.lft.to/lastmile_qr_scan"}, "fusion_lon": 0.0}, {"lat": 38.91925366666667, "is_disabled": 0, "type": "electric_scooter", "lon": -77.03132583333333, "bike_id": "817499edc73d041a7f887d6f71c3b327", "fusion_lat": 0.0, "name": "817499edc73d041a7f887d6f71c3b327", "is_reserved": 0, "rental_uris": {"android": "https://dc.lft.to/lastmile_qr_scan", "ios": "https://dc.lft.to/lastmile_qr_scan"}, "fusion_lon": 0.0}, {"lat": 38.82248466666667, "is_disabled": 0, "type": "electric_scooter", "lon": -76.99989783333334, "bike_id": "3c01f309d24f6c5aa3f153528eebd7aa", "fusion_lat": 0.0, "name": "3c01f309d24f6c5aa3f153528eebd7aa", "is_reserved": 0, "rental_uris": {"android": "https://dc.lft.to/lastmile_qr_scan", "ios": "https://dc.lft.to/lastmile_qr_scan"}, "fusion_lon": 0.0}, {"lat": 38.90768516666667, "is_disabled": 0, "type": "electric_scooter", "lon": -77.0606805, "bike_id": "98c8f0f1aa8a31f056acdbc8f380df8f", "fusion_lat": 0.0, "name": "98c8f0f1aa8a31f056acdbc8f380df8f", "is_reserved": 0, "rental_uris": {"android": "https://dc.lft.to/lastmile_qr_scan", "ios": "https://dc.lft.to/lastmile_qr_scan"}, "fusion_lon": 0.0}, {"lat": 38.865258833333336, "is_disabled": 0, "type": "electric_scooter", "lon": -76.99025533333334, "bike_id": "3487d102281fd89878582288e1490ed4", "fusion_lat": 0.0, "name": "3487d102281fd89878582288e1490ed4", "is_reserved": 0, "rental_uris": {"android": "https://dc.lft.to/lastmile_qr_scan", "ios": "https://dc.lft.to/lastmile_qr_scan"}, "fusion_lon": 0.0}, {"lat": 38.90092683333334, "is_disabled": 0, "type": "electric_scooter", "lon": -77.020372, "bike_id": "97f6570019c46f537aef25b82c6b64fb", "fusion_lat": 0.0, "name": "97f6570019c46f537aef25b82c6b64fb", "is_reserved": 0, "rental_uris": {"android": "https://dc.lft.to/lastmile_qr_scan", "ios": "https://dc.lft.to/lastmile_qr_scan"}, "fusion_lon": 0.0}, {"lat": 38.856873666666665, "is_disabled": 0, "type": "electric_scooter", "lon": -76.98164083333333, "bike_id": "86f9831ed53fde71852e5422cb51dbc5", "fusion_lat": 0.0, "name": "86f9831ed53fde71852e5422cb51dbc5", "is_reserved": 0, "rental_uris": {"android": "https://dc.lft.to/lastmile_qr_scan", "ios": "https://dc.lft.to/lastmile_qr_scan"}, "fusion_lon": 0.0}, {"lat": 38.911143333333335, "is_disabled": 0, "type": "electric_scooter", "lon": -77.0450185, "bike_id": "89502117a73e30fa6d493aae63121639", "fusion_lat": 0.0, "name": "89502117a73e30fa6d493aae63121639", "is_reserved": 0, "rental_uris": {"android": "https://dc.lft.to/lastmile_qr_scan", "ios": "https://dc.lft.to/lastmile_qr_scan"}, "fusion_lon": 0.0}, {"lat": 38.842748, "is_disabled": 0, "type": "electric_bike", "lon": -76.98844533333333, "bike_id": "4663336a8e8b17adc20b9682515af742", "fusion_lat": 0.0, "name": "4663336a8e8b17adc20b9682515af742", "is_reserved": 0, "rental_uris": {"android": "https://dc.lft.to/lastmile_qr_scan", "ios": "https://dc.lft.to/lastmile_qr_scan"}, "fusion_lon": 0.0}, {"lat": 38.91999216666667, "is_disabled": 0, "type": "electric_scooter", "lon": -76.99291333333333, "bike_id": "3ae939abe4e22762d64072057deef2e2", "fusion_lat": 0.0, "name": "3ae939abe4e22762d64072057deef2e2", "is_reserved": 0, "rental_uris": {"android": "https://dc.lft.to/lastmile_qr_scan", "ios": "https://dc.lft.to/lastmile_qr_scan"}, "fusion_lon": 0.0}, {"lat": 38.8922425, "is_disabled": 0, "type": "electric_scooter", "lon": -77.04800483333334, "bike_id": "1abc324487f921ce0ba1997f9c7beb40", "fusion_lat": 0.0, "name": "1abc324487f921ce0ba1997f9c7beb40", "is_reserved": 0, "rental_uris": {"android": "https://dc.lft.to/lastmile_qr_scan", "ios": "https://dc.lft.to/lastmile_qr_scan"}, "fusion_lon": 0.0}, {"lat": 38.88994433333333, "is_disabled": 0, "type": "electric_scooter", "lon": -76.95564883333333, "bike_id": "24f20f5a4eb699a00b5c6a63bcc304c0", "fusion_lat": 0.0, "name": "24f20f5a4eb699a00b5c6a63bcc304c0", "is_reserved": 0, "rental_uris": {"android": "https://dc.lft.to/lastmile_qr_scan", "ios": "https://dc.lft.to/lastmile_qr_scan"}, "fusion_lon": 0.0}, {"lat": 38.98227166666667, "is_disabled": 0, "type": "electric_bike", "lon": -77.02595216666667, "bike_id": "144936eec26ecf3610f8990ea17fcb68", "fusion_lat": 0.0, "name": "144936eec26ecf3610f8990ea17fcb68", "is_reserved": 0, "rental_uris": {"android": "https://dc.lft.to/lastmile_qr_scan", "ios": "https://dc.lft.to/lastmile_qr_scan"}, "fusion_lon": 0.0}, {"lat": 38.902417, "is_disabled": 0, "type": "electric_scooter", "lon": -77.00203883333333, "bike_id": "5020ed7a089506f052609f7e07b89e23", "fusion_lat": 0.0, "name": "5020ed7a089506f052609f7e07b89e23", "is_reserved": 0, "rental_uris": {"android": "https://dc.lft.to/lastmile_qr_scan", "ios": "https://dc.lft.to/lastmile_qr_scan"}, "fusion_lon": 0.0}, {"lat": 38.900038, "is_disabled": 0, "type": "electric_scooter", "lon": -77.02519983333333, "bike_id": "b6b13f01c4742c96835b9542c83f4781", "fusion_lat": 0.0, "name": "b6b13f01c4742c96835b9542c83f4781", "is_reserved": 0, "rental_uris": {"android": "https://dc.lft.to/lastmile_qr_scan", "ios": "https://dc.lft.to/lastmile_qr_scan"}, "fusion_lon": 0.0}, {"lat": 38.928634, "is_disabled": 0, "type": "electric_scooter", "lon": -77.03322766666666, "bike_id": "72686e57103a40146a7734344ff7f85b", "fusion_lat": 0.0, "name": "72686e57103a40146a7734344ff7f85b", "is_reserved": 0, "rental_uris": {"android": "https://dc.lft.to/lastmile_qr_scan", "ios": "https://dc.lft.to/lastmile_qr_scan"}, "fusion_lon": 0.0}, {"lat": 38.837327, "is_disabled": 0, "type": "electric_bike", "lon": -76.99754183333333, "bike_id": "ea2322d751da8cc1e91e570e3f7f0ed3", "fusion_lat": 0.0, "name": "ea2322d751da8cc1e91e570e3f7f0ed3", "is_reserved": 0, "rental_uris": {"android": "https://dc.lft.to/lastmile_qr_scan", "ios": "https://dc.lft.to/lastmile_qr_scan"}, "fusion_lon": 0.0}, {"lat": 38.919827833333336, "is_disabled": 0, "type": "electric_scooter", "lon": -77.04169583333334, "bike_id": "dbe33bd5a0287373a23248a6c5f36895", "fusion_lat": 0.0, "name": "dbe33bd5a0287373a23248a6c5f36895", "is_reserved": 0, "rental_uris": {"android": "https://dc.lft.to/lastmile_qr_scan", "ios": "https://dc.lft.to/lastmile_qr_scan"}, "fusion_lon": 0.0}, {"lat": 38.92991833333333, "is_disabled": 0, "type": "electric_scooter", "lon": -77.03235766666667, "bike_id": "f0610692278165acca4fe96d14c4d6fd", "fusion_lat": 0.0, "name": "f0610692278165acca4fe96d14c4d6fd", "is_reserved": 0, "rental_uris": {"android": "https://dc.lft.to/lastmile_qr_scan", "ios": "https://dc.lft.to/lastmile_qr_scan"}, "fusion_lon": 0.0}, {"lat": 38.926105, "is_disabled": 0, "type": "electric_scooter", "lon": -77.00065566666666, "bike_id": "897685bb431d9a944c7c579a9ea1845c", "fusion_lat": 0.0, "name": "897685bb431d9a944c7c579a9ea1845c", "is_reserved": 0, "rental_uris": {"android": "https://dc.lft.to/lastmile_qr_scan", "ios": "https://dc.lft.to/lastmile_qr_scan"}, "fusion_lon": 0.0}, {"lat": 38.93409233333333, "is_disabled": 0, "type": "electric_scooter", "lon": -77.02036633333333, "bike_id": "15c23bb9b50c1e1ab3da159dd95df84f", "fusion_lat": 0.0, "name": "15c23bb9b50c1e1ab3da159dd95df84f", "is_reserved": 0, "rental_uris": {"android": "https://dc.lft.to/lastmile_qr_scan", "ios": "https://dc.lft.to/lastmile_qr_scan"}, "fusion_lon": 0.0}, {"lat": 38.871523833333335, "is_disabled": 0, "type": "electric_bike", "lon": -76.93667733333334, "bike_id": "5296ad35ed9b7d26bb3a8828f326111f", "fusion_lat": 0.0, "name": "5296ad35ed9b7d26bb3a8828f326111f", "is_reserved": 0, "rental_uris": {"android": "https://dc.lft.to/lastmile_qr_scan", "ios": "https://dc.lft.to/lastmile_qr_scan"}, "fusion_lon": 0.0}, {"lat": 38.90572516666667, "is_disabled": 0, "type": "electric_scooter", "lon": -77.043329, "bike_id": "6f8b8737116dba8e8ae7654d613316a9", "fusion_lat": 0.0, "name": "6f8b8737116dba8e8ae7654d613316a9", "is_reserved": 0, "rental_uris": {"android": "https://dc.lft.to/lastmile_qr_scan", "ios": "https://dc.lft.to/lastmile_qr_scan"}, "fusion_lon": 0.0}, {"lat": 38.944302, "is_disabled": 0, "type": "electric_scooter", "lon": -77.0630405, "bike_id": "7d349969b1ce6bc39322ad00e18569e9", "fusion_lat": 0.0, "name": "7d349969b1ce6bc39322ad00e18569e9", "is_reserved": 0, "rental_uris": {"android": "https://dc.lft.to/lastmile_qr_scan", "ios": "https://dc.lft.to/lastmile_qr_scan"}, "fusion_lon": 0.0}, {"lat": 38.915720666666665, "is_disabled": 0, "type": "electric_scooter", "lon": -77.03840833333334, "bike_id": "7df5f72dec80fa5ca325403082564777", "fusion_lat": 0.0, "name": "7df5f72dec80fa5ca325403082564777", "is_reserved": 0, "rental_uris": {"android": "https://dc.lft.to/lastmile_qr_scan", "ios": "https://dc.lft.to/lastmile_qr_scan"}, "fusion_lon": 0.0}, {"lat": 38.92277683333333, "is_disabled": 0, "type": "electric_scooter", "lon": -77.042412, "bike_id": "0b5d567f02c17efef790a459c51108a3", "fusion_lat": 0.0, "name": "0b5d567f02c17efef790a459c51108a3", "is_reserved": 0, "rental_uris": {"android": "https://dc.lft.to/lastmile_qr_scan", "ios": "https://dc.lft.to/lastmile_qr_scan"}, "fusion_lon": 0.0}, {"lat": 38.8939645, "is_disabled": 0, "type": "electric_scooter", "lon": -77.0558635, "bike_id": "7023fae345de01d6b18979698d5ddd6c", "fusion_lat": 0.0, "name": "7023fae345de01d6b18979698d5ddd6c", "is_reserved": 0, "rental_uris": {"android": "https://dc.lft.to/lastmile_qr_scan", "ios": "https://dc.lft.to/lastmile_qr_scan"}, "fusion_lon": 0.0}, {"lat": 38.909457833333335, "is_disabled": 0, "type": "electric_scooter", "lon": -77.04663133333334, "bike_id": "a305db19020f04d47a7bcf1685728b12", "fusion_lat": 0.0, "name": "a305db19020f04d47a7bcf1685728b12", "is_reserved": 0, "rental_uris": {"android": "https://dc.lft.to/lastmile_qr_scan", "ios": "https://dc.lft.to/lastmile_qr_scan"}, "fusion_lon": 0.0}, {"lat": 38.944952, "is_disabled": 0, "type": "electric_bike", "lon": -77.00679333333333, "bike_id": "9d41a65e7c3c6452fbed88c5bd5b867d", "fusion_lat": 0.0, "name": "9d41a65e7c3c6452fbed88c5bd5b867d", "is_reserved": 0, "rental_uris": {"android": "https://dc.lft.to/lastmile_qr_scan", "ios": "https://dc.lft.to/lastmile_qr_scan"}, "fusion_lon": 0.0}, {"lat": 38.918573, "is_disabled": 0, "type": "electric_scooter", "lon": -77.04174733333333, "bike_id": "4c784d16cb530edb024a45f8ec2b34fe", "fusion_lat": 0.0, "name": "4c784d16cb530edb024a45f8ec2b34fe", "is_reserved": 0, "rental_uris": {"android": "https://dc.lft.to/lastmile_qr_scan", "ios": "https://dc.lft.to/lastmile_qr_scan"}, "fusion_lon": 0.0}, {"lat": 38.9662745, "is_disabled": 0, "type": "electric_scooter", "lon": -77.01997633333333, "bike_id": "ed6a586001ebb38ab9be88ccb6d82d2d", "fusion_lat": 0.0, "name": "ed6a586001ebb38ab9be88ccb6d82d2d", "is_reserved": 0, "rental_uris": {"android": "https://dc.lft.to/lastmile_qr_scan", "ios": "https://dc.lft.to/lastmile_qr_scan"}, "fusion_lon": 0.0}, {"lat": 38.94134316666667, "is_disabled": 0, "type": "electric_scooter", "lon": -77.07616566666667, "bike_id": "ab8868619871f538c69226b089539427", "fusion_lat": 0.0, "name": "ab8868619871f538c69226b089539427", "is_reserved": 0, "rental_uris": {"android": "https://dc.lft.to/lastmile_qr_scan", "ios": "https://dc.lft.to/lastmile_qr_scan"}, "fusion_lon": 0.0}, {"lat": 38.96623616666667, "is_disabled": 0, "type": "electric_bike", "lon": -76.97670066666667, "bike_id": "5afb2f286641ddc42e07d4950de0f16b", "fusion_lat": 0.0, "name": "5afb2f286641ddc42e07d4950de0f16b", "is_reserved": 0, "rental_uris": {"android": "https://dc.lft.to/lastmile_qr_scan", "ios": "https://dc.lft.to/lastmile_qr_scan"}, "fusion_lon": 0.0}, {"lat": 38.9024015, "is_disabled": 0, "type": "electric_scooter", "lon": -77.02072316666667, "bike_id": "bb465909d1556714342ab3d5ed466acf", "fusion_lat": 0.0, "name": "bb465909d1556714342ab3d5ed466acf", "is_reserved": 0, "rental_uris": {"android": "https://dc.lft.to/lastmile_qr_scan", "ios": "https://dc.lft.to/lastmile_qr_scan"}, "fusion_lon": 0.0}, {"lat": 38.8869375, "is_disabled": 0, "type": "electric_scooter", "lon": -76.99383216666666, "bike_id": "880e99b9fb3c53a1c9932b7b4f322aba", "fusion_lat": 0.0, "name": "880e99b9fb3c53a1c9932b7b4f322aba", "is_reserved": 0, "rental_uris": {"android": "https://dc.lft.to/lastmile_qr_scan", "ios": "https://dc.lft.to/lastmile_qr_scan"}, "fusion_lon": 0.0}, {"lat": 38.9358235, "is_disabled": 0, "type": "electric_bike", "lon": -77.1068365, "bike_id": "f6a2f53b5543f6e18c418d5dc5b8e19c", "fusion_lat": 0.0, "name": "f6a2f53b5543f6e18c418d5dc5b8e19c", "is_reserved": 0, "rental_uris": {"android": "https://dc.lft.to/lastmile_qr_scan", "ios": "https://dc.lft.to/lastmile_qr_scan"}, "fusion_lon": 0.0}, {"lat": 38.900283, "is_disabled": 0, "type": "electric_scooter", "lon": -77.03322083333333, "bike_id": "86a88ca391b04b7fa05c05bc8a97ae9f", "fusion_lat": 0.0, "name": "86a88ca391b04b7fa05c05bc8a97ae9f", "is_reserved": 0, "rental_uris": {"android": "https://dc.lft.to/lastmile_qr_scan", "ios": "https://dc.lft.to/lastmile_qr_scan"}, "fusion_lon": 0.0}, {"lat": 38.905567166666664, "is_disabled": 0, "type": "electric_scooter", "lon": -77.00569083333333, "bike_id": "e1ba55ec39b5bf3062534bde37787e9d", "fusion_lat": 0.0, "name": "e1ba55ec39b5bf3062534bde37787e9d", "is_reserved": 0, "rental_uris": {"android": "https://dc.lft.to/lastmile_qr_scan", "ios": "https://dc.lft.to/lastmile_qr_scan"}, "fusion_lon": 0.0}, {"lat": 38.88481133333333, "is_disabled": 0, "type": "electric_scooter", "lon": -76.945272, "bike_id": "424999062e8dd2df08f6f34268d4ecd4", "fusion_lat": 0.0, "name": "424999062e8dd2df08f6f34268d4ecd4", "is_reserved": 0, "rental_uris": {"android": "https://dc.lft.to/lastmile_qr_scan", "ios": "https://dc.lft.to/lastmile_qr_scan"}, "fusion_lon": 0.0}, {"lat": 38.9192935, "is_disabled": 0, "type": "electric_scooter", "lon": -77.03393466666667, "bike_id": "99cb40f878cbce897c0f12b8e6022fed", "fusion_lat": 0.0, "name": "99cb40f878cbce897c0f12b8e6022fed", "is_reserved": 0, "rental_uris": {"android": "https://dc.lft.to/lastmile_qr_scan", "ios": "https://dc.lft.to/lastmile_qr_scan"}, "fusion_lon": 0.0}, {"lat": 38.91766666666667, "is_disabled": 0, "type": "electric_scooter", "lon": -77.03884633333334, "bike_id": "1696e2c0f6c9439bd2da9ce935556641", "fusion_lat": 0.0, "name": "1696e2c0f6c9439bd2da9ce935556641", "is_reserved": 0, "rental_uris": {"android": "https://dc.lft.to/lastmile_qr_scan", "ios": "https://dc.lft.to/lastmile_qr_scan"}, "fusion_lon": 0.0}, {"lat": 38.92285066666667, "is_disabled": 0, "type": "electric_scooter", "lon": -77.0320235, "bike_id": "de5a0fa1224de6d5602c7afea220678b", "fusion_lat": 0.0, "name": "de5a0fa1224de6d5602c7afea220678b", "is_reserved": 0, "rental_uris": {"android": "https://dc.lft.to/lastmile_qr_scan", "ios": "https://dc.lft.to/lastmile_qr_scan"}, "fusion_lon": 0.0}, {"lat": 38.9003525, "is_disabled": 0, "type": "electric_scooter", "lon": -77.03217783333334, "bike_id": "b6357d87fd068fdb9680a1cf86668412", "fusion_lat": 0.0, "name": "b6357d87fd068fdb9680a1cf86668412", "is_reserved": 0, "rental_uris": {"android": "https://dc.lft.to/lastmile_qr_scan", "ios": "https://dc.lft.to/lastmile_qr_scan"}, "fusion_lon": 0.0}, {"lat": 38.9247325, "is_disabled": 0, "type": "electric_scooter", "lon": -77.03383266666667, "bike_id": "c95fb1ff62aff614dec67cf627681a80", "fusion_lat": 0.0, "name": "c95fb1ff62aff614dec67cf627681a80", "is_reserved": 0, "rental_uris": {"android": "https://dc.lft.to/lastmile_qr_scan", "ios": "https://dc.lft.to/lastmile_qr_scan"}, "fusion_lon": 0.0}, {"lat": 38.8961205, "is_disabled": 0, "type": "electric_scooter", "lon": -76.955204, "bike_id": "e40e1cdd9b75aa85938a556a74346d0e", "fusion_lat": 0.0, "name": "e40e1cdd9b75aa85938a556a74346d0e", "is_reserved": 0, "rental_uris": {"android": "https://dc.lft.to/lastmile_qr_scan", "ios": "https://dc.lft.to/lastmile_qr_scan"}, "fusion_lon": 0.0}, {"lat": 38.91689516666667, "is_disabled": 0, "type": "electric_scooter", "lon": -77.0321575, "bike_id": "ca85fe414e4709d6a956bd719c114d0d", "fusion_lat": 0.0, "name": "ca85fe414e4709d6a956bd719c114d0d", "is_reserved": 0, "rental_uris": {"android": "https://dc.lft.to/lastmile_qr_scan", "ios": "https://dc.lft.to/lastmile_qr_scan"}, "fusion_lon": 0.0}, {"lat": 38.9258005, "is_disabled": 0, "type": "electric_scooter", "lon": -77.02843066666667, "bike_id": "fe92f45453aa0ce60b8ccd699cf27314", "fusion_lat": 0.0, "name": "fe92f45453aa0ce60b8ccd699cf27314", "is_reserved": 0, "rental_uris": {"android": "https://dc.lft.to/lastmile_qr_scan", "ios": "https://dc.lft.to/lastmile_qr_scan"}, "fusion_lon": 0.0}, {"lat": 38.90266783333333, "is_disabled": 0, "type": "electric_scooter", "lon": -77.04691383333333, "bike_id": "2e73b1fa732e32cb2f3e39a01d3f77a1", "fusion_lat": 0.0, "name": "2e73b1fa732e32cb2f3e39a01d3f77a1", "is_reserved": 0, "rental_uris": {"android": "https://dc.lft.to/lastmile_qr_scan", "ios": "https://dc.lft.to/lastmile_qr_scan"}, "fusion_lon": 0.0}, {"lat": 38.941730166666666, "is_disabled": 0, "type": "electric_scooter", "lon": -77.03282783333333, "bike_id": "1ca86affe553de1add2feeb7630768c8", "fusion_lat": 0.0, "name": "1ca86affe553de1add2feeb7630768c8", "is_reserved": 0, "rental_uris": {"android": "https://dc.lft.to/lastmile_qr_scan", "ios": "https://dc.lft.to/lastmile_qr_scan"}, "fusion_lon": 0.0}, {"lat": 38.873390666666666, "is_disabled": 0, "type": "electric_scooter", "lon": -76.99163083333333, "bike_id": "e7464686a8c96bf292949bbea78f3dd2", "fusion_lat": 0.0, "name": "e7464686a8c96bf292949bbea78f3dd2", "is_reserved": 0, "rental_uris": {"android": "https://dc.lft.to/lastmile_qr_scan", "ios": "https://dc.lft.to/lastmile_qr_scan"}, "fusion_lon": 0.0}, {"lat": 38.950633333333336, "is_disabled": 0, "type": "electric_scooter", "lon": -77.06657533333333, "bike_id": "6f8deb0ffa59fb950996afd16e218af5", "fusion_lat": 0.0, "name": "6f8deb0ffa59fb950996afd16e218af5", "is_reserved": 0, "rental_uris": {"android": "https://dc.lft.to/lastmile_qr_scan", "ios": "https://dc.lft.to/lastmile_qr_scan"}, "fusion_lon": 0.0}, {"lat": 38.876294333333334, "is_disabled": 0, "type": "electric_scooter", "lon": -76.96525583333333, "bike_id": "e3ae716f53f74743c9b34ac4260b2f34", "fusion_lat": 0.0, "name": "e3ae716f53f74743c9b34ac4260b2f34", "is_reserved": 0, "rental_uris": {"android": "https://dc.lft.to/lastmile_qr_scan", "ios": "https://dc.lft.to/lastmile_qr_scan"}, "fusion_lon": 0.0}, {"lat": 38.84295633333333, "is_disabled": 0, "type": "electric_scooter", "lon": -76.99946966666667, "bike_id": "b414f5ad6cad7ed063cba65ee85aa789", "fusion_lat": 0.0, "name": "b414f5ad6cad7ed063cba65ee85aa789", "is_reserved": 0, "rental_uris": {"android": "https://dc.lft.to/lastmile_qr_scan", "ios": "https://dc.lft.to/lastmile_qr_scan"}, "fusion_lon": 0.0}, {"lat": 38.90017, "is_disabled": 0, "type": "electric_scooter", "lon": -77.01133066666667, "bike_id": "c306f854ebc92b52f1705934e52b947f", "fusion_lat": 0.0, "name": "c306f854ebc92b52f1705934e52b947f", "is_reserved": 0, "rental_uris": {"android": "https://dc.lft.to/lastmile_qr_scan", "ios": "https://dc.lft.to/lastmile_qr_scan"}, "fusion_lon": 0.0}, {"lat": 38.907264, "is_disabled": 0, "type": "electric_scooter", "lon": -77.047829, "bike_id": "d76205dd81e27e381169afb9f320f054", "fusion_lat": 0.0, "name": "d76205dd81e27e381169afb9f320f054", "is_reserved": 0, "rental_uris": {"android": "https://dc.lft.to/lastmile_qr_scan", "ios": "https://dc.lft.to/lastmile_qr_scan"}, "fusion_lon": 0.0}, {"lat": 38.90067483333333, "is_disabled": 0, "type": "electric_scooter", "lon": -77.04400566666666, "bike_id": "62a42f635e16cab6bd3583300bf6e4e0", "fusion_lat": 0.0, "name": "62a42f635e16cab6bd3583300bf6e4e0", "is_reserved": 0, "rental_uris": {"android": "https://dc.lft.to/lastmile_qr_scan", "ios": "https://dc.lft.to/lastmile_qr_scan"}, "fusion_lon": 0.0}, {"lat": 38.930277333333336, "is_disabled": 0, "type": "electric_scooter", "lon": -77.023513, "bike_id": "dcbf69ea43022d616fea0273a21ba0d6", "fusion_lat": 0.0, "name": "dcbf69ea43022d616fea0273a21ba0d6", "is_reserved": 0, "rental_uris": {"android": "https://dc.lft.to/lastmile_qr_scan", "ios": "https://dc.lft.to/lastmile_qr_scan"}, "fusion_lon": 0.0}, {"lat": 38.90020083333334, "is_disabled": 0, "type": "electric_scooter", "lon": -76.98814383333334, "bike_id": "c03208a7cba4f5ae3f25d5bc6ac078d6", "fusion_lat": 0.0, "name": "c03208a7cba4f5ae3f25d5bc6ac078d6", "is_reserved": 0, "rental_uris": {"android": "https://dc.lft.to/lastmile_qr_scan", "ios": "https://dc.lft.to/lastmile_qr_scan"}, "fusion_lon": 0.0}, {"lat": 38.90269633333333, "is_disabled": 0, "type": "electric_scooter", "lon": -77.0343505, "bike_id": "fa1c4e8303a4bca11aa3642dc79f1b3a", "fusion_lat": 0.0, "name": "fa1c4e8303a4bca11aa3642dc79f1b3a", "is_reserved": 0, "rental_uris": {"android": "https://dc.lft.to/lastmile_qr_scan", "ios": "https://dc.lft.to/lastmile_qr_scan"}, "fusion_lon": 0.0}, {"lat": 38.890415833333336, "is_disabled": 0, "type": "electric_scooter", "lon": -77.04771333333333, "bike_id": "77f0337529b1e4998b9564f95f5988a0", "fusion_lat": 0.0, "name": "77f0337529b1e4998b9564f95f5988a0", "is_reserved": 0, "rental_uris": {"android": "https://dc.lft.to/lastmile_qr_scan", "ios": "https://dc.lft.to/lastmile_qr_scan"}, "fusion_lon": 0.0}, {"lat": 38.94153816666667, "is_disabled": 0, "type": "electric_scooter", "lon": -77.0328195, "bike_id": "9afc61044c6e47190b84247c30355711", "fusion_lat": 0.0, "name": "9afc61044c6e47190b84247c30355711", "is_reserved": 0, "rental_uris": {"android": "https://dc.lft.to/lastmile_qr_scan", "ios": "https://dc.lft.to/lastmile_qr_scan"}, "fusion_lon": 0.0}, {"lat": 38.91823183333333, "is_disabled": 0, "type": "electric_scooter", "lon": -77.03181166666667, "bike_id": "58cf8100110599760524115ffe90ea3f", "fusion_lat": 0.0, "name": "58cf8100110599760524115ffe90ea3f", "is_reserved": 0, "rental_uris": {"android": "https://dc.lft.to/lastmile_qr_scan", "ios": "https://dc.lft.to/lastmile_qr_scan"}, "fusion_lon": 0.0}, {"lat": 38.962042, "is_disabled": 0, "type": "electric_bike", "lon": -77.03513766666667, "bike_id": "09d2b3b005598ffd04df0198144d2d7a", "fusion_lat": 0.0, "name": "09d2b3b005598ffd04df0198144d2d7a", "is_reserved": 0, "rental_uris": {"android": "https://dc.lft.to/lastmile_qr_scan", "ios": "https://dc.lft.to/lastmile_qr_scan"}, "fusion_lon": 0.0}, {"lat": 38.93870483333333, "is_disabled": 0, "type": "electric_scooter", "lon": -77.032052, "bike_id": "c19ab91a7fc38d2c57f6a2c7159dbc68", "fusion_lat": 0.0, "name": "c19ab91a7fc38d2c57f6a2c7159dbc68", "is_reserved": 0, "rental_uris": {"android": "https://dc.lft.to/lastmile_qr_scan", "ios": "https://dc.lft.to/lastmile_qr_scan"}, "fusion_lon": 0.0}, {"lat": 38.9229195, "is_disabled": 0, "type": "electric_scooter", "lon": -77.04256366666667, "bike_id": "524ac053e2ad3457c3433b7cfdcf812c", "fusion_lat": 0.0, "name": "524ac053e2ad3457c3433b7cfdcf812c", "is_reserved": 0, "rental_uris": {"android": "https://dc.lft.to/lastmile_qr_scan", "ios": "https://dc.lft.to/lastmile_qr_scan"}, "fusion_lon": 0.0}, {"lat": 38.901293333333335, "is_disabled": 0, "type": "electric_scooter", "lon": -77.00330566666666, "bike_id": "2c21a79c724c2668c9b5ba93e9df9b9b", "fusion_lat": 0.0, "name": "2c21a79c724c2668c9b5ba93e9df9b9b", "is_reserved": 0, "rental_uris": {"android": "https://dc.lft.to/lastmile_qr_scan", "ios": "https://dc.lft.to/lastmile_qr_scan"}, "fusion_lon": 0.0}, {"lat": 38.8740475, "is_disabled": 0, "type": "electric_scooter", "lon": -77.014515, "bike_id": "2bca439ca679edcb5bab713d9c459402", "fusion_lat": 0.0, "name": "2bca439ca679edcb5bab713d9c459402", "is_reserved": 0, "rental_uris": {"android": "https://dc.lft.to/lastmile_qr_scan", "ios": "https://dc.lft.to/lastmile_qr_scan"}, "fusion_lon": 0.0}, {"lat": 38.896175166666666, "is_disabled": 0, "type": "electric_scooter", "lon": -76.956626, "bike_id": "1162e4ee138ccafa5e375c51930807e2", "fusion_lat": 0.0, "name": "1162e4ee138ccafa5e375c51930807e2", "is_reserved": 0, "rental_uris": {"android": "https://dc.lft.to/lastmile_qr_scan", "ios": "https://dc.lft.to/lastmile_qr_scan"}, "fusion_lon": 0.0}, {"lat": 38.8784295, "is_disabled": 0, "type": "electric_scooter", "lon": -77.00828, "bike_id": "e336e9d81b97fb82f68031ad5d2b01ca", "fusion_lat": 0.0, "name": "e336e9d81b97fb82f68031ad5d2b01ca", "is_reserved": 0, "rental_uris": {"android": "https://dc.lft.to/lastmile_qr_scan", "ios": "https://dc.lft.to/lastmile_qr_scan"}, "fusion_lon": 0.0}, {"lat": 38.94912266666667, "is_disabled": 0, "type": "electric_scooter", "lon": -77.06622566666667, "bike_id": "f418acf026774004cd05939135386d6e", "fusion_lat": 0.0, "name": "f418acf026774004cd05939135386d6e", "is_reserved": 0, "rental_uris": {"android": "https://dc.lft.to/lastmile_qr_scan", "ios": "https://dc.lft.to/lastmile_qr_scan"}, "fusion_lon": 0.0}, {"lat": 38.886463, "is_disabled": 0, "type": "electric_scooter", "lon": -77.02292816666667, "bike_id": "beff171b1d584e1adc3b842dd544b92e", "fusion_lat": 0.0, "name": "beff171b1d584e1adc3b842dd544b92e", "is_reserved": 0, "rental_uris": {"android": "https://dc.lft.to/lastmile_qr_scan", "ios": "https://dc.lft.to/lastmile_qr_scan"}, "fusion_lon": 0.0}, {"lat": 38.911168, "is_disabled": 0, "type": "electric_scooter", "lon": -77.021723, "bike_id": "896b31df12234260d7231ce473282696", "fusion_lat": 0.0, "name": "896b31df12234260d7231ce473282696", "is_reserved": 0, "rental_uris": {"android": "https://dc.lft.to/lastmile_qr_scan", "ios": "https://dc.lft.to/lastmile_qr_scan"}, "fusion_lon": 0.0}, {"lat": 38.899144666666665, "is_disabled": 0, "type": "electric_scooter", "lon": -76.98557066666666, "bike_id": "d142e522c681487de12ab93ff1fd9278", "fusion_lat": 0.0, "name": "d142e522c681487de12ab93ff1fd9278", "is_reserved": 0, "rental_uris": {"android": "https://dc.lft.to/lastmile_qr_scan", "ios": "https://dc.lft.to/lastmile_qr_scan"}, "fusion_lon": 0.0}, {"lat": 38.920857833333336, "is_disabled": 0, "type": "electric_scooter", "lon": -77.03170516666667, "bike_id": "8f860ddc5b3967bc009e1d1e82d51fa0", "fusion_lat": 0.0, "name": "8f860ddc5b3967bc009e1d1e82d51fa0", "is_reserved": 0, "rental_uris": {"android": "https://dc.lft.to/lastmile_qr_scan", "ios": "https://dc.lft.to/lastmile_qr_scan"}, "fusion_lon": 0.0}, {"lat": 38.92332066666667, "is_disabled": 0, "type": "electric_scooter", "lon": -77.02967666666666, "bike_id": "a2d214d8a65791dc7561c61900d22e62", "fusion_lat": 0.0, "name": "a2d214d8a65791dc7561c61900d22e62", "is_reserved": 0, "rental_uris": {"android": "https://dc.lft.to/lastmile_qr_scan", "ios": "https://dc.lft.to/lastmile_qr_scan"}, "fusion_lon": 0.0}, {"lat": 38.89555383333333, "is_disabled": 0, "type": "electric_scooter", "lon": -77.003683, "bike_id": "0156c92c5e4b2eb610f4ad7f9bb17609", "fusion_lat": 0.0, "name": "0156c92c5e4b2eb610f4ad7f9bb17609", "is_reserved": 0, "rental_uris": {"android": "https://dc.lft.to/lastmile_qr_scan", "ios": "https://dc.lft.to/lastmile_qr_scan"}, "fusion_lon": 0.0}, {"lat": 38.8838175, "is_disabled": 0, "type": "electric_scooter", "lon": -77.046076, "bike_id": "051d310fc0caf321f215382c608d3f95", "fusion_lat": 0.0, "name": "051d310fc0caf321f215382c608d3f95", "is_reserved": 0, "rental_uris": {"android": "https://dc.lft.to/lastmile_qr_scan", "ios": "https://dc.lft.to/lastmile_qr_scan"}, "fusion_lon": 0.0}, {"lat": 38.900243833333334, "is_disabled": 0, "type": "electric_scooter", "lon": -77.03323366666666, "bike_id": "63a1e619a741640cc7bad44c1891a072", "fusion_lat": 0.0, "name": "63a1e619a741640cc7bad44c1891a072", "is_reserved": 0, "rental_uris": {"android": "https://dc.lft.to/lastmile_qr_scan", "ios": "https://dc.lft.to/lastmile_qr_scan"}, "fusion_lon": 0.0}, {"lat": 38.85318316666667, "is_disabled": 0, "type": "electric_scooter", "lon": -76.98026166666666, "bike_id": "47ac5096af40713bcb83c960e9c24b3d", "fusion_lat": 0.0, "name": "47ac5096af40713bcb83c960e9c24b3d", "is_reserved": 0, "rental_uris": {"android": "https://dc.lft.to/lastmile_qr_scan", "ios": "https://dc.lft.to/lastmile_qr_scan"}, "fusion_lon": 0.0}, {"lat": 38.872439, "is_disabled": 0, "type": "electric_scooter", "lon": -77.01209566666667, "bike_id": "097e168f207d0c37adc40aa0656f3bd0", "fusion_lat": 0.0, "name": "097e168f207d0c37adc40aa0656f3bd0", "is_reserved": 0, "rental_uris": {"android": "https://dc.lft.to/lastmile_qr_scan", "ios": "https://dc.lft.to/lastmile_qr_scan"}, "fusion_lon": 0.0}, {"lat": 38.91953016666667, "is_disabled": 0, "type": "electric_bike", "lon": -76.972688, "bike_id": "7faaae71c63642cbbd9e9165635dc40b", "fusion_lat": 0.0, "name": "7faaae71c63642cbbd9e9165635dc40b", "is_reserved": 0, "rental_uris": {"android": "https://dc.lft.to/lastmile_qr_scan", "ios": "https://dc.lft.to/lastmile_qr_scan"}, "fusion_lon": 0.0}, {"lat": 38.93011116666667, "is_disabled": 0, "type": "electric_bike", "lon": -77.21649666666667, "bike_id": "eb40d41e0a4eee2f671ebcea7c01a701", "fusion_lat": 0.0, "name": "eb40d41e0a4eee2f671ebcea7c01a701", "is_reserved": 0, "rental_uris": {"android": "https://dc.lft.to/lastmile_qr_scan", "ios": "https://dc.lft.to/lastmile_qr_scan"}, "fusion_lon": 0.0}, {"lat": 38.8976275, "is_disabled": 0, "type": "electric_scooter", "lon": -77.04362366666666, "bike_id": "580636cea1d7fd2249bb56c402b1b1bf", "fusion_lat": 0.0, "name": "580636cea1d7fd2249bb56c402b1b1bf", "is_reserved": 0, "rental_uris": {"android": "https://dc.lft.to/lastmile_qr_scan", "ios": "https://dc.lft.to/lastmile_qr_scan"}, "fusion_lon": 0.0}, {"lat": 38.902223, "is_disabled": 0, "type": "electric_scooter", "lon": -76.9459495, "bike_id": "c2608bccbddc8b63a02f75fcf38f05ce", "fusion_lat": 0.0, "name": "c2608bccbddc8b63a02f75fcf38f05ce", "is_reserved": 0, "rental_uris": {"android": "https://dc.lft.to/lastmile_qr_scan", "ios": "https://dc.lft.to/lastmile_qr_scan"}, "fusion_lon": 0.0}, {"lat": 38.933756833333334, "is_disabled": 0, "type": "electric_scooter", "lon": -77.03793783333333, "bike_id": "e8803a9f8436e22410b67fdfb4ee56d1", "fusion_lat": 0.0, "name": "e8803a9f8436e22410b67fdfb4ee56d1", "is_reserved": 0, "rental_uris": {"android": "https://dc.lft.to/lastmile_qr_scan", "ios": "https://dc.lft.to/lastmile_qr_scan"}, "fusion_lon": 0.0}, {"lat": 38.95770666666667, "is_disabled": 0, "type": "electric_bike", "lon": -77.011617, "bike_id": "0f46e52bd615fe24deeb4aedeeec7ffa", "fusion_lat": 0.0, "name": "0f46e52bd615fe24deeb4aedeeec7ffa", "is_reserved": 0, "rental_uris": {"android": "https://dc.lft.to/lastmile_qr_scan", "ios": "https://dc.lft.to/lastmile_qr_scan"}, "fusion_lon": 0.0}, {"lat": 38.96279666666667, "is_disabled": 0, "type": "electric_bike", "lon": -77.03254033333333, "bike_id": "0fdf707a59af5b97417d01fc29f724da", "fusion_lat": 0.0, "name": "0fdf707a59af5b97417d01fc29f724da", "is_reserved": 0, "rental_uris": {"android": "https://dc.lft.to/lastmile_qr_scan", "ios": "https://dc.lft.to/lastmile_qr_scan"}, "fusion_lon": 0.0}, {"lat": 38.9561195, "is_disabled": 0, "type": "electric_scooter", "lon": -77.027806, "bike_id": "9d4b9c84fd90105c6537e991a840707d", "fusion_lat": 0.0, "name": "9d4b9c84fd90105c6537e991a840707d", "is_reserved": 0, "rental_uris": {"android": "https://dc.lft.to/lastmile_qr_scan", "ios": "https://dc.lft.to/lastmile_qr_scan"}, "fusion_lon": 0.0}, {"lat": 38.909561333333336, "is_disabled": 0, "type": "electric_scooter", "lon": -77.023916, "bike_id": "bed3912fa159ed6fb35538daa7d0dccb", "fusion_lat": 0.0, "name": "bed3912fa159ed6fb35538daa7d0dccb", "is_reserved": 0, "rental_uris": {"android": "https://dc.lft.to/lastmile_qr_scan", "ios": "https://dc.lft.to/lastmile_qr_scan"}, "fusion_lon": 0.0}, {"lat": 38.85514833333333, "is_disabled": 0, "type": "electric_bike", "lon": -77.12025016666666, "bike_id": "a19816c886e20167f78b3a3a98836c14", "fusion_lat": 0.0, "name": "a19816c886e20167f78b3a3a98836c14", "is_reserved": 0, "rental_uris": {"android": "https://dc.lft.to/lastmile_qr_scan", "ios": "https://dc.lft.to/lastmile_qr_scan"}, "fusion_lon": 0.0}, {"lat": 38.92287533333333, "is_disabled": 0, "type": "electric_scooter", "lon": -77.03199516666666, "bike_id": "e1aef974d4fd45238bb437dc814890e9", "fusion_lat": 0.0, "name": "e1aef974d4fd45238bb437dc814890e9", "is_reserved": 0, "rental_uris": {"android": "https://dc.lft.to/lastmile_qr_scan", "ios": "https://dc.lft.to/lastmile_qr_scan"}, "fusion_lon": 0.0}, {"lat": 38.90885733333333, "is_disabled": 0, "type": "electric_scooter", "lon": -77.06675816666667, "bike_id": "db231c84ed15a7b90e7bd112813c4bb2", "fusion_lat": 0.0, "name": "db231c84ed15a7b90e7bd112813c4bb2", "is_reserved": 0, "rental_uris": {"android": "https://dc.lft.to/lastmile_qr_scan", "ios": "https://dc.lft.to/lastmile_qr_scan"}, "fusion_lon": 0.0}, {"lat": 38.901196, "is_disabled": 0, "type": "electric_scooter", "lon": -77.02517416666667, "bike_id": "85e7d1b9cc4cfee7d8d5534a1a97cf79", "fusion_lat": 0.0, "name": "85e7d1b9cc4cfee7d8d5534a1a97cf79", "is_reserved": 0, "rental_uris": {"android": "https://dc.lft.to/lastmile_qr_scan", "ios": "https://dc.lft.to/lastmile_qr_scan"}, "fusion_lon": 0.0}, {"lat": 38.898439, "is_disabled": 0, "type": "electric_scooter", "lon": -77.0225955, "bike_id": "aab08c928f9131dd8da6b9ee1b0bc845", "fusion_lat": 0.0, "name": "aab08c928f9131dd8da6b9ee1b0bc845", "is_reserved": 0, "rental_uris": {"android": "https://dc.lft.to/lastmile_qr_scan", "ios": "https://dc.lft.to/lastmile_qr_scan"}, "fusion_lon": 0.0}, {"lat": 38.90574516666667, "is_disabled": 0, "type": "electric_scooter", "lon": -77.02209666666667, "bike_id": "bb0e701d85a2c6e5f36c05f3e9f09132", "fusion_lat": 0.0, "name": "bb0e701d85a2c6e5f36c05f3e9f09132", "is_reserved": 0, "rental_uris": {"android": "https://dc.lft.to/lastmile_qr_scan", "ios": "https://dc.lft.to/lastmile_qr_scan"}, "fusion_lon": 0.0}, {"lat": 38.9172775, "is_disabled": 0, "type": "electric_scooter", "lon": -77.02505766666667, "bike_id": "ef4891309111fc3cc26f2fb437c70766", "fusion_lat": 0.0, "name": "ef4891309111fc3cc26f2fb437c70766", "is_reserved": 0, "rental_uris": {"android": "https://dc.lft.to/lastmile_qr_scan", "ios": "https://dc.lft.to/lastmile_qr_scan"}, "fusion_lon": 0.0}, {"lat": 38.88775233333333, "is_disabled": 0, "type": "electric_scooter", "lon": -77.003285, "bike_id": "cc8a956eb957873cad5a79186ca4deee", "fusion_lat": 0.0, "name": "cc8a956eb957873cad5a79186ca4deee", "is_reserved": 0, "rental_uris": {"android": "https://dc.lft.to/lastmile_qr_scan", "ios": "https://dc.lft.to/lastmile_qr_scan"}, "fusion_lon": 0.0}, {"lat": 38.865624333333336, "is_disabled": 0, "type": "electric_scooter", "lon": -76.98951516666666, "bike_id": "8fb5cba449d44b55c9dd0ce397e1cec7", "fusion_lat": 0.0, "name": "8fb5cba449d44b55c9dd0ce397e1cec7", "is_reserved": 0, "rental_uris": {"android": "https://dc.lft.to/lastmile_qr_scan", "ios": "https://dc.lft.to/lastmile_qr_scan"}, "fusion_lon": 0.0}, {"lat": 38.938781666666664, "is_disabled": 0, "type": "electric_scooter", "lon": -77.02448116666666, "bike_id": "a70e828bffc458d523fb5cab487cd337", "fusion_lat": 0.0, "name": "a70e828bffc458d523fb5cab487cd337", "is_reserved": 0, "rental_uris": {"android": "https://dc.lft.to/lastmile_qr_scan", "ios": "https://dc.lft.to/lastmile_qr_scan"}, "fusion_lon": 0.0}, {"lat": 38.955683, "is_disabled": 0, "type": "electric_scooter", "lon": -77.02236783333333, "bike_id": "ee99e0eb93b6fb2d0f796d203704c4f5", "fusion_lat": 0.0, "name": "ee99e0eb93b6fb2d0f796d203704c4f5", "is_reserved": 0, "rental_uris": {"android": "https://dc.lft.to/lastmile_qr_scan", "ios": "https://dc.lft.to/lastmile_qr_scan"}, "fusion_lon": 0.0}, {"lat": 38.90914433333333, "is_disabled": 0, "type": "electric_scooter", "lon": -77.0364645, "bike_id": "8c0a6917bce78cc878001db9fb6bf1c0", "fusion_lat": 0.0, "name": "8c0a6917bce78cc878001db9fb6bf1c0", "is_reserved": 0, "rental_uris": {"android": "https://dc.lft.to/lastmile_qr_scan", "ios": "https://dc.lft.to/lastmile_qr_scan"}, "fusion_lon": 0.0}, {"lat": 38.90115483333334, "is_disabled": 0, "type": "electric_scooter", "lon": -77.01817916666667, "bike_id": "48e48903e3a84623ce5a167d542f5cb3", "fusion_lat": 0.0, "name": "48e48903e3a84623ce5a167d542f5cb3", "is_reserved": 0, "rental_uris": {"android": "https://dc.lft.to/lastmile_qr_scan", "ios": "https://dc.lft.to/lastmile_qr_scan"}, "fusion_lon": 0.0}, {"lat": 38.89674133333333, "is_disabled": 0, "type": "electric_scooter", "lon": -77.00514433333333, "bike_id": "9d248139bd3d8bf99d7514f4b07f6286", "fusion_lat": 0.0, "name": "9d248139bd3d8bf99d7514f4b07f6286", "is_reserved": 0, "rental_uris": {"android": "https://dc.lft.to/lastmile_qr_scan", "ios": "https://dc.lft.to/lastmile_qr_scan"}, "fusion_lon": 0.0}, {"lat": 38.904066, "is_disabled": 0, "type": "electric_scooter", "lon": -76.99294283333333, "bike_id": "91e3160d16bfe3eb2998ede73ad09eb3", "fusion_lat": 0.0, "name": "91e3160d16bfe3eb2998ede73ad09eb3", "is_reserved": 0, "rental_uris": {"android": "https://dc.lft.to/lastmile_qr_scan", "ios": "https://dc.lft.to/lastmile_qr_scan"}, "fusion_lon": 0.0}, {"lat": 38.920608, "is_disabled": 0, "type": "electric_scooter", "lon": -77.033977, "bike_id": "94692eb5480cc0f266a927ee697bc44e", "fusion_lat": 0.0, "name": "94692eb5480cc0f266a927ee697bc44e", "is_reserved": 0, "rental_uris": {"android": "https://dc.lft.to/lastmile_qr_scan", "ios": "https://dc.lft.to/lastmile_qr_scan"}, "fusion_lon": 0.0}, {"lat": 38.8989685, "is_disabled": 0, "type": "electric_scooter", "lon": -76.98422883333333, "bike_id": "bff863ddc0dc39e50c8b430dde21fd8b", "fusion_lat": 0.0, "name": "bff863ddc0dc39e50c8b430dde21fd8b", "is_reserved": 0, "rental_uris": {"android": "https://dc.lft.to/lastmile_qr_scan", "ios": "https://dc.lft.to/lastmile_qr_scan"}, "fusion_lon": 0.0}, {"lat": 38.897351, "is_disabled": 0, "type": "electric_scooter", "lon": -76.94723966666666, "bike_id": "323c48a0913ea24176db01f50f07d0bd", "fusion_lat": 0.0, "name": "323c48a0913ea24176db01f50f07d0bd", "is_reserved": 0, "rental_uris": {"android": "https://dc.lft.to/lastmile_qr_scan", "ios": "https://dc.lft.to/lastmile_qr_scan"}, "fusion_lon": 0.0}, {"lat": 38.869598, "is_disabled": 0, "type": "electric_bike", "lon": -77.0107915, "bike_id": "df6ba654ce980086254263ac756e9671", "fusion_lat": 0.0, "name": "df6ba654ce980086254263ac756e9671", "is_reserved": 0, "rental_uris": {"android": "https://dc.lft.to/lastmile_qr_scan", "ios": "https://dc.lft.to/lastmile_qr_scan"}, "fusion_lon": 0.0}, {"lat": 38.914115833333334, "is_disabled": 0, "type": "electric_scooter", "lon": -77.0355605, "bike_id": "d670227dea1dd5dcae0559084d25dbe9", "fusion_lat": 0.0, "name": "d670227dea1dd5dcae0559084d25dbe9", "is_reserved": 0, "rental_uris": {"android": "https://dc.lft.to/lastmile_qr_scan", "ios": "https://dc.lft.to/lastmile_qr_scan"}, "fusion_lon": 0.0}, {"lat": 38.88213433333333, "is_disabled": 0, "type": "electric_scooter", "lon": -76.990374, "bike_id": "85f5fc06b9567ec59a93ccab76b7b994", "fusion_lat": 0.0, "name": "85f5fc06b9567ec59a93ccab76b7b994", "is_reserved": 0, "rental_uris": {"android": "https://dc.lft.to/lastmile_qr_scan", "ios": "https://dc.lft.to/lastmile_qr_scan"}, "fusion_lon": 0.0}, {"lat": 38.90970733333333, "is_disabled": 0, "type": "electric_scooter", "lon": -77.0480135, "bike_id": "a5f9c6ed5b4a25eb3554b69d661a8688", "fusion_lat": 0.0, "name": "a5f9c6ed5b4a25eb3554b69d661a8688", "is_reserved": 0, "rental_uris": {"android": "https://dc.lft.to/lastmile_qr_scan", "ios": "https://dc.lft.to/lastmile_qr_scan"}, "fusion_lon": 0.0}, {"lat": 38.907315833333335, "is_disabled": 0, "type": "electric_scooter", "lon": -77.03471233333333, "bike_id": "043ea8e1d4d990efb00289086bd40c8d", "fusion_lat": 0.0, "name": "043ea8e1d4d990efb00289086bd40c8d", "is_reserved": 0, "rental_uris": {"android": "https://dc.lft.to/lastmile_qr_scan", "ios": "https://dc.lft.to/lastmile_qr_scan"}, "fusion_lon": 0.0}, {"lat": 38.9225195, "is_disabled": 0, "type": "electric_scooter", "lon": -77.02880833333333, "bike_id": "6cb7962e29e8fd999b86d83f46c79cfc", "fusion_lat": 0.0, "name": "6cb7962e29e8fd999b86d83f46c79cfc", "is_reserved": 0, "rental_uris": {"android": "https://dc.lft.to/lastmile_qr_scan", "ios": "https://dc.lft.to/lastmile_qr_scan"}, "fusion_lon": 0.0}, {"lat": 38.9196635, "is_disabled": 0, "type": "electric_scooter", "lon": -77.02492416666666, "bike_id": "873d5d230e4fb3dac1939f5451845166", "fusion_lat": 0.0, "name": "873d5d230e4fb3dac1939f5451845166", "is_reserved": 0, "rental_uris": {"android": "https://dc.lft.to/lastmile_qr_scan", "ios": "https://dc.lft.to/lastmile_qr_scan"}, "fusion_lon": 0.0}, {"lat": 38.863822666666664, "is_disabled": 0, "type": "electric_scooter", "lon": -76.990535, "bike_id": "874b7d661a9318ce0e0c7c5c5b373851", "fusion_lat": 0.0, "name": "874b7d661a9318ce0e0c7c5c5b373851", "is_reserved": 0, "rental_uris": {"android": "https://dc.lft.to/lastmile_qr_scan", "ios": "https://dc.lft.to/lastmile_qr_scan"}, "fusion_lon": 0.0}, {"lat": 38.951835, "is_disabled": 0, "type": "electric_bike", "lon": -76.9354405, "bike_id": "d5c2445ebe5e634f83828f2aa6ac2e75", "fusion_lat": 0.0, "name": "d5c2445ebe5e634f83828f2aa6ac2e75", "is_reserved": 0, "rental_uris": {"android": "https://dc.lft.to/lastmile_qr_scan", "ios": "https://dc.lft.to/lastmile_qr_scan"}, "fusion_lon": 0.0}, {"lat": 38.870850833333336, "is_disabled": 0, "type": "electric_scooter", "lon": -77.01188533333334, "bike_id": "bd5c203ee49270d3391c3184796412f7", "fusion_lat": 0.0, "name": "bd5c203ee49270d3391c3184796412f7", "is_reserved": 0, "rental_uris": {"android": "https://dc.lft.to/lastmile_qr_scan", "ios": "https://dc.lft.to/lastmile_qr_scan"}, "fusion_lon": 0.0}, {"lat": 38.91115416666667, "is_disabled": 0, "type": "electric_scooter", "lon": -77.03624616666667, "bike_id": "6cd0c1d316eb3be6d0e6d472ac27347c", "fusion_lat": 0.0, "name": "6cd0c1d316eb3be6d0e6d472ac27347c", "is_reserved": 0, "rental_uris": {"android": "https://dc.lft.to/lastmile_qr_scan", "ios": "https://dc.lft.to/lastmile_qr_scan"}, "fusion_lon": 0.0}, {"lat": 38.9206475, "is_disabled": 0, "type": "electric_scooter", "lon": -77.04379483333334, "bike_id": "6939225984f6e9a50418e2b5bc43c0df", "fusion_lat": 0.0, "name": "6939225984f6e9a50418e2b5bc43c0df", "is_reserved": 0, "rental_uris": {"android": "https://dc.lft.to/lastmile_qr_scan", "ios": "https://dc.lft.to/lastmile_qr_scan"}, "fusion_lon": 0.0}, {"lat": 38.9003415, "is_disabled": 0, "type": "electric_scooter", "lon": -77.03215633333333, "bike_id": "0efdcdf481db7e9f21065513d384321b", "fusion_lat": 0.0, "name": "0efdcdf481db7e9f21065513d384321b", "is_reserved": 0, "rental_uris": {"android": "https://dc.lft.to/lastmile_qr_scan", "ios": "https://dc.lft.to/lastmile_qr_scan"}, "fusion_lon": 0.0}, {"lat": 38.91352783333333, "is_disabled": 0, "type": "electric_scooter", "lon": -77.03182616666666, "bike_id": "eb20dd0147a6f4485e7d1e6ff2ff9120", "fusion_lat": 0.0, "name": "eb20dd0147a6f4485e7d1e6ff2ff9120", "is_reserved": 0, "rental_uris": {"android": "https://dc.lft.to/lastmile_qr_scan", "ios": "https://dc.lft.to/lastmile_qr_scan"}, "fusion_lon": 0.0}, {"lat": 38.8773405, "is_disabled": 0, "type": "electric_bike", "lon": -77.11851616666667, "bike_id": "f8d9306130d2d67c28ae940d6e04ab86", "fusion_lat": 0.0, "name": "f8d9306130d2d67c28ae940d6e04ab86", "is_reserved": 0, "rental_uris": {"android": "https://dc.lft.to/lastmile_qr_scan", "ios": "https://dc.lft.to/lastmile_qr_scan"}, "fusion_lon": 0.0}, {"lat": 38.867156666666666, "is_disabled": 0, "type": "electric_scooter", "lon": -76.987241, "bike_id": "a6a12da2355744643685d70cf011d08e", "fusion_lat": 0.0, "name": "a6a12da2355744643685d70cf011d08e", "is_reserved": 0, "rental_uris": {"android": "https://dc.lft.to/lastmile_qr_scan", "ios": "https://dc.lft.to/lastmile_qr_scan"}, "fusion_lon": 0.0}, {"lat": 38.930957166666666, "is_disabled": 0, "type": "electric_scooter", "lon": -77.02509083333334, "bike_id": "3366574d285b61aec0be7aec369f8a07", "fusion_lat": 0.0, "name": "3366574d285b61aec0be7aec369f8a07", "is_reserved": 0, "rental_uris": {"android": "https://dc.lft.to/lastmile_qr_scan", "ios": "https://dc.lft.to/lastmile_qr_scan"}, "fusion_lon": 0.0}, {"lat": 38.91115033333333, "is_disabled": 0, "type": "electric_scooter", "lon": -77.02156933333333, "bike_id": "7422490139b601e64ac506c7922c1792", "fusion_lat": 0.0, "name": "7422490139b601e64ac506c7922c1792", "is_reserved": 0, "rental_uris": {"android": "https://dc.lft.to/lastmile_qr_scan", "ios": "https://dc.lft.to/lastmile_qr_scan"}, "fusion_lon": 0.0}, {"lat": 38.89930016666667, "is_disabled": 0, "type": "electric_scooter", "lon": -77.04000466666666, "bike_id": "e8cf4646747c3946af28a3f2eb3756f2", "fusion_lat": 0.0, "name": "e8cf4646747c3946af28a3f2eb3756f2", "is_reserved": 0, "rental_uris": {"android": "https://dc.lft.to/lastmile_qr_scan", "ios": "https://dc.lft.to/lastmile_qr_scan"}, "fusion_lon": 0.0}, {"lat": 38.84568016666667, "is_disabled": 0, "type": "electric_bike", "lon": -77.09623383333333, "bike_id": "1cd8beb55dcb7c6265aa9b014d4e25ef", "fusion_lat": 0.0, "name": "1cd8beb55dcb7c6265aa9b014d4e25ef", "is_reserved": 0, "rental_uris": {"android": "https://dc.lft.to/lastmile_qr_scan", "ios": "https://dc.lft.to/lastmile_qr_scan"}, "fusion_lon": 0.0}, {"lat": 38.902655333333335, "is_disabled": 0, "type": "electric_scooter", "lon": -77.04691716666666, "bike_id": "58c3f696b19f41d641f3258fd6644fe0", "fusion_lat": 0.0, "name": "58c3f696b19f41d641f3258fd6644fe0", "is_reserved": 0, "rental_uris": {"android": "https://dc.lft.to/lastmile_qr_scan", "ios": "https://dc.lft.to/lastmile_qr_scan"}, "fusion_lon": 0.0}, {"lat": 38.881149666666666, "is_disabled": 0, "type": "electric_scooter", "lon": -76.98335416666667, "bike_id": "f4e10d9d604546c3903ed2433eabfc38", "fusion_lat": 0.0, "name": "f4e10d9d604546c3903ed2433eabfc38", "is_reserved": 0, "rental_uris": {"android": "https://dc.lft.to/lastmile_qr_scan", "ios": "https://dc.lft.to/lastmile_qr_scan"}, "fusion_lon": 0.0}, {"lat": 38.916211833333335, "is_disabled": 0, "type": "electric_scooter", "lon": -77.03273516666667, "bike_id": "723dc13844cd58868f28cee677cdf2be", "fusion_lat": 0.0, "name": "723dc13844cd58868f28cee677cdf2be", "is_reserved": 0, "rental_uris": {"android": "https://dc.lft.to/lastmile_qr_scan", "ios": "https://dc.lft.to/lastmile_qr_scan"}, "fusion_lon": 0.0}, {"lat": 38.9211705, "is_disabled": 0, "type": "electric_scooter", "lon": -77.0177095, "bike_id": "1c40fc8740898a4ec2103b70d205e7db", "fusion_lat": 0.0, "name": "1c40fc8740898a4ec2103b70d205e7db", "is_reserved": 0, "rental_uris": {"android": "https://dc.lft.to/lastmile_qr_scan", "ios": "https://dc.lft.to/lastmile_qr_scan"}, "fusion_lon": 0.0}, {"lat": 38.9055535, "is_disabled": 0, "type": "electric_scooter", "lon": -77.04347466666667, "bike_id": "1661f6e76db9512d06e9f332c6473412", "fusion_lat": 0.0, "name": "1661f6e76db9512d06e9f332c6473412", "is_reserved": 0, "rental_uris": {"android": "https://dc.lft.to/lastmile_qr_scan", "ios": "https://dc.lft.to/lastmile_qr_scan"}, "fusion_lon": 0.0}, {"lat": 38.87143283333333, "is_disabled": 0, "type": "electric_bike", "lon": -76.93707333333333, "bike_id": "8b94c150bc79db0200e8ec94cb060371", "fusion_lat": 0.0, "name": "8b94c150bc79db0200e8ec94cb060371", "is_reserved": 0, "rental_uris": {"android": "https://dc.lft.to/lastmile_qr_scan", "ios": "https://dc.lft.to/lastmile_qr_scan"}, "fusion_lon": 0.0}, {"lat": 38.876386833333335, "is_disabled": 0, "type": "electric_scooter", "lon": -77.0091715, "bike_id": "9b965d9a968ff2a3400c4fd85f2eb822", "fusion_lat": 0.0, "name": "9b965d9a968ff2a3400c4fd85f2eb822", "is_reserved": 0, "rental_uris": {"android": "https://dc.lft.to/lastmile_qr_scan", "ios": "https://dc.lft.to/lastmile_qr_scan"}, "fusion_lon": 0.0}, {"lat": 38.901092, "is_disabled": 0, "type": "electric_scooter", "lon": -77.05903, "bike_id": "a8456094d77457e8d8e491b845741d84", "fusion_lat": 0.0, "name": "a8456094d77457e8d8e491b845741d84", "is_reserved": 0, "rental_uris": {"android": "https://dc.lft.to/lastmile_qr_scan", "ios": "https://dc.lft.to/lastmile_qr_scan"}, "fusion_lon": 0.0}, {"lat": 38.915662166666664, "is_disabled": 0, "type": "electric_scooter", "lon": -77.03151466666667, "bike_id": "e8544176c588b2e45a6319e43b353bd6", "fusion_lat": 0.0, "name": "e8544176c588b2e45a6319e43b353bd6", "is_reserved": 0, "rental_uris": {"android": "https://dc.lft.to/lastmile_qr_scan", "ios": "https://dc.lft.to/lastmile_qr_scan"}, "fusion_lon": 0.0}, {"lat": 38.91700633333333, "is_disabled": 0, "type": "electric_scooter", "lon": -77.04586983333333, "bike_id": "328120df9cb2f2190f3daab6db10dac9", "fusion_lat": 0.0, "name": "328120df9cb2f2190f3daab6db10dac9", "is_reserved": 0, "rental_uris": {"android": "https://dc.lft.to/lastmile_qr_scan", "ios": "https://dc.lft.to/lastmile_qr_scan"}, "fusion_lon": 0.0}, {"lat": 38.89896616666667, "is_disabled": 0, "type": "electric_scooter", "lon": -77.072339, "bike_id": "4a84eb5342a58789d2752edb99082c0b", "fusion_lat": 0.0, "name": "4a84eb5342a58789d2752edb99082c0b", "is_reserved": 0, "rental_uris": {"android": "https://dc.lft.to/lastmile_qr_scan", "ios": "https://dc.lft.to/lastmile_qr_scan"}, "fusion_lon": 0.0}, {"lat": 38.922979833333336, "is_disabled": 0, "type": "electric_scooter", "lon": -77.0233335, "bike_id": "fea4665d1e7bff2772d21321de8c605c", "fusion_lat": 0.0, "name": "fea4665d1e7bff2772d21321de8c605c", "is_reserved": 0, "rental_uris": {"android": "https://dc.lft.to/lastmile_qr_scan", "ios": "https://dc.lft.to/lastmile_qr_scan"}, "fusion_lon": 0.0}, {"lat": 38.917055166666664, "is_disabled": 0, "type": "electric_scooter", "lon": -77.011047, "bike_id": "1b34b317ba58598582ef76c55fa143c6", "fusion_lat": 0.0, "name": "1b34b317ba58598582ef76c55fa143c6", "is_reserved": 0, "rental_uris": {"android": "https://dc.lft.to/lastmile_qr_scan", "ios": "https://dc.lft.to/lastmile_qr_scan"}, "fusion_lon": 0.0}, {"lat": 38.91243766666667, "is_disabled": 0, "type": "electric_scooter", "lon": -77.04667466666666, "bike_id": "8cf8699fe220302d3800a257d55d3d67", "fusion_lat": 0.0, "name": "8cf8699fe220302d3800a257d55d3d67", "is_reserved": 0, "rental_uris": {"android": "https://dc.lft.to/lastmile_qr_scan", "ios": "https://dc.lft.to/lastmile_qr_scan"}, "fusion_lon": 0.0}, {"lat": 38.90456066666667, "is_disabled": 0, "type": "electric_scooter", "lon": -76.99459016666667, "bike_id": "c3260ef65dd439dccb5af2783921e810", "fusion_lat": 0.0, "name": "c3260ef65dd439dccb5af2783921e810", "is_reserved": 0, "rental_uris": {"android": "https://dc.lft.to/lastmile_qr_scan", "ios": "https://dc.lft.to/lastmile_qr_scan"}, "fusion_lon": 0.0}, {"lat": 38.909801, "is_disabled": 0, "type": "electric_scooter", "lon": -77.03381883333333, "bike_id": "ea3e4362614b3d5f8b40478c8e3a46b7", "fusion_lat": 0.0, "name": "ea3e4362614b3d5f8b40478c8e3a46b7", "is_reserved": 0, "rental_uris": {"android": "https://dc.lft.to/lastmile_qr_scan", "ios": "https://dc.lft.to/lastmile_qr_scan"}, "fusion_lon": 0.0}, {"lat": 38.877957333333335, "is_disabled": 0, "type": "electric_bike", "lon": -77.02329983333334, "bike_id": "1b3ce1de2f2230148ed4780508340e75", "fusion_lat": 0.0, "name": "1b3ce1de2f2230148ed4780508340e75", "is_reserved": 0, "rental_uris": {"android": "https://dc.lft.to/lastmile_qr_scan", "ios": "https://dc.lft.to/lastmile_qr_scan"}, "fusion_lon": 0.0}, {"lat": 38.887671833333336, "is_disabled": 0, "type": "electric_scooter", "lon": -76.95575633333333, "bike_id": "ce82107b8fd79747c9b4cf6c4eabd654", "fusion_lat": 0.0, "name": "ce82107b8fd79747c9b4cf6c4eabd654", "is_reserved": 0, "rental_uris": {"android": "https://dc.lft.to/lastmile_qr_scan", "ios": "https://dc.lft.to/lastmile_qr_scan"}, "fusion_lon": 0.0}, {"lat": 38.923368333333336, "is_disabled": 0, "type": "electric_scooter", "lon": -77.04345566666667, "bike_id": "8b17703ecee59861efe488195148cd99", "fusion_lat": 0.0, "name": "8b17703ecee59861efe488195148cd99", "is_reserved": 0, "rental_uris": {"android": "https://dc.lft.to/lastmile_qr_scan", "ios": "https://dc.lft.to/lastmile_qr_scan"}, "fusion_lon": 0.0}, {"lat": 38.8973745, "is_disabled": 0, "type": "electric_scooter", "lon": -77.02684466666666, "bike_id": "b3e9375540bc1dc1b9a35a22cba7b2a9", "fusion_lat": 0.0, "name": "b3e9375540bc1dc1b9a35a22cba7b2a9", "is_reserved": 0, "rental_uris": {"android": "https://dc.lft.to/lastmile_qr_scan", "ios": "https://dc.lft.to/lastmile_qr_scan"}, "fusion_lon": 0.0}, {"lat": 38.92075483333333, "is_disabled": 0, "type": "electric_scooter", "lon": -77.02419966666666, "bike_id": "6f0dd655dbe96eaf53d651a8530ded19", "fusion_lat": 0.0, "name": "6f0dd655dbe96eaf53d651a8530ded19", "is_reserved": 0, "rental_uris": {"android": "https://dc.lft.to/lastmile_qr_scan", "ios": "https://dc.lft.to/lastmile_qr_scan"}, "fusion_lon": 0.0}, {"lat": 38.911142166666664, "is_disabled": 0, "type": "electric_scooter", "lon": -77.022191, "bike_id": "4c7adfa0adc33521a2c0626017bf9152", "fusion_lat": 0.0, "name": "4c7adfa0adc33521a2c0626017bf9152", "is_reserved": 0, "rental_uris": {"android": "https://dc.lft.to/lastmile_qr_scan", "ios": "https://dc.lft.to/lastmile_qr_scan"}, "fusion_lon": 0.0}, {"lat": 38.89740533333333, "is_disabled": 0, "type": "electric_scooter", "lon": -77.02641933333334, "bike_id": "fb2328a2a15cd7caaf39309de468f32a", "fusion_lat": 0.0, "name": "fb2328a2a15cd7caaf39309de468f32a", "is_reserved": 0, "rental_uris": {"android": "https://dc.lft.to/lastmile_qr_scan", "ios": "https://dc.lft.to/lastmile_qr_scan"}, "fusion_lon": 0.0}, {"lat": 38.9258115, "is_disabled": 0, "type": "electric_scooter", "lon": -77.057637, "bike_id": "4f3f7daa250b3536c919d8b70f4b6221", "fusion_lat": 0.0, "name": "4f3f7daa250b3536c919d8b70f4b6221", "is_reserved": 0, "rental_uris": {"android": "https://dc.lft.to/lastmile_qr_scan", "ios": "https://dc.lft.to/lastmile_qr_scan"}, "fusion_lon": 0.0}, {"lat": 38.9290705, "is_disabled": 0, "type": "electric_scooter", "lon": -77.07457433333333, "bike_id": "be5783cc00f653eede0f2fdd45229cf0", "fusion_lat": 0.0, "name": "be5783cc00f653eede0f2fdd45229cf0", "is_reserved": 0, "rental_uris": {"android": "https://dc.lft.to/lastmile_qr_scan", "ios": "https://dc.lft.to/lastmile_qr_scan"}, "fusion_lon": 0.0}, {"lat": 38.921200166666665, "is_disabled": 0, "type": "electric_scooter", "lon": -77.03659533333334, "bike_id": "68102221cef64ad0341d8d30e5058993", "fusion_lat": 0.0, "name": "68102221cef64ad0341d8d30e5058993", "is_reserved": 0, "rental_uris": {"android": "https://dc.lft.to/lastmile_qr_scan", "ios": "https://dc.lft.to/lastmile_qr_scan"}, "fusion_lon": 0.0}, {"lat": 38.925939666666665, "is_disabled": 0, "type": "electric_scooter", "lon": -77.02268566666666, "bike_id": "e2331117a26bf4d243a92bd3afae519b", "fusion_lat": 0.0, "name": "e2331117a26bf4d243a92bd3afae519b", "is_reserved": 0, "rental_uris": {"android": "https://dc.lft.to/lastmile_qr_scan", "ios": "https://dc.lft.to/lastmile_qr_scan"}, "fusion_lon": 0.0}, {"lat": 38.911207166666664, "is_disabled": 0, "type": "electric_scooter", "lon": -77.0409095, "bike_id": "78bb5fe647fc98efc18cb7d538de86bc", "fusion_lat": 0.0, "name": "78bb5fe647fc98efc18cb7d538de86bc", "is_reserved": 0, "rental_uris": {"android": "https://dc.lft.to/lastmile_qr_scan", "ios": "https://dc.lft.to/lastmile_qr_scan"}, "fusion_lon": 0.0}, {"lat": 38.96116583333333, "is_disabled": 0, "type": "electric_scooter", "lon": -77.0281535, "bike_id": "15f6713390ef54cd7e6a9fe06e99a0fe", "fusion_lat": 0.0, "name": "15f6713390ef54cd7e6a9fe06e99a0fe", "is_reserved": 0, "rental_uris": {"android": "https://dc.lft.to/lastmile_qr_scan", "ios": "https://dc.lft.to/lastmile_qr_scan"}, "fusion_lon": 0.0}, {"lat": 38.86994466666667, "is_disabled": 0, "type": "electric_bike", "lon": -76.959822, "bike_id": "cf4e918b2a3a744e00c732489dbeba5d", "fusion_lat": 0.0, "name": "cf4e918b2a3a744e00c732489dbeba5d", "is_reserved": 0, "rental_uris": {"android": "https://dc.lft.to/lastmile_qr_scan", "ios": "https://dc.lft.to/lastmile_qr_scan"}, "fusion_lon": 0.0}, {"lat": 38.964934, "is_disabled": 0, "type": "electric_scooter", "lon": -77.02787283333333, "bike_id": "088f541d5d53e789111bba1e2a10ce2b", "fusion_lat": 0.0, "name": "088f541d5d53e789111bba1e2a10ce2b", "is_reserved": 0, "rental_uris": {"android": "https://dc.lft.to/lastmile_qr_scan", "ios": "https://dc.lft.to/lastmile_qr_scan"}, "fusion_lon": 0.0}, {"lat": 38.920378666666664, "is_disabled": 0, "type": "electric_scooter", "lon": -77.03044083333333, "bike_id": "b455d41a09994fe4ed3fbfe017891192", "fusion_lat": 0.0, "name": "b455d41a09994fe4ed3fbfe017891192", "is_reserved": 0, "rental_uris": {"android": "https://dc.lft.to/lastmile_qr_scan", "ios": "https://dc.lft.to/lastmile_qr_scan"}, "fusion_lon": 0.0}, {"lat": 38.9850445, "is_disabled": 0, "type": "electric_bike", "lon": -76.98206, "bike_id": "2aaa6619dcdf5c626b950dff9e9e5415", "fusion_lat": 0.0, "name": "2aaa6619dcdf5c626b950dff9e9e5415", "is_reserved": 0, "rental_uris": {"android": "https://dc.lft.to/lastmile_qr_scan", "ios": "https://dc.lft.to/lastmile_qr_scan"}, "fusion_lon": 0.0}, {"lat": 38.9213005, "is_disabled": 0, "type": "electric_scooter", "lon": -77.01772083333333, "bike_id": "f4b69dc9a0626a1ca542e7153731cadc", "fusion_lat": 0.0, "name": "f4b69dc9a0626a1ca542e7153731cadc", "is_reserved": 0, "rental_uris": {"android": "https://dc.lft.to/lastmile_qr_scan", "ios": "https://dc.lft.to/lastmile_qr_scan"}, "fusion_lon": 0.0}, {"lat": 38.92001666666667, "is_disabled": 0, "type": "electric_scooter", "lon": -77.032362, "bike_id": "e8dc74f7a54b4fcaad71bc94db6d502d", "fusion_lat": 0.0, "name": "e8dc74f7a54b4fcaad71bc94db6d502d", "is_reserved": 0, "rental_uris": {"android": "https://dc.lft.to/lastmile_qr_scan", "ios": "https://dc.lft.to/lastmile_qr_scan"}, "fusion_lon": 0.0}, {"lat": 38.928315, "is_disabled": 0, "type": "electric_scooter", "lon": -77.02190933333333, "bike_id": "49734b3617b3f86dfbdde23993cebc54", "fusion_lat": 0.0, "name": "49734b3617b3f86dfbdde23993cebc54", "is_reserved": 0, "rental_uris": {"android": "https://dc.lft.to/lastmile_qr_scan", "ios": "https://dc.lft.to/lastmile_qr_scan"}, "fusion_lon": 0.0}, {"lat": 38.805752166666664, "is_disabled": 0, "type": "electric_bike", "lon": -77.06860133333333, "bike_id": "f4b912067cd310db62f66a96c89a0c3a", "fusion_lat": 0.0, "name": "f4b912067cd310db62f66a96c89a0c3a", "is_reserved": 0, "rental_uris": {"android": "https://dc.lft.to/lastmile_qr_scan", "ios": "https://dc.lft.to/lastmile_qr_scan"}, "fusion_lon": 0.0}, {"lat": 38.9198385, "is_disabled": 0, "type": "electric_scooter", "lon": -77.04162066666666, "bike_id": "3dad13f8cf99a5773934271dc53baf4b", "fusion_lat": 0.0, "name": "3dad13f8cf99a5773934271dc53baf4b", "is_reserved": 0, "rental_uris": {"android": "https://dc.lft.to/lastmile_qr_scan", "ios": "https://dc.lft.to/lastmile_qr_scan"}, "fusion_lon": 0.0}, {"lat": 38.89607216666667, "is_disabled": 0, "type": "electric_scooter", "lon": -77.05469433333333, "bike_id": "abca6d2308ddc018919bff018aa550af", "fusion_lat": 0.0, "name": "abca6d2308ddc018919bff018aa550af", "is_reserved": 0, "rental_uris": {"android": "https://dc.lft.to/lastmile_qr_scan", "ios": "https://dc.lft.to/lastmile_qr_scan"}, "fusion_lon": 0.0}, {"lat": 38.905568833333334, "is_disabled": 0, "type": "electric_scooter", "lon": -77.00597383333333, "bike_id": "7b5f51b7b412d02ce7e08f5138cdada7", "fusion_lat": 0.0, "name": "7b5f51b7b412d02ce7e08f5138cdada7", "is_reserved": 0, "rental_uris": {"android": "https://dc.lft.to/lastmile_qr_scan", "ios": "https://dc.lft.to/lastmile_qr_scan"}, "fusion_lon": 0.0}, {"lat": 38.89822983333333, "is_disabled": 0, "type": "electric_scooter", "lon": -77.03161166666666, "bike_id": "1acf098cc3c00f0ecf798d5c5fad32b9", "fusion_lat": 0.0, "name": "1acf098cc3c00f0ecf798d5c5fad32b9", "is_reserved": 0, "rental_uris": {"android": "https://dc.lft.to/lastmile_qr_scan", "ios": "https://dc.lft.to/lastmile_qr_scan"}, "fusion_lon": 0.0}, {"lat": 38.862948333333335, "is_disabled": 0, "type": "electric_scooter", "lon": -76.992318, "bike_id": "e56f80a8aacad2097b00196c620d3f45", "fusion_lat": 0.0, "name": "e56f80a8aacad2097b00196c620d3f45", "is_reserved": 0, "rental_uris": {"android": "https://dc.lft.to/lastmile_qr_scan", "ios": "https://dc.lft.to/lastmile_qr_scan"}, "fusion_lon": 0.0}, {"lat": 39.09439166666667, "is_disabled": 0, "type": "electric_bike", "lon": -77.13460966666666, "bike_id": "2899519515c60e32ebb17bf762b7c3b5", "fusion_lat": 0.0, "name": "2899519515c60e32ebb17bf762b7c3b5", "is_reserved": 0, "rental_uris": {"android": "https://dc.lft.to/lastmile_qr_scan", "ios": "https://dc.lft.to/lastmile_qr_scan"}, "fusion_lon": 0.0}, {"lat": 38.928566000000004, "is_disabled": 0, "type": "electric_scooter", "lon": -77.03096416666666, "bike_id": "ad4e76eeb8791bab76e0f6a23993f66c", "fusion_lat": 0.0, "name": "ad4e76eeb8791bab76e0f6a23993f66c", "is_reserved": 0, "rental_uris": {"android": "https://dc.lft.to/lastmile_qr_scan", "ios": "https://dc.lft.to/lastmile_qr_scan"}, "fusion_lon": 0.0}, {"lat": 38.93532166666667, "is_disabled": 0, "type": "electric_bike", "lon": -76.9834655, "bike_id": "ecf4c0082aefefd7f2b9e1ee2c60033b", "fusion_lat": 0.0, "name": "ecf4c0082aefefd7f2b9e1ee2c60033b", "is_reserved": 0, "rental_uris": {"android": "https://dc.lft.to/lastmile_qr_scan", "ios": "https://dc.lft.to/lastmile_qr_scan"}, "fusion_lon": 0.0}, {"lat": 38.93203233333333, "is_disabled": 0, "type": "electric_scooter", "lon": -77.03847683333333, "bike_id": "1b38c67b63fda623f3465b3f44101a33", "fusion_lat": 0.0, "name": "1b38c67b63fda623f3465b3f44101a33", "is_reserved": 0, "rental_uris": {"android": "https://dc.lft.to/lastmile_qr_scan", "ios": "https://dc.lft.to/lastmile_qr_scan"}, "fusion_lon": 0.0}, {"lat": 38.893579833333334, "is_disabled": 0, "type": "electric_scooter", "lon": -77.04155616666667, "bike_id": "9ff2e5d41470ce72950297b16c2927c6", "fusion_lat": 0.0, "name": "9ff2e5d41470ce72950297b16c2927c6", "is_reserved": 0, "rental_uris": {"android": "https://dc.lft.to/lastmile_qr_scan", "ios": "https://dc.lft.to/lastmile_qr_scan"}, "fusion_lon": 0.0}, {"lat": 38.9103955, "is_disabled": 0, "type": "electric_scooter", "lon": -77.03371833333334, "bike_id": "18104641ad853608208c370b1bcad137", "fusion_lat": 0.0, "name": "18104641ad853608208c370b1bcad137", "is_reserved": 0, "rental_uris": {"android": "https://dc.lft.to/lastmile_qr_scan", "ios": "https://dc.lft.to/lastmile_qr_scan"}, "fusion_lon": 0.0}, {"lat": 38.898453833333335, "is_disabled": 0, "type": "electric_scooter", "lon": -76.94460833333333, "bike_id": "cf42ca7fc02428766a3cbd5584e3a953", "fusion_lat": 0.0, "name": "cf42ca7fc02428766a3cbd5584e3a953", "is_reserved": 0, "rental_uris": {"android": "https://dc.lft.to/lastmile_qr_scan", "ios": "https://dc.lft.to/lastmile_qr_scan"}, "fusion_lon": 0.0}, {"lat": 38.887036333333334, "is_disabled": 0, "type": "electric_scooter", "lon": -77.032035, "bike_id": "0b3f1a14c96cf91288cf24b11f00eb1d", "fusion_lat": 0.0, "name": "0b3f1a14c96cf91288cf24b11f00eb1d", "is_reserved": 0, "rental_uris": {"android": "https://dc.lft.to/lastmile_qr_scan", "ios": "https://dc.lft.to/lastmile_qr_scan"}, "fusion_lon": 0.0}, {"lat": 38.91322733333333, "is_disabled": 0, "type": "electric_scooter", "lon": -77.045666, "bike_id": "0f917f8b20cf72b2165017fc504dfbb6", "fusion_lat": 0.0, "name": "0f917f8b20cf72b2165017fc504dfbb6", "is_reserved": 0, "rental_uris": {"android": "https://dc.lft.to/lastmile_qr_scan", "ios": "https://dc.lft.to/lastmile_qr_scan"}, "fusion_lon": 0.0}, {"lat": 38.912167333333336, "is_disabled": 0, "type": "electric_scooter", "lon": -77.02715266666667, "bike_id": "b665c43bfbc9e8f76d851185698eb30d", "fusion_lat": 0.0, "name": "b665c43bfbc9e8f76d851185698eb30d", "is_reserved": 0, "rental_uris": {"android": "https://dc.lft.to/lastmile_qr_scan", "ios": "https://dc.lft.to/lastmile_qr_scan"}, "fusion_lon": 0.0}, {"lat": 38.90783416666667, "is_disabled": 0, "type": "electric_scooter", "lon": -77.03849016666666, "bike_id": "1b5e1fb8757a321d773aa8f71098b8d6", "fusion_lat": 0.0, "name": "1b5e1fb8757a321d773aa8f71098b8d6", "is_reserved": 0, "rental_uris": {"android": "https://dc.lft.to/lastmile_qr_scan", "ios": "https://dc.lft.to/lastmile_qr_scan"}, "fusion_lon": 0.0}, {"lat": 38.90014583333333, "is_disabled": 0, "type": "electric_scooter", "lon": -77.00218116666667, "bike_id": "fa6d83c64e09bb3bb67abf27123c61f4", "fusion_lat": 0.0, "name": "fa6d83c64e09bb3bb67abf27123c61f4", "is_reserved": 0, "rental_uris": {"android": "https://dc.lft.to/lastmile_qr_scan", "ios": "https://dc.lft.to/lastmile_qr_scan"}, "fusion_lon": 0.0}, {"lat": 38.90262583333333, "is_disabled": 0, "type": "electric_scooter", "lon": -77.00327466666667, "bike_id": "f483dfeb0c96d98cecd38fefb6527f70", "fusion_lat": 0.0, "name": "f483dfeb0c96d98cecd38fefb6527f70", "is_reserved": 0, "rental_uris": {"android": "https://dc.lft.to/lastmile_qr_scan", "ios": "https://dc.lft.to/lastmile_qr_scan"}, "fusion_lon": 0.0}, {"lat": 38.92041116666667, "is_disabled": 0, "type": "electric_scooter", "lon": -77.03852733333333, "bike_id": "35bea99d38a90defd19fed21ab979692", "fusion_lat": 0.0, "name": "35bea99d38a90defd19fed21ab979692", "is_reserved": 0, "rental_uris": {"android": "https://dc.lft.to/lastmile_qr_scan", "ios": "https://dc.lft.to/lastmile_qr_scan"}, "fusion_lon": 0.0}, {"lat": 38.954013, "is_disabled": 0, "type": "electric_scooter", "lon": -77.02745516666667, "bike_id": "e233aad8acb3d8bc590a04dd3480d987", "fusion_lat": 0.0, "name": "e233aad8acb3d8bc590a04dd3480d987", "is_reserved": 0, "rental_uris": {"android": "https://dc.lft.to/lastmile_qr_scan", "ios": "https://dc.lft.to/lastmile_qr_scan"}, "fusion_lon": 0.0}, {"lat": 38.9208745, "is_disabled": 0, "type": "electric_scooter", "lon": -77.042005, "bike_id": "04f1bb0bdaaa4904cfc51f14216c2a4d", "fusion_lat": 0.0, "name": "04f1bb0bdaaa4904cfc51f14216c2a4d", "is_reserved": 0, "rental_uris": {"android": "https://dc.lft.to/lastmile_qr_scan", "ios": "https://dc.lft.to/lastmile_qr_scan"}, "fusion_lon": 0.0}, {"lat": 38.921799, "is_disabled": 0, "type": "electric_scooter", "lon": -77.04705483333333, "bike_id": "e8b46aff0b70b49f930791ff3f3d2402", "fusion_lat": 0.0, "name": "e8b46aff0b70b49f930791ff3f3d2402", "is_reserved": 0, "rental_uris": {"android": "https://dc.lft.to/lastmile_qr_scan", "ios": "https://dc.lft.to/lastmile_qr_scan"}, "fusion_lon": 0.0}, {"lat": 38.9260825, "is_disabled": 0, "type": "electric_scooter", "lon": -77.0569115, "bike_id": "760435c6d803e6767d9e0ab9b79f1376", "fusion_lat": 0.0, "name": "760435c6d803e6767d9e0ab9b79f1376", "is_reserved": 0, "rental_uris": {"android": "https://dc.lft.to/lastmile_qr_scan", "ios": "https://dc.lft.to/lastmile_qr_scan"}, "fusion_lon": 0.0}, {"lat": 38.91822783333333, "is_disabled": 0, "type": "electric_scooter", "lon": -77.035512, "bike_id": "6dce34bf0ba890be999a965a4ab2d510", "fusion_lat": 0.0, "name": "6dce34bf0ba890be999a965a4ab2d510", "is_reserved": 0, "rental_uris": {"android": "https://dc.lft.to/lastmile_qr_scan", "ios": "https://dc.lft.to/lastmile_qr_scan"}, "fusion_lon": 0.0}, {"lat": 38.90394366666666, "is_disabled": 0, "type": "electric_scooter", "lon": -77.01764283333333, "bike_id": "21ccca4dd0bc7cbe8da24eb1377de044", "fusion_lat": 0.0, "name": "21ccca4dd0bc7cbe8da24eb1377de044", "is_reserved": 0, "rental_uris": {"android": "https://dc.lft.to/lastmile_qr_scan", "ios": "https://dc.lft.to/lastmile_qr_scan"}, "fusion_lon": 0.0}, {"lat": 38.897513000000004, "is_disabled": 0, "type": "electric_scooter", "lon": -77.018596, "bike_id": "63c96a82e8313782a70e0320291b14e8", "fusion_lat": 0.0, "name": "63c96a82e8313782a70e0320291b14e8", "is_reserved": 0, "rental_uris": {"android": "https://dc.lft.to/lastmile_qr_scan", "ios": "https://dc.lft.to/lastmile_qr_scan"}, "fusion_lon": 0.0}, {"lat": 38.9324, "is_disabled": 0, "type": "electric_scooter", "lon": -77.03262683333334, "bike_id": "f1f9b50eddd06b51f2a3154fe04afda2", "fusion_lat": 0.0, "name": "f1f9b50eddd06b51f2a3154fe04afda2", "is_reserved": 0, "rental_uris": {"android": "https://dc.lft.to/lastmile_qr_scan", "ios": "https://dc.lft.to/lastmile_qr_scan"}, "fusion_lon": 0.0}, {"lat": 38.8849155, "is_disabled": 0, "type": "electric_scooter", "lon": -77.00727916666666, "bike_id": "449b4522b2dfec3f15674eb0e6b26cd5", "fusion_lat": 0.0, "name": "449b4522b2dfec3f15674eb0e6b26cd5", "is_reserved": 0, "rental_uris": {"android": "https://dc.lft.to/lastmile_qr_scan", "ios": "https://dc.lft.to/lastmile_qr_scan"}, "fusion_lon": 0.0}, {"lat": 38.90897316666667, "is_disabled": 0, "type": "electric_scooter", "lon": -77.0430155, "bike_id": "d557ff5e139aad38d069af973b10b339", "fusion_lat": 0.0, "name": "d557ff5e139aad38d069af973b10b339", "is_reserved": 0, "rental_uris": {"android": "https://dc.lft.to/lastmile_qr_scan", "ios": "https://dc.lft.to/lastmile_qr_scan"}, "fusion_lon": 0.0}, {"lat": 38.917077166666665, "is_disabled": 0, "type": "electric_scooter", "lon": -77.00115233333334, "bike_id": "8cea9d0d0deb100179577a4c13d461cf", "fusion_lat": 0.0, "name": "8cea9d0d0deb100179577a4c13d461cf", "is_reserved": 0, "rental_uris": {"android": "https://dc.lft.to/lastmile_qr_scan", "ios": "https://dc.lft.to/lastmile_qr_scan"}, "fusion_lon": 0.0}, {"lat": 38.9395975, "is_disabled": 0, "type": "electric_bike", "lon": -77.36096633333334, "bike_id": "412e3ccb00a23695ecf0cbf298ffd3b9", "fusion_lat": 0.0, "name": "412e3ccb00a23695ecf0cbf298ffd3b9", "is_reserved": 0, "rental_uris": {"android": "https://dc.lft.to/lastmile_qr_scan", "ios": "https://dc.lft.to/lastmile_qr_scan"}, "fusion_lon": 0.0}, {"lat": 38.89557766666667, "is_disabled": 0, "type": "electric_scooter", "lon": -76.93077633333333, "bike_id": "231edb9b75d122a69bbe55e07d778601", "fusion_lat": 0.0, "name": "231edb9b75d122a69bbe55e07d778601", "is_reserved": 0, "rental_uris": {"android": "https://dc.lft.to/lastmile_qr_scan", "ios": "https://dc.lft.to/lastmile_qr_scan"}, "fusion_lon": 0.0}, {"lat": 38.952926166666664, "is_disabled": 0, "type": "electric_bike", "lon": -76.94601283333333, "bike_id": "3bd969950faac9ebc6dcf1efbcf6c1ec", "fusion_lat": 0.0, "name": "3bd969950faac9ebc6dcf1efbcf6c1ec", "is_reserved": 0, "rental_uris": {"android": "https://dc.lft.to/lastmile_qr_scan", "ios": "https://dc.lft.to/lastmile_qr_scan"}, "fusion_lon": 0.0}, {"lat": 38.956322, "is_disabled": 0, "type": "electric_bike", "lon": -77.02297916666667, "bike_id": "0d349d0d639682d568ccea4a384427ea", "fusion_lat": 0.0, "name": "0d349d0d639682d568ccea4a384427ea", "is_reserved": 0, "rental_uris": {"android": "https://dc.lft.to/lastmile_qr_scan", "ios": "https://dc.lft.to/lastmile_qr_scan"}, "fusion_lon": 0.0}, {"lat": 38.927599, "is_disabled": 0, "type": "electric_scooter", "lon": -77.03212766666667, "bike_id": "b6194eba62e8b7fe785baaf6146a8f0d", "fusion_lat": 0.0, "name": "b6194eba62e8b7fe785baaf6146a8f0d", "is_reserved": 0, "rental_uris": {"android": "https://dc.lft.to/lastmile_qr_scan", "ios": "https://dc.lft.to/lastmile_qr_scan"}, "fusion_lon": 0.0}, {"lat": 38.90572616666667, "is_disabled": 0, "type": "electric_scooter", "lon": -77.04681983333333, "bike_id": "4b1dfdd546e1447f760d8a64b93ec930", "fusion_lat": 0.0, "name": "4b1dfdd546e1447f760d8a64b93ec930", "is_reserved": 0, "rental_uris": {"android": "https://dc.lft.to/lastmile_qr_scan", "ios": "https://dc.lft.to/lastmile_qr_scan"}, "fusion_lon": 0.0}, {"lat": 38.92011866666667, "is_disabled": 0, "type": "electric_scooter", "lon": -77.03879266666667, "bike_id": "d284e165630ffaa88e9aa6f33b4b3ba8", "fusion_lat": 0.0, "name": "d284e165630ffaa88e9aa6f33b4b3ba8", "is_reserved": 0, "rental_uris": {"android": "https://dc.lft.to/lastmile_qr_scan", "ios": "https://dc.lft.to/lastmile_qr_scan"}, "fusion_lon": 0.0}, {"lat": 38.917241833333335, "is_disabled": 0, "type": "electric_scooter", "lon": -77.02406916666666, "bike_id": "58d6f48048119817687f30044bd89ea2", "fusion_lat": 0.0, "name": "58d6f48048119817687f30044bd89ea2", "is_reserved": 0, "rental_uris": {"android": "https://dc.lft.to/lastmile_qr_scan", "ios": "https://dc.lft.to/lastmile_qr_scan"}, "fusion_lon": 0.0}, {"lat": 38.88489966666667, "is_disabled": 0, "type": "electric_scooter", "lon": -77.007152, "bike_id": "44a449a93a8bf48203c813934511ff5c", "fusion_lat": 0.0, "name": "44a449a93a8bf48203c813934511ff5c", "is_reserved": 0, "rental_uris": {"android": "https://dc.lft.to/lastmile_qr_scan", "ios": "https://dc.lft.to/lastmile_qr_scan"}, "fusion_lon": 0.0}, {"lat": 38.973471833333335, "is_disabled": 0, "type": "electric_scooter", "lon": -77.01794316666667, "bike_id": "2d1776586dc152eaf8f4cf3e6bbb8f7e", "fusion_lat": 0.0, "name": "2d1776586dc152eaf8f4cf3e6bbb8f7e", "is_reserved": 0, "rental_uris": {"android": "https://dc.lft.to/lastmile_qr_scan", "ios": "https://dc.lft.to/lastmile_qr_scan"}, "fusion_lon": 0.0}, {"lat": 38.876309166666665, "is_disabled": 0, "type": "electric_scooter", "lon": -77.009536, "bike_id": "8d024a12b16958eaf79f62dfa7c846a6", "fusion_lat": 0.0, "name": "8d024a12b16958eaf79f62dfa7c846a6", "is_reserved": 0, "rental_uris": {"android": "https://dc.lft.to/lastmile_qr_scan", "ios": "https://dc.lft.to/lastmile_qr_scan"}, "fusion_lon": 0.0},