{"data": {"bikes": [{"is_reserved": 0, "type": "electric_scooter", "fusion_lat": 0.0, "is_disabled": 0, "rental_uris": {"ios": "https://dc.lft.to/lastmile_qr_scan", "android": "https://dc.lft.to/lastmile_qr_scan"}, "bike_id": "dd05569c2dad3b901d85676e33cdcea5", "lat": 38.8765815, "name": "dd05569c2dad3b901d85676e33cdcea5", "lon": -77.00496983333333, "fusion_lon": 0.0}, {"is_reserved": 0, "type": "electric_scooter", "fusion_lat": 0.0, "is_disabled": 0, "rental_uris": {"ios": "https://dc.lft.to/lastmile_qr_scan", "android": "https://dc.lft.to/lastmile_qr_scan"}, "bike_id": "c04e5b593a1e2e9cd8474715181fd4d6", "lat": 38.90950633333333, "name": "c04e5b593a1e2e9cd8474715181fd4d6", "lon": -77.02311633333333, "fusion_lon": 0.0}, {"is_reserved": 0, "type": "electric_scooter", "fusion_lat": 0.0, "is_disabled": 0, "rental_uris": {"ios": "https://dc.lft.to/lastmile_qr_scan", "android": "https://dc.lft.to/lastmile_qr_scan"}, "bike_id": "9155f33e1c428a5032bf210fd91f5533", "lat": 38.8917185, "name": "9155f33e1c428a5032bf210fd91f5533", "lon": -77.0155255, "fusion_lon": 0.0}, {"is_reserved": 0, "type": "electric_scooter", "fusion_lat": 0.0, "is_disabled": 0, "rental_uris": {"ios": "https://dc.lft.to/lastmile_qr_scan", "android": "https://dc.lft.to/lastmile_qr_scan"}, "bike_id": "bd26f6eccf0541a9e6427caf38115e5a", "lat": 38.92412916666667, "name": "bd26f6eccf0541a9e6427caf38115e5a", "lon": -77.02128933333333, "fusion_lon": 0.0}, {"is_reserved": 0, "type": "electric_scooter", "fusion_lat": 0.0, "is_disabled": 0, "rental_uris": {"ios": "https://dc.lft.to/lastmile_qr_scan", "android": "https://dc.lft.to/lastmile_qr_scan"}, "bike_id": "b78bea2e7e0578e997e97787f40a7f53", "lat": 38.92645783333333, "name": "b78bea2e7e0578e997e97787f40a7f53", "lon": -77.03709683333334, "fusion_lon": 0.0}, {"is_reserved": 0, "type": "electric_scooter", "fusion_lat": 0.0, "is_disabled": 0, "rental_uris": {"ios": "https://dc.lft.to/lastmile_qr_scan", "android": "https://dc.lft.to/lastmile_qr_scan"}, "bike_id": "5d1e01ebae94a16fff4e52453c47b651", "lat": 38.89974466666666, "name": "5d1e01ebae94a16fff4e52453c47b651", "lon": -77.04480966666667, "fusion_lon": 0.0}, {"is_reserved": 0, "type": "electric_scooter", "fusion_lat": 0.0, "is_disabled": 0, "rental_uris": {"ios": "https://dc.lft.to/lastmile_qr_scan", "android": "https://dc.lft.to/lastmile_qr_scan"}, "bike_id": "0e35f28d3e1f6f8ec79a266d9332855d", "lat": 38.957268666666664, "name": "0e35f28d3e1f6f8ec79a266d9332855d", "lon": -77.02573933333333, "fusion_lon": 0.0}, {"is_reserved": 0, "type": "electric_scooter", "fusion_lat": 0.0, "is_disabled": 0, "rental_uris": {"ios": "https://dc.lft.to/lastmile_qr_scan", "android": "https://dc.lft.to/lastmile_qr_scan"}, "bike_id": "93d16462470f2770d4bd9dba89fecadc", "lat": 38.8710845, "name": "93d16462470f2770d4bd9dba89fecadc", "lon": -77.01218283333333, "fusion_lon": 0.0}, {"is_reserved": 0, "type": "electric_scooter", "fusion_lat": 0.0, "is_disabled": 0, "rental_uris": {"ios": "https://dc.lft.to/lastmile_qr_scan", "android": "https://dc.lft.to/lastmile_qr_scan"}, "bike_id": "58757b4439655931e5204396910e7dfb", "lat": 38.892223666666666, "name": "58757b4439655931e5204396910e7dfb", "lon": -77.0445975, "fusion_lon": 0.0}, {"is_reserved": 0, "type": "electric_bike", "fusion_lat": 0.0, "is_disabled": 0, "rental_uris": {"ios": "https://dc.lft.to/lastmile_qr_scan", "android": "https://dc.lft.to/lastmile_qr_scan"}, "bike_id": "ed307422c4d5d84b1d10178c7ee61e6d", "lat": 38.820303833333334, "name": "ed307422c4d5d84b1d10178c7ee61e6d", "lon": -77.0545585, "fusion_lon": 0.0}, {"is_reserved": 0, "type": "electric_scooter", "fusion_lat": 0.0, "is_disabled": 0, "rental_uris": {"ios": "https://dc.lft.to/lastmile_qr_scan", "android": "https://dc.lft.to/lastmile_qr_scan"}, "bike_id": "aa765f5fbbe52c898afa474cb7bca5e1", "lat": 38.8813155, "name": "aa765f5fbbe52c898afa474cb7bca5e1", "lon": -77.02272116666667, "fusion_lon": 0.0}, {"is_reserved": 0, "type": "electric_scooter", "fusion_lat": 0.0, "is_disabled": 0, "rental_uris": {"ios": "https://dc.lft.to/lastmile_qr_scan", "android": "https://dc.lft.to/lastmile_qr_scan"}, "bike_id": "8e7a85a7ef382222a07fea9585169a2a", "lat": 38.8844865, "name": "8e7a85a7ef382222a07fea9585169a2a", "lon": -76.95098816666666, "fusion_lon": 0.0}, {"is_reserved": 0, "type": "electric_bike", "fusion_lat": 0.0, "is_disabled": 0, "rental_uris": {"ios": "https://dc.lft.to/lastmile_qr_scan", "android": "https://dc.lft.to/lastmile_qr_scan"}, "bike_id": "521b9e87ad274ae74d0279b2a3c8afec", "lat": 38.961206833333335, "name": "521b9e87ad274ae74d0279b2a3c8afec", "lon": -77.03277016666667, "fusion_lon": 0.0}, {"is_reserved": 0, "type": "electric_scooter", "fusion_lat": 0.0, "is_disabled": 0, "rental_uris": {"ios": "https://dc.lft.to/lastmile_qr_scan", "android": "https://dc.lft.to/lastmile_qr_scan"}, "bike_id": "9999085ca40ee7ff01bccc81a6c31c05", "lat": 38.921508333333335, "name": "9999085ca40ee7ff01bccc81a6c31c05", "lon": -77.03384433333333, "fusion_lon": 0.0}, {"is_reserved": 0, "type": "electric_scooter", "fusion_lat": 0.0, "is_disabled": 0, "rental_uris": {"ios": "https://dc.lft.to/lastmile_qr_scan", "android": "https://dc.lft.to/lastmile_qr_scan"}, "bike_id": "aa77c3741d456784f4495500250e91de", "lat": 38.93858266666667, "name": "aa77c3741d456784f4495500250e91de", "lon": -77.02457916666667, "fusion_lon": 0.0}, {"is_reserved": 0, "type": "electric_scooter", "fusion_lat": 0.0, "is_disabled": 0, "rental_uris": {"ios": "https://dc.lft.to/lastmile_qr_scan", "android": "https://dc.lft.to/lastmile_qr_scan"}, "bike_id": "52cbf51cb9a8ccb48b45565b0f00a46a", "lat": 38.93195883333333, "name": "52cbf51cb9a8ccb48b45565b0f00a46a", "lon": -77.03263966666667, "fusion_lon": 0.0}, {"is_reserved": 0, "type": "electric_scooter", "fusion_lat": 0.0, "is_disabled": 0, "rental_uris": {"ios": "https://dc.lft.to/lastmile_qr_scan", "android": "https://dc.lft.to/lastmile_qr_scan"}, "bike_id": "7254b730aaa356c27a0cd3d49dd3d38a", "lat": 38.946735833333335, "name": "7254b730aaa356c27a0cd3d49dd3d38a", "lon": -77.03283166666667, "fusion_lon": 0.0}, {"is_reserved": 0, "type": "electric_scooter", "fusion_lat": 0.0, "is_disabled": 0, "rental_uris": {"ios": "https://dc.lft.to/lastmile_qr_scan", "android": "https://dc.lft.to/lastmile_qr_scan"}, "bike_id": "2d06c14c91573a8f6cf2fba8cd67ed60", "lat": 38.90018583333333, "name": "2d06c14c91573a8f6cf2fba8cd67ed60", "lon": -77.00250766666667, "fusion_lon": 0.0}, {"is_reserved": 0, "type": "electric_scooter", "fusion_lat": 0.0, "is_disabled": 0, "rental_uris": {"ios": "https://dc.lft.to/lastmile_qr_scan", "android": "https://dc.lft.to/lastmile_qr_scan"}, "bike_id": "cc94bf0827904d2430e22ce1e65c87cb", "lat": 38.8919675, "name": "cc94bf0827904d2430e22ce1e65c87cb", "lon": -77.0211805, "fusion_lon": 0.0}, {"is_reserved": 0, "type": "electric_scooter", "fusion_lat": 0.0, "is_disabled": 0, "rental_uris": {"ios": "https://dc.lft.to/lastmile_qr_scan", "android": "https://dc.lft.to/lastmile_qr_scan"}, "bike_id": "b969f043352758925629d76f4e12e1b5", "lat": 38.899953333333336, "name": "b969f043352758925629d76f4e12e1b5", "lon": -77.00680916666667, "fusion_lon": 0.0}, {"is_reserved": 0, "type": "electric_scooter", "fusion_lat": 0.0, "is_disabled": 0, "rental_uris": {"ios": "https://dc.lft.to/lastmile_qr_scan", "android": "https://dc.lft.to/lastmile_qr_scan"}, "bike_id": "401014944097b013f4dd1c629b260a82", "lat": 38.9281005, "name": "401014944097b013f4dd1c629b260a82", "lon": -77.03615383333333, "fusion_lon": 0.0}, {"is_reserved": 0, "type": "electric_scooter", "fusion_lat": 0.0, "is_disabled": 0, "rental_uris": {"ios": "https://dc.lft.to/lastmile_qr_scan", "android": "https://dc.lft.to/lastmile_qr_scan"}, "bike_id": "787a9f15bc1a79d5b4e823f34a6f7cb4", "lat": 38.93409333333334, "name": "787a9f15bc1a79d5b4e823f34a6f7cb4", "lon": -77.0455375, "fusion_lon": 0.0}, {"is_reserved": 0, "type": "electric_scooter", "fusion_lat": 0.0, "is_disabled": 0, "rental_uris": {"ios": "https://dc.lft.to/lastmile_qr_scan", "android": "https://dc.lft.to/lastmile_qr_scan"}, "bike_id": "d1845b41b2858f62c0d3a7768d37f398", "lat": 38.898182166666665, "name": "d1845b41b2858f62c0d3a7768d37f398", "lon": -77.04823283333333, "fusion_lon": 0.0}, {"is_reserved": 0, "type": "electric_bike", "fusion_lat": 0.0, "is_disabled": 0, "rental_uris": {"ios": "https://dc.lft.to/lastmile_qr_scan", "android": "https://dc.lft.to/lastmile_qr_scan"}, "bike_id": "ce85c4ed4d04275eed964f6321b83d0b", "lat": 38.910271333333334, "name": "ce85c4ed4d04275eed964f6321b83d0b", "lon": -76.92333583333334, "fusion_lon": 0.0}, {"is_reserved": 0, "type": "electric_scooter", "fusion_lat": 0.0, "is_disabled": 0, "rental_uris": {"ios": "https://dc.lft.to/lastmile_qr_scan", "android": "https://dc.lft.to/lastmile_qr_scan"}, "bike_id": "eb333dd994309ce3d21b17d3a1181ee9", "lat": 38.913495, "name": "eb333dd994309ce3d21b17d3a1181ee9", "lon": -76.9714095, "fusion_lon": 0.0}, {"is_reserved": 0, "type": "electric_scooter", "fusion_lat": 0.0, "is_disabled": 0, "rental_uris": {"ios": "https://dc.lft.to/lastmile_qr_scan", "android": "https://dc.lft.to/lastmile_qr_scan"}, "bike_id": "4ac54df5904f252edbbe0f60396e7a3f", "lat": 38.909147, "name": "4ac54df5904f252edbbe0f60396e7a3f", "lon": -77.0493935, "fusion_lon": 0.0}, {"is_reserved": 0, "type": "electric_scooter", "fusion_lat": 0.0, "is_disabled": 0, "rental_uris": {"ios": "https://dc.lft.to/lastmile_qr_scan", "android": "https://dc.lft.to/lastmile_qr_scan"}, "bike_id": "55f5aa971901c5e72a4084594c36f9f0", "lat": 38.8871375, "name": "55f5aa971901c5e72a4084594c36f9f0", "lon": -77.03186533333333, "fusion_lon": 0.0}, {"is_reserved": 0, "type": "electric_scooter", "fusion_lat": 0.0, "is_disabled": 0, "rental_uris": {"ios": "https://dc.lft.to/lastmile_qr_scan", "android": "https://dc.lft.to/lastmile_qr_scan"}, "bike_id": "fd05e8cea481c5942b1d9f0ad88f5665", "lat": 38.92678383333333, "name": "fd05e8cea481c5942b1d9f0ad88f5665", "lon": -76.99557583333333, "fusion_lon": 0.0}, {"is_reserved": 0, "type": "electric_scooter", "fusion_lat": 0.0, "is_disabled": 0, "rental_uris": {"ios": "https://dc.lft.to/lastmile_qr_scan", "android": "https://dc.lft.to/lastmile_qr_scan"}, "bike_id": "d1110c22c542c084af9de52da5a1a561", "lat": 38.9366865, "name": "d1110c22c542c084af9de52da5a1a561", "lon": -77.03639683333333, "fusion_lon": 0.0}, {"is_reserved": 0, "type": "electric_scooter", "fusion_lat": 0.0, "is_disabled": 0, "rental_uris": {"ios": "https://dc.lft.to/lastmile_qr_scan", "android": "https://dc.lft.to/lastmile_qr_scan"}, "bike_id": "c264c75e3168cbbb81fb056cf142cc20", "lat": 38.924161166666664, "name": "c264c75e3168cbbb81fb056cf142cc20", "lon": -77.02039333333333, "fusion_lon": 0.0}, {"is_reserved": 0, "type": "electric_scooter", "fusion_lat": 0.0, "is_disabled": 0, "rental_uris": {"ios": "https://dc.lft.to/lastmile_qr_scan", "android": "https://dc.lft.to/lastmile_qr_scan"}, "bike_id": "6542be735b8c1243a7aa38dc6c179233", "lat": 38.89638883333333, "name": "6542be735b8c1243a7aa38dc6c179233", "lon": -77.028627, "fusion_lon": 0.0}, {"is_reserved": 0, "type": "electric_scooter", "fusion_lat": 0.0, "is_disabled": 0, "rental_uris": {"ios": "https://dc.lft.to/lastmile_qr_scan", "android": "https://dc.lft.to/lastmile_qr_scan"}, "bike_id": "db43bff79ebd80de0607cbaf5cfa8044", "lat": 38.91654333333334, "name": "db43bff79ebd80de0607cbaf5cfa8044", "lon": -77.01027183333333, "fusion_lon": 0.0}, {"is_reserved": 0, "type": "electric_scooter", "fusion_lat": 0.0, "is_disabled": 0, "rental_uris": {"ios": "https://dc.lft.to/lastmile_qr_scan", "android": "https://dc.lft.to/lastmile_qr_scan"}, "bike_id": "669033e7dd5acdd7a200b91de5d5c84d", "lat": 38.900658666666665, "name": "669033e7dd5acdd7a200b91de5d5c84d", "lon": -77.04537516666667, "fusion_lon": 0.0}, {"is_reserved": 0, "type": "electric_scooter", "fusion_lat": 0.0, "is_disabled": 0, "rental_uris": {"ios": "https://dc.lft.to/lastmile_qr_scan", "android": "https://dc.lft.to/lastmile_qr_scan"}, "bike_id": "61eaf82c2cf3a694038326e5971acaf0", "lat": 38.898208833333335, "name": "61eaf82c2cf3a694038326e5971acaf0", "lon": -76.930049, "fusion_lon": 0.0}, {"is_reserved": 0, "type": "electric_bike", "fusion_lat": 0.0, "is_disabled": 0, "rental_uris": {"ios": "https://dc.lft.to/lastmile_qr_scan", "android": "https://dc.lft.to/lastmile_qr_scan"}, "bike_id": "f39efc00c4748a46750334cbfd2243a1", "lat": 38.80972633333333, "name": "f39efc00c4748a46750334cbfd2243a1", "lon": -77.076624, "fusion_lon": 0.0}, {"is_reserved": 0, "type": "electric_scooter", "fusion_lat": 0.0, "is_disabled": 0, "rental_uris": {"ios": "https://dc.lft.to/lastmile_qr_scan", "android": "https://dc.lft.to/lastmile_qr_scan"}, "bike_id": "95430fcd81a6f151f1969e4303aa789e", "lat": 38.92008216666667, "name": "95430fcd81a6f151f1969e4303aa789e", "lon": -77.04181933333334, "fusion_lon": 0.0}, {"is_reserved": 0, "type": "electric_scooter", "fusion_lat": 0.0, "is_disabled": 0, "rental_uris": {"ios": "https://dc.lft.to/lastmile_qr_scan", "android": "https://dc.lft.to/lastmile_qr_scan"}, "bike_id": "ca1d3e1381a613bd053e92c4fabb7fd6", "lat": 38.888544, "name": "ca1d3e1381a613bd053e92c4fabb7fd6", "lon": -76.97735133333333, "fusion_lon": 0.0}, {"is_reserved": 0, "type": "electric_scooter", "fusion_lat": 0.0, "is_disabled": 0, "rental_uris": {"ios": "https://dc.lft.to/lastmile_qr_scan", "android": "https://dc.lft.to/lastmile_qr_scan"}, "bike_id": "be1ab7ca2045a1065f6af87e05f662fb", "lat": 38.8977605, "name": "be1ab7ca2045a1065f6af87e05f662fb", "lon": -77.0479, "fusion_lon": 0.0}, {"is_reserved": 0, "type": "electric_scooter", "fusion_lat": 0.0, "is_disabled": 0, "rental_uris": {"ios": "https://dc.lft.to/lastmile_qr_scan", "android": "https://dc.lft.to/lastmile_qr_scan"}, "bike_id": "d6755fe4c7696cf87f55610c2d0179e3", "lat": 38.924324, "name": "d6755fe4c7696cf87f55610c2d0179e3", "lon": -77.05212783333333, "fusion_lon": 0.0}, {"is_reserved": 0, "type": "electric_scooter", "fusion_lat": 0.0, "is_disabled": 0, "rental_uris": {"ios": "https://dc.lft.to/lastmile_qr_scan", "android": "https://dc.lft.to/lastmile_qr_scan"}, "bike_id": "bb0d6f3e8b4d99e0ae73011f9672117d", "lat": 38.8996685, "name": "bb0d6f3e8b4d99e0ae73011f9672117d", "lon": -76.926196, "fusion_lon": 0.0}, {"is_reserved": 0, "type": "electric_scooter", "fusion_lat": 0.0, "is_disabled": 0, "rental_uris": {"ios": "https://dc.lft.to/lastmile_qr_scan", "android": "https://dc.lft.to/lastmile_qr_scan"}, "bike_id": "1afa4b6f2677f5f74e3ab9ef2e1a69d6", "lat": 38.930053, "name": "1afa4b6f2677f5f74e3ab9ef2e1a69d6", "lon": -77.0326545, "fusion_lon": 0.0}, {"is_reserved": 0, "type": "electric_bike", "fusion_lat": 0.0, "is_disabled": 0, "rental_uris": {"ios": "https://dc.lft.to/lastmile_qr_scan", "android": "https://dc.lft.to/lastmile_qr_scan"}, "bike_id": "318b2cbb79ee0e200196b7c06e668f27", "lat": 39.025149166666665, "name": "318b2cbb79ee0e200196b7c06e668f27", "lon": -77.0196895, "fusion_lon": 0.0}, {"is_reserved": 0, "type": "electric_bike", "fusion_lat": 0.0, "is_disabled": 0, "rental_uris": {"ios": "https://dc.lft.to/lastmile_qr_scan", "android": "https://dc.lft.to/lastmile_qr_scan"}, "bike_id": "c144266cfe239927e51094c4c44482dd", "lat": 39.084705166666666, "name": "c144266cfe239927e51094c4c44482dd", "lon": -76.95065366666667, "fusion_lon": 0.0}, {"is_reserved": 0, "type": "electric_scooter", "fusion_lat": 0.0, "is_disabled": 0, "rental_uris": {"ios": "https://dc.lft.to/lastmile_qr_scan", "android": "https://dc.lft.to/lastmile_qr_scan"}, "bike_id": "4bb22efb2360673251db3863cd5b04d8", "lat": 38.929951833333334, "name": "4bb22efb2360673251db3863cd5b04d8", "lon": -77.03801166666666, "fusion_lon": 0.0}, {"is_reserved": 0, "type": "electric_scooter", "fusion_lat": 0.0, "is_disabled": 0, "rental_uris": {"ios": "https://dc.lft.to/lastmile_qr_scan", "android": "https://dc.lft.to/lastmile_qr_scan"}, "bike_id": "2c3d2faba8ef5f1837cb3b807ac3a3bc", "lat": 38.941980666666666, "name": "2c3d2faba8ef5f1837cb3b807ac3a3bc", "lon": -77.02456933333333, "fusion_lon": 0.0}, {"is_reserved": 0, "type": "electric_scooter", "fusion_lat": 0.0, "is_disabled": 0, "rental_uris": {"ios": "https://dc.lft.to/lastmile_qr_scan", "android": "https://dc.lft.to/lastmile_qr_scan"}, "bike_id": "37bd464a4df6aecdb917e0e5e0ee6765", "lat": 38.88872383333333, "name": "37bd464a4df6aecdb917e0e5e0ee6765", "lon": -76.99038683333333, "fusion_lon": 0.0}, {"is_reserved": 0, "type": "electric_scooter", "fusion_lat": 0.0, "is_disabled": 0, "rental_uris": {"ios": "https://dc.lft.to/lastmile_qr_scan", "android": "https://dc.lft.to/lastmile_qr_scan"}, "bike_id": "ed4d1706f3507055ce40380aeaaff43e", "lat": 38.952776, "name": "ed4d1706f3507055ce40380aeaaff43e", "lon": -77.06867016666666, "fusion_lon": 0.0}, {"is_reserved": 0, "type": "electric_scooter", "fusion_lat": 0.0, "is_disabled": 0, "rental_uris": {"ios": "https://dc.lft.to/lastmile_qr_scan", "android": "https://dc.lft.to/lastmile_qr_scan"}, "bike_id": "59ed4f2afcfb446f2be53c69eeffbbfb", "lat": 38.892377, "name": "59ed4f2afcfb446f2be53c69eeffbbfb", "lon": -77.03198816666666, "fusion_lon": 0.0}, {"is_reserved": 0, "type": "electric_scooter", "fusion_lat": 0.0, "is_disabled": 0, "rental_uris": {"ios": "https://dc.lft.to/lastmile_qr_scan", "android": "https://dc.lft.to/lastmile_qr_scan"}, "bike_id": "58d6cd81a79fab5939d913a91b63e454", "lat": 38.91838833333333, "name": "58d6cd81a79fab5939d913a91b63e454", "lon": -77.0319135, "fusion_lon": 0.0}, {"is_reserved": 0, "type": "electric_scooter", "fusion_lat": 0.0, "is_disabled": 0, "rental_uris": {"ios": "https://dc.lft.to/lastmile_qr_scan", "android": "https://dc.lft.to/lastmile_qr_scan"}, "bike_id": "ed1d24ecb1bbc13b52fa1345614fb047", "lat": 38.904915833333334, "name": "ed1d24ecb1bbc13b52fa1345614fb047", "lon": -77.0282525, "fusion_lon": 0.0}, {"is_reserved": 0, "type": "electric_scooter", "fusion_lat": 0.0, "is_disabled": 0, "rental_uris": {"ios": "https://dc.lft.to/lastmile_qr_scan", "android": "https://dc.lft.to/lastmile_qr_scan"}, "bike_id": "edc2aa37b28233c48459c48307e5f9ac", "lat": 38.94079833333333, "name": "edc2aa37b28233c48459c48307e5f9ac", "lon": -77.02724383333333, "fusion_lon": 0.0}, {"is_reserved": 0, "type": "electric_scooter", "fusion_lat": 0.0, "is_disabled": 0, "rental_uris": {"ios": "https://dc.lft.to/lastmile_qr_scan", "android": "https://dc.lft.to/lastmile_qr_scan"}, "bike_id": "634455c8aad1dbcd9e8a3b53beee2c68", "lat": 38.901261833333336, "name": "634455c8aad1dbcd9e8a3b53beee2c68", "lon": -77.030861, "fusion_lon": 0.0}, {"is_reserved": 0, "type": "electric_scooter", "fusion_lat": 0.0, "is_disabled": 0, "rental_uris": {"ios": "https://dc.lft.to/lastmile_qr_scan", "android": "https://dc.lft.to/lastmile_qr_scan"}, "bike_id": "e28a5af1cc90df343782bcb0db59a758", "lat": 38.91858366666666, "name": "e28a5af1cc90df343782bcb0db59a758", "lon": -76.96554066666667, "fusion_lon": 0.0}, {"is_reserved": 0, "type": "electric_scooter", "fusion_lat": 0.0, "is_disabled": 0, "rental_uris": {"ios": "https://dc.lft.to/lastmile_qr_scan", "android": "https://dc.lft.to/lastmile_qr_scan"}, "bike_id": "26f7190040e58182f1801c7d7bf0044e", "lat": 38.89494633333333, "name": "26f7190040e58182f1801c7d7bf0044e", "lon": -77.02293233333333, "fusion_lon": 0.0}, {"is_reserved": 0, "type": "electric_scooter", "fusion_lat": 0.0, "is_disabled": 0, "rental_uris": {"ios": "https://dc.lft.to/lastmile_qr_scan", "android": "https://dc.lft.to/lastmile_qr_scan"}, "bike_id": "60cdfdc66ab1a4c4daa8b4356fe983b5", "lat": 38.892308, "name": "60cdfdc66ab1a4c4daa8b4356fe983b5", "lon": -77.028223, "fusion_lon": 0.0}, {"is_reserved": 0, "type": "electric_scooter", "fusion_lat": 0.0, "is_disabled": 0, "rental_uris": {"ios": "https://dc.lft.to/lastmile_qr_scan", "android": "https://dc.lft.to/lastmile_qr_scan"}, "bike_id": "2fce9a7380ab5a996c6955998c5d2f3d", "lat": 38.902620666666664, "name": "2fce9a7380ab5a996c6955998c5d2f3d", "lon": -77.0272595, "fusion_lon": 0.0}, {"is_reserved": 0, "type": "electric_bike", "fusion_lat": 0.0, "is_disabled": 0, "rental_uris": {"ios": "https://dc.lft.to/lastmile_qr_scan", "android": "https://dc.lft.to/lastmile_qr_scan"}, "bike_id": "f0cc9b86ff4389b83261e7688e7e6a00", "lat": 38.90131866666667, "name": "f0cc9b86ff4389b83261e7688e7e6a00", "lon": -76.99597383333334, "fusion_lon": 0.0}, {"is_reserved": 0, "type": "electric_scooter", "fusion_lat": 0.0, "is_disabled": 0, "rental_uris": {"ios": "https://dc.lft.to/lastmile_qr_scan", "android": "https://dc.lft.to/lastmile_qr_scan"}, "bike_id": "2efb1844292ab25e8cd32233bf517d61", "lat": 38.892218, "name": "2efb1844292ab25e8cd32233bf517d61", "lon": -77.02229916666667, "fusion_lon": 0.0}, {"is_reserved": 0, "type": "electric_scooter", "fusion_lat": 0.0, "is_disabled": 0, "rental_uris": {"ios": "https://dc.lft.to/lastmile_qr_scan", "android": "https://dc.lft.to/lastmile_qr_scan"}, "bike_id": "d1ae6d4911e7ee049241cb950e6f0dc9", "lat": 38.917781166666664, "name": "d1ae6d4911e7ee049241cb950e6f0dc9", "lon": -77.02374016666667, "fusion_lon": 0.0}, {"is_reserved": 0, "type": "electric_scooter", "fusion_lat": 0.0, "is_disabled": 0, "rental_uris": {"ios": "https://dc.lft.to/lastmile_qr_scan", "android": "https://dc.lft.to/lastmile_qr_scan"}, "bike_id": "83a7a08cde76d6ce03915e134cb0fc33", "lat": 38.93660033333333, "name": "83a7a08cde76d6ce03915e134cb0fc33", "lon": -77.066101, "fusion_lon": 0.0}, {"is_reserved": 0, "type": "electric_bike", "fusion_lat": 0.0, "is_disabled": 0, "rental_uris": {"ios": "https://dc.lft.to/lastmile_qr_scan", "android": "https://dc.lft.to/lastmile_qr_scan"}, "bike_id": "5fd842f6deceb5a4cfc6f82c6ace4c01", "lat": 38.9643065, "name": "5fd842f6deceb5a4cfc6f82c6ace4c01", "lon": -77.03196033333333, "fusion_lon": 0.0}, {"is_reserved": 0, "type": "electric_scooter", "fusion_lat": 0.0, "is_disabled": 0, "rental_uris": {"ios": "https://dc.lft.to/lastmile_qr_scan", "android": "https://dc.lft.to/lastmile_qr_scan"}, "bike_id": "59aafef12f2d4a59bf13145847ce1122", "lat": 38.88738566666667, "name": "59aafef12f2d4a59bf13145847ce1122", "lon": -77.02631033333333, "fusion_lon": 0.0}, {"is_reserved": 0, "type": "electric_scooter", "fusion_lat": 0.0, "is_disabled": 0, "rental_uris": {"ios": "https://dc.lft.to/lastmile_qr_scan", "android": "https://dc.lft.to/lastmile_qr_scan"}, "bike_id": "116e677682437c16c2652b0123ce9445", "lat": 38.933688, "name": "116e677682437c16c2652b0123ce9445", "lon": -77.07246016666667, "fusion_lon": 0.0}, {"is_reserved": 0, "type": "electric_scooter", "fusion_lat": 0.0, "is_disabled": 0, "rental_uris": {"ios": "https://dc.lft.to/lastmile_qr_scan", "android": "https://dc.lft.to/lastmile_qr_scan"}, "bike_id": "142d634783846f09987432f3de289f7e", "lat": 38.90066233333334, "name": "142d634783846f09987432f3de289f7e", "lon": -77.048336, "fusion_lon": 0.0}, {"is_reserved": 0, "type": "electric_scooter", "fusion_lat": 0.0, "is_disabled": 0, "rental_uris": {"ios": "https://dc.lft.to/lastmile_qr_scan", "android": "https://dc.lft.to/lastmile_qr_scan"}, "bike_id": "7d408c4777823b1b06cff7265e0a6730", "lat": 38.94462583333333, "name": "7d408c4777823b1b06cff7265e0a6730", "lon": -77.00656333333333, "fusion_lon": 0.0}, {"is_reserved": 0, "type": "electric_scooter", "fusion_lat": 0.0, "is_disabled": 0, "rental_uris": {"ios": "https://dc.lft.to/lastmile_qr_scan", "android": "https://dc.lft.to/lastmile_qr_scan"}, "bike_id": "c2c018ec57f24e972060116f8efab845", "lat": 38.90266716666667, "name": "c2c018ec57f24e972060116f8efab845", "lon": -76.989796, "fusion_lon": 0.0}, {"is_reserved": 0, "type": "electric_scooter", "fusion_lat": 0.0, "is_disabled": 0, "rental_uris": {"ios": "https://dc.lft.to/lastmile_qr_scan", "android": "https://dc.lft.to/lastmile_qr_scan"}, "bike_id": "d685e87c4e9c0ebf3af9462eace1f503", "lat": 38.92070966666667, "name": "d685e87c4e9c0ebf3af9462eace1f503", "lon": -77.02517983333334, "fusion_lon": 0.0}, {"is_reserved": 0, "type": "electric_scooter", "fusion_lat": 0.0, "is_disabled": 0, "rental_uris": {"ios": "https://dc.lft.to/lastmile_qr_scan", "android": "https://dc.lft.to/lastmile_qr_scan"}, "bike_id": "4b816d283efe4747bdc1cff81d34dcf2", "lat": 38.912137, "name": "4b816d283efe4747bdc1cff81d34dcf2", "lon": -77.0066415, "fusion_lon": 0.0}, {"is_reserved": 0, "type": "electric_scooter", "fusion_lat": 0.0, "is_disabled": 0, "rental_uris": {"ios": "https://dc.lft.to/lastmile_qr_scan", "android": "https://dc.lft.to/lastmile_qr_scan"}, "bike_id": "a0a07e19e64faa9b2512894094fee281", "lat": 38.871076, "name": "a0a07e19e64faa9b2512894094fee281", "lon": -77.00749533333334, "fusion_lon": 0.0}, {"is_reserved": 0, "type": "electric_scooter", "fusion_lat": 0.0, "is_disabled": 0, "rental_uris": {"ios": "https://dc.lft.to/lastmile_qr_scan", "android": "https://dc.lft.to/lastmile_qr_scan"}, "bike_id": "0e7c5bd8a194f9b1ea2c9183b349716d", "lat": 38.917812, "name": "0e7c5bd8a194f9b1ea2c9183b349716d", "lon": -77.02394916666667, "fusion_lon": 0.0}, {"is_reserved": 0, "type": "electric_scooter", "fusion_lat": 0.0, "is_disabled": 0, "rental_uris": {"ios": "https://dc.lft.to/lastmile_qr_scan", "android": "https://dc.lft.to/lastmile_qr_scan"}, "bike_id": "c49f3892f88c8b262497e900281cea90", "lat": 38.89960683333334, "name": "c49f3892f88c8b262497e900281cea90", "lon": -77.02183883333333, "fusion_lon": 0.0}, {"is_reserved": 0, "type": "electric_scooter", "fusion_lat": 0.0, "is_disabled": 0, "rental_uris": {"ios": "https://dc.lft.to/lastmile_qr_scan", "android": "https://dc.lft.to/lastmile_qr_scan"}, "bike_id": "7b67bae763d85c8e0f3f88a8930891a3", "lat": 38.90256133333333, "name": "7b67bae763d85c8e0f3f88a8930891a3", "lon": -77.05412016666666, "fusion_lon": 0.0}, {"is_reserved": 0, "type": "electric_scooter", "fusion_lat": 0.0, "is_disabled": 0, "rental_uris": {"ios": "https://dc.lft.to/lastmile_qr_scan", "android": "https://dc.lft.to/lastmile_qr_scan"}, "bike_id": "3cffbea0ffee3d21ae0399fb49124fab", "lat": 38.91489083333333, "name": "3cffbea0ffee3d21ae0399fb49124fab", "lon": -76.98377616666667, "fusion_lon": 0.0}, {"is_reserved": 0, "type": "electric_scooter", "fusion_lat": 0.0, "is_disabled": 0, "rental_uris": {"ios": "https://dc.lft.to/lastmile_qr_scan", "android": "https://dc.lft.to/lastmile_qr_scan"}, "bike_id": "f6117475cb2d7320e4fa6a0b6fa3661a", "lat": 38.90755883333333, "name": "f6117475cb2d7320e4fa6a0b6fa3661a", "lon": -77.019063, "fusion_lon": 0.0}, {"is_reserved": 0, "type": "electric_scooter", "fusion_lat": 0.0, "is_disabled": 0, "rental_uris": {"ios": "https://dc.lft.to/lastmile_qr_scan", "android": "https://dc.lft.to/lastmile_qr_scan"}, "bike_id": "4b3d293550afd50e7d070fd4525cafb7", "lat": 38.911796, "name": "4b3d293550afd50e7d070fd4525cafb7", "lon": -77.03825933333333, "fusion_lon": 0.0}, {"is_reserved": 0, "type": "electric_scooter", "fusion_lat": 0.0, "is_disabled": 0, "rental_uris": {"ios": "https://dc.lft.to/lastmile_qr_scan", "android": "https://dc.lft.to/lastmile_qr_scan"}, "bike_id": "392eeb601aa0fd40f4e43a380019a4ca", "lat": 38.91759883333334, "name": "392eeb601aa0fd40f4e43a380019a4ca", "lon": -77.04742166666666, "fusion_lon": 0.0}, {"is_reserved": 0, "type": "electric_scooter", "fusion_lat": 0.0, "is_disabled": 0, "rental_uris": {"ios": "https://dc.lft.to/lastmile_qr_scan", "android": "https://dc.lft.to/lastmile_qr_scan"}, "bike_id": "cfe5b4efe62bcd497fb9e957b25c9797", "lat": 38.9561545, "name": "cfe5b4efe62bcd497fb9e957b25c9797", "lon": -77.03310433333333, "fusion_lon": 0.0}, {"is_reserved": 0, "type": "electric_scooter", "fusion_lat": 0.0, "is_disabled": 0, "rental_uris": {"ios": "https://dc.lft.to/lastmile_qr_scan", "android": "https://dc.lft.to/lastmile_qr_scan"}, "bike_id": "9f5d22284129b31536aff1b58037216f", "lat": 38.91288133333333, "name": "9f5d22284129b31536aff1b58037216f", "lon": -77.03202, "fusion_lon": 0.0}, {"is_reserved": 0, "type": "electric_scooter", "fusion_lat": 0.0, "is_disabled": 0, "rental_uris": {"ios": "https://dc.lft.to/lastmile_qr_scan", "android": "https://dc.lft.to/lastmile_qr_scan"}, "bike_id": "f71b30823f9afc82a558ff076053c063", "lat": 38.944446166666665, "name": "f71b30823f9afc82a558ff076053c063", "lon": -77.03282533333334, "fusion_lon": 0.0}, {"is_reserved": 0, "type": "electric_scooter", "fusion_lat": 0.0, "is_disabled": 0, "rental_uris": {"ios": "https://dc.lft.to/lastmile_qr_scan", "android": "https://dc.lft.to/lastmile_qr_scan"}, "bike_id": "5522a5e8ae5d5d703fa2659581bd38d9", "lat": 38.928711166666666, "name": "5522a5e8ae5d5d703fa2659581bd38d9", "lon": -77.03993133333333, "fusion_lon": 0.0}, {"is_reserved": 0, "type": "electric_bike", "fusion_lat": 0.0, "is_disabled": 0, "rental_uris": {"ios": "https://dc.lft.to/lastmile_qr_scan", "android": "https://dc.lft.to/lastmile_qr_scan"}, "bike_id": "07fdf9a7c344dfbc8f7e09f1526d6458", "lat": 38.868164166666666, "name": "07fdf9a7c344dfbc8f7e09f1526d6458", "lon": -76.98025166666666, "fusion_lon": 0.0}, {"is_reserved": 0, "type": "electric_scooter", "fusion_lat": 0.0, "is_disabled": 0, "rental_uris": {"ios": "https://dc.lft.to/lastmile_qr_scan", "android": "https://dc.lft.to/lastmile_qr_scan"}, "bike_id": "3d5085d9be61266e20939d99d19bbe95", "lat": 38.89727166666667, "name": "3d5085d9be61266e20939d99d19bbe95", "lon": -77.04625583333333, "fusion_lon": 0.0}, {"is_reserved": 0, "type": "electric_scooter", "fusion_lat": 0.0, "is_disabled": 0, "rental_uris": {"ios": "https://dc.lft.to/lastmile_qr_scan", "android": "https://dc.lft.to/lastmile_qr_scan"}, "bike_id": "353e1fd389cba06e84789960ccbeda4e", "lat": 38.919532333333336, "name": "353e1fd389cba06e84789960ccbeda4e", "lon": -77.02305916666667, "fusion_lon": 0.0}, {"is_reserved": 0, "type": "electric_scooter", "fusion_lat": 0.0, "is_disabled": 0, "rental_uris": {"ios": "https://dc.lft.to/lastmile_qr_scan", "android": "https://dc.lft.to/lastmile_qr_scan"}, "bike_id": "1a470e2e9a1675920f33dbfc48419181", "lat": 38.9268935, "name": "1a470e2e9a1675920f33dbfc48419181", "lon": -77.02490233333333, "fusion_lon": 0.0}, {"is_reserved": 0, "type": "electric_scooter", "fusion_lat": 0.0, "is_disabled": 0, "rental_uris": {"ios": "https://dc.lft.to/lastmile_qr_scan", "android": "https://dc.lft.to/lastmile_qr_scan"}, "bike_id": "8d702666fcbbfed0c13dd80c36c0cd0f", "lat": 38.9119235, "name": "8d702666fcbbfed0c13dd80c36c0cd0f", "lon": -77.02983183333333, "fusion_lon": 0.0}, {"is_reserved": 0, "type": "electric_scooter", "fusion_lat": 0.0, "is_disabled": 0, "rental_uris": {"ios": "https://dc.lft.to/lastmile_qr_scan", "android": "https://dc.lft.to/lastmile_qr_scan"}, "bike_id": "aaf91c5470e575f299dea5442c53f160", "lat": 38.9244665, "name": "aaf91c5470e575f299dea5442c53f160", "lon": -77.04204766666666, "fusion_lon": 0.0}, {"is_reserved": 0, "type": "electric_bike", "fusion_lat": 0.0, "is_disabled": 0, "rental_uris": {"ios": "https://dc.lft.to/lastmile_qr_scan", "android": "https://dc.lft.to/lastmile_qr_scan"}, "bike_id": "8ca1645f55b905b7c62ed8d6900de24c", "lat": 38.88762833333333, "name": "8ca1645f55b905b7c62ed8d6900de24c", "lon": -77.15655383333333, "fusion_lon": 0.0}, {"is_reserved": 0, "type": "electric_bike", "fusion_lat": 0.0, "is_disabled": 0, "rental_uris": {"ios": "https://dc.lft.to/lastmile_qr_scan", "android": "https://dc.lft.to/lastmile_qr_scan"}, "bike_id": "e59b8521af1026ff7843a8894effda0f", "lat": 38.8468455, "name": "e59b8521af1026ff7843a8894effda0f", "lon": -76.9806335, "fusion_lon": 0.0}, {"is_reserved": 0, "type": "electric_scooter", "fusion_lat": 0.0, "is_disabled": 0, "rental_uris": {"ios": "https://dc.lft.to/lastmile_qr_scan", "android": "https://dc.lft.to/lastmile_qr_scan"}, "bike_id": "ee7e02268c217ee68b9b264b7823ec31", "lat": 38.89754716666667, "name": "ee7e02268c217ee68b9b264b7823ec31", "lon": -77.02588783333333, "fusion_lon": 0.0}, {"is_reserved": 0, "type": "electric_scooter", "fusion_lat": 0.0, "is_disabled": 0, "rental_uris": {"ios": "https://dc.lft.to/lastmile_qr_scan", "android": "https://dc.lft.to/lastmile_qr_scan"}, "bike_id": "218944dd04ea7d46b0263c611d9b11cc", "lat": 38.89490033333333, "name": "218944dd04ea7d46b0263c611d9b11cc", "lon": -77.02577666666667, "fusion_lon": 0.0}, {"is_reserved": 0, "type": "electric_scooter", "fusion_lat": 0.0, "is_disabled": 0, "rental_uris": {"ios": "https://dc.lft.to/lastmile_qr_scan", "android": "https://dc.lft.to/lastmile_qr_scan"}, "bike_id": "d417bee64b7ff53bc5c9baba1551acb3", "lat": 38.8746875, "name": "d417bee64b7ff53bc5c9baba1551acb3", "lon": -77.00516483333334, "fusion_lon": 0.0}, {"is_reserved": 0, "type": "electric_bike", "fusion_lat": 0.0, "is_disabled": 0, "rental_uris": {"ios": "https://dc.lft.to/lastmile_qr_scan", "android": "https://dc.lft.to/lastmile_qr_scan"}, "bike_id": "8ba22d72fe087e8ab5b6fcee2f2d0838", "lat": 38.89731366666667, "name": "8ba22d72fe087e8ab5b6fcee2f2d0838", "lon": -77.05526483333334, "fusion_lon": 0.0}, {"is_reserved": 0, "type": "electric_scooter", "fusion_lat": 0.0, "is_disabled": 0, "rental_uris": {"ios": "https://dc.lft.to/lastmile_qr_scan", "android": "https://dc.lft.to/lastmile_qr_scan"}, "bike_id": "1947aba2e9ebb2b6297dc7bbe5648feb", "lat": 38.929847333333335, "name": "1947aba2e9ebb2b6297dc7bbe5648feb", "lon": -77.03474316666667, "fusion_lon": 0.0}, {"is_reserved": 0, "type": "electric_scooter", "fusion_lat": 0.0, "is_disabled": 0, "rental_uris": {"ios": "https://dc.lft.to/lastmile_qr_scan", "android": "https://dc.lft.to/lastmile_qr_scan"}, "bike_id": "4ed868ef9ff3ba439fc64d1ab042bf32", "lat": 38.93605633333333, "name": "4ed868ef9ff3ba439fc64d1ab042bf32", "lon": -77.038829, "fusion_lon": 0.0}, {"is_reserved": 0, "type": "electric_scooter", "fusion_lat": 0.0, "is_disabled": 0, "rental_uris": {"ios": "https://dc.lft.to/lastmile_qr_scan", "android": "https://dc.lft.to/lastmile_qr_scan"}, "bike_id": "f03a5cf20b5c1405c0a562c8be413e67", "lat": 38.89522083333333, "name": "f03a5cf20b5c1405c0a562c8be413e67", "lon": -77.02679216666667, "fusion_lon": 0.0}, {"is_reserved": 0, "type": "electric_bike", "fusion_lat": 0.0, "is_disabled": 0, "rental_uris": {"ios": "https://dc.lft.to/lastmile_qr_scan", "android": "https://dc.lft.to/lastmile_qr_scan"}, "bike_id": "d593e9e0f5f27f30402b85b6b1bce4e2", "lat": 38.97150516666667, "name": "d593e9e0f5f27f30402b85b6b1bce4e2", "lon": -76.983614, "fusion_lon": 0.0}, {"is_reserved": 0, "type": "electric_scooter", "fusion_lat": 0.0, "is_disabled": 0, "rental_uris": {"ios": "https://dc.lft.to/lastmile_qr_scan", "android": "https://dc.lft.to/lastmile_qr_scan"}, "bike_id": "7e3876036176db3794c475e273c1d941", "lat": 38.923308, "name": "7e3876036176db3794c475e273c1d941", "lon": -77.02810166666667, "fusion_lon": 0.0}, {"is_reserved": 0, "type": "electric_scooter", "fusion_lat": 0.0, "is_disabled": 0, "rental_uris": {"ios": "https://dc.lft.to/lastmile_qr_scan", "android": "https://dc.lft.to/lastmile_qr_scan"}, "bike_id": "eced17fc20deda5cd8fd383b0c53008f", "lat": 38.9216125, "name": "eced17fc20deda5cd8fd383b0c53008f", "lon": -77.03831233333334, "fusion_lon": 0.0}, {"is_reserved": 0, "type": "electric_scooter", "fusion_lat": 0.0, "is_disabled": 0, "rental_uris": {"ios": "https://dc.lft.to/lastmile_qr_scan", "android": "https://dc.lft.to/lastmile_qr_scan"}, "bike_id": "b6c4d982fe13b53e7d326c6f4a19d8c7", "lat": 38.90339183333333, "name": "b6c4d982fe13b53e7d326c6f4a19d8c7", "lon": -76.97492633333333, "fusion_lon": 0.0}, {"is_reserved": 0, "type": "electric_scooter", "fusion_lat": 0.0, "is_disabled": 0, "rental_uris": {"ios": "https://dc.lft.to/lastmile_qr_scan", "android": "https://dc.lft.to/lastmile_qr_scan"}, "bike_id": "0ba53dc709565e892302ab50b910e719", "lat": 38.923687666666666, "name": "0ba53dc709565e892302ab50b910e719", "lon": -77.0291375, "fusion_lon": 0.0}, {"is_reserved": 0, "type": "electric_scooter", "fusion_lat": 0.0, "is_disabled": 0, "rental_uris": {"ios": "https://dc.lft.to/lastmile_qr_scan", "android": "https://dc.lft.to/lastmile_qr_scan"}, "bike_id": "12e364cf20bd583e6b73a594c231911e", "lat": 38.88636916666667, "name": "12e364cf20bd583e6b73a594c231911e", "lon": -77.0221685, "fusion_lon": 0.0}, {"is_reserved": 0, "type": "electric_scooter", "fusion_lat": 0.0, "is_disabled": 0, "rental_uris": {"ios": "https://dc.lft.to/lastmile_qr_scan", "android": "https://dc.lft.to/lastmile_qr_scan"}, "bike_id": "e32a56e0340663340f0a9d7b6b185c69", "lat": 38.939366166666666, "name": "e32a56e0340663340f0a9d7b6b185c69", "lon": -77.02585816666667, "fusion_lon": 0.0}, {"is_reserved": 0, "type": "electric_scooter", "fusion_lat": 0.0, "is_disabled": 0, "rental_uris": {"ios": "https://dc.lft.to/lastmile_qr_scan", "android": "https://dc.lft.to/lastmile_qr_scan"}, "bike_id": "47fe7e4067df55fcb4f47eba1842b150", "lat": 38.90189733333333, "name": "47fe7e4067df55fcb4f47eba1842b150", "lon": -76.99961333333333, "fusion_lon": 0.0}, {"is_reserved": 0, "type": "electric_bike", "fusion_lat": 0.0, "is_disabled": 0, "rental_uris": {"ios": "https://dc.lft.to/lastmile_qr_scan", "android": "https://dc.lft.to/lastmile_qr_scan"}, "bike_id": "b7ea3dd59bb94a86557d433c21201d0d", "lat": 38.9264795, "name": "b7ea3dd59bb94a86557d433c21201d0d", "lon": -77.09019883333333, "fusion_lon": 0.0}, {"is_reserved": 0, "type": "electric_scooter", "fusion_lat": 0.0, "is_disabled": 0, "rental_uris": {"ios": "https://dc.lft.to/lastmile_qr_scan", "android": "https://dc.lft.to/lastmile_qr_scan"}, "bike_id": "17dfc7d4a7f1e379ea6ee5d75f395a9a", "lat": 38.9162475, "name": "17dfc7d4a7f1e379ea6ee5d75f395a9a", "lon": -77.00497783333333, "fusion_lon": 0.0}, {"is_reserved": 0, "type": "electric_scooter", "fusion_lat": 0.0, "is_disabled": 0, "rental_uris": {"ios": "https://dc.lft.to/lastmile_qr_scan", "android": "https://dc.lft.to/lastmile_qr_scan"}, "bike_id": "623b7c8dc93d83a23c5e1558f29a2401", "lat": 38.892230166666664, "name": "623b7c8dc93d83a23c5e1558f29a2401", "lon": -77.033412, "fusion_lon": 0.0}, {"is_reserved": 0, "type": "electric_scooter", "fusion_lat": 0.0, "is_disabled": 0, "rental_uris": {"ios": "https://dc.lft.to/lastmile_qr_scan", "android": "https://dc.lft.to/lastmile_qr_scan"}, "bike_id": "7f002a31080733dfff91ba7426b7359b", "lat": 38.884426833333336, "name": "7f002a31080733dfff91ba7426b7359b", "lon": -77.02916183333333, "fusion_lon": 0.0}, {"is_reserved": 0, "type": "electric_bike", "fusion_lat": 0.0, "is_disabled": 0, "rental_uris": {"ios": "https://dc.lft.to/lastmile_qr_scan", "android": "https://dc.lft.to/lastmile_qr_scan"}, "bike_id": "101c11770ba8c68ebaee9f9be56507a0", "lat": 38.803983, "name": "101c11770ba8c68ebaee9f9be56507a0", "lon": -77.11335533333333, "fusion_lon": 0.0}, {"is_reserved": 0, "type": "electric_scooter", "fusion_lat": 0.0, "is_disabled": 0, "rental_uris": {"ios": "https://dc.lft.to/lastmile_qr_scan", "android": "https://dc.lft.to/lastmile_qr_scan"}, "bike_id": "ca0a167041fc8d5a448b03a696f5488c", "lat": 38.93254366666667, "name": "ca0a167041fc8d5a448b03a696f5488c", "lon": -77.020975, "fusion_lon": 0.0}, {"is_reserved": 0, "type": "electric_bike", "fusion_lat": 0.0, "is_disabled": 0, "rental_uris": {"ios": "https://dc.lft.to/lastmile_qr_scan", "android": "https://dc.lft.to/lastmile_qr_scan"}, "bike_id": "3b2791a7e86d29e718ac7b2993420f34", "lat": 38.85588766666667, "name": "3b2791a7e86d29e718ac7b2993420f34", "lon": -76.97282, "fusion_lon": 0.0}, {"is_reserved": 0, "type": "electric_scooter", "fusion_lat": 0.0, "is_disabled": 0, "rental_uris": {"ios": "https://dc.lft.to/lastmile_qr_scan", "android": "https://dc.lft.to/lastmile_qr_scan"}, "bike_id": "32b1d86257df2c1c23e609aca97c53bb", "lat": 38.90796916666667, "name": "32b1d86257df2c1c23e609aca97c53bb", "lon": -77.03131233333333, "fusion_lon": 0.0}, {"is_reserved": 0, "type": "electric_bike", "fusion_lat": 0.0, "is_disabled": 0, "rental_uris": {"ios": "https://dc.lft.to/lastmile_qr_scan", "android": "https://dc.lft.to/lastmile_qr_scan"}, "bike_id": "363dbc48e2cb52a9e4dda6901662b178", "lat": 39.074515166666664, "name": "363dbc48e2cb52a9e4dda6901662b178", "lon": -77.11539066666667, "fusion_lon": 0.0}, {"is_reserved": 0, "type": "electric_scooter", "fusion_lat": 0.0, "is_disabled": 0, "rental_uris": {"ios": "https://dc.lft.to/lastmile_qr_scan", "android": "https://dc.lft.to/lastmile_qr_scan"}, "bike_id": "29f5bda354bef6300c31d0b7f36098fd", "lat": 38.9185765, "name": "29f5bda354bef6300c31d0b7f36098fd", "lon": -77.028063, "fusion_lon": 0.0}, {"is_reserved": 0, "type": "electric_scooter", "fusion_lat": 0.0, "is_disabled": 0, "rental_uris": {"ios": "https://dc.lft.to/lastmile_qr_scan", "android": "https://dc.lft.to/lastmile_qr_scan"}, "bike_id": "9b2aae37f151a234ece0159997a02148", "lat": 38.90552266666667, "name": "9b2aae37f151a234ece0159997a02148", "lon": -77.05332683333333, "fusion_lon": 0.0}, {"is_reserved": 0, "type": "electric_scooter", "fusion_lat": 0.0, "is_disabled": 0, "rental_uris": {"ios": "https://dc.lft.to/lastmile_qr_scan", "android": "https://dc.lft.to/lastmile_qr_scan"}, "bike_id": "a013d5bf70ed8c068fbef5dc42a6c525", "lat": 38.94643966666667, "name": "a013d5bf70ed8c068fbef5dc42a6c525", "lon": -77.01744366666667, "fusion_lon": 0.0}, {"is_reserved": 0, "type": "electric_scooter", "fusion_lat": 0.0, "is_disabled": 0, "rental_uris": {"ios": "https://dc.lft.to/lastmile_qr_scan", "android": "https://dc.lft.to/lastmile_qr_scan"}, "bike_id": "601ab0e4a83a495d65edc230439def3a", "lat": 38.92111116666667, "name": "601ab0e4a83a495d65edc230439def3a", "lon": -77.0177015, "fusion_lon": 0.0}, {"is_reserved": 0, "type": "electric_scooter", "fusion_lat": 0.0, "is_disabled": 0, "rental_uris": {"ios": "https://dc.lft.to/lastmile_qr_scan", "android": "https://dc.lft.to/lastmile_qr_scan"}, "bike_id": "9c0f22ce9ff0d9ff787c2cf6ab831229", "lat": 38.94273416666667, "name": "9c0f22ce9ff0d9ff787c2cf6ab831229", "lon": -77.02930583333334, "fusion_lon": 0.0}, {"is_reserved": 0, "type": "electric_bike", "fusion_lat": 0.0, "is_disabled": 0, "rental_uris": {"ios": "https://dc.lft.to/lastmile_qr_scan", "android": "https://dc.lft.to/lastmile_qr_scan"}, "bike_id": "b5c3ef387b68e5f25a7be66f6e9fec17", "lat": 38.87542216666667, "name": "b5c3ef387b68e5f25a7be66f6e9fec17", "lon": -77.00830883333333, "fusion_lon": 0.0}, {"is_reserved": 0, "type": "electric_scooter", "fusion_lat": 0.0, "is_disabled": 0, "rental_uris": {"ios": "https://dc.lft.to/lastmile_qr_scan", "android": "https://dc.lft.to/lastmile_qr_scan"}, "bike_id": "c9c8617ff2bfa290bd6caf736f58718d", "lat": 38.909643833333334, "name": "c9c8617ff2bfa290bd6caf736f58718d", "lon": -77.02404416666667, "fusion_lon": 0.0}, {"is_reserved": 0, "type": "electric_scooter", "fusion_lat": 0.0, "is_disabled": 0, "rental_uris": {"ios": "https://dc.lft.to/lastmile_qr_scan", "android": "https://dc.lft.to/lastmile_qr_scan"}, "bike_id": "8a9c80e58ad919ba852b9e76868edd81", "lat": 38.91681333333333, "name": "8a9c80e58ad919ba852b9e76868edd81", "lon": -77.03773816666667, "fusion_lon": 0.0}, {"is_reserved": 0, "type": "electric_scooter", "fusion_lat": 0.0, "is_disabled": 0, "rental_uris": {"ios": "https://dc.lft.to/lastmile_qr_scan", "android": "https://dc.lft.to/lastmile_qr_scan"}, "bike_id": "b1df1ca792eb07bc6f3714933fdee75c", "lat": 38.892565, "name": "b1df1ca792eb07bc6f3714933fdee75c", "lon": -77.04664233333334, "fusion_lon": 0.0}, {"is_reserved": 0, "type": "electric_scooter", "fusion_lat": 0.0, "is_disabled": 0, "rental_uris": {"ios": "https://dc.lft.to/lastmile_qr_scan", "android": "https://dc.lft.to/lastmile_qr_scan"}, "bike_id": "eeee8674ff7b19842597ce3a71afb050", "lat": 38.92221383333333, "name": "eeee8674ff7b19842597ce3a71afb050", "lon": -77.0433645, "fusion_lon": 0.0}, {"is_reserved": 0, "type": "electric_scooter", "fusion_lat": 0.0, "is_disabled": 0, "rental_uris": {"ios": "https://dc.lft.to/lastmile_qr_scan", "android": "https://dc.lft.to/lastmile_qr_scan"}, "bike_id": "a191bc742f05f611db3595e78d34972f", "lat": 38.875642666666664, "name": "a191bc742f05f611db3595e78d34972f", "lon": -77.00591933333334, "fusion_lon": 0.0}, {"is_reserved": 0, "type": "electric_scooter", "fusion_lat": 0.0, "is_disabled": 0, "rental_uris": {"ios": "https://dc.lft.to/lastmile_qr_scan", "android": "https://dc.lft.to/lastmile_qr_scan"}, "bike_id": "1b4110407f09197f75e082846a1aeec3", "lat": 38.89956983333333, "name": "1b4110407f09197f75e082846a1aeec3", "lon": -77.04757916666667, "fusion_lon": 0.0}, {"is_reserved": 0, "type": "electric_scooter", "fusion_lat": 0.0, "is_disabled": 0, "rental_uris": {"ios": "https://dc.lft.to/lastmile_qr_scan", "android": "https://dc.lft.to/lastmile_qr_scan"}, "bike_id": "1a19eb8acebe651f878904f2b5e8e2a2", "lat": 38.88104283333333, "name": "1a19eb8acebe651f878904f2b5e8e2a2", "lon": -76.9877435, "fusion_lon": 0.0}, {"is_reserved": 0, "type": "electric_scooter", "fusion_lat": 0.0, "is_disabled": 0, "rental_uris": {"ios": "https://dc.lft.to/lastmile_qr_scan", "android": "https://dc.lft.to/lastmile_qr_scan"}, "bike_id": "d7702b00fd1b1a3905202a5f06afe975", "lat": 38.91081833333333, "name": "d7702b00fd1b1a3905202a5f06afe975", "lon": -77.02188, "fusion_lon": 0.0}, {"is_reserved": 0, "type": "electric_scooter", "fusion_lat": 0.0, "is_disabled": 0, "rental_uris": {"ios": "https://dc.lft.to/lastmile_qr_scan", "android": "https://dc.lft.to/lastmile_qr_scan"}, "bike_id": "cd1730d9ff69f6e9820650ae5fc9e55b", "lat": 38.8949785, "name": "cd1730d9ff69f6e9820650ae5fc9e55b", "lon": -77.02289466666667, "fusion_lon": 0.0}, {"is_reserved": 0, "type": "electric_scooter", "fusion_lat": 0.0, "is_disabled": 0, "rental_uris": {"ios": "https://dc.lft.to/lastmile_qr_scan", "android": "https://dc.lft.to/lastmile_qr_scan"}, "bike_id": "e04254c1af1cb517769c8bd1170b07dd", "lat": 38.91120266666667, "name": "e04254c1af1cb517769c8bd1170b07dd", "lon": -77.04371116666667, "fusion_lon": 0.0}, {"is_reserved": 0, "type": "electric_scooter", "fusion_lat": 0.0, "is_disabled": 0, "rental_uris": {"ios": "https://dc.lft.to/lastmile_qr_scan", "android": "https://dc.lft.to/lastmile_qr_scan"}, "bike_id": "5f52a162b6d695018a270df3967920ab", "lat": 38.92041416666667, "name": "5f52a162b6d695018a270df3967920ab", "lon": -77.02605933333334, "fusion_lon": 0.0}, {"is_reserved": 0, "type": "electric_scooter", "fusion_lat": 0.0, "is_disabled": 0, "rental_uris": {"ios": "https://dc.lft.to/lastmile_qr_scan", "android": "https://dc.lft.to/lastmile_qr_scan"}, "bike_id": "24ee27f0a9c999be17cb977529f3531e", "lat": 38.92988283333333, "name": "24ee27f0a9c999be17cb977529f3531e", "lon": -77.03474133333333, "fusion_lon": 0.0}, {"is_reserved": 0, "type": "electric_bike", "fusion_lat": 0.0, "is_disabled": 0, "rental_uris": {"ios": "https://dc.lft.to/lastmile_qr_scan", "android": "https://dc.lft.to/lastmile_qr_scan"}, "bike_id": "5b92e2f8184178ed5c621bf2e210c5c9", "lat": 38.899697833333335, "name": "5b92e2f8184178ed5c621bf2e210c5c9", "lon": -76.99801333333333, "fusion_lon": 0.0}, {"is_reserved": 0, "type": "electric_bike", "fusion_lat": 0.0, "is_disabled": 0, "rental_uris": {"ios": "https://dc.lft.to/lastmile_qr_scan", "android": "https://dc.lft.to/lastmile_qr_scan"}, "bike_id": "68716116fae0b63986745db9d35aea77", "lat": 38.90038916666666, "name": "68716116fae0b63986745db9d35aea77", "lon": -76.9914885, "fusion_lon": 0.0}, {"is_reserved": 0, "type": "electric_scooter", "fusion_lat": 0.0, "is_disabled": 0, "rental_uris": {"ios": "https://dc.lft.to/lastmile_qr_scan", "android": "https://dc.lft.to/lastmile_qr_scan"}, "bike_id": "dcba060ff4e6d776168e769232163501", "lat": 38.887188333333334, "name": "dcba060ff4e6d776168e769232163501", "lon": -77.032071, "fusion_lon": 0.0}, {"is_reserved": 0, "type": "electric_bike", "fusion_lat": 0.0, "is_disabled": 0, "rental_uris": {"ios": "https://dc.lft.to/lastmile_qr_scan", "android": "https://dc.lft.to/lastmile_qr_scan"}, "bike_id": "562d3b405fcfef022ef678d0d9b16b9e", "lat": 38.94833583333333, "name": "562d3b405fcfef022ef678d0d9b16b9e", "lon": -77.054278, "fusion_lon": 0.0}, {"is_reserved": 0, "type": "electric_scooter", "fusion_lat": 0.0, "is_disabled": 0, "rental_uris": {"ios": "https://dc.lft.to/lastmile_qr_scan", "android": "https://dc.lft.to/lastmile_qr_scan"}, "bike_id": "e564e3816178769e9d9804e5a6312ca8", "lat": 38.892022833333336, "name": "e564e3816178769e9d9804e5a6312ca8", "lon": -76.9292075, "fusion_lon": 0.0}, {"is_reserved": 0, "type": "electric_scooter", "fusion_lat": 0.0, "is_disabled": 0, "rental_uris": {"ios": "https://dc.lft.to/lastmile_qr_scan", "android": "https://dc.lft.to/lastmile_qr_scan"}, "bike_id": "7c0b46a9236ec235a9834624a3a864ec", "lat": 38.92612033333333, "name": "7c0b46a9236ec235a9834624a3a864ec", "lon": -77.02162, "fusion_lon": 0.0}, {"is_reserved": 0, "type": "electric_scooter", "fusion_lat": 0.0, "is_disabled": 0, "rental_uris": {"ios": "https://dc.lft.to/lastmile_qr_scan", "android": "https://dc.lft.to/lastmile_qr_scan"}, "bike_id": "b63c39a0784cb3bc5edd5231b336b858", "lat": 38.893477833333336, "name": "b63c39a0784cb3bc5edd5231b336b858", "lon": -77.0196955, "fusion_lon": 0.0}, {"is_reserved": 0, "type": "electric_scooter", "fusion_lat": 0.0, "is_disabled": 0, "rental_uris": {"ios": "https://dc.lft.to/lastmile_qr_scan", "android": "https://dc.lft.to/lastmile_qr_scan"}, "bike_id": "4ee14463fcfef6937f8d796d4fd64753", "lat": 38.8898685, "name": "4ee14463fcfef6937f8d796d4fd64753", "lon": -76.98814783333333, "fusion_lon": 0.0}, {"is_reserved": 0, "type": "electric_scooter", "fusion_lat": 0.0, "is_disabled": 0, "rental_uris": {"ios": "https://dc.lft.to/lastmile_qr_scan", "android": "https://dc.lft.to/lastmile_qr_scan"}, "bike_id": "054b0dda37c7e5352ce8acd522dde5f8", "lat": 38.924716333333336, "name": "054b0dda37c7e5352ce8acd522dde5f8", "lon": -77.035468, "fusion_lon": 0.0}, {"is_reserved": 0, "type": "electric_scooter", "fusion_lat": 0.0, "is_disabled": 0, "rental_uris": {"ios": "https://dc.lft.to/lastmile_qr_scan", "android": "https://dc.lft.to/lastmile_qr_scan"}, "bike_id": "ea0ec224bb9276a6b5a691d25549cef8", "lat": 38.928391833333336, "name": "ea0ec224bb9276a6b5a691d25549cef8", "lon": -77.01410916666667, "fusion_lon": 0.0}, {"is_reserved": 0, "type": "electric_scooter", "fusion_lat": 0.0, "is_disabled": 0, "rental_uris": {"ios": "https://dc.lft.to/lastmile_qr_scan", "android": "https://dc.lft.to/lastmile_qr_scan"}, "bike_id": "8d832ec1495a5fd24e05e048e9734469", "lat": 38.89835566666667, "name": "8d832ec1495a5fd24e05e048e9734469", "lon": -77.02701733333333, "fusion_lon": 0.0}, {"is_reserved": 0, "type": "electric_bike", "fusion_lat": 0.0, "is_disabled": 0, "rental_uris": {"ios": "https://dc.lft.to/lastmile_qr_scan", "android": "https://dc.lft.to/lastmile_qr_scan"}, "bike_id": "613abd7035c1415cb8bdd38b4cce7659", "lat": 38.939646833333335, "name": "613abd7035c1415cb8bdd38b4cce7659", "lon": -77.03763583333334, "fusion_lon": 0.0}, {"is_reserved": 0, "type": "electric_scooter", "fusion_lat": 0.0, "is_disabled": 0, "rental_uris": {"ios": "https://dc.lft.to/lastmile_qr_scan", "android": "https://dc.lft.to/lastmile_qr_scan"}, "bike_id": "758a36efe33c08be0a4338b14bd5b775", "lat": 38.8736905, "name": "758a36efe33c08be0a4338b14bd5b775", "lon": -77.001328, "fusion_lon": 0.0}, {"is_reserved": 0, "type": "electric_scooter", "fusion_lat": 0.0, "is_disabled": 0, "rental_uris": {"ios": "https://dc.lft.to/lastmile_qr_scan", "android": "https://dc.lft.to/lastmile_qr_scan"}, "bike_id": "6b0893353944afcbc10f89461b43d9de", "lat": 38.920928833333335, "name": "6b0893353944afcbc10f89461b43d9de", "lon": -77.04706616666667, "fusion_lon": 0.0}, {"is_reserved": 0, "type": "electric_scooter", "fusion_lat": 0.0, "is_disabled": 0, "rental_uris": {"ios": "https://dc.lft.to/lastmile_qr_scan", "android": "https://dc.lft.to/lastmile_qr_scan"}, "bike_id": "01a90283bfe6085e9a695642517d6587", "lat": 38.89487316666667, "name": "01a90283bfe6085e9a695642517d6587", "lon": -77.022914, "fusion_lon": 0.0}, {"is_reserved": 0, "type": "electric_scooter", "fusion_lat": 0.0, "is_disabled": 0, "rental_uris": {"ios": "https://dc.lft.to/lastmile_qr_scan", "android": "https://dc.lft.to/lastmile_qr_scan"}, "bike_id": "851437160838254e73fba1510ef37118", "lat": 38.920834166666666, "name": "851437160838254e73fba1510ef37118", "lon": -77.02412083333333, "fusion_lon": 0.0}, {"is_reserved": 0, "type": "electric_scooter", "fusion_lat": 0.0, "is_disabled": 0, "rental_uris": {"ios": "https://dc.lft.to/lastmile_qr_scan", "android": "https://dc.lft.to/lastmile_qr_scan"}, "bike_id": "8a14071b55c63e85b6f4895f866b5a06", "lat": 38.87856166666667, "name": "8a14071b55c63e85b6f4895f866b5a06", "lon": -77.00694666666666, "fusion_lon": 0.0}, {"is_reserved": 0, "type": "electric_bike", "fusion_lat": 0.0, "is_disabled": 0, "rental_uris": {"ios": "https://dc.lft.to/lastmile_qr_scan", "android": "https://dc.lft.to/lastmile_qr_scan"}, "bike_id": "8ca903736e0111659e9dd747ce60ca6d", "lat": 38.864901, "name": "8ca903736e0111659e9dd747ce60ca6d", "lon": -76.9698745, "fusion_lon": 0.0}, {"is_reserved": 0, "type": "electric_scooter", "fusion_lat": 0.0, "is_disabled": 0, "rental_uris": {"ios": "https://dc.lft.to/lastmile_qr_scan", "android": "https://dc.lft.to/lastmile_qr_scan"}, "bike_id": "01db402c0b746c36a63b9459a46941ba", "lat": 38.91652666666667, "name": "01db402c0b746c36a63b9459a46941ba", "lon": -77.0439005, "fusion_lon": 0.0}, {"is_reserved": 0, "type": "electric_bike", "fusion_lat": 0.0, "is_disabled": 0, "rental_uris": {"ios": "https://dc.lft.to/lastmile_qr_scan", "android": "https://dc.lft.to/lastmile_qr_scan"}, "bike_id": "f9870eed10d9f82af7ba9895df66917e", "lat": 38.80521266666667, "name": "f9870eed10d9f82af7ba9895df66917e", "lon": -77.04338116666666, "fusion_lon": 0.0}, {"is_reserved": 0, "type": "electric_scooter", "fusion_lat": 0.0, "is_disabled": 0, "rental_uris": {"ios": "https://dc.lft.to/lastmile_qr_scan", "android": "https://dc.lft.to/lastmile_qr_scan"}, "bike_id": "8adb4bdbe15a3f601ed1ea6742131ea4", "lat": 38.91031433333333, "name": "8adb4bdbe15a3f601ed1ea6742131ea4", "lon": -76.98561916666667, "fusion_lon": 0.0}, {"is_reserved": 0, "type": "electric_scooter", "fusion_lat": 0.0, "is_disabled": 0, "rental_uris": {"ios": "https://dc.lft.to/lastmile_qr_scan", "android": "https://dc.lft.to/lastmile_qr_scan"}, "bike_id": "0fc209fd357b0e62348194c63c78cee5", "lat": 38.902582833333334, "name": "0fc209fd357b0e62348194c63c78cee5", "lon": -77.05916683333334, "fusion_lon": 0.0}, {"is_reserved": 0, "type": "electric_scooter", "fusion_lat": 0.0, "is_disabled": 0, "rental_uris": {"ios": "https://dc.lft.to/lastmile_qr_scan", "android": "https://dc.lft.to/lastmile_qr_scan"}, "bike_id": "fdedd23959bf93b0d4816bd60e4be584", "lat": 38.8717615, "name": "fdedd23959bf93b0d4816bd60e4be584", "lon": -77.0061505, "fusion_lon": 0.0}, {"is_reserved": 0, "type": "electric_scooter", "fusion_lat": 0.0, "is_disabled": 0, "rental_uris": {"ios": "https://dc.lft.to/lastmile_qr_scan", "android": "https://dc.lft.to/lastmile_qr_scan"}, "bike_id": "cad10f62fea00d3c4147fb222fad7800", "lat": 38.897458666666665, "name": "cad10f62fea00d3c4147fb222fad7800", "lon": -77.00866966666666, "fusion_lon": 0.0}, {"is_reserved": 0, "type": "electric_bike", "fusion_lat": 0.0, "is_disabled": 0, "rental_uris": {"ios": "https://dc.lft.to/lastmile_qr_scan", "android": "https://dc.lft.to/lastmile_qr_scan"}, "bike_id": "6913208af94a18f91130a5483f847582", "lat": 38.990920833333334, "name": "6913208af94a18f91130a5483f847582", "lon": -76.9937595, "fusion_lon": 0.0}, {"is_reserved": 0, "type": "electric_scooter", "fusion_lat": 0.0, "is_disabled": 0, "rental_uris": {"ios": "https://dc.lft.to/lastmile_qr_scan", "android": "https://dc.lft.to/lastmile_qr_scan"}, "bike_id": "a215143e40cf7d84b95cbbc748968a35", "lat": 38.904861333333336, "name": "a215143e40cf7d84b95cbbc748968a35", "lon": -77.06024466666666, "fusion_lon": 0.0}, {"is_reserved": 0, "type": "electric_scooter", "fusion_lat": 0.0, "is_disabled": 0, "rental_uris": {"ios": "https://dc.lft.to/lastmile_qr_scan", "android": "https://dc.lft.to/lastmile_qr_scan"}, "bike_id": "1daf84093398b2b4aed23d77a4b03b13", "lat": 38.920407833333336, "name": "1daf84093398b2b4aed23d77a4b03b13", "lon": -77.01679383333334, "fusion_lon": 0.0}, {"is_reserved": 0, "type": "electric_scooter", "fusion_lat": 0.0, "is_disabled": 0, "rental_uris": {"ios": "https://dc.lft.to/lastmile_qr_scan", "android": "https://dc.lft.to/lastmile_qr_scan"}, "bike_id": "409e051826feb5850ba9205eedd15c61", "lat": 38.906450666666665, "name": "409e051826feb5850ba9205eedd15c61", "lon": -77.04869633333334, "fusion_lon": 0.0}, {"is_reserved": 0, "type": "electric_scooter", "fusion_lat": 0.0, "is_disabled": 0, "rental_uris": {"ios": "https://dc.lft.to/lastmile_qr_scan", "android": "https://dc.lft.to/lastmile_qr_scan"}, "bike_id": "ddec3e8b845acece0a63f079b584feaf", "lat": 38.902299166666666, "name": "ddec3e8b845acece0a63f079b584feaf", "lon": -77.000603, "fusion_lon": 0.0}, {"is_reserved": 0, "type": "electric_scooter", "fusion_lat": 0.0, "is_disabled": 0, "rental_uris": {"ios": "https://dc.lft.to/lastmile_qr_scan", "android": "https://dc.lft.to/lastmile_qr_scan"}, "bike_id": "d000cd93e988c85dbf8c0e21c4a00770", "lat": 38.912540166666666, "name": "d000cd93e988c85dbf8c0e21c4a00770", "lon": -77.03862083333334, "fusion_lon": 0.0}, {"is_reserved": 0, "type": "electric_scooter", "fusion_lat": 0.0, "is_disabled": 0, "rental_uris": {"ios": "https://dc.lft.to/lastmile_qr_scan", "android": "https://dc.lft.to/lastmile_qr_scan"}, "bike_id": "f1a950a43d4a31ea95e642d4676334f0", "lat": 38.887439, "name": "f1a950a43d4a31ea95e642d4676334f0", "lon": -77.01413133333334, "fusion_lon": 0.0}, {"is_reserved": 0, "type": "electric_scooter", "fusion_lat": 0.0, "is_disabled": 0, "rental_uris": {"ios": "https://dc.lft.to/lastmile_qr_scan", "android": "https://dc.lft.to/lastmile_qr_scan"}, "bike_id": "f5da54789cc072ff8f417758c6e72665", "lat": 38.90413816666667, "name": "f5da54789cc072ff8f417758c6e72665", "lon": -76.98531366666667, "fusion_lon": 0.0}, {"is_reserved": 0, "type": "electric_scooter", "fusion_lat": 0.0, "is_disabled": 0, "rental_uris": {"ios": "https://dc.lft.to/lastmile_qr_scan", "android": "https://dc.lft.to/lastmile_qr_scan"}, "bike_id": "bd0a0b9586f0bd635ac143e99d66e53a", "lat": 38.924496166666664, "name": "bd0a0b9586f0bd635ac143e99d66e53a", "lon": -77.03791166666667, "fusion_lon": 0.0}, {"is_reserved": 0, "type": "electric_scooter", "fusion_lat": 0.0, "is_disabled": 0, "rental_uris": {"ios": "https://dc.lft.to/lastmile_qr_scan", "android": "https://dc.lft.to/lastmile_qr_scan"}, "bike_id": "e125173d28e046d23a08e3c179a9878f", "lat": 38.89531083333333, "name": "e125173d28e046d23a08e3c179a9878f", "lon": -77.02178866666667, "fusion_lon": 0.0}, {"is_reserved": 0, "type": "electric_scooter", "fusion_lat": 0.0, "is_disabled": 0, "rental_uris": {"ios": "https://dc.lft.to/lastmile_qr_scan", "android": "https://dc.lft.to/lastmile_qr_scan"}, "bike_id": "2ca37bacee594b05ee49284a1e356706", "lat": 38.905820166666665, "name": "2ca37bacee594b05ee49284a1e356706", "lon": -77.06275116666667, "fusion_lon": 0.0}, {"is_reserved": 0, "type": "electric_scooter", "fusion_lat": 0.0, "is_disabled": 0, "rental_uris": {"ios": "https://dc.lft.to/lastmile_qr_scan", "android": "https://dc.lft.to/lastmile_qr_scan"}, "bike_id": "3b35f2b9b9aa9ab39e996655adf32fc9", "lat": 38.89739, "name": "3b35f2b9b9aa9ab39e996655adf32fc9", "lon": -77.03353833333334, "fusion_lon": 0.0}, {"is_reserved": 0, "type": "electric_bike", "fusion_lat": 0.0, "is_disabled": 0, "rental_uris": {"ios": "https://dc.lft.to/lastmile_qr_scan", "android": "https://dc.lft.to/lastmile_qr_scan"}, "bike_id": "3aeba50c829988a246e721e2a69217a9", "lat": 38.84856633333333, "name": "3aeba50c829988a246e721e2a69217a9", "lon": -77.06830766666667, "fusion_lon": 0.0}, {"is_reserved": 0, "type": "electric_scooter", "fusion_lat": 0.0, "is_disabled": 0, "rental_uris": {"ios": "https://dc.lft.to/lastmile_qr_scan", "android": "https://dc.lft.to/lastmile_qr_scan"}, "bike_id": "da73212bfba5dd0e94f120eee41a10f6", "lat": 38.91048766666667, "name": "da73212bfba5dd0e94f120eee41a10f6", "lon": -77.0435355, "fusion_lon": 0.0}, {"is_reserved": 0, "type": "electric_scooter", "fusion_lat": 0.0, "is_disabled": 0, "rental_uris": {"ios": "https://dc.lft.to/lastmile_qr_scan", "android": "https://dc.lft.to/lastmile_qr_scan"}, "bike_id": "dc42d6d8c7eabce547c71df51ab9e6a8", "lat": 38.925497, "name": "dc42d6d8c7eabce547c71df51ab9e6a8", "lon": -77.00322933333334, "fusion_lon": 0.0}, {"is_reserved": 0, "type": "electric_scooter", "fusion_lat": 0.0, "is_disabled": 0, "rental_uris": {"ios": "https://dc.lft.to/lastmile_qr_scan", "android": "https://dc.lft.to/lastmile_qr_scan"}, "bike_id": "9d9a1acd96b04972549e0d93192df3b0", "lat": 38.90247083333333, "name": "9d9a1acd96b04972549e0d93192df3b0", "lon": -77.03442333333334, "fusion_lon": 0.0}, {"is_reserved": 0, "type": "electric_scooter", "fusion_lat": 0.0, "is_disabled": 0, "rental_uris": {"ios": "https://dc.lft.to/lastmile_qr_scan", "android": "https://dc.lft.to/lastmile_qr_scan"}, "bike_id": "c0e0ee8c89d08dc57fd2fc1f5c604403", "lat": 38.93654766666667, "name": "c0e0ee8c89d08dc57fd2fc1f5c604403", "lon": -77.06608116666666, "fusion_lon": 0.0}, {"is_reserved": 0, "type": "electric_scooter", "fusion_lat": 0.0, "is_disabled": 0, "rental_uris": {"ios": "https://dc.lft.to/lastmile_qr_scan", "android": "https://dc.lft.to/lastmile_qr_scan"}, "bike_id": "a7a56670cb1e139e6ff1a8f55c9beb74", "lat": 38.882692, "name": "a7a56670cb1e139e6ff1a8f55c9beb74", "lon": -76.99028933333334, "fusion_lon": 0.0}, {"is_reserved": 0, "type": "electric_scooter", "fusion_lat": 0.0, "is_disabled": 0, "rental_uris": {"ios": "https://dc.lft.to/lastmile_qr_scan", "android": "https://dc.lft.to/lastmile_qr_scan"}, "bike_id": "4fff82708db52364cf0eece86cb0910b", "lat": 38.92538716666667, "name": "4fff82708db52364cf0eece86cb0910b", "lon": -77.03263033333333, "fusion_lon": 0.0}, {"is_reserved": 0, "type": "electric_scooter", "fusion_lat": 0.0, "is_disabled": 0, "rental_uris": {"ios": "https://dc.lft.to/lastmile_qr_scan", "android": "https://dc.lft.to/lastmile_qr_scan"}, "bike_id": "ed85376575775e48178e95ac7454d5a1", "lat": 38.90438783333333, "name": "ed85376575775e48178e95ac7454d5a1", "lon": -77.01689416666666, "fusion_lon": 0.0}, {"is_reserved": 0, "type": "electric_scooter", "fusion_lat": 0.0, "is_disabled": 0, "rental_uris": {"ios": "https://dc.lft.to/lastmile_qr_scan", "android": "https://dc.lft.to/lastmile_qr_scan"}, "bike_id": "01d4b26139a83bf4eabe8d26b466aeaa", "lat": 38.90241016666667, "name": "01d4b26139a83bf4eabe8d26b466aeaa", "lon": -76.99204983333334, "fusion_lon": 0.0}, {"is_reserved": 0, "type": "electric_scooter", "fusion_lat": 0.0, "is_disabled": 0, "rental_uris": {"ios": "https://dc.lft.to/lastmile_qr_scan", "android": "https://dc.lft.to/lastmile_qr_scan"}, "bike_id": "9fc5aa2c55c481d65e3ea71677c2a39b", "lat": 38.93002716666667, "name": "9fc5aa2c55c481d65e3ea71677c2a39b", "lon": -77.03786833333334, "fusion_lon": 0.0}, {"is_reserved": 0, "type": "electric_scooter", "fusion_lat": 0.0, "is_disabled": 0, "rental_uris": {"ios": "https://dc.lft.to/lastmile_qr_scan", "android": "https://dc.lft.to/lastmile_qr_scan"}, "bike_id": "8efe92787259e39f9ad0069deb6da84f", "lat": 38.88208983333333, "name": "8efe92787259e39f9ad0069deb6da84f", "lon": -76.93338833333334, "fusion_lon": 0.0}, {"is_reserved": 0, "type": "electric_scooter", "fusion_lat": 0.0, "is_disabled": 0, "rental_uris": {"ios": "https://dc.lft.to/lastmile_qr_scan", "android": "https://dc.lft.to/lastmile_qr_scan"}, "bike_id": "8ea579f8190477ade7e7e607d321ee0d", "lat": 38.90192716666667, "name": "8ea579f8190477ade7e7e607d321ee0d", "lon": -76.99487283333333, "fusion_lon": 0.0}, {"is_reserved": 0, "type": "electric_scooter", "fusion_lat": 0.0, "is_disabled": 0, "rental_uris": {"ios": "https://dc.lft.to/lastmile_qr_scan", "android": "https://dc.lft.to/lastmile_qr_scan"}, "bike_id": "a40f77f2f8b3a7cce4ba727e139e6500", "lat": 38.89373283333333, "name": "a40f77f2f8b3a7cce4ba727e139e6500", "lon": -77.02062983333333, "fusion_lon": 0.0}, {"is_reserved": 0, "type": "electric_scooter", "fusion_lat": 0.0, "is_disabled": 0, "rental_uris": {"ios": "https://dc.lft.to/lastmile_qr_scan", "android": "https://dc.lft.to/lastmile_qr_scan"}, "bike_id": "5e6f081b4de8b7b91afa5e212465f907", "lat": 38.903540166666666, "name": "5e6f081b4de8b7b91afa5e212465f907", "lon": -77.04015066666666, "fusion_lon": 0.0}, {"is_reserved": 0, "type": "electric_scooter", "fusion_lat": 0.0, "is_disabled": 0, "rental_uris": {"ios": "https://dc.lft.to/lastmile_qr_scan", "android": "https://dc.lft.to/lastmile_qr_scan"}, "bike_id": "491d317b6134e3478325c5fe99c5ddf8", "lat": 38.87557016666667, "name": "491d317b6134e3478325c5fe99c5ddf8", "lon": -77.005863, "fusion_lon": 0.0}, {"is_reserved": 0, "type": "electric_scooter", "fusion_lat": 0.0, "is_disabled": 0, "rental_uris": {"ios": "https://dc.lft.to/lastmile_qr_scan", "android": "https://dc.lft.to/lastmile_qr_scan"}, "bike_id": "be3eca77e8424664f97153944de506db", "lat": 38.92913083333333, "name": "be3eca77e8424664f97153944de506db", "lon": -77.02091166666666, "fusion_lon": 0.0}, {"is_reserved": 0, "type": "electric_scooter", "fusion_lat": 0.0, "is_disabled": 0, "rental_uris": {"ios": "https://dc.lft.to/lastmile_qr_scan", "android": "https://dc.lft.to/lastmile_qr_scan"}, "bike_id": "f62490d38d13c1d44f4f3378874574ec", "lat": 38.9300025, "name": "f62490d38d13c1d44f4f3378874574ec", "lon": -77.032692, "fusion_lon": 0.0}, {"is_reserved": 0, "type": "electric_scooter", "fusion_lat": 0.0, "is_disabled": 0, "rental_uris": {"ios": "https://dc.lft.to/lastmile_qr_scan", "android": "https://dc.lft.to/lastmile_qr_scan"}, "bike_id": "d1fa926200fb3d7527ef3b6973eac33e", "lat": 38.881773333333335, "name": "d1fa926200fb3d7527ef3b6973eac33e", "lon": -77.03739583333333, "fusion_lon": 0.0}, {"is_reserved": 0, "type": "electric_scooter", "fusion_lat": 0.0, "is_disabled": 0, "rental_uris": {"ios": "https://dc.lft.to/lastmile_qr_scan", "android": "https://dc.lft.to/lastmile_qr_scan"}, "bike_id": "91c2ed388def4a60af25f71ea107fe3c", "lat": 38.936033, "name": "91c2ed388def4a60af25f71ea107fe3c", "lon": -77.02420866666667, "fusion_lon": 0.0}, {"is_reserved": 0, "type": "electric_scooter", "fusion_lat": 0.0, "is_disabled": 0, "rental_uris": {"ios": "https://dc.lft.to/lastmile_qr_scan", "android": "https://dc.lft.to/lastmile_qr_scan"}, "bike_id": "1014bf74e27480817bf610bca260c0cc", "lat": 38.916774333333336, "name": "1014bf74e27480817bf610bca260c0cc", "lon": -77.02971183333334, "fusion_lon": 0.0}, {"is_reserved": 0, "type": "electric_scooter", "fusion_lat": 0.0, "is_disabled": 0, "rental_uris": {"ios": "https://dc.lft.to/lastmile_qr_scan", "android": "https://dc.lft.to/lastmile_qr_scan"}, "bike_id": "ef47e3b5ceb41080281861da87bfc856", "lat": 38.92724033333333, "name": "ef47e3b5ceb41080281861da87bfc856", "lon": -77.02313583333333, "fusion_lon": 0.0}, {"is_reserved": 0, "type": "electric_scooter", "fusion_lat": 0.0, "is_disabled": 0, "rental_uris": {"ios": "https://dc.lft.to/lastmile_qr_scan", "android": "https://dc.lft.to/lastmile_qr_scan"}, "bike_id": "bc5efe28fb4b8dbb7e2a5a55648e7173", "lat": 38.901858833333335, "name": "bc5efe28fb4b8dbb7e2a5a55648e7173", "lon": -77.04878516666666, "fusion_lon": 0.0}, {"is_reserved": 0, "type": "electric_bike", "fusion_lat": 0.0, "is_disabled": 0, "rental_uris": {"ios": "https://dc.lft.to/lastmile_qr_scan", "android": "https://dc.lft.to/lastmile_qr_scan"}, "bike_id": "9a4f7eccd5baaf2c5652ece4a9f91f59", "lat": 39.0843285, "name": "9a4f7eccd5baaf2c5652ece4a9f91f59", "lon": -76.951351, "fusion_lon": 0.0}, {"is_reserved": 0, "type": "electric_scooter", "fusion_lat": 0.0, "is_disabled": 0, "rental_uris": {"ios": "https://dc.lft.to/lastmile_qr_scan", "android": "https://dc.lft.to/lastmile_qr_scan"}, "bike_id": "5e85165843a689723a0bff65eeaf44ff", "lat": 38.91782166666667, "name": "5e85165843a689723a0bff65eeaf44ff", "lon": -77.02310166666666, "fusion_lon": 0.0}, {"is_reserved": 0, "type": "electric_scooter", "fusion_lat": 0.0, "is_disabled": 0, "rental_uris": {"ios": "https://dc.lft.to/lastmile_qr_scan", "android": "https://dc.lft.to/lastmile_qr_scan"}, "bike_id": "bd0546aa7a349d06ba69d150ee08c129", "lat": 38.9316125, "name": "bd0546aa7a349d06ba69d150ee08c129", "lon": -77.05607216666667, "fusion_lon": 0.0}, {"is_reserved": 0, "type": "electric_scooter", "fusion_lat": 0.0, "is_disabled": 0, "rental_uris": {"ios": "https://dc.lft.to/lastmile_qr_scan", "android": "https://dc.lft.to/lastmile_qr_scan"}, "bike_id": "430f284e15f899a3f39fb4035e6b0a5e", "lat": 38.912517, "name": "430f284e15f899a3f39fb4035e6b0a5e", "lon": -77.03181316666667, "fusion_lon": 0.0}, {"is_reserved": 0, "type": "electric_bike", "fusion_lat": 0.0, "is_disabled": 0, "rental_uris": {"ios": "https://dc.lft.to/lastmile_qr_scan", "android": "https://dc.lft.to/lastmile_qr_scan"}, "bike_id": "32bf5acf3178e4206e4f5e495520bdf6", "lat": 38.8837455, "name": "32bf5acf3178e4206e4f5e495520bdf6", "lon": -76.92368483333334, "fusion_lon": 0.0}, {"is_reserved": 0, "type": "electric_bike", "fusion_lat": 0.0, "is_disabled": 0, "rental_uris": {"ios": "https://dc.lft.to/lastmile_qr_scan", "android": "https://dc.lft.to/lastmile_qr_scan"}, "bike_id": "011e0c9001261e7052bf7d318fc9954d", "lat": 38.8410265, "name": "011e0c9001261e7052bf7d318fc9954d", "lon": -77.0893715, "fusion_lon": 0.0}, {"is_reserved": 0, "type": "electric_scooter", "fusion_lat": 0.0, "is_disabled": 0, "rental_uris": {"ios": "https://dc.lft.to/lastmile_qr_scan", "android": "https://dc.lft.to/lastmile_qr_scan"}, "bike_id": "9b0d27d2ec1b6ba4c6b574c5c91a930c", "lat": 38.926786666666665, "name": "9b0d27d2ec1b6ba4c6b574c5c91a930c", "lon": -77.00872716666667, "fusion_lon": 0.0}, {"is_reserved": 0, "type": "electric_scooter", "fusion_lat": 0.0, "is_disabled": 0, "rental_uris": {"ios": "https://dc.lft.to/lastmile_qr_scan", "android": "https://dc.lft.to/lastmile_qr_scan"}, "bike_id": "adaee0b4b1bd0922d228dd2500d7fb04", "lat": 38.883933999999996, "name": "adaee0b4b1bd0922d228dd2500d7fb04", "lon": -76.9304975, "fusion_lon": 0.0}, {"is_reserved": 0, "type": "electric_scooter", "fusion_lat": 0.0, "is_disabled": 0, "rental_uris": {"ios": "https://dc.lft.to/lastmile_qr_scan", "android": "https://dc.lft.to/lastmile_qr_scan"}, "bike_id": "64ceaba07e4b6c1b35f46febd2812aa9", "lat": 38.884516833333336, "name": "64ceaba07e4b6c1b35f46febd2812aa9", "lon": -77.00895516666667, "fusion_lon": 0.0}, {"is_reserved": 0, "type": "electric_scooter", "fusion_lat": 0.0, "is_disabled": 0, "rental_uris": {"ios": "https://dc.lft.to/lastmile_qr_scan", "android": "https://dc.lft.to/lastmile_qr_scan"}, "bike_id": "3ce57deadd1f6c959a22511a96a7cda9", "lat": 38.91127783333334, "name": "3ce57deadd1f6c959a22511a96a7cda9", "lon": -77.0363815, "fusion_lon": 0.0}, {"is_reserved": 0, "type": "electric_scooter", "fusion_lat": 0.0, "is_disabled": 0, "rental_uris": {"ios": "https://dc.lft.to/lastmile_qr_scan", "android": "https://dc.lft.to/lastmile_qr_scan"}, "bike_id": "abe14989eb1c2662d2b9ac380d06a243", "lat": 38.88153633333334, "name": "abe14989eb1c2662d2b9ac380d06a243", "lon": -77.0130785, "fusion_lon": 0.0}, {"is_reserved": 0, "type": "electric_bike", "fusion_lat": 0.0, "is_disabled": 0, "rental_uris": {"ios": "https://dc.lft.to/lastmile_qr_scan", "android": "https://dc.lft.to/lastmile_qr_scan"}, "bike_id": "f50cf07afbf577168ba165b053723bcf", "lat": 38.942612, "name": "f50cf07afbf577168ba165b053723bcf", "lon": -76.99075316666666, "fusion_lon": 0.0}, {"is_reserved": 0, "type": "electric_scooter", "fusion_lat": 0.0, "is_disabled": 0, "rental_uris": {"ios": "https://dc.lft.to/lastmile_qr_scan", "android": "https://dc.lft.to/lastmile_qr_scan"}, "bike_id": "ed915f778ebb3244a8b27b4c3e6ab415", "lat": 38.89229266666667, "name": "ed915f778ebb3244a8b27b4c3e6ab415", "lon": -77.04640066666667, "fusion_lon": 0.0}, {"is_reserved": 0, "type": "electric_scooter", "fusion_lat": 0.0, "is_disabled": 0, "rental_uris": {"ios": "https://dc.lft.to/lastmile_qr_scan", "android": "https://dc.lft.to/lastmile_qr_scan"}, "bike_id": "5474e88421321d314bc9e5753b6f02ed", "lat": 38.91769033333333, "name": "5474e88421321d314bc9e5753b6f02ed", "lon": -77.0241655, "fusion_lon": 0.0}, {"is_reserved": 0, "type": "electric_bike", "fusion_lat": 0.0, "is_disabled": 0, "rental_uris": {"ios": "https://dc.lft.to/lastmile_qr_scan", "android": "https://dc.lft.to/lastmile_qr_scan"}, "bike_id": "e042822397144a033a5696a374e2b317", "lat": 38.9541075, "name": "e042822397144a033a5696a374e2b317", "lon": -76.9812735, "fusion_lon": 0.0}, {"is_reserved": 0, "type": "electric_scooter", "fusion_lat": 0.0, "is_disabled": 0, "rental_uris": {"ios": "https://dc.lft.to/lastmile_qr_scan", "android": "https://dc.lft.to/lastmile_qr_scan"}, "bike_id": "6c7b33771af763d0a4e73aed778b4f18", "lat": 38.917768333333335, "name": "6c7b33771af763d0a4e73aed778b4f18", "lon": -77.041872, "fusion_lon": 0.0}, {"is_reserved": 0, "type": "electric_scooter", "fusion_lat": 0.0, "is_disabled": 0, "rental_uris": {"ios": "https://dc.lft.to/lastmile_qr_scan", "android": "https://dc.lft.to/lastmile_qr_scan"}, "bike_id": "01def20a72f85bc16fbe80aa1706b0b9", "lat": 38.9250715, "name": "01def20a72f85bc16fbe80aa1706b0b9", "lon": -77.0244125, "fusion_lon": 0.0}, {"is_reserved": 0, "type": "electric_scooter", "fusion_lat": 0.0, "is_disabled": 0, "rental_uris": {"ios": "https://dc.lft.to/lastmile_qr_scan", "android": "https://dc.lft.to/lastmile_qr_scan"}, "bike_id": "d9b98512ab7ed185dc77f866eb2db5eb", "lat": 38.92021366666667, "name": "d9b98512ab7ed185dc77f866eb2db5eb", "lon": -77.03128033333333, "fusion_lon": 0.0}, {"is_reserved": 0, "type": "electric_scooter", "fusion_lat": 0.0, "is_disabled": 0, "rental_uris": {"ios": "https://dc.lft.to/lastmile_qr_scan", "android": "https://dc.lft.to/lastmile_qr_scan"}, "bike_id": "37d29a5e43a28546d79a983c170f7a30", "lat": 38.92535183333333, "name": "37d29a5e43a28546d79a983c170f7a30", "lon": -77.034813, "fusion_lon": 0.0}, {"is_reserved": 0, "type": "electric_scooter", "fusion_lat": 0.0, "is_disabled": 0, "rental_uris": {"ios": "https://dc.lft.to/lastmile_qr_scan", "android": "https://dc.lft.to/lastmile_qr_scan"}, "bike_id": "3e38629b977f420d593b0fe2b2221eda", "lat": 38.9419405, "name": "3e38629b977f420d593b0fe2b2221eda", "lon": -77.088244, "fusion_lon": 0.0}, {"is_reserved": 0, "type": "electric_scooter", "fusion_lat": 0.0, "is_disabled": 0, "rental_uris": {"ios": "https://dc.lft.to/lastmile_qr_scan", "android": "https://dc.lft.to/lastmile_qr_scan"}, "bike_id": "f1912e166b2e6c710af073cb00fbe7f8", "lat": 38.8862325, "name": "f1912e166b2e6c710af073cb00fbe7f8", "lon": -76.987071, "fusion_lon": 0.0}, {"is_reserved": 0, "type": "electric_scooter", "fusion_lat": 0.0, "is_disabled": 0, "rental_uris": {"ios": "https://dc.lft.to/lastmile_qr_scan", "android": "https://dc.lft.to/lastmile_qr_scan"}, "bike_id": "13d1cc7c6d683c3eb877c9763ebe5bea", "lat": 38.9073675, "name": "13d1cc7c6d683c3eb877c9763ebe5bea", "lon": -77.03980516666667, "fusion_lon": 0.0}, {"is_reserved": 0, "type": "electric_scooter", "fusion_lat": 0.0, "is_disabled": 0, "rental_uris": {"ios": "https://dc.lft.to/lastmile_qr_scan", "android": "https://dc.lft.to/lastmile_qr_scan"}, "bike_id": "e1eee06a56e69e5ea72234dbf0915a3a", "lat": 38.8922845, "name": "e1eee06a56e69e5ea72234dbf0915a3a", "lon": -77.0238505, "fusion_lon": 0.0}, {"is_reserved": 0, "type": "electric_scooter", "fusion_lat": 0.0, "is_disabled": 0, "rental_uris": {"ios": "https://dc.lft.to/lastmile_qr_scan", "android": "https://dc.lft.to/lastmile_qr_scan"}, "bike_id": "331e8031730c6f59821518a56f70cf41", "lat": 38.9021375, "name": "331e8031730c6f59821518a56f70cf41", "lon": -77.04693916666666, "fusion_lon": 0.0}, {"is_reserved": 0, "type": "electric_scooter", "fusion_lat": 0.0, "is_disabled": 0, "rental_uris": {"ios": "https://dc.lft.to/lastmile_qr_scan", "android": "https://dc.lft.to/lastmile_qr_scan"}, "bike_id": "c58f26ede60f951d83b96ba0b918541d", "lat": 38.87587116666667, "name": "c58f26ede60f951d83b96ba0b918541d", "lon": -77.00573516666667, "fusion_lon": 0.0}, {"is_reserved": 0, "type": "electric_scooter", "fusion_lat": 0.0, "is_disabled": 0, "rental_uris": {"ios": "https://dc.lft.to/lastmile_qr_scan", "android": "https://dc.lft.to/lastmile_qr_scan"}, "bike_id": "41c4a93143243a60ed585358257d6896", "lat": 38.903087, "name": "41c4a93143243a60ed585358257d6896", "lon": -76.97805483333333, "fusion_lon": 0.0}, {"is_reserved": 0, "type": "electric_scooter", "fusion_lat": 0.0, "is_disabled": 0, "rental_uris": {"ios": "https://dc.lft.to/lastmile_qr_scan", "android": "https://dc.lft.to/lastmile_qr_scan"}, "bike_id": "20cb0ea80a8582cf59f380bcbbe750c9", "lat": 38.88743133333333, "name": "20cb0ea80a8582cf59f380bcbbe750c9", "lon": -77.015371, "fusion_lon": 0.0}, {"is_reserved": 0, "type": "electric_scooter", "fusion_lat": 0.0, "is_disabled": 0, "rental_uris": {"ios": "https://dc.lft.to/lastmile_qr_scan", "android": "https://dc.lft.to/lastmile_qr_scan"}, "bike_id": "0c7afe26bbfdf7fa42b21b66e186d211", "lat": 38.90053016666667, "name": "0c7afe26bbfdf7fa42b21b66e186d211", "lon": -76.99339883333333, "fusion_lon": 0.0}, {"is_reserved": 0, "type": "electric_scooter", "fusion_lat": 0.0, "is_disabled": 0, "rental_uris": {"ios": "https://dc.lft.to/lastmile_qr_scan", "android": "https://dc.lft.to/lastmile_qr_scan"}, "bike_id": "e446eaadba249bfb9d9fd8b330950018", "lat": 38.924659166666665, "name": "e446eaadba249bfb9d9fd8b330950018", "lon": -77.02714483333334, "fusion_lon": 0.0}, {"is_reserved": 0, "type": "electric_scooter", "fusion_lat": 0.0, "is_disabled": 0, "rental_uris": {"ios": "https://dc.lft.to/lastmile_qr_scan", "android": "https://dc.lft.to/lastmile_qr_scan"}, "bike_id": "320127f15c483ec60b2ffc30077da19e", "lat": 38.95641233333333, "name": "320127f15c483ec60b2ffc30077da19e", "lon": -77.0281565, "fusion_lon": 0.0}, {"is_reserved": 0, "type": "electric_scooter", "fusion_lat": 0.0, "is_disabled": 0, "rental_uris": {"ios": "https://dc.lft.to/lastmile_qr_scan", "android": "https://dc.lft.to/lastmile_qr_scan"}, "bike_id": "b1c6f04002dbc940d018f47a8680a4aa", "lat": 38.887455333333335, "name": "b1c6f04002dbc940d018f47a8680a4aa", "lon": -77.02628933333334, "fusion_lon": 0.0}, {"is_reserved": 0, "type": "electric_scooter", "fusion_lat": 0.0, "is_disabled": 0, "rental_uris": {"ios": "https://dc.lft.to/lastmile_qr_scan", "android": "https://dc.lft.to/lastmile_qr_scan"}, "bike_id": "4a1cc56237e3c5b41a21c9d5efb51e61", "lat": 38.903183166666665, "name": "4a1cc56237e3c5b41a21c9d5efb51e61", "lon": -77.02158866666667, "fusion_lon": 0.0}, {"is_reserved": 0, "type": "electric_scooter", "fusion_lat": 0.0, "is_disabled": 0, "rental_uris": {"ios": "https://dc.lft.to/lastmile_qr_scan", "android": "https://dc.lft.to/lastmile_qr_scan"}, "bike_id": "ac03ed4be0449386dbd98d0aad6aa90b", "lat": 38.84273, "name": "ac03ed4be0449386dbd98d0aad6aa90b", "lon": -76.988381, "fusion_lon": 0.0}, {"is_reserved": 0, "type": "electric_scooter", "fusion_lat": 0.0, "is_disabled": 0, "rental_uris": {"ios": "https://dc.lft.to/lastmile_qr_scan", "android": "https://dc.lft.to/lastmile_qr_scan"}, "bike_id": "bca282a3b004410c6edf00b743dd2cb2", "lat": 38.8981965, "name": "bca282a3b004410c6edf00b743dd2cb2", "lon": -77.00209833333334, "fusion_lon": 0.0}, {"is_reserved": 0, "type": "electric_scooter", "fusion_lat": 0.0, "is_disabled": 0, "rental_uris": {"ios": "https://dc.lft.to/lastmile_qr_scan", "android": "https://dc.lft.to/lastmile_qr_scan"}, "bike_id": "9e6b0f38cf3b408c268d1b732b70b2e8", "lat": 38.911144166666666, "name": "9e6b0f38cf3b408c268d1b732b70b2e8", "lon": -77.03831933333333, "fusion_lon": 0.0}, {"is_reserved": 0, "type": "electric_scooter", "fusion_lat": 0.0, "is_disabled": 0, "rental_uris": {"ios": "https://dc.lft.to/lastmile_qr_scan", "android": "https://dc.lft.to/lastmile_qr_scan"}, "bike_id": "6613bac18d443a8399113e74a3a744d6", "lat": 38.910318333333336, "name": "6613bac18d443a8399113e74a3a744d6", "lon": -77.038038, "fusion_lon": 0.0}, {"is_reserved": 0, "type": "electric_scooter", "fusion_lat": 0.0, "is_disabled": 0, "rental_uris": {"ios": "https://dc.lft.to/lastmile_qr_scan", "android": "https://dc.lft.to/lastmile_qr_scan"}, "bike_id": "555577dc27cdcff7a3a6f99a3710a451", "lat": 38.9133675, "name": "555577dc27cdcff7a3a6f99a3710a451", "lon": -77.01212333333334, "fusion_lon": 0.0}, {"is_reserved": 0, "type": "electric_scooter", "fusion_lat": 0.0, "is_disabled": 0, "rental_uris": {"ios": "https://dc.lft.to/lastmile_qr_scan", "android": "https://dc.lft.to/lastmile_qr_scan"}, "bike_id": "77d689bb82e4d3bfb6113afa4cc76412", "lat": 38.89192233333333, "name": "77d689bb82e4d3bfb6113afa4cc76412", "lon": -77.0224165, "fusion_lon": 0.0}, {"is_reserved": 0, "type": "electric_scooter", "fusion_lat": 0.0, "is_disabled": 0, "rental_uris": {"ios": "https://dc.lft.to/lastmile_qr_scan", "android": "https://dc.lft.to/lastmile_qr_scan"}, "bike_id": "7b063ac14268541f4512a6050a685e9a", "lat": 38.89729233333333, "name": "7b063ac14268541f4512a6050a685e9a", "lon": -77.04365016666667, "fusion_lon": 0.0}, {"is_reserved": 0, "type": "electric_scooter", "fusion_lat": 0.0, "is_disabled": 0, "rental_uris": {"ios": "https://dc.lft.to/lastmile_qr_scan", "android": "https://dc.lft.to/lastmile_qr_scan"}, "bike_id": "81675c8146430b9e0c3a756de8f6f48b", "lat": 38.885696333333335, "name": "81675c8146430b9e0c3a756de8f6f48b", "lon": -77.00030666666666, "fusion_lon": 0.0}, {"is_reserved": 0, "type": "electric_scooter", "fusion_lat": 0.0, "is_disabled": 0, "rental_uris": {"ios": "https://dc.lft.to/lastmile_qr_scan", "android": "https://dc.lft.to/lastmile_qr_scan"}, "bike_id": "06c6936d3028542ebbd7afce2453a3c2", "lat": 38.930404833333334, "name": "06c6936d3028542ebbd7afce2453a3c2", "lon": -77.032033, "fusion_lon": 0.0}, {"is_reserved": 0, "type": "electric_bike", "fusion_lat": 0.0, "is_disabled": 0, "rental_uris": {"ios": "https://dc.lft.to/lastmile_qr_scan", "android": "https://dc.lft.to/lastmile_qr_scan"}, "bike_id": "bc2f340eb51df1c14ee49d961b65b939", "lat": 38.920334833333335, "name": "bc2f340eb51df1c14ee49d961b65b939", "lon": -76.97961633333334, "fusion_lon": 0.0}, {"is_reserved": 0, "type": "electric_scooter", "fusion_lat": 0.0, "is_disabled": 0, "rental_uris": {"ios": "https://dc.lft.to/lastmile_qr_scan", "android": "https://dc.lft.to/lastmile_qr_scan"}, "bike_id": "ca07bd7f6a289e53bcb3fe6bba5d9c19", "lat": 38.939737666666666, "name": "ca07bd7f6a289e53bcb3fe6bba5d9c19", "lon": -77.03432166666667, "fusion_lon": 0.0}, {"is_reserved": 0, "type": "electric_scooter", "fusion_lat": 0.0, "is_disabled": 0, "rental_uris": {"ios": "https://dc.lft.to/lastmile_qr_scan", "android": "https://dc.lft.to/lastmile_qr_scan"}, "bike_id": "1887ce56fd8df28fe30bc9bacc3f67dc", "lat": 38.895153, "name": "1887ce56fd8df28fe30bc9bacc3f67dc", "lon": -77.02949133333334, "fusion_lon": 0.0}, {"is_reserved": 0, "type": "electric_scooter", "fusion_lat": 0.0, "is_disabled": 0, "rental_uris": {"ios": "https://dc.lft.to/lastmile_qr_scan", "android": "https://dc.lft.to/lastmile_qr_scan"}, "bike_id": "39fa45d85a026bbd26b496e04a31a4d9", "lat": 38.920739833333336, "name": "39fa45d85a026bbd26b496e04a31a4d9", "lon": -77.02507466666667, "fusion_lon": 0.0}, {"is_reserved": 0, "type": "electric_scooter", "fusion_lat": 0.0, "is_disabled": 0, "rental_uris": {"ios": "https://dc.lft.to/lastmile_qr_scan", "android": "https://dc.lft.to/lastmile_qr_scan"}, "bike_id": "5dc85ae5e60d31900185feb2b6982292", "lat": 38.90972933333333, "name": "5dc85ae5e60d31900185feb2b6982292", "lon": -77.02187683333334, "fusion_lon": 0.0}, {"is_reserved": 0, "type": "electric_scooter", "fusion_lat": 0.0, "is_disabled": 0, "rental_uris": {"ios": "https://dc.lft.to/lastmile_qr_scan", "android": "https://dc.lft.to/lastmile_qr_scan"}, "bike_id": "77327960b382df65827b6e7d890aec0d", "lat": 38.9170925, "name": "77327960b382df65827b6e7d890aec0d", "lon": -77.09205733333333, "fusion_lon": 0.0}, {"is_reserved": 0, "type": "electric_scooter", "fusion_lat": 0.0, "is_disabled": 0, "rental_uris": {"ios": "https://dc.lft.to/lastmile_qr_scan", "android": "https://dc.lft.to/lastmile_qr_scan"}, "bike_id": "1aeb9dd82fdd55e77eb4280ddb1f52d5", "lat": 38.92086066666667, "name": "1aeb9dd82fdd55e77eb4280ddb1f52d5", "lon": -77.02505333333333, "fusion_lon": 0.0}, {"is_reserved": 0, "type": "electric_scooter", "fusion_lat": 0.0, "is_disabled": 0, "rental_uris": {"ios": "https://dc.lft.to/lastmile_qr_scan", "android": "https://dc.lft.to/lastmile_qr_scan"}, "bike_id": "62eed346f8fc5a06d59eabd4c912472e", "lat": 38.92280733333333, "name": "62eed346f8fc5a06d59eabd4c912472e", "lon": -77.036591, "fusion_lon": 0.0}, {"is_reserved": 0, "type": "electric_scooter", "fusion_lat": 0.0, "is_disabled": 0, "rental_uris": {"ios": "https://dc.lft.to/lastmile_qr_scan", "android": "https://dc.lft.to/lastmile_qr_scan"}, "bike_id": "0cc5191d28c3c5a329d3c77d46676c24", "lat": 38.920789, "name": "0cc5191d28c3c5a329d3c77d46676c24", "lon": -77.02392783333333, "fusion_lon": 0.0}, {"is_reserved": 0, "type": "electric_scooter", "fusion_lat": 0.0, "is_disabled": 0, "rental_uris": {"ios": "https://dc.lft.to/lastmile_qr_scan", "android": "https://dc.lft.to/lastmile_qr_scan"}, "bike_id": "39572e7e0e50900c702dbfe9c51e4175", "lat": 38.90777116666667, "name": "39572e7e0e50900c702dbfe9c51e4175", "lon": -77.0684585, "fusion_lon": 0.0}, {"is_reserved": 0, "type": "electric_scooter", "fusion_lat": 0.0, "is_disabled": 0, "rental_uris": {"ios": "https://dc.lft.to/lastmile_qr_scan", "android": "https://dc.lft.to/lastmile_qr_scan"}, "bike_id": "ad8b7b0436e9e3b0ec7ac3259a594ff5", "lat": 38.91521483333333, "name": "ad8b7b0436e9e3b0ec7ac3259a594ff5", "lon": -77.02189683333333, "fusion_lon": 0.0}, {"is_reserved": 0, "type": "electric_scooter", "fusion_lat": 0.0, "is_disabled": 0, "rental_uris": {"ios": "https://dc.lft.to/lastmile_qr_scan", "android": "https://dc.lft.to/lastmile_qr_scan"}, "bike_id": "469d3998cc451166673f78997f2a0a04", "lat": 38.90539283333333, "name": "469d3998cc451166673f78997f2a0a04", "lon": -77.05700066666667, "fusion_lon": 0.0}, {"is_reserved": 0, "type": "electric_scooter", "fusion_lat": 0.0, "is_disabled": 0, "rental_uris": {"ios": "https://dc.lft.to/lastmile_qr_scan", "android": "https://dc.lft.to/lastmile_qr_scan"}, "bike_id": "e7460933dd94241db18920ffe046ab08", "lat": 38.91920266666666, "name": "e7460933dd94241db18920ffe046ab08", "lon": -77.009754, "fusion_lon": 0.0}, {"is_reserved": 0, "type": "electric_scooter", "fusion_lat": 0.0, "is_disabled": 0, "rental_uris": {"ios": "https://dc.lft.to/lastmile_qr_scan", "android": "https://dc.lft.to/lastmile_qr_scan"}, "bike_id": "c389980e235e61e96da5a9bf9d22698b", "lat": 38.89741266666667, "name": "c389980e235e61e96da5a9bf9d22698b", "lon": -77.01050016666667, "fusion_lon": 0.0}, {"is_reserved": 0, "type": "electric_scooter", "fusion_lat": 0.0, "is_disabled": 0, "rental_uris": {"ios": "https://dc.lft.to/lastmile_qr_scan", "android": "https://dc.lft.to/lastmile_qr_scan"}, "bike_id": "820b62bb2da52b175ada576467ba77be", "lat": 38.9431555, "name": "820b62bb2da52b175ada576467ba77be", "lon": -77.01727733333334, "fusion_lon": 0.0}, {"is_reserved": 0, "type": "electric_scooter", "fusion_lat": 0.0, "is_disabled": 0, "rental_uris": {"ios": "https://dc.lft.to/lastmile_qr_scan", "android": "https://dc.lft.to/lastmile_qr_scan"}, "bike_id": "48f78292dfa7ab9ff6de182d8d822083", "lat": 38.9030435, "name": "48f78292dfa7ab9ff6de182d8d822083", "lon": -77.02139216666667, "fusion_lon": 0.0}, {"is_reserved": 0, "type": "electric_scooter", "fusion_lat": 0.0, "is_disabled": 0, "rental_uris": {"ios": "https://dc.lft.to/lastmile_qr_scan", "android": "https://dc.lft.to/lastmile_qr_scan"}, "bike_id": "8d421b2bb617c78eb4098cf6fc18caea", "lat": 38.9142345, "name": "8d421b2bb617c78eb4098cf6fc18caea", "lon": -77.04494166666667, "fusion_lon": 0.0}, {"is_reserved": 0, "type": "electric_scooter", "fusion_lat": 0.0, "is_disabled": 0, "rental_uris": {"ios": "https://dc.lft.to/lastmile_qr_scan", "android": "https://dc.lft.to/lastmile_qr_scan"}, "bike_id": "e541579308d13e98e1595e3ca9e679e9", "lat": 38.900889166666666, "name": "e541579308d13e98e1595e3ca9e679e9", "lon": -77.0176955, "fusion_lon": 0.0}, {"is_reserved": 0, "type": "electric_scooter", "fusion_lat": 0.0, "is_disabled": 0, "rental_uris": {"ios": "https://dc.lft.to/lastmile_qr_scan", "android": "https://dc.lft.to/lastmile_qr_scan"}, "bike_id": "eea199671dc18c1577b253b5af2948fb", "lat": 38.895809166666666, "name": "eea199671dc18c1577b253b5af2948fb", "lon": -77.02270283333333, "fusion_lon": 0.0}, {"is_reserved": 0, "type": "electric_scooter", "fusion_lat": 0.0, "is_disabled": 0, "rental_uris": {"ios": "https://dc.lft.to/lastmile_qr_scan", "android": "https://dc.lft.to/lastmile_qr_scan"}, "bike_id": "c088f2c6e99bf41788939cff8d700e9c", "lat": 38.886929, "name": "c088f2c6e99bf41788939cff8d700e9c", "lon": -77.00066233333334, "fusion_lon": 0.0}, {"is_reserved": 0, "type": "electric_bike", "fusion_lat": 0.0, "is_disabled": 0, "rental_uris": {"ios": "https://dc.lft.to/lastmile_qr_scan", "android": "https://dc.lft.to/lastmile_qr_scan"}, "bike_id": "7a370b623acbfed3ee7e55aaddebfd8d", "lat": 38.9677375, "name": "7a370b623acbfed3ee7e55aaddebfd8d", "lon": -76.9964935, "fusion_lon": 0.0}, {"is_reserved": 0, "type": "electric_bike", "fusion_lat": 0.0, "is_disabled": 0, "rental_uris": {"ios": "https://dc.lft.to/lastmile_qr_scan", "android": "https://dc.lft.to/lastmile_qr_scan"}, "bike_id": "afdba21067d5b1fefa794126a68a7ff9", "lat": 38.916592, "name": "afdba21067d5b1fefa794126a68a7ff9", "lon": -76.98125483333334, "fusion_lon": 0.0}, {"is_reserved": 0, "type": "electric_scooter", "fusion_lat": 0.0, "is_disabled": 0, "rental_uris": {"ios": "https://dc.lft.to/lastmile_qr_scan", "android": "https://dc.lft.to/lastmile_qr_scan"}, "bike_id": "18971ab1601ac663854d97c192903f82", "lat": 38.91247116666667, "name": "18971ab1601ac663854d97c192903f82", "lon": -77.00917533333333, "fusion_lon": 0.0}, {"is_reserved": 0, "type": "electric_scooter", "fusion_lat": 0.0, "is_disabled": 0, "rental_uris": {"ios": "https://dc.lft.to/lastmile_qr_scan", "android": "https://dc.lft.to/lastmile_qr_scan"}, "bike_id": "7bf9d17be8370bc01cf7522424241866", "lat": 38.879474, "name": "7bf9d17be8370bc01cf7522424241866", "lon": -77.0127325, "fusion_lon": 0.0}, {"is_reserved": 0, "type": "electric_scooter", "fusion_lat": 0.0, "is_disabled": 0, "rental_uris": {"ios": "https://dc.lft.to/lastmile_qr_scan", "android": "https://dc.lft.to/lastmile_qr_scan"}, "bike_id": "b83624d7eaf256f3625941a0ac460ccd", "lat": 38.900362666666666, "name": "b83624d7eaf256f3625941a0ac460ccd", "lon": -77.01179866666666, "fusion_lon": 0.0}, {"is_reserved": 0, "type": "electric_scooter", "fusion_lat": 0.0, "is_disabled": 0, "rental_uris": {"ios": "https://dc.lft.to/lastmile_qr_scan", "android": "https://dc.lft.to/lastmile_qr_scan"}, "bike_id": "216cd88fe7d13b55fea8620f0c17753a", "lat": 38.90002766666667, "name": "216cd88fe7d13b55fea8620f0c17753a", "lon": -77.004019, "fusion_lon": 0.0}, {"is_reserved": 0, "type": "electric_scooter", "fusion_lat": 0.0, "is_disabled": 0, "rental_uris": {"ios": "https://dc.lft.to/lastmile_qr_scan", "android": "https://dc.lft.to/lastmile_qr_scan"}, "bike_id": "958fa6a705bc7eb50c8ff254b7c56437", "lat": 38.897409, "name": "958fa6a705bc7eb50c8ff254b7c56437", "lon": -77.00933133333334, "fusion_lon": 0.0}, {"is_reserved": 0, "type": "electric_bike", "fusion_lat": 0.0, "is_disabled": 0, "rental_uris": {"ios": "https://dc.lft.to/lastmile_qr_scan", "android": "https://dc.lft.to/lastmile_qr_scan"}, "bike_id": "c58a0f7cdbfaa6b43d74d5c969072d57", "lat": 38.922729333333336, "name": "c58a0f7cdbfaa6b43d74d5c969072d57", "lon": -76.997664, "fusion_lon": 0.0}, {"is_reserved": 0, "type": "electric_scooter", "fusion_lat": 0.0, "is_disabled": 0, "rental_uris": {"ios": "https://dc.lft.to/lastmile_qr_scan", "android": "https://dc.lft.to/lastmile_qr_scan"}, "bike_id": "003aea3231b30e462d463f48fd33bc4e", "lat": 38.8921875, "name": "003aea3231b30e462d463f48fd33bc4e", "lon": -77.0222215, "fusion_lon": 0.0}, {"is_reserved": 0, "type": "electric_scooter", "fusion_lat": 0.0, "is_disabled": 0, "rental_uris": {"ios": "https://dc.lft.to/lastmile_qr_scan", "android": "https://dc.lft.to/lastmile_qr_scan"}, "bike_id": "07d27feb9096a5c6e6bc28cb296ce3b1", "lat": 38.90737983333333, "name": "07d27feb9096a5c6e6bc28cb296ce3b1", "lon": -77.06897133333334, "fusion_lon": 0.0}, {"is_reserved": 0, "type": "electric_scooter", "fusion_lat": 0.0, "is_disabled": 0, "rental_uris": {"ios": "https://dc.lft.to/lastmile_qr_scan", "android": "https://dc.lft.to/lastmile_qr_scan"}, "bike_id": "2e5e8789125cc67195077bace223dc53", "lat": 38.902362, "name": "2e5e8789125cc67195077bace223dc53", "lon": -77.01936416666666, "fusion_lon": 0.0}, {"is_reserved": 0, "type": "electric_scooter", "fusion_lat": 0.0, "is_disabled": 0, "rental_uris": {"ios": "https://dc.lft.to/lastmile_qr_scan", "android": "https://dc.lft.to/lastmile_qr_scan"}, "bike_id": "5f94c7c4e1e784d19386ca8feb8845e4", "lat": 38.904810166666664, "name": "5f94c7c4e1e784d19386ca8feb8845e4", "lon": -76.9497235, "fusion_lon": 0.0}, {"is_reserved": 0, "type": "electric_scooter", "fusion_lat": 0.0, "is_disabled": 0, "rental_uris": {"ios": "https://dc.lft.to/lastmile_qr_scan", "android": "https://dc.lft.to/lastmile_qr_scan"}, "bike_id": "15e7563548f61bf9d0b7c5a8e8e46d91", "lat": 38.893042, "name": "15e7563548f61bf9d0b7c5a8e8e46d91", "lon": -77.025965, "fusion_lon": 0.0}, {"is_reserved": 0, "type": "electric_scooter", "fusion_lat": 0.0, "is_disabled": 0, "rental_uris": {"ios": "https://dc.lft.to/lastmile_qr_scan", "android": "https://dc.lft.to/lastmile_qr_scan"}, "bike_id": "c018e5c57a01379cc0bacee4d5eee795", "lat": 38.92210766666667, "name": "c018e5c57a01379cc0bacee4d5eee795", "lon": -77.04257316666667, "fusion_lon": 0.0}, {"is_reserved": 0, "type": "electric_bike", "fusion_lat": 0.0, "is_disabled": 0, "rental_uris": {"ios": "https://dc.lft.to/lastmile_qr_scan", "android": "https://dc.lft.to/lastmile_qr_scan"}, "bike_id": "89b9afa3546a02429e780229a952de40", "lat": 38.9241855, "name": "89b9afa3546a02429e780229a952de40", "lon": -77.04277716666667, "fusion_lon": 0.0}, {"is_reserved": 0, "type": "electric_scooter", "fusion_lat": 0.0, "is_disabled": 0, "rental_uris": {"ios": "https://dc.lft.to/lastmile_qr_scan", "android": "https://dc.lft.to/lastmile_qr_scan"}, "bike_id": "2112bd938fe67f0ceaced197444474bf", "lat": 38.90274983333333, "name": "2112bd938fe67f0ceaced197444474bf", "lon": -77.02826333333333, "fusion_lon": 0.0}, {"is_reserved": 0, "type": "electric_scooter", "fusion_lat": 0.0, "is_disabled": 0, "rental_uris": {"ios": "https://dc.lft.to/lastmile_qr_scan", "android": "https://dc.lft.to/lastmile_qr_scan"}, "bike_id": "97d2dcc614a5967c89f0e51223dfdc2b", "lat": 38.917365833333335, "name": "97d2dcc614a5967c89f0e51223dfdc2b", "lon": -77.021153, "fusion_lon": 0.0}, {"is_reserved": 0, "type": "electric_scooter", "fusion_lat": 0.0, "is_disabled": 0, "rental_uris": {"ios": "https://dc.lft.to/lastmile_qr_scan", "android": "https://dc.lft.to/lastmile_qr_scan"}, "bike_id": "e1e934964130861ce61471f83f5d0848", "lat": 38.967969333333336, "name": "e1e934964130861ce61471f83f5d0848", "lon": -77.02561783333333, "fusion_lon": 0.0}, {"is_reserved": 0, "type": "electric_scooter", "fusion_lat": 0.0, "is_disabled": 0, "rental_uris": {"ios": "https://dc.lft.to/lastmile_qr_scan", "android": "https://dc.lft.to/lastmile_qr_scan"}, "bike_id": "f6d14f06989ef0833f1ec251667880c4", "lat": 38.92207033333333, "name": "f6d14f06989ef0833f1ec251667880c4", "lon": -77.07440216666667, "fusion_lon": 0.0}, {"is_reserved": 0, "type": "electric_scooter", "fusion_lat": 0.0, "is_disabled": 0, "rental_uris": {"ios": "https://dc.lft.to/lastmile_qr_scan", "android": "https://dc.lft.to/lastmile_qr_scan"}, "bike_id": "7c952108cf5e7f6a7cdbdbef227d6382", "lat": 38.919745, "name": "7c952108cf5e7f6a7cdbdbef227d6382", "lon": -77.0417505, "fusion_lon": 0.0}, {"is_reserved": 0, "type": "electric_scooter", "fusion_lat": 0.0, "is_disabled": 0, "rental_uris": {"ios": "https://dc.lft.to/lastmile_qr_scan", "android": "https://dc.lft.to/lastmile_qr_scan"}, "bike_id": "ad071305cc7afa8bbc5383421eddac3b", "lat": 38.884168, "name": "ad071305cc7afa8bbc5383421eddac3b", "lon": -77.03012616666666, "fusion_lon": 0.0}, {"is_reserved": 0, "type": "electric_scooter", "fusion_lat": 0.0, "is_disabled": 0, "rental_uris": {"ios": "https://dc.lft.to/lastmile_qr_scan", "android": "https://dc.lft.to/lastmile_qr_scan"}, "bike_id": "f9889fc911885fca683fabfd8ce614b7", "lat": 38.89564083333333, "name": "f9889fc911885fca683fabfd8ce614b7", "lon": -77.02498733333333, "fusion_lon": 0.0}, {"is_reserved": 0, "type": "electric_scooter", "fusion_lat": 0.0, "is_disabled": 0, "rental_uris": {"ios": "https://dc.lft.to/lastmile_qr_scan", "android": "https://dc.lft.to/lastmile_qr_scan"}, "bike_id": "5c6936c34fb4f7eaf30683c859fd2089", "lat": 38.965005, "name": "5c6936c34fb4f7eaf30683c859fd2089", "lon": -77.06284, "fusion_lon": 0.0}, {"is_reserved": 0, "type": "electric_scooter", "fusion_lat": 0.0, "is_disabled": 0, "rental_uris": {"ios": "https://dc.lft.to/lastmile_qr_scan", "android": "https://dc.lft.to/lastmile_qr_scan"}, "bike_id": "0e315a6d34d705cfe2f8d54df81af160", "lat": 38.91264483333333, "name": "0e315a6d34d705cfe2f8d54df81af160", "lon": -77.01677483333333, "fusion_lon": 0.0}, {"is_reserved": 0, "type": "electric_scooter", "fusion_lat": 0.0, "is_disabled": 0, "rental_uris": {"ios": "https://dc.lft.to/lastmile_qr_scan", "android": "https://dc.lft.to/lastmile_qr_scan"}, "bike_id": "b7cbad574d2ea9a2f45d108dc28eaaa5", "lat": 38.9103845, "name": "b7cbad574d2ea9a2f45d108dc28eaaa5", "lon": -76.9383765, "fusion_lon": 0.0}, {"is_reserved": 0, "type": "electric_scooter", "fusion_lat": 0.0, "is_disabled": 0, "rental_uris": {"ios": "https://dc.lft.to/lastmile_qr_scan", "android": "https://dc.lft.to/lastmile_qr_scan"}, "bike_id": "8adb712dc2aa7a6dbac31d37fc608ea0", "lat": 38.90847633333333, "name": "8adb712dc2aa7a6dbac31d37fc608ea0", "lon": -76.99965983333334, "fusion_lon": 0.0}, {"is_reserved": 0, "type": "electric_scooter", "fusion_lat": 0.0, "is_disabled": 0, "rental_uris": {"ios": "https://dc.lft.to/lastmile_qr_scan", "android": "https://dc.lft.to/lastmile_qr_scan"}, "bike_id": "6f9a6d5d8c18a05925d2d25075f50c19", "lat": 38.907691166666666, "name": "6f9a6d5d8c18a05925d2d25075f50c19", "lon": -77.0240685, "fusion_lon": 0.0}, {"is_reserved": 0, "type": "electric_scooter", "fusion_lat": 0.0, "is_disabled": 0, "rental_uris": {"ios": "https://dc.lft.to/lastmile_qr_scan", "android": "https://dc.lft.to/lastmile_qr_scan"}, "bike_id": "b77542f4641466494cf70d4235c75253", "lat": 38.89699016666667, "name": "b77542f4641466494cf70d4235c75253", "lon": -76.93002916666667, "fusion_lon": 0.0}, {"is_reserved": 0, "type": "electric_scooter", "fusion_lat": 0.0, "is_disabled": 0, "rental_uris": {"ios": "https://dc.lft.to/lastmile_qr_scan", "android": "https://dc.lft.to/lastmile_qr_scan"}, "bike_id": "3bb3d96c50e475019fcf594252ba7879", "lat": 38.940161, "name": "3bb3d96c50e475019fcf594252ba7879", "lon": -77.07728433333334, "fusion_lon": 0.0}, {"is_reserved": 0, "type": "electric_scooter", "fusion_lat": 0.0, "is_disabled": 0, "rental_uris": {"ios": "https://dc.lft.to/lastmile_qr_scan", "android": "https://dc.lft.to/lastmile_qr_scan"}, "bike_id": "bc6b2017b5b9e10b4db62741d3da0a88", "lat": 38.8800765, "name": "bc6b2017b5b9e10b4db62741d3da0a88", "lon": -76.99834766666666, "fusion_lon": 0.0}, {"is_reserved": 0, "type": "electric_scooter", "fusion_lat": 0.0, "is_disabled": 0, "rental_uris": {"ios": "https://dc.lft.to/lastmile_qr_scan", "android": "https://dc.lft.to/lastmile_qr_scan"}, "bike_id": "c755ed96c41d3b83474a430c8fc50ce5", "lat": 38.903154, "name": "c755ed96c41d3b83474a430c8fc50ce5", "lon": -76.98012266666667, "fusion_lon": 0.0}, {"is_reserved": 0, "type": "electric_scooter", "fusion_lat": 0.0, "is_disabled": 0, "rental_uris": {"ios": "https://dc.lft.to/lastmile_qr_scan", "android": "https://dc.lft.to/lastmile_qr_scan"}, "bike_id": "94c8a45e2173011a53d6c6a77d794f3c", "lat": 38.930049833333335, "name": "94c8a45e2173011a53d6c6a77d794f3c", "lon": -77.02112016666666, "fusion_lon": 0.0}, {"is_reserved": 0, "type": "electric_bike", "fusion_lat": 0.0, "is_disabled": 0, "rental_uris": {"ios": "https://dc.lft.to/lastmile_qr_scan", "android": "https://dc.lft.to/lastmile_qr_scan"}, "bike_id": "355d0dadaf94bf2ffe8f501f1e9795e2", "lat": 39.034752166666664, "name": "355d0dadaf94bf2ffe8f501f1e9795e2", "lon": -77.04107183333333, "fusion_lon": 0.0},