{"data": {"bikes": [{"lat": 38.881198833333336, "fusion_lat": 0.0, "type": "electric_scooter", "bike_id": "a16da83fbf3e0c2c3e598a0313d9fb26", "rental_uris": {"ios": "https://dc.lft.to/lastmile_qr_scan", "android": "https://dc.lft.to/lastmile_qr_scan"}, "fusion_lon": 0.0, "lon": -77.01664783333334, "name": "a16da83fbf3e0c2c3e598a0313d9fb26", "is_reserved": 0, "is_disabled": 0}, {"lat": 38.92499, "fusion_lat": 0.0, "type": "electric_scooter", "bike_id": "ba91931f7925bb0545512c4a6c3a4833", "rental_uris": {"ios": "https://dc.lft.to/lastmile_qr_scan", "android": "https://dc.lft.to/lastmile_qr_scan"}, "fusion_lon": 0.0, "lon": -77.03921316666667, "name": "ba91931f7925bb0545512c4a6c3a4833", "is_reserved": 0, "is_disabled": 0}, {"lat": 38.90634283333333, "fusion_lat": 0.0, "type": "electric_scooter", "bike_id": "ccf058d40c29a39ddc389e50690aa9c5", "rental_uris": {"ios": "https://dc.lft.to/lastmile_qr_scan", "android": "https://dc.lft.to/lastmile_qr_scan"}, "fusion_lon": 0.0, "lon": -77.05145733333333, "name": "ccf058d40c29a39ddc389e50690aa9c5", "is_reserved": 0, "is_disabled": 0}, {"lat": 38.917108166666665, "fusion_lat": 0.0, "type": "electric_scooter", "bike_id": "cf9227a3b73322c23b8930838cb7c1e7", "rental_uris": {"ios": "https://dc.lft.to/lastmile_qr_scan", "android": "https://dc.lft.to/lastmile_qr_scan"}, "fusion_lon": 0.0, "lon": -77.025552, "name": "cf9227a3b73322c23b8930838cb7c1e7", "is_reserved": 0, "is_disabled": 0}, {"lat": 38.91626816666667, "fusion_lat": 0.0, "type": "electric_scooter", "bike_id": "f57ef1ba5e9f03d13734d608bbfa2cd7", "rental_uris": {"ios": "https://dc.lft.to/lastmile_qr_scan", "android": "https://dc.lft.to/lastmile_qr_scan"}, "fusion_lon": 0.0, "lon": -77.02698983333333, "name": "f57ef1ba5e9f03d13734d608bbfa2cd7", "is_reserved": 0, "is_disabled": 0}, {"lat": 38.91816933333333, "fusion_lat": 0.0, "type": "electric_scooter", "bike_id": "9e4b56b5794aafb4818abd547b2b3aa2", "rental_uris": {"ios": "https://dc.lft.to/lastmile_qr_scan", "android": "https://dc.lft.to/lastmile_qr_scan"}, "fusion_lon": 0.0, "lon": -77.0121495, "name": "9e4b56b5794aafb4818abd547b2b3aa2", "is_reserved": 0, "is_disabled": 0}, {"lat": 38.8745635, "fusion_lat": 0.0, "type": "electric_scooter", "bike_id": "0f06821f77d269a4350127f4dc1cbfab", "rental_uris": {"ios": "https://dc.lft.to/lastmile_qr_scan", "android": "https://dc.lft.to/lastmile_qr_scan"}, "fusion_lon": 0.0, "lon": -77.00543216666667, "name": "0f06821f77d269a4350127f4dc1cbfab", "is_reserved": 0, "is_disabled": 0}, {"lat": 38.89725166666667, "fusion_lat": 0.0, "type": "electric_scooter", "bike_id": "8a005fa1cd5231867bc4d1c3d2c3d6fc", "rental_uris": {"ios": "https://dc.lft.to/lastmile_qr_scan", "android": "https://dc.lft.to/lastmile_qr_scan"}, "fusion_lon": 0.0, "lon": -77.04969483333333, "name": "8a005fa1cd5231867bc4d1c3d2c3d6fc", "is_reserved": 0, "is_disabled": 0}, {"lat": 38.9237405, "fusion_lat": 0.0, "type": "electric_scooter", "bike_id": "24f8fc4e876d5b76473f1b775bc0f48a", "rental_uris": {"ios": "https://dc.lft.to/lastmile_qr_scan", "android": "https://dc.lft.to/lastmile_qr_scan"}, "fusion_lon": 0.0, "lon": -77.02263433333333, "name": "24f8fc4e876d5b76473f1b775bc0f48a", "is_reserved": 0, "is_disabled": 0}, {"lat": 38.895295833333336, "fusion_lat": 0.0, "type": "electric_scooter", "bike_id": "e6638ad73c40756d41255aa992d9789a", "rental_uris": {"ios": "https://dc.lft.to/lastmile_qr_scan", "android": "https://dc.lft.to/lastmile_qr_scan"}, "fusion_lon": 0.0, "lon": -76.94932416666667, "name": "e6638ad73c40756d41255aa992d9789a", "is_reserved": 0, "is_disabled": 0}, {"lat": 38.916879, "fusion_lat": 0.0, "type": "electric_scooter", "bike_id": "78c36b396549251407bafbaa6294215c", "rental_uris": {"ios": "https://dc.lft.to/lastmile_qr_scan", "android": "https://dc.lft.to/lastmile_qr_scan"}, "fusion_lon": 0.0, "lon": -77.02904216666667, "name": "78c36b396549251407bafbaa6294215c", "is_reserved": 0, "is_disabled": 0}, {"lat": 38.938952666666665, "fusion_lat": 0.0, "type": "electric_scooter", "bike_id": "ab23955bb5104a21007ad40b7e0560f7", "rental_uris": {"ios": "https://dc.lft.to/lastmile_qr_scan", "android": "https://dc.lft.to/lastmile_qr_scan"}, "fusion_lon": 0.0, "lon": -76.98608116666666, "name": "ab23955bb5104a21007ad40b7e0560f7", "is_reserved": 0, "is_disabled": 0}, {"lat": 38.942937666666666, "fusion_lat": 0.0, "type": "electric_bike", "bike_id": "600fd9b7016c9a34a0a62cad16f2495d", "rental_uris": {"ios": "https://dc.lft.to/lastmile_qr_scan", "android": "https://dc.lft.to/lastmile_qr_scan"}, "fusion_lon": 0.0, "lon": -76.97395216666666, "name": "600fd9b7016c9a34a0a62cad16f2495d", "is_reserved": 0, "is_disabled": 0}, {"lat": 38.918164, "fusion_lat": 0.0, "type": "electric_scooter", "bike_id": "e5e71b775b586579bb8b821d759949f1", "rental_uris": {"ios": "https://dc.lft.to/lastmile_qr_scan", "android": "https://dc.lft.to/lastmile_qr_scan"}, "fusion_lon": 0.0, "lon": -77.04521216666667, "name": "e5e71b775b586579bb8b821d759949f1", "is_reserved": 0, "is_disabled": 0}, {"lat": 38.900198333333336, "fusion_lat": 0.0, "type": "electric_scooter", "bike_id": "abad032d0969dd7bf6bcc98267d5e3dc", "rental_uris": {"ios": "https://dc.lft.to/lastmile_qr_scan", "android": "https://dc.lft.to/lastmile_qr_scan"}, "fusion_lon": 0.0, "lon": -77.00148383333334, "name": "abad032d0969dd7bf6bcc98267d5e3dc", "is_reserved": 0, "is_disabled": 0}, {"lat": 38.92284733333334, "fusion_lat": 0.0, "type": "electric_scooter", "bike_id": "1216e44409926f877cef6452801f7f54", "rental_uris": {"ios": "https://dc.lft.to/lastmile_qr_scan", "android": "https://dc.lft.to/lastmile_qr_scan"}, "fusion_lon": 0.0, "lon": -76.997822, "name": "1216e44409926f877cef6452801f7f54", "is_reserved": 0, "is_disabled": 0}, {"lat": 38.9309875, "fusion_lat": 0.0, "type": "electric_scooter", "bike_id": "50aa5ff980b329da3e86a29d9b2d484f", "rental_uris": {"ios": "https://dc.lft.to/lastmile_qr_scan", "android": "https://dc.lft.to/lastmile_qr_scan"}, "fusion_lon": 0.0, "lon": -77.024635, "name": "50aa5ff980b329da3e86a29d9b2d484f", "is_reserved": 0, "is_disabled": 0}, {"lat": 38.9136265, "fusion_lat": 0.0, "type": "electric_scooter", "bike_id": "5793ad3b91538eb233e7e98629a94e87", "rental_uris": {"ios": "https://dc.lft.to/lastmile_qr_scan", "android": "https://dc.lft.to/lastmile_qr_scan"}, "fusion_lon": 0.0, "lon": -77.01998133333333, "name": "5793ad3b91538eb233e7e98629a94e87", "is_reserved": 0, "is_disabled": 0}, {"lat": 38.90942616666667, "fusion_lat": 0.0, "type": "electric_scooter", "bike_id": "fcee145e2cd1e680e103e6623cd7b2b9", "rental_uris": {"ios": "https://dc.lft.to/lastmile_qr_scan", "android": "https://dc.lft.to/lastmile_qr_scan"}, "fusion_lon": 0.0, "lon": -77.04481466666667, "name": "fcee145e2cd1e680e103e6623cd7b2b9", "is_reserved": 0, "is_disabled": 0}, {"lat": 38.903976, "fusion_lat": 0.0, "type": "electric_scooter", "bike_id": "4117485884e30363590ae7caa07380b2", "rental_uris": {"ios": "https://dc.lft.to/lastmile_qr_scan", "android": "https://dc.lft.to/lastmile_qr_scan"}, "fusion_lon": 0.0, "lon": -77.00585816666667, "name": "4117485884e30363590ae7caa07380b2", "is_reserved": 0, "is_disabled": 0}, {"lat": 38.89786983333333, "fusion_lat": 0.0, "type": "electric_scooter", "bike_id": "7d270eca69caf27a2dd73d56ac35d0b8", "rental_uris": {"ios": "https://dc.lft.to/lastmile_qr_scan", "android": "https://dc.lft.to/lastmile_qr_scan"}, "fusion_lon": 0.0, "lon": -77.0120285, "name": "7d270eca69caf27a2dd73d56ac35d0b8", "is_reserved": 0, "is_disabled": 0}, {"lat": 38.928656, "fusion_lat": 0.0, "type": "electric_scooter", "bike_id": "6a5fb9244016e23d09c8f51873791e56", "rental_uris": {"ios": "https://dc.lft.to/lastmile_qr_scan", "android": "https://dc.lft.to/lastmile_qr_scan"}, "fusion_lon": 0.0, "lon": -77.03233433333334, "name": "6a5fb9244016e23d09c8f51873791e56", "is_reserved": 0, "is_disabled": 0}, {"lat": 38.894872, "fusion_lat": 0.0, "type": "electric_scooter", "bike_id": "9f786af7621f1f35239b3bc8a78d7e1f", "rental_uris": {"ios": "https://dc.lft.to/lastmile_qr_scan", "android": "https://dc.lft.to/lastmile_qr_scan"}, "fusion_lon": 0.0, "lon": -77.01083283333334, "name": "9f786af7621f1f35239b3bc8a78d7e1f", "is_reserved": 0, "is_disabled": 0}, {"lat": 38.893558666666664, "fusion_lat": 0.0, "type": "electric_scooter", "bike_id": "9f04c265330f6a50f7cbb8147b633710", "rental_uris": {"ios": "https://dc.lft.to/lastmile_qr_scan", "android": "https://dc.lft.to/lastmile_qr_scan"}, "fusion_lon": 0.0, "lon": -77.0034345, "name": "9f04c265330f6a50f7cbb8147b633710", "is_reserved": 0, "is_disabled": 0}, {"lat": 38.91800466666667, "fusion_lat": 0.0, "type": "electric_scooter", "bike_id": "b9e58fc076a1b12ba4b763115cc6c58c", "rental_uris": {"ios": "https://dc.lft.to/lastmile_qr_scan", "android": "https://dc.lft.to/lastmile_qr_scan"}, "fusion_lon": 0.0, "lon": -77.02486716666667, "name": "b9e58fc076a1b12ba4b763115cc6c58c", "is_reserved": 0, "is_disabled": 0}, {"lat": 38.90758433333333, "fusion_lat": 0.0, "type": "electric_scooter", "bike_id": "543506ccbc128831c39a526e5b82ff86", "rental_uris": {"ios": "https://dc.lft.to/lastmile_qr_scan", "android": "https://dc.lft.to/lastmile_qr_scan"}, "fusion_lon": 0.0, "lon": -77.00918366666667, "name": "543506ccbc128831c39a526e5b82ff86", "is_reserved": 0, "is_disabled": 0}, {"lat": 38.84192216666667, "fusion_lat": 0.0, "type": "electric_bike", "bike_id": "cd43a5e8259ed6f997b87c76e487428c", "rental_uris": {"ios": "https://dc.lft.to/lastmile_qr_scan", "android": "https://dc.lft.to/lastmile_qr_scan"}, "fusion_lon": 0.0, "lon": -77.0675875, "name": "cd43a5e8259ed6f997b87c76e487428c", "is_reserved": 0, "is_disabled": 0}, {"lat": 38.91708466666667, "fusion_lat": 0.0, "type": "electric_bike", "bike_id": "eb6072928f87a485af06dc9c60a9ea54", "rental_uris": {"ios": "https://dc.lft.to/lastmile_qr_scan", "android": "https://dc.lft.to/lastmile_qr_scan"}, "fusion_lon": 0.0, "lon": -77.0376555, "name": "eb6072928f87a485af06dc9c60a9ea54", "is_reserved": 0, "is_disabled": 0}, {"lat": 38.92423683333333, "fusion_lat": 0.0, "type": "electric_scooter", "bike_id": "3a9c021db70c86a09389254104e0a913", "rental_uris": {"ios": "https://dc.lft.to/lastmile_qr_scan", "android": "https://dc.lft.to/lastmile_qr_scan"}, "fusion_lon": 0.0, "lon": -76.997295, "name": "3a9c021db70c86a09389254104e0a913", "is_reserved": 0, "is_disabled": 0}, {"lat": 38.909666333333334, "fusion_lat": 0.0, "type": "electric_scooter", "bike_id": "add6192788a80a9517aac2d288e41e4f", "rental_uris": {"ios": "https://dc.lft.to/lastmile_qr_scan", "android": "https://dc.lft.to/lastmile_qr_scan"}, "fusion_lon": 0.0, "lon": -77.05196183333334, "name": "add6192788a80a9517aac2d288e41e4f", "is_reserved": 0, "is_disabled": 0}, {"lat": 38.97352466666667, "fusion_lat": 0.0, "type": "electric_scooter", "bike_id": "3301328278e5276a82f854e5cae0946a", "rental_uris": {"ios": "https://dc.lft.to/lastmile_qr_scan", "android": "https://dc.lft.to/lastmile_qr_scan"}, "fusion_lon": 0.0, "lon": -77.02789683333333, "name": "3301328278e5276a82f854e5cae0946a", "is_reserved": 0, "is_disabled": 0}, {"lat": 38.8853585, "fusion_lat": 0.0, "type": "electric_scooter", "bike_id": "9f5508847cddfffe9618420f05f18a25", "rental_uris": {"ios": "https://dc.lft.to/lastmile_qr_scan", "android": "https://dc.lft.to/lastmile_qr_scan"}, "fusion_lon": 0.0, "lon": -77.02190733333333, "name": "9f5508847cddfffe9618420f05f18a25", "is_reserved": 0, "is_disabled": 0}, {"lat": 38.92120166666667, "fusion_lat": 0.0, "type": "electric_scooter", "bike_id": "c3a38c7a804f577cc71d54be37084343", "rental_uris": {"ios": "https://dc.lft.to/lastmile_qr_scan", "android": "https://dc.lft.to/lastmile_qr_scan"}, "fusion_lon": 0.0, "lon": -77.03188666666667, "name": "c3a38c7a804f577cc71d54be37084343", "is_reserved": 0, "is_disabled": 0}, {"lat": 38.92464666666667, "fusion_lat": 0.0, "type": "electric_scooter", "bike_id": "ea2022fc49a83087c30cf494a19c9e64", "rental_uris": {"ios": "https://dc.lft.to/lastmile_qr_scan", "android": "https://dc.lft.to/lastmile_qr_scan"}, "fusion_lon": 0.0, "lon": -77.03533933333334, "name": "ea2022fc49a83087c30cf494a19c9e64", "is_reserved": 0, "is_disabled": 0}, {"lat": 38.863948, "fusion_lat": 0.0, "type": "electric_bike", "bike_id": "75ab0b5557c799779514d6ce17bf1e28", "rental_uris": {"ios": "https://dc.lft.to/lastmile_qr_scan", "android": "https://dc.lft.to/lastmile_qr_scan"}, "fusion_lon": 0.0, "lon": -77.2010925, "name": "75ab0b5557c799779514d6ce17bf1e28", "is_reserved": 0, "is_disabled": 0}, {"lat": 38.8396745, "fusion_lat": 0.0, "type": "electric_scooter", "bike_id": "cbf03631bce4c92aee04288f09685c51", "rental_uris": {"ios": "https://dc.lft.to/lastmile_qr_scan", "android": "https://dc.lft.to/lastmile_qr_scan"}, "fusion_lon": 0.0, "lon": -76.99844316666666, "name": "cbf03631bce4c92aee04288f09685c51", "is_reserved": 0, "is_disabled": 0}, {"lat": 38.921461666666666, "fusion_lat": 0.0, "type": "electric_scooter", "bike_id": "7d79542e89a9e7454e8d601b2d8d41ec", "rental_uris": {"ios": "https://dc.lft.to/lastmile_qr_scan", "android": "https://dc.lft.to/lastmile_qr_scan"}, "fusion_lon": 0.0, "lon": -77.01209616666667, "name": "7d79542e89a9e7454e8d601b2d8d41ec", "is_reserved": 0, "is_disabled": 0}, {"lat": 38.93136233333333, "fusion_lat": 0.0, "type": "electric_bike", "bike_id": "3399e4ece0f83093608647d7c0f4acd9", "rental_uris": {"ios": "https://dc.lft.to/lastmile_qr_scan", "android": "https://dc.lft.to/lastmile_qr_scan"}, "fusion_lon": 0.0, "lon": -77.01975766666666, "name": "3399e4ece0f83093608647d7c0f4acd9", "is_reserved": 0, "is_disabled": 0}, {"lat": 38.911092333333336, "fusion_lat": 0.0, "type": "electric_scooter", "bike_id": "7aa9e877ef1740f66c745c7953cbbcbe", "rental_uris": {"ios": "https://dc.lft.to/lastmile_qr_scan", "android": "https://dc.lft.to/lastmile_qr_scan"}, "fusion_lon": 0.0, "lon": -77.04547, "name": "7aa9e877ef1740f66c745c7953cbbcbe", "is_reserved": 0, "is_disabled": 0}, {"lat": 38.90771683333333, "fusion_lat": 0.0, "type": "electric_scooter", "bike_id": "f389cbc1b58f100498258e416462f37c", "rental_uris": {"ios": "https://dc.lft.to/lastmile_qr_scan", "android": "https://dc.lft.to/lastmile_qr_scan"}, "fusion_lon": 0.0, "lon": -77.04506733333334, "name": "f389cbc1b58f100498258e416462f37c", "is_reserved": 0, "is_disabled": 0}, {"lat": 38.9040595, "fusion_lat": 0.0, "type": "electric_scooter", "bike_id": "3d59b393a67edfd96e17df08f6c44142", "rental_uris": {"ios": "https://dc.lft.to/lastmile_qr_scan", "android": "https://dc.lft.to/lastmile_qr_scan"}, "fusion_lon": 0.0, "lon": -76.97338966666666, "name": "3d59b393a67edfd96e17df08f6c44142", "is_reserved": 0, "is_disabled": 0}, {"lat": 38.9124955, "fusion_lat": 0.0, "type": "electric_scooter", "bike_id": "7ccc5136aac86e0ba70cfab1696c8650", "rental_uris": {"ios": "https://dc.lft.to/lastmile_qr_scan", "android": "https://dc.lft.to/lastmile_qr_scan"}, "fusion_lon": 0.0, "lon": -77.03196016666666, "name": "7ccc5136aac86e0ba70cfab1696c8650", "is_reserved": 0, "is_disabled": 0}, {"lat": 38.87561983333333, "fusion_lat": 0.0, "type": "electric_scooter", "bike_id": "11a8b6ef2bcaeff702192ebb78ce6a56", "rental_uris": {"ios": "https://dc.lft.to/lastmile_qr_scan", "android": "https://dc.lft.to/lastmile_qr_scan"}, "fusion_lon": 0.0, "lon": -77.00562866666667, "name": "11a8b6ef2bcaeff702192ebb78ce6a56", "is_reserved": 0, "is_disabled": 0}, {"lat": 38.925797333333335, "fusion_lat": 0.0, "type": "electric_scooter", "bike_id": "fdd224943f63f70b45ca6f29b4cf402a", "rental_uris": {"ios": "https://dc.lft.to/lastmile_qr_scan", "android": "https://dc.lft.to/lastmile_qr_scan"}, "fusion_lon": 0.0, "lon": -77.03190616666667, "name": "fdd224943f63f70b45ca6f29b4cf402a", "is_reserved": 0, "is_disabled": 0}, {"lat": 38.88425766666667, "fusion_lat": 0.0, "type": "electric_scooter", "bike_id": "c0a94d5f599f08e9af68c384e974cca7", "rental_uris": {"ios": "https://dc.lft.to/lastmile_qr_scan", "android": "https://dc.lft.to/lastmile_qr_scan"}, "fusion_lon": 0.0, "lon": -76.95752583333334, "name": "c0a94d5f599f08e9af68c384e974cca7", "is_reserved": 0, "is_disabled": 0}, {"lat": 38.919057, "fusion_lat": 0.0, "type": "electric_scooter", "bike_id": "45ebefbd8d571f3c6102a53353f2668a", "rental_uris": {"ios": "https://dc.lft.to/lastmile_qr_scan", "android": "https://dc.lft.to/lastmile_qr_scan"}, "fusion_lon": 0.0, "lon": -77.020478, "name": "45ebefbd8d571f3c6102a53353f2668a", "is_reserved": 0, "is_disabled": 0}, {"lat": 38.91264, "fusion_lat": 0.0, "type": "electric_scooter", "bike_id": "c8c6107880c2187512200ee7ee44fa71", "rental_uris": {"ios": "https://dc.lft.to/lastmile_qr_scan", "android": "https://dc.lft.to/lastmile_qr_scan"}, "fusion_lon": 0.0, "lon": -77.0386405, "name": "c8c6107880c2187512200ee7ee44fa71", "is_reserved": 0, "is_disabled": 0}, {"lat": 38.90382283333334, "fusion_lat": 0.0, "type": "electric_scooter", "bike_id": "28a11573900d61047027413476e987d1", "rental_uris": {"ios": "https://dc.lft.to/lastmile_qr_scan", "android": "https://dc.lft.to/lastmile_qr_scan"}, "fusion_lon": 0.0, "lon": -77.05074666666667, "name": "28a11573900d61047027413476e987d1", "is_reserved": 0, "is_disabled": 0}, {"lat": 38.887271, "fusion_lat": 0.0, "type": "electric_scooter", "bike_id": "40c0b735f13b9a2f396e650f5acd1cb6", "rental_uris": {"ios": "https://dc.lft.to/lastmile_qr_scan", "android": "https://dc.lft.to/lastmile_qr_scan"}, "fusion_lon": 0.0, "lon": -76.98357, "name": "40c0b735f13b9a2f396e650f5acd1cb6", "is_reserved": 0, "is_disabled": 0}, {"lat": 38.92316133333333, "fusion_lat": 0.0, "type": "electric_scooter", "bike_id": "8d31be705835e17df51055b1006cdc88", "rental_uris": {"ios": "https://dc.lft.to/lastmile_qr_scan", "android": "https://dc.lft.to/lastmile_qr_scan"}, "fusion_lon": 0.0, "lon": -77.03644066666666, "name": "8d31be705835e17df51055b1006cdc88", "is_reserved": 0, "is_disabled": 0}, {"lat": 38.9418915, "fusion_lat": 0.0, "type": "electric_scooter", "bike_id": "9608fdf9ac34d708b94a0581e3eaba1a", "rental_uris": {"ios": "https://dc.lft.to/lastmile_qr_scan", "android": "https://dc.lft.to/lastmile_qr_scan"}, "fusion_lon": 0.0, "lon": -77.03845116666666, "name": "9608fdf9ac34d708b94a0581e3eaba1a", "is_reserved": 0, "is_disabled": 0}, {"lat": 38.8979065, "fusion_lat": 0.0, "type": "electric_scooter", "bike_id": "e270f6d75a3c9e0ef245ded1fd1da071", "rental_uris": {"ios": "https://dc.lft.to/lastmile_qr_scan", "android": "https://dc.lft.to/lastmile_qr_scan"}, "fusion_lon": 0.0, "lon": -77.01072733333334, "name": "e270f6d75a3c9e0ef245ded1fd1da071", "is_reserved": 0, "is_disabled": 0}, {"lat": 38.9169645, "fusion_lat": 0.0, "type": "electric_scooter", "bike_id": "62c34982d9be5309d4e25493a0142d66", "rental_uris": {"ios": "https://dc.lft.to/lastmile_qr_scan", "android": "https://dc.lft.to/lastmile_qr_scan"}, "fusion_lon": 0.0, "lon": -77.0249055, "name": "62c34982d9be5309d4e25493a0142d66", "is_reserved": 0, "is_disabled": 0}, {"lat": 38.915435, "fusion_lat": 0.0, "type": "electric_scooter", "bike_id": "7b78863b19f1a2c52ef86612c7d20032", "rental_uris": {"ios": "https://dc.lft.to/lastmile_qr_scan", "android": "https://dc.lft.to/lastmile_qr_scan"}, "fusion_lon": 0.0, "lon": -76.98377816666667, "name": "7b78863b19f1a2c52ef86612c7d20032", "is_reserved": 0, "is_disabled": 0}, {"lat": 38.91697033333333, "fusion_lat": 0.0, "type": "electric_scooter", "bike_id": "06855e41660816aa475cb9d6855a8d5e", "rental_uris": {"ios": "https://dc.lft.to/lastmile_qr_scan", "android": "https://dc.lft.to/lastmile_qr_scan"}, "fusion_lon": 0.0, "lon": -77.03768616666666, "name": "06855e41660816aa475cb9d6855a8d5e", "is_reserved": 0, "is_disabled": 0}, {"lat": 38.9250305, "fusion_lat": 0.0, "type": "electric_scooter", "bike_id": "e5d7867c67260a823d07dd0be27636f7", "rental_uris": {"ios": "https://dc.lft.to/lastmile_qr_scan", "android": "https://dc.lft.to/lastmile_qr_scan"}, "fusion_lon": 0.0, "lon": -77.03924166666667, "name": "e5d7867c67260a823d07dd0be27636f7", "is_reserved": 0, "is_disabled": 0}, {"lat": 38.952023833333335, "fusion_lat": 0.0, "type": "electric_scooter", "bike_id": "0d8072c5432ed460e70a9b040f4e7385", "rental_uris": {"ios": "https://dc.lft.to/lastmile_qr_scan", "android": "https://dc.lft.to/lastmile_qr_scan"}, "fusion_lon": 0.0, "lon": -77.02734983333333, "name": "0d8072c5432ed460e70a9b040f4e7385", "is_reserved": 0, "is_disabled": 0}, {"lat": 38.89575466666667, "fusion_lat": 0.0, "type": "electric_scooter", "bike_id": "fbd26868d10ae7ac592b496a13de7950", "rental_uris": {"ios": "https://dc.lft.to/lastmile_qr_scan", "android": "https://dc.lft.to/lastmile_qr_scan"}, "fusion_lon": 0.0, "lon": -77.02175, "name": "fbd26868d10ae7ac592b496a13de7950", "is_reserved": 0, "is_disabled": 0}, {"lat": 38.961266, "fusion_lat": 0.0, "type": "electric_bike", "bike_id": "aa1915b7580010fdb6902405090cdcec", "rental_uris": {"ios": "https://dc.lft.to/lastmile_qr_scan", "android": "https://dc.lft.to/lastmile_qr_scan"}, "fusion_lon": 0.0, "lon": -77.03277466666667, "name": "aa1915b7580010fdb6902405090cdcec", "is_reserved": 0, "is_disabled": 0}, {"lat": 38.9181325, "fusion_lat": 0.0, "type": "electric_scooter", "bike_id": "bc5bd020f47514e0a7640087cb73313b", "rental_uris": {"ios": "https://dc.lft.to/lastmile_qr_scan", "android": "https://dc.lft.to/lastmile_qr_scan"}, "fusion_lon": 0.0, "lon": -77.0255205, "name": "bc5bd020f47514e0a7640087cb73313b", "is_reserved": 0, "is_disabled": 0}, {"lat": 38.923236333333335, "fusion_lat": 0.0, "type": "electric_scooter", "bike_id": "f654afee206b84372baeb08193996387", "rental_uris": {"ios": "https://dc.lft.to/lastmile_qr_scan", "android": "https://dc.lft.to/lastmile_qr_scan"}, "fusion_lon": 0.0, "lon": -77.02964983333334, "name": "f654afee206b84372baeb08193996387", "is_reserved": 0, "is_disabled": 0}, {"lat": 38.9332585, "fusion_lat": 0.0, "type": "electric_scooter", "bike_id": "eef9a8fdc2186cdd921e1a8831fed188", "rental_uris": {"ios": "https://dc.lft.to/lastmile_qr_scan", "android": "https://dc.lft.to/lastmile_qr_scan"}, "fusion_lon": 0.0, "lon": -77.02921616666667, "name": "eef9a8fdc2186cdd921e1a8831fed188", "is_reserved": 0, "is_disabled": 0}, {"lat": 38.923973333333336, "fusion_lat": 0.0, "type": "electric_scooter", "bike_id": "5cddfa7b000484d423618d7ea6d15d56", "rental_uris": {"ios": "https://dc.lft.to/lastmile_qr_scan", "android": "https://dc.lft.to/lastmile_qr_scan"}, "fusion_lon": 0.0, "lon": -77.020712, "name": "5cddfa7b000484d423618d7ea6d15d56", "is_reserved": 0, "is_disabled": 0}, {"lat": 38.91988633333333, "fusion_lat": 0.0, "type": "electric_scooter", "bike_id": "d52b7777c7591f58e3d691b59e73a3bb", "rental_uris": {"ios": "https://dc.lft.to/lastmile_qr_scan", "android": "https://dc.lft.to/lastmile_qr_scan"}, "fusion_lon": 0.0, "lon": -77.01825666666667, "name": "d52b7777c7591f58e3d691b59e73a3bb", "is_reserved": 0, "is_disabled": 0}, {"lat": 38.8742525, "fusion_lat": 0.0, "type": "electric_scooter", "bike_id": "0c534f16ffb367177837a33d611c77af", "rental_uris": {"ios": "https://dc.lft.to/lastmile_qr_scan", "android": "https://dc.lft.to/lastmile_qr_scan"}, "fusion_lon": 0.0, "lon": -77.00042133333334, "name": "0c534f16ffb367177837a33d611c77af", "is_reserved": 0, "is_disabled": 0}, {"lat": 38.9136275, "fusion_lat": 0.0, "type": "electric_scooter", "bike_id": "8cb3fc77f559949b66a6e24a42b8bbe4", "rental_uris": {"ios": "https://dc.lft.to/lastmile_qr_scan", "android": "https://dc.lft.to/lastmile_qr_scan"}, "fusion_lon": 0.0, "lon": -77.0200495, "name": "8cb3fc77f559949b66a6e24a42b8bbe4", "is_reserved": 0, "is_disabled": 0}, {"lat": 38.936103, "fusion_lat": 0.0, "type": "electric_scooter", "bike_id": "587540d8ec92d636d1de9fddf5725e78", "rental_uris": {"ios": "https://dc.lft.to/lastmile_qr_scan", "android": "https://dc.lft.to/lastmile_qr_scan"}, "fusion_lon": 0.0, "lon": -77.07306683333333, "name": "587540d8ec92d636d1de9fddf5725e78", "is_reserved": 0, "is_disabled": 0}, {"lat": 38.908557333333334, "fusion_lat": 0.0, "type": "electric_scooter", "bike_id": "ad58c7996f57dd5074e263434c78ab1f", "rental_uris": {"ios": "https://dc.lft.to/lastmile_qr_scan", "android": "https://dc.lft.to/lastmile_qr_scan"}, "fusion_lon": 0.0, "lon": -76.99983466666667, "name": "ad58c7996f57dd5074e263434c78ab1f", "is_reserved": 0, "is_disabled": 0}, {"lat": 38.923440666666664, "fusion_lat": 0.0, "type": "electric_scooter", "bike_id": "7b21c9655de7b7727c8e513e96c72061", "rental_uris": {"ios": "https://dc.lft.to/lastmile_qr_scan", "android": "https://dc.lft.to/lastmile_qr_scan"}, "fusion_lon": 0.0, "lon": -77.05179883333334, "name": "7b21c9655de7b7727c8e513e96c72061", "is_reserved": 0, "is_disabled": 0}, {"lat": 38.90370866666667, "fusion_lat": 0.0, "type": "electric_scooter", "bike_id": "b59de8a1f5bf537bb59a8ef4908070ff", "rental_uris": {"ios": "https://dc.lft.to/lastmile_qr_scan", "android": "https://dc.lft.to/lastmile_qr_scan"}, "fusion_lon": 0.0, "lon": -77.03183233333333, "name": "b59de8a1f5bf537bb59a8ef4908070ff", "is_reserved": 0, "is_disabled": 0}, {"lat": 38.90967066666666, "fusion_lat": 0.0, "type": "electric_scooter", "bike_id": "2d5a6f834844472b4132c2e7e76e5bfa", "rental_uris": {"ios": "https://dc.lft.to/lastmile_qr_scan", "android": "https://dc.lft.to/lastmile_qr_scan"}, "fusion_lon": 0.0, "lon": -77.0386945, "name": "2d5a6f834844472b4132c2e7e76e5bfa", "is_reserved": 0, "is_disabled": 0}, {"lat": 38.884251166666665, "fusion_lat": 0.0, "type": "electric_scooter", "bike_id": "82a34d4968ee5d964fd820c3707bba23", "rental_uris": {"ios": "https://dc.lft.to/lastmile_qr_scan", "android": "https://dc.lft.to/lastmile_qr_scan"}, "fusion_lon": 0.0, "lon": -77.01769483333334, "name": "82a34d4968ee5d964fd820c3707bba23", "is_reserved": 0, "is_disabled": 0}, {"lat": 38.92214666666667, "fusion_lat": 0.0, "type": "electric_scooter", "bike_id": "d7bcb973c4395c38d9eabe14e4fbd1ac", "rental_uris": {"ios": "https://dc.lft.to/lastmile_qr_scan", "android": "https://dc.lft.to/lastmile_qr_scan"}, "fusion_lon": 0.0, "lon": -77.043401, "name": "d7bcb973c4395c38d9eabe14e4fbd1ac", "is_reserved": 0, "is_disabled": 0}, {"lat": 38.906533333333336, "fusion_lat": 0.0, "type": "electric_scooter", "bike_id": "734525c9d5cf8c8142949e96c732f7e9", "rental_uris": {"ios": "https://dc.lft.to/lastmile_qr_scan", "android": "https://dc.lft.to/lastmile_qr_scan"}, "fusion_lon": 0.0, "lon": -77.02471133333333, "name": "734525c9d5cf8c8142949e96c732f7e9", "is_reserved": 0, "is_disabled": 0}, {"lat": 38.90482816666667, "fusion_lat": 0.0, "type": "electric_scooter", "bike_id": "de396fbb1f84c566cf95621781a014b0", "rental_uris": {"ios": "https://dc.lft.to/lastmile_qr_scan", "android": "https://dc.lft.to/lastmile_qr_scan"}, "fusion_lon": 0.0, "lon": -76.9733455, "name": "de396fbb1f84c566cf95621781a014b0", "is_reserved": 0, "is_disabled": 0}, {"lat": 38.892705166666666, "fusion_lat": 0.0, "type": "electric_scooter", "bike_id": "26c00d614540de16c7e8bc87c0535d95", "rental_uris": {"ios": "https://dc.lft.to/lastmile_qr_scan", "android": "https://dc.lft.to/lastmile_qr_scan"}, "fusion_lon": 0.0, "lon": -77.0467595, "name": "26c00d614540de16c7e8bc87c0535d95", "is_reserved": 0, "is_disabled": 0}, {"lat": 38.92882633333333, "fusion_lat": 0.0, "type": "electric_scooter", "bike_id": "f3f61880d5e1664b70e75c45423eeddb", "rental_uris": {"ios": "https://dc.lft.to/lastmile_qr_scan", "android": "https://dc.lft.to/lastmile_qr_scan"}, "fusion_lon": 0.0, "lon": -77.033456, "name": "f3f61880d5e1664b70e75c45423eeddb", "is_reserved": 0, "is_disabled": 0}, {"lat": 38.921681666666665, "fusion_lat": 0.0, "type": "electric_scooter", "bike_id": "d1b956e58c719151cf2bc54a6b50d748", "rental_uris": {"ios": "https://dc.lft.to/lastmile_qr_scan", "android": "https://dc.lft.to/lastmile_qr_scan"}, "fusion_lon": 0.0, "lon": -77.04251566666667, "name": "d1b956e58c719151cf2bc54a6b50d748", "is_reserved": 0, "is_disabled": 0}, {"lat": 38.89869933333333, "fusion_lat": 0.0, "type": "electric_scooter", "bike_id": "a0189960cd705c3d458b7c06e7b9d258", "rental_uris": {"ios": "https://dc.lft.to/lastmile_qr_scan", "android": "https://dc.lft.to/lastmile_qr_scan"}, "fusion_lon": 0.0, "lon": -76.93189733333334, "name": "a0189960cd705c3d458b7c06e7b9d258", "is_reserved": 0, "is_disabled": 0}, {"lat": 38.872867666666664, "fusion_lat": 0.0, "type": "electric_scooter", "bike_id": "5fef95ad262da9e06edeb0535b984b83", "rental_uris": {"ios": "https://dc.lft.to/lastmile_qr_scan", "android": "https://dc.lft.to/lastmile_qr_scan"}, "fusion_lon": 0.0, "lon": -77.00986, "name": "5fef95ad262da9e06edeb0535b984b83", "is_reserved": 0, "is_disabled": 0}, {"lat": 38.9123215, "fusion_lat": 0.0, "type": "electric_scooter", "bike_id": "ea1e09c9906515e2de314652922c2a13", "rental_uris": {"ios": "https://dc.lft.to/lastmile_qr_scan", "android": "https://dc.lft.to/lastmile_qr_scan"}, "fusion_lon": 0.0, "lon": -77.0610325, "name": "ea1e09c9906515e2de314652922c2a13", "is_reserved": 0, "is_disabled": 0}, {"lat": 38.899735666666665, "fusion_lat": 0.0, "type": "electric_scooter", "bike_id": "95d8cdfe80d1436fe3895d71e8a7c02a", "rental_uris": {"ios": "https://dc.lft.to/lastmile_qr_scan", "android": "https://dc.lft.to/lastmile_qr_scan"}, "fusion_lon": 0.0, "lon": -77.01572433333334, "name": "95d8cdfe80d1436fe3895d71e8a7c02a", "is_reserved": 0, "is_disabled": 0}, {"lat": 38.9325965, "fusion_lat": 0.0, "type": "electric_scooter", "bike_id": "89ab6d2054e432cd845d928ce219d46a", "rental_uris": {"ios": "https://dc.lft.to/lastmile_qr_scan", "android": "https://dc.lft.to/lastmile_qr_scan"}, "fusion_lon": 0.0, "lon": -77.02092066666667, "name": "89ab6d2054e432cd845d928ce219d46a", "is_reserved": 0, "is_disabled": 0}, {"lat": 38.918102166666664, "fusion_lat": 0.0, "type": "electric_scooter", "bike_id": "a5a404c66578c04d17f58cfaccf6d5a4", "rental_uris": {"ios": "https://dc.lft.to/lastmile_qr_scan", "android": "https://dc.lft.to/lastmile_qr_scan"}, "fusion_lon": 0.0, "lon": -77.03571066666666, "name": "a5a404c66578c04d17f58cfaccf6d5a4", "is_reserved": 0, "is_disabled": 0}, {"lat": 38.911279, "fusion_lat": 0.0, "type": "electric_scooter", "bike_id": "e16b862b7e4a1236b0a72ddd934f670f", "rental_uris": {"ios": "https://dc.lft.to/lastmile_qr_scan", "android": "https://dc.lft.to/lastmile_qr_scan"}, "fusion_lon": 0.0, "lon": -77.02818433333333, "name": "e16b862b7e4a1236b0a72ddd934f670f", "is_reserved": 0, "is_disabled": 0}, {"lat": 38.9094505, "fusion_lat": 0.0, "type": "electric_scooter", "bike_id": "68fb9bfd9062ac250017abc136290223", "rental_uris": {"ios": "https://dc.lft.to/lastmile_qr_scan", "android": "https://dc.lft.to/lastmile_qr_scan"}, "fusion_lon": 0.0, "lon": -77.034473, "name": "68fb9bfd9062ac250017abc136290223", "is_reserved": 0, "is_disabled": 0}, {"lat": 38.899912, "fusion_lat": 0.0, "type": "electric_scooter", "bike_id": "d0f1e67ba5159df1583d6e07612c1477", "rental_uris": {"ios": "https://dc.lft.to/lastmile_qr_scan", "android": "https://dc.lft.to/lastmile_qr_scan"}, "fusion_lon": 0.0, "lon": -77.021319, "name": "d0f1e67ba5159df1583d6e07612c1477", "is_reserved": 0, "is_disabled": 0}, {"lat": 38.927512, "fusion_lat": 0.0, "type": "electric_scooter", "bike_id": "ce1736f7fba03221ca4d06abf1d22f59", "rental_uris": {"ios": "https://dc.lft.to/lastmile_qr_scan", "android": "https://dc.lft.to/lastmile_qr_scan"}, "fusion_lon": 0.0, "lon": -77.03354866666666, "name": "ce1736f7fba03221ca4d06abf1d22f59", "is_reserved": 0, "is_disabled": 0}, {"lat": 38.946497666666666, "fusion_lat": 0.0, "type": "electric_scooter", "bike_id": "3f4ea05f0dc84bafce75bb38a6c3203c", "rental_uris": {"ios": "https://dc.lft.to/lastmile_qr_scan", "android": "https://dc.lft.to/lastmile_qr_scan"}, "fusion_lon": 0.0, "lon": -77.02961283333333, "name": "3f4ea05f0dc84bafce75bb38a6c3203c", "is_reserved": 0, "is_disabled": 0}, {"lat": 38.91678816666666, "fusion_lat": 0.0, "type": "electric_scooter", "bike_id": "c45c5759e3e0496a89dd69994adbb263", "rental_uris": {"ios": "https://dc.lft.to/lastmile_qr_scan", "android": "https://dc.lft.to/lastmile_qr_scan"}, "fusion_lon": 0.0, "lon": -77.029504, "name": "c45c5759e3e0496a89dd69994adbb263", "is_reserved": 0, "is_disabled": 0}, {"lat": 38.892307833333334, "fusion_lat": 0.0, "type": "electric_scooter", "bike_id": "89b8e7aaaccd005796568fb89c2c3b27", "rental_uris": {"ios": "https://dc.lft.to/lastmile_qr_scan", "android": "https://dc.lft.to/lastmile_qr_scan"}, "fusion_lon": 0.0, "lon": -77.04879216666667, "name": "89b8e7aaaccd005796568fb89c2c3b27", "is_reserved": 0, "is_disabled": 0}, {"lat": 38.92696133333333, "fusion_lat": 0.0, "type": "electric_scooter", "bike_id": "d4503b61612e3e907fabb2a9bd603b65", "rental_uris": {"ios": "https://dc.lft.to/lastmile_qr_scan", "android": "https://dc.lft.to/lastmile_qr_scan"}, "fusion_lon": 0.0, "lon": -76.99766, "name": "d4503b61612e3e907fabb2a9bd603b65", "is_reserved": 0, "is_disabled": 0}, {"lat": 38.899832333333336, "fusion_lat": 0.0, "type": "electric_scooter", "bike_id": "295e992980f77fe535d11a6c6675737e", "rental_uris": {"ios": "https://dc.lft.to/lastmile_qr_scan", "android": "https://dc.lft.to/lastmile_qr_scan"}, "fusion_lon": 0.0, "lon": -77.02683916666666, "name": "295e992980f77fe535d11a6c6675737e", "is_reserved": 0, "is_disabled": 0}, {"lat": 38.934369833333335, "fusion_lat": 0.0, "type": "electric_scooter", "bike_id": "4acedbb8e4157e11b83640f53a9cf65b", "rental_uris": {"ios": "https://dc.lft.to/lastmile_qr_scan", "android": "https://dc.lft.to/lastmile_qr_scan"}, "fusion_lon": 0.0, "lon": -77.072567, "name": "4acedbb8e4157e11b83640f53a9cf65b", "is_reserved": 0, "is_disabled": 0}, {"lat": 38.902804833333334, "fusion_lat": 0.0, "type": "electric_scooter", "bike_id": "dcc469b28ee6e5ce9e37375a3b950434", "rental_uris": {"ios": "https://dc.lft.to/lastmile_qr_scan", "android": "https://dc.lft.to/lastmile_qr_scan"}, "fusion_lon": 0.0, "lon": -77.03363766666666, "name": "dcc469b28ee6e5ce9e37375a3b950434", "is_reserved": 0, "is_disabled": 0}, {"lat": 38.911169, "fusion_lat": 0.0, "type": "electric_scooter", "bike_id": "a4cf8aaabd23a883b476b241145773c5", "rental_uris": {"ios": "https://dc.lft.to/lastmile_qr_scan", "android": "https://dc.lft.to/lastmile_qr_scan"}, "fusion_lon": 0.0, "lon": -77.03758633333334, "name": "a4cf8aaabd23a883b476b241145773c5", "is_reserved": 0, "is_disabled": 0}, {"lat": 38.920303833333335, "fusion_lat": 0.0, "type": "electric_scooter", "bike_id": "f6acbf4b86e9ae1d7c9f0af41f87ad4a", "rental_uris": {"ios": "https://dc.lft.to/lastmile_qr_scan", "android": "https://dc.lft.to/lastmile_qr_scan"}, "fusion_lon": 0.0, "lon": -77.03670266666667, "name": "f6acbf4b86e9ae1d7c9f0af41f87ad4a", "is_reserved": 0, "is_disabled": 0}, {"lat": 38.921435333333335, "fusion_lat": 0.0, "type": "electric_scooter", "bike_id": "f0e45174b7a9b792beab3e88b6017f75", "rental_uris": {"ios": "https://dc.lft.to/lastmile_qr_scan", "android": "https://dc.lft.to/lastmile_qr_scan"}, "fusion_lon": 0.0, "lon": -77.01805816666666, "name": "f0e45174b7a9b792beab3e88b6017f75", "is_reserved": 0, "is_disabled": 0}, {"lat": 38.92233183333333, "fusion_lat": 0.0, "type": "electric_scooter", "bike_id": "e9a7419cf0afbd38ce63d762e4e3b0d3", "rental_uris": {"ios": "https://dc.lft.to/lastmile_qr_scan", "android": "https://dc.lft.to/lastmile_qr_scan"}, "fusion_lon": 0.0, "lon": -77.028289, "name": "e9a7419cf0afbd38ce63d762e4e3b0d3", "is_reserved": 0, "is_disabled": 0}, {"lat": 38.90049283333333, "fusion_lat": 0.0, "type": "electric_scooter", "bike_id": "8f833af2631c245313c61d50ca0dad61", "rental_uris": {"ios": "https://dc.lft.to/lastmile_qr_scan", "android": "https://dc.lft.to/lastmile_qr_scan"}, "fusion_lon": 0.0, "lon": -77.02411683333334, "name": "8f833af2631c245313c61d50ca0dad61", "is_reserved": 0, "is_disabled": 0}, {"lat": 38.92423683333333, "fusion_lat": 0.0, "type": "electric_scooter", "bike_id": "df2014ad0b42eac47df8df1b2c77fa71", "rental_uris": {"ios": "https://dc.lft.to/lastmile_qr_scan", "android": "https://dc.lft.to/lastmile_qr_scan"}, "fusion_lon": 0.0, "lon": -77.05188083333333, "name": "df2014ad0b42eac47df8df1b2c77fa71", "is_reserved": 0, "is_disabled": 0}, {"lat": 38.930989, "fusion_lat": 0.0, "type": "electric_scooter", "bike_id": "1722999c03ff302e329cf2c72b82462c", "rental_uris": {"ios": "https://dc.lft.to/lastmile_qr_scan", "android": "https://dc.lft.to/lastmile_qr_scan"}, "fusion_lon": 0.0, "lon": -77.02480633333333, "name": "1722999c03ff302e329cf2c72b82462c", "is_reserved": 0, "is_disabled": 0}, {"lat": 38.91603516666667, "fusion_lat": 0.0, "type": "electric_scooter", "bike_id": "9443c3bb4515c7a67c624593bee6e803", "rental_uris": {"ios": "https://dc.lft.to/lastmile_qr_scan", "android": "https://dc.lft.to/lastmile_qr_scan"}, "fusion_lon": 0.0, "lon": -77.03938283333333, "name": "9443c3bb4515c7a67c624593bee6e803", "is_reserved": 0, "is_disabled": 0}, {"lat": 38.89780666666667, "fusion_lat": 0.0, "type": "electric_scooter", "bike_id": "570b73a83bcb136a4db5798c703ae05a", "rental_uris": {"ios": "https://dc.lft.to/lastmile_qr_scan", "android": "https://dc.lft.to/lastmile_qr_scan"}, "fusion_lon": 0.0, "lon": -77.02980683333334, "name": "570b73a83bcb136a4db5798c703ae05a", "is_reserved": 0, "is_disabled": 0}, {"lat": 38.84254216666667, "fusion_lat": 0.0, "type": "electric_bike", "bike_id": "e68f2d2ceadc34714651ababe988417e", "rental_uris": {"ios": "https://dc.lft.to/lastmile_qr_scan", "android": "https://dc.lft.to/lastmile_qr_scan"}, "fusion_lon": 0.0, "lon": -76.98846566666667, "name": "e68f2d2ceadc34714651ababe988417e", "is_reserved": 0, "is_disabled": 0}, {"lat": 38.914917833333334, "fusion_lat": 0.0, "type": "electric_scooter", "bike_id": "03b961ae4e9685f6ab622156484da0c6", "rental_uris": {"ios": "https://dc.lft.to/lastmile_qr_scan", "android": "https://dc.lft.to/lastmile_qr_scan"}, "fusion_lon": 0.0, "lon": -77.045743, "name": "03b961ae4e9685f6ab622156484da0c6", "is_reserved": 0, "is_disabled": 0}, {"lat": 38.9203465, "fusion_lat": 0.0, "type": "electric_scooter", "bike_id": "7a52a87999064c8d0cd4d3b923e4834b", "rental_uris": {"ios": "https://dc.lft.to/lastmile_qr_scan", "android": "https://dc.lft.to/lastmile_qr_scan"}, "fusion_lon": 0.0, "lon": -77.018367, "name": "7a52a87999064c8d0cd4d3b923e4834b", "is_reserved": 0, "is_disabled": 0}, {"lat": 38.91923933333333, "fusion_lat": 0.0, "type": "electric_scooter", "bike_id": "62fa38b3f8ae0487d06fa546deb471d8", "rental_uris": {"ios": "https://dc.lft.to/lastmile_qr_scan", "android": "https://dc.lft.to/lastmile_qr_scan"}, "fusion_lon": 0.0, "lon": -77.03187683333333, "name": "62fa38b3f8ae0487d06fa546deb471d8", "is_reserved": 0, "is_disabled": 0}, {"lat": 38.921056166666666, "fusion_lat": 0.0, "type": "electric_scooter", "bike_id": "77efd26998551ad5ed47db585baad8f9", "rental_uris": {"ios": "https://dc.lft.to/lastmile_qr_scan", "android": "https://dc.lft.to/lastmile_qr_scan"}, "fusion_lon": 0.0, "lon": -77.04699266666667, "name": "77efd26998551ad5ed47db585baad8f9", "is_reserved": 0, "is_disabled": 0}, {"lat": 38.90466266666667, "fusion_lat": 0.0, "type": "electric_scooter", "bike_id": "1e5266107a28801904ab65cf9dc6f840", "rental_uris": {"ios": "https://dc.lft.to/lastmile_qr_scan", "android": "https://dc.lft.to/lastmile_qr_scan"}, "fusion_lon": 0.0, "lon": -77.01888183333334, "name": "1e5266107a28801904ab65cf9dc6f840", "is_reserved": 0, "is_disabled": 0}, {"lat": 38.98822, "fusion_lat": 0.0, "type": "electric_bike", "bike_id": "a5f5e51ae58f7a8f0f08853d57df3b11", "rental_uris": {"ios": "https://dc.lft.to/lastmile_qr_scan", "android": "https://dc.lft.to/lastmile_qr_scan"}, "fusion_lon": 0.0, "lon": -76.99649716666667, "name": "a5f5e51ae58f7a8f0f08853d57df3b11", "is_reserved": 0, "is_disabled": 0}, {"lat": 38.89220683333333, "fusion_lat": 0.0, "type": "electric_scooter", "bike_id": "ebff6a91aa7618fb21944e95f80d74a9", "rental_uris": {"ios": "https://dc.lft.to/lastmile_qr_scan", "android": "https://dc.lft.to/lastmile_qr_scan"}, "fusion_lon": 0.0, "lon": -77.04470916666666, "name": "ebff6a91aa7618fb21944e95f80d74a9", "is_reserved": 0, "is_disabled": 0}, {"lat": 38.96678416666666, "fusion_lat": 0.0, "type": "electric_bike", "bike_id": "3c0748a15f9759fa7516bd730bc7e182", "rental_uris": {"ios": "https://dc.lft.to/lastmile_qr_scan", "android": "https://dc.lft.to/lastmile_qr_scan"}, "fusion_lon": 0.0, "lon": -77.02266433333334, "name": "3c0748a15f9759fa7516bd730bc7e182", "is_reserved": 0, "is_disabled": 0}, {"lat": 38.91741116666667, "fusion_lat": 0.0, "type": "electric_scooter", "bike_id": "18ebe900958a7e32b29258d03a3a516f", "rental_uris": {"ios": "https://dc.lft.to/lastmile_qr_scan", "android": "https://dc.lft.to/lastmile_qr_scan"}, "fusion_lon": 0.0, "lon": -77.06940566666667, "name": "18ebe900958a7e32b29258d03a3a516f", "is_reserved": 0, "is_disabled": 0}, {"lat": 38.89172516666667, "fusion_lat": 0.0, "type": "electric_scooter", "bike_id": "0302f1cc58d634d8793940ad5ed46504", "rental_uris": {"ios": "https://dc.lft.to/lastmile_qr_scan", "android": "https://dc.lft.to/lastmile_qr_scan"}, "fusion_lon": 0.0, "lon": -77.01553583333333, "name": "0302f1cc58d634d8793940ad5ed46504", "is_reserved": 0, "is_disabled": 0}, {"lat": 38.873325333333334, "fusion_lat": 0.0, "type": "electric_scooter", "bike_id": "efb8c1e931a4d54401c0d4cba1e35b55", "rental_uris": {"ios": "https://dc.lft.to/lastmile_qr_scan", "android": "https://dc.lft.to/lastmile_qr_scan"}, "fusion_lon": 0.0, "lon": -76.96788016666666, "name": "efb8c1e931a4d54401c0d4cba1e35b55", "is_reserved": 0, "is_disabled": 0}, {"lat": 38.92343416666667, "fusion_lat": 0.0, "type": "electric_scooter", "bike_id": "bc1507c2733e7a42a0558acc17f09f56", "rental_uris": {"ios": "https://dc.lft.to/lastmile_qr_scan", "android": "https://dc.lft.to/lastmile_qr_scan"}, "fusion_lon": 0.0, "lon": -77.05173033333334, "name": "bc1507c2733e7a42a0558acc17f09f56", "is_reserved": 0, "is_disabled": 0}, {"lat": 38.90400966666667, "fusion_lat": 0.0, "type": "electric_scooter", "bike_id": "dbc2973341837021717adeb5fd198750", "rental_uris": {"ios": "https://dc.lft.to/lastmile_qr_scan", "android": "https://dc.lft.to/lastmile_qr_scan"}, "fusion_lon": 0.0, "lon": -77.0200785, "name": "dbc2973341837021717adeb5fd198750", "is_reserved": 0, "is_disabled": 0}, {"lat": 38.91110833333333, "fusion_lat": 0.0, "type": "electric_scooter", "bike_id": "11915d003c7a77087802d1b02726c3e9", "rental_uris": {"ios": "https://dc.lft.to/lastmile_qr_scan", "android": "https://dc.lft.to/lastmile_qr_scan"}, "fusion_lon": 0.0, "lon": -77.03150966666666, "name": "11915d003c7a77087802d1b02726c3e9", "is_reserved": 0, "is_disabled": 0}, {"lat": 38.90237883333333, "fusion_lat": 0.0, "type": "electric_scooter", "bike_id": "df9fd4b3f8fefb48fa93018592ebd920", "rental_uris": {"ios": "https://dc.lft.to/lastmile_qr_scan", "android": "https://dc.lft.to/lastmile_qr_scan"}, "fusion_lon": 0.0, "lon": -77.03329833333333, "name": "df9fd4b3f8fefb48fa93018592ebd920", "is_reserved": 0, "is_disabled": 0}, {"lat": 38.83814016666667, "fusion_lat": 0.0, "type": "electric_bike", "bike_id": "27d5c77bc9fcab168a98fb9220389ec2", "rental_uris": {"ios": "https://dc.lft.to/lastmile_qr_scan", "android": "https://dc.lft.to/lastmile_qr_scan"}, "fusion_lon": 0.0, "lon": -77.09522283333334, "name": "27d5c77bc9fcab168a98fb9220389ec2", "is_reserved": 0, "is_disabled": 0}, {"lat": 38.908303, "fusion_lat": 0.0, "type": "electric_scooter", "bike_id": "d1bb10249f9cc5b70d6e2d10da82b591", "rental_uris": {"ios": "https://dc.lft.to/lastmile_qr_scan", "android": "https://dc.lft.to/lastmile_qr_scan"}, "fusion_lon": 0.0, "lon": -77.07300133333334, "name": "d1bb10249f9cc5b70d6e2d10da82b591", "is_reserved": 0, "is_disabled": 0}, {"lat": 38.920141, "fusion_lat": 0.0, "type": "electric_scooter", "bike_id": "35147076176a553beb4c863c79777d64", "rental_uris": {"ios": "https://dc.lft.to/lastmile_qr_scan", "android": "https://dc.lft.to/lastmile_qr_scan"}, "fusion_lon": 0.0, "lon": -77.02183433333333, "name": "35147076176a553beb4c863c79777d64", "is_reserved": 0, "is_disabled": 0}, {"lat": 38.909712999999996, "fusion_lat": 0.0, "type": "electric_scooter", "bike_id": "b29b231bc935f8b399fe83213fc279d9", "rental_uris": {"ios": "https://dc.lft.to/lastmile_qr_scan", "android": "https://dc.lft.to/lastmile_qr_scan"}, "fusion_lon": 0.0, "lon": -77.0381205, "name": "b29b231bc935f8b399fe83213fc279d9", "is_reserved": 0, "is_disabled": 0}, {"lat": 38.91171466666667, "fusion_lat": 0.0, "type": "electric_scooter", "bike_id": "c7bbdc160dd5d81c150c1c286cdd45b7", "rental_uris": {"ios": "https://dc.lft.to/lastmile_qr_scan", "android": "https://dc.lft.to/lastmile_qr_scan"}, "fusion_lon": 0.0, "lon": -77.03185233333333, "name": "c7bbdc160dd5d81c150c1c286cdd45b7", "is_reserved": 0, "is_disabled": 0}, {"lat": 38.97885383333333, "fusion_lat": 0.0, "type": "electric_bike", "bike_id": "c5e803e254d5087726f5c815a67557c6", "rental_uris": {"ios": "https://dc.lft.to/lastmile_qr_scan", "android": "https://dc.lft.to/lastmile_qr_scan"}, "fusion_lon": 0.0, "lon": -77.06031666666667, "name": "c5e803e254d5087726f5c815a67557c6", "is_reserved": 0, "is_disabled": 0}, {"lat": 38.930433666666666, "fusion_lat": 0.0, "type": "electric_scooter", "bike_id": "68ce264022f17aca3f65bc5b5d435b48", "rental_uris": {"ios": "https://dc.lft.to/lastmile_qr_scan", "android": "https://dc.lft.to/lastmile_qr_scan"}, "fusion_lon": 0.0, "lon": -77.07302333333334, "name": "68ce264022f17aca3f65bc5b5d435b48", "is_reserved": 0, "is_disabled": 0}, {"lat": 38.89605383333333, "fusion_lat": 0.0, "type": "electric_scooter", "bike_id": "6713e219135f80e5fb062e4148c7ce3d", "rental_uris": {"ios": "https://dc.lft.to/lastmile_qr_scan", "android": "https://dc.lft.to/lastmile_qr_scan"}, "fusion_lon": 0.0, "lon": -77.00899083333333, "name": "6713e219135f80e5fb062e4148c7ce3d", "is_reserved": 0, "is_disabled": 0}, {"lat": 38.89603966666667, "fusion_lat": 0.0, "type": "electric_scooter", "bike_id": "c37a62f454e90ed4c6712947b17d38d5", "rental_uris": {"ios": "https://dc.lft.to/lastmile_qr_scan", "android": "https://dc.lft.to/lastmile_qr_scan"}, "fusion_lon": 0.0, "lon": -77.0219865, "name": "c37a62f454e90ed4c6712947b17d38d5", "is_reserved": 0, "is_disabled": 0}, {"lat": 38.924843, "fusion_lat": 0.0, "type": "electric_scooter", "bike_id": "969994a09a17035ef13f6f17765150f6", "rental_uris": {"ios": "https://dc.lft.to/lastmile_qr_scan", "android": "https://dc.lft.to/lastmile_qr_scan"}, "fusion_lon": 0.0, "lon": -77.02271316666666, "name": "969994a09a17035ef13f6f17765150f6", "is_reserved": 0, "is_disabled": 0}, {"lat": 38.923929333333334, "fusion_lat": 0.0, "type": "electric_scooter", "bike_id": "cd69267d7b4d1400aaae35de5ab0c9e7", "rental_uris": {"ios": "https://dc.lft.to/lastmile_qr_scan", "android": "https://dc.lft.to/lastmile_qr_scan"}, "fusion_lon": 0.0, "lon": -77.05058533333333, "name": "cd69267d7b4d1400aaae35de5ab0c9e7", "is_reserved": 0, "is_disabled": 0}, {"lat": 38.898440666666666, "fusion_lat": 0.0, "type": "electric_scooter", "bike_id": "50025f379d9ea0f5719a56609ffd3bfd", "rental_uris": {"ios": "https://dc.lft.to/lastmile_qr_scan", "android": "https://dc.lft.to/lastmile_qr_scan"}, "fusion_lon": 0.0, "lon": -77.007491, "name": "50025f379d9ea0f5719a56609ffd3bfd", "is_reserved": 0, "is_disabled": 0}, {"lat": 38.948036, "fusion_lat": 0.0, "type": "electric_bike", "bike_id": "d7e3bf3c4257a2366db282602023cfd0", "rental_uris": {"ios": "https://dc.lft.to/lastmile_qr_scan", "android": "https://dc.lft.to/lastmile_qr_scan"}, "fusion_lon": 0.0, "lon": -76.959698, "name": "d7e3bf3c4257a2366db282602023cfd0", "is_reserved": 0, "is_disabled": 0}, {"lat": 38.9053955, "fusion_lat": 0.0, "type": "electric_scooter", "bike_id": "3841777b110c243a9217052927a2b330", "rental_uris": {"ios": "https://dc.lft.to/lastmile_qr_scan", "android": "https://dc.lft.to/lastmile_qr_scan"}, "fusion_lon": 0.0, "lon": -77.05022383333333, "name": "3841777b110c243a9217052927a2b330", "is_reserved": 0, "is_disabled": 0}, {"lat": 38.90432466666667, "fusion_lat": 0.0, "type": "electric_scooter", "bike_id": "1b1ae9ce13b824645777e188eae3c7b2", "rental_uris": {"ios": "https://dc.lft.to/lastmile_qr_scan", "android": "https://dc.lft.to/lastmile_qr_scan"}, "fusion_lon": 0.0, "lon": -77.04356966666667, "name": "1b1ae9ce13b824645777e188eae3c7b2", "is_reserved": 0, "is_disabled": 0}, {"lat": 38.92541283333333, "fusion_lat": 0.0, "type": "electric_scooter", "bike_id": "62da535a1386ea00ef1112dbb1fff4cd", "rental_uris": {"ios": "https://dc.lft.to/lastmile_qr_scan", "android": "https://dc.lft.to/lastmile_qr_scan"}, "fusion_lon": 0.0, "lon": -77.04123816666667, "name": "62da535a1386ea00ef1112dbb1fff4cd", "is_reserved": 0, "is_disabled": 0}, {"lat": 38.892200333333335, "fusion_lat": 0.0, "type": "electric_scooter", "bike_id": "5524893ec5ddc479985777d1b1be2240", "rental_uris": {"ios": "https://dc.lft.to/lastmile_qr_scan", "android": "https://dc.lft.to/lastmile_qr_scan"}, "fusion_lon": 0.0, "lon": -77.04473916666667, "name": "5524893ec5ddc479985777d1b1be2240", "is_reserved": 0, "is_disabled": 0}, {"lat": 38.914877833333335, "fusion_lat": 0.0, "type": "electric_scooter", "bike_id": "5b18da4c76a890a69fd076520dc1fb51", "rental_uris": {"ios": "https://dc.lft.to/lastmile_qr_scan", "android": "https://dc.lft.to/lastmile_qr_scan"}, "fusion_lon": 0.0, "lon": -77.04091466666667, "name": "5b18da4c76a890a69fd076520dc1fb51", "is_reserved": 0, "is_disabled": 0}, {"lat": 38.90632633333333, "fusion_lat": 0.0, "type": "electric_scooter", "bike_id": "6cee5b62dd45e57cb1ac732f468f5831", "rental_uris": {"ios": "https://dc.lft.to/lastmile_qr_scan", "android": "https://dc.lft.to/lastmile_qr_scan"}, "fusion_lon": 0.0, "lon": -77.0057785, "name": "6cee5b62dd45e57cb1ac732f468f5831", "is_reserved": 0, "is_disabled": 0}, {"lat": 38.93929, "fusion_lat": 0.0, "type": "electric_scooter", "bike_id": "3e7a6d208736efe7720f271741b9caac", "rental_uris": {"ios": "https://dc.lft.to/lastmile_qr_scan", "android": "https://dc.lft.to/lastmile_qr_scan"}, "fusion_lon": 0.0, "lon": -77.02571566666667, "name": "3e7a6d208736efe7720f271741b9caac", "is_reserved": 0, "is_disabled": 0}, {"lat": 38.8626515, "fusion_lat": 0.0, "type": "electric_scooter", "bike_id": "416d6128c251d3a431066e0b49cffa3c", "rental_uris": {"ios": "https://dc.lft.to/lastmile_qr_scan", "android": "https://dc.lft.to/lastmile_qr_scan"}, "fusion_lon": 0.0, "lon": -76.9953565, "name": "416d6128c251d3a431066e0b49cffa3c", "is_reserved": 0, "is_disabled": 0}, {"lat": 38.95631433333333, "fusion_lat": 0.0, "type": "electric_scooter", "bike_id": "a28fa08d16e35a59548b8c4bffad6025", "rental_uris": {"ios": "https://dc.lft.to/lastmile_qr_scan", "android": "https://dc.lft.to/lastmile_qr_scan"}, "fusion_lon": 0.0, "lon": -77.033124, "name": "a28fa08d16e35a59548b8c4bffad6025", "is_reserved": 0, "is_disabled": 0}, {"lat": 38.91911433333333, "fusion_lat": 0.0, "type": "electric_scooter", "bike_id": "df27cfac6c7b4c376a1763a25db9dc47", "rental_uris": {"ios": "https://dc.lft.to/lastmile_qr_scan", "android": "https://dc.lft.to/lastmile_qr_scan"}, "fusion_lon": 0.0, "lon": -77.03942633333334, "name": "df27cfac6c7b4c376a1763a25db9dc47", "is_reserved": 0, "is_disabled": 0}, {"lat": 38.93703383333333, "fusion_lat": 0.0, "type": "electric_scooter", "bike_id": "812e6116f74ecb2b17e7358e1ab51eb9", "rental_uris": {"ios": "https://dc.lft.to/lastmile_qr_scan", "android": "https://dc.lft.to/lastmile_qr_scan"}, "fusion_lon": 0.0, "lon": -77.03287516666667, "name": "812e6116f74ecb2b17e7358e1ab51eb9", "is_reserved": 0, "is_disabled": 0}, {"lat": 38.916987666666664, "fusion_lat": 0.0, "type": "electric_scooter", "bike_id": "e9de13e5523439bef3a8df8509b370e8", "rental_uris": {"ios": "https://dc.lft.to/lastmile_qr_scan", "android": "https://dc.lft.to/lastmile_qr_scan"}, "fusion_lon": 0.0, "lon": -77.02872183333334, "name": "e9de13e5523439bef3a8df8509b370e8", "is_reserved": 0, "is_disabled": 0}, {"lat": 38.96079066666667, "fusion_lat": 0.0, "type": "electric_scooter", "bike_id": "7c5d7541d40634cc7307840ab2e2a337", "rental_uris": {"ios": "https://dc.lft.to/lastmile_qr_scan", "android": "https://dc.lft.to/lastmile_qr_scan"}, "fusion_lon": 0.0, "lon": -77.0288835, "name": "7c5d7541d40634cc7307840ab2e2a337", "is_reserved": 0, "is_disabled": 0}, {"lat": 38.916536666666666, "fusion_lat": 0.0, "type": "electric_scooter", "bike_id": "770121acbaeaa68e9cc6bd71d8a76710", "rental_uris": {"ios": "https://dc.lft.to/lastmile_qr_scan", "android": "https://dc.lft.to/lastmile_qr_scan"}, "fusion_lon": 0.0, "lon": -77.04171816666667, "name": "770121acbaeaa68e9cc6bd71d8a76710", "is_reserved": 0, "is_disabled": 0}, {"lat": 38.8921775, "fusion_lat": 0.0, "type": "electric_scooter", "bike_id": "691e7781c2a6204db4330878f332d2f2", "rental_uris": {"ios": "https://dc.lft.to/lastmile_qr_scan", "android": "https://dc.lft.to/lastmile_qr_scan"}, "fusion_lon": 0.0, "lon": -77.02631633333333, "name": "691e7781c2a6204db4330878f332d2f2", "is_reserved": 0, "is_disabled": 0}, {"lat": 38.9225755, "fusion_lat": 0.0, "type": "electric_scooter", "bike_id": "9dade22e01decab2387cf87ac9cf495d", "rental_uris": {"ios": "https://dc.lft.to/lastmile_qr_scan", "android": "https://dc.lft.to/lastmile_qr_scan"}, "fusion_lon": 0.0, "lon": -77.02106316666666, "name": "9dade22e01decab2387cf87ac9cf495d", "is_reserved": 0, "is_disabled": 0}, {"lat": 38.90311416666667, "fusion_lat": 0.0, "type": "electric_scooter", "bike_id": "acb897019761585f9adb9ae92a34b703", "rental_uris": {"ios": "https://dc.lft.to/lastmile_qr_scan", "android": "https://dc.lft.to/lastmile_qr_scan"}, "fusion_lon": 0.0, "lon": -76.97798716666667, "name": "acb897019761585f9adb9ae92a34b703", "is_reserved": 0, "is_disabled": 0}, {"lat": 38.8876755, "fusion_lat": 0.0, "type": "electric_scooter", "bike_id": "911a2d96982f7e1bbdb69aac17feb188", "rental_uris": {"ios": "https://dc.lft.to/lastmile_qr_scan", "android": "https://dc.lft.to/lastmile_qr_scan"}, "fusion_lon": 0.0, "lon": -77.02238133333333, "name": "911a2d96982f7e1bbdb69aac17feb188", "is_reserved": 0, "is_disabled": 0}, {"lat": 38.896075333333336, "fusion_lat": 0.0, "type": "electric_scooter", "bike_id": "947b4e3765697e99b6d66d1281437ff5", "rental_uris": {"ios": "https://dc.lft.to/lastmile_qr_scan", "android": "https://dc.lft.to/lastmile_qr_scan"}, "fusion_lon": 0.0, "lon": -77.00219566666667, "name": "947b4e3765697e99b6d66d1281437ff5", "is_reserved": 0, "is_disabled": 0}, {"lat": 38.8721955, "fusion_lat": 0.0, "type": "electric_scooter", "bike_id": "43264fd159d0bc938ec1683263206a7f", "rental_uris": {"ios": "https://dc.lft.to/lastmile_qr_scan", "android": "https://dc.lft.to/lastmile_qr_scan"}, "fusion_lon": 0.0, "lon": -77.0122695, "name": "43264fd159d0bc938ec1683263206a7f", "is_reserved": 0, "is_disabled": 0}, {"lat": 38.9249725, "fusion_lat": 0.0, "type": "electric_scooter", "bike_id": "1792a9d524341d99962565704ba96b8b", "rental_uris": {"ios": "https://dc.lft.to/lastmile_qr_scan", "android": "https://dc.lft.to/lastmile_qr_scan"}, "fusion_lon": 0.0, "lon": -77.02400783333333, "name": "1792a9d524341d99962565704ba96b8b", "is_reserved": 0, "is_disabled": 0}, {"lat": 38.950840666666664, "fusion_lat": 0.0, "type": "electric_scooter", "bike_id": "8d7182da2285a68e28449949c19ff128", "rental_uris": {"ios": "https://dc.lft.to/lastmile_qr_scan", "android": "https://dc.lft.to/lastmile_qr_scan"}, "fusion_lon": 0.0, "lon": -77.03154616666667, "name": "8d7182da2285a68e28449949c19ff128", "is_reserved": 0, "is_disabled": 0}, {"lat": 38.903917666666665, "fusion_lat": 0.0, "type": "electric_scooter", "bike_id": "ef39b1a46d20f9e7aec77f3b15d9f3b2", "rental_uris": {"ios": "https://dc.lft.to/lastmile_qr_scan", "android": "https://dc.lft.to/lastmile_qr_scan"}, "fusion_lon": 0.0, "lon": -77.06803933333333, "name": "ef39b1a46d20f9e7aec77f3b15d9f3b2", "is_reserved": 0, "is_disabled": 0}, {"lat": 38.9225195, "fusion_lat": 0.0, "type": "electric_scooter", "bike_id": "4c47e60fbc86fb0eca121e43f16e2bb5", "rental_uris": {"ios": "https://dc.lft.to/lastmile_qr_scan", "android": "https://dc.lft.to/lastmile_qr_scan"}, "fusion_lon": 0.0, "lon": -77.0191325, "name": "4c47e60fbc86fb0eca121e43f16e2bb5", "is_reserved": 0, "is_disabled": 0}, {"lat": 38.89659183333333, "fusion_lat": 0.0, "type": "electric_bike", "bike_id": "1b44bf59981f54326ae1750e479a404b", "rental_uris": {"ios": "https://dc.lft.to/lastmile_qr_scan", "android": "https://dc.lft.to/lastmile_qr_scan"}, "fusion_lon": 0.0, "lon": -77.00597633333334, "name": "1b44bf59981f54326ae1750e479a404b", "is_reserved": 0, "is_disabled": 0}, {"lat": 38.924460833333335, "fusion_lat": 0.0, "type": "electric_scooter", "bike_id": "2589cb08b2605d3c8c2bf51ce9abfcb8", "rental_uris": {"ios": "https://dc.lft.to/lastmile_qr_scan", "android": "https://dc.lft.to/lastmile_qr_scan"}, "fusion_lon": 0.0, "lon": -77.02147633333334, "name": "2589cb08b2605d3c8c2bf51ce9abfcb8", "is_reserved": 0, "is_disabled": 0}, {"lat": 38.904405833333335, "fusion_lat": 0.0, "type": "electric_scooter", "bike_id": "367d3bae8a55cffc9e22af67cb815a81", "rental_uris": {"ios": "https://dc.lft.to/lastmile_qr_scan", "android": "https://dc.lft.to/lastmile_qr_scan"}, "fusion_lon": 0.0, "lon": -77.05849933333333, "name": "367d3bae8a55cffc9e22af67cb815a81", "is_reserved": 0, "is_disabled": 0}, {"lat": 38.915699833333335, "fusion_lat": 0.0, "type": "electric_scooter", "bike_id": "0aa5784de427e54371d61f0d4c5edd7e", "rental_uris": {"ios": "https://dc.lft.to/lastmile_qr_scan", "android": "https://dc.lft.to/lastmile_qr_scan"}, "fusion_lon": 0.0, "lon": -77.0319255, "name": "0aa5784de427e54371d61f0d4c5edd7e", "is_reserved": 0, "is_disabled": 0}, {"lat": 38.91920566666667, "fusion_lat": 0.0, "type": "electric_scooter", "bike_id": "f37a0445cd2bd7cd61ce8721e28da51d", "rental_uris": {"ios": "https://dc.lft.to/lastmile_qr_scan", "android": "https://dc.lft.to/lastmile_qr_scan"}, "fusion_lon": 0.0, "lon": -77.0343355, "name": "f37a0445cd2bd7cd61ce8721e28da51d", "is_reserved": 0, "is_disabled": 0}, {"lat": 38.8771705, "fusion_lat": 0.0, "type": "electric_scooter", "bike_id": "2154f0bb268ac1867ffac5d7a57ba424", "rental_uris": {"ios": "https://dc.lft.to/lastmile_qr_scan", "android": "https://dc.lft.to/lastmile_qr_scan"}, "fusion_lon": 0.0, "lon": -76.99700983333334, "name": "2154f0bb268ac1867ffac5d7a57ba424", "is_reserved": 0, "is_disabled": 0}, {"lat": 38.9202865, "fusion_lat": 0.0, "type": "electric_scooter", "bike_id": "3918e195fe65ebdc00157e28951dd678", "rental_uris": {"ios": "https://dc.lft.to/lastmile_qr_scan", "android": "https://dc.lft.to/lastmile_qr_scan"}, "fusion_lon": 0.0, "lon": -77.0714905, "name": "3918e195fe65ebdc00157e28951dd678", "is_reserved": 0, "is_disabled": 0}, {"lat": 38.9169305, "fusion_lat": 0.0, "type": "electric_scooter", "bike_id": "052a7b9e895a3beaa6c1691826611df2", "rental_uris": {"ios": "https://dc.lft.to/lastmile_qr_scan", "android": "https://dc.lft.to/lastmile_qr_scan"}, "fusion_lon": 0.0, "lon": -77.0299405, "name": "052a7b9e895a3beaa6c1691826611df2", "is_reserved": 0, "is_disabled": 0}, {"lat": 38.8960965, "fusion_lat": 0.0, "type": "electric_scooter", "bike_id": "c11ed989443cf66325a59b649e06dcfa", "rental_uris": {"ios": "https://dc.lft.to/lastmile_qr_scan", "android": "https://dc.lft.to/lastmile_qr_scan"}, "fusion_lon": 0.0, "lon": -77.009277, "name": "c11ed989443cf66325a59b649e06dcfa", "is_reserved": 0, "is_disabled": 0}, {"lat": 38.922405833333336, "fusion_lat": 0.0, "type": "electric_scooter", "bike_id": "2a09002fd7d0932e6e61cbdb04dcdfdf", "rental_uris": {"ios": "https://dc.lft.to/lastmile_qr_scan", "android": "https://dc.lft.to/lastmile_qr_scan"}, "fusion_lon": 0.0, "lon": -77.0731415, "name": "2a09002fd7d0932e6e61cbdb04dcdfdf", "is_reserved": 0, "is_disabled": 0}, {"lat": 38.927721, "fusion_lat": 0.0, "type": "electric_scooter", "bike_id": "ac4e8c3cb3951eee12233688519e9182", "rental_uris": {"ios": "https://dc.lft.to/lastmile_qr_scan", "android": "https://dc.lft.to/lastmile_qr_scan"}, "fusion_lon": 0.0, "lon": -77.03266433333333, "name": "ac4e8c3cb3951eee12233688519e9182", "is_reserved": 0, "is_disabled": 0}, {"lat": 38.8922265, "fusion_lat": 0.0, "type": "electric_scooter", "bike_id": "21a3232270f866a307666fded6045b56", "rental_uris": {"ios": "https://dc.lft.to/lastmile_qr_scan", "android": "https://dc.lft.to/lastmile_qr_scan"}, "fusion_lon": 0.0, "lon": -77.02787933333333, "name": "21a3232270f866a307666fded6045b56", "is_reserved": 0, "is_disabled": 0}, {"lat": 38.9021735, "fusion_lat": 0.0, "type": "electric_scooter", "bike_id": "394322913e2e90e3f5c70b513c58b34a", "rental_uris": {"ios": "https://dc.lft.to/lastmile_qr_scan", "android": "https://dc.lft.to/lastmile_qr_scan"}, "fusion_lon": 0.0, "lon": -77.02375, "name": "394322913e2e90e3f5c70b513c58b34a", "is_reserved": 0, "is_disabled": 0}, {"lat": 38.92872216666667, "fusion_lat": 0.0, "type": "electric_scooter", "bike_id": "0f97a37dee39c2d05ce15c215b1806ee", "rental_uris": {"ios": "https://dc.lft.to/lastmile_qr_scan", "android": "https://dc.lft.to/lastmile_qr_scan"}, "fusion_lon": 0.0, "lon": -77.032885, "name": "0f97a37dee39c2d05ce15c215b1806ee", "is_reserved": 0, "is_disabled": 0}, {"lat": 38.88729333333333, "fusion_lat": 0.0, "type": "electric_scooter", "bike_id": "3f8dbcb633dab3051f356c5cb8a5c331", "rental_uris": {"ios": "https://dc.lft.to/lastmile_qr_scan", "android": "https://dc.lft.to/lastmile_qr_scan"}, "fusion_lon": 0.0, "lon": -77.02382783333333, "name": "3f8dbcb633dab3051f356c5cb8a5c331", "is_reserved": 0, "is_disabled": 0}, {"lat": 38.9005685, "fusion_lat": 0.0, "type": "electric_scooter", "bike_id": "003554556e3106aa4e60a80b8f8b6226", "rental_uris": {"ios": "https://dc.lft.to/lastmile_qr_scan", "android": "https://dc.lft.to/lastmile_qr_scan"}, "fusion_lon": 0.0, "lon": -77.02202166666666, "name": "003554556e3106aa4e60a80b8f8b6226", "is_reserved": 0, "is_disabled": 0}, {"lat": 38.95675816666667, "fusion_lat": 0.0, "type": "electric_scooter", "bike_id": "5a2aece41dcc8f518555f921423ecde3", "rental_uris": {"ios": "https://dc.lft.to/lastmile_qr_scan", "android": "https://dc.lft.to/lastmile_qr_scan"}, "fusion_lon": 0.0, "lon": -77.0136085, "name": "5a2aece41dcc8f518555f921423ecde3", "is_reserved": 0, "is_disabled": 0}, {"lat": 38.917985333333334, "fusion_lat": 0.0, "type": "electric_scooter", "bike_id": "4153bcf7002254636e1cdbd48fa5653d", "rental_uris": {"ios": "https://dc.lft.to/lastmile_qr_scan", "android": "https://dc.lft.to/lastmile_qr_scan"}, "fusion_lon": 0.0, "lon": -77.02708516666667, "name": "4153bcf7002254636e1cdbd48fa5653d", "is_reserved": 0, "is_disabled": 0}, {"lat": 38.956538, "fusion_lat": 0.0, "type": "electric_scooter", "bike_id": "c5f0425e7bc6dc6f885c53e9bf935a7e", "rental_uris": {"ios": "https://dc.lft.to/lastmile_qr_scan", "android": "https://dc.lft.to/lastmile_qr_scan"}, "fusion_lon": 0.0, "lon": -77.01965083333333, "name": "c5f0425e7bc6dc6f885c53e9bf935a7e", "is_reserved": 0, "is_disabled": 0}, {"lat": 38.897861166666665, "fusion_lat": 0.0, "type": "electric_scooter", "bike_id": "2c04f0fd09ba44c5eeeb346c984a174c", "rental_uris": {"ios": "https://dc.lft.to/lastmile_qr_scan", "android": "https://dc.lft.to/lastmile_qr_scan"}, "fusion_lon": 0.0, "lon": -77.05490666666667, "name": "2c04f0fd09ba44c5eeeb346c984a174c", "is_reserved": 0, "is_disabled": 0}, {"lat": 38.91076266666666, "fusion_lat": 0.0, "type": "electric_scooter", "bike_id": "55c454acc1fe95cbb61cda2565f5d41a", "rental_uris": {"ios": "https://dc.lft.to/lastmile_qr_scan", "android": "https://dc.lft.to/lastmile_qr_scan"}, "fusion_lon": 0.0, "lon": -77.0272825, "name": "55c454acc1fe95cbb61cda2565f5d41a", "is_reserved": 0, "is_disabled": 0}, {"lat": 38.92328966666667, "fusion_lat": 0.0, "type": "electric_scooter", "bike_id": "5c0c7efacc69aa7bb2318592a55b0f0a", "rental_uris": {"ios": "https://dc.lft.to/lastmile_qr_scan", "android": "https://dc.lft.to/lastmile_qr_scan"}, "fusion_lon": 0.0, "lon": -77.03580533333333, "name": "5c0c7efacc69aa7bb2318592a55b0f0a", "is_reserved": 0, "is_disabled": 0}, {"lat": 38.912519333333336, "fusion_lat": 0.0, "type": "electric_scooter", "bike_id": "c544fd7b9cccd4c91ed2a21685da03c9", "rental_uris": {"ios": "https://dc.lft.to/lastmile_qr_scan", "android": "https://dc.lft.to/lastmile_qr_scan"}, "fusion_lon": 0.0, "lon": -77.03804616666666, "name": "c544fd7b9cccd4c91ed2a21685da03c9", "is_reserved": 0, "is_disabled": 0}, {"lat": 38.91817283333334, "fusion_lat": 0.0, "type": "electric_scooter", "bike_id": "5ca259191ad4e9cda175e07e1964aac4", "rental_uris": {"ios": "https://dc.lft.to/lastmile_qr_scan", "android": "https://dc.lft.to/lastmile_qr_scan"}, "fusion_lon": 0.0, "lon": -77.04175166666667, "name": "5ca259191ad4e9cda175e07e1964aac4", "is_reserved": 0, "is_disabled": 0}, {"lat": 38.83105033333333, "fusion_lat": 0.0, "type": "electric_bike", "bike_id": "e932fcfef6109ceabfa3d9a2483f7b30", "rental_uris": {"ios": "https://dc.lft.to/lastmile_qr_scan", "android": "https://dc.lft.to/lastmile_qr_scan"}, "fusion_lon": 0.0, "lon": -77.11284066666667, "name": "e932fcfef6109ceabfa3d9a2483f7b30", "is_reserved": 0, "is_disabled": 0}, {"lat": 38.90392816666667, "fusion_lat": 0.0, "type": "electric_scooter", "bike_id": "59150d6bcc8d786d8bd0a83aa4295364", "rental_uris": {"ios": "https://dc.lft.to/lastmile_qr_scan", "android": "https://dc.lft.to/lastmile_qr_scan"}, "fusion_lon": 0.0, "lon": -77.0205295, "name": "59150d6bcc8d786d8bd0a83aa4295364", "is_reserved": 0, "is_disabled": 0}, {"lat": 38.897422666666664, "fusion_lat": 0.0, "type": "electric_scooter", "bike_id": "3ee830763ce3034dbe5c933496e9a5b9", "rental_uris": {"ios": "https://dc.lft.to/lastmile_qr_scan", "android": "https://dc.lft.to/lastmile_qr_scan"}, "fusion_lon": 0.0, "lon": -77.00139166666666, "name": "3ee830763ce3034dbe5c933496e9a5b9", "is_reserved": 0, "is_disabled": 0}, {"lat": 38.92880983333333, "fusion_lat": 0.0, "type": "electric_scooter", "bike_id": "600e6c52fc3f50ef737e6ceb5c782d8b", "rental_uris": {"ios": "https://dc.lft.to/lastmile_qr_scan", "android": "https://dc.lft.to/lastmile_qr_scan"}, "fusion_lon": 0.0, "lon": -77.0323145, "name": "600e6c52fc3f50ef737e6ceb5c782d8b", "is_reserved": 0, "is_disabled": 0}, {"lat": 38.906727, "fusion_lat": 0.0, "type": "electric_scooter", "bike_id": "8577945765e5ce06f049339a9c3efd32", "rental_uris": {"ios": "https://dc.lft.to/lastmile_qr_scan", "android": "https://dc.lft.to/lastmile_qr_scan"}, "fusion_lon": 0.0, "lon": -77.027094, "name": "8577945765e5ce06f049339a9c3efd32", "is_reserved": 0, "is_disabled": 0}, {"lat": 38.91557566666667, "fusion_lat": 0.0, "type": "electric_scooter", "bike_id": "3e72f0dcd645f484df8033b2d61db7fa", "rental_uris": {"ios": "https://dc.lft.to/lastmile_qr_scan", "android": "https://dc.lft.to/lastmile_qr_scan"}, "fusion_lon": 0.0, "lon": -77.031753, "name": "3e72f0dcd645f484df8033b2d61db7fa", "is_reserved": 0, "is_disabled": 0}, {"lat": 38.92898183333333, "fusion_lat": 0.0, "type": "electric_scooter", "bike_id": "68ef778953fe39eb5582042532999589", "rental_uris": {"ios": "https://dc.lft.to/lastmile_qr_scan", "android": "https://dc.lft.to/lastmile_qr_scan"}, "fusion_lon": 0.0, "lon": -77.05809666666667, "name": "68ef778953fe39eb5582042532999589", "is_reserved": 0, "is_disabled": 0}, {"lat": 38.874531833333336, "fusion_lat": 0.0, "type": "electric_scooter", "bike_id": "e961a03e4bc8be943d22e8907f1aea4d", "rental_uris": {"ios": "https://dc.lft.to/lastmile_qr_scan", "android": "https://dc.lft.to/lastmile_qr_scan"}, "fusion_lon": 0.0, "lon": -77.00127216666667, "name": "e961a03e4bc8be943d22e8907f1aea4d", "is_reserved": 0, "is_disabled": 0}, {"lat": 38.92523633333333, "fusion_lat": 0.0, "type": "electric_scooter", "bike_id": "b4965dded7ba20c6accc46956f696838", "rental_uris": {"ios": "https://dc.lft.to/lastmile_qr_scan", "android": "https://dc.lft.to/lastmile_qr_scan"}, "fusion_lon": 0.0, "lon": -77.02131833333334, "name": "b4965dded7ba20c6accc46956f696838", "is_reserved": 0, "is_disabled": 0}, {"lat": 38.909158, "fusion_lat": 0.0, "type": "electric_scooter", "bike_id": "641d19d51aad98595a936eefce1ab9fc", "rental_uris": {"ios": "https://dc.lft.to/lastmile_qr_scan", "android": "https://dc.lft.to/lastmile_qr_scan"}, "fusion_lon": 0.0, "lon": -77.03858833333334, "name": "641d19d51aad98595a936eefce1ab9fc", "is_reserved": 0, "is_disabled": 0}, {"lat": 38.924629833333334, "fusion_lat": 0.0, "type": "electric_scooter", "bike_id": "55c63e2d72d44cd1c35e95fcd0f1304d", "rental_uris": {"ios": "https://dc.lft.to/lastmile_qr_scan", "android": "https://dc.lft.to/lastmile_qr_scan"}, "fusion_lon": 0.0, "lon": -77.022468, "name": "55c63e2d72d44cd1c35e95fcd0f1304d", "is_reserved": 0, "is_disabled": 0}, {"lat": 38.835168, "fusion_lat": 0.0, "type": "electric_bike", "bike_id": "c2613f6038057db28bdc7d2ff757f589", "rental_uris": {"ios": "https://dc.lft.to/lastmile_qr_scan", "android": "https://dc.lft.to/lastmile_qr_scan"}, "fusion_lon": 0.0, "lon": -76.98672516666667, "name": "c2613f6038057db28bdc7d2ff757f589", "is_reserved": 0, "is_disabled": 0}, {"lat": 38.806433166666665, "fusion_lat": 0.0, "type": "electric_bike", "bike_id": "10e1e4e0ad0f419774f8a34290a11074", "rental_uris": {"ios": "https://dc.lft.to/lastmile_qr_scan", "android": "https://dc.lft.to/lastmile_qr_scan"}, "fusion_lon": 0.0, "lon": -77.06254083333333, "name": "10e1e4e0ad0f419774f8a34290a11074", "is_reserved": 0, "is_disabled": 0}, {"lat": 38.90969033333333, "fusion_lat": 0.0, "type": "electric_scooter", "bike_id": "def1c432bf80df433bf44fe15e21a3aa", "rental_uris": {"ios": "https://dc.lft.to/lastmile_qr_scan", "android": "https://dc.lft.to/lastmile_qr_scan"}, "fusion_lon": 0.0, "lon": -77.0386795, "name": "def1c432bf80df433bf44fe15e21a3aa", "is_reserved": 0, "is_disabled": 0}, {"lat": 38.93407533333333, "fusion_lat": 0.0, "type": "electric_scooter", "bike_id": "a43a1a498e878f9e1591033099c46e10", "rental_uris": {"ios": "https://dc.lft.to/lastmile_qr_scan", "android": "https://dc.lft.to/lastmile_qr_scan"}, "fusion_lon": 0.0, "lon": -77.01979883333334, "name": "a43a1a498e878f9e1591033099c46e10", "is_reserved": 0, "is_disabled": 0}, {"lat": 38.9141215, "fusion_lat": 0.0, "type": "electric_scooter", "bike_id": "2f79d50b5e8670ce2303043f55360cce", "rental_uris": {"ios": "https://dc.lft.to/lastmile_qr_scan", "android": "https://dc.lft.to/lastmile_qr_scan"}, "fusion_lon": 0.0, "lon": -77.031714, "name": "2f79d50b5e8670ce2303043f55360cce", "is_reserved": 0, "is_disabled": 0}, {"lat": 38.88997233333333, "fusion_lat": 0.0, "type": "electric_scooter", "bike_id": "c2c4b92145e0f31e446a0b3e0b76e124", "rental_uris": {"ios": "https://dc.lft.to/lastmile_qr_scan", "android": "https://dc.lft.to/lastmile_qr_scan"}, "fusion_lon": 0.0, "lon": -76.9543625, "name": "c2c4b92145e0f31e446a0b3e0b76e124", "is_reserved": 0, "is_disabled": 0}, {"lat": 38.936071166666665, "fusion_lat": 0.0, "type": "electric_scooter", "bike_id": "8a93aac534b3d00c161e8a34cce52a28", "rental_uris": {"ios": "https://dc.lft.to/lastmile_qr_scan", "android": "https://dc.lft.to/lastmile_qr_scan"}, "fusion_lon": 0.0, "lon": -77.0378815, "name": "8a93aac534b3d00c161e8a34cce52a28", "is_reserved": 0, "is_disabled": 0}, {"lat": 38.916894166666665, "fusion_lat": 0.0, "type": "electric_scooter", "bike_id": "154143b757f2ac2775bb33c0701dda6e", "rental_uris": {"ios": "https://dc.lft.to/lastmile_qr_scan", "android": "https://dc.lft.to/lastmile_qr_scan"}, "fusion_lon": 0.0, "lon": -77.00922266666667, "name": "154143b757f2ac2775bb33c0701dda6e", "is_reserved": 0, "is_disabled": 0}, {"lat": 38.9002555, "fusion_lat": 0.0, "type": "electric_bike", "bike_id": "c4b8b028c9e3636183eeb67f034ae3e3", "rental_uris": {"ios": "https://dc.lft.to/lastmile_qr_scan", "android": "https://dc.lft.to/lastmile_qr_scan"}, "fusion_lon": 0.0, "lon": -76.99765833333333, "name": "c4b8b028c9e3636183eeb67f034ae3e3", "is_reserved": 0, "is_disabled": 0}, {"lat": 38.915508, "fusion_lat": 0.0, "type": "electric_scooter", "bike_id": "67c6a60e2de58f5328436e9e0992ac00", "rental_uris": {"ios": "https://dc.lft.to/lastmile_qr_scan", "android": "https://dc.lft.to/lastmile_qr_scan"}, "fusion_lon": 0.0, "lon": -77.03169983333333, "name": "67c6a60e2de58f5328436e9e0992ac00", "is_reserved": 0, "is_disabled": 0}, {"lat": 38.8874435, "fusion_lat": 0.0, "type": "electric_scooter", "bike_id": "6841b99e7cbaa984408f300e3c8a72f2", "rental_uris": {"ios": "https://dc.lft.to/lastmile_qr_scan", "android": "https://dc.lft.to/lastmile_qr_scan"}, "fusion_lon": 0.0, "lon": -77.01780133333334, "name": "6841b99e7cbaa984408f300e3c8a72f2", "is_reserved": 0, "is_disabled": 0}, {"lat": 38.91006183333333, "fusion_lat": 0.0, "type": "electric_scooter", "bike_id": "99d97ee7d324915bdae8588a197e3c22", "rental_uris": {"ios": "https://dc.lft.to/lastmile_qr_scan", "android": "https://dc.lft.to/lastmile_qr_scan"}, "fusion_lon": 0.0, "lon": -77.02103383333333, "name": "99d97ee7d324915bdae8588a197e3c22", "is_reserved": 0, "is_disabled": 0}, {"lat": 38.89480016666667, "fusion_lat": 0.0, "type": "electric_scooter", "bike_id": "0da804b88a42cf752afae9f377665488", "rental_uris": {"ios": "https://dc.lft.to/lastmile_qr_scan", "android": "https://dc.lft.to/lastmile_qr_scan"}, "fusion_lon": 0.0, "lon": -77.02739483333333, "name": "0da804b88a42cf752afae9f377665488", "is_reserved": 0, "is_disabled": 0}, {"lat": 38.94176483333333, "fusion_lat": 0.0, "type": "electric_scooter", "bike_id": "94d5c91c1ba0531201db1d83cbdc7d48", "rental_uris": {"ios": "https://dc.lft.to/lastmile_qr_scan", "android": "https://dc.lft.to/lastmile_qr_scan"}, "fusion_lon": 0.0, "lon": -77.027942, "name": "94d5c91c1ba0531201db1d83cbdc7d48", "is_reserved": 0, "is_disabled": 0}, {"lat": 38.96141216666667, "fusion_lat": 0.0, "type": "electric_scooter", "bike_id": "26178ff3a5e2b588ab4c4709a8ddd64b", "rental_uris": {"ios": "https://dc.lft.to/lastmile_qr_scan", "android": "https://dc.lft.to/lastmile_qr_scan"}, "fusion_lon": 0.0, "lon": -77.02782516666667, "name": "26178ff3a5e2b588ab4c4709a8ddd64b", "is_reserved": 0, "is_disabled": 0}, {"lat": 38.897293, "fusion_lat": 0.0, "type": "electric_scooter", "bike_id": "bcb4a7435e166e70b966785ab2509926", "rental_uris": {"ios": "https://dc.lft.to/lastmile_qr_scan", "android": "https://dc.lft.to/lastmile_qr_scan"}, "fusion_lon": 0.0, "lon": -77.049323, "name": "bcb4a7435e166e70b966785ab2509926", "is_reserved": 0, "is_disabled": 0}, {"lat": 38.9070185, "fusion_lat": 0.0, "type": "electric_scooter", "bike_id": "c56658f2c5fb6b87c8c3b5ef46767fa0", "rental_uris": {"ios": "https://dc.lft.to/lastmile_qr_scan", "android": "https://dc.lft.to/lastmile_qr_scan"}, "fusion_lon": 0.0, "lon": -76.98695416666666, "name": "c56658f2c5fb6b87c8c3b5ef46767fa0", "is_reserved": 0, "is_disabled": 0}, {"lat": 38.933425666666665, "fusion_lat": 0.0, "type": "electric_scooter", "bike_id": "6b4794d10cffbcb89a90b5d185fee31d", "rental_uris": {"ios": "https://dc.lft.to/lastmile_qr_scan", "android": "https://dc.lft.to/lastmile_qr_scan"}, "fusion_lon": 0.0, "lon": -77.07344233333333, "name": "6b4794d10cffbcb89a90b5d185fee31d", "is_reserved": 0, "is_disabled": 0}, {"lat": 38.925105333333335, "fusion_lat": 0.0, "type": "electric_scooter", "bike_id": "c6f6f22d20d5854b74ec36d7c87d25f0", "rental_uris": {"ios": "https://dc.lft.to/lastmile_qr_scan", "android": "https://dc.lft.to/lastmile_qr_scan"}, "fusion_lon": 0.0, "lon": -77.022875, "name": "c6f6f22d20d5854b74ec36d7c87d25f0", "is_reserved": 0, "is_disabled": 0}, {"lat": 38.91909866666666, "fusion_lat": 0.0, "type": "electric_scooter", "bike_id": "5168f7b5dd4ed6000cd4133ab3a5da32", "rental_uris": {"ios": "https://dc.lft.to/lastmile_qr_scan", "android": "https://dc.lft.to/lastmile_qr_scan"}, "fusion_lon": 0.0, "lon": -77.03343683333334, "name": "5168f7b5dd4ed6000cd4133ab3a5da32", "is_reserved": 0, "is_disabled": 0}, {"lat": 38.91097633333333, "fusion_lat": 0.0, "type": "electric_scooter", "bike_id": "b597b176fb9abf667b5d39f9d0107f54", "rental_uris": {"ios": "https://dc.lft.to/lastmile_qr_scan", "android": "https://dc.lft.to/lastmile_qr_scan"}, "fusion_lon": 0.0, "lon": -77.03178183333333, "name": "b597b176fb9abf667b5d39f9d0107f54", "is_reserved": 0, "is_disabled": 0}, {"lat": 38.92071516666667, "fusion_lat": 0.0, "type": "electric_scooter", "bike_id": "a57449c885d7176966263cf0c44ecda8", "rental_uris": {"ios": "https://dc.lft.to/lastmile_qr_scan", "android": "https://dc.lft.to/lastmile_qr_scan"}, "fusion_lon": 0.0, "lon": -77.0253855, "name": "a57449c885d7176966263cf0c44ecda8", "is_reserved": 0, "is_disabled": 0}, {"lat": 38.92479133333333, "fusion_lat": 0.0, "type": "electric_scooter", "bike_id": "0683c6b109b6566b293100101ac7b227", "rental_uris": {"ios": "https://dc.lft.to/lastmile_qr_scan", "android": "https://dc.lft.to/lastmile_qr_scan"}, "fusion_lon": 0.0, "lon": -77.02592233333333, "name": "0683c6b109b6566b293100101ac7b227", "is_reserved": 0, "is_disabled": 0}, {"lat": 38.905246166666664, "fusion_lat": 0.0, "type": "electric_scooter", "bike_id": "98950c97d6233170e605c4775dba25ac", "rental_uris": {"ios": "https://dc.lft.to/lastmile_qr_scan", "android": "https://dc.lft.to/lastmile_qr_scan"}, "fusion_lon": 0.0, "lon": -77.066313, "name": "98950c97d6233170e605c4775dba25ac", "is_reserved": 0, "is_disabled": 0}, {"lat": 38.895280166666666, "fusion_lat": 0.0, "type": "electric_scooter", "bike_id": "c9cd6ef72083fa3552c3820a76f4d00a", "rental_uris": {"ios": "https://dc.lft.to/lastmile_qr_scan", "android": "https://dc.lft.to/lastmile_qr_scan"}, "fusion_lon": 0.0, "lon": -77.03210916666667, "name": "c9cd6ef72083fa3552c3820a76f4d00a", "is_reserved": 0, "is_disabled": 0}, {"lat": 38.925125666666666, "fusion_lat": 0.0, "type": "electric_scooter", "bike_id": "ef7920e2eef48e139e18c389c25cfa6a", "rental_uris": {"ios": "https://dc.lft.to/lastmile_qr_scan", "android": "https://dc.lft.to/lastmile_qr_scan"}, "fusion_lon": 0.0, "lon": -77.02358816666667, "name": "ef7920e2eef48e139e18c389c25cfa6a", "is_reserved": 0, "is_disabled": 0}, {"lat": 38.9011225, "fusion_lat": 0.0, "type": "electric_scooter", "bike_id": "29ef75cae36dcaf12c3ea9170becab4e", "rental_uris": {"ios": "https://dc.lft.to/lastmile_qr_scan", "android": "https://dc.lft.to/lastmile_qr_scan"}, "fusion_lon": 0.0, "lon": -77.035055, "name": "29ef75cae36dcaf12c3ea9170becab4e", "is_reserved": 0, "is_disabled": 0}, {"lat": 38.934184, "fusion_lat": 0.0, "type": "electric_scooter", "bike_id": "c2e637dfb5d8b1fad5ee655d4e3b971f", "rental_uris": {"ios": "https://dc.lft.to/lastmile_qr_scan", "android": "https://dc.lft.to/lastmile_qr_scan"}, "fusion_lon": 0.0, "lon": -77.04279983333333, "name": "c2e637dfb5d8b1fad5ee655d4e3b971f", "is_reserved": 0, "is_disabled": 0}, {"lat": 38.92280933333333, "fusion_lat": 0.0, "type": "electric_scooter", "bike_id": "4e8906ca550377af54fab61bbbcd0083", "rental_uris": {"ios": "https://dc.lft.to/lastmile_qr_scan", "android": "https://dc.lft.to/lastmile_qr_scan"}, "fusion_lon": 0.0, "lon": -77.03658666666666, "name": "4e8906ca550377af54fab61bbbcd0083", "is_reserved": 0, "is_disabled": 0}, {"lat": 38.9322025, "fusion_lat": 0.0, "type": "electric_scooter", "bike_id": "c94583bbe28e72a76efc779f26d2b9c2", "rental_uris": {"ios": "https://dc.lft.to/lastmile_qr_scan", "android": "https://dc.lft.to/lastmile_qr_scan"}, "fusion_lon": 0.0, "lon": -77.0299195, "name": "c94583bbe28e72a76efc779f26d2b9c2", "is_reserved": 0, "is_disabled": 0}, {"lat": 38.9163315, "fusion_lat": 0.0, "type": "electric_scooter", "bike_id": "e272e347d79e06d42e676742ffaf4a32", "rental_uris": {"ios": "https://dc.lft.to/lastmile_qr_scan", "android": "https://dc.lft.to/lastmile_qr_scan"}, "fusion_lon": 0.0, "lon": -77.04009816666667, "name": "e272e347d79e06d42e676742ffaf4a32", "is_reserved": 0, "is_disabled": 0}, {"lat": 38.90959816666667, "fusion_lat": 0.0, "type": "electric_scooter", "bike_id": "af0b824abb2f245782ee12952e4ee855", "rental_uris": {"ios": "https://dc.lft.to/lastmile_qr_scan", "android": "https://dc.lft.to/lastmile_qr_scan"}, "fusion_lon": 0.0, "lon": -77.04439016666667, "name": "af0b824abb2f245782ee12952e4ee855", "is_reserved": 0, "is_disabled": 0}, {"lat": 38.920986166666665, "fusion_lat": 0.0, "type": "electric_scooter", "bike_id": "6d92a5b9907230206ce3092f9e7d74c2", "rental_uris": {"ios": "https://dc.lft.to/lastmile_qr_scan", "android": "https://dc.lft.to/lastmile_qr_scan"}, "fusion_lon": 0.0, "lon": -77.03660033333334, "name": "6d92a5b9907230206ce3092f9e7d74c2", "is_reserved": 0, "is_disabled": 0}, {"lat": 38.9229745, "fusion_lat": 0.0, "type": "electric_scooter", "bike_id": "1540aa1656c61f586a4b9fd0b1027201", "rental_uris": {"ios": "https://dc.lft.to/lastmile_qr_scan", "android": "https://dc.lft.to/lastmile_qr_scan"}, "fusion_lon": 0.0, "lon": -77.041493, "name": "1540aa1656c61f586a4b9fd0b1027201", "is_reserved": 0, "is_disabled": 0}, {"lat": 38.8957165, "fusion_lat": 0.0, "type": "electric_scooter", "bike_id": "0f297829dcc4e5e5cc2946562ece7e6c", "rental_uris": {"ios": "https://dc.lft.to/lastmile_qr_scan", "android": "https://dc.lft.to/lastmile_qr_scan"}, "fusion_lon": 0.0, "lon": -76.98322483333334, "name": "0f297829dcc4e5e5cc2946562ece7e6c", "is_reserved": 0, "is_disabled": 0}, {"lat": 38.915312666666665, "fusion_lat": 0.0, "type": "electric_scooter", "bike_id": "f0a40c444a4fc1ee8ddaf81e79a828ea", "rental_uris": {"ios": "https://dc.lft.to/lastmile_qr_scan", "android": "https://dc.lft.to/lastmile_qr_scan"}, "fusion_lon": 0.0, "lon": -77.03202883333333, "name": "f0a40c444a4fc1ee8ddaf81e79a828ea", "is_reserved": 0, "is_disabled": 0}, {"lat": 38.93710516666667, "fusion_lat": 0.0, "type": "electric_scooter", "bike_id": "627ab4515a0ddbf21009d7f807755641", "rental_uris": {"ios": "https://dc.lft.to/lastmile_qr_scan", "android": "https://dc.lft.to/lastmile_qr_scan"}, "fusion_lon": 0.0, "lon": -77.03517383333333, "name": "627ab4515a0ddbf21009d7f807755641", "is_reserved": 0, "is_disabled": 0}, {"lat": 38.90575366666667, "fusion_lat": 0.0, "type": "electric_scooter", "bike_id": "4e00dee8d53e5a0b15b90f65458a07d4", "rental_uris": {"ios": "https://dc.lft.to/lastmile_qr_scan", "android": "https://dc.lft.to/lastmile_qr_scan"}, "fusion_lon": 0.0, "lon": -77.0384385, "name": "4e00dee8d53e5a0b15b90f65458a07d4", "is_reserved": 0, "is_disabled": 0}, {"lat": 38.917625666666666, "fusion_lat": 0.0, "type": "electric_scooter", "bike_id": "67fc13fb1b3a7643cddd12b9d40e191b", "rental_uris": {"ios": "https://dc.lft.to/lastmile_qr_scan", "android": "https://dc.lft.to/lastmile_qr_scan"}, "fusion_lon": 0.0, "lon": -77.0175615, "name": "67fc13fb1b3a7643cddd12b9d40e191b", "is_reserved": 0, "is_disabled": 0}, {"lat": 38.886175, "fusion_lat": 0.0, "type": "electric_scooter", "bike_id": "649d35f175a930e68aa4234ceb1355a6", "rental_uris": {"ios": "https://dc.lft.to/lastmile_qr_scan", "android": "https://dc.lft.to/lastmile_qr_scan"}, "fusion_lon": 0.0, "lon": -76.99604116666667, "name": "649d35f175a930e68aa4234ceb1355a6", "is_reserved": 0, "is_disabled": 0}, {"lat": 38.92752333333333, "fusion_lat": 0.0, "type": "electric_scooter", "bike_id": "f4f49c014da1141be84f531c3acc33a6", "rental_uris": {"ios": "https://dc.lft.to/lastmile_qr_scan", "android": "https://dc.lft.to/lastmile_qr_scan"}, "fusion_lon": 0.0, "lon": -77.03274833333333, "name": "f4f49c014da1141be84f531c3acc33a6", "is_reserved": 0, "is_disabled": 0}, {"lat": 38.905378166666665, "fusion_lat": 0.0, "type": "electric_scooter", "bike_id": "dd1616e40421afc2be34fdfaa46e2d35", "rental_uris": {"ios": "https://dc.lft.to/lastmile_qr_scan", "android": "https://dc.lft.to/lastmile_qr_scan"}, "fusion_lon": 0.0, "lon": -77.05031816666667, "name": "dd1616e40421afc2be34fdfaa46e2d35", "is_reserved": 0, "is_disabled": 0}, {"lat": 38.9387815, "fusion_lat": 0.0, "type": "electric_bike", "bike_id": "54860ac29cbb6c069e88cb9431eeb07a", "rental_uris": {"ios": "https://dc.lft.to/lastmile_qr_scan", "android": "https://dc.lft.to/lastmile_qr_scan"}, "fusion_lon": 0.0, "lon": -77.02465333333333, "name": "54860ac29cbb6c069e88cb9431eeb07a", "is_reserved": 0, "is_disabled": 0}, {"lat": 38.884259166666666, "fusion_lat": 0.0, "type": "electric_scooter", "bike_id": "faa2620ba4e172683624a64998201041", "rental_uris": {"ios": "https://dc.lft.to/lastmile_qr_scan", "android": "https://dc.lft.to/lastmile_qr_scan"}, "fusion_lon": 0.0, "lon": -76.9575545, "name": "faa2620ba4e172683624a64998201041", "is_reserved": 0, "is_disabled": 0}, {"lat": 38.901141833333334, "fusion_lat": 0.0, "type": "electric_scooter", "bike_id": "0f49c4eb8b8e659c7bb49ee273cb5ee1", "rental_uris": {"ios": "https://dc.lft.to/lastmile_qr_scan", "android": "https://dc.lft.to/lastmile_qr_scan"}, "fusion_lon": 0.0, "lon": -77.03181883333333, "name": "0f49c4eb8b8e659c7bb49ee273cb5ee1", "is_reserved": 0, "is_disabled": 0}, {"lat": 38.91404283333333, "fusion_lat": 0.0, "type": "electric_scooter", "bike_id": "8a5c5ec02741420668e29b798ba3d046", "rental_uris": {"ios": "https://dc.lft.to/lastmile_qr_scan", "android": "https://dc.lft.to/lastmile_qr_scan"}, "fusion_lon": 0.0, "lon": -77.0317795, "name": "8a5c5ec02741420668e29b798ba3d046", "is_reserved": 0, "is_disabled": 0}, {"lat": 38.90027216666667, "fusion_lat": 0.0, "type": "electric_scooter", "bike_id": "7798af03ecfc5db48e96847ced35ea5f", "rental_uris": {"ios": "https://dc.lft.to/lastmile_qr_scan", "android": "https://dc.lft.to/lastmile_qr_scan"}, "fusion_lon": 0.0, "lon": -77.00153783333333, "name": "7798af03ecfc5db48e96847ced35ea5f", "is_reserved": 0, "is_disabled": 0}, {"lat": 38.91935333333333, "fusion_lat": 0.0, "type": "electric_scooter", "bike_id": "92c1bd46f76b36d2e569342bc3da9945", "rental_uris": {"ios": "https://dc.lft.to/lastmile_qr_scan", "android": "https://dc.lft.to/lastmile_qr_scan"}, "fusion_lon": 0.0, "lon": -77.03176483333333, "name": "92c1bd46f76b36d2e569342bc3da9945", "is_reserved": 0, "is_disabled": 0}, {"lat": 38.89984166666667, "fusion_lat": 0.0, "type": "electric_scooter", "bike_id": "3338012977bd8b015230987379af6bfe", "rental_uris": {"ios": "https://dc.lft.to/lastmile_qr_scan", "android": "https://dc.lft.to/lastmile_qr_scan"}, "fusion_lon": 0.0, "lon": -77.02449916666667, "name": "3338012977bd8b015230987379af6bfe", "is_reserved": 0, "is_disabled": 0}, {"lat": 38.86506983333334, "fusion_lat": 0.0, "type": "electric_bike", "bike_id": "29066c63a7f5c52c562a4a0448f2ec5e", "rental_uris": {"ios": "https://dc.lft.to/lastmile_qr_scan", "android": "https://dc.lft.to/lastmile_qr_scan"}, "fusion_lon": 0.0, "lon": -76.977401, "name": "29066c63a7f5c52c562a4a0448f2ec5e", "is_reserved": 0, "is_disabled": 0}, {"lat": 38.899195666666664, "fusion_lat": 0.0, "type": "electric_scooter", "bike_id": "bd4f62fa39a3907e76c869960d09ea5e", "rental_uris": {"ios": "https://dc.lft.to/lastmile_qr_scan", "android": "https://dc.lft.to/lastmile_qr_scan"}, "fusion_lon": 0.0, "lon": -77.04488916666666, "name": "bd4f62fa39a3907e76c869960d09ea5e", "is_reserved": 0, "is_disabled": 0}, {"lat": 38.910239833333335, "fusion_lat": 0.0, "type": "electric_scooter", "bike_id": "e4e760d04edf6cfa4380f17ef8452f03", "rental_uris": {"ios": "https://dc.lft.to/lastmile_qr_scan", "android": "https://dc.lft.to/lastmile_qr_scan"}, "fusion_lon": 0.0, "lon": -77.02937633333333, "name": "e4e760d04edf6cfa4380f17ef8452f03", "is_reserved": 0, "is_disabled": 0}, {"lat": 38.940802833333336, "fusion_lat": 0.0, "type": "electric_scooter", "bike_id": "8ddeb30b9b7ba8b65b8c750124887735", "rental_uris": {"ios": "https://dc.lft.to/lastmile_qr_scan", "android": "https://dc.lft.to/lastmile_qr_scan"}, "fusion_lon": 0.0, "lon": -77.02726366666667, "name": "8ddeb30b9b7ba8b65b8c750124887735", "is_reserved": 0, "is_disabled": 0}, {"lat": 38.916355, "fusion_lat": 0.0, "type": "electric_scooter", "bike_id": "f8a0d42365e3079af850f2e3395545f8", "rental_uris": {"ios": "https://dc.lft.to/lastmile_qr_scan", "android": "https://dc.lft.to/lastmile_qr_scan"}, "fusion_lon": 0.0, "lon": -77.0506825, "name": "f8a0d42365e3079af850f2e3395545f8", "is_reserved": 0, "is_disabled": 0}, {"lat": 38.88744716666667, "fusion_lat": 0.0, "type": "electric_scooter", "bike_id": "4eff5c525ee02edd69d626ec591edfe1", "rental_uris": {"ios": "https://dc.lft.to/lastmile_qr_scan", "android": "https://dc.lft.to/lastmile_qr_scan"}, "fusion_lon": 0.0, "lon": -77.02778833333333, "name": "4eff5c525ee02edd69d626ec591edfe1", "is_reserved": 0, "is_disabled": 0}, {"lat": 38.92232666666666, "fusion_lat": 0.0, "type": "electric_scooter", "bike_id": "234b9484ee6d07bf459c662538043bdd", "rental_uris": {"ios": "https://dc.lft.to/lastmile_qr_scan", "android": "https://dc.lft.to/lastmile_qr_scan"}, "fusion_lon": 0.0, "lon": -77.0335885, "name": "234b9484ee6d07bf459c662538043bdd", "is_reserved": 0, "is_disabled": 0}, {"lat": 38.924216666666666, "fusion_lat": 0.0, "type": "electric_scooter", "bike_id": "2e6fe0b1bb425c8e8fb8e2756cf2495b", "rental_uris": {"ios": "https://dc.lft.to/lastmile_qr_scan", "android": "https://dc.lft.to/lastmile_qr_scan"}, "fusion_lon": 0.0, "lon": -77.022616, "name": "2e6fe0b1bb425c8e8fb8e2756cf2495b", "is_reserved": 0, "is_disabled": 0}, {"lat": 38.9233115, "fusion_lat": 0.0, "type": "electric_scooter", "bike_id": "14b056f3a653abe609349fef47372cb7", "rental_uris": {"ios": "https://dc.lft.to/lastmile_qr_scan", "android": "https://dc.lft.to/lastmile_qr_scan"}, "fusion_lon": 0.0, "lon": -77.05685516666667, "name": "14b056f3a653abe609349fef47372cb7", "is_reserved": 0, "is_disabled": 0}, {"lat": 38.883435166666665, "fusion_lat": 0.0, "type": "electric_scooter", "bike_id": "aa08647a874f94b15f93f77e1c1ca4a9", "rental_uris": {"ios": "https://dc.lft.to/lastmile_qr_scan", "android": "https://dc.lft.to/lastmile_qr_scan"}, "fusion_lon": 0.0, "lon": -76.9350225, "name": "aa08647a874f94b15f93f77e1c1ca4a9", "is_reserved": 0, "is_disabled": 0}, {"lat": 38.9178415, "fusion_lat": 0.0, "type": "electric_scooter", "bike_id": "4b4e72ac08b80b41d367d6812c5f3dfe", "rental_uris": {"ios": "https://dc.lft.to/lastmile_qr_scan", "android": "https://dc.lft.to/lastmile_qr_scan"}, "fusion_lon": 0.0, "lon": -77.02284633333333, "name": "4b4e72ac08b80b41d367d6812c5f3dfe", "is_reserved": 0, "is_disabled": 0}, {"lat": 38.84347666666667, "fusion_lat": 0.0, "type": "electric_scooter", "bike_id": "8971cf44c4d6168c1be5316fa188808d", "rental_uris": {"ios": "https://dc.lft.to/lastmile_qr_scan", "android": "https://dc.lft.to/lastmile_qr_scan"}, "fusion_lon": 0.0, "lon": -76.99914566666666, "name": "8971cf44c4d6168c1be5316fa188808d", "is_reserved": 0, "is_disabled": 0}, {"lat": 38.897546166666665, "fusion_lat": 0.0, "type": "electric_scooter", "bike_id": "31e2f4645913c55c03e6b84e9665d564", "rental_uris": {"ios": "https://dc.lft.to/lastmile_qr_scan", "android": "https://dc.lft.to/lastmile_qr_scan"}, "fusion_lon": 0.0, "lon": -77.03330266666667, "name": "31e2f4645913c55c03e6b84e9665d564", "is_reserved": 0, "is_disabled": 0}, {"lat": 38.935769, "fusion_lat": 0.0, "type": "electric_scooter", "bike_id": "c6b7e0d0af104058f0113aca711c953c", "rental_uris": {"ios": "https://dc.lft.to/lastmile_qr_scan", "android": "https://dc.lft.to/lastmile_qr_scan"}, "fusion_lon": 0.0, "lon": -77.02127333333334, "name": "c6b7e0d0af104058f0113aca711c953c", "is_reserved": 0, "is_disabled": 0}, {"lat": 38.90410716666667, "fusion_lat": 0.0, "type": "electric_scooter", "bike_id": "41d3ed72e1a007ace73cb53129446727", "rental_uris": {"ios": "https://dc.lft.to/lastmile_qr_scan", "android": "https://dc.lft.to/lastmile_qr_scan"}, "fusion_lon": 0.0, "lon": -76.9732995, "name": "41d3ed72e1a007ace73cb53129446727", "is_reserved": 0, "is_disabled": 0}, {"lat": 38.91975166666667, "fusion_lat": 0.0, "type": "electric_scooter", "bike_id": "26df49aba9831d77fcbdab2367f73ca0", "rental_uris": {"ios": "https://dc.lft.to/lastmile_qr_scan", "android": "https://dc.lft.to/lastmile_qr_scan"}, "fusion_lon": 0.0, "lon": -77.03227, "name": "26df49aba9831d77fcbdab2367f73ca0", "is_reserved": 0, "is_disabled": 0}, {"lat": 38.89916866666667, "fusion_lat": 0.0, "type": "electric_scooter", "bike_id": "b89d9d081722c3b99bc0b2821e98f90a", "rental_uris": {"ios": "https://dc.lft.to/lastmile_qr_scan", "android": "https://dc.lft.to/lastmile_qr_scan"}, "fusion_lon": 0.0, "lon": -77.03366683333333, "name": "b89d9d081722c3b99bc0b2821e98f90a", "is_reserved": 0, "is_disabled": 0}, {"lat": 38.92455916666667, "fusion_lat": 0.0, "type": "electric_scooter", "bike_id": "0081f74c3924025f50848a131b1dd56d", "rental_uris": {"ios": "https://dc.lft.to/lastmile_qr_scan", "android": "https://dc.lft.to/lastmile_qr_scan"}, "fusion_lon": 0.0, "lon": -77.02244416666667, "name": "0081f74c3924025f50848a131b1dd56d", "is_reserved": 0, "is_disabled": 0}, {"lat": 38.93287516666667, "fusion_lat": 0.0, "type": "electric_scooter", "bike_id": "45da699b7a2337cb4d551a5ef5939fe0", "rental_uris": {"ios": "https://dc.lft.to/lastmile_qr_scan", "android": "https://dc.lft.to/lastmile_qr_scan"}, "fusion_lon": 0.0, "lon": -77.0283145, "name": "45da699b7a2337cb4d551a5ef5939fe0", "is_reserved": 0, "is_disabled": 0}, {"lat": 38.90995683333333, "fusion_lat": 0.0, "type": "electric_scooter", "bike_id": "4b9569d89410f2d5a6088e336d3b7e61", "rental_uris": {"ios": "https://dc.lft.to/lastmile_qr_scan", "android": "https://dc.lft.to/lastmile_qr_scan"}, "fusion_lon": 0.0, "lon": -76.98623733333334, "name": "4b9569d89410f2d5a6088e336d3b7e61", "is_reserved": 0, "is_disabled": 0}, {"lat": 38.943278166666666, "fusion_lat": 0.0, "type": "electric_scooter", "bike_id": "f168062c46473117f3ea6a48801f51ff", "rental_uris": {"ios": "https://dc.lft.to/lastmile_qr_scan", "android": "https://dc.lft.to/lastmile_qr_scan"}, "fusion_lon": 0.0, "lon": -77.06465333333334, "name": "f168062c46473117f3ea6a48801f51ff", "is_reserved": 0, "is_disabled": 0}, {"lat": 38.9235515, "fusion_lat": 0.0, "type": "electric_scooter", "bike_id": "f74d645e0023662aa65f172997dc6f96", "rental_uris": {"ios": "https://dc.lft.to/lastmile_qr_scan", "android": "https://dc.lft.to/lastmile_qr_scan"}, "fusion_lon": 0.0, "lon": -77.05426483333333, "name": "f74d645e0023662aa65f172997dc6f96", "is_reserved": 0, "is_disabled": 0}, {"lat": 38.9148205, "fusion_lat": 0.0, "type": "electric_scooter", "bike_id": "503c1e11f66bf0d21e04261f89eb69e2", "rental_uris": {"ios": "https://dc.lft.to/lastmile_qr_scan", "android": "https://dc.lft.to/lastmile_qr_scan"}, "fusion_lon": 0.0, "lon": -77.0424985, "name": "503c1e11f66bf0d21e04261f89eb69e2", "is_reserved": 0, "is_disabled": 0}, {"lat": 38.923382333333336, "fusion_lat": 0.0, "type": "electric_scooter", "bike_id": "17e763c42d28598ad8863a8b2fd7980a", "rental_uris": {"ios": "https://dc.lft.to/lastmile_qr_scan", "android": "https://dc.lft.to/lastmile_qr_scan"}, "fusion_lon": 0.0, "lon": -77.047415, "name": "17e763c42d28598ad8863a8b2fd7980a", "is_reserved": 0, "is_disabled": 0}, {"lat": 38.94019466666666, "fusion_lat": 0.0, "type": "electric_bike", "bike_id": "44e426248817101a32d533244f0426c3", "rental_uris": {"ios": "https://dc.lft.to/lastmile_qr_scan", "android": "https://dc.lft.to/lastmile_qr_scan"}, "fusion_lon": 0.0, "lon": -76.9760885, "name": "44e426248817101a32d533244f0426c3", "is_reserved": 0, "is_disabled": 0}, {"lat": 38.784503, "fusion_lat": 0.0, "type": "electric_bike", "bike_id": "29d62dc2dc3548daf74648e9edc6259c", "rental_uris": {"ios": "https://dc.lft.to/lastmile_qr_scan", "android": "https://dc.lft.to/lastmile_qr_scan"}, "fusion_lon": 0.0, "lon": -77.0163875, "name": "29d62dc2dc3548daf74648e9edc6259c", "is_reserved": 0, "is_disabled": 0}, {"lat": 38.89178616666667, "fusion_lat": 0.0, "type": "electric_scooter", "bike_id": "ad829a132bcb089f45e94e0baefbfd04", "rental_uris": {"ios": "https://dc.lft.to/lastmile_qr_scan", "android": "https://dc.lft.to/lastmile_qr_scan"}, "fusion_lon": 0.0, "lon": -77.00338766666667, "name": "ad829a132bcb089f45e94e0baefbfd04", "is_reserved": 0, "is_disabled": 0}, {"lat": 38.898219, "fusion_lat": 0.0, "type": "electric_scooter", "bike_id": "b3a7fbc4ac9341e828116c73f8e8d44b", "rental_uris": {"ios": "https://dc.lft.to/lastmile_qr_scan", "android": "https://dc.lft.to/lastmile_qr_scan"}, "fusion_lon": 0.0, "lon": -77.033535, "name": "b3a7fbc4ac9341e828116c73f8e8d44b", "is_reserved": 0, "is_disabled": 0}, {"lat": 38.9049845, "fusion_lat": 0.0, "type": "electric_bike", "bike_id": "8337c1f0a52398917870e6b40dc4e356", "rental_uris": {"ios": "https://dc.lft.to/lastmile_qr_scan", "android": "https://dc.lft.to/lastmile_qr_scan"}, "fusion_lon": 0.0, "lon": -76.9744345, "name": "8337c1f0a52398917870e6b40dc4e356", "is_reserved": 0, "is_disabled": 0}, {"lat": 38.95627, "fusion_lat": 0.0, "type": "electric_scooter", "bike_id": "084ca86d37fff9fba56c641b8dff1da2", "rental_uris": {"ios": "https://dc.lft.to/lastmile_qr_scan", "android": "https://dc.lft.to/lastmile_qr_scan"}, "fusion_lon": 0.0, "lon": -77.02833733333334, "name": "084ca86d37fff9fba56c641b8dff1da2", "is_reserved": 0, "is_disabled": 0}, {"lat": 38.87491083333333, "fusion_lat": 0.0, "type": "electric_scooter", "bike_id": "2bcb2df4ff73a4b488d02d4951501a92", "rental_uris": {"ios": "https://dc.lft.to/lastmile_qr_scan", "android": "https://dc.lft.to/lastmile_qr_scan"}, "fusion_lon": 0.0, "lon": -76.99971783333334, "name": "2bcb2df4ff73a4b488d02d4951501a92", "is_reserved": 0, "is_disabled": 0}, {"lat": 38.908673666666665, "fusion_lat": 0.0, "type": "electric_scooter", "bike_id": "6bfdc8a6fc3913532af553d6a9118903", "rental_uris": {"ios": "https://dc.lft.to/lastmile_qr_scan", "android": "https://dc.lft.to/lastmile_qr_scan"}, "fusion_lon": 0.0, "lon": -77.01873416666666, "name": "6bfdc8a6fc3913532af553d6a9118903", "is_reserved": 0, "is_disabled": 0}, {"lat": 38.944158333333334, "fusion_lat": 0.0, "type": "electric_bike", "bike_id": "66291e13459e54474a5fc157c7d37c94", "rental_uris": {"ios": "https://dc.lft.to/lastmile_qr_scan", "android": "https://dc.lft.to/lastmile_qr_scan"}, "fusion_lon": 0.0, "lon": -77.01873166666667, "name": "66291e13459e54474a5fc157c7d37c94", "is_reserved": 0, "is_disabled": 0}, {"lat": 38.922302, "fusion_lat": 0.0, "type": "electric_scooter", "bike_id": "450c91417658f57ad1732f92b8bb8da6", "rental_uris": {"ios": "https://dc.lft.to/lastmile_qr_scan", "android": "https://dc.lft.to/lastmile_qr_scan"}, "fusion_lon": 0.0, "lon": -77.02330933333333, "name": "450c91417658f57ad1732f92b8bb8da6", "is_reserved": 0, "is_disabled": 0}, {"lat": 38.9183085, "fusion_lat": 0.0, "type": "electric_scooter", "bike_id": "c2403994d267ce9e1d4710e51cec1d2c", "rental_uris": {"ios": "https://dc.lft.to/lastmile_qr_scan", "android": "https://dc.lft.to/lastmile_qr_scan"}, "fusion_lon": 0.0, "lon": -77.05880966666666, "name": "c2403994d267ce9e1d4710e51cec1d2c", "is_reserved": 0, "is_disabled": 0}, {"lat": 38.942608, "fusion_lat": 0.0, "type": "electric_bike", "bike_id": "e75e58cc884df81651e61005b142f09c", "rental_uris": {"ios": "https://dc.lft.to/lastmile_qr_scan", "android": "https://dc.lft.to/lastmile_qr_scan"}, "fusion_lon": 0.0, "lon": -77.02840666666667, "name": "e75e58cc884df81651e61005b142f09c", "is_reserved": 0, "is_disabled": 0}, {"lat": 38.873443, "fusion_lat": 0.0, "type": "electric_scooter", "bike_id": "0bfaac476319ab111f9c8c4c778d0c98", "rental_uris": {"ios": "https://dc.lft.to/lastmile_qr_scan", "android": "https://dc.lft.to/lastmile_qr_scan"}, "fusion_lon": 0.0, "lon": -76.99165433333333, "name": "0bfaac476319ab111f9c8c4c778d0c98", "is_reserved": 0, "is_disabled": 0}, {"lat": 38.919192, "fusion_lat": 0.0, "type": "electric_scooter", "bike_id": "cb18948b00e7b5a84dc86f8720b6361e", "rental_uris": {"ios": "https://dc.lft.to/lastmile_qr_scan", "android": "https://dc.lft.to/lastmile_qr_scan"}, "fusion_lon": 0.0, "lon": -77.02511933333334, "name": "cb18948b00e7b5a84dc86f8720b6361e", "is_reserved": 0, "is_disabled": 0}, {"lat": 38.842737, "fusion_lat": 0.0, "type": "electric_bike", "bike_id": "4d4e960ae802b1e78b8d78ec1d27f869", "rental_uris": {"ios": "https://dc.lft.to/lastmile_qr_scan", "android": "https://dc.lft.to/lastmile_qr_scan"}, "fusion_lon": 0.0, "lon": -76.98843666666667, "name": "4d4e960ae802b1e78b8d78ec1d27f869", "is_reserved": 0, "is_disabled": 0}, {"lat": 38.92314916666667, "fusion_lat": 0.0, "type": "electric_scooter", "bike_id": "12256eabb530d26ff71a8f1412052383", "rental_uris": {"ios": "https://dc.lft.to/lastmile_qr_scan", "android": "https://dc.lft.to/lastmile_qr_scan"}, "fusion_lon": 0.0, "lon": -77.02909233333334, "name": "12256eabb530d26ff71a8f1412052383", "is_reserved": 0, "is_disabled": 0}, {"lat": 38.95739066666667, "fusion_lat": 0.0, "type": "electric_scooter", "bike_id": "bf588b0a8a539f9ea1d20b77b7d560a9", "rental_uris": {"ios": "https://dc.lft.to/lastmile_qr_scan", "android": "https://dc.lft.to/lastmile_qr_scan"}, "fusion_lon": 0.0, "lon": -77.00228583333333, "name": "bf588b0a8a539f9ea1d20b77b7d560a9", "is_reserved": 0, "is_disabled": 0},