{"data": {"bikes": [{"is_reserved": 0, "is_disabled": 0, "fusion_lon": 0.0, "lat": 38.920975, "name": "e767255c84fbd13fd1f9789646b925f0", "bike_id": "e767255c84fbd13fd1f9789646b925f0", "lon": -77.02590133333334, "fusion_lat": 0.0, "rental_uris": {"android": "https://dc.lft.to/lastmile_qr_scan", "ios": "https://dc.lft.to/lastmile_qr_scan"}, "type": "electric_scooter"}, {"is_reserved": 0, "is_disabled": 0, "fusion_lon": 0.0, "lat": 38.923991, "name": "0e4568d9bd7baf2015aaa2ccb20e883a", "bike_id": "0e4568d9bd7baf2015aaa2ccb20e883a", "lon": -77.026981, "fusion_lat": 0.0, "rental_uris": {"android": "https://dc.lft.to/lastmile_qr_scan", "ios": "https://dc.lft.to/lastmile_qr_scan"}, "type": "electric_scooter"}, {"is_reserved": 0, "is_disabled": 0, "fusion_lon": 0.0, "lat": 38.8982565, "name": "cd85ebd6a39af57e08e4cd18405674ec", "bike_id": "cd85ebd6a39af57e08e4cd18405674ec", "lon": -77.0292455, "fusion_lat": 0.0, "rental_uris": {"android": "https://dc.lft.to/lastmile_qr_scan", "ios": "https://dc.lft.to/lastmile_qr_scan"}, "type": "electric_scooter"}, {"is_reserved": 0, "is_disabled": 0, "fusion_lon": 0.0, "lat": 38.929988333333334, "name": "25e2281d17a7e84ddc8fa357435ed04b", "bike_id": "25e2281d17a7e84ddc8fa357435ed04b", "lon": -77.03771783333333, "fusion_lat": 0.0, "rental_uris": {"android": "https://dc.lft.to/lastmile_qr_scan", "ios": "https://dc.lft.to/lastmile_qr_scan"}, "type": "electric_scooter"}, {"is_reserved": 0, "is_disabled": 0, "fusion_lon": 0.0, "lat": 38.875501166666666, "name": "cade24e38980b664a4a316882c669596", "bike_id": "cade24e38980b664a4a316882c669596", "lon": -77.0057805, "fusion_lat": 0.0, "rental_uris": {"android": "https://dc.lft.to/lastmile_qr_scan", "ios": "https://dc.lft.to/lastmile_qr_scan"}, "type": "electric_scooter"}, {"is_reserved": 0, "is_disabled": 0, "fusion_lon": 0.0, "lat": 38.911139, "name": "1803962f0f9d70e2007493da7b9abf74", "bike_id": "1803962f0f9d70e2007493da7b9abf74", "lon": -77.02420983333333, "fusion_lat": 0.0, "rental_uris": {"android": "https://dc.lft.to/lastmile_qr_scan", "ios": "https://dc.lft.to/lastmile_qr_scan"}, "type": "electric_scooter"}, {"is_reserved": 0, "is_disabled": 0, "fusion_lon": 0.0, "lat": 38.9136525, "name": "ee00e7795195bb298c76fa9a45b8b838", "bike_id": "ee00e7795195bb298c76fa9a45b8b838", "lon": -77.02002733333333, "fusion_lat": 0.0, "rental_uris": {"android": "https://dc.lft.to/lastmile_qr_scan", "ios": "https://dc.lft.to/lastmile_qr_scan"}, "type": "electric_scooter"}, {"is_reserved": 0, "is_disabled": 0, "fusion_lon": 0.0, "lat": 38.846968833333335, "name": "6a2825faa267778ed97491b2dfb130a1", "bike_id": "6a2825faa267778ed97491b2dfb130a1", "lon": -76.99625, "fusion_lat": 0.0, "rental_uris": {"android": "https://dc.lft.to/lastmile_qr_scan", "ios": "https://dc.lft.to/lastmile_qr_scan"}, "type": "electric_scooter"}, {"is_reserved": 0, "is_disabled": 0, "fusion_lon": 0.0, "lat": 38.88462333333333, "name": "a617f6d85f53128bc3870c3465d42df3", "bike_id": "a617f6d85f53128bc3870c3465d42df3", "lon": -77.00050666666667, "fusion_lat": 0.0, "rental_uris": {"android": "https://dc.lft.to/lastmile_qr_scan", "ios": "https://dc.lft.to/lastmile_qr_scan"}, "type": "electric_scooter"}, {"is_reserved": 0, "is_disabled": 0, "fusion_lon": 0.0, "lat": 38.916396, "name": "89d522747928fe4061320d194dc775e0", "bike_id": "89d522747928fe4061320d194dc775e0", "lon": -77.03213266666667, "fusion_lat": 0.0, "rental_uris": {"android": "https://dc.lft.to/lastmile_qr_scan", "ios": "https://dc.lft.to/lastmile_qr_scan"}, "type": "electric_scooter"}, {"is_reserved": 0, "is_disabled": 0, "fusion_lon": 0.0, "lat": 38.88544733333333, "name": "4a30a8472eee6e8f1aa7f52a279ef49d", "bike_id": "4a30a8472eee6e8f1aa7f52a279ef49d", "lon": -76.98208033333333, "fusion_lat": 0.0, "rental_uris": {"android": "https://dc.lft.to/lastmile_qr_scan", "ios": "https://dc.lft.to/lastmile_qr_scan"}, "type": "electric_scooter"}, {"is_reserved": 0, "is_disabled": 0, "fusion_lon": 0.0, "lat": 38.900422166666665, "name": "0835b6d7725d97f031a5722e0c2ac254", "bike_id": "0835b6d7725d97f031a5722e0c2ac254", "lon": -77.04824, "fusion_lat": 0.0, "rental_uris": {"android": "https://dc.lft.to/lastmile_qr_scan", "ios": "https://dc.lft.to/lastmile_qr_scan"}, "type": "electric_scooter"}, {"is_reserved": 0, "is_disabled": 0, "fusion_lon": 0.0, "lat": 38.902814666666664, "name": "c575db3954d2115d388fe3ad31c417fe", "bike_id": "c575db3954d2115d388fe3ad31c417fe", "lon": -77.0384055, "fusion_lat": 0.0, "rental_uris": {"android": "https://dc.lft.to/lastmile_qr_scan", "ios": "https://dc.lft.to/lastmile_qr_scan"}, "type": "electric_scooter"}, {"is_reserved": 0, "is_disabled": 0, "fusion_lon": 0.0, "lat": 38.96556266666666, "name": "ae746e1a72185594b74dc0c901eff07b", "bike_id": "ae746e1a72185594b74dc0c901eff07b", "lon": -77.02297216666666, "fusion_lat": 0.0, "rental_uris": {"android": "https://dc.lft.to/lastmile_qr_scan", "ios": "https://dc.lft.to/lastmile_qr_scan"}, "type": "electric_bike"}, {"is_reserved": 0, "is_disabled": 0, "fusion_lon": 0.0, "lat": 38.920865166666665, "name": "c138b1da0958b3d38edc597bee591cb6", "bike_id": "c138b1da0958b3d38edc597bee591cb6", "lon": -77.0254425, "fusion_lat": 0.0, "rental_uris": {"android": "https://dc.lft.to/lastmile_qr_scan", "ios": "https://dc.lft.to/lastmile_qr_scan"}, "type": "electric_scooter"}, {"is_reserved": 0, "is_disabled": 0, "fusion_lon": 0.0, "lat": 38.897531, "name": "7c494be2a77b63fb02b056bb75d142eb", "bike_id": "7c494be2a77b63fb02b056bb75d142eb", "lon": -77.031811, "fusion_lat": 0.0, "rental_uris": {"android": "https://dc.lft.to/lastmile_qr_scan", "ios": "https://dc.lft.to/lastmile_qr_scan"}, "type": "electric_scooter"}, {"is_reserved": 0, "is_disabled": 0, "fusion_lon": 0.0, "lat": 38.877609166666666, "name": "94986d910ae66cf43b2264624acf1fe7", "bike_id": "94986d910ae66cf43b2264624acf1fe7", "lon": -77.00831116666667, "fusion_lat": 0.0, "rental_uris": {"android": "https://dc.lft.to/lastmile_qr_scan", "ios": "https://dc.lft.to/lastmile_qr_scan"}, "type": "electric_scooter"}, {"is_reserved": 0, "is_disabled": 0, "fusion_lon": 0.0, "lat": 38.91698916666667, "name": "1f71d5e251d40ace53dd9b19f6386b90", "bike_id": "1f71d5e251d40ace53dd9b19f6386b90", "lon": -77.03108283333333, "fusion_lat": 0.0, "rental_uris": {"android": "https://dc.lft.to/lastmile_qr_scan", "ios": "https://dc.lft.to/lastmile_qr_scan"}, "type": "electric_scooter"}, {"is_reserved": 0, "is_disabled": 0, "fusion_lon": 0.0, "lat": 38.90281483333333, "name": "dd4fd059f831b81a68a63202b3f7ec4b", "bike_id": "dd4fd059f831b81a68a63202b3f7ec4b", "lon": -77.06159083333333, "fusion_lat": 0.0, "rental_uris": {"android": "https://dc.lft.to/lastmile_qr_scan", "ios": "https://dc.lft.to/lastmile_qr_scan"}, "type": "electric_scooter"}, {"is_reserved": 0, "is_disabled": 0, "fusion_lon": 0.0, "lat": 38.926808333333334, "name": "cbc763355bf6bb36f2f57f3466f5b9ab", "bike_id": "cbc763355bf6bb36f2f57f3466f5b9ab", "lon": -77.0148725, "fusion_lat": 0.0, "rental_uris": {"android": "https://dc.lft.to/lastmile_qr_scan", "ios": "https://dc.lft.to/lastmile_qr_scan"}, "type": "electric_scooter"}, {"is_reserved": 0, "is_disabled": 0, "fusion_lon": 0.0, "lat": 38.907002166666665, "name": "06c77ee631c1bf62651c5f29e036a87a", "bike_id": "06c77ee631c1bf62651c5f29e036a87a", "lon": -76.97927516666667, "fusion_lat": 0.0, "rental_uris": {"android": "https://dc.lft.to/lastmile_qr_scan", "ios": "https://dc.lft.to/lastmile_qr_scan"}, "type": "electric_scooter"}, {"is_reserved": 0, "is_disabled": 0, "fusion_lon": 0.0, "lat": 38.89543483333333, "name": "e39eb7ecc9025eb23e9557863edf5f3d", "bike_id": "e39eb7ecc9025eb23e9557863edf5f3d", "lon": -76.98889816666667, "fusion_lat": 0.0, "rental_uris": {"android": "https://dc.lft.to/lastmile_qr_scan", "ios": "https://dc.lft.to/lastmile_qr_scan"}, "type": "electric_scooter"}, {"is_reserved": 0, "is_disabled": 0, "fusion_lon": 0.0, "lat": 38.898310333333335, "name": "8311c04631747a3bb431d4b6cfc520fa", "bike_id": "8311c04631747a3bb431d4b6cfc520fa", "lon": -77.00748566666667, "fusion_lat": 0.0, "rental_uris": {"android": "https://dc.lft.to/lastmile_qr_scan", "ios": "https://dc.lft.to/lastmile_qr_scan"}, "type": "electric_scooter"}, {"is_reserved": 0, "is_disabled": 0, "fusion_lon": 0.0, "lat": 38.94044916666667, "name": "3250efd7a0ddc628850b0eb5d98e13be", "bike_id": "3250efd7a0ddc628850b0eb5d98e13be", "lon": -77.02896266666667, "fusion_lat": 0.0, "rental_uris": {"android": "https://dc.lft.to/lastmile_qr_scan", "ios": "https://dc.lft.to/lastmile_qr_scan"}, "type": "electric_scooter"}, {"is_reserved": 0, "is_disabled": 0, "fusion_lon": 0.0, "lat": 38.901731833333336, "name": "7f53dd40968c32365a57e1b00485c18b", "bike_id": "7f53dd40968c32365a57e1b00485c18b", "lon": -76.98062983333334, "fusion_lat": 0.0, "rental_uris": {"android": "https://dc.lft.to/lastmile_qr_scan", "ios": "https://dc.lft.to/lastmile_qr_scan"}, "type": "electric_scooter"}, {"is_reserved": 0, "is_disabled": 0, "fusion_lon": 0.0, "lat": 38.9260005, "name": "5b4bcbb1ff9fa7c0294a65b6d5c349b8", "bike_id": "5b4bcbb1ff9fa7c0294a65b6d5c349b8", "lon": -77.0243415, "fusion_lat": 0.0, "rental_uris": {"android": "https://dc.lft.to/lastmile_qr_scan", "ios": "https://dc.lft.to/lastmile_qr_scan"}, "type": "electric_scooter"}, {"is_reserved": 0, "is_disabled": 0, "fusion_lon": 0.0, "lat": 38.93531816666667, "name": "b47e968d61d9b031a60de35981a28b41", "bike_id": "b47e968d61d9b031a60de35981a28b41", "lon": -77.02844216666666, "fusion_lat": 0.0, "rental_uris": {"android": "https://dc.lft.to/lastmile_qr_scan", "ios": "https://dc.lft.to/lastmile_qr_scan"}, "type": "electric_scooter"}, {"is_reserved": 0, "is_disabled": 0, "fusion_lon": 0.0, "lat": 38.8922665, "name": "eb2463d1303bb151c61122847c7dd308", "bike_id": "eb2463d1303bb151c61122847c7dd308", "lon": -77.04332633333334, "fusion_lat": 0.0, "rental_uris": {"android": "https://dc.lft.to/lastmile_qr_scan", "ios": "https://dc.lft.to/lastmile_qr_scan"}, "type": "electric_scooter"}, {"is_reserved": 0, "is_disabled": 0, "fusion_lon": 0.0, "lat": 38.91013733333333, "name": "19aad69432d2a5314295faa0c5ca23a1", "bike_id": "19aad69432d2a5314295faa0c5ca23a1", "lon": -77.0526775, "fusion_lat": 0.0, "rental_uris": {"android": "https://dc.lft.to/lastmile_qr_scan", "ios": "https://dc.lft.to/lastmile_qr_scan"}, "type": "electric_scooter"}, {"is_reserved": 0, "is_disabled": 0, "fusion_lon": 0.0, "lat": 38.927784333333335, "name": "1a27de3fc64867f85c8822f7b89e68ff", "bike_id": "1a27de3fc64867f85c8822f7b89e68ff", "lon": -77.037058, "fusion_lat": 0.0, "rental_uris": {"android": "https://dc.lft.to/lastmile_qr_scan", "ios": "https://dc.lft.to/lastmile_qr_scan"}, "type": "electric_scooter"}, {"is_reserved": 0, "is_disabled": 0, "fusion_lon": 0.0, "lat": 38.896905833333335, "name": "6a2abcf105c7b710b7894b38f75314f9", "bike_id": "6a2abcf105c7b710b7894b38f75314f9", "lon": -77.005861, "fusion_lat": 0.0, "rental_uris": {"android": "https://dc.lft.to/lastmile_qr_scan", "ios": "https://dc.lft.to/lastmile_qr_scan"}, "type": "electric_scooter"}, {"is_reserved": 0, "is_disabled": 0, "fusion_lon": 0.0, "lat": 38.914076333333334, "name": "72f84fbdac1e90bf806e9d5b079ec62a", "bike_id": "72f84fbdac1e90bf806e9d5b079ec62a", "lon": -77.04883833333334, "fusion_lat": 0.0, "rental_uris": {"android": "https://dc.lft.to/lastmile_qr_scan", "ios": "https://dc.lft.to/lastmile_qr_scan"}, "type": "electric_scooter"}, {"is_reserved": 0, "is_disabled": 0, "fusion_lon": 0.0, "lat": 38.9163215, "name": "50644ca63a0406d7d1abc4e7ed5b7aa3", "bike_id": "50644ca63a0406d7d1abc4e7ed5b7aa3", "lon": -77.05052083333334, "fusion_lat": 0.0, "rental_uris": {"android": "https://dc.lft.to/lastmile_qr_scan", "ios": "https://dc.lft.to/lastmile_qr_scan"}, "type": "electric_scooter"}, {"is_reserved": 0, "is_disabled": 0, "fusion_lon": 0.0, "lat": 38.931220333333336, "name": "07640a7daaae4796d228ca5ab5656b0e", "bike_id": "07640a7daaae4796d228ca5ab5656b0e", "lon": -77.0206955, "fusion_lat": 0.0, "rental_uris": {"android": "https://dc.lft.to/lastmile_qr_scan", "ios": "https://dc.lft.to/lastmile_qr_scan"}, "type": "electric_scooter"}, {"is_reserved": 0, "is_disabled": 0, "fusion_lon": 0.0, "lat": 38.94292433333333, "name": "2cf28aa64ad1be16478c312b01e7008b", "bike_id": "2cf28aa64ad1be16478c312b01e7008b", "lon": -77.0263275, "fusion_lat": 0.0, "rental_uris": {"android": "https://dc.lft.to/lastmile_qr_scan", "ios": "https://dc.lft.to/lastmile_qr_scan"}, "type": "electric_scooter"}, {"is_reserved": 0, "is_disabled": 0, "fusion_lon": 0.0, "lat": 38.92412266666667, "name": "2232dc634b4444f3fb9d76e91e92962a", "bike_id": "2232dc634b4444f3fb9d76e91e92962a", "lon": -77.02128466666667, "fusion_lat": 0.0, "rental_uris": {"android": "https://dc.lft.to/lastmile_qr_scan", "ios": "https://dc.lft.to/lastmile_qr_scan"}, "type": "electric_scooter"}, {"is_reserved": 0, "is_disabled": 0, "fusion_lon": 0.0, "lat": 38.91408916666666, "name": "041cd232983ad7ef24a04154ffa39fae", "bike_id": "041cd232983ad7ef24a04154ffa39fae", "lon": -77.02238266666667, "fusion_lat": 0.0, "rental_uris": {"android": "https://dc.lft.to/lastmile_qr_scan", "ios": "https://dc.lft.to/lastmile_qr_scan"}, "type": "electric_scooter"}, {"is_reserved": 0, "is_disabled": 0, "fusion_lon": 0.0, "lat": 38.9352615, "name": "79943fa41352600725b88fdc439fdbc3", "bike_id": "79943fa41352600725b88fdc439fdbc3", "lon": -77.03488433333334, "fusion_lat": 0.0, "rental_uris": {"android": "https://dc.lft.to/lastmile_qr_scan", "ios": "https://dc.lft.to/lastmile_qr_scan"}, "type": "electric_scooter"}, {"is_reserved": 0, "is_disabled": 0, "fusion_lon": 0.0, "lat": 38.916769333333335, "name": "d884f6e3ce265cc473f87f1d25bd44cd", "bike_id": "d884f6e3ce265cc473f87f1d25bd44cd", "lon": -77.015817, "fusion_lat": 0.0, "rental_uris": {"android": "https://dc.lft.to/lastmile_qr_scan", "ios": "https://dc.lft.to/lastmile_qr_scan"}, "type": "electric_scooter"}, {"is_reserved": 0, "is_disabled": 0, "fusion_lon": 0.0, "lat": 38.913885666666665, "name": "27c0d62c631a77f2546af15ca9c25744", "bike_id": "27c0d62c631a77f2546af15ca9c25744", "lon": -76.98412233333333, "fusion_lat": 0.0, "rental_uris": {"android": "https://dc.lft.to/lastmile_qr_scan", "ios": "https://dc.lft.to/lastmile_qr_scan"}, "type": "electric_scooter"}, {"is_reserved": 0, "is_disabled": 0, "fusion_lon": 0.0, "lat": 38.87074033333333, "name": "2916da07fdb3ef478c26bfd33bc45635", "bike_id": "2916da07fdb3ef478c26bfd33bc45635", "lon": -77.11024083333334, "fusion_lat": 0.0, "rental_uris": {"android": "https://dc.lft.to/lastmile_qr_scan", "ios": "https://dc.lft.to/lastmile_qr_scan"}, "type": "electric_bike"}, {"is_reserved": 0, "is_disabled": 0, "fusion_lon": 0.0, "lat": 38.907371499999996, "name": "00a76973aaf21d7141becfb73ab308d6", "bike_id": "00a76973aaf21d7141becfb73ab308d6", "lon": -77.02804266666666, "fusion_lat": 0.0, "rental_uris": {"android": "https://dc.lft.to/lastmile_qr_scan", "ios": "https://dc.lft.to/lastmile_qr_scan"}, "type": "electric_scooter"}, {"is_reserved": 0, "is_disabled": 0, "fusion_lon": 0.0, "lat": 38.87471683333333, "name": "1e4824789ffcaf5df2674c4a8147ef07", "bike_id": "1e4824789ffcaf5df2674c4a8147ef07", "lon": -77.005107, "fusion_lat": 0.0, "rental_uris": {"android": "https://dc.lft.to/lastmile_qr_scan", "ios": "https://dc.lft.to/lastmile_qr_scan"}, "type": "electric_scooter"}, {"is_reserved": 0, "is_disabled": 0, "fusion_lon": 0.0, "lat": 38.92386883333333, "name": "3eb470991e781005fbb941575ebce398", "bike_id": "3eb470991e781005fbb941575ebce398", "lon": -77.03656766666667, "fusion_lat": 0.0, "rental_uris": {"android": "https://dc.lft.to/lastmile_qr_scan", "ios": "https://dc.lft.to/lastmile_qr_scan"}, "type": "electric_scooter"}, {"is_reserved": 0, "is_disabled": 0, "fusion_lon": 0.0, "lat": 38.923533666666664, "name": "07df4f65dda3d1b925a2b3288fce21d3", "bike_id": "07df4f65dda3d1b925a2b3288fce21d3", "lon": -77.02445333333333, "fusion_lat": 0.0, "rental_uris": {"android": "https://dc.lft.to/lastmile_qr_scan", "ios": "https://dc.lft.to/lastmile_qr_scan"}, "type": "electric_scooter"}, {"is_reserved": 0, "is_disabled": 0, "fusion_lon": 0.0, "lat": 38.930726166666666, "name": "be7d7e02d4b76a4e8e975c1ba696f779", "bike_id": "be7d7e02d4b76a4e8e975c1ba696f779", "lon": -77.01983166666666, "fusion_lat": 0.0, "rental_uris": {"android": "https://dc.lft.to/lastmile_qr_scan", "ios": "https://dc.lft.to/lastmile_qr_scan"}, "type": "electric_scooter"}, {"is_reserved": 0, "is_disabled": 0, "fusion_lon": 0.0, "lat": 38.964059166666665, "name": "1df60b74cf25ab4a51ee98aa48019322", "bike_id": "1df60b74cf25ab4a51ee98aa48019322", "lon": -77.0327925, "fusion_lat": 0.0, "rental_uris": {"android": "https://dc.lft.to/lastmile_qr_scan", "ios": "https://dc.lft.to/lastmile_qr_scan"}, "type": "electric_scooter"}, {"is_reserved": 0, "is_disabled": 0, "fusion_lon": 0.0, "lat": 38.897346666666664, "name": "aa7ba6302bd1cc79daeb04d63bd5e59f", "bike_id": "aa7ba6302bd1cc79daeb04d63bd5e59f", "lon": -77.05529366666667, "fusion_lat": 0.0, "rental_uris": {"android": "https://dc.lft.to/lastmile_qr_scan", "ios": "https://dc.lft.to/lastmile_qr_scan"}, "type": "electric_scooter"}, {"is_reserved": 0, "is_disabled": 0, "fusion_lon": 0.0, "lat": 38.903806833333334, "name": "2d9091e167dc72a58fdef67b4e4710bf", "bike_id": "2d9091e167dc72a58fdef67b4e4710bf", "lon": -77.017714, "fusion_lat": 0.0, "rental_uris": {"android": "https://dc.lft.to/lastmile_qr_scan", "ios": "https://dc.lft.to/lastmile_qr_scan"}, "type": "electric_scooter"}, {"is_reserved": 0, "is_disabled": 0, "fusion_lon": 0.0, "lat": 38.917102666666665, "name": "a6cd715ed037b2344b974617426e719d", "bike_id": "a6cd715ed037b2344b974617426e719d", "lon": -77.0334335, "fusion_lat": 0.0, "rental_uris": {"android": "https://dc.lft.to/lastmile_qr_scan", "ios": "https://dc.lft.to/lastmile_qr_scan"}, "type": "electric_scooter"}, {"is_reserved": 0, "is_disabled": 0, "fusion_lon": 0.0, "lat": 38.91697216666667, "name": "852ffa2724f1da3e23ada247b49c8aa3", "bike_id": "852ffa2724f1da3e23ada247b49c8aa3", "lon": -77.03768166666667, "fusion_lat": 0.0, "rental_uris": {"android": "https://dc.lft.to/lastmile_qr_scan", "ios": "https://dc.lft.to/lastmile_qr_scan"}, "type": "electric_scooter"}, {"is_reserved": 0, "is_disabled": 0, "fusion_lon": 0.0, "lat": 38.89497983333333, "name": "601dcc1875fadcc6743116fe76c8ec02", "bike_id": "601dcc1875fadcc6743116fe76c8ec02", "lon": -77.02291716666667, "fusion_lat": 0.0, "rental_uris": {"android": "https://dc.lft.to/lastmile_qr_scan", "ios": "https://dc.lft.to/lastmile_qr_scan"}, "type": "electric_scooter"}, {"is_reserved": 0, "is_disabled": 0, "fusion_lon": 0.0, "lat": 38.93659, "name": "611c06c4922de5f803e780792df62c26", "bike_id": "611c06c4922de5f803e780792df62c26", "lon": -76.99352916666666, "fusion_lat": 0.0, "rental_uris": {"android": "https://dc.lft.to/lastmile_qr_scan", "ios": "https://dc.lft.to/lastmile_qr_scan"}, "type": "electric_scooter"}, {"is_reserved": 0, "is_disabled": 0, "fusion_lon": 0.0, "lat": 38.926881333333334, "name": "277003dd9d7c77598987a47288960427", "bike_id": "277003dd9d7c77598987a47288960427", "lon": -77.02962933333333, "fusion_lat": 0.0, "rental_uris": {"android": "https://dc.lft.to/lastmile_qr_scan", "ios": "https://dc.lft.to/lastmile_qr_scan"}, "type": "electric_scooter"}, {"is_reserved": 0, "is_disabled": 0, "fusion_lon": 0.0, "lat": 38.896089833333335, "name": "334202e0ef51946fb0876098c9f3e448", "bike_id": "334202e0ef51946fb0876098c9f3e448", "lon": -77.04790033333333, "fusion_lat": 0.0, "rental_uris": {"android": "https://dc.lft.to/lastmile_qr_scan", "ios": "https://dc.lft.to/lastmile_qr_scan"}, "type": "electric_scooter"}, {"is_reserved": 0, "is_disabled": 0, "fusion_lon": 0.0, "lat": 38.929142, "name": "5afb713ddf1d55920acc7c1d69480fe6", "bike_id": "5afb713ddf1d55920acc7c1d69480fe6", "lon": -77.0238245, "fusion_lat": 0.0, "rental_uris": {"android": "https://dc.lft.to/lastmile_qr_scan", "ios": "https://dc.lft.to/lastmile_qr_scan"}, "type": "electric_bike"}, {"is_reserved": 0, "is_disabled": 0, "fusion_lon": 0.0, "lat": 38.9180845, "name": "bf193adfd76ffa4449006296296e5305", "bike_id": "bf193adfd76ffa4449006296296e5305", "lon": -77.03438716666666, "fusion_lat": 0.0, "rental_uris": {"android": "https://dc.lft.to/lastmile_qr_scan", "ios": "https://dc.lft.to/lastmile_qr_scan"}, "type": "electric_scooter"}, {"is_reserved": 0, "is_disabled": 0, "fusion_lon": 0.0, "lat": 38.92000383333333, "name": "29e6d609b0930ab9629e3e415e8a41f9", "bike_id": "29e6d609b0930ab9629e3e415e8a41f9", "lon": -76.98397716666666, "fusion_lat": 0.0, "rental_uris": {"android": "https://dc.lft.to/lastmile_qr_scan", "ios": "https://dc.lft.to/lastmile_qr_scan"}, "type": "electric_scooter"}, {"is_reserved": 0, "is_disabled": 0, "fusion_lon": 0.0, "lat": 38.922571166666664, "name": "c2873e1c93e046908a3483716197fbef", "bike_id": "c2873e1c93e046908a3483716197fbef", "lon": -76.98648983333334, "fusion_lat": 0.0, "rental_uris": {"android": "https://dc.lft.to/lastmile_qr_scan", "ios": "https://dc.lft.to/lastmile_qr_scan"}, "type": "electric_bike"}, {"is_reserved": 0, "is_disabled": 0, "fusion_lon": 0.0, "lat": 38.8922315, "name": "2dfb19e36666d7325b20737519e06563", "bike_id": "2dfb19e36666d7325b20737519e06563", "lon": -77.043602, "fusion_lat": 0.0, "rental_uris": {"android": "https://dc.lft.to/lastmile_qr_scan", "ios": "https://dc.lft.to/lastmile_qr_scan"}, "type": "electric_scooter"}, {"is_reserved": 0, "is_disabled": 0, "fusion_lon": 0.0, "lat": 38.88014033333333, "name": "3a12721734d068ffc788edc3551ea28c", "bike_id": "3a12721734d068ffc788edc3551ea28c", "lon": -77.00565583333334, "fusion_lat": 0.0, "rental_uris": {"android": "https://dc.lft.to/lastmile_qr_scan", "ios": "https://dc.lft.to/lastmile_qr_scan"}, "type": "electric_scooter"}, {"is_reserved": 0, "is_disabled": 0, "fusion_lon": 0.0, "lat": 38.85433833333333, "name": "9e00812f87385ff4182d5af4c9b0fed6", "bike_id": "9e00812f87385ff4182d5af4c9b0fed6", "lon": -76.971576, "fusion_lat": 0.0, "rental_uris": {"android": "https://dc.lft.to/lastmile_qr_scan", "ios": "https://dc.lft.to/lastmile_qr_scan"}, "type": "electric_scooter"}, {"is_reserved": 0, "is_disabled": 0, "fusion_lon": 0.0, "lat": 38.9106125, "name": "84e2df538686d3547895a0aca3d26f70", "bike_id": "84e2df538686d3547895a0aca3d26f70", "lon": -77.0417365, "fusion_lat": 0.0, "rental_uris": {"android": "https://dc.lft.to/lastmile_qr_scan", "ios": "https://dc.lft.to/lastmile_qr_scan"}, "type": "electric_scooter"}, {"is_reserved": 0, "is_disabled": 0, "fusion_lon": 0.0, "lat": 38.9604795, "name": "f5c06b0a9680ff4b42e277c6f1f3a586", "bike_id": "f5c06b0a9680ff4b42e277c6f1f3a586", "lon": -77.00505916666667, "fusion_lat": 0.0, "rental_uris": {"android": "https://dc.lft.to/lastmile_qr_scan", "ios": "https://dc.lft.to/lastmile_qr_scan"}, "type": "electric_scooter"}, {"is_reserved": 0, "is_disabled": 0, "fusion_lon": 0.0, "lat": 38.924819166666666, "name": "7d3d53e0b3011b6b7fc4bd9464f63e45", "bike_id": "7d3d53e0b3011b6b7fc4bd9464f63e45", "lon": -77.03785966666666, "fusion_lat": 0.0, "rental_uris": {"android": "https://dc.lft.to/lastmile_qr_scan", "ios": "https://dc.lft.to/lastmile_qr_scan"}, "type": "electric_scooter"}, {"is_reserved": 0, "is_disabled": 0, "fusion_lon": 0.0, "lat": 38.950669500000004, "name": "f3fdac365470804d0a7acc36d9358990", "bike_id": "f3fdac365470804d0a7acc36d9358990", "lon": -76.97080866666667, "fusion_lat": 0.0, "rental_uris": {"android": "https://dc.lft.to/lastmile_qr_scan", "ios": "https://dc.lft.to/lastmile_qr_scan"}, "type": "electric_bike"}, {"is_reserved": 0, "is_disabled": 0, "fusion_lon": 0.0, "lat": 38.85793066666667, "name": "5a82d4e5344cc022ddc7b39e76332d3d", "bike_id": "5a82d4e5344cc022ddc7b39e76332d3d", "lon": -77.09961883333334, "fusion_lat": 0.0, "rental_uris": {"android": "https://dc.lft.to/lastmile_qr_scan", "ios": "https://dc.lft.to/lastmile_qr_scan"}, "type": "electric_bike"}, {"is_reserved": 0, "is_disabled": 0, "fusion_lon": 0.0, "lat": 38.9242655, "name": "4814edf0399dca257ebb87e6e8a4773b", "bike_id": "4814edf0399dca257ebb87e6e8a4773b", "lon": -77.02136683333333, "fusion_lat": 0.0, "rental_uris": {"android": "https://dc.lft.to/lastmile_qr_scan", "ios": "https://dc.lft.to/lastmile_qr_scan"}, "type": "electric_scooter"}, {"is_reserved": 0, "is_disabled": 0, "fusion_lon": 0.0, "lat": 38.901629166666666, "name": "4d3c58e07800e9610eb957feddc2839c", "bike_id": "4d3c58e07800e9610eb957feddc2839c", "lon": -77.04867766666666, "fusion_lat": 0.0, "rental_uris": {"android": "https://dc.lft.to/lastmile_qr_scan", "ios": "https://dc.lft.to/lastmile_qr_scan"}, "type": "electric_scooter"}, {"is_reserved": 0, "is_disabled": 0, "fusion_lon": 0.0, "lat": 38.904285, "name": "1e710bfb0907e04c59fcb5c08d908986", "bike_id": "1e710bfb0907e04c59fcb5c08d908986", "lon": -77.04329533333333, "fusion_lat": 0.0, "rental_uris": {"android": "https://dc.lft.to/lastmile_qr_scan", "ios": "https://dc.lft.to/lastmile_qr_scan"}, "type": "electric_scooter"}, {"is_reserved": 0, "is_disabled": 0, "fusion_lon": 0.0, "lat": 38.90252866666667, "name": "91e1b4918d8902df6d900f37a22e3439", "bike_id": "91e1b4918d8902df6d900f37a22e3439", "lon": -77.02821883333333, "fusion_lat": 0.0, "rental_uris": {"android": "https://dc.lft.to/lastmile_qr_scan", "ios": "https://dc.lft.to/lastmile_qr_scan"}, "type": "electric_scooter"}, {"is_reserved": 0, "is_disabled": 0, "fusion_lon": 0.0, "lat": 38.86487616666667, "name": "6bedf3d212f84f82e3f8cdb13169a841", "bike_id": "6bedf3d212f84f82e3f8cdb13169a841", "lon": -76.97749866666666, "fusion_lat": 0.0, "rental_uris": {"android": "https://dc.lft.to/lastmile_qr_scan", "ios": "https://dc.lft.to/lastmile_qr_scan"}, "type": "electric_bike"}, {"is_reserved": 0, "is_disabled": 0, "fusion_lon": 0.0, "lat": 38.89004933333333, "name": "1d14bde5a9227ee56ad8482607992dc7", "bike_id": "1d14bde5a9227ee56ad8482607992dc7", "lon": -76.93745766666666, "fusion_lat": 0.0, "rental_uris": {"android": "https://dc.lft.to/lastmile_qr_scan", "ios": "https://dc.lft.to/lastmile_qr_scan"}, "type": "electric_scooter"}, {"is_reserved": 0, "is_disabled": 0, "fusion_lon": 0.0, "lat": 38.916818, "name": "e7e0ec9bbae4d95d6a6453593f367cf7", "bike_id": "e7e0ec9bbae4d95d6a6453593f367cf7", "lon": -77.02954316666667, "fusion_lat": 0.0, "rental_uris": {"android": "https://dc.lft.to/lastmile_qr_scan", "ios": "https://dc.lft.to/lastmile_qr_scan"}, "type": "electric_scooter"}, {"is_reserved": 0, "is_disabled": 0, "fusion_lon": 0.0, "lat": 38.91658833333334, "name": "af536579b64b8b9888c2e706060b26c3", "bike_id": "af536579b64b8b9888c2e706060b26c3", "lon": -77.02000666666666, "fusion_lat": 0.0, "rental_uris": {"android": "https://dc.lft.to/lastmile_qr_scan", "ios": "https://dc.lft.to/lastmile_qr_scan"}, "type": "electric_scooter"}, {"is_reserved": 0, "is_disabled": 0, "fusion_lon": 0.0, "lat": 38.924130166666664, "name": "602904aa650f1145bfd448439030de19", "bike_id": "602904aa650f1145bfd448439030de19", "lon": -77.05069716666667, "fusion_lat": 0.0, "rental_uris": {"android": "https://dc.lft.to/lastmile_qr_scan", "ios": "https://dc.lft.to/lastmile_qr_scan"}, "type": "electric_scooter"}, {"is_reserved": 0, "is_disabled": 0, "fusion_lon": 0.0, "lat": 38.90036283333333, "name": "9ef8979bb89eb86d58e89a610fc00833", "bike_id": "9ef8979bb89eb86d58e89a610fc00833", "lon": -76.991525, "fusion_lat": 0.0, "rental_uris": {"android": "https://dc.lft.to/lastmile_qr_scan", "ios": "https://dc.lft.to/lastmile_qr_scan"}, "type": "electric_scooter"}, {"is_reserved": 0, "is_disabled": 0, "fusion_lon": 0.0, "lat": 38.96621566666666, "name": "d518e11bf070e488da55ba65629aa68e", "bike_id": "d518e11bf070e488da55ba65629aa68e", "lon": -77.03432733333334, "fusion_lat": 0.0, "rental_uris": {"android": "https://dc.lft.to/lastmile_qr_scan", "ios": "https://dc.lft.to/lastmile_qr_scan"}, "type": "electric_bike"}, {"is_reserved": 0, "is_disabled": 0, "fusion_lon": 0.0, "lat": 38.93389066666667, "name": "4386b7ce63eadb9adf6384b36ec61699", "bike_id": "4386b7ce63eadb9adf6384b36ec61699", "lon": -77.03248916666666, "fusion_lat": 0.0, "rental_uris": {"android": "https://dc.lft.to/lastmile_qr_scan", "ios": "https://dc.lft.to/lastmile_qr_scan"}, "type": "electric_scooter"}, {"is_reserved": 0, "is_disabled": 0, "fusion_lon": 0.0, "lat": 38.908587833333335, "name": "f682699344efbc28fab4f255aa353160", "bike_id": "f682699344efbc28fab4f255aa353160", "lon": -76.99680333333333, "fusion_lat": 0.0, "rental_uris": {"android": "https://dc.lft.to/lastmile_qr_scan", "ios": "https://dc.lft.to/lastmile_qr_scan"}, "type": "electric_scooter"}, {"is_reserved": 0, "is_disabled": 0, "fusion_lon": 0.0, "lat": 38.89839033333333, "name": "0942f24ad5239f1b9606e15d8d1dfeae", "bike_id": "0942f24ad5239f1b9606e15d8d1dfeae", "lon": -76.98754866666667, "fusion_lat": 0.0, "rental_uris": {"android": "https://dc.lft.to/lastmile_qr_scan", "ios": "https://dc.lft.to/lastmile_qr_scan"}, "type": "electric_scooter"}, {"is_reserved": 0, "is_disabled": 0, "fusion_lon": 0.0, "lat": 38.900134, "name": "eac3538c1d4d467fc08ae997e25c3bfa", "bike_id": "eac3538c1d4d467fc08ae997e25c3bfa", "lon": -76.93023433333333, "fusion_lat": 0.0, "rental_uris": {"android": "https://dc.lft.to/lastmile_qr_scan", "ios": "https://dc.lft.to/lastmile_qr_scan"}, "type": "electric_scooter"}, {"is_reserved": 0, "is_disabled": 0, "fusion_lon": 0.0, "lat": 38.87599983333333, "name": "d0cb7524b2fef14b9cd6e275a51ac110", "bike_id": "d0cb7524b2fef14b9cd6e275a51ac110", "lon": -77.005835, "fusion_lat": 0.0, "rental_uris": {"android": "https://dc.lft.to/lastmile_qr_scan", "ios": "https://dc.lft.to/lastmile_qr_scan"}, "type": "electric_scooter"}, {"is_reserved": 0, "is_disabled": 0, "fusion_lon": 0.0, "lat": 38.92247533333333, "name": "a7502ddca9c642137b65f76c1a992732", "bike_id": "a7502ddca9c642137b65f76c1a992732", "lon": -77.04358, "fusion_lat": 0.0, "rental_uris": {"android": "https://dc.lft.to/lastmile_qr_scan", "ios": "https://dc.lft.to/lastmile_qr_scan"}, "type": "electric_scooter"}, {"is_reserved": 0, "is_disabled": 0, "fusion_lon": 0.0, "lat": 38.933781, "name": "e6f2a4fac9f5456025f63e304a57162e", "bike_id": "e6f2a4fac9f5456025f63e304a57162e", "lon": -77.02965166666667, "fusion_lat": 0.0, "rental_uris": {"android": "https://dc.lft.to/lastmile_qr_scan", "ios": "https://dc.lft.to/lastmile_qr_scan"}, "type": "electric_scooter"}, {"is_reserved": 0, "is_disabled": 0, "fusion_lon": 0.0, "lat": 38.907603333333334, "name": "abc91dd503edbc39f5a293478409e341", "bike_id": "abc91dd503edbc39f5a293478409e341", "lon": -77.04531866666666, "fusion_lat": 0.0, "rental_uris": {"android": "https://dc.lft.to/lastmile_qr_scan", "ios": "https://dc.lft.to/lastmile_qr_scan"}, "type": "electric_scooter"}, {"is_reserved": 0, "is_disabled": 0, "fusion_lon": 0.0, "lat": 38.874605333333335, "name": "14276bbf86b1ba0b6378294d5db7a600", "bike_id": "14276bbf86b1ba0b6378294d5db7a600", "lon": -77.002725, "fusion_lat": 0.0, "rental_uris": {"android": "https://dc.lft.to/lastmile_qr_scan", "ios": "https://dc.lft.to/lastmile_qr_scan"}, "type": "electric_scooter"}, {"is_reserved": 0, "is_disabled": 0, "fusion_lon": 0.0, "lat": 38.9309495, "name": "34b4a803021006f59291e34d803ab463", "bike_id": "34b4a803021006f59291e34d803ab463", "lon": -77.02476883333334, "fusion_lat": 0.0, "rental_uris": {"android": "https://dc.lft.to/lastmile_qr_scan", "ios": "https://dc.lft.to/lastmile_qr_scan"}, "type": "electric_scooter"}, {"is_reserved": 0, "is_disabled": 0, "fusion_lon": 0.0, "lat": 38.875536, "name": "86309e2f4a3533a99c2fdff572637fad", "bike_id": "86309e2f4a3533a99c2fdff572637fad", "lon": -77.00587816666666, "fusion_lat": 0.0, "rental_uris": {"android": "https://dc.lft.to/lastmile_qr_scan", "ios": "https://dc.lft.to/lastmile_qr_scan"}, "type": "electric_scooter"}, {"is_reserved": 0, "is_disabled": 0, "fusion_lon": 0.0, "lat": 38.921913333333336, "name": "ab6f1ceea22fbd131814857cec00fdc1", "bike_id": "ab6f1ceea22fbd131814857cec00fdc1", "lon": -76.99623633333333, "fusion_lat": 0.0, "rental_uris": {"android": "https://dc.lft.to/lastmile_qr_scan", "ios": "https://dc.lft.to/lastmile_qr_scan"}, "type": "electric_scooter"}, {"is_reserved": 0, "is_disabled": 0, "fusion_lon": 0.0, "lat": 38.93215766666667, "name": "680aa2da7a578091295f99555610ef7d", "bike_id": "680aa2da7a578091295f99555610ef7d", "lon": -77.03344666666666, "fusion_lat": 0.0, "rental_uris": {"android": "https://dc.lft.to/lastmile_qr_scan", "ios": "https://dc.lft.to/lastmile_qr_scan"}, "type": "electric_scooter"}, {"is_reserved": 0, "is_disabled": 0, "fusion_lon": 0.0, "lat": 38.8717595, "name": "01dd2aacdae288a0c8002bf65feae469", "bike_id": "01dd2aacdae288a0c8002bf65feae469", "lon": -77.00660483333333, "fusion_lat": 0.0, "rental_uris": {"android": "https://dc.lft.to/lastmile_qr_scan", "ios": "https://dc.lft.to/lastmile_qr_scan"}, "type": "electric_scooter"}, {"is_reserved": 0, "is_disabled": 0, "fusion_lon": 0.0, "lat": 38.934025166666665, "name": "e16b894e6ff3330dbe32bceb1a2a8a24", "bike_id": "e16b894e6ff3330dbe32bceb1a2a8a24", "lon": -77.04545166666666, "fusion_lat": 0.0, "rental_uris": {"android": "https://dc.lft.to/lastmile_qr_scan", "ios": "https://dc.lft.to/lastmile_qr_scan"}, "type": "electric_scooter"}, {"is_reserved": 0, "is_disabled": 0, "fusion_lon": 0.0, "lat": 38.91405833333334, "name": "f78cece77a5f5bece5a5c8ba819b4a1e", "bike_id": "f78cece77a5f5bece5a5c8ba819b4a1e", "lon": -77.02378866666666, "fusion_lat": 0.0, "rental_uris": {"android": "https://dc.lft.to/lastmile_qr_scan", "ios": "https://dc.lft.to/lastmile_qr_scan"}, "type": "electric_scooter"}, {"is_reserved": 0, "is_disabled": 0, "fusion_lon": 0.0, "lat": 38.908676, "name": "8842926067912da813da99e78318b741", "bike_id": "8842926067912da813da99e78318b741", "lon": -77.024181, "fusion_lat": 0.0, "rental_uris": {"android": "https://dc.lft.to/lastmile_qr_scan", "ios": "https://dc.lft.to/lastmile_qr_scan"}, "type": "electric_scooter"}, {"is_reserved": 0, "is_disabled": 0, "fusion_lon": 0.0, "lat": 38.92458516666667, "name": "b8da483db698b71ba40015a22e67795f", "bike_id": "b8da483db698b71ba40015a22e67795f", "lon": -76.99914016666666, "fusion_lat": 0.0, "rental_uris": {"android": "https://dc.lft.to/lastmile_qr_scan", "ios": "https://dc.lft.to/lastmile_qr_scan"}, "type": "electric_scooter"}, {"is_reserved": 0, "is_disabled": 0, "fusion_lon": 0.0, "lat": 38.937818166666666, "name": "1b62411884588cd1b5b9d1d7023b112b", "bike_id": "1b62411884588cd1b5b9d1d7023b112b", "lon": -77.03281333333334, "fusion_lat": 0.0, "rental_uris": {"android": "https://dc.lft.to/lastmile_qr_scan", "ios": "https://dc.lft.to/lastmile_qr_scan"}, "type": "electric_scooter"}, {"is_reserved": 0, "is_disabled": 0, "fusion_lon": 0.0, "lat": 38.93705333333333, "name": "e1aa7ef23c6f7cb6797f93a829836c21", "bike_id": "e1aa7ef23c6f7cb6797f93a829836c21", "lon": -77.03278816666666, "fusion_lat": 0.0, "rental_uris": {"android": "https://dc.lft.to/lastmile_qr_scan", "ios": "https://dc.lft.to/lastmile_qr_scan"}, "type": "electric_scooter"}, {"is_reserved": 0, "is_disabled": 0, "fusion_lon": 0.0, "lat": 38.8648785, "name": "d3bfec056181aee482149a21d842356e", "bike_id": "d3bfec056181aee482149a21d842356e", "lon": -76.97747633333333, "fusion_lat": 0.0, "rental_uris": {"android": "https://dc.lft.to/lastmile_qr_scan", "ios": "https://dc.lft.to/lastmile_qr_scan"}, "type": "electric_bike"}, {"is_reserved": 0, "is_disabled": 0, "fusion_lon": 0.0, "lat": 38.921214166666665, "name": "73efefdb90eb99464589d00aaee2f830", "bike_id": "73efefdb90eb99464589d00aaee2f830", "lon": -77.04571816666666, "fusion_lat": 0.0, "rental_uris": {"android": "https://dc.lft.to/lastmile_qr_scan", "ios": "https://dc.lft.to/lastmile_qr_scan"}, "type": "electric_scooter"}, {"is_reserved": 0, "is_disabled": 0, "fusion_lon": 0.0, "lat": 38.929685166666665, "name": "2f730b69f2b939a234c66ab03d5c94c0", "bike_id": "2f730b69f2b939a234c66ab03d5c94c0", "lon": -77.0233175, "fusion_lat": 0.0, "rental_uris": {"android": "https://dc.lft.to/lastmile_qr_scan", "ios": "https://dc.lft.to/lastmile_qr_scan"}, "type": "electric_scooter"}, {"is_reserved": 0, "is_disabled": 0, "fusion_lon": 0.0, "lat": 38.914926, "name": "2a1a13db68c8a8cb5935281ebeeb1a5e", "bike_id": "2a1a13db68c8a8cb5935281ebeeb1a5e", "lon": -77.01852116666667, "fusion_lat": 0.0, "rental_uris": {"android": "https://dc.lft.to/lastmile_qr_scan", "ios": "https://dc.lft.to/lastmile_qr_scan"}, "type": "electric_scooter"}, {"is_reserved": 0, "is_disabled": 0, "fusion_lon": 0.0, "lat": 38.93534116666667, "name": "879b04fd59dd98cfe30939f5d4341f41", "bike_id": "879b04fd59dd98cfe30939f5d4341f41", "lon": -77.02343633333334, "fusion_lat": 0.0, "rental_uris": {"android": "https://dc.lft.to/lastmile_qr_scan", "ios": "https://dc.lft.to/lastmile_qr_scan"}, "type": "electric_scooter"}, {"is_reserved": 0, "is_disabled": 0, "fusion_lon": 0.0, "lat": 38.91338483333333, "name": "74d7656df86f88b248888e2c0145ca9e", "bike_id": "74d7656df86f88b248888e2c0145ca9e", "lon": -77.0398525, "fusion_lat": 0.0, "rental_uris": {"android": "https://dc.lft.to/lastmile_qr_scan", "ios": "https://dc.lft.to/lastmile_qr_scan"}, "type": "electric_scooter"}, {"is_reserved": 0, "is_disabled": 0, "fusion_lon": 0.0, "lat": 38.926751, "name": "fd776f6393a2008f13df9b004a8f2efb", "bike_id": "fd776f6393a2008f13df9b004a8f2efb", "lon": -77.05434033333333, "fusion_lat": 0.0, "rental_uris": {"android": "https://dc.lft.to/lastmile_qr_scan", "ios": "https://dc.lft.to/lastmile_qr_scan"}, "type": "electric_scooter"}, {"is_reserved": 0, "is_disabled": 0, "fusion_lon": 0.0, "lat": 38.89884766666667, "name": "774359a84ceaed4077e9b69f02809f1d", "bike_id": "774359a84ceaed4077e9b69f02809f1d", "lon": -76.979977, "fusion_lat": 0.0, "rental_uris": {"android": "https://dc.lft.to/lastmile_qr_scan", "ios": "https://dc.lft.to/lastmile_qr_scan"}, "type": "electric_scooter"}, {"is_reserved": 0, "is_disabled": 0, "fusion_lon": 0.0, "lat": 38.896072833333335, "name": "6bef158d0c8845b2b2f46b16290090ab", "bike_id": "6bef158d0c8845b2b2f46b16290090ab", "lon": -77.00891416666667, "fusion_lat": 0.0, "rental_uris": {"android": "https://dc.lft.to/lastmile_qr_scan", "ios": "https://dc.lft.to/lastmile_qr_scan"}, "type": "electric_scooter"}, {"is_reserved": 0, "is_disabled": 0, "fusion_lon": 0.0, "lat": 38.92562866666667, "name": "166c75a766abd653d6ea5e5716f5fdf3", "bike_id": "166c75a766abd653d6ea5e5716f5fdf3", "lon": -77.038162, "fusion_lat": 0.0, "rental_uris": {"android": "https://dc.lft.to/lastmile_qr_scan", "ios": "https://dc.lft.to/lastmile_qr_scan"}, "type": "electric_scooter"}, {"is_reserved": 0, "is_disabled": 0, "fusion_lon": 0.0, "lat": 38.92079416666667, "name": "7ca344ca4c3d1f0298ec495dcc06a10e", "bike_id": "7ca344ca4c3d1f0298ec495dcc06a10e", "lon": -77.041819, "fusion_lat": 0.0, "rental_uris": {"android": "https://dc.lft.to/lastmile_qr_scan", "ios": "https://dc.lft.to/lastmile_qr_scan"}, "type": "electric_scooter"}, {"is_reserved": 0, "is_disabled": 0, "fusion_lon": 0.0, "lat": 38.927655333333334, "name": "7c0a80dd94a9f96a724dd4ebd4472ae1", "bike_id": "7c0a80dd94a9f96a724dd4ebd4472ae1", "lon": -77.03205116666666, "fusion_lat": 0.0, "rental_uris": {"android": "https://dc.lft.to/lastmile_qr_scan", "ios": "https://dc.lft.to/lastmile_qr_scan"}, "type": "electric_scooter"}, {"is_reserved": 0, "is_disabled": 0, "fusion_lon": 0.0, "lat": 38.92692066666667, "name": "c02b7901f75d0643925641d8779a4720", "bike_id": "c02b7901f75d0643925641d8779a4720", "lon": -77.007675, "fusion_lat": 0.0, "rental_uris": {"android": "https://dc.lft.to/lastmile_qr_scan", "ios": "https://dc.lft.to/lastmile_qr_scan"}, "type": "electric_scooter"}, {"is_reserved": 0, "is_disabled": 0, "fusion_lon": 0.0, "lat": 38.92899766666667, "name": "411decd7a1e62502959bd9c84eec80c9", "bike_id": "411decd7a1e62502959bd9c84eec80c9", "lon": -77.0322885, "fusion_lat": 0.0, "rental_uris": {"android": "https://dc.lft.to/lastmile_qr_scan", "ios": "https://dc.lft.to/lastmile_qr_scan"}, "type": "electric_scooter"}, {"is_reserved": 0, "is_disabled": 0, "fusion_lon": 0.0, "lat": 38.913358833333334, "name": "ab8a30a2275a5748a97a20b2334f0da2", "bike_id": "ab8a30a2275a5748a97a20b2334f0da2", "lon": -77.0317465, "fusion_lat": 0.0, "rental_uris": {"android": "https://dc.lft.to/lastmile_qr_scan", "ios": "https://dc.lft.to/lastmile_qr_scan"}, "type": "electric_scooter"}, {"is_reserved": 0, "is_disabled": 0, "fusion_lon": 0.0, "lat": 38.917805, "name": "2e9624723da8ff61580a92358e0997b9", "bike_id": "2e9624723da8ff61580a92358e0997b9", "lon": -77.0425305, "fusion_lat": 0.0, "rental_uris": {"android": "https://dc.lft.to/lastmile_qr_scan", "ios": "https://dc.lft.to/lastmile_qr_scan"}, "type": "electric_scooter"}, {"is_reserved": 0, "is_disabled": 0, "fusion_lon": 0.0, "lat": 38.9126735, "name": "97cdbad409bd468a72c6ad78f56725a6", "bike_id": "97cdbad409bd468a72c6ad78f56725a6", "lon": -77.03177366666667, "fusion_lat": 0.0, "rental_uris": {"android": "https://dc.lft.to/lastmile_qr_scan", "ios": "https://dc.lft.to/lastmile_qr_scan"}, "type": "electric_scooter"}, {"is_reserved": 0, "is_disabled": 0, "fusion_lon": 0.0, "lat": 38.918088166666664, "name": "fbf97d3a61bb3d2c33499be53d01a690", "bike_id": "fbf97d3a61bb3d2c33499be53d01a690", "lon": -77.03439516666667, "fusion_lat": 0.0, "rental_uris": {"android": "https://dc.lft.to/lastmile_qr_scan", "ios": "https://dc.lft.to/lastmile_qr_scan"}, "type": "electric_scooter"}, {"is_reserved": 0, "is_disabled": 0, "fusion_lon": 0.0, "lat": 38.910274666666666, "name": "10709eef64197bf1fad73888113ecdfe", "bike_id": "10709eef64197bf1fad73888113ecdfe", "lon": -77.02939116666667, "fusion_lat": 0.0, "rental_uris": {"android": "https://dc.lft.to/lastmile_qr_scan", "ios": "https://dc.lft.to/lastmile_qr_scan"}, "type": "electric_scooter"}, {"is_reserved": 0, "is_disabled": 0, "fusion_lon": 0.0, "lat": 38.92189783333333, "name": "27d0ba1b6fdd5df87547e20773ca88e8", "bike_id": "27d0ba1b6fdd5df87547e20773ca88e8", "lon": -77.04012683333333, "fusion_lat": 0.0, "rental_uris": {"android": "https://dc.lft.to/lastmile_qr_scan", "ios": "https://dc.lft.to/lastmile_qr_scan"}, "type": "electric_scooter"}, {"is_reserved": 0, "is_disabled": 0, "fusion_lon": 0.0, "lat": 38.8695065, "name": "abef26c8160e8478bada150624ea5413", "bike_id": "abef26c8160e8478bada150624ea5413", "lon": -77.13306233333333, "fusion_lat": 0.0, "rental_uris": {"android": "https://dc.lft.to/lastmile_qr_scan", "ios": "https://dc.lft.to/lastmile_qr_scan"}, "type": "electric_bike"}, {"is_reserved": 0, "is_disabled": 0, "fusion_lon": 0.0, "lat": 38.901751, "name": "815bd1908db39b3271f57c5f57d603fc", "bike_id": "815bd1908db39b3271f57c5f57d603fc", "lon": -77.02214933333333, "fusion_lat": 0.0, "rental_uris": {"android": "https://dc.lft.to/lastmile_qr_scan", "ios": "https://dc.lft.to/lastmile_qr_scan"}, "type": "electric_scooter"}, {"is_reserved": 0, "is_disabled": 0, "fusion_lon": 0.0, "lat": 38.92680133333333, "name": "4bc4e861b9bf274a1f0033b494eb79cc", "bike_id": "4bc4e861b9bf274a1f0033b494eb79cc", "lon": -77.03235583333333, "fusion_lat": 0.0, "rental_uris": {"android": "https://dc.lft.to/lastmile_qr_scan", "ios": "https://dc.lft.to/lastmile_qr_scan"}, "type": "electric_scooter"}, {"is_reserved": 0, "is_disabled": 0, "fusion_lon": 0.0, "lat": 38.908781, "name": "fd54ec6904f28cb3236ecdd6f84745b0", "bike_id": "fd54ec6904f28cb3236ecdd6f84745b0", "lon": -77.026031, "fusion_lat": 0.0, "rental_uris": {"android": "https://dc.lft.to/lastmile_qr_scan", "ios": "https://dc.lft.to/lastmile_qr_scan"}, "type": "electric_scooter"}, {"is_reserved": 0, "is_disabled": 0, "fusion_lon": 0.0, "lat": 38.923004, "name": "344fd9498ec194491e368e7e716b8977", "bike_id": "344fd9498ec194491e368e7e716b8977", "lon": -77.01955216666667, "fusion_lat": 0.0, "rental_uris": {"android": "https://dc.lft.to/lastmile_qr_scan", "ios": "https://dc.lft.to/lastmile_qr_scan"}, "type": "electric_scooter"}, {"is_reserved": 0, "is_disabled": 0, "fusion_lon": 0.0, "lat": 38.93674983333333, "name": "cefeef12bddc03dcb573897b84243e74", "bike_id": "cefeef12bddc03dcb573897b84243e74", "lon": -77.03594916666667, "fusion_lat": 0.0, "rental_uris": {"android": "https://dc.lft.to/lastmile_qr_scan", "ios": "https://dc.lft.to/lastmile_qr_scan"}, "type": "electric_scooter"}, {"is_reserved": 0, "is_disabled": 0, "fusion_lon": 0.0, "lat": 38.924677833333334, "name": "b949f6f3ee84c9ce2a03081d3b634faa", "bike_id": "b949f6f3ee84c9ce2a03081d3b634faa", "lon": -77.02245883333333, "fusion_lat": 0.0, "rental_uris": {"android": "https://dc.lft.to/lastmile_qr_scan", "ios": "https://dc.lft.to/lastmile_qr_scan"}, "type": "electric_scooter"}, {"is_reserved": 0, "is_disabled": 0, "fusion_lon": 0.0, "lat": 38.89611983333333, "name": "6fd3ad529797968fe460c6769e094fbe", "bike_id": "6fd3ad529797968fe460c6769e094fbe", "lon": -77.04516983333333, "fusion_lat": 0.0, "rental_uris": {"android": "https://dc.lft.to/lastmile_qr_scan", "ios": "https://dc.lft.to/lastmile_qr_scan"}, "type": "electric_scooter"}, {"is_reserved": 0, "is_disabled": 0, "fusion_lon": 0.0, "lat": 38.9224095, "name": "14b17b9cfc2bf37a1fe8592e655cfff7", "bike_id": "14b17b9cfc2bf37a1fe8592e655cfff7", "lon": -77.02149433333334, "fusion_lat": 0.0, "rental_uris": {"android": "https://dc.lft.to/lastmile_qr_scan", "ios": "https://dc.lft.to/lastmile_qr_scan"}, "type": "electric_scooter"}, {"is_reserved": 0, "is_disabled": 0, "fusion_lon": 0.0, "lat": 38.953145666666664, "name": "60dd2e3d239fe5352d77493ee1da1049", "bike_id": "60dd2e3d239fe5352d77493ee1da1049", "lon": -76.98179166666667, "fusion_lat": 0.0, "rental_uris": {"android": "https://dc.lft.to/lastmile_qr_scan", "ios": "https://dc.lft.to/lastmile_qr_scan"}, "type": "electric_bike"}, {"is_reserved": 0, "is_disabled": 0, "fusion_lon": 0.0, "lat": 38.930597166666665, "name": "e1e4b72d7178ad7db77e7570bfdd8e83", "bike_id": "e1e4b72d7178ad7db77e7570bfdd8e83", "lon": -77.03942633333334, "fusion_lat": 0.0, "rental_uris": {"android": "https://dc.lft.to/lastmile_qr_scan", "ios": "https://dc.lft.to/lastmile_qr_scan"}, "type": "electric_scooter"}, {"is_reserved": 0, "is_disabled": 0, "fusion_lon": 0.0, "lat": 38.905769666666664, "name": "d8be5b59449365aa535ee806737fb735", "bike_id": "d8be5b59449365aa535ee806737fb735", "lon": -77.0328785, "fusion_lat": 0.0, "rental_uris": {"android": "https://dc.lft.to/lastmile_qr_scan", "ios": "https://dc.lft.to/lastmile_qr_scan"}, "type": "electric_scooter"}, {"is_reserved": 0, "is_disabled": 0, "fusion_lon": 0.0, "lat": 38.917705, "name": "e740c10e418fde56b870b7a6a8e0a738", "bike_id": "e740c10e418fde56b870b7a6a8e0a738", "lon": -77.04769433333334, "fusion_lat": 0.0, "rental_uris": {"android": "https://dc.lft.to/lastmile_qr_scan", "ios": "https://dc.lft.to/lastmile_qr_scan"}, "type": "electric_scooter"}, {"is_reserved": 0, "is_disabled": 0, "fusion_lon": 0.0, "lat": 38.918600833333336, "name": "52a4726aecc5d76becc73e6640cddd1b", "bike_id": "52a4726aecc5d76becc73e6640cddd1b", "lon": -76.96085233333334, "fusion_lat": 0.0, "rental_uris": {"android": "https://dc.lft.to/lastmile_qr_scan", "ios": "https://dc.lft.to/lastmile_qr_scan"}, "type": "electric_bike"}, {"is_reserved": 0, "is_disabled": 0, "fusion_lon": 0.0, "lat": 38.92363833333334, "name": "2dc932024cfb2b94d07ad6db708bbdf1", "bike_id": "2dc932024cfb2b94d07ad6db708bbdf1", "lon": -77.05023516666667, "fusion_lat": 0.0, "rental_uris": {"android": "https://dc.lft.to/lastmile_qr_scan", "ios": "https://dc.lft.to/lastmile_qr_scan"}, "type": "electric_scooter"}, {"is_reserved": 0, "is_disabled": 0, "fusion_lon": 0.0, "lat": 38.91320616666667, "name": "2929d907b53a330c6a04fd72028f7760", "bike_id": "2929d907b53a330c6a04fd72028f7760", "lon": -77.03651466666666, "fusion_lat": 0.0, "rental_uris": {"android": "https://dc.lft.to/lastmile_qr_scan", "ios": "https://dc.lft.to/lastmile_qr_scan"}, "type": "electric_scooter"}, {"is_reserved": 0, "is_disabled": 0, "fusion_lon": 0.0, "lat": 38.9250795, "name": "eb7316a934cd047054ecbac5e6d48b16", "bike_id": "eb7316a934cd047054ecbac5e6d48b16", "lon": -77.02402283333333, "fusion_lat": 0.0, "rental_uris": {"android": "https://dc.lft.to/lastmile_qr_scan", "ios": "https://dc.lft.to/lastmile_qr_scan"}, "type": "electric_scooter"}, {"is_reserved": 0, "is_disabled": 0, "fusion_lon": 0.0, "lat": 38.922385, "name": "528291214016fe9dfe87ea65bbbc7db0", "bike_id": "528291214016fe9dfe87ea65bbbc7db0", "lon": -77.0366345, "fusion_lat": 0.0, "rental_uris": {"android": "https://dc.lft.to/lastmile_qr_scan", "ios": "https://dc.lft.to/lastmile_qr_scan"}, "type": "electric_scooter"}, {"is_reserved": 0, "is_disabled": 0, "fusion_lon": 0.0, "lat": 38.91326016666667, "name": "507d54525cabaede956c0f86f6946deb", "bike_id": "507d54525cabaede956c0f86f6946deb", "lon": -77.01508216666667, "fusion_lat": 0.0, "rental_uris": {"android": "https://dc.lft.to/lastmile_qr_scan", "ios": "https://dc.lft.to/lastmile_qr_scan"}, "type": "electric_scooter"}, {"is_reserved": 0, "is_disabled": 0, "fusion_lon": 0.0, "lat": 38.901575333333334, "name": "6aafae0e524317b05ea8f9994564c705", "bike_id": "6aafae0e524317b05ea8f9994564c705", "lon": -76.97424416666667, "fusion_lat": 0.0, "rental_uris": {"android": "https://dc.lft.to/lastmile_qr_scan", "ios": "https://dc.lft.to/lastmile_qr_scan"}, "type": "electric_scooter"}, {"is_reserved": 0, "is_disabled": 0, "fusion_lon": 0.0, "lat": 38.94657633333333, "name": "011002a1a95b92586fc9ba51988df248", "bike_id": "011002a1a95b92586fc9ba51988df248", "lon": -77.02245416666666, "fusion_lat": 0.0, "rental_uris": {"android": "https://dc.lft.to/lastmile_qr_scan", "ios": "https://dc.lft.to/lastmile_qr_scan"}, "type": "electric_scooter"}, {"is_reserved": 0, "is_disabled": 0, "fusion_lon": 0.0, "lat": 38.8960175, "name": "68b0e140fb7f198e50f6a3eef9a52c48", "bike_id": "68b0e140fb7f198e50f6a3eef9a52c48", "lon": -77.04419966666667, "fusion_lat": 0.0, "rental_uris": {"android": "https://dc.lft.to/lastmile_qr_scan", "ios": "https://dc.lft.to/lastmile_qr_scan"}, "type": "electric_scooter"}, {"is_reserved": 0, "is_disabled": 0, "fusion_lon": 0.0, "lat": 38.924234, "name": "73e80f7e08d2865f835b250782d6f8de", "bike_id": "73e80f7e08d2865f835b250782d6f8de", "lon": -77.04456866666666, "fusion_lat": 0.0, "rental_uris": {"android": "https://dc.lft.to/lastmile_qr_scan", "ios": "https://dc.lft.to/lastmile_qr_scan"}, "type": "electric_scooter"}, {"is_reserved": 0, "is_disabled": 0, "fusion_lon": 0.0, "lat": 38.89622816666667, "name": "591bd35aa686f47608d20e2e58a9e889", "bike_id": "591bd35aa686f47608d20e2e58a9e889", "lon": -77.0404985, "fusion_lat": 0.0, "rental_uris": {"android": "https://dc.lft.to/lastmile_qr_scan", "ios": "https://dc.lft.to/lastmile_qr_scan"}, "type": "electric_scooter"}, {"is_reserved": 0, "is_disabled": 0, "fusion_lon": 0.0, "lat": 38.915588666666665, "name": "fb4b8e8459bccc49d3781c535851b6a7", "bike_id": "fb4b8e8459bccc49d3781c535851b6a7", "lon": -77.04881216666666, "fusion_lat": 0.0, "rental_uris": {"android": "https://dc.lft.to/lastmile_qr_scan", "ios": "https://dc.lft.to/lastmile_qr_scan"}, "type": "electric_scooter"}, {"is_reserved": 0, "is_disabled": 0, "fusion_lon": 0.0, "lat": 38.944967, "name": "11cef4e0d7163975ed94446f71a7aeac", "bike_id": "11cef4e0d7163975ed94446f71a7aeac", "lon": -77.03425733333333, "fusion_lat": 0.0, "rental_uris": {"android": "https://dc.lft.to/lastmile_qr_scan", "ios": "https://dc.lft.to/lastmile_qr_scan"}, "type": "electric_scooter"}, {"is_reserved": 0, "is_disabled": 0, "fusion_lon": 0.0, "lat": 38.906581333333335, "name": "0b958b6d91f5cb807931ba849ed3d793", "bike_id": "0b958b6d91f5cb807931ba849ed3d793", "lon": -77.043033, "fusion_lat": 0.0, "rental_uris": {"android": "https://dc.lft.to/lastmile_qr_scan", "ios": "https://dc.lft.to/lastmile_qr_scan"}, "type": "electric_scooter"}, {"is_reserved": 0, "is_disabled": 0, "fusion_lon": 0.0, "lat": 38.909752166666664, "name": "6c4519d1bb47c9ae771739fa484fbe70", "bike_id": "6c4519d1bb47c9ae771739fa484fbe70", "lon": -76.98459366666667, "fusion_lat": 0.0, "rental_uris": {"android": "https://dc.lft.to/lastmile_qr_scan", "ios": "https://dc.lft.to/lastmile_qr_scan"}, "type": "electric_scooter"}, {"is_reserved": 0, "is_disabled": 0, "fusion_lon": 0.0, "lat": 38.91860116666667, "name": "60dad32c2b6b3ceb9ee6aebefe7e6813", "bike_id": "60dad32c2b6b3ceb9ee6aebefe7e6813", "lon": -76.96542266666667, "fusion_lat": 0.0, "rental_uris": {"android": "https://dc.lft.to/lastmile_qr_scan", "ios": "https://dc.lft.to/lastmile_qr_scan"}, "type": "electric_scooter"}, {"is_reserved": 0, "is_disabled": 0, "fusion_lon": 0.0, "lat": 38.958979, "name": "e1f2bd61f1c8bb22b1f549e30b8edb2b", "bike_id": "e1f2bd61f1c8bb22b1f549e30b8edb2b", "lon": -77.00017916666667, "fusion_lat": 0.0, "rental_uris": {"android": "https://dc.lft.to/lastmile_qr_scan", "ios": "https://dc.lft.to/lastmile_qr_scan"}, "type": "electric_scooter"}, {"is_reserved": 0, "is_disabled": 0, "fusion_lon": 0.0, "lat": 38.922061666666664, "name": "68ad42c60dde3ba90fb9f5ab95002863", "bike_id": "68ad42c60dde3ba90fb9f5ab95002863", "lon": -77.020327, "fusion_lat": 0.0, "rental_uris": {"android": "https://dc.lft.to/lastmile_qr_scan", "ios": "https://dc.lft.to/lastmile_qr_scan"}, "type": "electric_scooter"}, {"is_reserved": 0, "is_disabled": 0, "fusion_lon": 0.0, "lat": 38.9328385, "name": "e69b6e5970eee9f645b51fb85e7bb632", "bike_id": "e69b6e5970eee9f645b51fb85e7bb632", "lon": -77.03283183333333, "fusion_lat": 0.0, "rental_uris": {"android": "https://dc.lft.to/lastmile_qr_scan", "ios": "https://dc.lft.to/lastmile_qr_scan"}, "type": "electric_scooter"}, {"is_reserved": 0, "is_disabled": 0, "fusion_lon": 0.0, "lat": 38.91235483333333, "name": "77d06ea74d34b2b16de2cf374636e86a", "bike_id": "77d06ea74d34b2b16de2cf374636e86a", "lon": -77.06586416666667, "fusion_lat": 0.0, "rental_uris": {"android": "https://dc.lft.to/lastmile_qr_scan", "ios": "https://dc.lft.to/lastmile_qr_scan"}, "type": "electric_scooter"}, {"is_reserved": 0, "is_disabled": 0, "fusion_lon": 0.0, "lat": 38.87668, "name": "4f3b7439895bd8dd494ccf25419e9977", "bike_id": "4f3b7439895bd8dd494ccf25419e9977", "lon": -77.004133, "fusion_lat": 0.0, "rental_uris": {"android": "https://dc.lft.to/lastmile_qr_scan", "ios": "https://dc.lft.to/lastmile_qr_scan"}, "type": "electric_scooter"}, {"is_reserved": 0, "is_disabled": 0, "fusion_lon": 0.0, "lat": 38.89724433333333, "name": "2acae8eb8a89ad6e774e15817ff60c75", "bike_id": "2acae8eb8a89ad6e774e15817ff60c75", "lon": -77.03211066666667, "fusion_lat": 0.0, "rental_uris": {"android": "https://dc.lft.to/lastmile_qr_scan", "ios": "https://dc.lft.to/lastmile_qr_scan"}, "type": "electric_scooter"}, {"is_reserved": 0, "is_disabled": 0, "fusion_lon": 0.0, "lat": 38.919951166666664, "name": "ef74ecc4fc43061d8fb1031af1a1d40b", "bike_id": "ef74ecc4fc43061d8fb1031af1a1d40b", "lon": -77.03205116666666, "fusion_lat": 0.0, "rental_uris": {"android": "https://dc.lft.to/lastmile_qr_scan", "ios": "https://dc.lft.to/lastmile_qr_scan"}, "type": "electric_scooter"}, {"is_reserved": 0, "is_disabled": 0, "fusion_lon": 0.0, "lat": 38.91546866666667, "name": "02cad8b28aae7b11fde5633ee45ac13c", "bike_id": "02cad8b28aae7b11fde5633ee45ac13c", "lon": -77.01221916666667, "fusion_lat": 0.0, "rental_uris": {"android": "https://dc.lft.to/lastmile_qr_scan", "ios": "https://dc.lft.to/lastmile_qr_scan"}, "type": "electric_scooter"}, {"is_reserved": 0, "is_disabled": 0, "fusion_lon": 0.0, "lat": 38.92462233333333, "name": "07e856b1f4963a575c3ae323e5fb97e7", "bike_id": "07e856b1f4963a575c3ae323e5fb97e7", "lon": -77.0328455, "fusion_lat": 0.0, "rental_uris": {"android": "https://dc.lft.to/lastmile_qr_scan", "ios": "https://dc.lft.to/lastmile_qr_scan"}, "type": "electric_scooter"}, {"is_reserved": 0, "is_disabled": 0, "fusion_lon": 0.0, "lat": 38.85217933333333, "name": "39fb9acd475fb8d40d97ee12b912ac03", "bike_id": "39fb9acd475fb8d40d97ee12b912ac03", "lon": -76.993743, "fusion_lat": 0.0, "rental_uris": {"android": "https://dc.lft.to/lastmile_qr_scan", "ios": "https://dc.lft.to/lastmile_qr_scan"}, "type": "electric_bike"}, {"is_reserved": 0, "is_disabled": 0, "fusion_lon": 0.0, "lat": 38.91451583333333, "name": "8b4a3a8053d2ba6643b37253eb9a52d3", "bike_id": "8b4a3a8053d2ba6643b37253eb9a52d3", "lon": -76.972835, "fusion_lat": 0.0, "rental_uris": {"android": "https://dc.lft.to/lastmile_qr_scan", "ios": "https://dc.lft.to/lastmile_qr_scan"}, "type": "electric_bike"}, {"is_reserved": 0, "is_disabled": 0, "fusion_lon": 0.0, "lat": 38.92249266666666, "name": "b6a488e72af433e6d868285f93395957", "bike_id": "b6a488e72af433e6d868285f93395957", "lon": -77.03518333333334, "fusion_lat": 0.0, "rental_uris": {"android": "https://dc.lft.to/lastmile_qr_scan", "ios": "https://dc.lft.to/lastmile_qr_scan"}, "type": "electric_scooter"}, {"is_reserved": 0, "is_disabled": 0, "fusion_lon": 0.0, "lat": 38.882827666666664, "name": "900ef188fa554209cddfad813dd5d1e0", "bike_id": "900ef188fa554209cddfad813dd5d1e0", "lon": -76.93244983333334, "fusion_lat": 0.0, "rental_uris": {"android": "https://dc.lft.to/lastmile_qr_scan", "ios": "https://dc.lft.to/lastmile_qr_scan"}, "type": "electric_bike"}, {"is_reserved": 0, "is_disabled": 0, "fusion_lon": 0.0, "lat": 38.922329500000004, "name": "6260799c85f2dfc0f7b747bb1c9f7c53", "bike_id": "6260799c85f2dfc0f7b747bb1c9f7c53", "lon": -77.02112, "fusion_lat": 0.0, "rental_uris": {"android": "https://dc.lft.to/lastmile_qr_scan", "ios": "https://dc.lft.to/lastmile_qr_scan"}, "type": "electric_scooter"}, {"is_reserved": 0, "is_disabled": 0, "fusion_lon": 0.0, "lat": 38.898479, "name": "95d478c3f211aa92ff825958496c8fc7", "bike_id": "95d478c3f211aa92ff825958496c8fc7", "lon": -77.02276166666667, "fusion_lat": 0.0, "rental_uris": {"android": "https://dc.lft.to/lastmile_qr_scan", "ios": "https://dc.lft.to/lastmile_qr_scan"}, "type": "electric_scooter"}, {"is_reserved": 0, "is_disabled": 0, "fusion_lon": 0.0, "lat": 38.902451666666664, "name": "d3f9e15a05b9843d1d5fd2d7b8a1636d", "bike_id": "d3f9e15a05b9843d1d5fd2d7b8a1636d", "lon": -77.00200733333334, "fusion_lat": 0.0, "rental_uris": {"android": "https://dc.lft.to/lastmile_qr_scan", "ios": "https://dc.lft.to/lastmile_qr_scan"}, "type": "electric_scooter"}, {"is_reserved": 0, "is_disabled": 0, "fusion_lon": 0.0, "lat": 38.90911583333333, "name": "44d5f417c5fe2c35a4edc0e0dca60221", "bike_id": "44d5f417c5fe2c35a4edc0e0dca60221", "lon": -77.07274216666667, "fusion_lat": 0.0, "rental_uris": {"android": "https://dc.lft.to/lastmile_qr_scan", "ios": "https://dc.lft.to/lastmile_qr_scan"}, "type": "electric_scooter"}, {"is_reserved": 0, "is_disabled": 0, "fusion_lon": 0.0, "lat": 38.938684333333335, "name": "857c65845dc7db8a834700e9ed9100f4", "bike_id": "857c65845dc7db8a834700e9ed9100f4", "lon": -77.03042866666667, "fusion_lat": 0.0, "rental_uris": {"android": "https://dc.lft.to/lastmile_qr_scan", "ios": "https://dc.lft.to/lastmile_qr_scan"}, "type": "electric_scooter"}, {"is_reserved": 0, "is_disabled": 0, "fusion_lon": 0.0, "lat": 38.905570833333336, "name": "bae91552340d486b16efb93db4aea1ee", "bike_id": "bae91552340d486b16efb93db4aea1ee", "lon": -76.98377166666667, "fusion_lat": 0.0, "rental_uris": {"android": "https://dc.lft.to/lastmile_qr_scan", "ios": "https://dc.lft.to/lastmile_qr_scan"}, "type": "electric_scooter"}, {"is_reserved": 0, "is_disabled": 0, "fusion_lon": 0.0, "lat": 38.88711966666666, "name": "4c0800fe1c553840d2fc468f97b01be1", "bike_id": "4c0800fe1c553840d2fc468f97b01be1", "lon": -76.98335733333333, "fusion_lat": 0.0, "rental_uris": {"android": "https://dc.lft.to/lastmile_qr_scan", "ios": "https://dc.lft.to/lastmile_qr_scan"}, "type": "electric_scooter"}, {"is_reserved": 0, "is_disabled": 0, "fusion_lon": 0.0, "lat": 38.91769016666667, "name": "badcf2b2068e6fea285f7702eba18668", "bike_id": "badcf2b2068e6fea285f7702eba18668", "lon": -77.01499166666666, "fusion_lat": 0.0, "rental_uris": {"android": "https://dc.lft.to/lastmile_qr_scan", "ios": "https://dc.lft.to/lastmile_qr_scan"}, "type": "electric_scooter"}, {"is_reserved": 0, "is_disabled": 0, "fusion_lon": 0.0, "lat": 38.903809333333335, "name": "591de7ec0fc2f717f0d12fcb09d5235b", "bike_id": "591de7ec0fc2f717f0d12fcb09d5235b", "lon": -77.0367115, "fusion_lat": 0.0, "rental_uris": {"android": "https://dc.lft.to/lastmile_qr_scan", "ios": "https://dc.lft.to/lastmile_qr_scan"}, "type": "electric_scooter"}, {"is_reserved": 0, "is_disabled": 0, "fusion_lon": 0.0, "lat": 38.938839, "name": "badb7120a748947e4c0370dc542c70da", "bike_id": "badb7120a748947e4c0370dc542c70da", "lon": -77.03395433333333, "fusion_lat": 0.0, "rental_uris": {"android": "https://dc.lft.to/lastmile_qr_scan", "ios": "https://dc.lft.to/lastmile_qr_scan"}, "type": "electric_scooter"}, {"is_reserved": 0, "is_disabled": 0, "fusion_lon": 0.0, "lat": 38.9067215, "name": "aea43c72a61c4287ed697b6e52458b9b", "bike_id": "aea43c72a61c4287ed697b6e52458b9b", "lon": -76.98370033333333, "fusion_lat": 0.0, "rental_uris": {"android": "https://dc.lft.to/lastmile_qr_scan", "ios": "https://dc.lft.to/lastmile_qr_scan"}, "type": "electric_scooter"}, {"is_reserved": 0, "is_disabled": 0, "fusion_lon": 0.0, "lat": 38.880250333333336, "name": "9993b2258474734d5f7cc1ebf1fb9372", "bike_id": "9993b2258474734d5f7cc1ebf1fb9372", "lon": -76.94321333333333, "fusion_lat": 0.0, "rental_uris": {"android": "https://dc.lft.to/lastmile_qr_scan", "ios": "https://dc.lft.to/lastmile_qr_scan"}, "type": "electric_scooter"}, {"is_reserved": 0, "is_disabled": 0, "fusion_lon": 0.0, "lat": 38.91561333333333, "name": "c961f4cd6fc415d9d389661f51f81933", "bike_id": "c961f4cd6fc415d9d389661f51f81933", "lon": -77.007199, "fusion_lat": 0.0, "rental_uris": {"android": "https://dc.lft.to/lastmile_qr_scan", "ios": "https://dc.lft.to/lastmile_qr_scan"}, "type": "electric_scooter"}, {"is_reserved": 0, "is_disabled": 0, "fusion_lon": 0.0, "lat": 38.900378, "name": "a54f7b5516deacbf99c85319ffb32492", "bike_id": "a54f7b5516deacbf99c85319ffb32492", "lon": -77.01763883333334, "fusion_lat": 0.0, "rental_uris": {"android": "https://dc.lft.to/lastmile_qr_scan", "ios": "https://dc.lft.to/lastmile_qr_scan"}, "type": "electric_scooter"}, {"is_reserved": 0, "is_disabled": 0, "fusion_lon": 0.0, "lat": 38.92162366666667, "name": "61f7dd73ac3147a001948f1df256e72f", "bike_id": "61f7dd73ac3147a001948f1df256e72f", "lon": -77.04004583333334, "fusion_lat": 0.0, "rental_uris": {"android": "https://dc.lft.to/lastmile_qr_scan", "ios": "https://dc.lft.to/lastmile_qr_scan"}, "type": "electric_scooter"}, {"is_reserved": 0, "is_disabled": 0, "fusion_lon": 0.0, "lat": 38.93993616666667, "name": "1bb416a0c3828c6eb30c1709e91e138e", "bike_id": "1bb416a0c3828c6eb30c1709e91e138e", "lon": -77.0173785, "fusion_lat": 0.0, "rental_uris": {"android": "https://dc.lft.to/lastmile_qr_scan", "ios": "https://dc.lft.to/lastmile_qr_scan"}, "type": "electric_scooter"}, {"is_reserved": 0, "is_disabled": 0, "fusion_lon": 0.0, "lat": 38.80385316666667, "name": "2f4dbde3d368b591d6412e132b3c4a1e", "bike_id": "2f4dbde3d368b591d6412e132b3c4a1e", "lon": -76.98815733333333, "fusion_lat": 0.0, "rental_uris": {"android": "https://dc.lft.to/lastmile_qr_scan", "ios": "https://dc.lft.to/lastmile_qr_scan"}, "type": "electric_bike"}, {"is_reserved": 0, "is_disabled": 0, "fusion_lon": 0.0, "lat": 38.88128783333333, "name": "d8872f87717ff0f509ebb85f4cb1c493", "bike_id": "d8872f87717ff0f509ebb85f4cb1c493", "lon": -76.99345433333333, "fusion_lat": 0.0, "rental_uris": {"android": "https://dc.lft.to/lastmile_qr_scan", "ios": "https://dc.lft.to/lastmile_qr_scan"}, "type": "electric_scooter"}, {"is_reserved": 0, "is_disabled": 0, "fusion_lon": 0.0, "lat": 38.91028266666667, "name": "60a47fcc88bd2be3fe8d7698eb96388d", "bike_id": "60a47fcc88bd2be3fe8d7698eb96388d", "lon": -77.02937516666667, "fusion_lat": 0.0, "rental_uris": {"android": "https://dc.lft.to/lastmile_qr_scan", "ios": "https://dc.lft.to/lastmile_qr_scan"}, "type": "electric_scooter"}, {"is_reserved": 0, "is_disabled": 0, "fusion_lon": 0.0, "lat": 38.858137666666664, "name": "aa6edb5e666008536de1561b96de4bfe", "bike_id": "aa6edb5e666008536de1561b96de4bfe", "lon": -76.98993633333333, "fusion_lat": 0.0, "rental_uris": {"android": "https://dc.lft.to/lastmile_qr_scan", "ios": "https://dc.lft.to/lastmile_qr_scan"}, "type": "electric_scooter"}, {"is_reserved": 0, "is_disabled": 0, "fusion_lon": 0.0, "lat": 38.929706833333334, "name": "a03988de2ac083d06880a3eb3229f644", "bike_id": "a03988de2ac083d06880a3eb3229f644", "lon": -77.04201683333334, "fusion_lat": 0.0, "rental_uris": {"android": "https://dc.lft.to/lastmile_qr_scan", "ios": "https://dc.lft.to/lastmile_qr_scan"}, "type": "electric_scooter"}, {"is_reserved": 0, "is_disabled": 0, "fusion_lon": 0.0, "lat": 38.897281, "name": "05c2bc870aea6a2068b2eeb7ff56dddb", "bike_id": "05c2bc870aea6a2068b2eeb7ff56dddb", "lon": -77.031127, "fusion_lat": 0.0, "rental_uris": {"android": "https://dc.lft.to/lastmile_qr_scan", "ios": "https://dc.lft.to/lastmile_qr_scan"}, "type": "electric_scooter"}, {"is_reserved": 0, "is_disabled": 0, "fusion_lon": 0.0, "lat": 38.9245715, "name": "54d257fcc40461e458d36a53ba4bb0ef", "bike_id": "54d257fcc40461e458d36a53ba4bb0ef", "lon": -77.02231783333333, "fusion_lat": 0.0, "rental_uris": {"android": "https://dc.lft.to/lastmile_qr_scan", "ios": "https://dc.lft.to/lastmile_qr_scan"}, "type": "electric_scooter"}, {"is_reserved": 0, "is_disabled": 0, "fusion_lon": 0.0, "lat": 38.922234, "name": "76e02d620acb75db4c6a2a95ed17d36d", "bike_id": "76e02d620acb75db4c6a2a95ed17d36d", "lon": -77.0433165, "fusion_lat": 0.0, "rental_uris": {"android": "https://dc.lft.to/lastmile_qr_scan", "ios": "https://dc.lft.to/lastmile_qr_scan"}, "type": "electric_scooter"}, {"is_reserved": 0, "is_disabled": 0, "fusion_lon": 0.0, "lat": 38.913190166666666, "name": "af3cd66e6b75c6b78ff0236c64e88b01", "bike_id": "af3cd66e6b75c6b78ff0236c64e88b01", "lon": -77.04669533333333, "fusion_lat": 0.0, "rental_uris": {"android": "https://dc.lft.to/lastmile_qr_scan", "ios": "https://dc.lft.to/lastmile_qr_scan"}, "type": "electric_scooter"}, {"is_reserved": 0, "is_disabled": 0, "fusion_lon": 0.0, "lat": 38.93768583333333, "name": "3b11bd84c00bdf17a05b89a2b8fd0541", "bike_id": "3b11bd84c00bdf17a05b89a2b8fd0541", "lon": -77.03257366666666, "fusion_lat": 0.0, "rental_uris": {"android": "https://dc.lft.to/lastmile_qr_scan", "ios": "https://dc.lft.to/lastmile_qr_scan"}, "type": "electric_scooter"}, {"is_reserved": 0, "is_disabled": 0, "fusion_lon": 0.0, "lat": 38.912345333333334, "name": "c4a56e4707ebc752a396899ca7a47ff1", "bike_id": "c4a56e4707ebc752a396899ca7a47ff1", "lon": -77.077459, "fusion_lat": 0.0, "rental_uris": {"android": "https://dc.lft.to/lastmile_qr_scan", "ios": "https://dc.lft.to/lastmile_qr_scan"}, "type": "electric_scooter"}, {"is_reserved": 0, "is_disabled": 0, "fusion_lon": 0.0, "lat": 38.9135075, "name": "84fc8e8b9491eac4bcff4011788144f3", "bike_id": "84fc8e8b9491eac4bcff4011788144f3", "lon": -77.03182216666667, "fusion_lat": 0.0, "rental_uris": {"android": "https://dc.lft.to/lastmile_qr_scan", "ios": "https://dc.lft.to/lastmile_qr_scan"}, "type": "electric_scooter"}, {"is_reserved": 0, "is_disabled": 0, "fusion_lon": 0.0, "lat": 38.90043216666667, "name": "d53895e3beebe87b655fc3878df4f02b", "bike_id": "d53895e3beebe87b655fc3878df4f02b", "lon": -76.99855433333333, "fusion_lat": 0.0, "rental_uris": {"android": "https://dc.lft.to/lastmile_qr_scan", "ios": "https://dc.lft.to/lastmile_qr_scan"}, "type": "electric_scooter"}, {"is_reserved": 0, "is_disabled": 0, "fusion_lon": 0.0, "lat": 38.922397, "name": "60b6483d4ad910f20b0bbd93b3d0deba", "bike_id": "60b6483d4ad910f20b0bbd93b3d0deba", "lon": -77.02849783333333, "fusion_lat": 0.0, "rental_uris": {"android": "https://dc.lft.to/lastmile_qr_scan", "ios": "https://dc.lft.to/lastmile_qr_scan"}, "type": "electric_scooter"}, {"is_reserved": 0, "is_disabled": 0, "fusion_lon": 0.0, "lat": 38.877189333333334, "name": "fe8d0027599d16000667a8887d533f34", "bike_id": "fe8d0027599d16000667a8887d533f34", "lon": -77.01642916666667, "fusion_lat": 0.0, "rental_uris": {"android": "https://dc.lft.to/lastmile_qr_scan", "ios": "https://dc.lft.to/lastmile_qr_scan"}, "type": "electric_scooter"}, {"is_reserved": 0, "is_disabled": 0, "fusion_lon": 0.0, "lat": 38.91922366666667, "name": "896be6bd7b7f5b85b454412856f0d431", "bike_id": "896be6bd7b7f5b85b454412856f0d431", "lon": -77.078959, "fusion_lat": 0.0, "rental_uris": {"android": "https://dc.lft.to/lastmile_qr_scan", "ios": "https://dc.lft.to/lastmile_qr_scan"}, "type": "electric_scooter"}, {"is_reserved": 0, "is_disabled": 0, "fusion_lon": 0.0, "lat": 38.8764695, "name": "d4be2be6a7026107201c2da10c93fc43", "bike_id": "d4be2be6a7026107201c2da10c93fc43", "lon": -77.00237033333333, "fusion_lat": 0.0, "rental_uris": {"android": "https://dc.lft.to/lastmile_qr_scan", "ios": "https://dc.lft.to/lastmile_qr_scan"}, "type": "electric_scooter"}, {"is_reserved": 0, "is_disabled": 0, "fusion_lon": 0.0, "lat": 38.927615, "name": "5f5afeca3f2dfede8a568efd9dcc9dbe", "bike_id": "5f5afeca3f2dfede8a568efd9dcc9dbe", "lon": -77.03210833333333, "fusion_lat": 0.0, "rental_uris": {"android": "https://dc.lft.to/lastmile_qr_scan", "ios": "https://dc.lft.to/lastmile_qr_scan"}, "type": "electric_scooter"}, {"is_reserved": 0, "is_disabled": 0, "fusion_lon": 0.0, "lat": 38.896792166666664, "name": "0c21498d1130f4d543a8c92d43d21504", "bike_id": "0c21498d1130f4d543a8c92d43d21504", "lon": -76.96303, "fusion_lat": 0.0, "rental_uris": {"android": "https://dc.lft.to/lastmile_qr_scan", "ios": "https://dc.lft.to/lastmile_qr_scan"}, "type": "electric_bike"}, {"is_reserved": 0, "is_disabled": 0, "fusion_lon": 0.0, "lat": 38.914343833333334, "name": "6ee56bc5ab48497c3428e64e01976a5e", "bike_id": "6ee56bc5ab48497c3428e64e01976a5e", "lon": -77.00357616666666, "fusion_lat": 0.0, "rental_uris": {"android": "https://dc.lft.to/lastmile_qr_scan", "ios": "https://dc.lft.to/lastmile_qr_scan"}, "type": "electric_scooter"}, {"is_reserved": 0, "is_disabled": 0, "fusion_lon": 0.0, "lat": 38.91833666666667, "name": "f67e4e30d3ba63e3ed5d29db3f3e0dd8", "bike_id": "f67e4e30d3ba63e3ed5d29db3f3e0dd8", "lon": -77.02265866666667, "fusion_lat": 0.0, "rental_uris": {"android": "https://dc.lft.to/lastmile_qr_scan", "ios": "https://dc.lft.to/lastmile_qr_scan"}, "type": "electric_scooter"}, {"is_reserved": 0, "is_disabled": 0, "fusion_lon": 0.0, "lat": 38.919229333333334, "name": "9f59b9c088d5ce2ab8c7cedc42780194", "bike_id": "9f59b9c088d5ce2ab8c7cedc42780194", "lon": -77.03327833333333, "fusion_lat": 0.0, "rental_uris": {"android": "https://dc.lft.to/lastmile_qr_scan", "ios": "https://dc.lft.to/lastmile_qr_scan"}, "type": "electric_scooter"}, {"is_reserved": 0, "is_disabled": 0, "fusion_lon": 0.0, "lat": 38.99818466666667, "name": "0eaee4e8a7c09c1dc30763f8c547ceeb", "bike_id": "0eaee4e8a7c09c1dc30763f8c547ceeb", "lon": -77.0290415, "fusion_lat": 0.0, "rental_uris": {"android": "https://dc.lft.to/lastmile_qr_scan", "ios": "https://dc.lft.to/lastmile_qr_scan"}, "type": "electric_bike"}, {"is_reserved": 0, "is_disabled": 0, "fusion_lon": 0.0, "lat": 38.892312833333335, "name": "f0ed90a29d2663dd979df1e3641e9549", "bike_id": "f0ed90a29d2663dd979df1e3641e9549", "lon": -77.04330233333333, "fusion_lat": 0.0, "rental_uris": {"android": "https://dc.lft.to/lastmile_qr_scan", "ios": "https://dc.lft.to/lastmile_qr_scan"}, "type": "electric_scooter"}, {"is_reserved": 0, "is_disabled": 0, "fusion_lon": 0.0, "lat": 38.923205833333334, "name": "28a19fbf3bb16cc9d74a389febdd578a", "bike_id": "28a19fbf3bb16cc9d74a389febdd578a", "lon": -77.02717033333333, "fusion_lat": 0.0, "rental_uris": {"android": "https://dc.lft.to/lastmile_qr_scan", "ios": "https://dc.lft.to/lastmile_qr_scan"}, "type": "electric_scooter"}, {"is_reserved": 0, "is_disabled": 0, "fusion_lon": 0.0, "lat": 38.9289585, "name": "ab9740ab41767049a32cc8b1bfd75954", "bike_id": "ab9740ab41767049a32cc8b1bfd75954", "lon": -77.03240916666667, "fusion_lat": 0.0, "rental_uris": {"android": "https://dc.lft.to/lastmile_qr_scan", "ios": "https://dc.lft.to/lastmile_qr_scan"}, "type": "electric_scooter"}, {"is_reserved": 0, "is_disabled": 0, "fusion_lon": 0.0, "lat": 38.913166, "name": "9c95c10f8d2417f48cccee6ace4c60c3", "bike_id": "9c95c10f8d2417f48cccee6ace4c60c3", "lon": -77.036507, "fusion_lat": 0.0, "rental_uris": {"android": "https://dc.lft.to/lastmile_qr_scan", "ios": "https://dc.lft.to/lastmile_qr_scan"}, "type": "electric_scooter"}, {"is_reserved": 0, "is_disabled": 0, "fusion_lon": 0.0, "lat": 38.896107666666666, "name": "4615ffc3136b4ade9488a1d482376ebe", "bike_id": "4615ffc3136b4ade9488a1d482376ebe", "lon": -77.04649683333334, "fusion_lat": 0.0, "rental_uris": {"android": "https://dc.lft.to/lastmile_qr_scan", "ios": "https://dc.lft.to/lastmile_qr_scan"}, "type": "electric_scooter"}, {"is_reserved": 0, "is_disabled": 0, "fusion_lon": 0.0, "lat": 38.7831005, "name": "30e32cc1f48de80cc12f42fdeecfaab1", "bike_id": "30e32cc1f48de80cc12f42fdeecfaab1", "lon": -77.11407316666667, "fusion_lat": 0.0, "rental_uris": {"android": "https://dc.lft.to/lastmile_qr_scan", "ios": "https://dc.lft.to/lastmile_qr_scan"}, "type": "electric_bike"}, {"is_reserved": 0, "is_disabled": 0, "fusion_lon": 0.0, "lat": 38.9172675, "name": "d6df2ac7ed3ee3fd6eb053386fa83e0f", "bike_id": "d6df2ac7ed3ee3fd6eb053386fa83e0f", "lon": -77.02692633333334, "fusion_lat": 0.0, "rental_uris": {"android": "https://dc.lft.to/lastmile_qr_scan", "ios": "https://dc.lft.to/lastmile_qr_scan"}, "type": "electric_scooter"}, {"is_reserved": 0, "is_disabled": 0, "fusion_lon": 0.0, "lat": 38.893298, "name": "5cc9c6246051c462e02db1dd40b30820", "bike_id": "5cc9c6246051c462e02db1dd40b30820", "lon": -76.93926066666667, "fusion_lat": 0.0, "rental_uris": {"android": "https://dc.lft.to/lastmile_qr_scan", "ios": "https://dc.lft.to/lastmile_qr_scan"}, "type": "electric_scooter"}, {"is_reserved": 0, "is_disabled": 0, "fusion_lon": 0.0, "lat": 38.92162533333333, "name": "b8d46d1c5a201734beee5a981ab89c38", "bike_id": "b8d46d1c5a201734beee5a981ab89c38", "lon": -77.03328616666667, "fusion_lat": 0.0, "rental_uris": {"android": "https://dc.lft.to/lastmile_qr_scan", "ios": "https://dc.lft.to/lastmile_qr_scan"}, "type": "electric_scooter"}, {"is_reserved": 0, "is_disabled": 0, "fusion_lon": 0.0, "lat": 38.8862675, "name": "e55eb8aa96a012b240d0d4d6f2117700", "bike_id": "e55eb8aa96a012b240d0d4d6f2117700", "lon": -77.0316735, "fusion_lat": 0.0, "rental_uris": {"android": "https://dc.lft.to/lastmile_qr_scan", "ios": "https://dc.lft.to/lastmile_qr_scan"}, "type": "electric_scooter"}, {"is_reserved": 0, "is_disabled": 0, "fusion_lon": 0.0, "lat": 38.89753116666667, "name": "f452616e7128dff96ba267f1813f770f", "bike_id": "f452616e7128dff96ba267f1813f770f", "lon": -77.01899433333334, "fusion_lat": 0.0, "rental_uris": {"android": "https://dc.lft.to/lastmile_qr_scan", "ios": "https://dc.lft.to/lastmile_qr_scan"}, "type": "electric_scooter"}, {"is_reserved": 0, "is_disabled": 0, "fusion_lon": 0.0, "lat": 38.852494666666665, "name": "986c427a5341489f0d0db670f291aa55", "bike_id": "986c427a5341489f0d0db670f291aa55", "lon": -77.114238, "fusion_lat": 0.0, "rental_uris": {"android": "https://dc.lft.to/lastmile_qr_scan", "ios": "https://dc.lft.to/lastmile_qr_scan"}, "type": "electric_bike"}, {"is_reserved": 0, "is_disabled": 0, "fusion_lon": 0.0, "lat": 38.89759983333333, "name": "462a44c17e87632d4f08451a812fe64c", "bike_id": "462a44c17e87632d4f08451a812fe64c", "lon": -77.02680566666666, "fusion_lat": 0.0, "rental_uris": {"android": "https://dc.lft.to/lastmile_qr_scan", "ios": "https://dc.lft.to/lastmile_qr_scan"}, "type": "electric_scooter"}, {"is_reserved": 0, "is_disabled": 0, "fusion_lon": 0.0, "lat": 38.98837733333333, "name": "1f2a80c52ef9d61d0f3ec7d9501e29ee", "bike_id": "1f2a80c52ef9d61d0f3ec7d9501e29ee", "lon": -77.026517, "fusion_lat": 0.0, "rental_uris": {"android": "https://dc.lft.to/lastmile_qr_scan", "ios": "https://dc.lft.to/lastmile_qr_scan"}, "type": "electric_bike"}, {"is_reserved": 0, "is_disabled": 0, "fusion_lon": 0.0, "lat": 38.944786, "name": "22993f7982aabce6ed9f73cca1e58980", "bike_id": "22993f7982aabce6ed9f73cca1e58980", "lon": -77.063899, "fusion_lat": 0.0, "rental_uris": {"android": "https://dc.lft.to/lastmile_qr_scan", "ios": "https://dc.lft.to/lastmile_qr_scan"}, "type": "electric_scooter"}, {"is_reserved": 0, "is_disabled": 0, "fusion_lon": 0.0, "lat": 38.922823666666666, "name": "e75c1b687407bd7085053699fb9d05d9", "bike_id": "e75c1b687407bd7085053699fb9d05d9", "lon": -77.029749, "fusion_lat": 0.0, "rental_uris": {"android": "https://dc.lft.to/lastmile_qr_scan", "ios": "https://dc.lft.to/lastmile_qr_scan"}, "type": "electric_scooter"}, {"is_reserved": 0, "is_disabled": 0, "fusion_lon": 0.0, "lat": 38.901836, "name": "4ac6fb4f2e405c7e75c4c1bf13867cf8", "bike_id": "4ac6fb4f2e405c7e75c4c1bf13867cf8", "lon": -77.00119216666667, "fusion_lat": 0.0, "rental_uris": {"android": "https://dc.lft.to/lastmile_qr_scan", "ios": "https://dc.lft.to/lastmile_qr_scan"}, "type": "electric_scooter"}, {"is_reserved": 0, "is_disabled": 0, "fusion_lon": 0.0, "lat": 38.923319166666666, "name": "c0bd3b3a015b52b5c886c38ab3426292", "bike_id": "c0bd3b3a015b52b5c886c38ab3426292", "lon": -77.05676416666667, "fusion_lat": 0.0, "rental_uris": {"android": "https://dc.lft.to/lastmile_qr_scan", "ios": "https://dc.lft.to/lastmile_qr_scan"}, "type": "electric_scooter"}, {"is_reserved": 0, "is_disabled": 0, "fusion_lon": 0.0, "lat": 38.909317333333334, "name": "459558c0383e59004c1b07bd30e9bf2b", "bike_id": "459558c0383e59004c1b07bd30e9bf2b", "lon": -76.98465916666666, "fusion_lat": 0.0, "rental_uris": {"android": "https://dc.lft.to/lastmile_qr_scan", "ios": "https://dc.lft.to/lastmile_qr_scan"}, "type": "electric_scooter"}, {"is_reserved": 0, "is_disabled": 0, "fusion_lon": 0.0, "lat": 38.91419483333333, "name": "99b85bf27ada636a5dc5854bd03f22c5", "bike_id": "99b85bf27ada636a5dc5854bd03f22c5", "lon": -77.032323, "fusion_lat": 0.0, "rental_uris": {"android": "https://dc.lft.to/lastmile_qr_scan", "ios": "https://dc.lft.to/lastmile_qr_scan"}, "type": "electric_scooter"}, {"is_reserved": 0, "is_disabled": 0, "fusion_lon": 0.0, "lat": 38.902732666666665, "name": "69535d804d716b3825bd1a7356648166", "bike_id": "69535d804d716b3825bd1a7356648166", "lon": -76.9899565, "fusion_lat": 0.0, "rental_uris": {"android": "https://dc.lft.to/lastmile_qr_scan", "ios": "https://dc.lft.to/lastmile_qr_scan"}, "type": "electric_scooter"}, {"is_reserved": 0, "is_disabled": 0, "fusion_lon": 0.0, "lat": 38.92711366666666, "name": "f25d3b174107388b85a9fcc847335071", "bike_id": "f25d3b174107388b85a9fcc847335071", "lon": -77.0207615, "fusion_lat": 0.0, "rental_uris": {"android": "https://dc.lft.to/lastmile_qr_scan", "ios": "https://dc.lft.to/lastmile_qr_scan"}, "type": "electric_scooter"}, {"is_reserved": 0, "is_disabled": 0, "fusion_lon": 0.0, "lat": 38.835869833333334, "name": "ff66b2187183d412de866a61fa04fad1", "bike_id": "ff66b2187183d412de866a61fa04fad1", "lon": -76.99026866666667, "fusion_lat": 0.0, "rental_uris": {"android": "https://dc.lft.to/lastmile_qr_scan", "ios": "https://dc.lft.to/lastmile_qr_scan"}, "type": "electric_bike"}, {"is_reserved": 0, "is_disabled": 0, "fusion_lon": 0.0, "lat": 38.93864666666666, "name": "6e959bcc07fdc786b18811bf5aa38cca", "bike_id": "6e959bcc07fdc786b18811bf5aa38cca", "lon": -77.02518533333334, "fusion_lat": 0.0, "rental_uris": {"android": "https://dc.lft.to/lastmile_qr_scan", "ios": "https://dc.lft.to/lastmile_qr_scan"}, "type": "electric_scooter"}, {"is_reserved": 0, "is_disabled": 0, "fusion_lon": 0.0, "lat": 38.8981415, "name": "0ba750dd2d0351d91cb876c6e57c8618", "bike_id": "0ba750dd2d0351d91cb876c6e57c8618", "lon": -77.0059995, "fusion_lat": 0.0, "rental_uris": {"android": "https://dc.lft.to/lastmile_qr_scan", "ios": "https://dc.lft.to/lastmile_qr_scan"}, "type": "electric_bike"}, {"is_reserved": 0, "is_disabled": 0, "fusion_lon": 0.0, "lat": 38.89218416666667, "name": "343bb0016c4a6cbc35242d2bbd01cae5", "bike_id": "343bb0016c4a6cbc35242d2bbd01cae5", "lon": -77.02742733333334, "fusion_lat": 0.0, "rental_uris": {"android": "https://dc.lft.to/lastmile_qr_scan", "ios": "https://dc.lft.to/lastmile_qr_scan"}, "type": "electric_scooter"}, {"is_reserved": 0, "is_disabled": 0, "fusion_lon": 0.0, "lat": 38.8982745, "name": "d94286a6fa656d4ab3ef159a5a908cbd", "bike_id": "d94286a6fa656d4ab3ef159a5a908cbd", "lon": -76.930084, "fusion_lat": 0.0, "rental_uris": {"android": "https://dc.lft.to/lastmile_qr_scan", "ios": "https://dc.lft.to/lastmile_qr_scan"}, "type": "electric_scooter"}, {"is_reserved": 0, "is_disabled": 0, "fusion_lon": 0.0, "lat": 38.87382133333333, "name": "e66c6e46397b7894b2a3190ee2a9afa7", "bike_id": "e66c6e46397b7894b2a3190ee2a9afa7", "lon": -77.00076366666667, "fusion_lat": 0.0, "rental_uris": {"android": "https://dc.lft.to/lastmile_qr_scan", "ios": "https://dc.lft.to/lastmile_qr_scan"}, "type": "electric_scooter"}, {"is_reserved": 0, "is_disabled": 0, "fusion_lon": 0.0, "lat": 38.921624333333334, "name": "4b3068aa71f98cf241aa354b7ec62900", "bike_id": "4b3068aa71f98cf241aa354b7ec62900", "lon": -77.04689383333333, "fusion_lat": 0.0, "rental_uris": {"android": "https://dc.lft.to/lastmile_qr_scan", "ios": "https://dc.lft.to/lastmile_qr_scan"}, "type": "electric_scooter"}, {"is_reserved": 0, "is_disabled": 0, "fusion_lon": 0.0, "lat": 38.87895433333333, "name": "bcf24f086180dffb5820e67d563598d3", "bike_id": "bcf24f086180dffb5820e67d563598d3", "lon": -76.935332, "fusion_lat": 0.0, "rental_uris": {"android": "https://dc.lft.to/lastmile_qr_scan", "ios": "https://dc.lft.to/lastmile_qr_scan"}, "type": "electric_scooter"}, {"is_reserved": 0, "is_disabled": 0, "fusion_lon": 0.0, "lat": 38.921534666666666, "name": "26a9d7c052db48b36f91706691ebab93", "bike_id": "26a9d7c052db48b36f91706691ebab93", "lon": -77.04221866666667, "fusion_lat": 0.0, "rental_uris": {"android": "https://dc.lft.to/lastmile_qr_scan", "ios": "https://dc.lft.to/lastmile_qr_scan"}, "type": "electric_scooter"}, {"is_reserved": 0, "is_disabled": 0, "fusion_lon": 0.0, "lat": 38.86381316666667, "name": "093e3fa94f4d5f6846513fe8c8c94214", "bike_id": "093e3fa94f4d5f6846513fe8c8c94214", "lon": -76.98814066666667, "fusion_lat": 0.0, "rental_uris": {"android": "https://dc.lft.to/lastmile_qr_scan", "ios": "https://dc.lft.to/lastmile_qr_scan"}, "type": "electric_scooter"}, {"is_reserved": 0, "is_disabled": 0, "fusion_lon": 0.0, "lat": 38.86324, "name": "e52e0fb37e99254b046b827da9f2ceb9", "bike_id": "e52e0fb37e99254b046b827da9f2ceb9", "lon": -76.98711466666667, "fusion_lat": 0.0, "rental_uris": {"android": "https://dc.lft.to/lastmile_qr_scan", "ios": "https://dc.lft.to/lastmile_qr_scan"}, "type": "electric_scooter"}, {"is_reserved": 0, "is_disabled": 0, "fusion_lon": 0.0, "lat": 38.90046133333333, "name": "f0d62a02346d4848542a6893f6126e8a", "bike_id": "f0d62a02346d4848542a6893f6126e8a", "lon": -76.98818283333334, "fusion_lat": 0.0, "rental_uris": {"android": "https://dc.lft.to/lastmile_qr_scan", "ios": "https://dc.lft.to/lastmile_qr_scan"}, "type": "electric_scooter"}, {"is_reserved": 0, "is_disabled": 0, "fusion_lon": 0.0, "lat": 38.8316265, "name": "e88fb49b0e6ff78aedaa0675c362fd6f", "bike_id": "e88fb49b0e6ff78aedaa0675c362fd6f", "lon": -76.99568566666667, "fusion_lat": 0.0, "rental_uris": {"android": "https://dc.lft.to/lastmile_qr_scan", "ios": "https://dc.lft.to/lastmile_qr_scan"}, "type": "electric_bike"}, {"is_reserved": 0, "is_disabled": 0, "fusion_lon": 0.0, "lat": 38.9286405, "name": "069d37d98e6b1561c8474cf56573a7a3", "bike_id": "069d37d98e6b1561c8474cf56573a7a3", "lon": -77.03709716666667, "fusion_lat": 0.0, "rental_uris": {"android": "https://dc.lft.to/lastmile_qr_scan", "ios": "https://dc.lft.to/lastmile_qr_scan"}, "type": "electric_scooter"}, {"is_reserved": 0, "is_disabled": 0, "fusion_lon": 0.0, "lat": 38.89979433333333, "name": "d684727005812cfa1c8c18a0fee3e917", "bike_id": "d684727005812cfa1c8c18a0fee3e917", "lon": -77.04194783333334, "fusion_lat": 0.0, "rental_uris": {"android": "https://dc.lft.to/lastmile_qr_scan", "ios": "https://dc.lft.to/lastmile_qr_scan"}, "type": "electric_scooter"}, {"is_reserved": 0, "is_disabled": 0, "fusion_lon": 0.0, "lat": 38.930074833333336, "name": "8189ecaf9bff217a3a90aa8ecbccb089", "bike_id": "8189ecaf9bff217a3a90aa8ecbccb089", "lon": -77.0145555, "fusion_lat": 0.0, "rental_uris": {"android": "https://dc.lft.to/lastmile_qr_scan", "ios": "https://dc.lft.to/lastmile_qr_scan"}, "type": "electric_scooter"}, {"is_reserved": 0, "is_disabled": 0, "fusion_lon": 0.0, "lat": 38.9086875, "name": "cb5672a176c0c6fd1b90fceeccd307cf", "bike_id": "cb5672a176c0c6fd1b90fceeccd307cf", "lon": -77.04333516666667, "fusion_lat": 0.0, "rental_uris": {"android": "https://dc.lft.to/lastmile_qr_scan", "ios": "https://dc.lft.to/lastmile_qr_scan"}, "type": "electric_scooter"}, {"is_reserved": 0, "is_disabled": 0, "fusion_lon": 0.0, "lat": 38.916946, "name": "6e6f9f736307ecfb956c80702bb84e72", "bike_id": "6e6f9f736307ecfb956c80702bb84e72", "lon": -77.03804666666667, "fusion_lat": 0.0, "rental_uris": {"android": "https://dc.lft.to/lastmile_qr_scan", "ios": "https://dc.lft.to/lastmile_qr_scan"}, "type": "electric_scooter"}, {"is_reserved": 0, "is_disabled": 0, "fusion_lon": 0.0, "lat": 38.871999333333335, "name": "06a149c1ed1dadf8751fca79ef7ebfaf", "bike_id": "06a149c1ed1dadf8751fca79ef7ebfaf", "lon": -77.00576083333333, "fusion_lat": 0.0, "rental_uris": {"android": "https://dc.lft.to/lastmile_qr_scan", "ios": "https://dc.lft.to/lastmile_qr_scan"}, "type": "electric_scooter"}, {"is_reserved": 0, "is_disabled": 0, "fusion_lon": 0.0, "lat": 38.923679666666665, "name": "d82531376e5574a3b91393d12577ecd4", "bike_id": "d82531376e5574a3b91393d12577ecd4", "lon": -77.01952983333334, "fusion_lat": 0.0, "rental_uris": {"android": "https://dc.lft.to/lastmile_qr_scan", "ios": "https://dc.lft.to/lastmile_qr_scan"}, "type": "electric_scooter"}, {"is_reserved": 0, "is_disabled": 0, "fusion_lon": 0.0, "lat": 38.91535733333333, "name": "e9e15a8b59d13ce1c315d788dbfe8dcc", "bike_id": "e9e15a8b59d13ce1c315d788dbfe8dcc", "lon": -77.0218405, "fusion_lat": 0.0, "rental_uris": {"android": "https://dc.lft.to/lastmile_qr_scan", "ios": "https://dc.lft.to/lastmile_qr_scan"}, "type": "electric_scooter"}, {"is_reserved": 0, "is_disabled": 0, "fusion_lon": 0.0, "lat": 38.91367116666667, "name": "c20d1d58ccde06299ce319500f138b36", "bike_id": "c20d1d58ccde06299ce319500f138b36", "lon": -77.09192216666666, "fusion_lat": 0.0, "rental_uris": {"android": "https://dc.lft.to/lastmile_qr_scan", "ios": "https://dc.lft.to/lastmile_qr_scan"}, "type": "electric_scooter"}, {"is_reserved": 0, "is_disabled": 0, "fusion_lon": 0.0, "lat": 38.9282015, "name": "79ae86b345bb7b553ae5a7f01df56f8d", "bike_id": "79ae86b345bb7b553ae5a7f01df56f8d", "lon": -77.02241116666667, "fusion_lat": 0.0, "rental_uris": {"android": "https://dc.lft.to/lastmile_qr_scan", "ios": "https://dc.lft.to/lastmile_qr_scan"}, "type": "electric_scooter"}, {"is_reserved": 0, "is_disabled": 0, "fusion_lon": 0.0, "lat": 38.916895, "name": "6ea0540341cc65eb65a3a31a1d31d423", "bike_id": "6ea0540341cc65eb65a3a31a1d31d423", "lon": -77.02947083333333, "fusion_lat": 0.0, "rental_uris": {"android": "https://dc.lft.to/lastmile_qr_scan", "ios": "https://dc.lft.to/lastmile_qr_scan"}, "type": "electric_scooter"}, {"is_reserved": 0, "is_disabled": 0, "fusion_lon": 0.0, "lat": 38.922529, "name": "0c4ccf602aa5ab3c93d73a7ab7f08368", "bike_id": "0c4ccf602aa5ab3c93d73a7ab7f08368", "lon": -77.030669, "fusion_lat": 0.0, "rental_uris": {"android": "https://dc.lft.to/lastmile_qr_scan", "ios": "https://dc.lft.to/lastmile_qr_scan"}, "type": "electric_scooter"}, {"is_reserved": 0, "is_disabled": 0, "fusion_lon": 0.0, "lat": 38.922569, "name": "1c157f59c465ac325c35ec66ad4867c3", "bike_id": "1c157f59c465ac325c35ec66ad4867c3", "lon": -77.042462, "fusion_lat": 0.0, "rental_uris": {"android": "https://dc.lft.to/lastmile_qr_scan", "ios": "https://dc.lft.to/lastmile_qr_scan"}, "type": "electric_scooter"}, {"is_reserved": 0, "is_disabled": 0, "fusion_lon": 0.0, "lat": 38.901128666666665, "name": "147188a97d6aa801e60c6798348de526", "bike_id": "147188a97d6aa801e60c6798348de526", "lon": -77.021818, "fusion_lat": 0.0, "rental_uris": {"android": "https://dc.lft.to/lastmile_qr_scan", "ios": "https://dc.lft.to/lastmile_qr_scan"}, "type": "electric_scooter"}, {"is_reserved": 0, "is_disabled": 0, "fusion_lon": 0.0, "lat": 38.90483166666667, "name": "a8cf9893ffcc4e46bb92a25d3eb27b31", "bike_id": "a8cf9893ffcc4e46bb92a25d3eb27b31", "lon": -77.027179, "fusion_lat": 0.0, "rental_uris": {"android": "https://dc.lft.to/lastmile_qr_scan", "ios": "https://dc.lft.to/lastmile_qr_scan"}, "type": "electric_scooter"}, {"is_reserved": 0, "is_disabled": 0, "fusion_lon": 0.0, "lat": 38.93175683333333, "name": "7ecb259bec9f3a3b8a0cfa6bc2f0457a", "bike_id": "7ecb259bec9f3a3b8a0cfa6bc2f0457a", "lon": -77.0354485, "fusion_lat": 0.0, "rental_uris": {"android": "https://dc.lft.to/lastmile_qr_scan", "ios": "https://dc.lft.to/lastmile_qr_scan"}, "type": "electric_bike"}, {"is_reserved": 0, "is_disabled": 0, "fusion_lon": 0.0, "lat": 38.8888475, "name": "4eabfb73eefb9bb5b1c6c5d785309101", "bike_id": "4eabfb73eefb9bb5b1c6c5d785309101", "lon": -76.99034833333333, "fusion_lat": 0.0, "rental_uris": {"android": "https://dc.lft.to/lastmile_qr_scan", "ios": "https://dc.lft.to/lastmile_qr_scan"}, "type": "electric_scooter"}, {"is_reserved": 0, "is_disabled": 0, "fusion_lon": 0.0, "lat": 38.920581, "name": "4f146fe36dc70ed002d42f2a254f702a", "bike_id": "4f146fe36dc70ed002d42f2a254f702a", "lon": -76.98427649999999, "fusion_lat": 0.0, "rental_uris": {"android": "https://dc.lft.to/lastmile_qr_scan", "ios": "https://dc.lft.to/lastmile_qr_scan"}, "type": "electric_scooter"}, {"is_reserved": 0, "is_disabled": 0, "fusion_lon": 0.0, "lat": 39.04233683333333, "name": "58f50fa50aef6abc98054acf20a062a2", "bike_id": "58f50fa50aef6abc98054acf20a062a2", "lon": -76.99735066666666, "fusion_lat": 0.0, "rental_uris": {"android": "https://dc.lft.to/lastmile_qr_scan", "ios": "https://dc.lft.to/lastmile_qr_scan"}, "type": "electric_bike"}, {"is_reserved": 0, "is_disabled": 0, "fusion_lon": 0.0, "lat": 38.92425516666667, "name": "c7649d0f1163e811063d75a7dfd17bbd", "bike_id": "c7649d0f1163e811063d75a7dfd17bbd", "lon": -77.0203285, "fusion_lat": 0.0, "rental_uris": {"android": "https://dc.lft.to/lastmile_qr_scan", "ios": "https://dc.lft.to/lastmile_qr_scan"}, "type": "electric_scooter"}, {"is_reserved": 0, "is_disabled": 0, "fusion_lon": 0.0, "lat": 38.8588105, "name": "409b80183b884bc4954565f124591e62", "bike_id": "409b80183b884bc4954565f124591e62", "lon": -76.98929633333333, "fusion_lat": 0.0, "rental_uris": {"android": "https://dc.lft.to/lastmile_qr_scan", "ios": "https://dc.lft.to/lastmile_qr_scan"}, "type": "electric_scooter"}, {"is_reserved": 0, "is_disabled": 0, "fusion_lon": 0.0, "lat": 38.9028255, "name": "630a78eb1992d8afe65c62281cd89e67", "bike_id": "630a78eb1992d8afe65c62281cd89e67", "lon": -77.06434466666667, "fusion_lat": 0.0, "rental_uris": {"android": "https://dc.lft.to/lastmile_qr_scan", "ios": "https://dc.lft.to/lastmile_qr_scan"}, "type": "electric_scooter"}, {"is_reserved": 0, "is_disabled": 0, "fusion_lon": 0.0, "lat": 38.929680833333336, "name": "8b5638208e2d1c0a7abc3b83afd78e65", "bike_id": "8b5638208e2d1c0a7abc3b83afd78e65", "lon": -77.04115883333333, "fusion_lat": 0.0, "rental_uris": {"android": "https://dc.lft.to/lastmile_qr_scan", "ios": "https://dc.lft.to/lastmile_qr_scan"}, "type": "electric_scooter"}, {"is_reserved": 0, "is_disabled": 0, "fusion_lon": 0.0, "lat": 38.905018166666665, "name": "30e24148b9bf4649807c717b50c810c4", "bike_id": "30e24148b9bf4649807c717b50c810c4", "lon": -77.05482416666666, "fusion_lat": 0.0, "rental_uris": {"android": "https://dc.lft.to/lastmile_qr_scan", "ios": "https://dc.lft.to/lastmile_qr_scan"}, "type": "electric_scooter"}, {"is_reserved": 0, "is_disabled": 0, "fusion_lon": 0.0, "lat": 38.91348716666667, "name": "563c9b1f416487e4d5f01ff90b1b5a71", "bike_id": "563c9b1f416487e4d5f01ff90b1b5a71", "lon": -77.020496, "fusion_lat": 0.0, "rental_uris": {"android": "https://dc.lft.to/lastmile_qr_scan", "ios": "https://dc.lft.to/lastmile_qr_scan"}, "type": "electric_scooter"}, {"is_reserved": 0, "is_disabled": 0, "fusion_lon": 0.0, "lat": 38.935336166666666, "name": "b71d8d29221c6e833888b5bde83f0079", "bike_id": "b71d8d29221c6e833888b5bde83f0079", "lon": -77.02345133333333, "fusion_lat": 0.0, "rental_uris": {"android": "https://dc.lft.to/lastmile_qr_scan", "ios": "https://dc.lft.to/lastmile_qr_scan"}, "type": "electric_scooter"}, {"is_reserved": 0, "is_disabled": 0, "fusion_lon": 0.0, "lat": 38.90644616666667, "name": "6453079b583177ef8729519ba46456a8", "bike_id": "6453079b583177ef8729519ba46456a8", "lon": -77.01692733333333, "fusion_lat": 0.0, "rental_uris": {"android": "https://dc.lft.to/lastmile_qr_scan", "ios": "https://dc.lft.to/lastmile_qr_scan"}, "type": "electric_scooter"}, {"is_reserved": 0, "is_disabled": 0, "fusion_lon": 0.0, "lat": 38.92114766666667, "name": "ccb33f2b58e0d4b86332f6082936b9c8", "bike_id": "ccb33f2b58e0d4b86332f6082936b9c8", "lon": -77.02064983333334, "fusion_lat": 0.0, "rental_uris": {"android": "https://dc.lft.to/lastmile_qr_scan", "ios": "https://dc.lft.to/lastmile_qr_scan"}, "type": "electric_scooter"}, {"is_reserved": 0, "is_disabled": 0, "fusion_lon": 0.0, "lat": 38.973429333333335, "name": "4ec3ad5da6253b80610a6c8d8abd6d35", "bike_id": "4ec3ad5da6253b80610a6c8d8abd6d35", "lon": -76.995847, "fusion_lat": 0.0, "rental_uris": {"android": "https://dc.lft.to/lastmile_qr_scan", "ios": "https://dc.lft.to/lastmile_qr_scan"}, "type": "electric_bike"}, {"is_reserved": 0, "is_disabled": 0, "fusion_lon": 0.0, "lat": 38.923932, "name": "94671c406004839c95cc914af921b765", "bike_id": "94671c406004839c95cc914af921b765", "lon": -77.00064866666666, "fusion_lat": 0.0, "rental_uris": {"android": "https://dc.lft.to/lastmile_qr_scan", "ios": "https://dc.lft.to/lastmile_qr_scan"}, "type": "electric_scooter"}, {"is_reserved": 0, "is_disabled": 0, "fusion_lon": 0.0, "lat": 38.961286, "name": "510d7ce289313d80134deee64d4902a3", "bike_id": "510d7ce289313d80134deee64d4902a3", "lon": -77.0327065, "fusion_lat": 0.0, "rental_uris": {"android": "https://dc.lft.to/lastmile_qr_scan", "ios": "https://dc.lft.to/lastmile_qr_scan"}, "type": "electric_bike"}, {"is_reserved": 0, "is_disabled": 0, "fusion_lon": 0.0, "lat": 38.90034516666667, "name": "158491721828b2693b1ad930f02b50f2", "bike_id": "158491721828b2693b1ad930f02b50f2", "lon": -76.98835416666667, "fusion_lat": 0.0, "rental_uris": {"android": "https://dc.lft.to/lastmile_qr_scan", "ios": "https://dc.lft.to/lastmile_qr_scan"}, "type": "electric_scooter"}, {"is_reserved": 0, "is_disabled": 0, "fusion_lon": 0.0, "lat": 38.8024805, "name": "8f8e23201a72785b1352fcd95e543364", "bike_id": "8f8e23201a72785b1352fcd95e543364", "lon": -77.11448733333333, "fusion_lat": 0.0, "rental_uris": {"android": "https://dc.lft.to/lastmile_qr_scan", "ios": "https://dc.lft.to/lastmile_qr_scan"}, "type": "electric_bike"}, {"is_reserved": 0, "is_disabled": 0, "fusion_lon": 0.0, "lat": 38.917098833333334, "name": "32a746e0c9e7d9cc1ea67327849ece36", "bike_id": "32a746e0c9e7d9cc1ea67327849ece36", "lon": -77.03859416666667, "fusion_lat": 0.0, "rental_uris": {"android": "https://dc.lft.to/lastmile_qr_scan", "ios": "https://dc.lft.to/lastmile_qr_scan"}, "type": "electric_scooter"}, {"is_reserved": 0, "is_disabled": 0, "fusion_lon": 0.0, "lat": 38.9156255, "name": "1cfb023f0b66fbbd869679ca84ecfc2d", "bike_id": "1cfb023f0b66fbbd869679ca84ecfc2d", "lon": -77.0236535, "fusion_lat": 0.0, "rental_uris": {"android": "https://dc.lft.to/lastmile_qr_scan", "ios": "https://dc.lft.to/lastmile_qr_scan"}, "type": "electric_bike"}, {"is_reserved": 0, "is_disabled": 0, "fusion_lon": 0.0, "lat": 38.919200333333336, "name": "f839031c5baeed5bf0e43d6bc7d4f483", "bike_id": "f839031c5baeed5bf0e43d6bc7d4f483", "lon": -77.02684416666666, "fusion_lat": 0.0, "rental_uris": {"android": "https://dc.lft.to/lastmile_qr_scan", "ios": "https://dc.lft.to/lastmile_qr_scan"}, "type": "electric_scooter"}, {"is_reserved": 0, "is_disabled": 0, "fusion_lon": 0.0, "lat": 38.900321166666664, "name": "91ea714159bb77df9a47c3651a125f13", "bike_id": "91ea714159bb77df9a47c3651a125f13", "lon": -76.99839883333334, "fusion_lat": 0.0, "rental_uris": {"android": "https://dc.lft.to/lastmile_qr_scan", "ios": "https://dc.lft.to/lastmile_qr_scan"}, "type": "electric_scooter"}, {"is_reserved": 0, "is_disabled": 0, "fusion_lon": 0.0, "lat": 38.916802, "name": "aecdda9cd877539085f3c04be037fabc", "bike_id": "aecdda9cd877539085f3c04be037fabc", "lon": -77.046076, "fusion_lat": 0.0, "rental_uris": {"android": "https://dc.lft.to/lastmile_qr_scan", "ios": "https://dc.lft.to/lastmile_qr_scan"}, "type": "electric_scooter"}, {"is_reserved": 0, "is_disabled": 0, "fusion_lon": 0.0, "lat": 38.923572166666666, "name": "7b9fd65db8c1d43c1351361665301ca5", "bike_id": "7b9fd65db8c1d43c1351361665301ca5", "lon": -77.05362866666667, "fusion_lat": 0.0, "rental_uris": {"android": "https://dc.lft.to/lastmile_qr_scan", "ios": "https://dc.lft.to/lastmile_qr_scan"}, "type": "electric_scooter"}, {"is_reserved": 0, "is_disabled": 0, "fusion_lon": 0.0, "lat": 39.07472466666667, "name": "5109a5b457eca895c3f76cecbb63ecea", "bike_id": "5109a5b457eca895c3f76cecbb63ecea", "lon": -77.1152565, "fusion_lat": 0.0, "rental_uris": {"android": "https://dc.lft.to/lastmile_qr_scan", "ios": "https://dc.lft.to/lastmile_qr_scan"}, "type": "electric_bike"}, {"is_reserved": 0, "is_disabled": 0, "fusion_lon": 0.0, "lat": 38.919168166666665, "name": "e3117e0794a3eb1772522c84daa1a0ce", "bike_id": "e3117e0794a3eb1772522c84daa1a0ce", "lon": -77.03089233333333, "fusion_lat": 0.0, "rental_uris": {"android": "https://dc.lft.to/lastmile_qr_scan", "ios": "https://dc.lft.to/lastmile_qr_scan"}, "type": "electric_scooter"}, {"is_reserved": 0, "is_disabled": 0, "fusion_lon": 0.0, "lat": 38.84646033333333, "name": "d0f26b05cc80d0cbfcc23d02bd865dbf", "bike_id": "d0f26b05cc80d0cbfcc23d02bd865dbf", "lon": -76.97074583333334, "fusion_lat": 0.0, "rental_uris": {"android": "https://dc.lft.to/lastmile_qr_scan", "ios": "https://dc.lft.to/lastmile_qr_scan"}, "type": "electric_bike"}, {"is_reserved": 0, "is_disabled": 0, "fusion_lon": 0.0, "lat": 38.91846233333333, "name": "e177dcfc2a88632f70bde2c37d374a97", "bike_id": "e177dcfc2a88632f70bde2c37d374a97", "lon": -77.02296933333334, "fusion_lat": 0.0, "rental_uris": {"android": "https://dc.lft.to/lastmile_qr_scan", "ios": "https://dc.lft.to/lastmile_qr_scan"}, "type": "electric_scooter"}, {"is_reserved": 0, "is_disabled": 0, "fusion_lon": 0.0, "lat": 38.854470666666664, "name": "059a37dbe3d11af6fe6121299f0e4c93", "bike_id": "059a37dbe3d11af6fe6121299f0e4c93", "lon": -76.986035, "fusion_lat": 0.0, "rental_uris": {"android": "https://dc.lft.to/lastmile_qr_scan", "ios": "https://dc.lft.to/lastmile_qr_scan"}, "type": "electric_bike"}, {"is_reserved": 0, "is_disabled": 0, "fusion_lon": 0.0, "lat": 38.9038895, "name": "e9b1ed1ffac79c3a5984cfb3f01e5b13", "bike_id": "e9b1ed1ffac79c3a5984cfb3f01e5b13", "lon": -76.97382583333334, "fusion_lat": 0.0, "rental_uris": {"android": "https://dc.lft.to/lastmile_qr_scan", "ios": "https://dc.lft.to/lastmile_qr_scan"}, "type": "electric_scooter"}, {"is_reserved": 0, "is_disabled": 0, "fusion_lon": 0.0, "lat": 38.911159, "name": "3161789fe0824867ffe7a478c7df6b1c", "bike_id": "3161789fe0824867ffe7a478c7df6b1c", "lon": -77.03867616666666, "fusion_lat": 0.0, "rental_uris": {"android": "https://dc.lft.to/lastmile_qr_scan", "ios": "https://dc.lft.to/lastmile_qr_scan"}, "type": "electric_scooter"}, {"is_reserved": 0, "is_disabled": 0, "fusion_lon": 0.0, "lat": 38.9026015, "name": "df8d8acb9403391fa898e9f9a87c1fcd", "bike_id": "df8d8acb9403391fa898e9f9a87c1fcd", "lon": -76.98478366666667, "fusion_lat": 0.0, "rental_uris": {"android": "https://dc.lft.to/lastmile_qr_scan", "ios": "https://dc.lft.to/lastmile_qr_scan"}, "type": "electric_scooter"}, {"is_reserved": 0, "is_disabled": 0, "fusion_lon": 0.0, "lat": 38.916327, "name": "97f27b142190d61812cad00ff4615dfa", "bike_id": "97f27b142190d61812cad00ff4615dfa", "lon": -76.9827735, "fusion_lat": 0.0, "rental_uris": {"android": "https://dc.lft.to/lastmile_qr_scan", "ios": "https://dc.lft.to/lastmile_qr_scan"}, "type": "electric_scooter"},