{"data": {"bikes": [{"fusion_lon": 0.0, "bike_id": "0e1a1a525ebf26dc1b6ecb216f17a1f2", "name": "0e1a1a525ebf26dc1b6ecb216f17a1f2", "type": "electric_scooter", "lon": -77.0005345, "rental_uris": {"android": "https://dc.lft.to/lastmile_qr_scan", "ios": "https://dc.lft.to/lastmile_qr_scan"}, "lat": 38.875285166666664, "is_reserved": 0, "is_disabled": 0, "fusion_lat": 0.0}, {"fusion_lon": 0.0, "bike_id": "55c2964f5e9aa35880001307419b6316", "name": "55c2964f5e9aa35880001307419b6316", "type": "electric_scooter", "lon": -77.0038475, "rental_uris": {"android": "https://dc.lft.to/lastmile_qr_scan", "ios": "https://dc.lft.to/lastmile_qr_scan"}, "lat": 38.90610566666667, "is_reserved": 0, "is_disabled": 0, "fusion_lat": 0.0}, {"fusion_lon": 0.0, "bike_id": "f3aac60059d1764d5a7d247a946db301", "name": "f3aac60059d1764d5a7d247a946db301", "type": "electric_bike", "lon": -77.00326416666667, "rental_uris": {"android": "https://dc.lft.to/lastmile_qr_scan", "ios": "https://dc.lft.to/lastmile_qr_scan"}, "lat": 38.919762666666664, "is_reserved": 0, "is_disabled": 0, "fusion_lat": 0.0}, {"fusion_lon": 0.0, "bike_id": "886474134bfde7756d392ae945b53b72", "name": "886474134bfde7756d392ae945b53b72", "type": "electric_bike", "lon": -76.97618233333333, "rental_uris": {"android": "https://dc.lft.to/lastmile_qr_scan", "ios": "https://dc.lft.to/lastmile_qr_scan"}, "lat": 38.89292, "is_reserved": 0, "is_disabled": 0, "fusion_lat": 0.0}, {"fusion_lon": 0.0, "bike_id": "a388ad74cd049013a505ed33edb5fff9", "name": "a388ad74cd049013a505ed33edb5fff9", "type": "electric_scooter", "lon": -77.03083283333333, "rental_uris": {"android": "https://dc.lft.to/lastmile_qr_scan", "ios": "https://dc.lft.to/lastmile_qr_scan"}, "lat": 38.92383266666667, "is_reserved": 0, "is_disabled": 0, "fusion_lat": 0.0}, {"fusion_lon": 0.0, "bike_id": "0d85908e7203182088edfefe21ae5d47", "name": "0d85908e7203182088edfefe21ae5d47", "type": "electric_scooter", "lon": -77.009355, "rental_uris": {"android": "https://dc.lft.to/lastmile_qr_scan", "ios": "https://dc.lft.to/lastmile_qr_scan"}, "lat": 38.876815, "is_reserved": 0, "is_disabled": 0, "fusion_lat": 0.0}, {"fusion_lon": 0.0, "bike_id": "6ecb155884f3f78181d6d7a1a190ef79", "name": "6ecb155884f3f78181d6d7a1a190ef79", "type": "electric_scooter", "lon": -77.03259783333333, "rental_uris": {"android": "https://dc.lft.to/lastmile_qr_scan", "ios": "https://dc.lft.to/lastmile_qr_scan"}, "lat": 38.935213, "is_reserved": 0, "is_disabled": 0, "fusion_lat": 0.0}, {"fusion_lon": 0.0, "bike_id": "b8de0afc39f68f010a2186f0bece34fc", "name": "b8de0afc39f68f010a2186f0bece34fc", "type": "electric_scooter", "lon": -77.03251033333333, "rental_uris": {"android": "https://dc.lft.to/lastmile_qr_scan", "ios": "https://dc.lft.to/lastmile_qr_scan"}, "lat": 38.91337016666667, "is_reserved": 0, "is_disabled": 0, "fusion_lat": 0.0}, {"fusion_lon": 0.0, "bike_id": "2b0074a6df4afb39305cfbbbfe4de741", "name": "2b0074a6df4afb39305cfbbbfe4de741", "type": "electric_bike", "lon": -76.92339383333334, "rental_uris": {"android": "https://dc.lft.to/lastmile_qr_scan", "ios": "https://dc.lft.to/lastmile_qr_scan"}, "lat": 38.88792483333334, "is_reserved": 0, "is_disabled": 0, "fusion_lat": 0.0}, {"fusion_lon": 0.0, "bike_id": "0b0418b88862039a1d9565d1fd08f8fe", "name": "0b0418b88862039a1d9565d1fd08f8fe", "type": "electric_scooter", "lon": -77.029951, "rental_uris": {"android": "https://dc.lft.to/lastmile_qr_scan", "ios": "https://dc.lft.to/lastmile_qr_scan"}, "lat": 38.9286375, "is_reserved": 0, "is_disabled": 0, "fusion_lat": 0.0}, {"fusion_lon": 0.0, "bike_id": "d666eed42fd5a1d21c43154b4971477f", "name": "d666eed42fd5a1d21c43154b4971477f", "type": "electric_scooter", "lon": -77.04402333333333, "rental_uris": {"android": "https://dc.lft.to/lastmile_qr_scan", "ios": "https://dc.lft.to/lastmile_qr_scan"}, "lat": 38.929533, "is_reserved": 0, "is_disabled": 0, "fusion_lat": 0.0}, {"fusion_lon": 0.0, "bike_id": "3731ab9f3f2d7861f18324dada07576b", "name": "3731ab9f3f2d7861f18324dada07576b", "type": "electric_scooter", "lon": -77.030697, "rental_uris": {"android": "https://dc.lft.to/lastmile_qr_scan", "ios": "https://dc.lft.to/lastmile_qr_scan"}, "lat": 38.90754316666667, "is_reserved": 0, "is_disabled": 0, "fusion_lat": 0.0}, {"fusion_lon": 0.0, "bike_id": "db18b1d0bb50edd425d72b1e2f83b5b3", "name": "db18b1d0bb50edd425d72b1e2f83b5b3", "type": "electric_scooter", "lon": -77.03183366666667, "rental_uris": {"android": "https://dc.lft.to/lastmile_qr_scan", "ios": "https://dc.lft.to/lastmile_qr_scan"}, "lat": 38.9291505, "is_reserved": 0, "is_disabled": 0, "fusion_lat": 0.0}, {"fusion_lon": 0.0, "bike_id": "03ec009a289cf3d9b9dc3a525be0f9f3", "name": "03ec009a289cf3d9b9dc3a525be0f9f3", "type": "electric_scooter", "lon": -77.04104883333333, "rental_uris": {"android": "https://dc.lft.to/lastmile_qr_scan", "ios": "https://dc.lft.to/lastmile_qr_scan"}, "lat": 38.92368233333333, "is_reserved": 0, "is_disabled": 0, "fusion_lat": 0.0}, {"fusion_lon": 0.0, "bike_id": "fc083489a59bdab16974c03f3ab112da", "name": "fc083489a59bdab16974c03f3ab112da", "type": "electric_scooter", "lon": -77.0204995, "rental_uris": {"android": "https://dc.lft.to/lastmile_qr_scan", "ios": "https://dc.lft.to/lastmile_qr_scan"}, "lat": 38.941234, "is_reserved": 0, "is_disabled": 0, "fusion_lat": 0.0}, {"fusion_lon": 0.0, "bike_id": "0eb9a1a66c4216b3c68c608eff4090ba", "name": "0eb9a1a66c4216b3c68c608eff4090ba", "type": "electric_scooter", "lon": -77.017576, "rental_uris": {"android": "https://dc.lft.to/lastmile_qr_scan", "ios": "https://dc.lft.to/lastmile_qr_scan"}, "lat": 38.90146766666667, "is_reserved": 0, "is_disabled": 0, "fusion_lat": 0.0}, {"fusion_lon": 0.0, "bike_id": "5a1cb88b94e61c69544393000f109fe4", "name": "5a1cb88b94e61c69544393000f109fe4", "type": "electric_scooter", "lon": -77.04179633333334, "rental_uris": {"android": "https://dc.lft.to/lastmile_qr_scan", "ios": "https://dc.lft.to/lastmile_qr_scan"}, "lat": 38.907323, "is_reserved": 0, "is_disabled": 0, "fusion_lat": 0.0}, {"fusion_lon": 0.0, "bike_id": "0e83d7d2d6fba423b6a8ddab44143413", "name": "0e83d7d2d6fba423b6a8ddab44143413", "type": "electric_scooter", "lon": -77.027793, "rental_uris": {"android": "https://dc.lft.to/lastmile_qr_scan", "ios": "https://dc.lft.to/lastmile_qr_scan"}, "lat": 38.9292905, "is_reserved": 0, "is_disabled": 0, "fusion_lat": 0.0}, {"fusion_lon": 0.0, "bike_id": "ed8cc9f30600b715ec7b11dc36145851", "name": "ed8cc9f30600b715ec7b11dc36145851", "type": "electric_scooter", "lon": -77.0386105, "rental_uris": {"android": "https://dc.lft.to/lastmile_qr_scan", "ios": "https://dc.lft.to/lastmile_qr_scan"}, "lat": 38.90786716666667, "is_reserved": 0, "is_disabled": 0, "fusion_lat": 0.0}, {"fusion_lon": 0.0, "bike_id": "d08adf0021b303a5ab00cbbf711f4e10", "name": "d08adf0021b303a5ab00cbbf711f4e10", "type": "electric_scooter", "lon": -77.02049233333334, "rental_uris": {"android": "https://dc.lft.to/lastmile_qr_scan", "ios": "https://dc.lft.to/lastmile_qr_scan"}, "lat": 38.958732166666664, "is_reserved": 0, "is_disabled": 0, "fusion_lat": 0.0}, {"fusion_lon": 0.0, "bike_id": "d33df1a5d854b4564607c0d6013ba33e", "name": "d33df1a5d854b4564607c0d6013ba33e", "type": "electric_scooter", "lon": -76.9744175, "rental_uris": {"android": "https://dc.lft.to/lastmile_qr_scan", "ios": "https://dc.lft.to/lastmile_qr_scan"}, "lat": 38.864119, "is_reserved": 0, "is_disabled": 0, "fusion_lat": 0.0}, {"fusion_lon": 0.0, "bike_id": "8ed6d993272f37e58a8e57967369564b", "name": "8ed6d993272f37e58a8e57967369564b", "type": "electric_scooter", "lon": -77.02562583333334, "rental_uris": {"android": "https://dc.lft.to/lastmile_qr_scan", "ios": "https://dc.lft.to/lastmile_qr_scan"}, "lat": 38.91411983333333, "is_reserved": 0, "is_disabled": 0, "fusion_lat": 0.0}, {"fusion_lon": 0.0, "bike_id": "dd0162ee9b98680bbbb070ff10d8e05f", "name": "dd0162ee9b98680bbbb070ff10d8e05f", "type": "electric_bike", "lon": -77.02740083333333, "rental_uris": {"android": "https://dc.lft.to/lastmile_qr_scan", "ios": "https://dc.lft.to/lastmile_qr_scan"}, "lat": 38.920999, "is_reserved": 0, "is_disabled": 0, "fusion_lat": 0.0}, {"fusion_lon": 0.0, "bike_id": "769c541adfc9e62adae1c9a9d1fba27f", "name": "769c541adfc9e62adae1c9a9d1fba27f", "type": "electric_scooter", "lon": -77.03518333333334, "rental_uris": {"android": "https://dc.lft.to/lastmile_qr_scan", "ios": "https://dc.lft.to/lastmile_qr_scan"}, "lat": 38.936044833333334, "is_reserved": 0, "is_disabled": 0, "fusion_lat": 0.0}, {"fusion_lon": 0.0, "bike_id": "71e7a32f7da6b7d46c36ac0f8eb43d1d", "name": "71e7a32f7da6b7d46c36ac0f8eb43d1d", "type": "electric_scooter", "lon": -77.02716433333333, "rental_uris": {"android": "https://dc.lft.to/lastmile_qr_scan", "ios": "https://dc.lft.to/lastmile_qr_scan"}, "lat": 38.8963295, "is_reserved": 0, "is_disabled": 0, "fusion_lat": 0.0}, {"fusion_lon": 0.0, "bike_id": "8c46a52410b634a5d29f2bf7509ee71d", "name": "8c46a52410b634a5d29f2bf7509ee71d", "type": "electric_scooter", "lon": -77.0096735, "rental_uris": {"android": "https://dc.lft.to/lastmile_qr_scan", "ios": "https://dc.lft.to/lastmile_qr_scan"}, "lat": 38.9078675, "is_reserved": 0, "is_disabled": 0, "fusion_lat": 0.0}, {"fusion_lon": 0.0, "bike_id": "ddd9849e0a1a76a341caef39c2f3e757", "name": "ddd9849e0a1a76a341caef39c2f3e757", "type": "electric_scooter", "lon": -77.01600566666667, "rental_uris": {"android": "https://dc.lft.to/lastmile_qr_scan", "ios": "https://dc.lft.to/lastmile_qr_scan"}, "lat": 38.8997425, "is_reserved": 0, "is_disabled": 0, "fusion_lat": 0.0}, {"fusion_lon": 0.0, "bike_id": "4962f48c4c3b384a37350fae2c5535e6", "name": "4962f48c4c3b384a37350fae2c5535e6", "type": "electric_scooter", "lon": -77.017692, "rental_uris": {"android": "https://dc.lft.to/lastmile_qr_scan", "ios": "https://dc.lft.to/lastmile_qr_scan"}, "lat": 38.90242966666667, "is_reserved": 0, "is_disabled": 0, "fusion_lat": 0.0}, {"fusion_lon": 0.0, "bike_id": "be7765c057de473c25e67d640d1d6461", "name": "be7765c057de473c25e67d640d1d6461", "type": "electric_scooter", "lon": -77.034657, "rental_uris": {"android": "https://dc.lft.to/lastmile_qr_scan", "ios": "https://dc.lft.to/lastmile_qr_scan"}, "lat": 38.921593666666666, "is_reserved": 0, "is_disabled": 0, "fusion_lat": 0.0}, {"fusion_lon": 0.0, "bike_id": "eab5ce523557c593a4c8476b238061d1", "name": "eab5ce523557c593a4c8476b238061d1", "type": "electric_scooter", "lon": -77.04398316666666, "rental_uris": {"android": "https://dc.lft.to/lastmile_qr_scan", "ios": "https://dc.lft.to/lastmile_qr_scan"}, "lat": 38.90887416666666, "is_reserved": 0, "is_disabled": 0, "fusion_lat": 0.0}, {"fusion_lon": 0.0, "bike_id": "da6b2668d4dd6a4fbf380a776deea657", "name": "da6b2668d4dd6a4fbf380a776deea657", "type": "electric_scooter", "lon": -77.01934333333334, "rental_uris": {"android": "https://dc.lft.to/lastmile_qr_scan", "ios": "https://dc.lft.to/lastmile_qr_scan"}, "lat": 38.944818833333336, "is_reserved": 0, "is_disabled": 0, "fusion_lat": 0.0}, {"fusion_lon": 0.0, "bike_id": "c1f840d9d092fa6b91be3125f461e53f", "name": "c1f840d9d092fa6b91be3125f461e53f", "type": "electric_scooter", "lon": -76.94718733333333, "rental_uris": {"android": "https://dc.lft.to/lastmile_qr_scan", "ios": "https://dc.lft.to/lastmile_qr_scan"}, "lat": 38.89711033333333, "is_reserved": 0, "is_disabled": 0, "fusion_lat": 0.0}, {"fusion_lon": 0.0, "bike_id": "2ba0c858a6151924ee2b5a0c428d84c2", "name": "2ba0c858a6151924ee2b5a0c428d84c2", "type": "electric_scooter", "lon": -76.97972016666667, "rental_uris": {"android": "https://dc.lft.to/lastmile_qr_scan", "ios": "https://dc.lft.to/lastmile_qr_scan"}, "lat": 38.88766316666667, "is_reserved": 0, "is_disabled": 0, "fusion_lat": 0.0}, {"fusion_lon": 0.0, "bike_id": "5e341e87a3afdcb274939dd191ec1e09", "name": "5e341e87a3afdcb274939dd191ec1e09", "type": "electric_scooter", "lon": -77.0684795, "rental_uris": {"android": "https://dc.lft.to/lastmile_qr_scan", "ios": "https://dc.lft.to/lastmile_qr_scan"}, "lat": 38.952212333333335, "is_reserved": 0, "is_disabled": 0, "fusion_lat": 0.0}, {"fusion_lon": 0.0, "bike_id": "7ee9787974321a38681e713d0520d571", "name": "7ee9787974321a38681e713d0520d571", "type": "electric_scooter", "lon": -77.04374483333334, "rental_uris": {"android": "https://dc.lft.to/lastmile_qr_scan", "ios": "https://dc.lft.to/lastmile_qr_scan"}, "lat": 38.91045416666667, "is_reserved": 0, "is_disabled": 0, "fusion_lat": 0.0}, {"fusion_lon": 0.0, "bike_id": "f9b61a2508b58b600049f26bb5cd70db", "name": "f9b61a2508b58b600049f26bb5cd70db", "type": "electric_scooter", "lon": -77.01479233333333, "rental_uris": {"android": "https://dc.lft.to/lastmile_qr_scan", "ios": "https://dc.lft.to/lastmile_qr_scan"}, "lat": 38.87655816666667, "is_reserved": 0, "is_disabled": 0, "fusion_lat": 0.0}, {"fusion_lon": 0.0, "bike_id": "00bac96626ab41fa1c13a99066325ab3", "name": "00bac96626ab41fa1c13a99066325ab3", "type": "electric_scooter", "lon": -77.0022525, "rental_uris": {"android": "https://dc.lft.to/lastmile_qr_scan", "ios": "https://dc.lft.to/lastmile_qr_scan"}, "lat": 38.890941166666664, "is_reserved": 0, "is_disabled": 0, "fusion_lat": 0.0}, {"fusion_lon": 0.0, "bike_id": "ae3f2e3fcca82f5c0e4890d34eeec541", "name": "ae3f2e3fcca82f5c0e4890d34eeec541", "type": "electric_scooter", "lon": -77.06181133333334, "rental_uris": {"android": "https://dc.lft.to/lastmile_qr_scan", "ios": "https://dc.lft.to/lastmile_qr_scan"}, "lat": 38.94094033333333, "is_reserved": 0, "is_disabled": 0, "fusion_lat": 0.0}, {"fusion_lon": 0.0, "bike_id": "73dd9d87ccb9fb283f44212692309f53", "name": "73dd9d87ccb9fb283f44212692309f53", "type": "electric_scooter", "lon": -77.02416116666667, "rental_uris": {"android": "https://dc.lft.to/lastmile_qr_scan", "ios": "https://dc.lft.to/lastmile_qr_scan"}, "lat": 38.905673166666666, "is_reserved": 0, "is_disabled": 0, "fusion_lat": 0.0}, {"fusion_lon": 0.0, "bike_id": "facd1c230b22861082220ca6686b1d19", "name": "facd1c230b22861082220ca6686b1d19", "type": "electric_scooter", "lon": -77.01948966666667, "rental_uris": {"android": "https://dc.lft.to/lastmile_qr_scan", "ios": "https://dc.lft.to/lastmile_qr_scan"}, "lat": 38.922589, "is_reserved": 0, "is_disabled": 0, "fusion_lat": 0.0}, {"fusion_lon": 0.0, "bike_id": "4c32d15d602b8bb0eaed88fcea054b91", "name": "4c32d15d602b8bb0eaed88fcea054b91", "type": "electric_scooter", "lon": -77.02292616666666, "rental_uris": {"android": "https://dc.lft.to/lastmile_qr_scan", "ios": "https://dc.lft.to/lastmile_qr_scan"}, "lat": 38.9165495, "is_reserved": 0, "is_disabled": 0, "fusion_lat": 0.0}, {"fusion_lon": 0.0, "bike_id": "533e838e4ed03dacdba03a1a98a59ca6", "name": "533e838e4ed03dacdba03a1a98a59ca6", "type": "electric_scooter", "lon": -77.0345205, "rental_uris": {"android": "https://dc.lft.to/lastmile_qr_scan", "ios": "https://dc.lft.to/lastmile_qr_scan"}, "lat": 38.905618833333335, "is_reserved": 0, "is_disabled": 0, "fusion_lat": 0.0}, {"fusion_lon": 0.0, "bike_id": "e81b5f9d1d6d92e9d225e168cbabab53", "name": "e81b5f9d1d6d92e9d225e168cbabab53", "type": "electric_scooter", "lon": -77.05439166666666, "rental_uris": {"android": "https://dc.lft.to/lastmile_qr_scan", "ios": "https://dc.lft.to/lastmile_qr_scan"}, "lat": 38.8960455, "is_reserved": 0, "is_disabled": 0, "fusion_lat": 0.0}, {"fusion_lon": 0.0, "bike_id": "451c72fdf5fead891efcbf7323cd2c30", "name": "451c72fdf5fead891efcbf7323cd2c30", "type": "electric_bike", "lon": -77.0697585, "rental_uris": {"android": "https://dc.lft.to/lastmile_qr_scan", "ios": "https://dc.lft.to/lastmile_qr_scan"}, "lat": 38.9526925, "is_reserved": 0, "is_disabled": 0, "fusion_lat": 0.0}, {"fusion_lon": 0.0, "bike_id": "45e600f5f1664285c28ca3d155f2e1c1", "name": "45e600f5f1664285c28ca3d155f2e1c1", "type": "electric_scooter", "lon": -77.02964116666666, "rental_uris": {"android": "https://dc.lft.to/lastmile_qr_scan", "ios": "https://dc.lft.to/lastmile_qr_scan"}, "lat": 38.905015666666664, "is_reserved": 0, "is_disabled": 0, "fusion_lat": 0.0}, {"fusion_lon": 0.0, "bike_id": "be6176c353b70d034eb9faf23b9fca59", "name": "be6176c353b70d034eb9faf23b9fca59", "type": "electric_scooter", "lon": -77.0405585, "rental_uris": {"android": "https://dc.lft.to/lastmile_qr_scan", "ios": "https://dc.lft.to/lastmile_qr_scan"}, "lat": 38.898398666666665, "is_reserved": 0, "is_disabled": 0, "fusion_lat": 0.0}, {"fusion_lon": 0.0, "bike_id": "160f3340f9ea6c5b48fae4b968af34e5", "name": "160f3340f9ea6c5b48fae4b968af34e5", "type": "electric_scooter", "lon": -77.04040033333334, "rental_uris": {"android": "https://dc.lft.to/lastmile_qr_scan", "ios": "https://dc.lft.to/lastmile_qr_scan"}, "lat": 38.92566133333333, "is_reserved": 0, "is_disabled": 0, "fusion_lat": 0.0}, {"fusion_lon": 0.0, "bike_id": "9d6855d5ba58b68271cdf6d810cea622", "name": "9d6855d5ba58b68271cdf6d810cea622", "type": "electric_scooter", "lon": -76.94825533333334, "rental_uris": {"android": "https://dc.lft.to/lastmile_qr_scan", "ios": "https://dc.lft.to/lastmile_qr_scan"}, "lat": 38.885177166666665, "is_reserved": 0, "is_disabled": 0, "fusion_lat": 0.0}, {"fusion_lon": 0.0, "bike_id": "7525a1583955c8da43e5e6db1f06ef6d", "name": "7525a1583955c8da43e5e6db1f06ef6d", "type": "electric_bike", "lon": -76.999447, "rental_uris": {"android": "https://dc.lft.to/lastmile_qr_scan", "ios": "https://dc.lft.to/lastmile_qr_scan"}, "lat": 38.88206683333333, "is_reserved": 0, "is_disabled": 0, "fusion_lat": 0.0}, {"fusion_lon": 0.0, "bike_id": "4cc3bddeeed0694d94349673a0a2166b", "name": "4cc3bddeeed0694d94349673a0a2166b", "type": "electric_scooter", "lon": -77.03727866666667, "rental_uris": {"android": "https://dc.lft.to/lastmile_qr_scan", "ios": "https://dc.lft.to/lastmile_qr_scan"}, "lat": 38.909648833333335, "is_reserved": 0, "is_disabled": 0, "fusion_lat": 0.0}, {"fusion_lon": 0.0, "bike_id": "c2ac97a694d243dd8e4fd8bcd80a6dc0", "name": "c2ac97a694d243dd8e4fd8bcd80a6dc0", "type": "electric_scooter", "lon": -77.016121, "rental_uris": {"android": "https://dc.lft.to/lastmile_qr_scan", "ios": "https://dc.lft.to/lastmile_qr_scan"}, "lat": 38.901742166666665, "is_reserved": 0, "is_disabled": 0, "fusion_lat": 0.0}, {"fusion_lon": 0.0, "bike_id": "7d73f7b12c7cfb8431885cf2432f83f4", "name": "7d73f7b12c7cfb8431885cf2432f83f4", "type": "electric_scooter", "lon": -77.02758266666666, "rental_uris": {"android": "https://dc.lft.to/lastmile_qr_scan", "ios": "https://dc.lft.to/lastmile_qr_scan"}, "lat": 38.91697583333333, "is_reserved": 0, "is_disabled": 0, "fusion_lat": 0.0}, {"fusion_lon": 0.0, "bike_id": "ce0c715fcafd9868c005230fc4efe5e1", "name": "ce0c715fcafd9868c005230fc4efe5e1", "type": "electric_scooter", "lon": -77.02682566666667, "rental_uris": {"android": "https://dc.lft.to/lastmile_qr_scan", "ios": "https://dc.lft.to/lastmile_qr_scan"}, "lat": 38.93322416666667, "is_reserved": 0, "is_disabled": 0, "fusion_lat": 0.0}, {"fusion_lon": 0.0, "bike_id": "98c42c657f48a00faf953cdc9121e703", "name": "98c42c657f48a00faf953cdc9121e703", "type": "electric_scooter", "lon": -77.03789416666666, "rental_uris": {"android": "https://dc.lft.to/lastmile_qr_scan", "ios": "https://dc.lft.to/lastmile_qr_scan"}, "lat": 38.93324366666667, "is_reserved": 0, "is_disabled": 0, "fusion_lat": 0.0}, {"fusion_lon": 0.0, "bike_id": "dbe5e7a4dc3a32ac2f82150818fd0da7", "name": "dbe5e7a4dc3a32ac2f82150818fd0da7", "type": "electric_bike", "lon": -76.946258, "rental_uris": {"android": "https://dc.lft.to/lastmile_qr_scan", "ios": "https://dc.lft.to/lastmile_qr_scan"}, "lat": 38.832351833333334, "is_reserved": 0, "is_disabled": 0, "fusion_lat": 0.0}, {"fusion_lon": 0.0, "bike_id": "cee3009f03a251f70a35795a0b2da9ee", "name": "cee3009f03a251f70a35795a0b2da9ee", "type": "electric_scooter", "lon": -77.0710375, "rental_uris": {"android": "https://dc.lft.to/lastmile_qr_scan", "ios": "https://dc.lft.to/lastmile_qr_scan"}, "lat": 38.919712, "is_reserved": 0, "is_disabled": 0, "fusion_lat": 0.0}, {"fusion_lon": 0.0, "bike_id": "4b4ae4d2cee4886e60c2879dcc176da7", "name": "4b4ae4d2cee4886e60c2879dcc176da7", "type": "electric_scooter", "lon": -76.9876915, "rental_uris": {"android": "https://dc.lft.to/lastmile_qr_scan", "ios": "https://dc.lft.to/lastmile_qr_scan"}, "lat": 38.8832155, "is_reserved": 0, "is_disabled": 0, "fusion_lat": 0.0}, {"fusion_lon": 0.0, "bike_id": "a079e59762bd36024e90e4928e1e90c2", "name": "a079e59762bd36024e90e4928e1e90c2", "type": "electric_scooter", "lon": -77.03665583333333, "rental_uris": {"android": "https://dc.lft.to/lastmile_qr_scan", "ios": "https://dc.lft.to/lastmile_qr_scan"}, "lat": 38.9270545, "is_reserved": 0, "is_disabled": 0, "fusion_lat": 0.0}, {"fusion_lon": 0.0, "bike_id": "7b3bf38f7932e00156ff4f2e140cbe69", "name": "7b3bf38f7932e00156ff4f2e140cbe69", "type": "electric_scooter", "lon": -76.99455333333333, "rental_uris": {"android": "https://dc.lft.to/lastmile_qr_scan", "ios": "https://dc.lft.to/lastmile_qr_scan"}, "lat": 38.92281833333333, "is_reserved": 0, "is_disabled": 0, "fusion_lat": 0.0}, {"fusion_lon": 0.0, "bike_id": "3e6d00d91cf40ebf4a750e809c4dcc01", "name": "3e6d00d91cf40ebf4a750e809c4dcc01", "type": "electric_scooter", "lon": -76.9915525, "rental_uris": {"android": "https://dc.lft.to/lastmile_qr_scan", "ios": "https://dc.lft.to/lastmile_qr_scan"}, "lat": 38.897706, "is_reserved": 0, "is_disabled": 0, "fusion_lat": 0.0}, {"fusion_lon": 0.0, "bike_id": "4edf60109fe2b60de9e45f2770c7b334", "name": "4edf60109fe2b60de9e45f2770c7b334", "type": "electric_scooter", "lon": -77.046696, "rental_uris": {"android": "https://dc.lft.to/lastmile_qr_scan", "ios": "https://dc.lft.to/lastmile_qr_scan"}, "lat": 38.907258666666664, "is_reserved": 0, "is_disabled": 0, "fusion_lat": 0.0}, {"fusion_lon": 0.0, "bike_id": "e2f6364fa1dc5a63ce4716a14953e729", "name": "e2f6364fa1dc5a63ce4716a14953e729", "type": "electric_scooter", "lon": -77.02958883333334, "rental_uris": {"android": "https://dc.lft.to/lastmile_qr_scan", "ios": "https://dc.lft.to/lastmile_qr_scan"}, "lat": 38.8922065, "is_reserved": 0, "is_disabled": 0, "fusion_lat": 0.0}, {"fusion_lon": 0.0, "bike_id": "78f5b35494f25923aa4885635bc747a0", "name": "78f5b35494f25923aa4885635bc747a0", "type": "electric_scooter", "lon": -77.04870433333333, "rental_uris": {"android": "https://dc.lft.to/lastmile_qr_scan", "ios": "https://dc.lft.to/lastmile_qr_scan"}, "lat": 38.900922666666666, "is_reserved": 0, "is_disabled": 0, "fusion_lat": 0.0}, {"fusion_lon": 0.0, "bike_id": "4802b1e6eb1b3d491523877fa35bd7b5", "name": "4802b1e6eb1b3d491523877fa35bd7b5", "type": "electric_scooter", "lon": -77.03175683333333, "rental_uris": {"android": "https://dc.lft.to/lastmile_qr_scan", "ios": "https://dc.lft.to/lastmile_qr_scan"}, "lat": 38.919151666666664, "is_reserved": 0, "is_disabled": 0, "fusion_lat": 0.0}, {"fusion_lon": 0.0, "bike_id": "c8ced1e802d1ced08989f35f3d35ab74", "name": "c8ced1e802d1ced08989f35f3d35ab74", "type": "electric_scooter", "lon": -77.02386983333334, "rental_uris": {"android": "https://dc.lft.to/lastmile_qr_scan", "ios": "https://dc.lft.to/lastmile_qr_scan"}, "lat": 38.9058015, "is_reserved": 0, "is_disabled": 0, "fusion_lat": 0.0}, {"fusion_lon": 0.0, "bike_id": "4d12c3384d6222c75529a324fab6af1e", "name": "4d12c3384d6222c75529a324fab6af1e", "type": "electric_scooter", "lon": -76.998178, "rental_uris": {"android": "https://dc.lft.to/lastmile_qr_scan", "ios": "https://dc.lft.to/lastmile_qr_scan"}, "lat": 38.84436783333334, "is_reserved": 0, "is_disabled": 0, "fusion_lat": 0.0}, {"fusion_lon": 0.0, "bike_id": "99373efef655ca4fa4262667b463ce3b", "name": "99373efef655ca4fa4262667b463ce3b", "type": "electric_scooter", "lon": -77.03347116666667, "rental_uris": {"android": "https://dc.lft.to/lastmile_qr_scan", "ios": "https://dc.lft.to/lastmile_qr_scan"}, "lat": 38.9223475, "is_reserved": 0, "is_disabled": 0, "fusion_lat": 0.0}, {"fusion_lon": 0.0, "bike_id": "ff37c05b004060171591f29a14c3adc7", "name": "ff37c05b004060171591f29a14c3adc7", "type": "electric_scooter", "lon": -77.02710866666666, "rental_uris": {"android": "https://dc.lft.to/lastmile_qr_scan", "ios": "https://dc.lft.to/lastmile_qr_scan"}, "lat": 38.88142116666667, "is_reserved": 0, "is_disabled": 0, "fusion_lat": 0.0}, {"fusion_lon": 0.0, "bike_id": "9a1d6665ba4caef4ea62072facab19c3", "name": "9a1d6665ba4caef4ea62072facab19c3", "type": "electric_scooter", "lon": -77.04173833333333, "rental_uris": {"android": "https://dc.lft.to/lastmile_qr_scan", "ios": "https://dc.lft.to/lastmile_qr_scan"}, "lat": 38.90931166666667, "is_reserved": 0, "is_disabled": 0, "fusion_lat": 0.0}, {"fusion_lon": 0.0, "bike_id": "22c71a3fd79c9c6c7415bf98c19049e4", "name": "22c71a3fd79c9c6c7415bf98c19049e4", "type": "electric_scooter", "lon": -77.023786, "rental_uris": {"android": "https://dc.lft.to/lastmile_qr_scan", "ios": "https://dc.lft.to/lastmile_qr_scan"}, "lat": 38.907304, "is_reserved": 0, "is_disabled": 0, "fusion_lat": 0.0}, {"fusion_lon": 0.0, "bike_id": "403c57f83b04794abcd23ad9f6401e90", "name": "403c57f83b04794abcd23ad9f6401e90", "type": "electric_scooter", "lon": -77.00752966666667, "rental_uris": {"android": "https://dc.lft.to/lastmile_qr_scan", "ios": "https://dc.lft.to/lastmile_qr_scan"}, "lat": 38.915559, "is_reserved": 0, "is_disabled": 0, "fusion_lat": 0.0}, {"fusion_lon": 0.0, "bike_id": "e9aa4f8fd65b1e559b7fb6887b725c80", "name": "e9aa4f8fd65b1e559b7fb6887b725c80", "type": "electric_scooter", "lon": -77.038436, "rental_uris": {"android": "https://dc.lft.to/lastmile_qr_scan", "ios": "https://dc.lft.to/lastmile_qr_scan"}, "lat": 38.9107215, "is_reserved": 0, "is_disabled": 0, "fusion_lat": 0.0}, {"fusion_lon": 0.0, "bike_id": "15b370df5758663fe0a3ecfeaea934c8", "name": "15b370df5758663fe0a3ecfeaea934c8", "type": "electric_bike", "lon": -77.12626233333333, "rental_uris": {"android": "https://dc.lft.to/lastmile_qr_scan", "ios": "https://dc.lft.to/lastmile_qr_scan"}, "lat": 39.05812233333333, "is_reserved": 0, "is_disabled": 0, "fusion_lat": 0.0}, {"fusion_lon": 0.0, "bike_id": "2abe1c65318ed62c846352ca3a884196", "name": "2abe1c65318ed62c846352ca3a884196", "type": "electric_scooter", "lon": -76.98858716666666, "rental_uris": {"android": "https://dc.lft.to/lastmile_qr_scan", "ios": "https://dc.lft.to/lastmile_qr_scan"}, "lat": 38.907036, "is_reserved": 0, "is_disabled": 0, "fusion_lat": 0.0}, {"fusion_lon": 0.0, "bike_id": "cc537fd04c0bff78384bab27f2fce9b4", "name": "cc537fd04c0bff78384bab27f2fce9b4", "type": "electric_bike", "lon": -77.01448733333334, "rental_uris": {"android": "https://dc.lft.to/lastmile_qr_scan", "ios": "https://dc.lft.to/lastmile_qr_scan"}, "lat": 38.87678433333333, "is_reserved": 0, "is_disabled": 0, "fusion_lat": 0.0}, {"fusion_lon": 0.0, "bike_id": "a5a7316ccaf59585dd1ab5f30db33e91", "name": "a5a7316ccaf59585dd1ab5f30db33e91", "type": "electric_scooter", "lon": -77.0462745, "rental_uris": {"android": "https://dc.lft.to/lastmile_qr_scan", "ios": "https://dc.lft.to/lastmile_qr_scan"}, "lat": 38.91808483333333, "is_reserved": 0, "is_disabled": 0, "fusion_lat": 0.0}, {"fusion_lon": 0.0, "bike_id": "1c20d7c3196d4d8ed141b93f91b73f9d", "name": "1c20d7c3196d4d8ed141b93f91b73f9d", "type": "electric_scooter", "lon": -76.9873005, "rental_uris": {"android": "https://dc.lft.to/lastmile_qr_scan", "ios": "https://dc.lft.to/lastmile_qr_scan"}, "lat": 38.8670665, "is_reserved": 0, "is_disabled": 0, "fusion_lat": 0.0}, {"fusion_lon": 0.0, "bike_id": "75032900e9b28d3d4e88a75de0a99d13", "name": "75032900e9b28d3d4e88a75de0a99d13", "type": "electric_scooter", "lon": -76.98778033333333, "rental_uris": {"android": "https://dc.lft.to/lastmile_qr_scan", "ios": "https://dc.lft.to/lastmile_qr_scan"}, "lat": 38.898307, "is_reserved": 0, "is_disabled": 0, "fusion_lat": 0.0}, {"fusion_lon": 0.0, "bike_id": "8117cc5f50ac00264ef3eb5a2a4d6a2a", "name": "8117cc5f50ac00264ef3eb5a2a4d6a2a", "type": "electric_scooter", "lon": -77.02497233333334, "rental_uris": {"android": "https://dc.lft.to/lastmile_qr_scan", "ios": "https://dc.lft.to/lastmile_qr_scan"}, "lat": 38.92061833333333, "is_reserved": 0, "is_disabled": 0, "fusion_lat": 0.0}, {"fusion_lon": 0.0, "bike_id": "8692bc2f2b4bd7f728206222aacf67c7", "name": "8692bc2f2b4bd7f728206222aacf67c7", "type": "electric_scooter", "lon": -77.02344816666667, "rental_uris": {"android": "https://dc.lft.to/lastmile_qr_scan", "ios": "https://dc.lft.to/lastmile_qr_scan"}, "lat": 38.92263033333333, "is_reserved": 0, "is_disabled": 0, "fusion_lat": 0.0}, {"fusion_lon": 0.0, "bike_id": "f3d6819176f8e4dba111df3c88930006", "name": "f3d6819176f8e4dba111df3c88930006", "type": "electric_scooter", "lon": -77.03192016666667, "rental_uris": {"android": "https://dc.lft.to/lastmile_qr_scan", "ios": "https://dc.lft.to/lastmile_qr_scan"}, "lat": 38.92058166666666, "is_reserved": 0, "is_disabled": 0, "fusion_lat": 0.0}, {"fusion_lon": 0.0, "bike_id": "0b9b0a7bba94cb6b18bc09fcece0131d", "name": "0b9b0a7bba94cb6b18bc09fcece0131d", "type": "electric_bike", "lon": -77.088012, "rental_uris": {"android": "https://dc.lft.to/lastmile_qr_scan", "ios": "https://dc.lft.to/lastmile_qr_scan"}, "lat": 38.83172783333333, "is_reserved": 0, "is_disabled": 0, "fusion_lat": 0.0}, {"fusion_lon": 0.0, "bike_id": "c49c05c555e1e77a5fecaca3a716498d", "name": "c49c05c555e1e77a5fecaca3a716498d", "type": "electric_scooter", "lon": -77.01020783333334, "rental_uris": {"android": "https://dc.lft.to/lastmile_qr_scan", "ios": "https://dc.lft.to/lastmile_qr_scan"}, "lat": 38.9062855, "is_reserved": 0, "is_disabled": 0, "fusion_lat": 0.0}, {"fusion_lon": 0.0, "bike_id": "14af5c8b07b0eac6ba9619d1ba834c73", "name": "14af5c8b07b0eac6ba9619d1ba834c73", "type": "electric_scooter", "lon": -77.0295975, "rental_uris": {"android": "https://dc.lft.to/lastmile_qr_scan", "ios": "https://dc.lft.to/lastmile_qr_scan"}, "lat": 38.92850033333333, "is_reserved": 0, "is_disabled": 0, "fusion_lat": 0.0}, {"fusion_lon": 0.0, "bike_id": "6e837864c6282e6384c149d8422d6c79", "name": "6e837864c6282e6384c149d8422d6c79", "type": "electric_bike", "lon": -76.95204933333333, "rental_uris": {"android": "https://dc.lft.to/lastmile_qr_scan", "ios": "https://dc.lft.to/lastmile_qr_scan"}, "lat": 38.936666, "is_reserved": 0, "is_disabled": 0, "fusion_lat": 0.0}, {"fusion_lon": 0.0, "bike_id": "e44c142129d8fb489d0515919e66b2ed", "name": "e44c142129d8fb489d0515919e66b2ed", "type": "electric_scooter", "lon": -77.04341916666667, "rental_uris": {"android": "https://dc.lft.to/lastmile_qr_scan", "ios": "https://dc.lft.to/lastmile_qr_scan"}, "lat": 38.898292, "is_reserved": 0, "is_disabled": 0, "fusion_lat": 0.0}, {"fusion_lon": 0.0, "bike_id": "56adf547a26484de2d748041597b4d36", "name": "56adf547a26484de2d748041597b4d36", "type": "electric_scooter", "lon": -77.0248445, "rental_uris": {"android": "https://dc.lft.to/lastmile_qr_scan", "ios": "https://dc.lft.to/lastmile_qr_scan"}, "lat": 38.938257666666665, "is_reserved": 0, "is_disabled": 0, "fusion_lat": 0.0}, {"fusion_lon": 0.0, "bike_id": "62d235697b8675a3076c55e37015487f", "name": "62d235697b8675a3076c55e37015487f", "type": "electric_scooter", "lon": -77.044878, "rental_uris": {"android": "https://dc.lft.to/lastmile_qr_scan", "ios": "https://dc.lft.to/lastmile_qr_scan"}, "lat": 38.91871283333333, "is_reserved": 0, "is_disabled": 0, "fusion_lat": 0.0}, {"fusion_lon": 0.0, "bike_id": "f65aefd8c2626dc4dc6f35bc77d03601", "name": "f65aefd8c2626dc4dc6f35bc77d03601", "type": "electric_scooter", "lon": -77.02421583333333, "rental_uris": {"android": "https://dc.lft.to/lastmile_qr_scan", "ios": "https://dc.lft.to/lastmile_qr_scan"}, "lat": 38.93492783333333, "is_reserved": 0, "is_disabled": 0, "fusion_lat": 0.0}, {"fusion_lon": 0.0, "bike_id": "f6bd8d9c6f5daf1cf351d94ef8c7dc79", "name": "f6bd8d9c6f5daf1cf351d94ef8c7dc79", "type": "electric_scooter", "lon": -77.046462, "rental_uris": {"android": "https://dc.lft.to/lastmile_qr_scan", "ios": "https://dc.lft.to/lastmile_qr_scan"}, "lat": 38.90318333333333, "is_reserved": 0, "is_disabled": 0, "fusion_lat": 0.0}, {"fusion_lon": 0.0, "bike_id": "a9c7508a35ae504407aa9d8584492bce", "name": "a9c7508a35ae504407aa9d8584492bce", "type": "electric_scooter", "lon": -77.01906566666666, "rental_uris": {"android": "https://dc.lft.to/lastmile_qr_scan", "ios": "https://dc.lft.to/lastmile_qr_scan"}, "lat": 38.902892666666666, "is_reserved": 0, "is_disabled": 0, "fusion_lat": 0.0}, {"fusion_lon": 0.0, "bike_id": "d35921617da737b51b73c36e2ec688cb", "name": "d35921617da737b51b73c36e2ec688cb", "type": "electric_scooter", "lon": -77.018516, "rental_uris": {"android": "https://dc.lft.to/lastmile_qr_scan", "ios": "https://dc.lft.to/lastmile_qr_scan"}, "lat": 38.95431766666667, "is_reserved": 0, "is_disabled": 0, "fusion_lat": 0.0}, {"fusion_lon": 0.0, "bike_id": "c7e95f7e3cd0c268c453c6b68512368a", "name": "c7e95f7e3cd0c268c453c6b68512368a", "type": "electric_scooter", "lon": -77.03155733333334, "rental_uris": {"android": "https://dc.lft.to/lastmile_qr_scan", "ios": "https://dc.lft.to/lastmile_qr_scan"}, "lat": 38.88303716666667, "is_reserved": 0, "is_disabled": 0, "fusion_lat": 0.0}, {"fusion_lon": 0.0, "bike_id": "56fdf6d2d06bb6f5c7b3dcd05a222161", "name": "56fdf6d2d06bb6f5c7b3dcd05a222161", "type": "electric_scooter", "lon": -77.031848, "rental_uris": {"android": "https://dc.lft.to/lastmile_qr_scan", "ios": "https://dc.lft.to/lastmile_qr_scan"}, "lat": 38.911915666666665, "is_reserved": 0, "is_disabled": 0, "fusion_lat": 0.0}, {"fusion_lon": 0.0, "bike_id": "f5c7d1190009f68f1b0563b1d1ee50df", "name": "f5c7d1190009f68f1b0563b1d1ee50df", "type": "electric_scooter", "lon": -77.00588983333333, "rental_uris": {"android": "https://dc.lft.to/lastmile_qr_scan", "ios": "https://dc.lft.to/lastmile_qr_scan"}, "lat": 38.92757483333333, "is_reserved": 0, "is_disabled": 0, "fusion_lat": 0.0}, {"fusion_lon": 0.0, "bike_id": "bcedbc7474c6bef76c31336a17429958", "name": "bcedbc7474c6bef76c31336a17429958", "type": "electric_scooter", "lon": -77.0653035, "rental_uris": {"android": "https://dc.lft.to/lastmile_qr_scan", "ios": "https://dc.lft.to/lastmile_qr_scan"}, "lat": 38.91130366666667, "is_reserved": 0, "is_disabled": 0, "fusion_lat": 0.0}, {"fusion_lon": 0.0, "bike_id": "65b3bc1a953f8c0293088327702d91d6", "name": "65b3bc1a953f8c0293088327702d91d6", "type": "electric_bike", "lon": -77.09959583333334, "rental_uris": {"android": "https://dc.lft.to/lastmile_qr_scan", "ios": "https://dc.lft.to/lastmile_qr_scan"}, "lat": 38.85792266666667, "is_reserved": 0, "is_disabled": 0, "fusion_lat": 0.0}, {"fusion_lon": 0.0, "bike_id": "7a6e26900ef94611094a62dc9aba4edc", "name": "7a6e26900ef94611094a62dc9aba4edc", "type": "electric_scooter", "lon": -77.0343845, "rental_uris": {"android": "https://dc.lft.to/lastmile_qr_scan", "ios": "https://dc.lft.to/lastmile_qr_scan"}, "lat": 38.91807583333333, "is_reserved": 0, "is_disabled": 0, "fusion_lat": 0.0}, {"fusion_lon": 0.0, "bike_id": "68dae80d075871f54e218377a370c6a9", "name": "68dae80d075871f54e218377a370c6a9", "type": "electric_scooter", "lon": -76.94198583333333, "rental_uris": {"android": "https://dc.lft.to/lastmile_qr_scan", "ios": "https://dc.lft.to/lastmile_qr_scan"}, "lat": 38.8937655, "is_reserved": 0, "is_disabled": 0, "fusion_lat": 0.0}, {"fusion_lon": 0.0, "bike_id": "fc8428a7b4ebc8f25b9994350b3a9bf0", "name": "fc8428a7b4ebc8f25b9994350b3a9bf0", "type": "electric_scooter", "lon": -77.0265355, "rental_uris": {"android": "https://dc.lft.to/lastmile_qr_scan", "ios": "https://dc.lft.to/lastmile_qr_scan"}, "lat": 38.938681833333334, "is_reserved": 0, "is_disabled": 0, "fusion_lat": 0.0}, {"fusion_lon": 0.0, "bike_id": "b5e94107aff40ccef4f603974a67201d", "name": "b5e94107aff40ccef4f603974a67201d", "type": "electric_bike", "lon": -76.931972, "rental_uris": {"android": "https://dc.lft.to/lastmile_qr_scan", "ios": "https://dc.lft.to/lastmile_qr_scan"}, "lat": 38.87233066666667, "is_reserved": 0, "is_disabled": 0, "fusion_lat": 0.0}, {"fusion_lon": 0.0, "bike_id": "8a2b6cbfc319a668f1e3217194de995b", "name": "8a2b6cbfc319a668f1e3217194de995b", "type": "electric_scooter", "lon": -77.03207683333333, "rental_uris": {"android": "https://dc.lft.to/lastmile_qr_scan", "ios": "https://dc.lft.to/lastmile_qr_scan"}, "lat": 38.9139855, "is_reserved": 0, "is_disabled": 0, "fusion_lat": 0.0}, {"fusion_lon": 0.0, "bike_id": "02a441c0d70eb533a4c2772597df3e67", "name": "02a441c0d70eb533a4c2772597df3e67", "type": "electric_scooter", "lon": -77.0386045, "rental_uris": {"android": "https://dc.lft.to/lastmile_qr_scan", "ios": "https://dc.lft.to/lastmile_qr_scan"}, "lat": 38.905863333333336, "is_reserved": 0, "is_disabled": 0, "fusion_lat": 0.0}, {"fusion_lon": 0.0, "bike_id": "49699437690e0bd37af7252ef8185ead", "name": "49699437690e0bd37af7252ef8185ead", "type": "electric_scooter", "lon": -77.02161333333333, "rental_uris": {"android": "https://dc.lft.to/lastmile_qr_scan", "ios": "https://dc.lft.to/lastmile_qr_scan"}, "lat": 38.92614616666667, "is_reserved": 0, "is_disabled": 0, "fusion_lat": 0.0}, {"fusion_lon": 0.0, "bike_id": "cc33cab01ac95e81b87e9208d705c023", "name": "cc33cab01ac95e81b87e9208d705c023", "type": "electric_scooter", "lon": -77.03999916666666, "rental_uris": {"android": "https://dc.lft.to/lastmile_qr_scan", "ios": "https://dc.lft.to/lastmile_qr_scan"}, "lat": 38.92429666666666, "is_reserved": 0, "is_disabled": 0, "fusion_lat": 0.0}, {"fusion_lon": 0.0, "bike_id": "fecabbc25250e46d1b5859631d47ebfa", "name": "fecabbc25250e46d1b5859631d47ebfa", "type": "electric_scooter", "lon": -77.03908633333333, "rental_uris": {"android": "https://dc.lft.to/lastmile_qr_scan", "ios": "https://dc.lft.to/lastmile_qr_scan"}, "lat": 38.914200666666666, "is_reserved": 0, "is_disabled": 0, "fusion_lat": 0.0}, {"fusion_lon": 0.0, "bike_id": "da150dc96ec554aba02ff421675363bd", "name": "da150dc96ec554aba02ff421675363bd", "type": "electric_scooter", "lon": -77.02319683333333, "rental_uris": {"android": "https://dc.lft.to/lastmile_qr_scan", "ios": "https://dc.lft.to/lastmile_qr_scan"}, "lat": 38.91777916666667, "is_reserved": 0, "is_disabled": 0, "fusion_lat": 0.0}, {"fusion_lon": 0.0, "bike_id": "5a2509ff2c12edfc03f8b9423cb89711", "name": "5a2509ff2c12edfc03f8b9423cb89711", "type": "electric_scooter", "lon": -77.0365095, "rental_uris": {"android": "https://dc.lft.to/lastmile_qr_scan", "ios": "https://dc.lft.to/lastmile_qr_scan"}, "lat": 38.92446066666667, "is_reserved": 0, "is_disabled": 0, "fusion_lat": 0.0}, {"fusion_lon": 0.0, "bike_id": "f3f5cef5a3ba856025a7d5c8e357d5cd", "name": "f3f5cef5a3ba856025a7d5c8e357d5cd", "type": "electric_scooter", "lon": -77.08195733333334, "rental_uris": {"android": "https://dc.lft.to/lastmile_qr_scan", "ios": "https://dc.lft.to/lastmile_qr_scan"}, "lat": 38.935591, "is_reserved": 0, "is_disabled": 0, "fusion_lat": 0.0}, {"fusion_lon": 0.0, "bike_id": "8a8cf87fb94f7a54f4b5042cf1f94004", "name": "8a8cf87fb94f7a54f4b5042cf1f94004", "type": "electric_scooter", "lon": -77.041538, "rental_uris": {"android": "https://dc.lft.to/lastmile_qr_scan", "ios": "https://dc.lft.to/lastmile_qr_scan"}, "lat": 38.917199333333336, "is_reserved": 0, "is_disabled": 0, "fusion_lat": 0.0}, {"fusion_lon": 0.0, "bike_id": "e1edcc226f110e5a944f0fe53838b12a", "name": "e1edcc226f110e5a944f0fe53838b12a", "type": "electric_scooter", "lon": -77.03393616666666, "rental_uris": {"android": "https://dc.lft.to/lastmile_qr_scan", "ios": "https://dc.lft.to/lastmile_qr_scan"}, "lat": 38.9192435, "is_reserved": 0, "is_disabled": 0, "fusion_lat": 0.0}, {"fusion_lon": 0.0, "bike_id": "7093249f4fce35135de750b6636d139c", "name": "7093249f4fce35135de750b6636d139c", "type": "electric_scooter", "lon": -77.0209785, "rental_uris": {"android": "https://dc.lft.to/lastmile_qr_scan", "ios": "https://dc.lft.to/lastmile_qr_scan"}, "lat": 38.9345275, "is_reserved": 0, "is_disabled": 0, "fusion_lat": 0.0}, {"fusion_lon": 0.0, "bike_id": "1c67277a22a5627d829b444da4ef32e5", "name": "1c67277a22a5627d829b444da4ef32e5", "type": "electric_scooter", "lon": -77.00193683333333, "rental_uris": {"android": "https://dc.lft.to/lastmile_qr_scan", "ios": "https://dc.lft.to/lastmile_qr_scan"}, "lat": 38.91478583333333, "is_reserved": 0, "is_disabled": 0, "fusion_lat": 0.0}, {"fusion_lon": 0.0, "bike_id": "1f2a7aa1b55a7f3f1778003dd788df4e", "name": "1f2a7aa1b55a7f3f1778003dd788df4e", "type": "electric_scooter", "lon": -77.05703033333333, "rental_uris": {"android": "https://dc.lft.to/lastmile_qr_scan", "ios": "https://dc.lft.to/lastmile_qr_scan"}, "lat": 38.910660666666665, "is_reserved": 0, "is_disabled": 0, "fusion_lat": 0.0}, {"fusion_lon": 0.0, "bike_id": "9b4a6cc9514f273387ac72afb82cf6bb", "name": "9b4a6cc9514f273387ac72afb82cf6bb", "type": "electric_scooter", "lon": -77.02789483333333, "rental_uris": {"android": "https://dc.lft.to/lastmile_qr_scan", "ios": "https://dc.lft.to/lastmile_qr_scan"}, "lat": 38.8985225, "is_reserved": 0, "is_disabled": 0, "fusion_lat": 0.0}, {"fusion_lon": 0.0, "bike_id": "8a110e7316a165d4dbf085a9f7381845", "name": "8a110e7316a165d4dbf085a9f7381845", "type": "electric_scooter", "lon": -76.99604916666667, "rental_uris": {"android": "https://dc.lft.to/lastmile_qr_scan", "ios": "https://dc.lft.to/lastmile_qr_scan"}, "lat": 38.88036, "is_reserved": 0, "is_disabled": 0, "fusion_lat": 0.0}, {"fusion_lon": 0.0, "bike_id": "d16577b2785c2a731ad7cde128728ea7", "name": "d16577b2785c2a731ad7cde128728ea7", "type": "electric_scooter", "lon": -77.03855533333333, "rental_uris": {"android": "https://dc.lft.to/lastmile_qr_scan", "ios": "https://dc.lft.to/lastmile_qr_scan"}, "lat": 38.9183885, "is_reserved": 0, "is_disabled": 0, "fusion_lat": 0.0}, {"fusion_lon": 0.0, "bike_id": "4f82900e63391640183f50e41feeeb89", "name": "4f82900e63391640183f50e41feeeb89", "type": "electric_scooter", "lon": -77.00041116666667, "rental_uris": {"android": "https://dc.lft.to/lastmile_qr_scan", "ios": "https://dc.lft.to/lastmile_qr_scan"}, "lat": 38.918999, "is_reserved": 0, "is_disabled": 0, "fusion_lat": 0.0}, {"fusion_lon": 0.0, "bike_id": "47d397ff069673fa5110ae39fce9adab", "name": "47d397ff069673fa5110ae39fce9adab", "type": "electric_bike", "lon": -76.9159525, "rental_uris": {"android": "https://dc.lft.to/lastmile_qr_scan", "ios": "https://dc.lft.to/lastmile_qr_scan"}, "lat": 38.88012633333334, "is_reserved": 0, "is_disabled": 0, "fusion_lat": 0.0}, {"fusion_lon": 0.0, "bike_id": "55a2372ff2aa9e063c5cf142442a1137", "name": "55a2372ff2aa9e063c5cf142442a1137", "type": "electric_scooter", "lon": -76.98337866666667, "rental_uris": {"android": "https://dc.lft.to/lastmile_qr_scan", "ios": "https://dc.lft.to/lastmile_qr_scan"}, "lat": 38.912716333333336, "is_reserved": 0, "is_disabled": 0, "fusion_lat": 0.0}, {"fusion_lon": 0.0, "bike_id": "7c51657a46a041da2ba7e1597e8e831f", "name": "7c51657a46a041da2ba7e1597e8e831f", "type": "electric_scooter", "lon": -77.062345, "rental_uris": {"android": "https://dc.lft.to/lastmile_qr_scan", "ios": "https://dc.lft.to/lastmile_qr_scan"}, "lat": 38.90526783333333, "is_reserved": 0, "is_disabled": 0, "fusion_lat": 0.0}, {"fusion_lon": 0.0, "bike_id": "81a8f335d01a109e4275880b60db3fd1", "name": "81a8f335d01a109e4275880b60db3fd1", "type": "electric_scooter", "lon": -77.05097816666667, "rental_uris": {"android": "https://dc.lft.to/lastmile_qr_scan", "ios": "https://dc.lft.to/lastmile_qr_scan"}, "lat": 38.9234385, "is_reserved": 0, "is_disabled": 0, "fusion_lat": 0.0}, {"fusion_lon": 0.0, "bike_id": "c2103e48bb9ef7823f03ef206fcc0610", "name": "c2103e48bb9ef7823f03ef206fcc0610", "type": "electric_scooter", "lon": -76.98200816666667, "rental_uris": {"android": "https://dc.lft.to/lastmile_qr_scan", "ios": "https://dc.lft.to/lastmile_qr_scan"}, "lat": 38.9019815, "is_reserved": 0, "is_disabled": 0, "fusion_lat": 0.0}, {"fusion_lon": 0.0, "bike_id": "83a37a1fe354a6e2c2bca2ad803ea6d6", "name": "83a37a1fe354a6e2c2bca2ad803ea6d6", "type": "electric_scooter", "lon": -77.02716883333333, "rental_uris": {"android": "https://dc.lft.to/lastmile_qr_scan", "ios": "https://dc.lft.to/lastmile_qr_scan"}, "lat": 38.90748083333333, "is_reserved": 0, "is_disabled": 0, "fusion_lat": 0.0}, {"fusion_lon": 0.0, "bike_id": "b8571da6e0be2d31f66a5b1a4c9c921a", "name": "b8571da6e0be2d31f66a5b1a4c9c921a", "type": "electric_scooter", "lon": -76.9840575, "rental_uris": {"android": "https://dc.lft.to/lastmile_qr_scan", "ios": "https://dc.lft.to/lastmile_qr_scan"}, "lat": 38.85969166666667, "is_reserved": 0, "is_disabled": 0, "fusion_lat": 0.0}, {"fusion_lon": 0.0, "bike_id": "6bf146dde5779deb0b959cb4fa19ae98", "name": "6bf146dde5779deb0b959cb4fa19ae98", "type": "electric_bike", "lon": -76.9081505, "rental_uris": {"android": "https://dc.lft.to/lastmile_qr_scan", "ios": "https://dc.lft.to/lastmile_qr_scan"}, "lat": 38.994532666666665, "is_reserved": 0, "is_disabled": 0, "fusion_lat": 0.0}, {"fusion_lon": 0.0, "bike_id": "6a28515e16e8c243493a525c0d0f826a", "name": "6a28515e16e8c243493a525c0d0f826a", "type": "electric_scooter", "lon": -77.03319566666667, "rental_uris": {"android": "https://dc.lft.to/lastmile_qr_scan", "ios": "https://dc.lft.to/lastmile_qr_scan"}, "lat": 38.960193833333335, "is_reserved": 0, "is_disabled": 0, "fusion_lat": 0.0}, {"fusion_lon": 0.0, "bike_id": "7b450d3a19ba80646f3b6f71e30b6744", "name": "7b450d3a19ba80646f3b6f71e30b6744", "type": "electric_scooter", "lon": -77.00336266666666, "rental_uris": {"android": "https://dc.lft.to/lastmile_qr_scan", "ios": "https://dc.lft.to/lastmile_qr_scan"}, "lat": 38.883196, "is_reserved": 0, "is_disabled": 0, "fusion_lat": 0.0}, {"fusion_lon": 0.0, "bike_id": "c105cc4cfd5604588e5b34bf254f72c0", "name": "c105cc4cfd5604588e5b34bf254f72c0", "type": "electric_bike", "lon": -76.97895016666666, "rental_uris": {"android": "https://dc.lft.to/lastmile_qr_scan", "ios": "https://dc.lft.to/lastmile_qr_scan"}, "lat": 38.85492466666667, "is_reserved": 0, "is_disabled": 0, "fusion_lat": 0.0}, {"fusion_lon": 0.0, "bike_id": "73a2b547b85f13d38828800b310fa739", "name": "73a2b547b85f13d38828800b310fa739", "type": "electric_scooter", "lon": -77.0084155, "rental_uris": {"android": "https://dc.lft.to/lastmile_qr_scan", "ios": "https://dc.lft.to/lastmile_qr_scan"}, "lat": 38.87656666666667, "is_reserved": 0, "is_disabled": 0, "fusion_lat": 0.0}, {"fusion_lon": 0.0, "bike_id": "1552f6b790fc7c255e1bf485252be073", "name": "1552f6b790fc7c255e1bf485252be073", "type": "electric_scooter", "lon": -77.022988, "rental_uris": {"android": "https://dc.lft.to/lastmile_qr_scan", "ios": "https://dc.lft.to/lastmile_qr_scan"}, "lat": 38.9176275, "is_reserved": 0, "is_disabled": 0, "fusion_lat": 0.0}, {"fusion_lon": 0.0, "bike_id": "1a87e1c04e1f1c3e4617712c9aceb219", "name": "1a87e1c04e1f1c3e4617712c9aceb219", "type": "electric_scooter", "lon": -77.1031295, "rental_uris": {"android": "https://dc.lft.to/lastmile_qr_scan", "ios": "https://dc.lft.to/lastmile_qr_scan"}, "lat": 38.92671883333333, "is_reserved": 0, "is_disabled": 0, "fusion_lat": 0.0}, {"fusion_lon": 0.0, "bike_id": "ae5274e30e698247902da3cffa104b42", "name": "ae5274e30e698247902da3cffa104b42", "type": "electric_scooter", "lon": -76.955399, "rental_uris": {"android": "https://dc.lft.to/lastmile_qr_scan", "ios": "https://dc.lft.to/lastmile_qr_scan"}, "lat": 38.887668, "is_reserved": 0, "is_disabled": 0, "fusion_lat": 0.0}, {"fusion_lon": 0.0, "bike_id": "68dd8eb54552825d726589148400befd", "name": "68dd8eb54552825d726589148400befd", "type": "electric_scooter", "lon": -77.03438416666667, "rental_uris": {"android": "https://dc.lft.to/lastmile_qr_scan", "ios": "https://dc.lft.to/lastmile_qr_scan"}, "lat": 38.91034483333333, "is_reserved": 0, "is_disabled": 0, "fusion_lat": 0.0}, {"fusion_lon": 0.0, "bike_id": "8d614ac2776fcfef6acd55e3c7996826", "name": "8d614ac2776fcfef6acd55e3c7996826", "type": "electric_scooter", "lon": -77.0248885, "rental_uris": {"android": "https://dc.lft.to/lastmile_qr_scan", "ios": "https://dc.lft.to/lastmile_qr_scan"}, "lat": 38.941849, "is_reserved": 0, "is_disabled": 0, "fusion_lat": 0.0}, {"fusion_lon": 0.0, "bike_id": "c33103aa889125a56a7f477c2c4706a8", "name": "c33103aa889125a56a7f477c2c4706a8", "type": "electric_scooter", "lon": -77.04315966666667, "rental_uris": {"android": "https://dc.lft.to/lastmile_qr_scan", "ios": "https://dc.lft.to/lastmile_qr_scan"}, "lat": 38.918771666666665, "is_reserved": 0, "is_disabled": 0, "fusion_lat": 0.0}, {"fusion_lon": 0.0, "bike_id": "219c22cf9ff6caf0247a6857ad1b5334", "name": "219c22cf9ff6caf0247a6857ad1b5334", "type": "electric_scooter", "lon": -77.02488566666666, "rental_uris": {"android": "https://dc.lft.to/lastmile_qr_scan", "ios": "https://dc.lft.to/lastmile_qr_scan"}, "lat": 38.917512, "is_reserved": 0, "is_disabled": 0, "fusion_lat": 0.0}, {"fusion_lon": 0.0, "bike_id": "dc2619dd8de2fb5031f8e5ff353df285", "name": "dc2619dd8de2fb5031f8e5ff353df285", "type": "electric_scooter", "lon": -77.05796316666667, "rental_uris": {"android": "https://dc.lft.to/lastmile_qr_scan", "ios": "https://dc.lft.to/lastmile_qr_scan"}, "lat": 38.93481033333333, "is_reserved": 0, "is_disabled": 0, "fusion_lat": 0.0}, {"fusion_lon": 0.0, "bike_id": "dd873e56a50a17711bc7e3d0740e4ded", "name": "dd873e56a50a17711bc7e3d0740e4ded", "type": "electric_scooter", "lon": -76.9980855, "rental_uris": {"android": "https://dc.lft.to/lastmile_qr_scan", "ios": "https://dc.lft.to/lastmile_qr_scan"}, "lat": 38.876666666666665, "is_reserved": 0, "is_disabled": 0, "fusion_lat": 0.0}, {"fusion_lon": 0.0, "bike_id": "a544c5b6d8635ddc45d58828c93bae3f", "name": "a544c5b6d8635ddc45d58828c93bae3f", "type": "electric_scooter", "lon": -76.94641066666667, "rental_uris": {"android": "https://dc.lft.to/lastmile_qr_scan", "ios": "https://dc.lft.to/lastmile_qr_scan"}, "lat": 38.898456833333334, "is_reserved": 0, "is_disabled": 0, "fusion_lat": 0.0}, {"fusion_lon": 0.0, "bike_id": "fd650a80d12a922c22400d7ef2a7d521", "name": "fd650a80d12a922c22400d7ef2a7d521", "type": "electric_scooter", "lon": -77.00295083333333, "rental_uris": {"android": "https://dc.lft.to/lastmile_qr_scan", "ios": "https://dc.lft.to/lastmile_qr_scan"}, "lat": 38.9089735, "is_reserved": 0, "is_disabled": 0, "fusion_lat": 0.0}, {"fusion_lon": 0.0, "bike_id": "f1f13a8194f3507a2e70a71f6e7e32c3", "name": "f1f13a8194f3507a2e70a71f6e7e32c3", "type": "electric_scooter", "lon": -76.99445016666667, "rental_uris": {"android": "https://dc.lft.to/lastmile_qr_scan", "ios": "https://dc.lft.to/lastmile_qr_scan"}, "lat": 38.9050975, "is_reserved": 0, "is_disabled": 0, "fusion_lat": 0.0}, {"fusion_lon": 0.0, "bike_id": "ff3a52b05552ab2b45e52dfd08d343be", "name": "ff3a52b05552ab2b45e52dfd08d343be", "type": "electric_scooter", "lon": -76.955197, "rental_uris": {"android": "https://dc.lft.to/lastmile_qr_scan", "ios": "https://dc.lft.to/lastmile_qr_scan"}, "lat": 38.8905525, "is_reserved": 0, "is_disabled": 0, "fusion_lat": 0.0}, {"fusion_lon": 0.0, "bike_id": "2ab63de9bec2e9ddba359dd42f4a25c1", "name": "2ab63de9bec2e9ddba359dd42f4a25c1", "type": "electric_scooter", "lon": -77.04486683333333, "rental_uris": {"android": "https://dc.lft.to/lastmile_qr_scan", "ios": "https://dc.lft.to/lastmile_qr_scan"}, "lat": 38.90661383333333, "is_reserved": 0, "is_disabled": 0, "fusion_lat": 0.0}, {"fusion_lon": 0.0, "bike_id": "f480460c180413977702b28f5104abd0", "name": "f480460c180413977702b28f5104abd0", "type": "electric_scooter", "lon": -77.03292566666667, "rental_uris": {"android": "https://dc.lft.to/lastmile_qr_scan", "ios": "https://dc.lft.to/lastmile_qr_scan"}, "lat": 38.91116983333333, "is_reserved": 0, "is_disabled": 0, "fusion_lat": 0.0}, {"fusion_lon": 0.0, "bike_id": "a53d0fac319e11ffaffcbca6ea1548f6", "name": "a53d0fac319e11ffaffcbca6ea1548f6", "type": "electric_scooter", "lon": -77.0416545, "rental_uris": {"android": "https://dc.lft.to/lastmile_qr_scan", "ios": "https://dc.lft.to/lastmile_qr_scan"}, "lat": 38.913372333333335, "is_reserved": 0, "is_disabled": 0, "fusion_lat": 0.0}, {"fusion_lon": 0.0, "bike_id": "2b19ecd212489a67eafe313a831c0921", "name": "2b19ecd212489a67eafe313a831c0921", "type": "electric_scooter", "lon": -76.9447025, "rental_uris": {"android": "https://dc.lft.to/lastmile_qr_scan", "ios": "https://dc.lft.to/lastmile_qr_scan"}, "lat": 38.90283383333333, "is_reserved": 0, "is_disabled": 0, "fusion_lat": 0.0}, {"fusion_lon": 0.0, "bike_id": "752f77bd42c903b2c2cc910a0072fa1c", "name": "752f77bd42c903b2c2cc910a0072fa1c", "type": "electric_scooter", "lon": -76.9941525, "rental_uris": {"android": "https://dc.lft.to/lastmile_qr_scan", "ios": "https://dc.lft.to/lastmile_qr_scan"}, "lat": 38.93308016666667, "is_reserved": 0, "is_disabled": 0, "fusion_lat": 0.0}, {"fusion_lon": 0.0, "bike_id": "e6984d71f16574311dc8ba6de0148b21", "name": "e6984d71f16574311dc8ba6de0148b21", "type": "electric_scooter", "lon": -77.04140983333333, "rental_uris": {"android": "https://dc.lft.to/lastmile_qr_scan", "ios": "https://dc.lft.to/lastmile_qr_scan"}, "lat": 38.916835666666664, "is_reserved": 0, "is_disabled": 0, "fusion_lat": 0.0}, {"fusion_lon": 0.0, "bike_id": "89b4cb3259d1346c95b53f8ef4b0cd07", "name": "89b4cb3259d1346c95b53f8ef4b0cd07", "type": "electric_scooter", "lon": -77.02605733333333, "rental_uris": {"android": "https://dc.lft.to/lastmile_qr_scan", "ios": "https://dc.lft.to/lastmile_qr_scan"}, "lat": 38.9142715, "is_reserved": 0, "is_disabled": 0, "fusion_lat": 0.0}, {"fusion_lon": 0.0, "bike_id": "bfee29facb5fb7b7c384908fbff2894f", "name": "bfee29facb5fb7b7c384908fbff2894f", "type": "electric_scooter", "lon": -77.02158566666667, "rental_uris": {"android": "https://dc.lft.to/lastmile_qr_scan", "ios": "https://dc.lft.to/lastmile_qr_scan"}, "lat": 38.899892666666666, "is_reserved": 0, "is_disabled": 0, "fusion_lat": 0.0}, {"fusion_lon": 0.0, "bike_id": "d038ad3bae450431b3349c211d5ce98a", "name": "d038ad3bae450431b3349c211d5ce98a", "type": "electric_bike", "lon": -76.929168, "rental_uris": {"android": "https://dc.lft.to/lastmile_qr_scan", "ios": "https://dc.lft.to/lastmile_qr_scan"}, "lat": 38.98028266666667, "is_reserved": 0, "is_disabled": 0, "fusion_lat": 0.0}, {"fusion_lon": 0.0, "bike_id": "6e5fd72186140213e90ec98816fa6720", "name": "6e5fd72186140213e90ec98816fa6720", "type": "electric_scooter", "lon": -77.05084116666667, "rental_uris": {"android": "https://dc.lft.to/lastmile_qr_scan", "ios": "https://dc.lft.to/lastmile_qr_scan"}, "lat": 38.90050933333333, "is_reserved": 0, "is_disabled": 0, "fusion_lat": 0.0}, {"fusion_lon": 0.0, "bike_id": "3fbb0f566c32cd5be41754ee6dbffb1b", "name": "3fbb0f566c32cd5be41754ee6dbffb1b", "type": "electric_scooter", "lon": -77.072443, "rental_uris": {"android": "https://dc.lft.to/lastmile_qr_scan", "ios": "https://dc.lft.to/lastmile_qr_scan"}, "lat": 38.922626, "is_reserved": 0, "is_disabled": 0, "fusion_lat": 0.0}, {"fusion_lon": 0.0, "bike_id": "816de45de69b4021a0632d1e6e8384e4", "name": "816de45de69b4021a0632d1e6e8384e4", "type": "electric_scooter", "lon": -77.0327745, "rental_uris": {"android": "https://dc.lft.to/lastmile_qr_scan", "ios": "https://dc.lft.to/lastmile_qr_scan"}, "lat": 38.933337333333334, "is_reserved": 0, "is_disabled": 0, "fusion_lat": 0.0}, {"fusion_lon": 0.0, "bike_id": "e7bd90fceaa9f75e9d071612781155dd", "name": "e7bd90fceaa9f75e9d071612781155dd", "type": "electric_scooter", "lon": -76.99616683333333, "rental_uris": {"android": "https://dc.lft.to/lastmile_qr_scan", "ios": "https://dc.lft.to/lastmile_qr_scan"}, "lat": 38.886141, "is_reserved": 0, "is_disabled": 0, "fusion_lat": 0.0}, {"fusion_lon": 0.0, "bike_id": "e56a2fda9168cd56b6b8118e154000aa", "name": "e56a2fda9168cd56b6b8118e154000aa", "type": "electric_scooter", "lon": -77.00941666666667, "rental_uris": {"android": "https://dc.lft.to/lastmile_qr_scan", "ios": "https://dc.lft.to/lastmile_qr_scan"}, "lat": 38.87662566666667, "is_reserved": 0, "is_disabled": 0, "fusion_lat": 0.0}, {"fusion_lon": 0.0, "bike_id": "430b770d7d44f3777a7c130d55c861d9", "name": "430b770d7d44f3777a7c130d55c861d9", "type": "electric_scooter", "lon": -76.95019983333333, "rental_uris": {"android": "https://dc.lft.to/lastmile_qr_scan", "ios": "https://dc.lft.to/lastmile_qr_scan"}, "lat": 38.88396933333333, "is_reserved": 0, "is_disabled": 0, "fusion_lat": 0.0}, {"fusion_lon": 0.0, "bike_id": "31a7b6b75186096002d6dc730252c930", "name": "31a7b6b75186096002d6dc730252c930", "type": "electric_scooter", "lon": -77.0640555, "rental_uris": {"android": "https://dc.lft.to/lastmile_qr_scan", "ios": "https://dc.lft.to/lastmile_qr_scan"}, "lat": 38.943268333333336, "is_reserved": 0, "is_disabled": 0, "fusion_lat": 0.0}, {"fusion_lon": 0.0, "bike_id": "7650f3a504ab129f19b0b1a88a995938", "name": "7650f3a504ab129f19b0b1a88a995938", "type": "electric_bike", "lon": -76.95192016666667, "rental_uris": {"android": "https://dc.lft.to/lastmile_qr_scan", "ios": "https://dc.lft.to/lastmile_qr_scan"}, "lat": 38.90685766666667, "is_reserved": 0, "is_disabled": 0, "fusion_lat": 0.0}, {"fusion_lon": 0.0, "bike_id": "582ef79e45fcccceb6b92c36dbc94843", "name": "582ef79e45fcccceb6b92c36dbc94843", "type": "electric_bike", "lon": -76.98121366666666, "rental_uris": {"android": "https://dc.lft.to/lastmile_qr_scan", "ios": "https://dc.lft.to/lastmile_qr_scan"}, "lat": 38.896743, "is_reserved": 0, "is_disabled": 0, "fusion_lat": 0.0}, {"fusion_lon": 0.0, "bike_id": "a71e0d5122b712a4e66ac97f8249313b", "name": "a71e0d5122b712a4e66ac97f8249313b", "type": "electric_scooter", "lon": -76.988445, "rental_uris": {"android": "https://dc.lft.to/lastmile_qr_scan", "ios": "https://dc.lft.to/lastmile_qr_scan"}, "lat": 38.900264666666665, "is_reserved": 0, "is_disabled": 0, "fusion_lat": 0.0}, {"fusion_lon": 0.0, "bike_id": "a28d7ed2f219c106c4b31f0e0b2f7e95", "name": "a28d7ed2f219c106c4b31f0e0b2f7e95", "type": "electric_bike", "lon": -77.10178516666667, "rental_uris": {"android": "https://dc.lft.to/lastmile_qr_scan", "ios": "https://dc.lft.to/lastmile_qr_scan"}, "lat": 38.9180575, "is_reserved": 0, "is_disabled": 0, "fusion_lat": 0.0}, {"fusion_lon": 0.0, "bike_id": "787318546d1ef191165fdfbffa1af0e3", "name": "787318546d1ef191165fdfbffa1af0e3", "type": "electric_scooter", "lon": -77.02591733333334, "rental_uris": {"android": "https://dc.lft.to/lastmile_qr_scan", "ios": "https://dc.lft.to/lastmile_qr_scan"}, "lat": 38.9127725, "is_reserved": 0, "is_disabled": 0, "fusion_lat": 0.0}, {"fusion_lon": 0.0, "bike_id": "4f34e71cf26ed7ce9d42804fdd38834d", "name": "4f34e71cf26ed7ce9d42804fdd38834d", "type": "electric_scooter", "lon": -76.98377266666667, "rental_uris": {"android": "https://dc.lft.to/lastmile_qr_scan", "ios": "https://dc.lft.to/lastmile_qr_scan"}, "lat": 38.90646983333333, "is_reserved": 0, "is_disabled": 0, "fusion_lat": 0.0}, {"fusion_lon": 0.0, "bike_id": "f12103ad0938478ec0fa0043a778d3c0", "name": "f12103ad0938478ec0fa0043a778d3c0", "type": "electric_bike", "lon": -77.11226916666666, "rental_uris": {"android": "https://dc.lft.to/lastmile_qr_scan", "ios": "https://dc.lft.to/lastmile_qr_scan"}, "lat": 38.81229916666667, "is_reserved": 0, "is_disabled": 0, "fusion_lat": 0.0}, {"fusion_lon": 0.0, "bike_id": "b1c9ace3dbab96e2fafed515a5fdce51", "name": "b1c9ace3dbab96e2fafed515a5fdce51", "type": "electric_scooter", "lon": -77.02161266666667, "rental_uris": {"android": "https://dc.lft.to/lastmile_qr_scan", "ios": "https://dc.lft.to/lastmile_qr_scan"}, "lat": 38.92606833333333, "is_reserved": 0, "is_disabled": 0, "fusion_lat": 0.0}, {"fusion_lon": 0.0, "bike_id": "6f73ad0944b6cfcfd9cb3aed0f58f00c", "name": "6f73ad0944b6cfcfd9cb3aed0f58f00c", "type": "electric_scooter", "lon": -77.02708783333334, "rental_uris": {"android": "https://dc.lft.to/lastmile_qr_scan", "ios": "https://dc.lft.to/lastmile_qr_scan"}, "lat": 38.918027333333335, "is_reserved": 0, "is_disabled": 0, "fusion_lat": 0.0}, {"fusion_lon": 0.0, "bike_id": "91da7c829dcaa8831abfe2b220d8e65b", "name": "91da7c829dcaa8831abfe2b220d8e65b", "type": "electric_scooter", "lon": -77.02297433333334, "rental_uris": {"android": "https://dc.lft.to/lastmile_qr_scan", "ios": "https://dc.lft.to/lastmile_qr_scan"}, "lat": 38.916131666666665, "is_reserved": 0, "is_disabled": 0, "fusion_lat": 0.0}, {"fusion_lon": 0.0, "bike_id": "0a89630cfd10a0e70f37118f3757ab8b", "name": "0a89630cfd10a0e70f37118f3757ab8b", "type": "electric_scooter", "lon": -77.04242983333333, "rental_uris": {"android": "https://dc.lft.to/lastmile_qr_scan", "ios": "https://dc.lft.to/lastmile_qr_scan"}, "lat": 38.9455155, "is_reserved": 0, "is_disabled": 0, "fusion_lat": 0.0}, {"fusion_lon": 0.0, "bike_id": "feef00d934343c1d3e7d45b23a5a8ce0", "name": "feef00d934343c1d3e7d45b23a5a8ce0", "type": "electric_scooter", "lon": -76.94633766666666, "rental_uris": {"android": "https://dc.lft.to/lastmile_qr_scan", "ios": "https://dc.lft.to/lastmile_qr_scan"}, "lat": 38.898341333333335, "is_reserved": 0, "is_disabled": 0, "fusion_lat": 0.0}, {"fusion_lon": 0.0, "bike_id": "49defa648e7fee666629f48901da21b6", "name": "49defa648e7fee666629f48901da21b6", "type": "electric_scooter", "lon": -77.060432, "rental_uris": {"android": "https://dc.lft.to/lastmile_qr_scan", "ios": "https://dc.lft.to/lastmile_qr_scan"}, "lat": 38.939119833333336, "is_reserved": 0, "is_disabled": 0, "fusion_lat": 0.0}, {"fusion_lon": 0.0, "bike_id": "bda0e91129ab30acefc1ac833e3072ab", "name": "bda0e91129ab30acefc1ac833e3072ab", "type": "electric_scooter", "lon": -77.0638895, "rental_uris": {"android": "https://dc.lft.to/lastmile_qr_scan", "ios": "https://dc.lft.to/lastmile_qr_scan"}, "lat": 38.9290455, "is_reserved": 0, "is_disabled": 0, "fusion_lat": 0.0}, {"fusion_lon": 0.0, "bike_id": "04374e3662770b156650d201676e936e", "name": "04374e3662770b156650d201676e936e", "type": "electric_scooter", "lon": -77.03477833333334, "rental_uris": {"android": "https://dc.lft.to/lastmile_qr_scan", "ios": "https://dc.lft.to/lastmile_qr_scan"}, "lat": 38.9286965, "is_reserved": 0, "is_disabled": 0, "fusion_lat": 0.0}, {"fusion_lon": 0.0, "bike_id": "136a227cc0b071b3b15d6b43d9b248c2", "name": "136a227cc0b071b3b15d6b43d9b248c2", "type": "electric_scooter", "lon": -77.03261766666667, "rental_uris": {"android": "https://dc.lft.to/lastmile_qr_scan", "ios": "https://dc.lft.to/lastmile_qr_scan"}, "lat": 38.937537666666664, "is_reserved": 0, "is_disabled": 0, "fusion_lat": 0.0}, {"fusion_lon": 0.0, "bike_id": "2cddddd5dca8c1a51104052e734a5c48", "name": "2cddddd5dca8c1a51104052e734a5c48", "type": "electric_scooter", "lon": -76.99859233333333, "rental_uris": {"android": "https://dc.lft.to/lastmile_qr_scan", "ios": "https://dc.lft.to/lastmile_qr_scan"}, "lat": 38.90882633333333, "is_reserved": 0, "is_disabled": 0, "fusion_lat": 0.0}, {"fusion_lon": 0.0, "bike_id": "dfe28b109465aeb39ec978aca7419d7f", "name": "dfe28b109465aeb39ec978aca7419d7f", "type": "electric_scooter", "lon": -77.02432383333333, "rental_uris": {"android": "https://dc.lft.to/lastmile_qr_scan", "ios": "https://dc.lft.to/lastmile_qr_scan"}, "lat": 38.9265115, "is_reserved": 0, "is_disabled": 0, "fusion_lat": 0.0}, {"fusion_lon": 0.0, "bike_id": "7c25ef7f3acecf4ed21b92c9fcd6306c", "name": "7c25ef7f3acecf4ed21b92c9fcd6306c", "type": "electric_scooter", "lon": -77.0072445, "rental_uris": {"android": "https://dc.lft.to/lastmile_qr_scan", "ios": "https://dc.lft.to/lastmile_qr_scan"}, "lat": 38.89662233333333, "is_reserved": 0, "is_disabled": 0, "fusion_lat": 0.0}, {"fusion_lon": 0.0, "bike_id": "b64df87d54bad043b334591cd54aa764", "name": "b64df87d54bad043b334591cd54aa764", "type": "electric_scooter", "lon": -77.02757233333334, "rental_uris": {"android": "https://dc.lft.to/lastmile_qr_scan", "ios": "https://dc.lft.to/lastmile_qr_scan"}, "lat": 38.95412966666667, "is_reserved": 0, "is_disabled": 0, "fusion_lat": 0.0}, {"fusion_lon": 0.0, "bike_id": "c9ee43d5d0167a5978fc980c6554ea0e", "name": "c9ee43d5d0167a5978fc980c6554ea0e", "type": "electric_scooter", "lon": -77.04508066666666, "rental_uris": {"android": "https://dc.lft.to/lastmile_qr_scan", "ios": "https://dc.lft.to/lastmile_qr_scan"}, "lat": 38.912818333333334, "is_reserved": 0, "is_disabled": 0, "fusion_lat": 0.0}, {"fusion_lon": 0.0, "bike_id": "c57e443517a51556f0ba751742a6315d", "name": "c57e443517a51556f0ba751742a6315d", "type": "electric_scooter", "lon": -77.04515, "rental_uris": {"android": "https://dc.lft.to/lastmile_qr_scan", "ios": "https://dc.lft.to/lastmile_qr_scan"}, "lat": 38.90779916666666, "is_reserved": 0, "is_disabled": 0, "fusion_lat": 0.0}, {"fusion_lon": 0.0, "bike_id": "977dd163136062427c230b437fab648d", "name": "977dd163136062427c230b437fab648d", "type": "electric_scooter", "lon": -76.99012033333334, "rental_uris": {"android": "https://dc.lft.to/lastmile_qr_scan", "ios": "https://dc.lft.to/lastmile_qr_scan"}, "lat": 38.8610805, "is_reserved": 0, "is_disabled": 0, "fusion_lat": 0.0}, {"fusion_lon": 0.0, "bike_id": "0660c8553fbca0d60410596a40da09a3", "name": "0660c8553fbca0d60410596a40da09a3", "type": "electric_scooter", "lon": -76.99387783333333, "rental_uris": {"android": "https://dc.lft.to/lastmile_qr_scan", "ios": "https://dc.lft.to/lastmile_qr_scan"}, "lat": 38.88453333333333, "is_reserved": 0, "is_disabled": 0, "fusion_lat": 0.0}, {"fusion_lon": 0.0, "bike_id": "053863bcaf16cafa463f48f449136784", "name": "053863bcaf16cafa463f48f449136784", "type": "electric_scooter", "lon": -77.07098116666667, "rental_uris": {"android": "https://dc.lft.to/lastmile_qr_scan", "ios": "https://dc.lft.to/lastmile_qr_scan"}, "lat": 38.919840666666666, "is_reserved": 0, "is_disabled": 0, "fusion_lat": 0.0}, {"fusion_lon": 0.0, "bike_id": "552073d400b6e68feade7d6ae1b03b8d", "name": "552073d400b6e68feade7d6ae1b03b8d", "type": "electric_scooter", "lon": -77.03848083333334, "rental_uris": {"android": "https://dc.lft.to/lastmile_qr_scan", "ios": "https://dc.lft.to/lastmile_qr_scan"}, "lat": 38.92166733333333, "is_reserved": 0, "is_disabled": 0, "fusion_lat": 0.0}, {"fusion_lon": 0.0, "bike_id": "85892aabe25dff03d54e8f7c8f0614fa", "name": "85892aabe25dff03d54e8f7c8f0614fa", "type": "electric_bike", "lon": -77.024882, "rental_uris": {"android": "https://dc.lft.to/lastmile_qr_scan", "ios": "https://dc.lft.to/lastmile_qr_scan"}, "lat": 38.973679833333335, "is_reserved": 0, "is_disabled": 0, "fusion_lat": 0.0}, {"fusion_lon": 0.0, "bike_id": "24c1edb3394f98d4effc17f3340ff18c", "name": "24c1edb3394f98d4effc17f3340ff18c", "type": "electric_scooter", "lon": -76.96575483333334, "rental_uris": {"android": "https://dc.lft.to/lastmile_qr_scan", "ios": "https://dc.lft.to/lastmile_qr_scan"}, "lat": 38.87137933333333, "is_reserved": 0, "is_disabled": 0, "fusion_lat": 0.0}, {"fusion_lon": 0.0, "bike_id": "f79f4bbfaba933997d3fc1db62b39684", "name": "f79f4bbfaba933997d3fc1db62b39684", "type": "electric_scooter", "lon": -76.996301, "rental_uris": {"android": "https://dc.lft.to/lastmile_qr_scan", "ios": "https://dc.lft.to/lastmile_qr_scan"}, "lat": 38.84618666666667, "is_reserved": 0, "is_disabled": 0, "fusion_lat": 0.0}, {"fusion_lon": 0.0, "bike_id": "2855a068c2e1afd2db2898aa348d3d50", "name": "2855a068c2e1afd2db2898aa348d3d50", "type": "electric_scooter", "lon": -77.02396383333334, "rental_uris": {"android": "https://dc.lft.to/lastmile_qr_scan", "ios": "https://dc.lft.to/lastmile_qr_scan"}, "lat": 38.9196385, "is_reserved": 0, "is_disabled": 0, "fusion_lat": 0.0}, {"fusion_lon": 0.0, "bike_id": "bd0c5f4b7db52d789622c321089a149b", "name": "bd0c5f4b7db52d789622c321089a149b", "type": "electric_scooter", "lon": -77.01146466666667, "rental_uris": {"android": "https://dc.lft.to/lastmile_qr_scan", "ios": "https://dc.lft.to/lastmile_qr_scan"}, "lat": 38.89597583333333, "is_reserved": 0, "is_disabled": 0, "fusion_lat": 0.0}, {"fusion_lon": 0.0, "bike_id": "51982e04885f9bd0fa1c0b26239c482c", "name": "51982e04885f9bd0fa1c0b26239c482c", "type": "electric_scooter", "lon": -76.95755116666666, "rental_uris": {"android": "https://dc.lft.to/lastmile_qr_scan", "ios": "https://dc.lft.to/lastmile_qr_scan"}, "lat": 38.88427633333333, "is_reserved": 0, "is_disabled": 0, "fusion_lat": 0.0}, {"fusion_lon": 0.0, "bike_id": "737bad7fa89beee04628c7d212d31f78", "name": "737bad7fa89beee04628c7d212d31f78", "type": "electric_scooter", "lon": -77.04218516666667, "rental_uris": {"android": "https://dc.lft.to/lastmile_qr_scan", "ios": "https://dc.lft.to/lastmile_qr_scan"}, "lat": 38.92062083333333, "is_reserved": 0, "is_disabled": 0, "fusion_lat": 0.0}, {"fusion_lon": 0.0, "bike_id": "9c62ef83bd46b4a1352ad0d199865363", "name": "9c62ef83bd46b4a1352ad0d199865363", "type": "electric_scooter", "lon": -77.02490566666667, "rental_uris": {"android": "https://dc.lft.to/lastmile_qr_scan", "ios": "https://dc.lft.to/lastmile_qr_scan"}, "lat": 38.94184883333333, "is_reserved": 0, "is_disabled": 0, "fusion_lat": 0.0}, {"fusion_lon": 0.0, "bike_id": "b02fc1660a72543692a6614c825530c5", "name": "b02fc1660a72543692a6614c825530c5", "type": "electric_scooter", "lon": -76.9905665, "rental_uris": {"android": "https://dc.lft.to/lastmile_qr_scan", "ios": "https://dc.lft.to/lastmile_qr_scan"}, "lat": 38.86362583333333, "is_reserved": 0, "is_disabled": 0, "fusion_lat": 0.0}, {"fusion_lon": 0.0, "bike_id": "547c382951d87f351d00185f2e64fe1a", "name": "547c382951d87f351d00185f2e64fe1a", "type": "electric_scooter", "lon": -77.0058615, "rental_uris": {"android": "https://dc.lft.to/lastmile_qr_scan", "ios": "https://dc.lft.to/lastmile_qr_scan"}, "lat": 38.905644833333334, "is_reserved": 0, "is_disabled": 0, "fusion_lat": 0.0}, {"fusion_lon": 0.0, "bike_id": "1452c80989c9308ac8385fb9773bec15", "name": "1452c80989c9308ac8385fb9773bec15", "type": "electric_scooter", "lon": -76.99603133333333, "rental_uris": {"android": "https://dc.lft.to/lastmile_qr_scan", "ios": "https://dc.lft.to/lastmile_qr_scan"}, "lat": 38.9261625, "is_reserved": 0, "is_disabled": 0, "fusion_lat": 0.0}, {"fusion_lon": 0.0, "bike_id": "ac43ce20576f8d4c8ccc2e15c0b1efca", "name": "ac43ce20576f8d4c8ccc2e15c0b1efca", "type": "electric_scooter", "lon": -77.02465083333334, "rental_uris": {"android": "https://dc.lft.to/lastmile_qr_scan", "ios": "https://dc.lft.to/lastmile_qr_scan"}, "lat": 38.9085125, "is_reserved": 0, "is_disabled": 0, "fusion_lat": 0.0}, {"fusion_lon": 0.0, "bike_id": "9d9b2861ab5cbee15ecfa288348e1d67", "name": "9d9b2861ab5cbee15ecfa288348e1d67", "type": "electric_scooter", "lon": -76.98560583333334, "rental_uris": {"android": "https://dc.lft.to/lastmile_qr_scan", "ios": "https://dc.lft.to/lastmile_qr_scan"}, "lat": 38.898891, "is_reserved": 0, "is_disabled": 0, "fusion_lat": 0.0}, {"fusion_lon": 0.0, "bike_id": "d08801710cdc6d7f56dc834dc5b26d6d", "name": "d08801710cdc6d7f56dc834dc5b26d6d", "type": "electric_scooter", "lon": -77.01054566666667, "rental_uris": {"android": "https://dc.lft.to/lastmile_qr_scan", "ios": "https://dc.lft.to/lastmile_qr_scan"}, "lat": 38.929907, "is_reserved": 0, "is_disabled": 0, "fusion_lat": 0.0}, {"fusion_lon": 0.0, "bike_id": "8a424198386031c09393ede791aa4763", "name": "8a424198386031c09393ede791aa4763", "type": "electric_scooter", "lon": -77.01099916666666, "rental_uris": {"android": "https://dc.lft.to/lastmile_qr_scan", "ios": "https://dc.lft.to/lastmile_qr_scan"}, "lat": 38.87144, "is_reserved": 0, "is_disabled": 0, "fusion_lat": 0.0}, {"fusion_lon": 0.0, "bike_id": "e495a3c0f6d4edff96bf9795055a1ae8", "name": "e495a3c0f6d4edff96bf9795055a1ae8", "type": "electric_scooter", "lon": -77.03644516666667, "rental_uris": {"android": "https://dc.lft.to/lastmile_qr_scan", "ios": "https://dc.lft.to/lastmile_qr_scan"}, "lat": 38.912689, "is_reserved": 0, "is_disabled": 0, "fusion_lat": 0.0}, {"fusion_lon": 0.0, "bike_id": "311a8fea594feb538256a2c421445aff", "name": "311a8fea594feb538256a2c421445aff", "type": "electric_scooter", "lon": -76.9807545, "rental_uris": {"android": "https://dc.lft.to/lastmile_qr_scan", "ios": "https://dc.lft.to/lastmile_qr_scan"}, "lat": 38.93648483333333, "is_reserved": 0, "is_disabled": 0, "fusion_lat": 0.0}, {"fusion_lon": 0.0, "bike_id": "9e4c09c4b0cb91031226a7687a6b4749", "name": "9e4c09c4b0cb91031226a7687a6b4749", "type": "electric_scooter", "lon": -77.04118433333333, "rental_uris": {"android": "https://dc.lft.to/lastmile_qr_scan", "ios": "https://dc.lft.to/lastmile_qr_scan"}, "lat": 38.91553183333333, "is_reserved": 0, "is_disabled": 0, "fusion_lat": 0.0}, {"fusion_lon": 0.0, "bike_id": "43c3f467bb568cac6db25d53b37966ca", "name": "43c3f467bb568cac6db25d53b37966ca", "type": "electric_scooter", "lon": -77.03903966666667, "rental_uris": {"android": "https://dc.lft.to/lastmile_qr_scan", "ios": "https://dc.lft.to/lastmile_qr_scan"}, "lat": 38.91415583333333, "is_reserved": 0, "is_disabled": 0, "fusion_lat": 0.0}, {"fusion_lon": 0.0, "bike_id": "25ee2a40a626ae5b5c9e1b91561ff9f9", "name": "25ee2a40a626ae5b5c9e1b91561ff9f9", "type": "electric_scooter", "lon": -77.01656116666666, "rental_uris": {"android": "https://dc.lft.to/lastmile_qr_scan", "ios": "https://dc.lft.to/lastmile_qr_scan"}, "lat": 38.887464666666666, "is_reserved": 0, "is_disabled": 0, "fusion_lat": 0.0}, {"fusion_lon": 0.0, "bike_id": "be53b15c6d869c9d154261ce33bb0b28", "name": "be53b15c6d869c9d154261ce33bb0b28", "type": "electric_bike", "lon": -77.00623433333334, "rental_uris": {"android": "https://dc.lft.to/lastmile_qr_scan", "ios": "https://dc.lft.to/lastmile_qr_scan"}, "lat": 38.98360816666667, "is_reserved": 0, "is_disabled": 0, "fusion_lat": 0.0}, {"fusion_lon": 0.0, "bike_id": "6136318141f0c8646edce8eca2a96bf3", "name": "6136318141f0c8646edce8eca2a96bf3", "type": "electric_scooter", "lon": -77.015933, "rental_uris": {"android": "https://dc.lft.to/lastmile_qr_scan", "ios": "https://dc.lft.to/lastmile_qr_scan"}, "lat": 38.876367333333334, "is_reserved": 0, "is_disabled": 0, "fusion_lat": 0.0}, {"fusion_lon": 0.0, "bike_id": "516717c04232889fe9034dbff3b27b3a", "name": "516717c04232889fe9034dbff3b27b3a", "type": "electric_scooter", "lon": -77.0335115, "rental_uris": {"android": "https://dc.lft.to/lastmile_qr_scan", "ios": "https://dc.lft.to/lastmile_qr_scan"}, "lat": 38.92443466666667, "is_reserved": 0, "is_disabled": 0, "fusion_lat": 0.0}, {"fusion_lon": 0.0, "bike_id": "6d1b9d0841412a3b5cb7d3296080128b", "name": "6d1b9d0841412a3b5cb7d3296080128b", "type": "electric_scooter", "lon": -77.03894516666666, "rental_uris": {"android": "https://dc.lft.to/lastmile_qr_scan", "ios": "https://dc.lft.to/lastmile_qr_scan"}, "lat": 38.92241583333333, "is_reserved": 0, "is_disabled": 0, "fusion_lat": 0.0}, {"fusion_lon": 0.0, "bike_id": "e8cc5572deeb4ab653166643a3b08f25", "name": "e8cc5572deeb4ab653166643a3b08f25", "type": "electric_scooter", "lon": -77.03155366666667, "rental_uris": {"android": "https://dc.lft.to/lastmile_qr_scan", "ios": "https://dc.lft.to/lastmile_qr_scan"}, "lat": 38.901186333333335, "is_reserved": 0, "is_disabled": 0, "fusion_lat": 0.0}, {"fusion_lon": 0.0, "bike_id": "e5278822b167c74f4ae0b9ac60048e73", "name": "e5278822b167c74f4ae0b9ac60048e73", "type": "electric_scooter", "lon": -77.02533083333333, "rental_uris": {"android": "https://dc.lft.to/lastmile_qr_scan", "ios": "https://dc.lft.to/lastmile_qr_scan"}, "lat": 38.92085816666667, "is_reserved": 0, "is_disabled": 0, "fusion_lat": 0.0}, {"fusion_lon": 0.0, "bike_id": "34d319961f1d2eb35319a8f52a1f4dc7", "name": "34d319961f1d2eb35319a8f52a1f4dc7", "type": "electric_scooter", "lon": -77.00112066666667, "rental_uris": {"android": "https://dc.lft.to/lastmile_qr_scan", "ios": "https://dc.lft.to/lastmile_qr_scan"}, "lat": 38.897360666666664, "is_reserved": 0, "is_disabled": 0, "fusion_lat": 0.0}, {"fusion_lon": 0.0, "bike_id": "12ebe25b8f4cbc0205ad3507d251a2a1", "name": "12ebe25b8f4cbc0205ad3507d251a2a1", "type": "electric_scooter", "lon": -76.98817216666667, "rental_uris": {"android": "https://dc.lft.to/lastmile_qr_scan", "ios": "https://dc.lft.to/lastmile_qr_scan"}, "lat": 38.90043133333333, "is_reserved": 0, "is_disabled": 0, "fusion_lat": 0.0}, {"fusion_lon": 0.0, "bike_id": "f9f191aa4242c8f831b8ba394d082454", "name": "f9f191aa4242c8f831b8ba394d082454", "type": "electric_scooter", "lon": -76.93384133333333, "rental_uris": {"android": "https://dc.lft.to/lastmile_qr_scan", "ios": "https://dc.lft.to/lastmile_qr_scan"}, "lat": 38.8991115, "is_reserved": 0, "is_disabled": 0, "fusion_lat": 0.0}, {"fusion_lon": 0.0, "bike_id": "fb4fb745d193827fda05d8f6ecb39f8a", "name": "fb4fb745d193827fda05d8f6ecb39f8a", "type": "electric_scooter", "lon": -77.02600916666667, "rental_uris": {"android": "https://dc.lft.to/lastmile_qr_scan", "ios": "https://dc.lft.to/lastmile_qr_scan"}, "lat": 38.9759125, "is_reserved": 0, "is_disabled": 0, "fusion_lat": 0.0}, {"fusion_lon": 0.0, "bike_id": "1e612714d858312b30f4329e13eb0338", "name": "1e612714d858312b30f4329e13eb0338", "type": "electric_bike", "lon": -76.929289, "rental_uris": {"android": "https://dc.lft.to/lastmile_qr_scan", "ios": "https://dc.lft.to/lastmile_qr_scan"}, "lat": 38.902914833333334, "is_reserved": 0, "is_disabled": 0, "fusion_lat": 0.0}, {"fusion_lon": 0.0, "bike_id": "4eb1c533a432d9307bdada7ae75668ce", "name": "4eb1c533a432d9307bdada7ae75668ce", "type": "electric_scooter", "lon": -77.02321866666666, "rental_uris": {"android": "https://dc.lft.to/lastmile_qr_scan", "ios": "https://dc.lft.to/lastmile_qr_scan"}, "lat": 38.92068366666667, "is_reserved": 0, "is_disabled": 0, "fusion_lat": 0.0}, {"fusion_lon": 0.0, "bike_id": "8b4716783c8b27661ef1e3fbf0a5cead", "name": "8b4716783c8b27661ef1e3fbf0a5cead", "type": "electric_scooter", "lon": -76.98069116666667, "rental_uris": {"android": "https://dc.lft.to/lastmile_qr_scan", "ios": "https://dc.lft.to/lastmile_qr_scan"}, "lat": 38.901734833333336, "is_reserved": 0, "is_disabled": 0, "fusion_lat": 0.0}, {"fusion_lon": 0.0, "bike_id": "1dab6d74760d521fc714473d3b8606a4", "name": "1dab6d74760d521fc714473d3b8606a4", "type": "electric_bike", "lon": -76.96176133333333, "rental_uris": {"android": "https://dc.lft.to/lastmile_qr_scan", "ios": "https://dc.lft.to/lastmile_qr_scan"}, "lat": 38.9186125, "is_reserved": 0, "is_disabled": 0, "fusion_lat": 0.0}, {"fusion_lon": 0.0, "bike_id": "cfe54f69f98c50b96f25212b925a60f0", "name": "cfe54f69f98c50b96f25212b925a60f0", "type": "electric_scooter", "lon": -77.03221233333333, "rental_uris": {"android": "https://dc.lft.to/lastmile_qr_scan", "ios": "https://dc.lft.to/lastmile_qr_scan"}, "lat": 38.91383166666667, "is_reserved": 0, "is_disabled": 0, "fusion_lat": 0.0}, {"fusion_lon": 0.0, "bike_id": "e199458d238c81e74243788193ae0174", "name": "e199458d238c81e74243788193ae0174", "type": "electric_scooter", "lon": -77.04111383333333, "rental_uris": {"android": "https://dc.lft.to/lastmile_qr_scan", "ios": "https://dc.lft.to/lastmile_qr_scan"}, "lat": 38.906148333333334, "is_reserved": 0, "is_disabled": 0, "fusion_lat": 0.0}, {"fusion_lon": 0.0, "bike_id": "75949cd3f78322906b5075744504494c", "name": "75949cd3f78322906b5075744504494c", "type": "electric_scooter", "lon": -77.0317345, "rental_uris": {"android": "https://dc.lft.to/lastmile_qr_scan", "ios": "https://dc.lft.to/lastmile_qr_scan"}, "lat": 38.916795, "is_reserved": 0, "is_disabled": 0, "fusion_lat": 0.0}, {"fusion_lon": 0.0, "bike_id": "e78acc7163b9a295582ff95c9816b13f", "name": "e78acc7163b9a295582ff95c9816b13f", "type": "electric_bike", "lon": -76.97844666666667, "rental_uris": {"android": "https://dc.lft.to/lastmile_qr_scan", "ios": "https://dc.lft.to/lastmile_qr_scan"}, "lat": 38.88873783333333, "is_reserved": 0, "is_disabled": 0, "fusion_lat": 0.0}, {"fusion_lon": 0.0, "bike_id": "be4fb2672d926102e4341c8a36e9e75e", "name": "be4fb2672d926102e4341c8a36e9e75e", "type": "electric_scooter", "lon": -77.01750483333333, "rental_uris": {"android": "https://dc.lft.to/lastmile_qr_scan", "ios": "https://dc.lft.to/lastmile_qr_scan"}, "lat": 38.8727905, "is_reserved": 0, "is_disabled": 0, "fusion_lat": 0.0}, {"fusion_lon": 0.0, "bike_id": "79e2e0a6692c1a565c73ba409c1c45d8", "name": "79e2e0a6692c1a565c73ba409c1c45d8", "type": "electric_scooter", "lon": -77.04157833333333, "rental_uris": {"android": "https://dc.lft.to/lastmile_qr_scan", "ios": "https://dc.lft.to/lastmile_qr_scan"}, "lat": 38.9161645, "is_reserved": 0, "is_disabled": 0, "fusion_lat": 0.0}, {"fusion_lon": 0.0, "bike_id": "4474214c4b7fe263c0123871003d596f", "name": "4474214c4b7fe263c0123871003d596f", "type": "electric_scooter", "lon": -77.02489466666667, "rental_uris": {"android": "https://dc.lft.to/lastmile_qr_scan", "ios": "https://dc.lft.to/lastmile_qr_scan"}, "lat": 38.927411, "is_reserved": 0, "is_disabled": 0, "fusion_lat": 0.0}, {"fusion_lon": 0.0, "bike_id": "9c4d612d1ac71aeb4281830cd3a11c6d", "name": "9c4d612d1ac71aeb4281830cd3a11c6d", "type": "electric_scooter", "lon": -77.0465515, "rental_uris": {"android": "https://dc.lft.to/lastmile_qr_scan", "ios": "https://dc.lft.to/lastmile_qr_scan"}, "lat": 38.89234316666667, "is_reserved": 0, "is_disabled": 0, "fusion_lat": 0.0}, {"fusion_lon": 0.0, "bike_id": "4657624df72e0c763934e054a585103c", "name": "4657624df72e0c763934e054a585103c", "type": "electric_scooter", "lon": -77.00212633333334, "rental_uris": {"android": "https://dc.lft.to/lastmile_qr_scan", "ios": "https://dc.lft.to/lastmile_qr_scan"}, "lat": 38.91102566666667, "is_reserved": 0, "is_disabled": 0, "fusion_lat": 0.0}, {"fusion_lon": 0.0, "bike_id": "c6882375319d0b90c296ad1e368f0785", "name": "c6882375319d0b90c296ad1e368f0785", "type": "electric_bike", "lon": -77.08048783333334, "rental_uris": {"android": "https://dc.lft.to/lastmile_qr_scan", "ios": "https://dc.lft.to/lastmile_qr_scan"}, "lat": 38.84844966666667, "is_reserved": 0, "is_disabled": 0, "fusion_lat": 0.0}, {"fusion_lon": 0.0, "bike_id": "ae9864f7dd8d06daf6f33a1475ea85c3", "name": "ae9864f7dd8d06daf6f33a1475ea85c3", "type": "electric_scooter", "lon": -77.0519095, "rental_uris": {"android": "https://dc.lft.to/lastmile_qr_scan", "ios": "https://dc.lft.to/lastmile_qr_scan"}, "lat": 38.925486, "is_reserved": 0, "is_disabled": 0, "fusion_lat": 0.0}, {"fusion_lon": 0.0, "bike_id": "6565fca00636c8dd61a03b1fd97975e8", "name": "6565fca00636c8dd61a03b1fd97975e8", "type": "electric_bike", "lon": -77.0121905, "rental_uris": {"android": "https://dc.lft.to/lastmile_qr_scan", "ios": "https://dc.lft.to/lastmile_qr_scan"}, "lat": 38.87090933333333, "is_reserved": 0, "is_disabled": 0, "fusion_lat": 0.0}, {"fusion_lon": 0.0, "bike_id": "35e32659cb043ba47bc1f5db015ff2e6", "name": "35e32659cb043ba47bc1f5db015ff2e6", "type": "electric_bike", "lon": -76.98088483333333, "rental_uris": {"android": "https://dc.lft.to/lastmile_qr_scan", "ios": "https://dc.lft.to/lastmile_qr_scan"}, "lat": 38.95350166666667, "is_reserved": 0, "is_disabled": 0, "fusion_lat": 0.0}, {"fusion_lon": 0.0, "bike_id": "b284333f923d215b2bf46babc0b19375", "name": "b284333f923d215b2bf46babc0b19375", "type": "electric_scooter", "lon": -76.99818333333333, "rental_uris": {"android": "https://dc.lft.to/lastmile_qr_scan", "ios": "https://dc.lft.to/lastmile_qr_scan"}, "lat": 38.844340333333335, "is_reserved": 0, "is_disabled": 0, "fusion_lat": 0.0}, {"fusion_lon": 0.0, "bike_id": "10f83f21680f1adc6c9b3015ebb50d32", "name": "10f83f21680f1adc6c9b3015ebb50d32", "type": "electric_scooter", "lon": -77.0229335, "rental_uris": {"android": "https://dc.lft.to/lastmile_qr_scan", "ios": "https://dc.lft.to/lastmile_qr_scan"}, "lat": 38.9268565, "is_reserved": 0, "is_disabled": 0, "fusion_lat": 0.0}, {"fusion_lon": 0.0, "bike_id": "5359d7ca86e2db9edd9191e3e96a9722", "name": "5359d7ca86e2db9edd9191e3e96a9722", "type": "electric_scooter", "lon": -77.03660616666667, "rental_uris": {"android": "https://dc.lft.to/lastmile_qr_scan", "ios": "https://dc.lft.to/lastmile_qr_scan"}, "lat": 38.92289016666667, "is_reserved": 0, "is_disabled": 0, "fusion_lat": 0.0}, {"fusion_lon": 0.0, "bike_id": "eeb40c11e271e2ae0d8a61231c9d9c3c", "name": "eeb40c11e271e2ae0d8a61231c9d9c3c", "type": "electric_scooter", "lon": -77.05034633333334, "rental_uris": {"android": "https://dc.lft.to/lastmile_qr_scan", "ios": "https://dc.lft.to/lastmile_qr_scan"}, "lat": 38.90538733333333, "is_reserved": 0, "is_disabled": 0, "fusion_lat": 0.0}, {"fusion_lon": 0.0, "bike_id": "504eb945bcf7a1251bd3eb8aea8711e8", "name": "504eb945bcf7a1251bd3eb8aea8711e8", "type": "electric_scooter", "lon": -77.04665116666666, "rental_uris": {"android": "https://dc.lft.to/lastmile_qr_scan", "ios": "https://dc.lft.to/lastmile_qr_scan"}, "lat": 38.91322683333333, "is_reserved": 0, "is_disabled": 0, "fusion_lat": 0.0}, {"fusion_lon": 0.0, "bike_id": "1caf08c62af47e0b3cbad2ab7be08210", "name": "1caf08c62af47e0b3cbad2ab7be08210", "type": "electric_scooter", "lon": -76.98880283333334, "rental_uris": {"android": "https://dc.lft.to/lastmile_qr_scan", "ios": "https://dc.lft.to/lastmile_qr_scan"}, "lat": 38.906371666666665, "is_reserved": 0, "is_disabled": 0, "fusion_lat": 0.0}, {"fusion_lon": 0.0, "bike_id": "8e0bb50fc2985249fdca2c9f44c4879e", "name": "8e0bb50fc2985249fdca2c9f44c4879e", "type": "electric_scooter", "lon": -77.012123, "rental_uris": {"android": "https://dc.lft.to/lastmile_qr_scan", "ios": "https://dc.lft.to/lastmile_qr_scan"}, "lat": 38.919823666666666, "is_reserved": 0, "is_disabled": 0, "fusion_lat": 0.0}, {"fusion_lon": 0.0, "bike_id": "f279c4facd8cdc0cc7161ba8f63db6a3", "name": "f279c4facd8cdc0cc7161ba8f63db6a3", "type": "electric_scooter", "lon": -77.0465385, "rental_uris": {"android": "https://dc.lft.to/lastmile_qr_scan", "ios": "https://dc.lft.to/lastmile_qr_scan"}, "lat": 38.89339116666667, "is_reserved": 0, "is_disabled": 0, "fusion_lat": 0.0}, {"fusion_lon": 0.0, "bike_id": "efb7dd39ba915cd993cd27ac2c3e46de", "name": "efb7dd39ba915cd993cd27ac2c3e46de", "type": "electric_scooter", "lon": -77.04374733333333, "rental_uris": {"android": "https://dc.lft.to/lastmile_qr_scan", "ios": "https://dc.lft.to/lastmile_qr_scan"}, "lat": 38.92574583333333, "is_reserved": 0, "is_disabled": 0, "fusion_lat": 0.0}, {"fusion_lon": 0.0, "bike_id": "7661583bcf7c36afbcf973708cf5b5eb", "name": "7661583bcf7c36afbcf973708cf5b5eb", "type": "electric_scooter", "lon": -77.02942366666667, "rental_uris": {"android": "https://dc.lft.to/lastmile_qr_scan", "ios": "https://dc.lft.to/lastmile_qr_scan"}, "lat": 38.90375083333333, "is_reserved": 0, "is_disabled": 0, "fusion_lat": 0.0}, {"fusion_lon": 0.0, "bike_id": "fb014adee0409486036f1a0736ee8400", "name": "fb014adee0409486036f1a0736ee8400", "type": "electric_scooter", "lon": -76.94997883333333, "rental_uris": {"android": "https://dc.lft.to/lastmile_qr_scan", "ios": "https://dc.lft.to/lastmile_qr_scan"}, "lat": 38.8939365, "is_reserved": 0, "is_disabled": 0, "fusion_lat": 0.0}, {"fusion_lon": 0.0, "bike_id": "253d9c3b888874f5d50309720c0dcb1c", "name": "253d9c3b888874f5d50309720c0dcb1c", "type": "electric_bike", "lon": -76.96684933333333, "rental_uris": {"android": "https://dc.lft.to/lastmile_qr_scan", "ios": "https://dc.lft.to/lastmile_qr_scan"}, "lat": 38.95890383333333, "is_reserved": 0, "is_disabled": 0, "fusion_lat": 0.0}, {"fusion_lon": 0.0, "bike_id": "e0d8c85885294a44a849d81d9a7f9950", "name": "e0d8c85885294a44a849d81d9a7f9950", "type": "electric_scooter", "lon": -76.95755, "rental_uris": {"android": "https://dc.lft.to/lastmile_qr_scan", "ios": "https://dc.lft.to/lastmile_qr_scan"}, "lat": 38.88432733333333, "is_reserved": 0, "is_disabled": 0, "fusion_lat": 0.0}, {"fusion_lon": 0.0, "bike_id": "e793eca2bbf51d02de1c3c0a3a130c39", "name": "e793eca2bbf51d02de1c3c0a3a130c39", "type": "electric_scooter", "lon": -77.01161283333333, "rental_uris": {"android": "https://dc.lft.to/lastmile_qr_scan", "ios": "https://dc.lft.to/lastmile_qr_scan"}, "lat": 38.87201483333333, "is_reserved": 0, "is_disabled": 0, "fusion_lat": 0.0}, {"fusion_lon": 0.0, "bike_id": "f7b06af3cc78c2d253520a4cbba25204", "name": "f7b06af3cc78c2d253520a4cbba25204", "type": "electric_scooter", "lon": -77.02040916666667, "rental_uris": {"android": "https://dc.lft.to/lastmile_qr_scan", "ios": "https://dc.lft.to/lastmile_qr_scan"}, "lat": 38.91102933333333, "is_reserved": 0, "is_disabled": 0, "fusion_lat": 0.0}, {"fusion_lon": 0.0, "bike_id": "1efd3a8abcd2da5ec414b918ea26c0d4", "name": "1efd3a8abcd2da5ec414b918ea26c0d4", "type": "electric_scooter", "lon": -77.04656733333333, "rental_uris": {"android": "https://dc.lft.to/lastmile_qr_scan", "ios": "https://dc.lft.to/lastmile_qr_scan"}, "lat": 38.9062335, "is_reserved": 0, "is_disabled": 0, "fusion_lat": 0.0}, {"fusion_lon": 0.0, "bike_id": "28e406c7098e6622f379ff11be8bb51a", "name": "28e406c7098e6622f379ff11be8bb51a", "type": "electric_scooter", "lon": -76.98703166666667, "rental_uris": {"android": "https://dc.lft.to/lastmile_qr_scan", "ios": "https://dc.lft.to/lastmile_qr_scan"}, "lat": 38.901263666666665, "is_reserved": 0, "is_disabled": 0, "fusion_lat": 0.0}, {"fusion_lon": 0.0, "bike_id": "aa7143314290b1b444971d6fd7eaf4c8", "name": "aa7143314290b1b444971d6fd7eaf4c8", "type": "electric_scooter", "lon": -77.03641233333333, "rental_uris": {"android": "https://dc.lft.to/lastmile_qr_scan", "ios": "https://dc.lft.to/lastmile_qr_scan"}, "lat": 38.9241085, "is_reserved": 0, "is_disabled": 0, "fusion_lat": 0.0}, {"fusion_lon": 0.0, "bike_id": "449d9a6f5de2edec375f17c1acaf4d17", "name": "449d9a6f5de2edec375f17c1acaf4d17", "type": "electric_scooter", "lon": -76.9970915, "rental_uris": {"android": "https://dc.lft.to/lastmile_qr_scan", "ios": "https://dc.lft.to/lastmile_qr_scan"}, "lat": 38.8387475, "is_reserved": 0, "is_disabled": 0, "fusion_lat": 0.0}, {"fusion_lon": 0.0, "bike_id": "c3c65c6a7ca7114ae4994c1f0f7f0f3b", "name": "c3c65c6a7ca7114ae4994c1f0f7f0f3b", "type": "electric_bike", "lon": -77.09162733333334, "rental_uris": {"android": "https://dc.lft.to/lastmile_qr_scan", "ios": "https://dc.lft.to/lastmile_qr_scan"}, "lat": 38.96765883333333, "is_reserved": 0, "is_disabled": 0, "fusion_lat": 0.0}, {"fusion_lon": 0.0, "bike_id": "0256aa256111a7302d434b3323fcfbba", "name": "0256aa256111a7302d434b3323fcfbba", "type": "electric_scooter", "lon": -77.04651083333333, "rental_uris": {"android": "https://dc.lft.to/lastmile_qr_scan", "ios": "https://dc.lft.to/lastmile_qr_scan"}, "lat": 38.914840166666664, "is_reserved": 0, "is_disabled": 0, "fusion_lat": 0.0}, {"fusion_lon": 0.0, "bike_id": "c6cd47216fdaac9d43f2ba2ec9697a86", "name": "c6cd47216fdaac9d43f2ba2ec9697a86", "type": "electric_scooter", "lon": -76.97231683333334, "rental_uris": {"android": "https://dc.lft.to/lastmile_qr_scan", "ios": "https://dc.lft.to/lastmile_qr_scan"}, "lat": 38.8545635, "is_reserved": 0, "is_disabled": 0, "fusion_lat": 0.0}, {"fusion_lon": 0.0, "bike_id": "0c4c0efeedf14fbbcd0c34f9f6ca5352", "name": "0c4c0efeedf14fbbcd0c34f9f6ca5352", "type": "electric_scooter", "lon": -77.0465515, "rental_uris": {"android": "https://dc.lft.to/lastmile_qr_scan", "ios": "https://dc.lft.to/lastmile_qr_scan"}, "lat": 38.89295383333334, "is_reserved": 0, "is_disabled": 0, "fusion_lat": 0.0}, {"fusion_lon": 0.0, "bike_id": "60e89a37a3b2ec92a28a56c1146337f9", "name": "60e89a37a3b2ec92a28a56c1146337f9", "type": "electric_scooter", "lon": -77.0051695, "rental_uris": {"android": "https://dc.lft.to/lastmile_qr_scan", "ios": "https://dc.lft.to/lastmile_qr_scan"}, "lat": 38.87468833333333, "is_reserved": 0, "is_disabled": 0, "fusion_lat": 0.0}, {"fusion_lon": 0.0, "bike_id": "5905d44215d3eca63442a1b2670797a4", "name": "5905d44215d3eca63442a1b2670797a4", "type": "electric_scooter", "lon": -77.03740116666667, "rental_uris": {"android": "https://dc.lft.to/lastmile_qr_scan", "ios": "https://dc.lft.to/lastmile_qr_scan"}, "lat": 38.91819066666667, "is_reserved": 0, "is_disabled": 0, "fusion_lat": 0.0}, {"fusion_lon": 0.0, "bike_id": "aced28577b39a2f46b0329a895f161a0", "name": "aced28577b39a2f46b0329a895f161a0", "type": "electric_scooter", "lon": -77.023897, "rental_uris": {"android": "https://dc.lft.to/lastmile_qr_scan", "ios": "https://dc.lft.to/lastmile_qr_scan"}, "lat": 38.919602, "is_reserved": 0, "is_disabled": 0, "fusion_lat": 0.0}, {"fusion_lon": 0.0, "bike_id": "cc9d7510b66da6480b51948d155ac6e3", "name": "cc9d7510b66da6480b51948d155ac6e3", "type": "electric_scooter", "lon": -77.0485715, "rental_uris": {"android": "https://dc.lft.to/lastmile_qr_scan", "ios": "https://dc.lft.to/lastmile_qr_scan"}, "lat": 38.905800166666666, "is_reserved": 0, "is_disabled": 0, "fusion_lat": 0.0}, {"fusion_lon": 0.0, "bike_id": "85569b2ea717942cc8999587fbbeb18f", "name": "85569b2ea717942cc8999587fbbeb18f", "type": "electric_scooter", "lon": -77.036529, "rental_uris": {"android": "https://dc.lft.to/lastmile_qr_scan", "ios": "https://dc.lft.to/lastmile_qr_scan"}, "lat": 38.9417795, "is_reserved": 0, "is_disabled": 0, "fusion_lat": 0.0}, {"fusion_lon": 0.0, "bike_id": "4f852b695b0936fefff67ac443e9c48a", "name": "4f852b695b0936fefff67ac443e9c48a", "type": "electric_scooter", "lon": -77.0438015, "rental_uris": {"android": "https://dc.lft.to/lastmile_qr_scan", "ios": "https://dc.lft.to/lastmile_qr_scan"}, "lat": 38.8744655, "is_reserved": 0, "is_disabled": 0, "fusion_lat": 0.0}, {"fusion_lon": 0.0, "bike_id": "bb1131100c9ce16142058df7a87c213c", "name": "bb1131100c9ce16142058df7a87c213c", "type": "electric_scooter", "lon": -77.02072133333333, "rental_uris": {"android": "https://dc.lft.to/lastmile_qr_scan", "ios": "https://dc.lft.to/lastmile_qr_scan"}, "lat": 38.949014, "is_reserved": 0, "is_disabled": 0, "fusion_lat": 0.0}, {"fusion_lon": 0.0, "bike_id": "679cf3247e1ff9c01d57b4c304997053", "name": "679cf3247e1ff9c01d57b4c304997053", "type": "electric_scooter", "lon": -77.02118, "rental_uris": {"android": "https://dc.lft.to/lastmile_qr_scan", "ios": "https://dc.lft.to/lastmile_qr_scan"}, "lat": 38.894722, "is_reserved": 0, "is_disabled": 0, "fusion_lat": 0.0}, {"fusion_lon": 0.0, "bike_id": "1b1a3352d60f7e4435e8eda3694115af", "name": "1b1a3352d60f7e4435e8eda3694115af", "type": "electric_bike", "lon": -76.9799945, "rental_uris": {"android": "https://dc.lft.to/lastmile_qr_scan", "ios": "https://dc.lft.to/lastmile_qr_scan"}, "lat": 38.85328483333333, "is_reserved": 0, "is_disabled": 0, "fusion_lat": 0.0}, {"fusion_lon": 0.0, "bike_id": "96de1ee2ba9766d43c2fd0f016845535", "name": "96de1ee2ba9766d43c2fd0f016845535", "type": "electric_scooter", "lon": -77.02803666666667, "rental_uris": {"android": "https://dc.lft.to/lastmile_qr_scan", "ios": "https://dc.lft.to/lastmile_qr_scan"}, "lat": 38.91099083333334, "is_reserved": 0, "is_disabled": 0, "fusion_lat": 0.0}, {"fusion_lon": 0.0, "bike_id": "96c1ec7a80d0f09ac311e3a69acb097f", "name": "96c1ec7a80d0f09ac311e3a69acb097f", "type": "electric_scooter", "lon": -77.03266916666666, "rental_uris": {"android": "https://dc.lft.to/lastmile_qr_scan", "ios": "https://dc.lft.to/lastmile_qr_scan"}, "lat": 38.9326765, "is_reserved": 0, "is_disabled": 0, "fusion_lat": 0.0}, {"fusion_lon": 0.0, "bike_id": "e4c0c36083a1de330825c0bfbc43667a", "name": "e4c0c36083a1de330825c0bfbc43667a", "type": "electric_scooter", "lon": -77.0318325, "rental_uris": {"android": "https://dc.lft.to/lastmile_qr_scan", "ios": "https://dc.lft.to/lastmile_qr_scan"}, "lat": 38.907892333333336, "is_reserved": 0, "is_disabled": 0, "fusion_lat": 0.0}, {"fusion_lon": 0.0, "bike_id": "dea921eaf42988342f3c4b57c31a3b2e", "name": "dea921eaf42988342f3c4b57c31a3b2e", "type": "electric_scooter", "lon": -77.03440516666667, "rental_uris": {"android": "https://dc.lft.to/lastmile_qr_scan", "ios": "https://dc.lft.to/lastmile_qr_scan"}, "lat": 38.907267, "is_reserved": 0, "is_disabled": 0, "fusion_lat": 0.0}, {"fusion_lon": 0.0, "bike_id": "d493a0fd8899811f7502452fa29c156c", "name": "d493a0fd8899811f7502452fa29c156c", "type": "electric_scooter", "lon": -77.04171533333333, "rental_uris": {"android": "https://dc.lft.to/lastmile_qr_scan", "ios": "https://dc.lft.to/lastmile_qr_scan"}, "lat": 38.92008, "is_reserved": 0, "is_disabled": 0, "fusion_lat": 0.0}, {"fusion_lon": 0.0, "bike_id": "6a5217b2f7babe15435695b4d0b24a33", "name": "6a5217b2f7babe15435695b4d0b24a33", "type": "electric_scooter", "lon": -77.0110135, "rental_uris": {"android": "https://dc.lft.to/lastmile_qr_scan", "ios": "https://dc.lft.to/lastmile_qr_scan"}, "lat": 38.909686, "is_reserved": 0, "is_disabled": 0, "fusion_lat": 0.0}, {"fusion_lon": 0.0, "bike_id": "d4a445a0e21ad5f2af9c2d6ecc9c6bc2", "name": "d4a445a0e21ad5f2af9c2d6ecc9c6bc2", "type": "electric_scooter", "lon": -77.03106766666667, "rental_uris": {"android": "https://dc.lft.to/lastmile_qr_scan", "ios": "https://dc.lft.to/lastmile_qr_scan"}, "lat": 38.92019033333333, "is_reserved": 0, "is_disabled": 0, "fusion_lat": 0.0}, {"fusion_lon": 0.0, "bike_id": "84a1263035732e4594f2b886f5b1b020", "name": "84a1263035732e4594f2b886f5b1b020", "type": "electric_scooter", "lon": -77.023491, "rental_uris": {"android": "https://dc.lft.to/lastmile_qr_scan", "ios": "https://dc.lft.to/lastmile_qr_scan"}, "lat": 38.935335333333335, "is_reserved": 0, "is_disabled": 0, "fusion_lat": 0.0}, {"fusion_lon": 0.0, "bike_id": "cb1de6ce203e7258106df77a990a45aa", "name": "cb1de6ce203e7258106df77a990a45aa", "type": "electric_scooter", "lon": -77.03205716666666, "rental_uris": {"android": "https://dc.lft.to/lastmile_qr_scan", "ios": "https://dc.lft.to/lastmile_qr_scan"}, "lat": 38.90924833333333, "is_reserved": 0, "is_disabled": 0, "fusion_lat": 0.0}, {"fusion_lon": 0.0, "bike_id": "02ae6e768f3a21184c9bccc3300813da", "name": "02ae6e768f3a21184c9bccc3300813da", "type": "electric_scooter", "lon": -77.04580933333334, "rental_uris": {"android": "https://dc.lft.to/lastmile_qr_scan", "ios": "https://dc.lft.to/lastmile_qr_scan"}, "lat": 38.924208, "is_reserved": 0, "is_disabled": 0, "fusion_lat": 0.0}, {"fusion_lon": 0.0, "bike_id": "493a9494c508e16ee60581c928c84226", "name": "493a9494c508e16ee60581c928c84226", "type": "electric_scooter", "lon": -77.02799283333333, "rental_uris": {"android": "https://dc.lft.to/lastmile_qr_scan", "ios": "https://dc.lft.to/lastmile_qr_scan"}, "lat": 38.91682383333333, "is_reserved": 0, "is_disabled": 0, "fusion_lat": 0.0}, {"fusion_lon": 0.0, "bike_id": "83335f2627ab9e87f1af0d2bb676f677", "name": "83335f2627ab9e87f1af0d2bb676f677", "type": "electric_bike", "lon": -76.94803733333333, "rental_uris": {"android": "https://dc.lft.to/lastmile_qr_scan", "ios": "https://dc.lft.to/lastmile_qr_scan"}, "lat": 38.86192583333333, "is_reserved": 0, "is_disabled": 0, "fusion_lat": 0.0}, {"fusion_lon": 0.0, "bike_id": "89c343a358698b122f7a4d5e99b8f51a", "name": "89c343a358698b122f7a4d5e99b8f51a", "type": "electric_scooter", "lon": -77.01998116666667, "rental_uris": {"android": "https://dc.lft.to/lastmile_qr_scan", "ios": "https://dc.lft.to/lastmile_qr_scan"}, "lat": 38.966289833333335, "is_reserved": 0, "is_disabled": 0, "fusion_lat": 0.0}, {"fusion_lon": 0.0, "bike_id": "9df8900a9139b1d6ff82f91fc2c7f8d5", "name": "9df8900a9139b1d6ff82f91fc2c7f8d5", "type": "electric_bike", "lon": -77.04977766666667, "rental_uris": {"android": "https://dc.lft.to/lastmile_qr_scan", "ios": "https://dc.lft.to/lastmile_qr_scan"}, "lat": 38.99246133333333, "is_reserved": 0, "is_disabled": 0, "fusion_lat": 0.0}, {"fusion_lon": 0.0, "bike_id": "99593384dffde37375e54fcd1d7f4efe", "name": "99593384dffde37375e54fcd1d7f4efe", "type": "electric_scooter", "lon": -77.05598566666667, "rental_uris": {"android": "https://dc.lft.to/lastmile_qr_scan", "ios": "https://dc.lft.to/lastmile_qr_scan"}, "lat": 38.93702733333333, "is_reserved": 0, "is_disabled": 0, "fusion_lat": 0.0}, {"fusion_lon": 0.0, "bike_id": "6bb1749926e17bd24ea567cd2a8b5de2", "name": "6bb1749926e17bd24ea567cd2a8b5de2", "type": "electric_scooter", "lon": -77.01770066666667, "rental_uris": {"android": "https://dc.lft.to/lastmile_qr_scan", "ios": "https://dc.lft.to/lastmile_qr_scan"}, "lat": 38.885906166666665, "is_reserved": 0, "is_disabled": 0, "fusion_lat": 0.0}, {"fusion_lon": 0.0, "bike_id": "91dff516b9183dc2ceca631881fa4731", "name": "91dff516b9183dc2ceca631881fa4731", "type": "electric_bike", "lon": -77.195473, "rental_uris": {"android": "https://dc.lft.to/lastmile_qr_scan", "ios": "https://dc.lft.to/lastmile_qr_scan"}, "lat": 39.115117166666664, "is_reserved": 0, "is_disabled": 0, "fusion_lat": 0.0}, {"fusion_lon": 0.0, "bike_id": "c918a6db32b858ab80e5d4644f1b3b2f", "name": "c918a6db32b858ab80e5d4644f1b3b2f", "type": "electric_scooter", "lon": -77.001981, "rental_uris": {"android": "https://dc.lft.to/lastmile_qr_scan", "ios": "https://dc.lft.to/lastmile_qr_scan"}, "lat": 38.90038116666667, "is_reserved": 0, "is_disabled": 0, "fusion_lat": 0.0},