{"data": {"bikes": [{"fusion_lat": 0.0, "name": "790d23624468d617b3d36ec4296e8c61", "is_disabled": 0, "rental_uris": {"android": "https://dc.lft.to/lastmile_qr_scan", "ios": "https://dc.lft.to/lastmile_qr_scan"}, "fusion_lon": 0.0, "lat": 38.92768933333333, "bike_id": "790d23624468d617b3d36ec4296e8c61", "type": "electric_scooter", "is_reserved": 0, "lon": -77.0230755}, {"fusion_lat": 0.0, "name": "b5141b12178fb75f5138dacac99b31d7", "is_disabled": 0, "rental_uris": {"android": "https://dc.lft.to/lastmile_qr_scan", "ios": "https://dc.lft.to/lastmile_qr_scan"}, "fusion_lon": 0.0, "lat": 38.901986, "bike_id": "b5141b12178fb75f5138dacac99b31d7", "type": "electric_scooter", "is_reserved": 0, "lon": -77.0237325}, {"fusion_lat": 0.0, "name": "b463ee36a7642ae7116cc38156c04c7a", "is_disabled": 0, "rental_uris": {"android": "https://dc.lft.to/lastmile_qr_scan", "ios": "https://dc.lft.to/lastmile_qr_scan"}, "fusion_lon": 0.0, "lat": 38.9385485, "bike_id": "b463ee36a7642ae7116cc38156c04c7a", "type": "electric_scooter", "is_reserved": 0, "lon": -77.03426316666666}, {"fusion_lat": 0.0, "name": "7c005728f62d86fd3732a9fd00991730", "is_disabled": 0, "rental_uris": {"android": "https://dc.lft.to/lastmile_qr_scan", "ios": "https://dc.lft.to/lastmile_qr_scan"}, "fusion_lon": 0.0, "lat": 38.89887783333333, "bike_id": "7c005728f62d86fd3732a9fd00991730", "type": "electric_scooter", "is_reserved": 0, "lon": -76.9336585}, {"fusion_lat": 0.0, "name": "02e5f4dfa0a9803a01042dc922d17688", "is_disabled": 0, "rental_uris": {"android": "https://dc.lft.to/lastmile_qr_scan", "ios": "https://dc.lft.to/lastmile_qr_scan"}, "fusion_lon": 0.0, "lat": 38.9341175, "bike_id": "02e5f4dfa0a9803a01042dc922d17688", "type": "electric_scooter", "is_reserved": 0, "lon": -77.04162533333333}, {"fusion_lat": 0.0, "name": "db3d7d2c7f11dc4343a2f358b507d1cc", "is_disabled": 0, "rental_uris": {"android": "https://dc.lft.to/lastmile_qr_scan", "ios": "https://dc.lft.to/lastmile_qr_scan"}, "fusion_lon": 0.0, "lat": 38.918454833333335, "bike_id": "db3d7d2c7f11dc4343a2f358b507d1cc", "type": "electric_scooter", "is_reserved": 0, "lon": -77.024392}, {"fusion_lat": 0.0, "name": "d49cb6effcb9d87ee494085cc43a28a4", "is_disabled": 0, "rental_uris": {"android": "https://dc.lft.to/lastmile_qr_scan", "ios": "https://dc.lft.to/lastmile_qr_scan"}, "fusion_lon": 0.0, "lat": 38.88997416666667, "bike_id": "d49cb6effcb9d87ee494085cc43a28a4", "type": "electric_scooter", "is_reserved": 0, "lon": -76.99252883333334}, {"fusion_lat": 0.0, "name": "2b77ce0e97dd6140c079f9303a440f9a", "is_disabled": 0, "rental_uris": {"android": "https://dc.lft.to/lastmile_qr_scan", "ios": "https://dc.lft.to/lastmile_qr_scan"}, "fusion_lon": 0.0, "lat": 38.905482666666664, "bike_id": "2b77ce0e97dd6140c079f9303a440f9a", "type": "electric_scooter", "is_reserved": 0, "lon": -77.04650183333334}, {"fusion_lat": 0.0, "name": "7b12e96b6174a91c14ccab2fb967f1cd", "is_disabled": 0, "rental_uris": {"android": "https://dc.lft.to/lastmile_qr_scan", "ios": "https://dc.lft.to/lastmile_qr_scan"}, "fusion_lon": 0.0, "lat": 38.90248583333333, "bike_id": "7b12e96b6174a91c14ccab2fb967f1cd", "type": "electric_scooter", "is_reserved": 0, "lon": -77.06324216666667}, {"fusion_lat": 0.0, "name": "233cb49b362adc6d008d0bb97bdf0c5f", "is_disabled": 0, "rental_uris": {"android": "https://dc.lft.to/lastmile_qr_scan", "ios": "https://dc.lft.to/lastmile_qr_scan"}, "fusion_lon": 0.0, "lat": 38.9190355, "bike_id": "233cb49b362adc6d008d0bb97bdf0c5f", "type": "electric_scooter", "is_reserved": 0, "lon": -77.00042716666667}, {"fusion_lat": 0.0, "name": "6c21ca205d59bed5928fe28bfad5a043", "is_disabled": 0, "rental_uris": {"android": "https://dc.lft.to/lastmile_qr_scan", "ios": "https://dc.lft.to/lastmile_qr_scan"}, "fusion_lon": 0.0, "lat": 38.966604833333335, "bike_id": "6c21ca205d59bed5928fe28bfad5a043", "type": "electric_scooter", "is_reserved": 0, "lon": -77.025477}, {"fusion_lat": 0.0, "name": "9e5371a0ec9570aee167e70cc8fcfc2b", "is_disabled": 0, "rental_uris": {"android": "https://dc.lft.to/lastmile_qr_scan", "ios": "https://dc.lft.to/lastmile_qr_scan"}, "fusion_lon": 0.0, "lat": 38.881456666666665, "bike_id": "9e5371a0ec9570aee167e70cc8fcfc2b", "type": "electric_scooter", "is_reserved": 0, "lon": -76.99510866666667}, {"fusion_lat": 0.0, "name": "de1e61ccd593e932c73af4da38919182", "is_disabled": 0, "rental_uris": {"android": "https://dc.lft.to/lastmile_qr_scan", "ios": "https://dc.lft.to/lastmile_qr_scan"}, "fusion_lon": 0.0, "lat": 38.951198833333336, "bike_id": "de1e61ccd593e932c73af4da38919182", "type": "electric_bike", "is_reserved": 0, "lon": -77.02780533333333}, {"fusion_lat": 0.0, "name": "b2f2158837699d626cf27880027c450d", "is_disabled": 0, "rental_uris": {"android": "https://dc.lft.to/lastmile_qr_scan", "ios": "https://dc.lft.to/lastmile_qr_scan"}, "fusion_lon": 0.0, "lat": 38.90670633333333, "bike_id": "b2f2158837699d626cf27880027c450d", "type": "electric_scooter", "is_reserved": 0, "lon": -77.00954516666667}, {"fusion_lat": 0.0, "name": "c745718790ddff383ad2a22a4138f334", "is_disabled": 0, "rental_uris": {"android": "https://dc.lft.to/lastmile_qr_scan", "ios": "https://dc.lft.to/lastmile_qr_scan"}, "fusion_lon": 0.0, "lat": 38.83628433333333, "bike_id": "c745718790ddff383ad2a22a4138f334", "type": "electric_bike", "is_reserved": 0, "lon": -77.06950683333334}, {"fusion_lat": 0.0, "name": "81af7d2909c9d6ded8c5e1d2a113a32c", "is_disabled": 0, "rental_uris": {"android": "https://dc.lft.to/lastmile_qr_scan", "ios": "https://dc.lft.to/lastmile_qr_scan"}, "fusion_lon": 0.0, "lat": 38.906888, "bike_id": "81af7d2909c9d6ded8c5e1d2a113a32c", "type": "electric_scooter", "is_reserved": 0, "lon": -76.95191566666666}, {"fusion_lat": 0.0, "name": "cfecc3e6c2a775018a1c59447092ed42", "is_disabled": 0, "rental_uris": {"android": "https://dc.lft.to/lastmile_qr_scan", "ios": "https://dc.lft.to/lastmile_qr_scan"}, "fusion_lon": 0.0, "lat": 38.92402366666666, "bike_id": "cfecc3e6c2a775018a1c59447092ed42", "type": "electric_scooter", "is_reserved": 0, "lon": -77.02546633333333}, {"fusion_lat": 0.0, "name": "d72158f62df66d1d4f855d37d84eb531", "is_disabled": 0, "rental_uris": {"android": "https://dc.lft.to/lastmile_qr_scan", "ios": "https://dc.lft.to/lastmile_qr_scan"}, "fusion_lon": 0.0, "lat": 38.90213466666667, "bike_id": "d72158f62df66d1d4f855d37d84eb531", "type": "electric_scooter", "is_reserved": 0, "lon": -77.04588833333334}, {"fusion_lat": 0.0, "name": "5d93b19d07750c1aa84ccc0029198afb", "is_disabled": 0, "rental_uris": {"android": "https://dc.lft.to/lastmile_qr_scan", "ios": "https://dc.lft.to/lastmile_qr_scan"}, "fusion_lon": 0.0, "lat": 38.909402666666665, "bike_id": "5d93b19d07750c1aa84ccc0029198afb", "type": "electric_scooter", "is_reserved": 0, "lon": -77.047132}, {"fusion_lat": 0.0, "name": "447cd2dee933af3ebcd5ac6bc0b427d3", "is_disabled": 0, "rental_uris": {"android": "https://dc.lft.to/lastmile_qr_scan", "ios": "https://dc.lft.to/lastmile_qr_scan"}, "fusion_lon": 0.0, "lat": 38.916619833333336, "bike_id": "447cd2dee933af3ebcd5ac6bc0b427d3", "type": "electric_scooter", "is_reserved": 0, "lon": -77.03857333333333}, {"fusion_lat": 0.0, "name": "b25486f4036b5279683601d2419cca64", "is_disabled": 0, "rental_uris": {"android": "https://dc.lft.to/lastmile_qr_scan", "ios": "https://dc.lft.to/lastmile_qr_scan"}, "fusion_lon": 0.0, "lat": 38.911690666666665, "bike_id": "b25486f4036b5279683601d2419cca64", "type": "electric_scooter", "is_reserved": 0, "lon": -77.02713283333334}, {"fusion_lat": 0.0, "name": "5e9ab079ff49dbca8a193ef7b3d596cb", "is_disabled": 0, "rental_uris": {"android": "https://dc.lft.to/lastmile_qr_scan", "ios": "https://dc.lft.to/lastmile_qr_scan"}, "fusion_lon": 0.0, "lat": 38.9208955, "bike_id": "5e9ab079ff49dbca8a193ef7b3d596cb", "type": "electric_scooter", "is_reserved": 0, "lon": -77.03303883333334}, {"fusion_lat": 0.0, "name": "bf6b7179d27e941c10272f504e62eef8", "is_disabled": 0, "rental_uris": {"android": "https://dc.lft.to/lastmile_qr_scan", "ios": "https://dc.lft.to/lastmile_qr_scan"}, "fusion_lon": 0.0, "lat": 38.923554833333334, "bike_id": "bf6b7179d27e941c10272f504e62eef8", "type": "electric_scooter", "is_reserved": 0, "lon": -77.03901583333334}, {"fusion_lat": 0.0, "name": "15fa142419ff12c0ca80ff95e738a1e9", "is_disabled": 0, "rental_uris": {"android": "https://dc.lft.to/lastmile_qr_scan", "ios": "https://dc.lft.to/lastmile_qr_scan"}, "fusion_lon": 0.0, "lat": 38.90124383333333, "bike_id": "15fa142419ff12c0ca80ff95e738a1e9", "type": "electric_scooter", "is_reserved": 0, "lon": -77.01818566666667}, {"fusion_lat": 0.0, "name": "410ebfbaae247b5b3445b12ec1c1e915", "is_disabled": 0, "rental_uris": {"android": "https://dc.lft.to/lastmile_qr_scan", "ios": "https://dc.lft.to/lastmile_qr_scan"}, "fusion_lon": 0.0, "lat": 38.917485166666665, "bike_id": "410ebfbaae247b5b3445b12ec1c1e915", "type": "electric_scooter", "is_reserved": 0, "lon": -77.0249435}, {"fusion_lat": 0.0, "name": "90ffe9a9e76085e9a878fe65bcc15480", "is_disabled": 0, "rental_uris": {"android": "https://dc.lft.to/lastmile_qr_scan", "ios": "https://dc.lft.to/lastmile_qr_scan"}, "fusion_lon": 0.0, "lat": 38.905860833333335, "bike_id": "90ffe9a9e76085e9a878fe65bcc15480", "type": "electric_scooter", "is_reserved": 0, "lon": -77.01615666666666}, {"fusion_lat": 0.0, "name": "c9ae90408942009f21c05360edb9dc57", "is_disabled": 0, "rental_uris": {"android": "https://dc.lft.to/lastmile_qr_scan", "ios": "https://dc.lft.to/lastmile_qr_scan"}, "fusion_lon": 0.0, "lat": 38.904756166666665, "bike_id": "c9ae90408942009f21c05360edb9dc57", "type": "electric_scooter", "is_reserved": 0, "lon": -76.952009}, {"fusion_lat": 0.0, "name": "afb1ff0623b3c164a8f72ed09e897405", "is_disabled": 0, "rental_uris": {"android": "https://dc.lft.to/lastmile_qr_scan", "ios": "https://dc.lft.to/lastmile_qr_scan"}, "fusion_lon": 0.0, "lat": 38.922071, "bike_id": "afb1ff0623b3c164a8f72ed09e897405", "type": "electric_bike", "is_reserved": 0, "lon": -77.0819355}, {"fusion_lat": 0.0, "name": "fa92e34b30bc58ba207807992c276d98", "is_disabled": 0, "rental_uris": {"android": "https://dc.lft.to/lastmile_qr_scan", "ios": "https://dc.lft.to/lastmile_qr_scan"}, "fusion_lon": 0.0, "lat": 38.9111485, "bike_id": "fa92e34b30bc58ba207807992c276d98", "type": "electric_scooter", "is_reserved": 0, "lon": -77.01159483333333}, {"fusion_lat": 0.0, "name": "f220315f8cb4dc2d2001d4321b4c0801", "is_disabled": 0, "rental_uris": {"android": "https://dc.lft.to/lastmile_qr_scan", "ios": "https://dc.lft.to/lastmile_qr_scan"}, "fusion_lon": 0.0, "lat": 38.9012885, "bike_id": "f220315f8cb4dc2d2001d4321b4c0801", "type": "electric_scooter", "is_reserved": 0, "lon": -77.04163083333333}, {"fusion_lat": 0.0, "name": "66150d2d78a1899d63b546b55d66ca42", "is_disabled": 0, "rental_uris": {"android": "https://dc.lft.to/lastmile_qr_scan", "ios": "https://dc.lft.to/lastmile_qr_scan"}, "fusion_lon": 0.0, "lat": 38.904389, "bike_id": "66150d2d78a1899d63b546b55d66ca42", "type": "electric_scooter", "is_reserved": 0, "lon": -77.0259585}, {"fusion_lat": 0.0, "name": "6bd6ee59e9f261036f01cb6ca80a3260", "is_disabled": 0, "rental_uris": {"android": "https://dc.lft.to/lastmile_qr_scan", "ios": "https://dc.lft.to/lastmile_qr_scan"}, "fusion_lon": 0.0, "lat": 38.899338666666665, "bike_id": "6bd6ee59e9f261036f01cb6ca80a3260", "type": "electric_scooter", "is_reserved": 0, "lon": -77.0487065}, {"fusion_lat": 0.0, "name": "79b6b2ab5c39a4bdd53f3f9c7135f255", "is_disabled": 0, "rental_uris": {"android": "https://dc.lft.to/lastmile_qr_scan", "ios": "https://dc.lft.to/lastmile_qr_scan"}, "fusion_lon": 0.0, "lat": 38.90918583333333, "bike_id": "79b6b2ab5c39a4bdd53f3f9c7135f255", "type": "electric_scooter", "is_reserved": 0, "lon": -77.02310483333333}, {"fusion_lat": 0.0, "name": "b7a3faa8cec77d51df84fc4ee63d6327", "is_disabled": 0, "rental_uris": {"android": "https://dc.lft.to/lastmile_qr_scan", "ios": "https://dc.lft.to/lastmile_qr_scan"}, "fusion_lon": 0.0, "lat": 38.9232495, "bike_id": "b7a3faa8cec77d51df84fc4ee63d6327", "type": "electric_scooter", "is_reserved": 0, "lon": -77.04150016666667}, {"fusion_lat": 0.0, "name": "39f62d9a2dec5c00042b4fa0ecc521d4", "is_disabled": 0, "rental_uris": {"android": "https://dc.lft.to/lastmile_qr_scan", "ios": "https://dc.lft.to/lastmile_qr_scan"}, "fusion_lon": 0.0, "lat": 38.9193305, "bike_id": "39f62d9a2dec5c00042b4fa0ecc521d4", "type": "electric_scooter", "is_reserved": 0, "lon": -77.02426133333333}, {"fusion_lat": 0.0, "name": "ea4e424f717ed60fc1d5ecbf411ea7c8", "is_disabled": 0, "rental_uris": {"android": "https://dc.lft.to/lastmile_qr_scan", "ios": "https://dc.lft.to/lastmile_qr_scan"}, "fusion_lon": 0.0, "lat": 38.91030466666667, "bike_id": "ea4e424f717ed60fc1d5ecbf411ea7c8", "type": "electric_scooter", "is_reserved": 0, "lon": -77.0342775}, {"fusion_lat": 0.0, "name": "53f429c6d0b6173fc50f925ddae23b37", "is_disabled": 0, "rental_uris": {"android": "https://dc.lft.to/lastmile_qr_scan", "ios": "https://dc.lft.to/lastmile_qr_scan"}, "fusion_lon": 0.0, "lat": 38.904989, "bike_id": "53f429c6d0b6173fc50f925ddae23b37", "type": "electric_scooter", "is_reserved": 0, "lon": -77.02957833333333}, {"fusion_lat": 0.0, "name": "64bd9a09cf6a009c36f0d319a14da186", "is_disabled": 0, "rental_uris": {"android": "https://dc.lft.to/lastmile_qr_scan", "ios": "https://dc.lft.to/lastmile_qr_scan"}, "fusion_lon": 0.0, "lat": 38.91819983333333, "bike_id": "64bd9a09cf6a009c36f0d319a14da186", "type": "electric_scooter", "is_reserved": 0, "lon": -77.02707833333334}, {"fusion_lat": 0.0, "name": "7af90f32a30af112d6f34f50def97d8f", "is_disabled": 0, "rental_uris": {"android": "https://dc.lft.to/lastmile_qr_scan", "ios": "https://dc.lft.to/lastmile_qr_scan"}, "fusion_lon": 0.0, "lat": 38.92769166666667, "bike_id": "7af90f32a30af112d6f34f50def97d8f", "type": "electric_scooter", "is_reserved": 0, "lon": -77.02296516666667}, {"fusion_lat": 0.0, "name": "293677b11fbefad2b15e4d7e6a86977f", "is_disabled": 0, "rental_uris": {"android": "https://dc.lft.to/lastmile_qr_scan", "ios": "https://dc.lft.to/lastmile_qr_scan"}, "fusion_lon": 0.0, "lat": 38.921555833333336, "bike_id": "293677b11fbefad2b15e4d7e6a86977f", "type": "electric_scooter", "is_reserved": 0, "lon": -77.04239216666667}, {"fusion_lat": 0.0, "name": "f8c526c6b0897c31e7575666640258fe", "is_disabled": 0, "rental_uris": {"android": "https://dc.lft.to/lastmile_qr_scan", "ios": "https://dc.lft.to/lastmile_qr_scan"}, "fusion_lon": 0.0, "lat": 38.93596316666667, "bike_id": "f8c526c6b0897c31e7575666640258fe", "type": "electric_scooter", "is_reserved": 0, "lon": -77.0354625}, {"fusion_lat": 0.0, "name": "78637d4a7815164456c65e579639d2c0", "is_disabled": 0, "rental_uris": {"android": "https://dc.lft.to/lastmile_qr_scan", "ios": "https://dc.lft.to/lastmile_qr_scan"}, "fusion_lon": 0.0, "lat": 38.891738333333336, "bike_id": "78637d4a7815164456c65e579639d2c0", "type": "electric_scooter", "is_reserved": 0, "lon": -76.99942316666667}, {"fusion_lat": 0.0, "name": "42901d3ce72ae4cb08c416ab15130b63", "is_disabled": 0, "rental_uris": {"android": "https://dc.lft.to/lastmile_qr_scan", "ios": "https://dc.lft.to/lastmile_qr_scan"}, "fusion_lon": 0.0, "lat": 38.89222816666667, "bike_id": "42901d3ce72ae4cb08c416ab15130b63", "type": "electric_scooter", "is_reserved": 0, "lon": -77.048018}, {"fusion_lat": 0.0, "name": "e1b1fc21a0fb4e063299e3ee3469e785", "is_disabled": 0, "rental_uris": {"android": "https://dc.lft.to/lastmile_qr_scan", "ios": "https://dc.lft.to/lastmile_qr_scan"}, "fusion_lon": 0.0, "lat": 38.8985735, "bike_id": "e1b1fc21a0fb4e063299e3ee3469e785", "type": "electric_scooter", "is_reserved": 0, "lon": -76.95041983333333}, {"fusion_lat": 0.0, "name": "5fcec2dae56236d20a1d42e626d0fd33", "is_disabled": 0, "rental_uris": {"android": "https://dc.lft.to/lastmile_qr_scan", "ios": "https://dc.lft.to/lastmile_qr_scan"}, "fusion_lon": 0.0, "lat": 38.911081, "bike_id": "5fcec2dae56236d20a1d42e626d0fd33", "type": "electric_scooter", "is_reserved": 0, "lon": -77.04203766666667}, {"fusion_lat": 0.0, "name": "02d621b91a49ae9d6e5662a1b0382865", "is_disabled": 0, "rental_uris": {"android": "https://dc.lft.to/lastmile_qr_scan", "ios": "https://dc.lft.to/lastmile_qr_scan"}, "fusion_lon": 0.0, "lat": 38.921771666666665, "bike_id": "02d621b91a49ae9d6e5662a1b0382865", "type": "electric_scooter", "is_reserved": 0, "lon": -77.03827766666667}, {"fusion_lat": 0.0, "name": "df619294dd7daa52e1615b672515f713", "is_disabled": 0, "rental_uris": {"android": "https://dc.lft.to/lastmile_qr_scan", "ios": "https://dc.lft.to/lastmile_qr_scan"}, "fusion_lon": 0.0, "lat": 38.920636333333334, "bike_id": "df619294dd7daa52e1615b672515f713", "type": "electric_bike", "is_reserved": 0, "lon": -77.2395725}, {"fusion_lat": 0.0, "name": "083f58b5cd84d8b837a5f1a8c03896b6", "is_disabled": 0, "rental_uris": {"android": "https://dc.lft.to/lastmile_qr_scan", "ios": "https://dc.lft.to/lastmile_qr_scan"}, "fusion_lon": 0.0, "lat": 38.9314695, "bike_id": "083f58b5cd84d8b837a5f1a8c03896b6", "type": "electric_scooter", "is_reserved": 0, "lon": -77.021462}, {"fusion_lat": 0.0, "name": "b774622e61ecb51a5892d921ed0c8790", "is_disabled": 0, "rental_uris": {"android": "https://dc.lft.to/lastmile_qr_scan", "ios": "https://dc.lft.to/lastmile_qr_scan"}, "fusion_lon": 0.0, "lat": 38.9264515, "bike_id": "b774622e61ecb51a5892d921ed0c8790", "type": "electric_scooter", "is_reserved": 0, "lon": -77.041463}, {"fusion_lat": 0.0, "name": "4ab4ce0ee54d2df2f2e6f3b549a8863a", "is_disabled": 0, "rental_uris": {"android": "https://dc.lft.to/lastmile_qr_scan", "ios": "https://dc.lft.to/lastmile_qr_scan"}, "fusion_lon": 0.0, "lat": 38.922992, "bike_id": "4ab4ce0ee54d2df2f2e6f3b549a8863a", "type": "electric_scooter", "is_reserved": 0, "lon": -77.04202216666667}, {"fusion_lat": 0.0, "name": "d0d6d0935836a9360ca407cb160cfc29", "is_disabled": 0, "rental_uris": {"android": "https://dc.lft.to/lastmile_qr_scan", "ios": "https://dc.lft.to/lastmile_qr_scan"}, "fusion_lon": 0.0, "lat": 38.902407833333335, "bike_id": "d0d6d0935836a9360ca407cb160cfc29", "type": "electric_scooter", "is_reserved": 0, "lon": -77.0019835}, {"fusion_lat": 0.0, "name": "ead7c8880699c98844edcea1950ddc20", "is_disabled": 0, "rental_uris": {"android": "https://dc.lft.to/lastmile_qr_scan", "ios": "https://dc.lft.to/lastmile_qr_scan"}, "fusion_lon": 0.0, "lat": 38.935388333333336, "bike_id": "ead7c8880699c98844edcea1950ddc20", "type": "electric_scooter", "is_reserved": 0, "lon": -77.02348716666667}, {"fusion_lat": 0.0, "name": "616c5a4a0c2f67600f9539486f78ff9c", "is_disabled": 0, "rental_uris": {"android": "https://dc.lft.to/lastmile_qr_scan", "ios": "https://dc.lft.to/lastmile_qr_scan"}, "fusion_lon": 0.0, "lat": 38.87379266666667, "bike_id": "616c5a4a0c2f67600f9539486f78ff9c", "type": "electric_scooter", "is_reserved": 0, "lon": -77.00061533333333}, {"fusion_lat": 0.0, "name": "8f01470e180110d2f29f2768f9ee5ae8", "is_disabled": 0, "rental_uris": {"android": "https://dc.lft.to/lastmile_qr_scan", "ios": "https://dc.lft.to/lastmile_qr_scan"}, "fusion_lon": 0.0, "lat": 38.92061316666667, "bike_id": "8f01470e180110d2f29f2768f9ee5ae8", "type": "electric_scooter", "is_reserved": 0, "lon": -77.045647}, {"fusion_lat": 0.0, "name": "48faaaf041926a4a0b0099da733af256", "is_disabled": 0, "rental_uris": {"android": "https://dc.lft.to/lastmile_qr_scan", "ios": "https://dc.lft.to/lastmile_qr_scan"}, "fusion_lon": 0.0, "lat": 38.913410666666664, "bike_id": "48faaaf041926a4a0b0099da733af256", "type": "electric_scooter", "is_reserved": 0, "lon": -77.04874016666666}, {"fusion_lat": 0.0, "name": "8ced9a5de7b468047a3b83f0b655856b", "is_disabled": 0, "rental_uris": {"android": "https://dc.lft.to/lastmile_qr_scan", "ios": "https://dc.lft.to/lastmile_qr_scan"}, "fusion_lon": 0.0, "lat": 38.894703, "bike_id": "8ced9a5de7b468047a3b83f0b655856b", "type": "electric_scooter", "is_reserved": 0, "lon": -77.017673}, {"fusion_lat": 0.0, "name": "9dd0cbdb1ba4584c3750039fa6a8f50c", "is_disabled": 0, "rental_uris": {"android": "https://dc.lft.to/lastmile_qr_scan", "ios": "https://dc.lft.to/lastmile_qr_scan"}, "fusion_lon": 0.0, "lat": 38.92333383333333, "bike_id": "9dd0cbdb1ba4584c3750039fa6a8f50c", "type": "electric_scooter", "is_reserved": 0, "lon": -77.03618833333333}, {"fusion_lat": 0.0, "name": "38cfb5556acfe6d10a1788748bfd47de", "is_disabled": 0, "rental_uris": {"android": "https://dc.lft.to/lastmile_qr_scan", "ios": "https://dc.lft.to/lastmile_qr_scan"}, "fusion_lon": 0.0, "lat": 38.91262866666667, "bike_id": "38cfb5556acfe6d10a1788748bfd47de", "type": "electric_scooter", "is_reserved": 0, "lon": -77.0492735}, {"fusion_lat": 0.0, "name": "ab86c308937117ef009c30b9fac1eb6a", "is_disabled": 0, "rental_uris": {"android": "https://dc.lft.to/lastmile_qr_scan", "ios": "https://dc.lft.to/lastmile_qr_scan"}, "fusion_lon": 0.0, "lat": 38.907560833333335, "bike_id": "ab86c308937117ef009c30b9fac1eb6a", "type": "electric_scooter", "is_reserved": 0, "lon": -77.03577166666666}, {"fusion_lat": 0.0, "name": "f1382b86caf6a8902a0f1167f461881e", "is_disabled": 0, "rental_uris": {"android": "https://dc.lft.to/lastmile_qr_scan", "ios": "https://dc.lft.to/lastmile_qr_scan"}, "fusion_lon": 0.0, "lat": 38.95683616666667, "bike_id": "f1382b86caf6a8902a0f1167f461881e", "type": "electric_bike", "is_reserved": 0, "lon": -77.02229516666667}, {"fusion_lat": 0.0, "name": "2cc2c021631c35bef29b078f9919f2bf", "is_disabled": 0, "rental_uris": {"android": "https://dc.lft.to/lastmile_qr_scan", "ios": "https://dc.lft.to/lastmile_qr_scan"}, "fusion_lon": 0.0, "lat": 38.90692083333333, "bike_id": "2cc2c021631c35bef29b078f9919f2bf", "type": "electric_scooter", "is_reserved": 0, "lon": -77.01536883333333}, {"fusion_lat": 0.0, "name": "82c5983615cecd809c364cac9d2497a4", "is_disabled": 0, "rental_uris": {"android": "https://dc.lft.to/lastmile_qr_scan", "ios": "https://dc.lft.to/lastmile_qr_scan"}, "fusion_lon": 0.0, "lat": 38.926326833333334, "bike_id": "82c5983615cecd809c364cac9d2497a4", "type": "electric_scooter", "is_reserved": 0, "lon": -77.041977}, {"fusion_lat": 0.0, "name": "d9948dfb21325b749f1794eade381492", "is_disabled": 0, "rental_uris": {"android": "https://dc.lft.to/lastmile_qr_scan", "ios": "https://dc.lft.to/lastmile_qr_scan"}, "fusion_lon": 0.0, "lat": 38.909671333333335, "bike_id": "d9948dfb21325b749f1794eade381492", "type": "electric_scooter", "is_reserved": 0, "lon": -77.0090525}, {"fusion_lat": 0.0, "name": "4d60f70968ab94dbed28680186c88367", "is_disabled": 0, "rental_uris": {"android": "https://dc.lft.to/lastmile_qr_scan", "ios": "https://dc.lft.to/lastmile_qr_scan"}, "fusion_lon": 0.0, "lat": 38.93358716666667, "bike_id": "4d60f70968ab94dbed28680186c88367", "type": "electric_scooter", "is_reserved": 0, "lon": -77.03886133333333}, {"fusion_lat": 0.0, "name": "d9dd220373b4f545467ffd4dbcc053d6", "is_disabled": 0, "rental_uris": {"android": "https://dc.lft.to/lastmile_qr_scan", "ios": "https://dc.lft.to/lastmile_qr_scan"}, "fusion_lon": 0.0, "lat": 38.83935683333333, "bike_id": "d9dd220373b4f545467ffd4dbcc053d6", "type": "electric_bike", "is_reserved": 0, "lon": -77.07898266666666}, {"fusion_lat": 0.0, "name": "502bc4e7733f08b4dd1109d06d0b6c47", "is_disabled": 0, "rental_uris": {"android": "https://dc.lft.to/lastmile_qr_scan", "ios": "https://dc.lft.to/lastmile_qr_scan"}, "fusion_lon": 0.0, "lat": 38.92600916666667, "bike_id": "502bc4e7733f08b4dd1109d06d0b6c47", "type": "electric_scooter", "is_reserved": 0, "lon": -77.02359766666666}, {"fusion_lat": 0.0, "name": "763733e027118fef29d35738d8304a5a", "is_disabled": 0, "rental_uris": {"android": "https://dc.lft.to/lastmile_qr_scan", "ios": "https://dc.lft.to/lastmile_qr_scan"}, "fusion_lon": 0.0, "lat": 38.90346366666667, "bike_id": "763733e027118fef29d35738d8304a5a", "type": "electric_scooter", "is_reserved": 0, "lon": -76.97256983333334}, {"fusion_lat": 0.0, "name": "7aee44a5e2c81e7b9c1b1984ae61a34c", "is_disabled": 0, "rental_uris": {"android": "https://dc.lft.to/lastmile_qr_scan", "ios": "https://dc.lft.to/lastmile_qr_scan"}, "fusion_lon": 0.0, "lat": 38.93625516666667, "bike_id": "7aee44a5e2c81e7b9c1b1984ae61a34c", "type": "electric_scooter", "is_reserved": 0, "lon": -77.03654083333333}, {"fusion_lat": 0.0, "name": "75703fe4327bff2e18111cf0e95bed34", "is_disabled": 0, "rental_uris": {"android": "https://dc.lft.to/lastmile_qr_scan", "ios": "https://dc.lft.to/lastmile_qr_scan"}, "fusion_lon": 0.0, "lat": 38.903389833333335, "bike_id": "75703fe4327bff2e18111cf0e95bed34", "type": "electric_scooter", "is_reserved": 0, "lon": -77.03875116666667}, {"fusion_lat": 0.0, "name": "269067a1a21fa774bda06bdf15a78b9d", "is_disabled": 0, "rental_uris": {"android": "https://dc.lft.to/lastmile_qr_scan", "ios": "https://dc.lft.to/lastmile_qr_scan"}, "fusion_lon": 0.0, "lat": 38.94140016666667, "bike_id": "269067a1a21fa774bda06bdf15a78b9d", "type": "electric_scooter", "is_reserved": 0, "lon": -77.00607483333333}, {"fusion_lat": 0.0, "name": "1166eda4a99254a7628e87a95659d587", "is_disabled": 0, "rental_uris": {"android": "https://dc.lft.to/lastmile_qr_scan", "ios": "https://dc.lft.to/lastmile_qr_scan"}, "fusion_lon": 0.0, "lat": 38.905488, "bike_id": "1166eda4a99254a7628e87a95659d587", "type": "electric_scooter", "is_reserved": 0, "lon": -77.0366585}, {"fusion_lat": 0.0, "name": "ad7b5cfbed724ce4b41ac9adc1d4055e", "is_disabled": 0, "rental_uris": {"android": "https://dc.lft.to/lastmile_qr_scan", "ios": "https://dc.lft.to/lastmile_qr_scan"}, "fusion_lon": 0.0, "lat": 38.90840933333333, "bike_id": "ad7b5cfbed724ce4b41ac9adc1d4055e", "type": "electric_scooter", "is_reserved": 0, "lon": -77.02690833333334}, {"fusion_lat": 0.0, "name": "4aeffa2b9a949cccc208a9c0d7a2fac4", "is_disabled": 0, "rental_uris": {"android": "https://dc.lft.to/lastmile_qr_scan", "ios": "https://dc.lft.to/lastmile_qr_scan"}, "fusion_lon": 0.0, "lat": 38.87742033333333, "bike_id": "4aeffa2b9a949cccc208a9c0d7a2fac4", "type": "electric_scooter", "is_reserved": 0, "lon": -76.9703525}, {"fusion_lat": 0.0, "name": "7a3d07391aa9e12885e4388a5bcbc8a9", "is_disabled": 0, "rental_uris": {"android": "https://dc.lft.to/lastmile_qr_scan", "ios": "https://dc.lft.to/lastmile_qr_scan"}, "fusion_lon": 0.0, "lat": 38.921553333333335, "bike_id": "7a3d07391aa9e12885e4388a5bcbc8a9", "type": "electric_scooter", "is_reserved": 0, "lon": -77.0367635}, {"fusion_lat": 0.0, "name": "f59233260bc31ecf68d670144d478efb", "is_disabled": 0, "rental_uris": {"android": "https://dc.lft.to/lastmile_qr_scan", "ios": "https://dc.lft.to/lastmile_qr_scan"}, "fusion_lon": 0.0, "lat": 38.984713166666666, "bike_id": "f59233260bc31ecf68d670144d478efb", "type": "electric_scooter", "is_reserved": 0, "lon": -77.0263955}, {"fusion_lat": 0.0, "name": "62bcfef216457b7607e6c28599e55299", "is_disabled": 0, "rental_uris": {"android": "https://dc.lft.to/lastmile_qr_scan", "ios": "https://dc.lft.to/lastmile_qr_scan"}, "fusion_lon": 0.0, "lat": 38.99226816666667, "bike_id": "62bcfef216457b7607e6c28599e55299", "type": "electric_bike", "is_reserved": 0, "lon": -76.94404116666666}, {"fusion_lat": 0.0, "name": "9a0aba5583cccd4d744625940c0856f6", "is_disabled": 0, "rental_uris": {"android": "https://dc.lft.to/lastmile_qr_scan", "ios": "https://dc.lft.to/lastmile_qr_scan"}, "fusion_lon": 0.0, "lat": 38.92135483333333, "bike_id": "9a0aba5583cccd4d744625940c0856f6", "type": "electric_scooter", "is_reserved": 0, "lon": -77.00401816666667}, {"fusion_lat": 0.0, "name": "2f5e37b22501c9e2a8a320defea4315c", "is_disabled": 0, "rental_uris": {"android": "https://dc.lft.to/lastmile_qr_scan", "ios": "https://dc.lft.to/lastmile_qr_scan"}, "fusion_lon": 0.0, "lat": 38.90971716666667, "bike_id": "2f5e37b22501c9e2a8a320defea4315c", "type": "electric_scooter", "is_reserved": 0, "lon": -77.04613716666667}, {"fusion_lat": 0.0, "name": "baaa0dd02560e61377a4cb658e5bcdf0", "is_disabled": 0, "rental_uris": {"android": "https://dc.lft.to/lastmile_qr_scan", "ios": "https://dc.lft.to/lastmile_qr_scan"}, "fusion_lon": 0.0, "lat": 38.919785833333336, "bike_id": "baaa0dd02560e61377a4cb658e5bcdf0", "type": "electric_scooter", "is_reserved": 0, "lon": -77.040875}, {"fusion_lat": 0.0, "name": "2ae16f6c36935bd5f576e1a6d3e1fc1b", "is_disabled": 0, "rental_uris": {"android": "https://dc.lft.to/lastmile_qr_scan", "ios": "https://dc.lft.to/lastmile_qr_scan"}, "fusion_lon": 0.0, "lat": 38.842832, "bike_id": "2ae16f6c36935bd5f576e1a6d3e1fc1b", "type": "electric_bike", "is_reserved": 0, "lon": -77.04490283333334}, {"fusion_lat": 0.0, "name": "36a557d52691e3542222ebf14a3b4d6e", "is_disabled": 0, "rental_uris": {"android": "https://dc.lft.to/lastmile_qr_scan", "ios": "https://dc.lft.to/lastmile_qr_scan"}, "fusion_lon": 0.0, "lat": 38.908205333333335, "bike_id": "36a557d52691e3542222ebf14a3b4d6e", "type": "electric_scooter", "is_reserved": 0, "lon": -77.04291466666666}, {"fusion_lat": 0.0, "name": "68132eab6ba258601e6b9146a736a819", "is_disabled": 0, "rental_uris": {"android": "https://dc.lft.to/lastmile_qr_scan", "ios": "https://dc.lft.to/lastmile_qr_scan"}, "fusion_lon": 0.0, "lat": 38.9033075, "bike_id": "68132eab6ba258601e6b9146a736a819", "type": "electric_bike", "is_reserved": 0, "lon": -76.97526366666666}, {"fusion_lat": 0.0, "name": "6330440417bc8be5007156e7f2954e96", "is_disabled": 0, "rental_uris": {"android": "https://dc.lft.to/lastmile_qr_scan", "ios": "https://dc.lft.to/lastmile_qr_scan"}, "fusion_lon": 0.0, "lat": 38.904544, "bike_id": "6330440417bc8be5007156e7f2954e96", "type": "electric_scooter", "is_reserved": 0, "lon": -77.02000333333334}, {"fusion_lat": 0.0, "name": "0969984f9a57d168623eae2e2535b633", "is_disabled": 0, "rental_uris": {"android": "https://dc.lft.to/lastmile_qr_scan", "ios": "https://dc.lft.to/lastmile_qr_scan"}, "fusion_lon": 0.0, "lat": 38.9358535, "bike_id": "0969984f9a57d168623eae2e2535b633", "type": "electric_scooter", "is_reserved": 0, "lon": -77.0284315}, {"fusion_lat": 0.0, "name": "2efb625f9eedbb48b6a3867c47a6181b", "is_disabled": 0, "rental_uris": {"android": "https://dc.lft.to/lastmile_qr_scan", "ios": "https://dc.lft.to/lastmile_qr_scan"}, "fusion_lon": 0.0, "lat": 38.936364166666664, "bike_id": "2efb625f9eedbb48b6a3867c47a6181b", "type": "electric_scooter", "is_reserved": 0, "lon": -77.03671666666666}, {"fusion_lat": 0.0, "name": "20718bc05c77aab1aa15e3017f2d23ce", "is_disabled": 0, "rental_uris": {"android": "https://dc.lft.to/lastmile_qr_scan", "ios": "https://dc.lft.to/lastmile_qr_scan"}, "fusion_lon": 0.0, "lat": 38.857150833333336, "bike_id": "20718bc05c77aab1aa15e3017f2d23ce", "type": "electric_bike", "is_reserved": 0, "lon": -77.05349616666666}, {"fusion_lat": 0.0, "name": "069ff0d1d651c8b76dd10c5ee501fca6", "is_disabled": 0, "rental_uris": {"android": "https://dc.lft.to/lastmile_qr_scan", "ios": "https://dc.lft.to/lastmile_qr_scan"}, "fusion_lon": 0.0, "lat": 38.928138, "bike_id": "069ff0d1d651c8b76dd10c5ee501fca6", "type": "electric_scooter", "is_reserved": 0, "lon": -77.02329783333333}, {"fusion_lat": 0.0, "name": "53ba338464e3a4df56d18f7497cdec74", "is_disabled": 0, "rental_uris": {"android": "https://dc.lft.to/lastmile_qr_scan", "ios": "https://dc.lft.to/lastmile_qr_scan"}, "fusion_lon": 0.0, "lat": 38.892317, "bike_id": "53ba338464e3a4df56d18f7497cdec74", "type": "electric_scooter", "is_reserved": 0, "lon": -77.04649883333333}, {"fusion_lat": 0.0, "name": "1544375695d4f94e7acc845def7338f8", "is_disabled": 0, "rental_uris": {"android": "https://dc.lft.to/lastmile_qr_scan", "ios": "https://dc.lft.to/lastmile_qr_scan"}, "fusion_lon": 0.0, "lat": 38.907341833333334, "bike_id": "1544375695d4f94e7acc845def7338f8", "type": "electric_scooter", "is_reserved": 0, "lon": -77.03455116666666}, {"fusion_lat": 0.0, "name": "75ec460f6454c458cb454a9003b92a57", "is_disabled": 0, "rental_uris": {"android": "https://dc.lft.to/lastmile_qr_scan", "ios": "https://dc.lft.to/lastmile_qr_scan"}, "fusion_lon": 0.0, "lat": 38.92754383333333, "bike_id": "75ec460f6454c458cb454a9003b92a57", "type": "electric_scooter", "is_reserved": 0, "lon": -77.02447016666666}, {"fusion_lat": 0.0, "name": "2221899799fda40ea6f4485beaf920b5", "is_disabled": 0, "rental_uris": {"android": "https://dc.lft.to/lastmile_qr_scan", "ios": "https://dc.lft.to/lastmile_qr_scan"}, "fusion_lon": 0.0, "lat": 38.9221865, "bike_id": "2221899799fda40ea6f4485beaf920b5", "type": "electric_scooter", "is_reserved": 0, "lon": -76.9963705}, {"fusion_lat": 0.0, "name": "d878529ea0ee217cc5a90cd7caa8b0b7", "is_disabled": 0, "rental_uris": {"android": "https://dc.lft.to/lastmile_qr_scan", "ios": "https://dc.lft.to/lastmile_qr_scan"}, "fusion_lon": 0.0, "lat": 38.9019465, "bike_id": "d878529ea0ee217cc5a90cd7caa8b0b7", "type": "electric_scooter", "is_reserved": 0, "lon": -77.05054266666667}, {"fusion_lat": 0.0, "name": "20b8461410567577e165bc6190639a77", "is_disabled": 0, "rental_uris": {"android": "https://dc.lft.to/lastmile_qr_scan", "ios": "https://dc.lft.to/lastmile_qr_scan"}, "fusion_lon": 0.0, "lat": 38.9110995, "bike_id": "20b8461410567577e165bc6190639a77", "type": "electric_scooter", "is_reserved": 0, "lon": -77.00999583333333}, {"fusion_lat": 0.0, "name": "b80cc991df553e6c15755e3067740013", "is_disabled": 0, "rental_uris": {"android": "https://dc.lft.to/lastmile_qr_scan", "ios": "https://dc.lft.to/lastmile_qr_scan"}, "fusion_lon": 0.0, "lat": 38.943294, "bike_id": "b80cc991df553e6c15755e3067740013", "type": "electric_scooter", "is_reserved": 0, "lon": -77.01552616666666}, {"fusion_lat": 0.0, "name": "d517c478b04b5a267a2cc91d41927586", "is_disabled": 0, "rental_uris": {"android": "https://dc.lft.to/lastmile_qr_scan", "ios": "https://dc.lft.to/lastmile_qr_scan"}, "fusion_lon": 0.0, "lat": 38.920118, "bike_id": "d517c478b04b5a267a2cc91d41927586", "type": "electric_bike", "is_reserved": 0, "lon": -76.990685}, {"fusion_lat": 0.0, "name": "66c9bcc10b8d525825fba2db9adbdce8", "is_disabled": 0, "rental_uris": {"android": "https://dc.lft.to/lastmile_qr_scan", "ios": "https://dc.lft.to/lastmile_qr_scan"}, "fusion_lon": 0.0, "lat": 38.8996895, "bike_id": "66c9bcc10b8d525825fba2db9adbdce8", "type": "electric_scooter", "is_reserved": 0, "lon": -77.0527025}, {"fusion_lat": 0.0, "name": "e57c07f2b4ec0b69251048f7668a69df", "is_disabled": 0, "rental_uris": {"android": "https://dc.lft.to/lastmile_qr_scan", "ios": "https://dc.lft.to/lastmile_qr_scan"}, "fusion_lon": 0.0, "lat": 38.896124, "bike_id": "e57c07f2b4ec0b69251048f7668a69df", "type": "electric_scooter", "is_reserved": 0, "lon": -76.98106216666666}, {"fusion_lat": 0.0, "name": "b68ea091223ad505b4ca88ce64e068a4", "is_disabled": 0, "rental_uris": {"android": "https://dc.lft.to/lastmile_qr_scan", "ios": "https://dc.lft.to/lastmile_qr_scan"}, "fusion_lon": 0.0, "lat": 38.924767, "bike_id": "b68ea091223ad505b4ca88ce64e068a4", "type": "electric_scooter", "is_reserved": 0, "lon": -77.02666816666667}, {"fusion_lat": 0.0, "name": "c24b2356e411a71e7cff2cfae4e08b26", "is_disabled": 0, "rental_uris": {"android": "https://dc.lft.to/lastmile_qr_scan", "ios": "https://dc.lft.to/lastmile_qr_scan"}, "fusion_lon": 0.0, "lat": 38.890157333333335, "bike_id": "c24b2356e411a71e7cff2cfae4e08b26", "type": "electric_scooter", "is_reserved": 0, "lon": -76.93736583333333}, {"fusion_lat": 0.0, "name": "7b1c0da3bb0f15197dd742085dbff1cc", "is_disabled": 0, "rental_uris": {"android": "https://dc.lft.to/lastmile_qr_scan", "ios": "https://dc.lft.to/lastmile_qr_scan"}, "fusion_lon": 0.0, "lat": 38.90263433333333, "bike_id": "7b1c0da3bb0f15197dd742085dbff1cc", "type": "electric_scooter", "is_reserved": 0, "lon": -77.00325666666667}, {"fusion_lat": 0.0, "name": "b004a262cb434dcd8b956ebccfa8a83a", "is_disabled": 0, "rental_uris": {"android": "https://dc.lft.to/lastmile_qr_scan", "ios": "https://dc.lft.to/lastmile_qr_scan"}, "fusion_lon": 0.0, "lat": 38.9253255, "bike_id": "b004a262cb434dcd8b956ebccfa8a83a", "type": "electric_scooter", "is_reserved": 0, "lon": -77.03487166666666}, {"fusion_lat": 0.0, "name": "95fdcbf52ffd0b6daa7f226dc46c81b0", "is_disabled": 0, "rental_uris": {"android": "https://dc.lft.to/lastmile_qr_scan", "ios": "https://dc.lft.to/lastmile_qr_scan"}, "fusion_lon": 0.0, "lat": 38.905969999999996, "bike_id": "95fdcbf52ffd0b6daa7f226dc46c81b0", "type": "electric_scooter", "is_reserved": 0, "lon": -77.00729416666667}, {"fusion_lat": 0.0, "name": "d72d53e9472e3a2c62cb3cd7c91d3483", "is_disabled": 0, "rental_uris": {"android": "https://dc.lft.to/lastmile_qr_scan", "ios": "https://dc.lft.to/lastmile_qr_scan"}, "fusion_lon": 0.0, "lat": 38.922357833333336, "bike_id": "d72d53e9472e3a2c62cb3cd7c91d3483", "type": "electric_scooter", "is_reserved": 0, "lon": -77.035216}, {"fusion_lat": 0.0, "name": "d065a8dfeaff681743e4bfd37dac907a", "is_disabled": 0, "rental_uris": {"android": "https://dc.lft.to/lastmile_qr_scan", "ios": "https://dc.lft.to/lastmile_qr_scan"}, "fusion_lon": 0.0, "lat": 38.892183833333334, "bike_id": "d065a8dfeaff681743e4bfd37dac907a", "type": "electric_scooter", "is_reserved": 0, "lon": -77.04875383333334}, {"fusion_lat": 0.0, "name": "2474ca8521a19688ed1a2074bd2adcfd", "is_disabled": 0, "rental_uris": {"android": "https://dc.lft.to/lastmile_qr_scan", "ios": "https://dc.lft.to/lastmile_qr_scan"}, "fusion_lon": 0.0, "lat": 38.9170615, "bike_id": "2474ca8521a19688ed1a2074bd2adcfd", "type": "electric_scooter", "is_reserved": 0, "lon": -77.04205866666666}, {"fusion_lat": 0.0, "name": "3d10caad362655d3aed7e9b670c2ce67", "is_disabled": 0, "rental_uris": {"android": "https://dc.lft.to/lastmile_qr_scan", "ios": "https://dc.lft.to/lastmile_qr_scan"}, "fusion_lon": 0.0, "lat": 38.93206466666667, "bike_id": "3d10caad362655d3aed7e9b670c2ce67", "type": "electric_scooter", "is_reserved": 0, "lon": -77.036627}, {"fusion_lat": 0.0, "name": "1f985369af3b7267b4e9eed275d2d713", "is_disabled": 0, "rental_uris": {"android": "https://dc.lft.to/lastmile_qr_scan", "ios": "https://dc.lft.to/lastmile_qr_scan"}, "fusion_lon": 0.0, "lat": 38.88704233333333, "bike_id": "1f985369af3b7267b4e9eed275d2d713", "type": "electric_scooter", "is_reserved": 0, "lon": -76.99675933333333}, {"fusion_lat": 0.0, "name": "1ff4b9e2fd73ae149051c8882549aef9", "is_disabled": 0, "rental_uris": {"android": "https://dc.lft.to/lastmile_qr_scan", "ios": "https://dc.lft.to/lastmile_qr_scan"}, "fusion_lon": 0.0, "lat": 38.895451333333334, "bike_id": "1ff4b9e2fd73ae149051c8882549aef9", "type": "electric_scooter", "is_reserved": 0, "lon": -76.98335616666667}, {"fusion_lat": 0.0, "name": "ae3b06d18f983ba9e2a720739d95c5f9", "is_disabled": 0, "rental_uris": {"android": "https://dc.lft.to/lastmile_qr_scan", "ios": "https://dc.lft.to/lastmile_qr_scan"}, "fusion_lon": 0.0, "lat": 38.9344135, "bike_id": "ae3b06d18f983ba9e2a720739d95c5f9", "type": "electric_scooter", "is_reserved": 0, "lon": -77.03872666666666}, {"fusion_lat": 0.0, "name": "790a1e3dcc762895bef923fbf9f3c0a2", "is_disabled": 0, "rental_uris": {"android": "https://dc.lft.to/lastmile_qr_scan", "ios": "https://dc.lft.to/lastmile_qr_scan"}, "fusion_lon": 0.0, "lat": 38.89744266666666, "bike_id": "790a1e3dcc762895bef923fbf9f3c0a2", "type": "electric_scooter", "is_reserved": 0, "lon": -77.00197916666667}, {"fusion_lat": 0.0, "name": "05aeee3e23feff33240945b5a1132c2d", "is_disabled": 0, "rental_uris": {"android": "https://dc.lft.to/lastmile_qr_scan", "ios": "https://dc.lft.to/lastmile_qr_scan"}, "fusion_lon": 0.0, "lat": 38.8838505, "bike_id": "05aeee3e23feff33240945b5a1132c2d", "type": "electric_scooter", "is_reserved": 0, "lon": -76.93044666666667}, {"fusion_lat": 0.0, "name": "15040c8e1ce943244642283e6108c425", "is_disabled": 0, "rental_uris": {"android": "https://dc.lft.to/lastmile_qr_scan", "ios": "https://dc.lft.to/lastmile_qr_scan"}, "fusion_lon": 0.0, "lat": 38.936753833333334, "bike_id": "15040c8e1ce943244642283e6108c425", "type": "electric_scooter", "is_reserved": 0, "lon": -77.03638733333334}, {"fusion_lat": 0.0, "name": "732d6916e9ddc939de1c49b621946b3a", "is_disabled": 0, "rental_uris": {"android": "https://dc.lft.to/lastmile_qr_scan", "ios": "https://dc.lft.to/lastmile_qr_scan"}, "fusion_lon": 0.0, "lat": 38.92872116666667, "bike_id": "732d6916e9ddc939de1c49b621946b3a", "type": "electric_scooter", "is_reserved": 0, "lon": -77.07338566666667}, {"fusion_lat": 0.0, "name": "161a1c3cc2da647475ec38859a49dd03", "is_disabled": 0, "rental_uris": {"android": "https://dc.lft.to/lastmile_qr_scan", "ios": "https://dc.lft.to/lastmile_qr_scan"}, "fusion_lon": 0.0, "lat": 38.86265, "bike_id": "161a1c3cc2da647475ec38859a49dd03", "type": "electric_bike", "is_reserved": 0, "lon": -76.983493}, {"fusion_lat": 0.0, "name": "521263a0622f9ef02d9122c6aefd9bba", "is_disabled": 0, "rental_uris": {"android": "https://dc.lft.to/lastmile_qr_scan", "ios": "https://dc.lft.to/lastmile_qr_scan"}, "fusion_lon": 0.0, "lat": 38.900430666666665, "bike_id": "521263a0622f9ef02d9122c6aefd9bba", "type": "electric_scooter", "is_reserved": 0, "lon": -77.01620516666667}, {"fusion_lat": 0.0, "name": "e3d47ae41660d45a77bd01a1eb4773f0", "is_disabled": 0, "rental_uris": {"android": "https://dc.lft.to/lastmile_qr_scan", "ios": "https://dc.lft.to/lastmile_qr_scan"}, "fusion_lon": 0.0, "lat": 38.910223, "bike_id": "e3d47ae41660d45a77bd01a1eb4773f0", "type": "electric_scooter", "is_reserved": 0, "lon": -77.052759}, {"fusion_lat": 0.0, "name": "5aceb81492849a783e64ae2f2030f1c8", "is_disabled": 0, "rental_uris": {"android": "https://dc.lft.to/lastmile_qr_scan", "ios": "https://dc.lft.to/lastmile_qr_scan"}, "fusion_lon": 0.0, "lat": 38.927765, "bike_id": "5aceb81492849a783e64ae2f2030f1c8", "type": "electric_scooter", "is_reserved": 0, "lon": -77.02731016666667}, {"fusion_lat": 0.0, "name": "707c918f71072929c6398ca6d57dfe9b", "is_disabled": 0, "rental_uris": {"android": "https://dc.lft.to/lastmile_qr_scan", "ios": "https://dc.lft.to/lastmile_qr_scan"}, "fusion_lon": 0.0, "lat": 38.841941166666665, "bike_id": "707c918f71072929c6398ca6d57dfe9b", "type": "electric_bike", "is_reserved": 0, "lon": -77.077586}, {"fusion_lat": 0.0, "name": "58d0bdc3c5214c6ee4fe3d739c91dc11", "is_disabled": 0, "rental_uris": {"android": "https://dc.lft.to/lastmile_qr_scan", "ios": "https://dc.lft.to/lastmile_qr_scan"}, "fusion_lon": 0.0, "lat": 38.88354416666667, "bike_id": "58d0bdc3c5214c6ee4fe3d739c91dc11", "type": "electric_scooter", "is_reserved": 0, "lon": -77.0135635}, {"fusion_lat": 0.0, "name": "4d494ff1109fcf9546ed2c4bba5d5b8f", "is_disabled": 0, "rental_uris": {"android": "https://dc.lft.to/lastmile_qr_scan", "ios": "https://dc.lft.to/lastmile_qr_scan"}, "fusion_lon": 0.0, "lat": 38.919233, "bike_id": "4d494ff1109fcf9546ed2c4bba5d5b8f", "type": "electric_scooter", "is_reserved": 0, "lon": -77.0266335}, {"fusion_lat": 0.0, "name": "74649cb167d788878110c8735a7bad87", "is_disabled": 0, "rental_uris": {"android": "https://dc.lft.to/lastmile_qr_scan", "ios": "https://dc.lft.to/lastmile_qr_scan"}, "fusion_lon": 0.0, "lat": 38.92269666666667, "bike_id": "74649cb167d788878110c8735a7bad87", "type": "electric_scooter", "is_reserved": 0, "lon": -77.035248}, {"fusion_lat": 0.0, "name": "36cffd441dcbac83011a6b70259c26c5", "is_disabled": 0, "rental_uris": {"android": "https://dc.lft.to/lastmile_qr_scan", "ios": "https://dc.lft.to/lastmile_qr_scan"}, "fusion_lon": 0.0, "lat": 38.905219, "bike_id": "36cffd441dcbac83011a6b70259c26c5", "type": "electric_scooter", "is_reserved": 0, "lon": -77.06795016666666}, {"fusion_lat": 0.0, "name": "1b9a70435074bad2f4c0dc0d8f6a71fc", "is_disabled": 0, "rental_uris": {"android": "https://dc.lft.to/lastmile_qr_scan", "ios": "https://dc.lft.to/lastmile_qr_scan"}, "fusion_lon": 0.0, "lat": 38.9303165, "bike_id": "1b9a70435074bad2f4c0dc0d8f6a71fc", "type": "electric_scooter", "is_reserved": 0, "lon": -77.03797916666667}, {"fusion_lat": 0.0, "name": "0243c52b36c731399998dfdcdbb25c16", "is_disabled": 0, "rental_uris": {"android": "https://dc.lft.to/lastmile_qr_scan", "ios": "https://dc.lft.to/lastmile_qr_scan"}, "fusion_lon": 0.0, "lat": 38.92044716666667, "bike_id": "0243c52b36c731399998dfdcdbb25c16", "type": "electric_scooter", "is_reserved": 0, "lon": -77.03408483333334}, {"fusion_lat": 0.0, "name": "81877211530b7646e39b8d0eb891f8ed", "is_disabled": 0, "rental_uris": {"android": "https://dc.lft.to/lastmile_qr_scan", "ios": "https://dc.lft.to/lastmile_qr_scan"}, "fusion_lon": 0.0, "lat": 38.89224033333333, "bike_id": "81877211530b7646e39b8d0eb891f8ed", "type": "electric_scooter", "is_reserved": 0, "lon": -77.03223183333333}, {"fusion_lat": 0.0, "name": "adb82f80d34c9c8b576fc433e7343ff6", "is_disabled": 0, "rental_uris": {"android": "https://dc.lft.to/lastmile_qr_scan", "ios": "https://dc.lft.to/lastmile_qr_scan"}, "fusion_lon": 0.0, "lat": 38.9013035, "bike_id": "adb82f80d34c9c8b576fc433e7343ff6", "type": "electric_scooter", "is_reserved": 0, "lon": -77.04492583333334}, {"fusion_lat": 0.0, "name": "bdc65637f82f7d6fd0ed4369b1a38d00", "is_disabled": 0, "rental_uris": {"android": "https://dc.lft.to/lastmile_qr_scan", "ios": "https://dc.lft.to/lastmile_qr_scan"}, "fusion_lon": 0.0, "lat": 38.922601666666665, "bike_id": "bdc65637f82f7d6fd0ed4369b1a38d00", "type": "electric_scooter", "is_reserved": 0, "lon": -77.0748295}, {"fusion_lat": 0.0, "name": "1207899f14940eb04e40ad5f6cdc0a64", "is_disabled": 0, "rental_uris": {"android": "https://dc.lft.to/lastmile_qr_scan", "ios": "https://dc.lft.to/lastmile_qr_scan"}, "fusion_lon": 0.0, "lat": 38.9309265, "bike_id": "1207899f14940eb04e40ad5f6cdc0a64", "type": "electric_scooter", "is_reserved": 0, "lon": -77.01995633333334}, {"fusion_lat": 0.0, "name": "179cdd06a2277dc560bf1b9b99c769f4", "is_disabled": 0, "rental_uris": {"android": "https://dc.lft.to/lastmile_qr_scan", "ios": "https://dc.lft.to/lastmile_qr_scan"}, "fusion_lon": 0.0, "lat": 38.917655833333335, "bike_id": "179cdd06a2277dc560bf1b9b99c769f4", "type": "electric_scooter", "is_reserved": 0, "lon": -77.01760083333333}, {"fusion_lat": 0.0, "name": "f8437e7c0c18fc441dc46ee7d70bbe9e", "is_disabled": 0, "rental_uris": {"android": "https://dc.lft.to/lastmile_qr_scan", "ios": "https://dc.lft.to/lastmile_qr_scan"}, "fusion_lon": 0.0, "lat": 38.932059, "bike_id": "f8437e7c0c18fc441dc46ee7d70bbe9e", "type": "electric_scooter", "is_reserved": 0, "lon": -77.03668833333333}, {"fusion_lat": 0.0, "name": "7f10431910e007f2927a46246b0e4f2e", "is_disabled": 0, "rental_uris": {"android": "https://dc.lft.to/lastmile_qr_scan", "ios": "https://dc.lft.to/lastmile_qr_scan"}, "fusion_lon": 0.0, "lat": 38.90167983333333, "bike_id": "7f10431910e007f2927a46246b0e4f2e", "type": "electric_scooter", "is_reserved": 0, "lon": -76.99264016666666}, {"fusion_lat": 0.0, "name": "c6928a12eff107022dc3e998a9480d54", "is_disabled": 0, "rental_uris": {"android": "https://dc.lft.to/lastmile_qr_scan", "ios": "https://dc.lft.to/lastmile_qr_scan"}, "fusion_lon": 0.0, "lat": 38.92845633333334, "bike_id": "c6928a12eff107022dc3e998a9480d54", "type": "electric_bike", "is_reserved": 0, "lon": -77.02058616666666}, {"fusion_lat": 0.0, "name": "e3ae861d3df7ed25c79b88beb39ea481", "is_disabled": 0, "rental_uris": {"android": "https://dc.lft.to/lastmile_qr_scan", "ios": "https://dc.lft.to/lastmile_qr_scan"}, "fusion_lon": 0.0, "lat": 38.902393833333335, "bike_id": "e3ae861d3df7ed25c79b88beb39ea481", "type": "electric_scooter", "is_reserved": 0, "lon": -77.00195783333334}, {"fusion_lat": 0.0, "name": "f3bd9e3bab3faaff6614f84436586017", "is_disabled": 0, "rental_uris": {"android": "https://dc.lft.to/lastmile_qr_scan", "ios": "https://dc.lft.to/lastmile_qr_scan"}, "fusion_lon": 0.0, "lat": 38.92240566666667, "bike_id": "f3bd9e3bab3faaff6614f84436586017", "type": "electric_scooter", "is_reserved": 0, "lon": -77.02913166666667}, {"fusion_lat": 0.0, "name": "09e229dacfcec3969079ed85b7a9ed10", "is_disabled": 0, "rental_uris": {"android": "https://dc.lft.to/lastmile_qr_scan", "ios": "https://dc.lft.to/lastmile_qr_scan"}, "fusion_lon": 0.0, "lat": 38.8922835, "bike_id": "09e229dacfcec3969079ed85b7a9ed10", "type": "electric_scooter", "is_reserved": 0, "lon": -76.98816816666667}, {"fusion_lat": 0.0, "name": "fdf334888d516fcc618d09c0ce1b0520", "is_disabled": 0, "rental_uris": {"android": "https://dc.lft.to/lastmile_qr_scan", "ios": "https://dc.lft.to/lastmile_qr_scan"}, "fusion_lon": 0.0, "lat": 38.89621233333333, "bike_id": "fdf334888d516fcc618d09c0ce1b0520", "type": "electric_scooter", "is_reserved": 0, "lon": -77.04491133333333}, {"fusion_lat": 0.0, "name": "23dc2f257cc824470704032af537f267", "is_disabled": 0, "rental_uris": {"android": "https://dc.lft.to/lastmile_qr_scan", "ios": "https://dc.lft.to/lastmile_qr_scan"}, "fusion_lon": 0.0, "lat": 38.92171466666667, "bike_id": "23dc2f257cc824470704032af537f267", "type": "electric_scooter", "is_reserved": 0, "lon": -77.0400865}, {"fusion_lat": 0.0, "name": "0d2fbaf8e5f15c115db38bf595df6cfe", "is_disabled": 0, "rental_uris": {"android": "https://dc.lft.to/lastmile_qr_scan", "ios": "https://dc.lft.to/lastmile_qr_scan"}, "fusion_lon": 0.0, "lat": 38.871107, "bike_id": "0d2fbaf8e5f15c115db38bf595df6cfe", "type": "electric_scooter", "is_reserved": 0, "lon": -77.00567116666667}, {"fusion_lat": 0.0, "name": "fd57759b4e10e30f7983c2b6a1b21a61", "is_disabled": 0, "rental_uris": {"android": "https://dc.lft.to/lastmile_qr_scan", "ios": "https://dc.lft.to/lastmile_qr_scan"}, "fusion_lon": 0.0, "lat": 38.806765166666665, "bike_id": "fd57759b4e10e30f7983c2b6a1b21a61", "type": "electric_bike", "is_reserved": 0, "lon": -77.06909733333333}, {"fusion_lat": 0.0, "name": "4b1eafaf21044a3d5bccca58ace34d93", "is_disabled": 0, "rental_uris": {"android": "https://dc.lft.to/lastmile_qr_scan", "ios": "https://dc.lft.to/lastmile_qr_scan"}, "fusion_lon": 0.0, "lat": 38.9051485, "bike_id": "4b1eafaf21044a3d5bccca58ace34d93", "type": "electric_scooter", "is_reserved": 0, "lon": -77.00907933333333}, {"fusion_lat": 0.0, "name": "9713c15052abd0d75d8405045f43e666", "is_disabled": 0, "rental_uris": {"android": "https://dc.lft.to/lastmile_qr_scan", "ios": "https://dc.lft.to/lastmile_qr_scan"}, "fusion_lon": 0.0, "lat": 38.906912, "bike_id": "9713c15052abd0d75d8405045f43e666", "type": "electric_scooter", "is_reserved": 0, "lon": -77.05050783333333}, {"fusion_lat": 0.0, "name": "cbf700f1fe3078d8ff89910c5f0885ed", "is_disabled": 0, "rental_uris": {"android": "https://dc.lft.to/lastmile_qr_scan", "ios": "https://dc.lft.to/lastmile_qr_scan"}, "fusion_lon": 0.0, "lat": 38.937449, "bike_id": "cbf700f1fe3078d8ff89910c5f0885ed", "type": "electric_scooter", "is_reserved": 0, "lon": -77.03586683333333}, {"fusion_lat": 0.0, "name": "655c4a06b977987dc6d984c90f017ba9", "is_disabled": 0, "rental_uris": {"android": "https://dc.lft.to/lastmile_qr_scan", "ios": "https://dc.lft.to/lastmile_qr_scan"}, "fusion_lon": 0.0, "lat": 38.987842, "bike_id": "655c4a06b977987dc6d984c90f017ba9", "type": "electric_bike", "is_reserved": 0, "lon": -77.14096283333333}, {"fusion_lat": 0.0, "name": "03b9849b07650f1a066f20fdbd2973f8", "is_disabled": 0, "rental_uris": {"android": "https://dc.lft.to/lastmile_qr_scan", "ios": "https://dc.lft.to/lastmile_qr_scan"}, "fusion_lon": 0.0, "lat": 38.94156616666667, "bike_id": "03b9849b07650f1a066f20fdbd2973f8", "type": "electric_bike", "is_reserved": 0, "lon": -77.00192216666666}, {"fusion_lat": 0.0, "name": "0c640778f4d7f669981838caf1979595", "is_disabled": 0, "rental_uris": {"android": "https://dc.lft.to/lastmile_qr_scan", "ios": "https://dc.lft.to/lastmile_qr_scan"}, "fusion_lon": 0.0, "lat": 38.87374033333333, "bike_id": "0c640778f4d7f669981838caf1979595", "type": "electric_scooter", "is_reserved": 0, "lon": -77.00115866666667}, {"fusion_lat": 0.0, "name": "5de16d2437585b6c1cec0a1da35db075", "is_disabled": 0, "rental_uris": {"android": "https://dc.lft.to/lastmile_qr_scan", "ios": "https://dc.lft.to/lastmile_qr_scan"}, "fusion_lon": 0.0, "lat": 38.916926833333335, "bike_id": "5de16d2437585b6c1cec0a1da35db075", "type": "electric_scooter", "is_reserved": 0, "lon": -77.02594533333334}, {"fusion_lat": 0.0, "name": "28826632876d7e28ee891f346712d8c0", "is_disabled": 0, "rental_uris": {"android": "https://dc.lft.to/lastmile_qr_scan", "ios": "https://dc.lft.to/lastmile_qr_scan"}, "fusion_lon": 0.0, "lat": 38.90875116666667, "bike_id": "28826632876d7e28ee891f346712d8c0", "type": "electric_scooter", "is_reserved": 0, "lon": -77.02370183333333}, {"fusion_lat": 0.0, "name": "a7bb87a674736a5bd9c9fe67910b0711", "is_disabled": 0, "rental_uris": {"android": "https://dc.lft.to/lastmile_qr_scan", "ios": "https://dc.lft.to/lastmile_qr_scan"}, "fusion_lon": 0.0, "lat": 38.904393666666664, "bike_id": "a7bb87a674736a5bd9c9fe67910b0711", "type": "electric_scooter", "is_reserved": 0, "lon": -77.0587045}, {"fusion_lat": 0.0, "name": "dba98156be231aec95051950740a3e80", "is_disabled": 0, "rental_uris": {"android": "https://dc.lft.to/lastmile_qr_scan", "ios": "https://dc.lft.to/lastmile_qr_scan"}, "fusion_lon": 0.0, "lat": 38.94166083333333, "bike_id": "dba98156be231aec95051950740a3e80", "type": "electric_bike", "is_reserved": 0, "lon": -76.966458}, {"fusion_lat": 0.0, "name": "1c7478f45fa0651b2218f3ba9bf1d19f", "is_disabled": 0, "rental_uris": {"android": "https://dc.lft.to/lastmile_qr_scan", "ios": "https://dc.lft.to/lastmile_qr_scan"}, "fusion_lon": 0.0, "lat": 38.88716466666666, "bike_id": "1c7478f45fa0651b2218f3ba9bf1d19f", "type": "electric_scooter", "is_reserved": 0, "lon": -77.02581616666667}, {"fusion_lat": 0.0, "name": "d4976cae01596c162342fd3d44b67103", "is_disabled": 0, "rental_uris": {"android": "https://dc.lft.to/lastmile_qr_scan", "ios": "https://dc.lft.to/lastmile_qr_scan"}, "fusion_lon": 0.0, "lat": 38.92389816666667, "bike_id": "d4976cae01596c162342fd3d44b67103", "type": "electric_scooter", "is_reserved": 0, "lon": -77.0353005}, {"fusion_lat": 0.0, "name": "6cadbca63e62f8897628814a744279d6", "is_disabled": 0, "rental_uris": {"android": "https://dc.lft.to/lastmile_qr_scan", "ios": "https://dc.lft.to/lastmile_qr_scan"}, "fusion_lon": 0.0, "lat": 38.89541933333334, "bike_id": "6cadbca63e62f8897628814a744279d6", "type": "electric_scooter", "is_reserved": 0, "lon": -77.02397116666667}, {"fusion_lat": 0.0, "name": "8bdf87a208bdfe7ea03b0828d42ba9eb", "is_disabled": 0, "rental_uris": {"android": "https://dc.lft.to/lastmile_qr_scan", "ios": "https://dc.lft.to/lastmile_qr_scan"}, "fusion_lon": 0.0, "lat": 38.88359533333333, "bike_id": "8bdf87a208bdfe7ea03b0828d42ba9eb", "type": "electric_scooter", "is_reserved": 0, "lon": -77.01986933333333}, {"fusion_lat": 0.0, "name": "2a75777dbfc8dc0a04dff2a5ff651ee4", "is_disabled": 0, "rental_uris": {"android": "https://dc.lft.to/lastmile_qr_scan", "ios": "https://dc.lft.to/lastmile_qr_scan"}, "fusion_lon": 0.0, "lat": 38.900135166666665, "bike_id": "2a75777dbfc8dc0a04dff2a5ff651ee4", "type": "electric_scooter", "is_reserved": 0, "lon": -77.02390466666667}, {"fusion_lat": 0.0, "name": "dc8038ee9c141af1988a7e24bcb38667", "is_disabled": 0, "rental_uris": {"android": "https://dc.lft.to/lastmile_qr_scan", "ios": "https://dc.lft.to/lastmile_qr_scan"}, "fusion_lon": 0.0, "lat": 38.913440333333334, "bike_id": "dc8038ee9c141af1988a7e24bcb38667", "type": "electric_bike", "is_reserved": 0, "lon": -76.98897633333333}, {"fusion_lat": 0.0, "name": "a9fdfef2527ee2a9b9bec1adf1f67491", "is_disabled": 0, "rental_uris": {"android": "https://dc.lft.to/lastmile_qr_scan", "ios": "https://dc.lft.to/lastmile_qr_scan"}, "fusion_lon": 0.0, "lat": 38.88388283333333, "bike_id": "a9fdfef2527ee2a9b9bec1adf1f67491", "type": "electric_scooter", "is_reserved": 0, "lon": -76.98556366666666}, {"fusion_lat": 0.0, "name": "74fc3c4b72a671aa90c7e0e5437a5665", "is_disabled": 0, "rental_uris": {"android": "https://dc.lft.to/lastmile_qr_scan", "ios": "https://dc.lft.to/lastmile_qr_scan"}, "fusion_lon": 0.0, "lat": 38.8736945, "bike_id": "74fc3c4b72a671aa90c7e0e5437a5665", "type": "electric_scooter", "is_reserved": 0, "lon": -77.00056683333334}, {"fusion_lat": 0.0, "name": "b1d66d0a91d94d41bc5da8a8c957bb3d", "is_disabled": 0, "rental_uris": {"android": "https://dc.lft.to/lastmile_qr_scan", "ios": "https://dc.lft.to/lastmile_qr_scan"}, "fusion_lon": 0.0, "lat": 38.89218566666667, "bike_id": "b1d66d0a91d94d41bc5da8a8c957bb3d", "type": "electric_scooter", "is_reserved": 0, "lon": -77.0221695}, {"fusion_lat": 0.0, "name": "595daa32f733dc78fc2ff2e9225a82b3", "is_disabled": 0, "rental_uris": {"android": "https://dc.lft.to/lastmile_qr_scan", "ios": "https://dc.lft.to/lastmile_qr_scan"}, "fusion_lon": 0.0, "lat": 38.89949633333333, "bike_id": "595daa32f733dc78fc2ff2e9225a82b3", "type": "electric_scooter", "is_reserved": 0, "lon": -77.054761}, {"fusion_lat": 0.0, "name": "3ee2bf9ce84883d9621420e02038bc41", "is_disabled": 0, "rental_uris": {"android": "https://dc.lft.to/lastmile_qr_scan", "ios": "https://dc.lft.to/lastmile_qr_scan"}, "fusion_lon": 0.0, "lat": 38.92681233333333, "bike_id": "3ee2bf9ce84883d9621420e02038bc41", "type": "electric_scooter", "is_reserved": 0, "lon": -77.03148866666666}, {"fusion_lat": 0.0, "name": "270fa76e4fc79dbcada584301e949f5c", "is_disabled": 0, "rental_uris": {"android": "https://dc.lft.to/lastmile_qr_scan", "ios": "https://dc.lft.to/lastmile_qr_scan"}, "fusion_lon": 0.0, "lat": 38.90957516666667, "bike_id": "270fa76e4fc79dbcada584301e949f5c", "type": "electric_scooter", "is_reserved": 0, "lon": -77.02278116666666}, {"fusion_lat": 0.0, "name": "33279d6150ed5cc0894fe2b8249ca89c", "is_disabled": 0, "rental_uris": {"android": "https://dc.lft.to/lastmile_qr_scan", "ios": "https://dc.lft.to/lastmile_qr_scan"}, "fusion_lon": 0.0, "lat": 38.9014125, "bike_id": "33279d6150ed5cc0894fe2b8249ca89c", "type": "electric_scooter", "is_reserved": 0, "lon": -76.99121333333333}, {"fusion_lat": 0.0, "name": "5b4073ab2710798099b85d9df488a9f0", "is_disabled": 0, "rental_uris": {"android": "https://dc.lft.to/lastmile_qr_scan", "ios": "https://dc.lft.to/lastmile_qr_scan"}, "fusion_lon": 0.0, "lat": 38.91985583333334, "bike_id": "5b4073ab2710798099b85d9df488a9f0", "type": "electric_scooter", "is_reserved": 0, "lon": -77.04087666666666}, {"fusion_lat": 0.0, "name": "41ae58aa38dc538bda97652049b50686", "is_disabled": 0, "rental_uris": {"android": "https://dc.lft.to/lastmile_qr_scan", "ios": "https://dc.lft.to/lastmile_qr_scan"}, "fusion_lon": 0.0, "lat": 38.878157333333334, "bike_id": "41ae58aa38dc538bda97652049b50686", "type": "electric_scooter", "is_reserved": 0, "lon": -77.01530333333334}, {"fusion_lat": 0.0, "name": "1e4c83c185bfe24952c67b91ce73d1f6", "is_disabled": 0, "rental_uris": {"android": "https://dc.lft.to/lastmile_qr_scan", "ios": "https://dc.lft.to/lastmile_qr_scan"}, "fusion_lon": 0.0, "lat": 38.90428333333333, "bike_id": "1e4c83c185bfe24952c67b91ce73d1f6", "type": "electric_scooter", "is_reserved": 0, "lon": -77.04834783333334}, {"fusion_lat": 0.0, "name": "a179c0b77451eee4fddc96e8b77fd639", "is_disabled": 0, "rental_uris": {"android": "https://dc.lft.to/lastmile_qr_scan", "ios": "https://dc.lft.to/lastmile_qr_scan"}, "fusion_lon": 0.0, "lat": 38.8847695, "bike_id": "a179c0b77451eee4fddc96e8b77fd639", "type": "electric_scooter", "is_reserved": 0, "lon": -77.02365516666667}, {"fusion_lat": 0.0, "name": "9398fca69b87051d2698c12016c67029", "is_disabled": 0, "rental_uris": {"android": "https://dc.lft.to/lastmile_qr_scan", "ios": "https://dc.lft.to/lastmile_qr_scan"}, "fusion_lon": 0.0, "lat": 38.862932, "bike_id": "9398fca69b87051d2698c12016c67029", "type": "electric_bike", "is_reserved": 0, "lon": -77.0637785}, {"fusion_lat": 0.0, "name": "fc9f8e5f6a55b8792c24c5f0483d47d5", "is_disabled": 0, "rental_uris": {"android": "https://dc.lft.to/lastmile_qr_scan", "ios": "https://dc.lft.to/lastmile_qr_scan"}, "fusion_lon": 0.0, "lat": 38.90201, "bike_id": "fc9f8e5f6a55b8792c24c5f0483d47d5", "type": "electric_scooter", "is_reserved": 0, "lon": -77.0237265}, {"fusion_lat": 0.0, "name": "1e42c74fcbcf9a90114e7200e8c84fda", "is_disabled": 0, "rental_uris": {"android": "https://dc.lft.to/lastmile_qr_scan", "ios": "https://dc.lft.to/lastmile_qr_scan"}, "fusion_lon": 0.0, "lat": 38.93247616666667, "bike_id": "1e42c74fcbcf9a90114e7200e8c84fda", "type": "electric_scooter", "is_reserved": 0, "lon": -77.03415216666667}, {"fusion_lat": 0.0, "name": "35983cbef7957792f7e6a17491535a86", "is_disabled": 0, "rental_uris": {"android": "https://dc.lft.to/lastmile_qr_scan", "ios": "https://dc.lft.to/lastmile_qr_scan"}, "fusion_lon": 0.0, "lat": 38.907789666666666, "bike_id": "35983cbef7957792f7e6a17491535a86", "type": "electric_scooter", "is_reserved": 0, "lon": -77.00229883333333}, {"fusion_lat": 0.0, "name": "c4d2a2d06724c1008b6a01e2e176fb30", "is_disabled": 0, "rental_uris": {"android": "https://dc.lft.to/lastmile_qr_scan", "ios": "https://dc.lft.to/lastmile_qr_scan"}, "fusion_lon": 0.0, "lat": 38.89731316666666, "bike_id": "c4d2a2d06724c1008b6a01e2e176fb30", "type": "electric_scooter", "is_reserved": 0, "lon": -76.9470065}, {"fusion_lat": 0.0, "name": "30cb211139cb8bd554a784272f86422a", "is_disabled": 0, "rental_uris": {"android": "https://dc.lft.to/lastmile_qr_scan", "ios": "https://dc.lft.to/lastmile_qr_scan"}, "fusion_lon": 0.0, "lat": 38.9606865, "bike_id": "30cb211139cb8bd554a784272f86422a", "type": "electric_scooter", "is_reserved": 0, "lon": -77.00092516666666}, {"fusion_lat": 0.0, "name": "0073efa3de71c6f81cbbd34a68eff103", "is_disabled": 0, "rental_uris": {"android": "https://dc.lft.to/lastmile_qr_scan", "ios": "https://dc.lft.to/lastmile_qr_scan"}, "fusion_lon": 0.0, "lat": 38.90753933333333, "bike_id": "0073efa3de71c6f81cbbd34a68eff103", "type": "electric_scooter", "is_reserved": 0, "lon": -77.03581316666667}, {"fusion_lat": 0.0, "name": "5734fb2de0f9ee4f337e158813d3bfd2", "is_disabled": 0, "rental_uris": {"android": "https://dc.lft.to/lastmile_qr_scan", "ios": "https://dc.lft.to/lastmile_qr_scan"}, "fusion_lon": 0.0, "lat": 38.91405016666667, "bike_id": "5734fb2de0f9ee4f337e158813d3bfd2", "type": "electric_scooter", "is_reserved": 0, "lon": -77.04154816666667}, {"fusion_lat": 0.0, "name": "aa9adaad9e60e809b159e330c5d26d49", "is_disabled": 0, "rental_uris": {"android": "https://dc.lft.to/lastmile_qr_scan", "ios": "https://dc.lft.to/lastmile_qr_scan"}, "fusion_lon": 0.0, "lat": 38.90566116666667, "bike_id": "aa9adaad9e60e809b159e330c5d26d49", "type": "electric_scooter", "is_reserved": 0, "lon": -77.00801566666667}, {"fusion_lat": 0.0, "name": "0c58a47cc6f876d8e7eedcd67fb34407", "is_disabled": 0, "rental_uris": {"android": "https://dc.lft.to/lastmile_qr_scan", "ios": "https://dc.lft.to/lastmile_qr_scan"}, "fusion_lon": 0.0, "lat": 38.89222566666667, "bike_id": "0c58a47cc6f876d8e7eedcd67fb34407", "type": "electric_scooter", "is_reserved": 0, "lon": -77.04866883333334}, {"fusion_lat": 0.0, "name": "8fe6b279912905099d080a04beae9050", "is_disabled": 0, "rental_uris": {"android": "https://dc.lft.to/lastmile_qr_scan", "ios": "https://dc.lft.to/lastmile_qr_scan"}, "fusion_lon": 0.0, "lat": 38.913371, "bike_id": "8fe6b279912905099d080a04beae9050", "type": "electric_scooter", "is_reserved": 0, "lon": -77.04282816666667}, {"fusion_lat": 0.0, "name": "ef065b7fbf5065586aa2f110b15936c9", "is_disabled": 0, "rental_uris": {"android": "https://dc.lft.to/lastmile_qr_scan", "ios": "https://dc.lft.to/lastmile_qr_scan"}, "fusion_lon": 0.0, "lat": 38.911806166666665, "bike_id": "ef065b7fbf5065586aa2f110b15936c9", "type": "electric_scooter", "is_reserved": 0, "lon": -77.03856816666666}, {"fusion_lat": 0.0, "name": "c81d579eeda027d5d11fd879f4e1d9f4", "is_disabled": 0, "rental_uris": {"android": "https://dc.lft.to/lastmile_qr_scan", "ios": "https://dc.lft.to/lastmile_qr_scan"}, "fusion_lon": 0.0, "lat": 38.94181016666667, "bike_id": "c81d579eeda027d5d11fd879f4e1d9f4", "type": "electric_scooter", "is_reserved": 0, "lon": -77.030645}, {"fusion_lat": 0.0, "name": "828a36f8b1b6cfa12e0ff46b0871f6ad", "is_disabled": 0, "rental_uris": {"android": "https://dc.lft.to/lastmile_qr_scan", "ios": "https://dc.lft.to/lastmile_qr_scan"}, "fusion_lon": 0.0, "lat": 38.9051455, "bike_id": "828a36f8b1b6cfa12e0ff46b0871f6ad", "type": "electric_scooter", "is_reserved": 0, "lon": -77.06151816666667}, {"fusion_lat": 0.0, "name": "68fe7859b81e6002061ccca41d83d211", "is_disabled": 0, "rental_uris": {"android": "https://dc.lft.to/lastmile_qr_scan", "ios": "https://dc.lft.to/lastmile_qr_scan"}, "fusion_lon": 0.0, "lat": 38.9003645, "bike_id": "68fe7859b81e6002061ccca41d83d211", "type": "electric_scooter", "is_reserved": 0, "lon": -77.00213283333333}, {"fusion_lat": 0.0, "name": "cb090835c837a0b3ff8ef7251d8840d3", "is_disabled": 0, "rental_uris": {"android": "https://dc.lft.to/lastmile_qr_scan", "ios": "https://dc.lft.to/lastmile_qr_scan"}, "fusion_lon": 0.0, "lat": 38.906584333333335, "bike_id": "cb090835c837a0b3ff8ef7251d8840d3", "type": "electric_scooter", "is_reserved": 0, "lon": -77.04345566666667}, {"fusion_lat": 0.0, "name": "82b15e523ec17f4bb9800053671e6e4f", "is_disabled": 0, "rental_uris": {"android": "https://dc.lft.to/lastmile_qr_scan", "ios": "https://dc.lft.to/lastmile_qr_scan"}, "fusion_lon": 0.0, "lat": 38.902265, "bike_id": "82b15e523ec17f4bb9800053671e6e4f", "type": "electric_scooter", "is_reserved": 0, "lon": -77.05467066666667}, {"fusion_lat": 0.0, "name": "20d8e79fd623bbf78ba377d585c335d1", "is_disabled": 0, "rental_uris": {"android": "https://dc.lft.to/lastmile_qr_scan", "ios": "https://dc.lft.to/lastmile_qr_scan"}, "fusion_lon": 0.0, "lat": 38.966206, "bike_id": "20d8e79fd623bbf78ba377d585c335d1", "type": "electric_bike", "is_reserved": 0, "lon": -77.03435733333333}, {"fusion_lat": 0.0, "name": "8aaa0d9f0b33cc113591fabaf993b541", "is_disabled": 0, "rental_uris": {"android": "https://dc.lft.to/lastmile_qr_scan", "ios": "https://dc.lft.to/lastmile_qr_scan"}, "fusion_lon": 0.0, "lat": 38.9311375, "bike_id": "8aaa0d9f0b33cc113591fabaf993b541", "type": "electric_scooter", "is_reserved": 0, "lon": -76.9961665}, {"fusion_lat": 0.0, "name": "8eb29a43fb8d1219c1acc7fe0ad71425", "is_disabled": 0, "rental_uris": {"android": "https://dc.lft.to/lastmile_qr_scan", "ios": "https://dc.lft.to/lastmile_qr_scan"}, "fusion_lon": 0.0, "lat": 38.88015383333333, "bike_id": "8eb29a43fb8d1219c1acc7fe0ad71425", "type": "electric_scooter", "is_reserved": 0, "lon": -76.98070016666667}, {"fusion_lat": 0.0, "name": "ffaa3536b7bec52549db6fb655cbd1be", "is_disabled": 0, "rental_uris": {"android": "https://dc.lft.to/lastmile_qr_scan", "ios": "https://dc.lft.to/lastmile_qr_scan"}, "fusion_lon": 0.0, "lat": 38.92884933333333, "bike_id": "ffaa3536b7bec52549db6fb655cbd1be", "type": "electric_scooter", "is_reserved": 0, "lon": -76.995556}, {"fusion_lat": 0.0, "name": "393de2b5c3ee084dcd8308cfffd43a42", "is_disabled": 0, "rental_uris": {"android": "https://dc.lft.to/lastmile_qr_scan", "ios": "https://dc.lft.to/lastmile_qr_scan"}, "fusion_lon": 0.0, "lat": 38.90657983333333, "bike_id": "393de2b5c3ee084dcd8308cfffd43a42", "type": "electric_scooter", "is_reserved": 0, "lon": -77.02130616666666}, {"fusion_lat": 0.0, "name": "6da411220a1e3e21b8491772bb822f5e", "is_disabled": 0, "rental_uris": {"android": "https://dc.lft.to/lastmile_qr_scan", "ios": "https://dc.lft.to/lastmile_qr_scan"}, "fusion_lon": 0.0, "lat": 38.902415, "bike_id": "6da411220a1e3e21b8491772bb822f5e", "type": "electric_scooter", "is_reserved": 0, "lon": -77.00199116666667}, {"fusion_lat": 0.0, "name": "feb0912e5f759a3039368ae8a14ff4dd", "is_disabled": 0, "rental_uris": {"android": "https://dc.lft.to/lastmile_qr_scan", "ios": "https://dc.lft.to/lastmile_qr_scan"}, "fusion_lon": 0.0, "lat": 38.87509883333333, "bike_id": "feb0912e5f759a3039368ae8a14ff4dd", "type": "electric_bike", "is_reserved": 0, "lon": -77.00736033333334}, {"fusion_lat": 0.0, "name": "154a3b71de934d9dd4b90aa465f4a799", "is_disabled": 0, "rental_uris": {"android": "https://dc.lft.to/lastmile_qr_scan", "ios": "https://dc.lft.to/lastmile_qr_scan"}, "fusion_lon": 0.0, "lat": 38.92572716666667, "bike_id": "154a3b71de934d9dd4b90aa465f4a799", "type": "electric_scooter", "is_reserved": 0, "lon": -77.02688283333333}, {"fusion_lat": 0.0, "name": "6100a21674e82adc1e595b4ec053c4a4", "is_disabled": 0, "rental_uris": {"android": "https://dc.lft.to/lastmile_qr_scan", "ios": "https://dc.lft.to/lastmile_qr_scan"}, "fusion_lon": 0.0, "lat": 38.906258666666666, "bike_id": "6100a21674e82adc1e595b4ec053c4a4", "type": "electric_scooter", "is_reserved": 0, "lon": -77.025954}, {"fusion_lat": 0.0, "name": "28eab274f15a992886cfeffda4ab4481", "is_disabled": 0, "rental_uris": {"android": "https://dc.lft.to/lastmile_qr_scan", "ios": "https://dc.lft.to/lastmile_qr_scan"}, "fusion_lon": 0.0, "lat": 38.90434716666667, "bike_id": "28eab274f15a992886cfeffda4ab4481", "type": "electric_scooter", "is_reserved": 0, "lon": -77.0259185}, {"fusion_lat": 0.0, "name": "125db9c185c48562b288cf2593e0cb26", "is_disabled": 0, "rental_uris": {"android": "https://dc.lft.to/lastmile_qr_scan", "ios": "https://dc.lft.to/lastmile_qr_scan"}, "fusion_lon": 0.0, "lat": 38.90062783333333, "bike_id": "125db9c185c48562b288cf2593e0cb26", "type": "electric_scooter", "is_reserved": 0, "lon": -76.9338635}, {"fusion_lat": 0.0, "name": "3a5ab4ba8d9392bf2a8fb80deee00eec", "is_disabled": 0, "rental_uris": {"android": "https://dc.lft.to/lastmile_qr_scan", "ios": "https://dc.lft.to/lastmile_qr_scan"}, "fusion_lon": 0.0, "lat": 38.9155305, "bike_id": "3a5ab4ba8d9392bf2a8fb80deee00eec", "type": "electric_scooter", "is_reserved": 0, "lon": -77.0113195}, {"fusion_lat": 0.0, "name": "173c54010d40cc12b66ae2534e1539b6", "is_disabled": 0, "rental_uris": {"android": "https://dc.lft.to/lastmile_qr_scan", "ios": "https://dc.lft.to/lastmile_qr_scan"}, "fusion_lon": 0.0, "lat": 38.9399785, "bike_id": "173c54010d40cc12b66ae2534e1539b6", "type": "electric_scooter", "is_reserved": 0, "lon": -77.0842595}, {"fusion_lat": 0.0, "name": "0ada3340debaf9f4c331cfba624ad73d", "is_disabled": 0, "rental_uris": {"android": "https://dc.lft.to/lastmile_qr_scan", "ios": "https://dc.lft.to/lastmile_qr_scan"}, "fusion_lon": 0.0, "lat": 38.835142833333336, "bike_id": "0ada3340debaf9f4c331cfba624ad73d", "type": "electric_bike", "is_reserved": 0, "lon": -76.9867725}, {"fusion_lat": 0.0, "name": "0894007ab5cef3f87be6ac8fffe84a04", "is_disabled": 0, "rental_uris": {"android": "https://dc.lft.to/lastmile_qr_scan", "ios": "https://dc.lft.to/lastmile_qr_scan"}, "fusion_lon": 0.0, "lat": 38.94274433333333, "bike_id": "0894007ab5cef3f87be6ac8fffe84a04", "type": "electric_scooter", "is_reserved": 0, "lon": -77.0326025}, {"fusion_lat": 0.0, "name": "12433342296c6736674b5cbe88aaf14c", "is_disabled": 0, "rental_uris": {"android": "https://dc.lft.to/lastmile_qr_scan", "ios": "https://dc.lft.to/lastmile_qr_scan"}, "fusion_lon": 0.0, "lat": 38.90774966666667, "bike_id": "12433342296c6736674b5cbe88aaf14c", "type": "electric_scooter", "is_reserved": 0, "lon": -77.05584116666667}, {"fusion_lat": 0.0, "name": "3fdc75eb2349eb9bd2b5860521021d6e", "is_disabled": 0, "rental_uris": {"android": "https://dc.lft.to/lastmile_qr_scan", "ios": "https://dc.lft.to/lastmile_qr_scan"}, "fusion_lon": 0.0, "lat": 38.90478383333333, "bike_id": "3fdc75eb2349eb9bd2b5860521021d6e", "type": "electric_scooter", "is_reserved": 0, "lon": -77.03244583333333}, {"fusion_lat": 0.0, "name": "bbc5ae72cc74a8626bc081217bb8e544", "is_disabled": 0, "rental_uris": {"android": "https://dc.lft.to/lastmile_qr_scan", "ios": "https://dc.lft.to/lastmile_qr_scan"}, "fusion_lon": 0.0, "lat": 38.91439533333333, "bike_id": "bbc5ae72cc74a8626bc081217bb8e544", "type": "electric_scooter", "is_reserved": 0, "lon": -77.022016}, {"fusion_lat": 0.0, "name": "2a94d1a25dd85f29036f74f3d893e0b5", "is_disabled": 0, "rental_uris": {"android": "https://dc.lft.to/lastmile_qr_scan", "ios": "https://dc.lft.to/lastmile_qr_scan"}, "fusion_lon": 0.0, "lat": 38.90684233333333, "bike_id": "2a94d1a25dd85f29036f74f3d893e0b5", "type": "electric_scooter", "is_reserved": 0, "lon": -77.07212433333333}, {"fusion_lat": 0.0, "name": "14bf8eb27b7aeb9a62dd1035f67d9da9", "is_disabled": 0, "rental_uris": {"android": "https://dc.lft.to/lastmile_qr_scan", "ios": "https://dc.lft.to/lastmile_qr_scan"}, "fusion_lon": 0.0, "lat": 38.9126495, "bike_id": "14bf8eb27b7aeb9a62dd1035f67d9da9", "type": "electric_scooter", "is_reserved": 0, "lon": -77.03829166666667}, {"fusion_lat": 0.0, "name": "0096a133939e0c9932e95bb082c8aba6", "is_disabled": 0, "rental_uris": {"android": "https://dc.lft.to/lastmile_qr_scan", "ios": "https://dc.lft.to/lastmile_qr_scan"}, "fusion_lon": 0.0, "lat": 38.90508716666667, "bike_id": "0096a133939e0c9932e95bb082c8aba6", "type": "electric_scooter", "is_reserved": 0, "lon": -77.0316845}, {"fusion_lat": 0.0, "name": "e471b5e6deb2db6b18aa0532cf5fe7ea", "is_disabled": 0, "rental_uris": {"android": "https://dc.lft.to/lastmile_qr_scan", "ios": "https://dc.lft.to/lastmile_qr_scan"}, "fusion_lon": 0.0, "lat": 38.9323825, "bike_id": "e471b5e6deb2db6b18aa0532cf5fe7ea", "type": "electric_scooter", "is_reserved": 0, "lon": -77.03847866666666}, {"fusion_lat": 0.0, "name": "cbe2fb102a211c8928edb40ead875f4b", "is_disabled": 0, "rental_uris": {"android": "https://dc.lft.to/lastmile_qr_scan", "ios": "https://dc.lft.to/lastmile_qr_scan"}, "fusion_lon": 0.0, "lat": 38.90752066666667, "bike_id": "cbe2fb102a211c8928edb40ead875f4b", "type": "electric_scooter", "is_reserved": 0, "lon": -77.00022133333333}, {"fusion_lat": 0.0, "name": "74c570af6df3a0b9c2a717f966656abc", "is_disabled": 0, "rental_uris": {"android": "https://dc.lft.to/lastmile_qr_scan", "ios": "https://dc.lft.to/lastmile_qr_scan"}, "fusion_lon": 0.0, "lat": 38.916334, "bike_id": "74c570af6df3a0b9c2a717f966656abc", "type": "electric_scooter", "is_reserved": 0, "lon": -77.010768}, {"fusion_lat": 0.0, "name": "eb052c06d568729b331fa55021e91c9e", "is_disabled": 0, "rental_uris": {"android": "https://dc.lft.to/lastmile_qr_scan", "ios": "https://dc.lft.to/lastmile_qr_scan"}, "fusion_lon": 0.0, "lat": 38.932833333333335, "bike_id": "eb052c06d568729b331fa55021e91c9e", "type": "electric_scooter", "is_reserved": 0, "lon": -77.0408685}, {"fusion_lat": 0.0, "name": "261ac949ddf242243f8ad7c858dbeaac", "is_disabled": 0, "rental_uris": {"android": "https://dc.lft.to/lastmile_qr_scan", "ios": "https://dc.lft.to/lastmile_qr_scan"}, "fusion_lon": 0.0, "lat": 38.9375845, "bike_id": "261ac949ddf242243f8ad7c858dbeaac", "type": "electric_bike", "is_reserved": 0, "lon": -76.95820333333333}, {"fusion_lat": 0.0, "name": "9b08442414f8c3c9b65c7b5c024c6171", "is_disabled": 0, "rental_uris": {"android": "https://dc.lft.to/lastmile_qr_scan", "ios": "https://dc.lft.to/lastmile_qr_scan"}, "fusion_lon": 0.0, "lat": 38.911139, "bike_id": "9b08442414f8c3c9b65c7b5c024c6171", "type": "electric_bike", "is_reserved": 0, "lon": -77.00260033333333}, {"fusion_lat": 0.0, "name": "7882ab6608782373a46d6852ba538cd9", "is_disabled": 0, "rental_uris": {"android": "https://dc.lft.to/lastmile_qr_scan", "ios": "https://dc.lft.to/lastmile_qr_scan"}, "fusion_lon": 0.0, "lat": 38.9255805, "bike_id": "7882ab6608782373a46d6852ba538cd9", "type": "electric_scooter", "is_reserved": 0, "lon": -77.03545683333333}, {"fusion_lat": 0.0, "name": "070f0a77365dbc9906d9556cccec6f44", "is_disabled": 0, "rental_uris": {"android": "https://dc.lft.to/lastmile_qr_scan", "ios": "https://dc.lft.to/lastmile_qr_scan"}, "fusion_lon": 0.0, "lat": 38.902649833333335, "bike_id": "070f0a77365dbc9906d9556cccec6f44", "type": "electric_scooter", "is_reserved": 0, "lon": -77.053256}, {"fusion_lat": 0.0, "name": "8d12fb10980b6c0c24814dbbe9d0b1f7", "is_disabled": 0, "rental_uris": {"android": "https://dc.lft.to/lastmile_qr_scan", "ios": "https://dc.lft.to/lastmile_qr_scan"}, "fusion_lon": 0.0, "lat": 38.955093166666664, "bike_id": "8d12fb10980b6c0c24814dbbe9d0b1f7", "type": "electric_scooter", "is_reserved": 0, "lon": -77.02836833333333}, {"fusion_lat": 0.0, "name": "bad077c1b8d47e4a630d6459b8597156", "is_disabled": 0, "rental_uris": {"android": "https://dc.lft.to/lastmile_qr_scan", "ios": "https://dc.lft.to/lastmile_qr_scan"}, "fusion_lon": 0.0, "lat": 38.890142166666664, "bike_id": "bad077c1b8d47e4a630d6459b8597156", "type": "electric_scooter", "is_reserved": 0, "lon": -76.93734616666667}, {"fusion_lat": 0.0, "name": "7ba8e8ac7607e641684178fef42d86e4", "is_disabled": 0, "rental_uris": {"android": "https://dc.lft.to/lastmile_qr_scan", "ios": "https://dc.lft.to/lastmile_qr_scan"}, "fusion_lon": 0.0, "lat": 38.9283885, "bike_id": "7ba8e8ac7607e641684178fef42d86e4", "type": "electric_scooter", "is_reserved": 0, "lon": -76.99347033333333}, {"fusion_lat": 0.0, "name": "24bbb1d98aa8cb1c1dce8ea501f3587d", "is_disabled": 0, "rental_uris": {"android": "https://dc.lft.to/lastmile_qr_scan", "ios": "https://dc.lft.to/lastmile_qr_scan"}, "fusion_lon": 0.0, "lat": 38.87379516666667, "bike_id": "24bbb1d98aa8cb1c1dce8ea501f3587d", "type": "electric_scooter", "is_reserved": 0, "lon": -77.000346}, {"fusion_lat": 0.0, "name": "fbbe2b23c20d80c066920b044bf32532", "is_disabled": 0, "rental_uris": {"android": "https://dc.lft.to/lastmile_qr_scan", "ios": "https://dc.lft.to/lastmile_qr_scan"}, "fusion_lon": 0.0, "lat": 38.913035, "bike_id": "fbbe2b23c20d80c066920b044bf32532", "type": "electric_scooter", "is_reserved": 0, "lon": -77.048766}, {"fusion_lat": 0.0, "name": "961e3f3ea451ad2cadc515005d40b57b", "is_disabled": 0, "rental_uris": {"android": "https://dc.lft.to/lastmile_qr_scan", "ios": "https://dc.lft.to/lastmile_qr_scan"}, "fusion_lon": 0.0, "lat": 38.92105866666667, "bike_id": "961e3f3ea451ad2cadc515005d40b57b", "type": "electric_scooter", "is_reserved": 0, "lon": -77.04688566666667}, {"fusion_lat": 0.0, "name": "1df7123f4d739b5200da9755d2b28d65", "is_disabled": 0, "rental_uris": {"android": "https://dc.lft.to/lastmile_qr_scan", "ios": "https://dc.lft.to/lastmile_qr_scan"}, "fusion_lon": 0.0, "lat": 38.91562833333333, "bike_id": "1df7123f4d739b5200da9755d2b28d65", "type": "electric_scooter", "is_reserved": 0, "lon": -77.02237183333334}, {"fusion_lat": 0.0, "name": "58feb5d0b5a039531686e2ef416feba9", "is_disabled": 0, "rental_uris": {"android": "https://dc.lft.to/lastmile_qr_scan", "ios": "https://dc.lft.to/lastmile_qr_scan"}, "fusion_lon": 0.0, "lat": 38.9069335, "bike_id": "58feb5d0b5a039531686e2ef416feba9", "type": "electric_scooter", "is_reserved": 0, "lon": -77.04203733333334}, {"fusion_lat": 0.0, "name": "1d86b98ad49a32d7ece8f12c0627b58f", "is_disabled": 0, "rental_uris": {"android": "https://dc.lft.to/lastmile_qr_scan", "ios": "https://dc.lft.to/lastmile_qr_scan"}, "fusion_lon": 0.0, "lat": 38.9071255, "bike_id": "1d86b98ad49a32d7ece8f12c0627b58f", "type": "electric_scooter", "is_reserved": 0, "lon": -77.03451983333333}, {"fusion_lat": 0.0, "name": "993381ccf19dc58e753000d368988ea2", "is_disabled": 0, "rental_uris": {"android": "https://dc.lft.to/lastmile_qr_scan", "ios": "https://dc.lft.to/lastmile_qr_scan"}, "fusion_lon": 0.0, "lat": 38.878335666666665, "bike_id": "993381ccf19dc58e753000d368988ea2", "type": "electric_scooter", "is_reserved": 0, "lon": -76.9632105}, {"fusion_lat": 0.0, "name": "fb8badcf0ecb8646f8850fca461293a3", "is_disabled": 0, "rental_uris": {"android": "https://dc.lft.to/lastmile_qr_scan", "ios": "https://dc.lft.to/lastmile_qr_scan"}, "fusion_lon": 0.0, "lat": 38.819449666666664, "bike_id": "fb8badcf0ecb8646f8850fca461293a3", "type": "electric_bike", "is_reserved": 0, "lon": -77.12718033333333}, {"fusion_lat": 0.0, "name": "5de21ede76ef5eb4bd08dfffe6d080de", "is_disabled": 0, "rental_uris": {"android": "https://dc.lft.to/lastmile_qr_scan", "ios": "https://dc.lft.to/lastmile_qr_scan"}, "fusion_lon": 0.0, "lat": 38.92553366666667, "bike_id": "5de21ede76ef5eb4bd08dfffe6d080de", "type": "electric_scooter", "is_reserved": 0, "lon": -77.07763866666667}, {"fusion_lat": 0.0, "name": "651a93088ab169018b9268636b209ff4", "is_disabled": 0, "rental_uris": {"android": "https://dc.lft.to/lastmile_qr_scan", "ios": "https://dc.lft.to/lastmile_qr_scan"}, "fusion_lon": 0.0, "lat": 38.92044116666667, "bike_id": "651a93088ab169018b9268636b209ff4", "type": "electric_scooter", "is_reserved": 0, "lon": -77.0339465}, {"fusion_lat": 0.0, "name": "71b4b67d726d5e6995183024877a1619", "is_disabled": 0, "rental_uris": {"android": "https://dc.lft.to/lastmile_qr_scan", "ios": "https://dc.lft.to/lastmile_qr_scan"}, "fusion_lon": 0.0, "lat": 38.915456666666664, "bike_id": "71b4b67d726d5e6995183024877a1619", "type": "electric_scooter", "is_reserved": 0, "lon": -77.01265816666667}, {"fusion_lat": 0.0, "name": "a019bb0daf11c62868359d1c9be0000c", "is_disabled": 0, "rental_uris": {"android": "https://dc.lft.to/lastmile_qr_scan", "ios": "https://dc.lft.to/lastmile_qr_scan"}, "fusion_lon": 0.0, "lat": 38.956385833333336, "bike_id": "a019bb0daf11c62868359d1c9be0000c", "type": "electric_scooter", "is_reserved": 0, "lon": -77.02423733333333}, {"fusion_lat": 0.0, "name": "3b17c353c3c32d7b802fb6c401e96ffe", "is_disabled": 0, "rental_uris": {"android": "https://dc.lft.to/lastmile_qr_scan", "ios": "https://dc.lft.to/lastmile_qr_scan"}, "fusion_lon": 0.0, "lat": 38.9178015, "bike_id": "3b17c353c3c32d7b802fb6c401e96ffe", "type": "electric_scooter", "is_reserved": 0, "lon": -77.03573016666667}, {"fusion_lat": 0.0, "name": "8859172e22264ff3946614559fadad3f", "is_disabled": 0, "rental_uris": {"android": "https://dc.lft.to/lastmile_qr_scan", "ios": "https://dc.lft.to/lastmile_qr_scan"}, "fusion_lon": 0.0, "lat": 38.905527, "bike_id": "8859172e22264ff3946614559fadad3f", "type": "electric_scooter", "is_reserved": 0, "lon": -77.03452066666667}, {"fusion_lat": 0.0, "name": "3ffd001543425aa78b72448bc4b8e27f", "is_disabled": 0, "rental_uris": {"android": "https://dc.lft.to/lastmile_qr_scan", "ios": "https://dc.lft.to/lastmile_qr_scan"}, "fusion_lon": 0.0, "lat": 38.91251716666667, "bike_id": "3ffd001543425aa78b72448bc4b8e27f", "type": "electric_scooter", "is_reserved": 0, "lon": -77.01021533333333}, {"fusion_lat": 0.0, "name": "73c4693f8b15627b5fa41a024d0dcb34", "is_disabled": 0, "rental_uris": {"android": "https://dc.lft.to/lastmile_qr_scan", "ios": "https://dc.lft.to/lastmile_qr_scan"}, "fusion_lon": 0.0, "lat": 38.90305333333333, "bike_id": "73c4693f8b15627b5fa41a024d0dcb34", "type": "electric_scooter", "is_reserved": 0, "lon": -76.97654633333333}, {"fusion_lat": 0.0, "name": "423a8508c7d77d7865b5287f18615c84", "is_disabled": 0, "rental_uris": {"android": "https://dc.lft.to/lastmile_qr_scan", "ios": "https://dc.lft.to/lastmile_qr_scan"}, "fusion_lon": 0.0, "lat": 38.934384666666666, "bike_id": "423a8508c7d77d7865b5287f18615c84", "type": "electric_scooter", "is_reserved": 0, "lon": -77.02409416666667}, {"fusion_lat": 0.0, "name": "2a44ccfaf59e9f1e4d08455f0ed31058", "is_disabled": 0, "rental_uris": {"android": "https://dc.lft.to/lastmile_qr_scan", "ios": "https://dc.lft.to/lastmile_qr_scan"}, "fusion_lon": 0.0, "lat": 38.92096216666667, "bike_id": "2a44ccfaf59e9f1e4d08455f0ed31058", "type": "electric_scooter", "is_reserved": 0, "lon": -77.03184466666667}, {"fusion_lat": 0.0, "name": "d7993ecbafd31af228362dea82943f94", "is_disabled": 0, "rental_uris": {"android": "https://dc.lft.to/lastmile_qr_scan", "ios": "https://dc.lft.to/lastmile_qr_scan"}, "fusion_lon": 0.0, "lat": 38.91803083333333, "bike_id": "d7993ecbafd31af228362dea82943f94", "type": "electric_scooter", "is_reserved": 0, "lon": -77.03437283333334}, {"fusion_lat": 0.0, "name": "367fb0d0dbf7567c0861e73140c453d9", "is_disabled": 0, "rental_uris": {"android": "https://dc.lft.to/lastmile_qr_scan", "ios": "https://dc.lft.to/lastmile_qr_scan"}, "fusion_lon": 0.0, "lat": 38.90576166666666, "bike_id": "367fb0d0dbf7567c0861e73140c453d9", "type": "electric_scooter", "is_reserved": 0, "lon": -77.02208283333333}, {"fusion_lat": 0.0, "name": "3ae09acdf80e9ffcd531aaa6148a6efc", "is_disabled": 0, "rental_uris": {"android": "https://dc.lft.to/lastmile_qr_scan", "ios": "https://dc.lft.to/lastmile_qr_scan"}, "fusion_lon": 0.0, "lat": 38.884857333333336, "bike_id": "3ae09acdf80e9ffcd531aaa6148a6efc", "type": "electric_scooter", "is_reserved": 0, "lon": -77.023647}, {"fusion_lat": 0.0, "name": "eb8152782be13de0707fdee6ef8a5613", "is_disabled": 0, "rental_uris": {"android": "https://dc.lft.to/lastmile_qr_scan", "ios": "https://dc.lft.to/lastmile_qr_scan"}, "fusion_lon": 0.0, "lat": 38.9197215, "bike_id": "eb8152782be13de0707fdee6ef8a5613", "type": "electric_scooter", "is_reserved": 0, "lon": -77.02369866666666}, {"fusion_lat": 0.0, "name": "2459c033d0485896a9f9d82af626f213", "is_disabled": 0, "rental_uris": {"android": "https://dc.lft.to/lastmile_qr_scan", "ios": "https://dc.lft.to/lastmile_qr_scan"}, "fusion_lon": 0.0, "lat": 38.99445566666667, "bike_id": "2459c033d0485896a9f9d82af626f213", "type": "electric_bike", "is_reserved": 0, "lon": -76.9958845}, {"fusion_lat": 0.0, "name": "9e9e270527779d9c0352a6b626a4523b", "is_disabled": 0, "rental_uris": {"android": "https://dc.lft.to/lastmile_qr_scan", "ios": "https://dc.lft.to/lastmile_qr_scan"}, "fusion_lon": 0.0, "lat": 38.93596216666667, "bike_id": "9e9e270527779d9c0352a6b626a4523b", "type": "electric_scooter", "is_reserved": 0, "lon": -77.036614}, {"fusion_lat": 0.0, "name": "d623eefe40fab5cac53e811b99e79433", "is_disabled": 0, "rental_uris": {"android": "https://dc.lft.to/lastmile_qr_scan", "ios": "https://dc.lft.to/lastmile_qr_scan"}, "fusion_lon": 0.0, "lat": 38.8601855, "bike_id": "d623eefe40fab5cac53e811b99e79433", "type": "electric_bike", "is_reserved": 0, "lon": -77.12806833333333}, {"fusion_lat": 0.0, "name": "f0d556b16fbb0447898dacc5a588e292", "is_disabled": 0, "rental_uris": {"android": "https://dc.lft.to/lastmile_qr_scan", "ios": "https://dc.lft.to/lastmile_qr_scan"}, "fusion_lon": 0.0, "lat": 38.92382816666667, "bike_id": "f0d556b16fbb0447898dacc5a588e292", "type": "electric_scooter", "is_reserved": 0, "lon": -77.03186166666667}, {"fusion_lat": 0.0, "name": "1fd7d19feee3b218b505cad7c405a86d", "is_disabled": 0, "rental_uris": {"android": "https://dc.lft.to/lastmile_qr_scan", "ios": "https://dc.lft.to/lastmile_qr_scan"}, "fusion_lon": 0.0, "lat": 38.87455633333333, "bike_id": "1fd7d19feee3b218b505cad7c405a86d", "type": "electric_scooter", "is_reserved": 0, "lon": -77.00292966666666}, {"fusion_lat": 0.0, "name": "eee543d0e2dfb3879b51bb5a1154cae1", "is_disabled": 0, "rental_uris": {"android": "https://dc.lft.to/lastmile_qr_scan", "ios": "https://dc.lft.to/lastmile_qr_scan"}, "fusion_lon": 0.0, "lat": 38.932609666666664, "bike_id": "eee543d0e2dfb3879b51bb5a1154cae1", "type": "electric_scooter", "is_reserved": 0, "lon": -77.019212}, {"fusion_lat": 0.0, "name": "43f6d3df88c9ec82808f250012c9d279", "is_disabled": 0, "rental_uris": {"android": "https://dc.lft.to/lastmile_qr_scan", "ios": "https://dc.lft.to/lastmile_qr_scan"}, "fusion_lon": 0.0, "lat": 38.9060335, "bike_id": "43f6d3df88c9ec82808f250012c9d279", "type": "electric_scooter", "is_reserved": 0, "lon": -77.025978}, {"fusion_lat": 0.0, "name": "3f18f1a57be9240749519c62e88ec2f1", "is_disabled": 0, "rental_uris": {"android": "https://dc.lft.to/lastmile_qr_scan", "ios": "https://dc.lft.to/lastmile_qr_scan"}, "fusion_lon": 0.0, "lat": 38.9409885, "bike_id": "3f18f1a57be9240749519c62e88ec2f1", "type": "electric_scooter", "is_reserved": 0, "lon": -77.03281983333333}, {"fusion_lat": 0.0, "name": "9f28f0133ca5b003ad7a68cf52733b96", "is_disabled": 0, "rental_uris": {"android": "https://dc.lft.to/lastmile_qr_scan", "ios": "https://dc.lft.to/lastmile_qr_scan"}, "fusion_lon": 0.0, "lat": 38.920176, "bike_id": "9f28f0133ca5b003ad7a68cf52733b96", "type": "electric_scooter", "is_reserved": 0, "lon": -77.02501216666667}, {"fusion_lat": 0.0, "name": "a6378abc56b8ac8e63ba077bb024f0ec", "is_disabled": 0, "rental_uris": {"android": "https://dc.lft.to/lastmile_qr_scan", "ios": "https://dc.lft.to/lastmile_qr_scan"}, "fusion_lon": 0.0, "lat": 38.916827166666664, "bike_id": "a6378abc56b8ac8e63ba077bb024f0ec", "type": "electric_scooter", "is_reserved": 0, "lon": -77.01582183333333}, {"fusion_lat": 0.0, "name": "b309c0633ab5180be934fb6b237ca424", "is_disabled": 0, "rental_uris": {"android": "https://dc.lft.to/lastmile_qr_scan", "ios": "https://dc.lft.to/lastmile_qr_scan"}, "fusion_lon": 0.0, "lat": 38.930874333333335, "bike_id": "b309c0633ab5180be934fb6b237ca424", "type": "electric_scooter", "is_reserved": 0, "lon": -77.01996933333334}, {"fusion_lat": 0.0, "name": "c53b9a9845c5cf44a117912da38dc4b4", "is_disabled": 0, "rental_uris": {"android": "https://dc.lft.to/lastmile_qr_scan", "ios": "https://dc.lft.to/lastmile_qr_scan"}, "fusion_lon": 0.0, "lat": 38.957551, "bike_id": "c53b9a9845c5cf44a117912da38dc4b4", "type": "electric_bike", "is_reserved": 0, "lon": -77.0205215}, {"fusion_lat": 0.0, "name": "bd9d35276032570ec7e440fb9a3b1ebf", "is_disabled": 0, "rental_uris": {"android": "https://dc.lft.to/lastmile_qr_scan", "ios": "https://dc.lft.to/lastmile_qr_scan"}, "fusion_lon": 0.0, "lat": 38.93078383333334, "bike_id": "bd9d35276032570ec7e440fb9a3b1ebf", "type": "electric_scooter", "is_reserved": 0, "lon": -77.077607}, {"fusion_lat": 0.0, "name": "f2a0d10e51443ac3f026ccad8b601791", "is_disabled": 0, "rental_uris": {"android": "https://dc.lft.to/lastmile_qr_scan", "ios": "https://dc.lft.to/lastmile_qr_scan"}, "fusion_lon": 0.0, "lat": 38.91332666666667, "bike_id": "f2a0d10e51443ac3f026ccad8b601791", "type": "electric_scooter", "is_reserved": 0, "lon": -77.03178416666667}, {"fusion_lat": 0.0, "name": "dc606081050e38560c08177b58f734f2", "is_disabled": 0, "rental_uris": {"android": "https://dc.lft.to/lastmile_qr_scan", "ios": "https://dc.lft.to/lastmile_qr_scan"}, "fusion_lon": 0.0, "lat": 38.91924266666667, "bike_id": "dc606081050e38560c08177b58f734f2", "type": "electric_scooter", "is_reserved": 0, "lon": -77.02474866666667}, {"fusion_lat": 0.0, "name": "9ea2599e51e68076e8fa9112df67a065", "is_disabled": 0, "rental_uris": {"android": "https://dc.lft.to/lastmile_qr_scan", "ios": "https://dc.lft.to/lastmile_qr_scan"}, "fusion_lon": 0.0, "lat": 38.92696933333333, "bike_id": "9ea2599e51e68076e8fa9112df67a065", "type": "electric_scooter", "is_reserved": 0, "lon": -77.02061116666667}, {"fusion_lat": 0.0, "name": "3196679f4de7cf93fa658a7ed2d37e6c", "is_disabled": 0, "rental_uris": {"android": "https://dc.lft.to/lastmile_qr_scan", "ios": "https://dc.lft.to/lastmile_qr_scan"}, "fusion_lon": 0.0, "lat": 38.9073755, "bike_id": "3196679f4de7cf93fa658a7ed2d37e6c", "type": "electric_scooter", "is_reserved": 0, "lon": -77.02937066666667}, {"fusion_lat": 0.0, "name": "33eb07fabadaa99eaeed9224b2e67ea3", "is_disabled": 0, "rental_uris": {"android": "https://dc.lft.to/lastmile_qr_scan", "ios": "https://dc.lft.to/lastmile_qr_scan"}, "fusion_lon": 0.0, "lat": 38.873853833333335, "bike_id": "33eb07fabadaa99eaeed9224b2e67ea3", "type": "electric_scooter", "is_reserved": 0, "lon": -77.00038166666667}, {"fusion_lat": 0.0, "name": "4750f20335ac56f881b6708b1fe76cb1", "is_disabled": 0, "rental_uris": {"android": "https://dc.lft.to/lastmile_qr_scan", "ios": "https://dc.lft.to/lastmile_qr_scan"}, "fusion_lon": 0.0, "lat": 38.87718433333333, "bike_id": "4750f20335ac56f881b6708b1fe76cb1", "type": "electric_scooter", "is_reserved": 0, "lon": -77.01755233333333}, {"fusion_lat": 0.0, "name": "6774645c12032f0b700167e938a91740", "is_disabled": 0, "rental_uris": {"android": "https://dc.lft.to/lastmile_qr_scan", "ios": "https://dc.lft.to/lastmile_qr_scan"}, "fusion_lon": 0.0, "lat": 38.928598666666666, "bike_id": "6774645c12032f0b700167e938a91740", "type": "electric_scooter", "is_reserved": 0, "lon": -77.01352266666666}, {"fusion_lat": 0.0, "name": "75dc93095c819487b3da5e1a82ad697a", "is_disabled": 0, "rental_uris": {"android": "https://dc.lft.to/lastmile_qr_scan", "ios": "https://dc.lft.to/lastmile_qr_scan"}, "fusion_lon": 0.0, "lat": 38.91520883333333, "bike_id": "75dc93095c819487b3da5e1a82ad697a", "type": "electric_scooter", "is_reserved": 0, "lon": -77.01223416666667}, {"fusion_lat": 0.0, "name": "d9a2a9ccd68683b5340805d6df9fa042", "is_disabled": 0, "rental_uris": {"android": "https://dc.lft.to/lastmile_qr_scan", "ios": "https://dc.lft.to/lastmile_qr_scan"}, "fusion_lon": 0.0, "lat": 38.878489333333334, "bike_id": "d9a2a9ccd68683b5340805d6df9fa042", "type": "electric_scooter", "is_reserved": 0, "lon": -77.00783083333333}, {"fusion_lat": 0.0, "name": "6ec4b868de1025a1d9d1435e202e97d3", "is_disabled": 0, "rental_uris": {"android": "https://dc.lft.to/lastmile_qr_scan", "ios": "https://dc.lft.to/lastmile_qr_scan"}, "fusion_lon": 0.0, "lat": 38.914137333333336, "bike_id": "6ec4b868de1025a1d9d1435e202e97d3", "type": "electric_scooter", "is_reserved": 0, "lon": -77.03820283333333}, {"fusion_lat": 0.0, "name": "e423911ba0193db64c68d00d8e4a525a", "is_disabled": 0, "rental_uris": {"android": "https://dc.lft.to/lastmile_qr_scan", "ios": "https://dc.lft.to/lastmile_qr_scan"}, "fusion_lon": 0.0, "lat": 38.907079333333336, "bike_id": "e423911ba0193db64c68d00d8e4a525a", "type": "electric_scooter", "is_reserved": 0, "lon": -77.04957083333333}, {"fusion_lat": 0.0, "name": "a3dec6ce5dfdd655e47b1b6a973aef8d", "is_disabled": 0, "rental_uris": {"android": "https://dc.lft.to/lastmile_qr_scan", "ios": "https://dc.lft.to/lastmile_qr_scan"}, "fusion_lon": 0.0, "lat": 38.8710945, "bike_id": "a3dec6ce5dfdd655e47b1b6a973aef8d", "type": "electric_scooter", "is_reserved": 0, "lon": -76.96573783333334}, {"fusion_lat": 0.0, "name": "22adec6973eafe6d659700b71f551566", "is_disabled": 0, "rental_uris": {"android": "https://dc.lft.to/lastmile_qr_scan", "ios": "https://dc.lft.to/lastmile_qr_scan"}, "fusion_lon": 0.0, "lat": 38.90038933333334, "bike_id": "22adec6973eafe6d659700b71f551566", "type": "electric_scooter", "is_reserved": 0, "lon": -77.00189716666667}, {"fusion_lat": 0.0, "name": "cd7b55f331ea72f9eed3df81b7841cad", "is_disabled": 0, "rental_uris": {"android": "https://dc.lft.to/lastmile_qr_scan", "ios": "https://dc.lft.to/lastmile_qr_scan"}, "fusion_lon": 0.0, "lat": 38.89877233333333, "bike_id": "cd7b55f331ea72f9eed3df81b7841cad", "type": "electric_bike", "is_reserved": 0, "lon": -77.11327383333334}, {"fusion_lat": 0.0, "name": "2d50933080b5d4eb5f4f59d0b7b504c3", "is_disabled": 0, "rental_uris": {"android": "https://dc.lft.to/lastmile_qr_scan", "ios": "https://dc.lft.to/lastmile_qr_scan"}, "fusion_lon": 0.0, "lat": 38.92382633333333, "bike_id": "2d50933080b5d4eb5f4f59d0b7b504c3", "type": "electric_scooter", "is_reserved": 0, "lon": -77.04110033333333}, {"fusion_lat": 0.0, "name": "06705a13018f34f0fce2d03791adb8ec", "is_disabled": 0, "rental_uris": {"android": "https://dc.lft.to/lastmile_qr_scan", "ios": "https://dc.lft.to/lastmile_qr_scan"}, "fusion_lon": 0.0, "lat": 38.873739, "bike_id": "06705a13018f34f0fce2d03791adb8ec", "type": "electric_bike", "is_reserved": 0, "lon": -77.11800283333334}, {"fusion_lat": 0.0, "name": "9ff608fc02bc1e9ba04e32420ba5a522", "is_disabled": 0, "rental_uris": {"android": "https://dc.lft.to/lastmile_qr_scan", "ios": "https://dc.lft.to/lastmile_qr_scan"}, "fusion_lon": 0.0, "lat": 39.014184166666666, "bike_id": "9ff608fc02bc1e9ba04e32420ba5a522", "type": "electric_bike", "is_reserved": 0, "lon": -77.04501333333333}, {"fusion_lat": 0.0, "name": "5ee6f9d3d61dcc4f4dfca64ef421bbcd", "is_disabled": 0, "rental_uris": {"android": "https://dc.lft.to/lastmile_qr_scan", "ios": "https://dc.lft.to/lastmile_qr_scan"}, "fusion_lon": 0.0, "lat": 38.9111215, "bike_id": "5ee6f9d3d61dcc4f4dfca64ef421bbcd", "type": "electric_scooter", "is_reserved": 0, "lon": -77.02099683333333}, {"fusion_lat": 0.0, "name": "4e92bf8cb1683390a7234c6580ef7171", "is_disabled": 0, "rental_uris": {"android": "https://dc.lft.to/lastmile_qr_scan", "ios": "https://dc.lft.to/lastmile_qr_scan"}, "fusion_lon": 0.0, "lat": 38.882123666666665, "bike_id": "4e92bf8cb1683390a7234c6580ef7171", "type": "electric_bike", "is_reserved": 0, "lon": -76.99271416666667}, {"fusion_lat": 0.0, "name": "c4b1952c761c4e74752abbf2f8328d9d", "is_disabled": 0, "rental_uris": {"android": "https://dc.lft.to/lastmile_qr_scan", "ios": "https://dc.lft.to/lastmile_qr_scan"}, "fusion_lon": 0.0, "lat": 38.8956235, "bike_id": "c4b1952c761c4e74752abbf2f8328d9d", "type": "electric_scooter", "is_reserved": 0, "lon": -76.99427966666667}, {"fusion_lat": 0.0, "name": "286c04ddefe786464a1d019657dbef42", "is_disabled": 0, "rental_uris": {"android": "https://dc.lft.to/lastmile_qr_scan", "ios": "https://dc.lft.to/lastmile_qr_scan"}, "fusion_lon": 0.0, "lat": 38.8767005, "bike_id": "286c04ddefe786464a1d019657dbef42", "type": "electric_scooter", "is_reserved": 0, "lon": -77.01759283333334}, {"fusion_lat": 0.0, "name": "540fc8356ab2115c1c93f45e6c6e17f4", "is_disabled": 0, "rental_uris": {"android": "https://dc.lft.to/lastmile_qr_scan", "ios": "https://dc.lft.to/lastmile_qr_scan"}, "fusion_lon": 0.0, "lat": 38.890925333333335, "bike_id": "540fc8356ab2115c1c93f45e6c6e17f4", "type": "electric_scooter", "is_reserved": 0, "lon": -76.919246}, {"fusion_lat": 0.0, "name": "d3bb29de4997627170acdde7f24c4e3b", "is_disabled": 0, "rental_uris": {"android": "https://dc.lft.to/lastmile_qr_scan", "ios": "https://dc.lft.to/lastmile_qr_scan"}, "fusion_lon": 0.0, "lat": 38.9050975, "bike_id": "d3bb29de4997627170acdde7f24c4e3b", "type": "electric_scooter", "is_reserved": 0, "lon": -76.98481816666667}, {"fusion_lat": 0.0, "name": "62f57a721a68a7967b0d13bcbff3259a", "is_disabled": 0, "rental_uris": {"android": "https://dc.lft.to/lastmile_qr_scan", "ios": "https://dc.lft.to/lastmile_qr_scan"}, "fusion_lon": 0.0, "lat": 38.94430666666667, "bike_id": "62f57a721a68a7967b0d13bcbff3259a", "type": "electric_bike", "is_reserved": 0, "lon": -77.02602433333334}, {"fusion_lat": 0.0, "name": "8209f7780169fa7d866ff181990899cb", "is_disabled": 0, "rental_uris": {"android": "https://dc.lft.to/lastmile_qr_scan", "ios": "https://dc.lft.to/lastmile_qr_scan"}, "fusion_lon": 0.0, "lat": 38.9546175, "bike_id": "8209f7780169fa7d866ff181990899cb", "type": "electric_scooter", "is_reserved": 0, "lon": -77.00784416666667}, {"fusion_lat": 0.0, "name": "f08b55751173ff60f229de65ac381211", "is_disabled": 0, "rental_uris": {"android": "https://dc.lft.to/lastmile_qr_scan", "ios": "https://dc.lft.to/lastmile_qr_scan"}, "fusion_lon": 0.0, "lat": 38.920502166666665, "bike_id": "f08b55751173ff60f229de65ac381211", "type": "electric_scooter", "is_reserved": 0, "lon": -77.003455}, {"fusion_lat": 0.0, "name": "a26466b8c98a002b10b7191c52d64a3f", "is_disabled": 0, "rental_uris": {"android": "https://dc.lft.to/lastmile_qr_scan", "ios": "https://dc.lft.to/lastmile_qr_scan"}, "fusion_lon": 0.0, "lat": 38.905021, "bike_id": "a26466b8c98a002b10b7191c52d64a3f", "type": "electric_scooter", "is_reserved": 0, "lon": -77.02949433333333}, {"fusion_lat": 0.0, "name": "038c13b317345c05bd6e3aab55288ef6", "is_disabled": 0, "rental_uris": {"android": "https://dc.lft.to/lastmile_qr_scan", "ios": "https://dc.lft.to/lastmile_qr_scan"}, "fusion_lon": 0.0, "lat": 38.89231183333333, "bike_id": "038c13b317345c05bd6e3aab55288ef6", "type": "electric_scooter", "is_reserved": 0, "lon": -77.02788583333333}, {"fusion_lat": 0.0, "name": "8651d7026d25d8d730da2634a9b3d4b9", "is_disabled": 0, "rental_uris": {"android": "https://dc.lft.to/lastmile_qr_scan", "ios": "https://dc.lft.to/lastmile_qr_scan"}, "fusion_lon": 0.0, "lat": 38.9363135, "bike_id": "8651d7026d25d8d730da2634a9b3d4b9", "type": "electric_scooter", "is_reserved": 0, "lon": -77.032711}, {"fusion_lat": 0.0, "name": "51ca36bac3421e33d1b6202024bd78e6", "is_disabled": 0, "rental_uris": {"android": "https://dc.lft.to/lastmile_qr_scan", "ios": "https://dc.lft.to/lastmile_qr_scan"}, "fusion_lon": 0.0, "lat": 38.92684116666667, "bike_id": "51ca36bac3421e33d1b6202024bd78e6", "type": "electric_scooter", "is_reserved": 0, "lon": -77.03050233333333}, {"fusion_lat": 0.0, "name": "5b6c67489d1cddd8005a6dd90e0d086d", "is_disabled": 0, "rental_uris": {"android": "https://dc.lft.to/lastmile_qr_scan", "ios": "https://dc.lft.to/lastmile_qr_scan"}, "fusion_lon": 0.0, "lat": 38.92071833333333, "bike_id": "5b6c67489d1cddd8005a6dd90e0d086d", "type": "electric_scooter", "is_reserved": 0, "lon": -76.99171783333334}, {"fusion_lat": 0.0, "name": "5301d6edbddcb753917dd49016704259", "is_disabled": 0, "rental_uris": {"android": "https://dc.lft.to/lastmile_qr_scan", "ios": "https://dc.lft.to/lastmile_qr_scan"}, "fusion_lon": 0.0, "lat": 38.9623455, "bike_id": "5301d6edbddcb753917dd49016704259", "type": "electric_bike", "is_reserved": 0, "lon": -76.9279695},