{"data": {"bikes": [{"bike_id": "a1809eb780e2fa1861e448d5f1036b9b", "is_reserved": 0, "fusion_lon": 0.0, "lat": 38.9209475, "is_disabled": 0, "name": "a1809eb780e2fa1861e448d5f1036b9b", "fusion_lat": 0.0, "rental_uris": {"ios": "https://dc.lft.to/lastmile_qr_scan", "android": "https://dc.lft.to/lastmile_qr_scan"}, "lon": -77.07465566666667, "type": "electric_scooter"}, {"bike_id": "dce1939338f789998997fad7e0a62e14", "is_reserved": 0, "fusion_lon": 0.0, "lat": 38.9000485, "is_disabled": 0, "name": "dce1939338f789998997fad7e0a62e14", "fusion_lat": 0.0, "rental_uris": {"ios": "https://dc.lft.to/lastmile_qr_scan", "android": "https://dc.lft.to/lastmile_qr_scan"}, "lon": -77.01127866666667, "type": "electric_scooter"}, {"bike_id": "4612826d5c7b9b30708f3e59de1fadc7", "is_reserved": 0, "fusion_lon": 0.0, "lat": 38.86248666666667, "is_disabled": 0, "name": "4612826d5c7b9b30708f3e59de1fadc7", "fusion_lat": 0.0, "rental_uris": {"ios": "https://dc.lft.to/lastmile_qr_scan", "android": "https://dc.lft.to/lastmile_qr_scan"}, "lon": -76.994897, "type": "electric_scooter"}, {"bike_id": "bede4f0eda6348a66bf1c6bd9f3f0982", "is_reserved": 0, "fusion_lon": 0.0, "lat": 38.91099416666667, "is_disabled": 0, "name": "bede4f0eda6348a66bf1c6bd9f3f0982", "fusion_lat": 0.0, "rental_uris": {"ios": "https://dc.lft.to/lastmile_qr_scan", "android": "https://dc.lft.to/lastmile_qr_scan"}, "lon": -77.003795, "type": "electric_scooter"}, {"bike_id": "ba1d39bb237a7440bdd6624cc4d38b64", "is_reserved": 0, "fusion_lon": 0.0, "lat": 38.901337833333336, "is_disabled": 0, "name": "ba1d39bb237a7440bdd6624cc4d38b64", "fusion_lat": 0.0, "rental_uris": {"ios": "https://dc.lft.to/lastmile_qr_scan", "android": "https://dc.lft.to/lastmile_qr_scan"}, "lon": -77.04485766666667, "type": "electric_scooter"}, {"bike_id": "bef194221fc591bf0b0f72ddfcff3980", "is_reserved": 0, "fusion_lon": 0.0, "lat": 38.926351833333335, "is_disabled": 0, "name": "bef194221fc591bf0b0f72ddfcff3980", "fusion_lat": 0.0, "rental_uris": {"ios": "https://dc.lft.to/lastmile_qr_scan", "android": "https://dc.lft.to/lastmile_qr_scan"}, "lon": -77.03507233333333, "type": "electric_scooter"}, {"bike_id": "376b5df6b835581e12a4aeb35e063489", "is_reserved": 0, "fusion_lon": 0.0, "lat": 38.904961166666666, "is_disabled": 0, "name": "376b5df6b835581e12a4aeb35e063489", "fusion_lat": 0.0, "rental_uris": {"ios": "https://dc.lft.to/lastmile_qr_scan", "android": "https://dc.lft.to/lastmile_qr_scan"}, "lon": -77.0415025, "type": "electric_scooter"}, {"bike_id": "528334b4387019bfacb966aaa6116f19", "is_reserved": 0, "fusion_lon": 0.0, "lat": 38.89824, "is_disabled": 0, "name": "528334b4387019bfacb966aaa6116f19", "fusion_lat": 0.0, "rental_uris": {"ios": "https://dc.lft.to/lastmile_qr_scan", "android": "https://dc.lft.to/lastmile_qr_scan"}, "lon": -77.03344683333333, "type": "electric_scooter"}, {"bike_id": "4a2ddcf1cc8787453effe870985d933a", "is_reserved": 0, "fusion_lon": 0.0, "lat": 38.93349333333333, "is_disabled": 0, "name": "4a2ddcf1cc8787453effe870985d933a", "fusion_lat": 0.0, "rental_uris": {"ios": "https://dc.lft.to/lastmile_qr_scan", "android": "https://dc.lft.to/lastmile_qr_scan"}, "lon": -77.05869883333334, "type": "electric_scooter"}, {"bike_id": "199eec7380331325f2b68ab7187b5aa7", "is_reserved": 0, "fusion_lon": 0.0, "lat": 38.898239833333335, "is_disabled": 0, "name": "199eec7380331325f2b68ab7187b5aa7", "fusion_lat": 0.0, "rental_uris": {"ios": "https://dc.lft.to/lastmile_qr_scan", "android": "https://dc.lft.to/lastmile_qr_scan"}, "lon": -76.94650133333333, "type": "electric_scooter"}, {"bike_id": "21d1b01bba93560ee8b60b24b355a036", "is_reserved": 0, "fusion_lon": 0.0, "lat": 38.881333166666664, "is_disabled": 0, "name": "21d1b01bba93560ee8b60b24b355a036", "fusion_lat": 0.0, "rental_uris": {"ios": "https://dc.lft.to/lastmile_qr_scan", "android": "https://dc.lft.to/lastmile_qr_scan"}, "lon": -76.98090466666666, "type": "electric_bike"}, {"bike_id": "90126d9a63cc52b59e9fabf86fd53050", "is_reserved": 0, "fusion_lon": 0.0, "lat": 38.900544333333336, "is_disabled": 0, "name": "90126d9a63cc52b59e9fabf86fd53050", "fusion_lat": 0.0, "rental_uris": {"ios": "https://dc.lft.to/lastmile_qr_scan", "android": "https://dc.lft.to/lastmile_qr_scan"}, "lon": -77.051401, "type": "electric_scooter"}, {"bike_id": "86480cd29327b1861dc10bf944d04a0b", "is_reserved": 0, "fusion_lon": 0.0, "lat": 38.894917666666665, "is_disabled": 0, "name": "86480cd29327b1861dc10bf944d04a0b", "fusion_lat": 0.0, "rental_uris": {"ios": "https://dc.lft.to/lastmile_qr_scan", "android": "https://dc.lft.to/lastmile_qr_scan"}, "lon": -77.02295833333334, "type": "electric_scooter"}, {"bike_id": "3c935608652c2ac95d8b66c44cc7267d", "is_reserved": 0, "fusion_lon": 0.0, "lat": 38.91420816666667, "is_disabled": 0, "name": "3c935608652c2ac95d8b66c44cc7267d", "fusion_lat": 0.0, "rental_uris": {"ios": "https://dc.lft.to/lastmile_qr_scan", "android": "https://dc.lft.to/lastmile_qr_scan"}, "lon": -77.03814433333334, "type": "electric_scooter"}, {"bike_id": "64815894cdb3266ab45ffe5216ce4295", "is_reserved": 0, "fusion_lon": 0.0, "lat": 38.901328166666666, "is_disabled": 0, "name": "64815894cdb3266ab45ffe5216ce4295", "fusion_lat": 0.0, "rental_uris": {"ios": "https://dc.lft.to/lastmile_qr_scan", "android": "https://dc.lft.to/lastmile_qr_scan"}, "lon": -77.02837133333334, "type": "electric_scooter"}, {"bike_id": "09ff00bd87f890b8f96254403adc3971", "is_reserved": 0, "fusion_lon": 0.0, "lat": 38.91680183333333, "is_disabled": 0, "name": "09ff00bd87f890b8f96254403adc3971", "fusion_lat": 0.0, "rental_uris": {"ios": "https://dc.lft.to/lastmile_qr_scan", "android": "https://dc.lft.to/lastmile_qr_scan"}, "lon": -77.02959083333333, "type": "electric_scooter"}, {"bike_id": "3fd75f93d230eaf1e3da18061f203c06", "is_reserved": 0, "fusion_lon": 0.0, "lat": 38.93082, "is_disabled": 0, "name": "3fd75f93d230eaf1e3da18061f203c06", "fusion_lat": 0.0, "rental_uris": {"ios": "https://dc.lft.to/lastmile_qr_scan", "android": "https://dc.lft.to/lastmile_qr_scan"}, "lon": -77.02796483333333, "type": "electric_scooter"}, {"bike_id": "42b0745decd37f4acb2edf2bab15ce33", "is_reserved": 0, "fusion_lon": 0.0, "lat": 38.90280583333333, "is_disabled": 0, "name": "42b0745decd37f4acb2edf2bab15ce33", "fusion_lat": 0.0, "rental_uris": {"ios": "https://dc.lft.to/lastmile_qr_scan", "android": "https://dc.lft.to/lastmile_qr_scan"}, "lon": -77.03929316666667, "type": "electric_scooter"}, {"bike_id": "64a10df7c7cfa287f2057d3d4417b9d8", "is_reserved": 0, "fusion_lon": 0.0, "lat": 38.86655983333333, "is_disabled": 0, "name": "64a10df7c7cfa287f2057d3d4417b9d8", "fusion_lat": 0.0, "rental_uris": {"ios": "https://dc.lft.to/lastmile_qr_scan", "android": "https://dc.lft.to/lastmile_qr_scan"}, "lon": -76.99015383333334, "type": "electric_scooter"}, {"bike_id": "eba3ce61c1c8cb7005ecd4ca62e483c8", "is_reserved": 0, "fusion_lon": 0.0, "lat": 38.900995, "is_disabled": 0, "name": "eba3ce61c1c8cb7005ecd4ca62e483c8", "fusion_lat": 0.0, "rental_uris": {"ios": "https://dc.lft.to/lastmile_qr_scan", "android": "https://dc.lft.to/lastmile_qr_scan"}, "lon": -77.05067, "type": "electric_scooter"}, {"bike_id": "2ab060f11ab099ede01ea390983953c4", "is_reserved": 0, "fusion_lon": 0.0, "lat": 38.90496866666667, "is_disabled": 0, "name": "2ab060f11ab099ede01ea390983953c4", "fusion_lat": 0.0, "rental_uris": {"ios": "https://dc.lft.to/lastmile_qr_scan", "android": "https://dc.lft.to/lastmile_qr_scan"}, "lon": -77.05749633333333, "type": "electric_scooter"}, {"bike_id": "9180a96352afc842e183bbf8f8be2ac3", "is_reserved": 0, "fusion_lon": 0.0, "lat": 38.91425233333333, "is_disabled": 0, "name": "9180a96352afc842e183bbf8f8be2ac3", "fusion_lat": 0.0, "rental_uris": {"ios": "https://dc.lft.to/lastmile_qr_scan", "android": "https://dc.lft.to/lastmile_qr_scan"}, "lon": -77.0416025, "type": "electric_scooter"}, {"bike_id": "a1be55b639458647e98325db511d7160", "is_reserved": 0, "fusion_lon": 0.0, "lat": 38.83983516666667, "is_disabled": 0, "name": "a1be55b639458647e98325db511d7160", "fusion_lat": 0.0, "rental_uris": {"ios": "https://dc.lft.to/lastmile_qr_scan", "android": "https://dc.lft.to/lastmile_qr_scan"}, "lon": -77.00566833333333, "type": "electric_bike"}, {"bike_id": "dd86660b5684d12c7fce3c2357159d36", "is_reserved": 0, "fusion_lon": 0.0, "lat": 38.92270033333333, "is_disabled": 0, "name": "dd86660b5684d12c7fce3c2357159d36", "fusion_lat": 0.0, "rental_uris": {"ios": "https://dc.lft.to/lastmile_qr_scan", "android": "https://dc.lft.to/lastmile_qr_scan"}, "lon": -77.01823233333333, "type": "electric_scooter"}, {"bike_id": "0568048b84520bdc89f6fc5349835353", "is_reserved": 0, "fusion_lon": 0.0, "lat": 38.91172233333333, "is_disabled": 0, "name": "0568048b84520bdc89f6fc5349835353", "fusion_lat": 0.0, "rental_uris": {"ios": "https://dc.lft.to/lastmile_qr_scan", "android": "https://dc.lft.to/lastmile_qr_scan"}, "lon": -76.98643233333334, "type": "electric_scooter"}, {"bike_id": "7a4c4f37394bb287a765f22ae08fcf0d", "is_reserved": 0, "fusion_lon": 0.0, "lat": 38.899583, "is_disabled": 0, "name": "7a4c4f37394bb287a765f22ae08fcf0d", "fusion_lat": 0.0, "rental_uris": {"ios": "https://dc.lft.to/lastmile_qr_scan", "android": "https://dc.lft.to/lastmile_qr_scan"}, "lon": -77.05276016666667, "type": "electric_scooter"}, {"bike_id": "21a785d43860bd51256ea81b88fe7adc", "is_reserved": 0, "fusion_lon": 0.0, "lat": 38.90128216666667, "is_disabled": 0, "name": "21a785d43860bd51256ea81b88fe7adc", "fusion_lat": 0.0, "rental_uris": {"ios": "https://dc.lft.to/lastmile_qr_scan", "android": "https://dc.lft.to/lastmile_qr_scan"}, "lon": -76.99712633333333, "type": "electric_scooter"}, {"bike_id": "5a303af1b6c07ff2805fa21c656bf83d", "is_reserved": 0, "fusion_lon": 0.0, "lat": 38.92709633333333, "is_disabled": 0, "name": "5a303af1b6c07ff2805fa21c656bf83d", "fusion_lat": 0.0, "rental_uris": {"ios": "https://dc.lft.to/lastmile_qr_scan", "android": "https://dc.lft.to/lastmile_qr_scan"}, "lon": -77.04052466666667, "type": "electric_scooter"}, {"bike_id": "3d34e84d30ceac4154842a12ee5b66fc", "is_reserved": 0, "fusion_lon": 0.0, "lat": 38.90872616666667, "is_disabled": 0, "name": "3d34e84d30ceac4154842a12ee5b66fc", "fusion_lat": 0.0, "rental_uris": {"ios": "https://dc.lft.to/lastmile_qr_scan", "android": "https://dc.lft.to/lastmile_qr_scan"}, "lon": -77.03308966666667, "type": "electric_scooter"}, {"bike_id": "99879f8fab0ff5e08a389f944d223817", "is_reserved": 0, "fusion_lon": 0.0, "lat": 38.892210166666665, "is_disabled": 0, "name": "99879f8fab0ff5e08a389f944d223817", "fusion_lat": 0.0, "rental_uris": {"ios": "https://dc.lft.to/lastmile_qr_scan", "android": "https://dc.lft.to/lastmile_qr_scan"}, "lon": -77.03342766666667, "type": "electric_scooter"}, {"bike_id": "f8ea60aad6efef2ab9a07a8a2502f581", "is_reserved": 0, "fusion_lon": 0.0, "lat": 38.906687833333336, "is_disabled": 0, "name": "f8ea60aad6efef2ab9a07a8a2502f581", "fusion_lat": 0.0, "rental_uris": {"ios": "https://dc.lft.to/lastmile_qr_scan", "android": "https://dc.lft.to/lastmile_qr_scan"}, "lon": -77.03855116666666, "type": "electric_scooter"}, {"bike_id": "e4cda7c6171611b88032b703c29b1a66", "is_reserved": 0, "fusion_lon": 0.0, "lat": 38.9026615, "is_disabled": 0, "name": "e4cda7c6171611b88032b703c29b1a66", "fusion_lat": 0.0, "rental_uris": {"ios": "https://dc.lft.to/lastmile_qr_scan", "android": "https://dc.lft.to/lastmile_qr_scan"}, "lon": -77.05315216666666, "type": "electric_scooter"}, {"bike_id": "f5475759212341bfd8f80e14adca2fca", "is_reserved": 0, "fusion_lon": 0.0, "lat": 38.90519883333333, "is_disabled": 0, "name": "f5475759212341bfd8f80e14adca2fca", "fusion_lat": 0.0, "rental_uris": {"ios": "https://dc.lft.to/lastmile_qr_scan", "android": "https://dc.lft.to/lastmile_qr_scan"}, "lon": -77.06531666666666, "type": "electric_scooter"}, {"bike_id": "33eac0323b350a5853305f6ba0924ded", "is_reserved": 0, "fusion_lon": 0.0, "lat": 38.92962, "is_disabled": 0, "name": "33eac0323b350a5853305f6ba0924ded", "fusion_lat": 0.0, "rental_uris": {"ios": "https://dc.lft.to/lastmile_qr_scan", "android": "https://dc.lft.to/lastmile_qr_scan"}, "lon": -77.0114845, "type": "electric_scooter"}, {"bike_id": "4f6110ad573cbd2ed673c3729e94aa60", "is_reserved": 0, "fusion_lon": 0.0, "lat": 38.92684283333333, "is_disabled": 0, "name": "4f6110ad573cbd2ed673c3729e94aa60", "fusion_lat": 0.0, "rental_uris": {"ios": "https://dc.lft.to/lastmile_qr_scan", "android": "https://dc.lft.to/lastmile_qr_scan"}, "lon": -77.01575766666667, "type": "electric_scooter"}, {"bike_id": "1c3625b858e8f53ae5b6208298f79e26", "is_reserved": 0, "fusion_lon": 0.0, "lat": 38.923472333333336, "is_disabled": 0, "name": "1c3625b858e8f53ae5b6208298f79e26", "fusion_lat": 0.0, "rental_uris": {"ios": "https://dc.lft.to/lastmile_qr_scan", "android": "https://dc.lft.to/lastmile_qr_scan"}, "lon": -77.035139, "type": "electric_scooter"}, {"bike_id": "c65f53957960bb4aa5dc68681aea9bec", "is_reserved": 0, "fusion_lon": 0.0, "lat": 38.92163516666667, "is_disabled": 0, "name": "c65f53957960bb4aa5dc68681aea9bec", "fusion_lat": 0.0, "rental_uris": {"ios": "https://dc.lft.to/lastmile_qr_scan", "android": "https://dc.lft.to/lastmile_qr_scan"}, "lon": -77.04693033333334, "type": "electric_scooter"}, {"bike_id": "985e6826c67d67e774f5efba5d86cc81", "is_reserved": 0, "fusion_lon": 0.0, "lat": 38.905256, "is_disabled": 0, "name": "985e6826c67d67e774f5efba5d86cc81", "fusion_lat": 0.0, "rental_uris": {"ios": "https://dc.lft.to/lastmile_qr_scan", "android": "https://dc.lft.to/lastmile_qr_scan"}, "lon": -77.05763616666667, "type": "electric_scooter"}, {"bike_id": "046c72e2d00c1f64f82b3c0117661d44", "is_reserved": 0, "fusion_lon": 0.0, "lat": 38.863738166666664, "is_disabled": 0, "name": "046c72e2d00c1f64f82b3c0117661d44", "fusion_lat": 0.0, "rental_uris": {"ios": "https://dc.lft.to/lastmile_qr_scan", "android": "https://dc.lft.to/lastmile_qr_scan"}, "lon": -77.01366683333333, "type": "electric_scooter"}, {"bike_id": "ba5120ad589ba6ceec5b731e4eed92d1", "is_reserved": 0, "fusion_lon": 0.0, "lat": 38.84574966666667, "is_disabled": 0, "name": "ba5120ad589ba6ceec5b731e4eed92d1", "fusion_lat": 0.0, "rental_uris": {"ios": "https://dc.lft.to/lastmile_qr_scan", "android": "https://dc.lft.to/lastmile_qr_scan"}, "lon": -77.09613966666667, "type": "electric_bike"}, {"bike_id": "dbb12af84dab418766d4de51c83dce56", "is_reserved": 0, "fusion_lon": 0.0, "lat": 38.91563683333333, "is_disabled": 0, "name": "dbb12af84dab418766d4de51c83dce56", "fusion_lat": 0.0, "rental_uris": {"ios": "https://dc.lft.to/lastmile_qr_scan", "android": "https://dc.lft.to/lastmile_qr_scan"}, "lon": -77.03941416666666, "type": "electric_scooter"}, {"bike_id": "b5576cb5851f1c148f4ec51565bab200", "is_reserved": 0, "fusion_lon": 0.0, "lat": 38.9036535, "is_disabled": 0, "name": "b5576cb5851f1c148f4ec51565bab200", "fusion_lat": 0.0, "rental_uris": {"ios": "https://dc.lft.to/lastmile_qr_scan", "android": "https://dc.lft.to/lastmile_qr_scan"}, "lon": -77.02995033333333, "type": "electric_scooter"}, {"bike_id": "4046e3c41157d0b4a43cf004ccffb3aa", "is_reserved": 0, "fusion_lon": 0.0, "lat": 38.90956283333333, "is_disabled": 0, "name": "4046e3c41157d0b4a43cf004ccffb3aa", "fusion_lat": 0.0, "rental_uris": {"ios": "https://dc.lft.to/lastmile_qr_scan", "android": "https://dc.lft.to/lastmile_qr_scan"}, "lon": -77.0346815, "type": "electric_scooter"}, {"bike_id": "3f705d62635439e432de6618c8d4d6ce", "is_reserved": 0, "fusion_lon": 0.0, "lat": 38.926599833333334, "is_disabled": 0, "name": "3f705d62635439e432de6618c8d4d6ce", "fusion_lat": 0.0, "rental_uris": {"ios": "https://dc.lft.to/lastmile_qr_scan", "android": "https://dc.lft.to/lastmile_qr_scan"}, "lon": -77.03720633333333, "type": "electric_scooter"}, {"bike_id": "feb9d47cd7467d5354ea86820ba035d6", "is_reserved": 0, "fusion_lon": 0.0, "lat": 38.908000666666666, "is_disabled": 0, "name": "feb9d47cd7467d5354ea86820ba035d6", "fusion_lat": 0.0, "rental_uris": {"ios": "https://dc.lft.to/lastmile_qr_scan", "android": "https://dc.lft.to/lastmile_qr_scan"}, "lon": -77.00019116666667, "type": "electric_scooter"}, {"bike_id": "d70790789fd3cc725c0767edb8350f22", "is_reserved": 0, "fusion_lon": 0.0, "lat": 38.901195666666666, "is_disabled": 0, "name": "d70790789fd3cc725c0767edb8350f22", "fusion_lat": 0.0, "rental_uris": {"ios": "https://dc.lft.to/lastmile_qr_scan", "android": "https://dc.lft.to/lastmile_qr_scan"}, "lon": -77.04979383333334, "type": "electric_scooter"}, {"bike_id": "1c5e247e62c07da442614152b9ef111e", "is_reserved": 0, "fusion_lon": 0.0, "lat": 38.914126333333336, "is_disabled": 0, "name": "1c5e247e62c07da442614152b9ef111e", "fusion_lat": 0.0, "rental_uris": {"ios": "https://dc.lft.to/lastmile_qr_scan", "android": "https://dc.lft.to/lastmile_qr_scan"}, "lon": -77.02682966666667, "type": "electric_scooter"}, {"bike_id": "4f6b43b8faf9ee5f9301d7a627ae408f", "is_reserved": 0, "fusion_lon": 0.0, "lat": 38.90733783333334, "is_disabled": 0, "name": "4f6b43b8faf9ee5f9301d7a627ae408f", "fusion_lat": 0.0, "rental_uris": {"ios": "https://dc.lft.to/lastmile_qr_scan", "android": "https://dc.lft.to/lastmile_qr_scan"}, "lon": -77.04244083333333, "type": "electric_scooter"}, {"bike_id": "2143dfe017369a1a95d637cf67fa11c2", "is_reserved": 0, "fusion_lon": 0.0, "lat": 38.89219283333333, "is_disabled": 0, "name": "2143dfe017369a1a95d637cf67fa11c2", "fusion_lat": 0.0, "rental_uris": {"ios": "https://dc.lft.to/lastmile_qr_scan", "android": "https://dc.lft.to/lastmile_qr_scan"}, "lon": -77.03162383333333, "type": "electric_scooter"}, {"bike_id": "326fe8c83ecbf8fdcdc944e51006e19a", "is_reserved": 0, "fusion_lon": 0.0, "lat": 38.896372666666664, "is_disabled": 0, "name": "326fe8c83ecbf8fdcdc944e51006e19a", "fusion_lat": 0.0, "rental_uris": {"ios": "https://dc.lft.to/lastmile_qr_scan", "android": "https://dc.lft.to/lastmile_qr_scan"}, "lon": -77.03226233333334, "type": "electric_scooter"}, {"bike_id": "589bfba2565e9526c46a278b907cdb26", "is_reserved": 0, "fusion_lon": 0.0, "lat": 38.920913666666664, "is_disabled": 0, "name": "589bfba2565e9526c46a278b907cdb26", "fusion_lat": 0.0, "rental_uris": {"ios": "https://dc.lft.to/lastmile_qr_scan", "android": "https://dc.lft.to/lastmile_qr_scan"}, "lon": -77.0316845, "type": "electric_scooter"}, {"bike_id": "58ecefe357d35befb49b051acdf71c30", "is_reserved": 0, "fusion_lon": 0.0, "lat": 38.952662333333336, "is_disabled": 0, "name": "58ecefe357d35befb49b051acdf71c30", "fusion_lat": 0.0, "rental_uris": {"ios": "https://dc.lft.to/lastmile_qr_scan", "android": "https://dc.lft.to/lastmile_qr_scan"}, "lon": -77.0698925, "type": "electric_bike"}, {"bike_id": "e35035104247745ab1ab435c75e5c385", "is_reserved": 0, "fusion_lon": 0.0, "lat": 38.930949, "is_disabled": 0, "name": "e35035104247745ab1ab435c75e5c385", "fusion_lat": 0.0, "rental_uris": {"ios": "https://dc.lft.to/lastmile_qr_scan", "android": "https://dc.lft.to/lastmile_qr_scan"}, "lon": -77.02508333333333, "type": "electric_scooter"}, {"bike_id": "ad2525880ef67c08cb81a9ccd02419fd", "is_reserved": 0, "fusion_lon": 0.0, "lat": 38.9224535, "is_disabled": 0, "name": "ad2525880ef67c08cb81a9ccd02419fd", "fusion_lat": 0.0, "rental_uris": {"ios": "https://dc.lft.to/lastmile_qr_scan", "android": "https://dc.lft.to/lastmile_qr_scan"}, "lon": -77.018238, "type": "electric_scooter"}, {"bike_id": "49b0f8d9f6f54d004fa261411f5eff13", "is_reserved": 0, "fusion_lon": 0.0, "lat": 38.8901005, "is_disabled": 0, "name": "49b0f8d9f6f54d004fa261411f5eff13", "fusion_lat": 0.0, "rental_uris": {"ios": "https://dc.lft.to/lastmile_qr_scan", "android": "https://dc.lft.to/lastmile_qr_scan"}, "lon": -76.93744116666667, "type": "electric_scooter"}, {"bike_id": "11bd10804a416ebde54fccfbd502dee5", "is_reserved": 0, "fusion_lon": 0.0, "lat": 38.900306, "is_disabled": 0, "name": "11bd10804a416ebde54fccfbd502dee5", "fusion_lat": 0.0, "rental_uris": {"ios": "https://dc.lft.to/lastmile_qr_scan", "android": "https://dc.lft.to/lastmile_qr_scan"}, "lon": -77.0466445, "type": "electric_scooter"}, {"bike_id": "0c5b8b6335c0982ef9be95913da807dd", "is_reserved": 0, "fusion_lon": 0.0, "lat": 38.904187, "is_disabled": 0, "name": "0c5b8b6335c0982ef9be95913da807dd", "fusion_lat": 0.0, "rental_uris": {"ios": "https://dc.lft.to/lastmile_qr_scan", "android": "https://dc.lft.to/lastmile_qr_scan"}, "lon": -77.0432125, "type": "electric_scooter"}, {"bike_id": "21a0243fced0be8747f1f7ecbdf07b03", "is_reserved": 0, "fusion_lon": 0.0, "lat": 38.905591666666666, "is_disabled": 0, "name": "21a0243fced0be8747f1f7ecbdf07b03", "fusion_lat": 0.0, "rental_uris": {"ios": "https://dc.lft.to/lastmile_qr_scan", "android": "https://dc.lft.to/lastmile_qr_scan"}, "lon": -77.00290366666667, "type": "electric_scooter"}, {"bike_id": "f8ddb2f5e2f214e1cf4c9cf26a047ff9", "is_reserved": 0, "fusion_lon": 0.0, "lat": 38.86609333333333, "is_disabled": 0, "name": "f8ddb2f5e2f214e1cf4c9cf26a047ff9", "fusion_lat": 0.0, "rental_uris": {"ios": "https://dc.lft.to/lastmile_qr_scan", "android": "https://dc.lft.to/lastmile_qr_scan"}, "lon": -76.98917833333333, "type": "electric_scooter"}, {"bike_id": "c6f1476c4bb51786ef6f13139dcdf056", "is_reserved": 0, "fusion_lon": 0.0, "lat": 38.90575366666667, "is_disabled": 0, "name": "c6f1476c4bb51786ef6f13139dcdf056", "fusion_lat": 0.0, "rental_uris": {"ios": "https://dc.lft.to/lastmile_qr_scan", "android": "https://dc.lft.to/lastmile_qr_scan"}, "lon": -77.02174916666667, "type": "electric_scooter"}, {"bike_id": "e9b6f1470520eccafc54aa4ddb81b292", "is_reserved": 0, "fusion_lon": 0.0, "lat": 38.923669, "is_disabled": 0, "name": "e9b6f1470520eccafc54aa4ddb81b292", "fusion_lat": 0.0, "rental_uris": {"ios": "https://dc.lft.to/lastmile_qr_scan", "android": "https://dc.lft.to/lastmile_qr_scan"}, "lon": -77.050275, "type": "electric_scooter"}, {"bike_id": "545472b7cca4d93fe0bb5fabfbfb5a86", "is_reserved": 0, "fusion_lon": 0.0, "lat": 38.92365316666667, "is_disabled": 0, "name": "545472b7cca4d93fe0bb5fabfbfb5a86", "fusion_lat": 0.0, "rental_uris": {"ios": "https://dc.lft.to/lastmile_qr_scan", "android": "https://dc.lft.to/lastmile_qr_scan"}, "lon": -77.05130883333334, "type": "electric_scooter"}, {"bike_id": "0fc76c48d79516e0705ff39abc00f4c7", "is_reserved": 0, "fusion_lon": 0.0, "lat": 38.92057666666667, "is_disabled": 0, "name": "0fc76c48d79516e0705ff39abc00f4c7", "fusion_lat": 0.0, "rental_uris": {"ios": "https://dc.lft.to/lastmile_qr_scan", "android": "https://dc.lft.to/lastmile_qr_scan"}, "lon": -77.03400483333333, "type": "electric_scooter"}, {"bike_id": "1cfe7b78f5b673f51d164ad18dff37db", "is_reserved": 0, "fusion_lon": 0.0, "lat": 38.905831166666665, "is_disabled": 0, "name": "1cfe7b78f5b673f51d164ad18dff37db", "fusion_lat": 0.0, "rental_uris": {"ios": "https://dc.lft.to/lastmile_qr_scan", "android": "https://dc.lft.to/lastmile_qr_scan"}, "lon": -77.06520933333333, "type": "electric_scooter"}, {"bike_id": "28ce0713dd09df13cd2a7064576bcbfb", "is_reserved": 0, "fusion_lon": 0.0, "lat": 38.9057335, "is_disabled": 0, "name": "28ce0713dd09df13cd2a7064576bcbfb", "fusion_lat": 0.0, "rental_uris": {"ios": "https://dc.lft.to/lastmile_qr_scan", "android": "https://dc.lft.to/lastmile_qr_scan"}, "lon": -77.0362865, "type": "electric_scooter"}, {"bike_id": "95a172d8b4168a78a8c07a24651b784b", "is_reserved": 0, "fusion_lon": 0.0, "lat": 38.905933, "is_disabled": 0, "name": "95a172d8b4168a78a8c07a24651b784b", "fusion_lat": 0.0, "rental_uris": {"ios": "https://dc.lft.to/lastmile_qr_scan", "android": "https://dc.lft.to/lastmile_qr_scan"}, "lon": -77.04676266666667, "type": "electric_scooter"}, {"bike_id": "5761e64f3e8cc9d6a4f0bd13b7c3b29b", "is_reserved": 0, "fusion_lon": 0.0, "lat": 38.92316433333333, "is_disabled": 0, "name": "5761e64f3e8cc9d6a4f0bd13b7c3b29b", "fusion_lat": 0.0, "rental_uris": {"ios": "https://dc.lft.to/lastmile_qr_scan", "android": "https://dc.lft.to/lastmile_qr_scan"}, "lon": -77.04208633333333, "type": "electric_scooter"}, {"bike_id": "a2882d436d70ed604102b52ad86a756d", "is_reserved": 0, "fusion_lon": 0.0, "lat": 38.8966, "is_disabled": 0, "name": "a2882d436d70ed604102b52ad86a756d", "fusion_lat": 0.0, "rental_uris": {"ios": "https://dc.lft.to/lastmile_qr_scan", "android": "https://dc.lft.to/lastmile_qr_scan"}, "lon": -77.02943383333333, "type": "electric_scooter"}, {"bike_id": "e840a1e0ac63d32c07bc5b5e1b34cdb6", "is_reserved": 0, "fusion_lon": 0.0, "lat": 38.92316183333333, "is_disabled": 0, "name": "e840a1e0ac63d32c07bc5b5e1b34cdb6", "fusion_lat": 0.0, "rental_uris": {"ios": "https://dc.lft.to/lastmile_qr_scan", "android": "https://dc.lft.to/lastmile_qr_scan"}, "lon": -77.038636, "type": "electric_scooter"}, {"bike_id": "2d75a01e42073e12b3858dc340d4b3ae", "is_reserved": 0, "fusion_lon": 0.0, "lat": 38.923365833333335, "is_disabled": 0, "name": "2d75a01e42073e12b3858dc340d4b3ae", "fusion_lat": 0.0, "rental_uris": {"ios": "https://dc.lft.to/lastmile_qr_scan", "android": "https://dc.lft.to/lastmile_qr_scan"}, "lon": -77.01908016666667, "type": "electric_scooter"}, {"bike_id": "4b3fc418c76fbe0dd11690760aa787fb", "is_reserved": 0, "fusion_lon": 0.0, "lat": 38.905142, "is_disabled": 0, "name": "4b3fc418c76fbe0dd11690760aa787fb", "fusion_lat": 0.0, "rental_uris": {"ios": "https://dc.lft.to/lastmile_qr_scan", "android": "https://dc.lft.to/lastmile_qr_scan"}, "lon": -77.0638825, "type": "electric_scooter"}, {"bike_id": "15585c0840236fbd7052b514984cce4c", "is_reserved": 0, "fusion_lon": 0.0, "lat": 38.9020115, "is_disabled": 0, "name": "15585c0840236fbd7052b514984cce4c", "fusion_lat": 0.0, "rental_uris": {"ios": "https://dc.lft.to/lastmile_qr_scan", "android": "https://dc.lft.to/lastmile_qr_scan"}, "lon": -77.02379716666667, "type": "electric_scooter"}, {"bike_id": "0851956f09576025b83558f7baa9a0e4", "is_reserved": 0, "fusion_lon": 0.0, "lat": 38.876613166666665, "is_disabled": 0, "name": "0851956f09576025b83558f7baa9a0e4", "fusion_lat": 0.0, "rental_uris": {"ios": "https://dc.lft.to/lastmile_qr_scan", "android": "https://dc.lft.to/lastmile_qr_scan"}, "lon": -77.00060966666666, "type": "electric_scooter"}, {"bike_id": "c7809bb03a42b5f62f7b131a950205cf", "is_reserved": 0, "fusion_lon": 0.0, "lat": 38.91015566666667, "is_disabled": 0, "name": "c7809bb03a42b5f62f7b131a950205cf", "fusion_lat": 0.0, "rental_uris": {"ios": "https://dc.lft.to/lastmile_qr_scan", "android": "https://dc.lft.to/lastmile_qr_scan"}, "lon": -76.9938875, "type": "electric_scooter"}, {"bike_id": "06a1bb620ce1be2de24daecea1f63233", "is_reserved": 0, "fusion_lon": 0.0, "lat": 38.958118, "is_disabled": 0, "name": "06a1bb620ce1be2de24daecea1f63233", "fusion_lat": 0.0, "rental_uris": {"ios": "https://dc.lft.to/lastmile_qr_scan", "android": "https://dc.lft.to/lastmile_qr_scan"}, "lon": -77.01381816666667, "type": "electric_bike"}, {"bike_id": "4191a17a1cef415f47794cee1cfe8d24", "is_reserved": 0, "fusion_lon": 0.0, "lat": 38.90449733333333, "is_disabled": 0, "name": "4191a17a1cef415f47794cee1cfe8d24", "fusion_lat": 0.0, "rental_uris": {"ios": "https://dc.lft.to/lastmile_qr_scan", "android": "https://dc.lft.to/lastmile_qr_scan"}, "lon": -77.0592725, "type": "electric_scooter"}, {"bike_id": "161f0c546725cf7380323dab88673320", "is_reserved": 0, "fusion_lon": 0.0, "lat": 38.86417933333333, "is_disabled": 0, "name": "161f0c546725cf7380323dab88673320", "fusion_lat": 0.0, "rental_uris": {"ios": "https://dc.lft.to/lastmile_qr_scan", "android": "https://dc.lft.to/lastmile_qr_scan"}, "lon": -77.01361733333333, "type": "electric_scooter"}, {"bike_id": "bf305a9ba64d2992e52b5e7e5a4a522e", "is_reserved": 0, "fusion_lon": 0.0, "lat": 38.957331, "is_disabled": 0, "name": "bf305a9ba64d2992e52b5e7e5a4a522e", "fusion_lat": 0.0, "rental_uris": {"ios": "https://dc.lft.to/lastmile_qr_scan", "android": "https://dc.lft.to/lastmile_qr_scan"}, "lon": -77.02420366666666, "type": "electric_scooter"}, {"bike_id": "b8b0c537390ce44e246fa1d6e181e33f", "is_reserved": 0, "fusion_lon": 0.0, "lat": 38.8843655, "is_disabled": 0, "name": "b8b0c537390ce44e246fa1d6e181e33f", "fusion_lat": 0.0, "rental_uris": {"ios": "https://dc.lft.to/lastmile_qr_scan", "android": "https://dc.lft.to/lastmile_qr_scan"}, "lon": -77.03040616666667, "type": "electric_scooter"}, {"bike_id": "f4f5deb144754176c235002cc7d51300", "is_reserved": 0, "fusion_lon": 0.0, "lat": 38.9017145, "is_disabled": 0, "name": "f4f5deb144754176c235002cc7d51300", "fusion_lat": 0.0, "rental_uris": {"ios": "https://dc.lft.to/lastmile_qr_scan", "android": "https://dc.lft.to/lastmile_qr_scan"}, "lon": -77.0000475, "type": "electric_scooter"}, {"bike_id": "9cc2fa28ccbe7d3f0f261ed04851cda1", "is_reserved": 0, "fusion_lon": 0.0, "lat": 38.91410033333333, "is_disabled": 0, "name": "9cc2fa28ccbe7d3f0f261ed04851cda1", "fusion_lat": 0.0, "rental_uris": {"ios": "https://dc.lft.to/lastmile_qr_scan", "android": "https://dc.lft.to/lastmile_qr_scan"}, "lon": -77.0381665, "type": "electric_scooter"}, {"bike_id": "53012950334ab2b158b8e924ab45df33", "is_reserved": 0, "fusion_lon": 0.0, "lat": 38.919145, "is_disabled": 0, "name": "53012950334ab2b158b8e924ab45df33", "fusion_lat": 0.0, "rental_uris": {"ios": "https://dc.lft.to/lastmile_qr_scan", "android": "https://dc.lft.to/lastmile_qr_scan"}, "lon": -77.0343255, "type": "electric_scooter"}, {"bike_id": "dc5df01756aaeff7ea9f1c42cf8ea362", "is_reserved": 0, "fusion_lon": 0.0, "lat": 38.863536833333335, "is_disabled": 0, "name": "dc5df01756aaeff7ea9f1c42cf8ea362", "fusion_lat": 0.0, "rental_uris": {"ios": "https://dc.lft.to/lastmile_qr_scan", "android": "https://dc.lft.to/lastmile_qr_scan"}, "lon": -76.99066466666666, "type": "electric_scooter"}, {"bike_id": "358b5a1fd2fb5a79d5a4ba948c592f57", "is_reserved": 0, "fusion_lon": 0.0, "lat": 38.92485083333333, "is_disabled": 0, "name": "358b5a1fd2fb5a79d5a4ba948c592f57", "fusion_lat": 0.0, "rental_uris": {"ios": "https://dc.lft.to/lastmile_qr_scan", "android": "https://dc.lft.to/lastmile_qr_scan"}, "lon": -77.035005, "type": "electric_scooter"}, {"bike_id": "0224d57c97a6aec7461d2c9914622965", "is_reserved": 0, "fusion_lon": 0.0, "lat": 39.05632416666667, "is_disabled": 0, "name": "0224d57c97a6aec7461d2c9914622965", "fusion_lat": 0.0, "rental_uris": {"ios": "https://dc.lft.to/lastmile_qr_scan", "android": "https://dc.lft.to/lastmile_qr_scan"}, "lon": -77.12526166666666, "type": "electric_bike"}, {"bike_id": "b9e353350f4dca288f7ded5b37de3acb", "is_reserved": 0, "fusion_lon": 0.0, "lat": 38.92710833333334, "is_disabled": 0, "name": "b9e353350f4dca288f7ded5b37de3acb", "fusion_lat": 0.0, "rental_uris": {"ios": "https://dc.lft.to/lastmile_qr_scan", "android": "https://dc.lft.to/lastmile_qr_scan"}, "lon": -77.04096983333334, "type": "electric_scooter"}, {"bike_id": "2262065c3c66a25927ae8c6e9aba0d52", "is_reserved": 0, "fusion_lon": 0.0, "lat": 38.90468833333333, "is_disabled": 0, "name": "2262065c3c66a25927ae8c6e9aba0d52", "fusion_lat": 0.0, "rental_uris": {"ios": "https://dc.lft.to/lastmile_qr_scan", "android": "https://dc.lft.to/lastmile_qr_scan"}, "lon": -77.02942433333334, "type": "electric_scooter"}, {"bike_id": "108deebb05cf949d3b17549fcd76a709", "is_reserved": 0, "fusion_lon": 0.0, "lat": 38.8852725, "is_disabled": 0, "name": "108deebb05cf949d3b17549fcd76a709", "fusion_lat": 0.0, "rental_uris": {"ios": "https://dc.lft.to/lastmile_qr_scan", "android": "https://dc.lft.to/lastmile_qr_scan"}, "lon": -77.00578416666667, "type": "electric_scooter"}, {"bike_id": "eb47619948d05cdfc5f6edd640fd6fe4", "is_reserved": 0, "fusion_lon": 0.0, "lat": 38.86826583333333, "is_disabled": 0, "name": "eb47619948d05cdfc5f6edd640fd6fe4", "fusion_lat": 0.0, "rental_uris": {"ios": "https://dc.lft.to/lastmile_qr_scan", "android": "https://dc.lft.to/lastmile_qr_scan"}, "lon": -76.98612116666666, "type": "electric_scooter"}, {"bike_id": "478ca95b5ac44482a5eeea57a0a48781", "is_reserved": 0, "fusion_lon": 0.0, "lat": 38.907052166666666, "is_disabled": 0, "name": "478ca95b5ac44482a5eeea57a0a48781", "fusion_lat": 0.0, "rental_uris": {"ios": "https://dc.lft.to/lastmile_qr_scan", "android": "https://dc.lft.to/lastmile_qr_scan"}, "lon": -76.98699266666667, "type": "electric_scooter"}, {"bike_id": "30e4a9c8c521afe347bd8cc66e8be6bd", "is_reserved": 0, "fusion_lon": 0.0, "lat": 38.902709333333334, "is_disabled": 0, "name": "30e4a9c8c521afe347bd8cc66e8be6bd", "fusion_lat": 0.0, "rental_uris": {"ios": "https://dc.lft.to/lastmile_qr_scan", "android": "https://dc.lft.to/lastmile_qr_scan"}, "lon": -77.00324466666666, "type": "electric_scooter"}, {"bike_id": "b800ff188139a01a8a8f2efb4c8a297b", "is_reserved": 0, "fusion_lon": 0.0, "lat": 38.892284333333336, "is_disabled": 0, "name": "b800ff188139a01a8a8f2efb4c8a297b", "fusion_lat": 0.0, "rental_uris": {"ios": "https://dc.lft.to/lastmile_qr_scan", "android": "https://dc.lft.to/lastmile_qr_scan"}, "lon": -77.02180066666666, "type": "electric_scooter"}, {"bike_id": "8bf7605b1f12e83e226bec856322a2b8", "is_reserved": 0, "fusion_lon": 0.0, "lat": 38.91692283333333, "is_disabled": 0, "name": "8bf7605b1f12e83e226bec856322a2b8", "fusion_lat": 0.0, "rental_uris": {"ios": "https://dc.lft.to/lastmile_qr_scan", "android": "https://dc.lft.to/lastmile_qr_scan"}, "lon": -77.02599133333334, "type": "electric_scooter"}, {"bike_id": "4a1efd54ca2e1860c4fc3e78ff6692fb", "is_reserved": 0, "fusion_lon": 0.0, "lat": 38.93693, "is_disabled": 0, "name": "4a1efd54ca2e1860c4fc3e78ff6692fb", "fusion_lat": 0.0, "rental_uris": {"ios": "https://dc.lft.to/lastmile_qr_scan", "android": "https://dc.lft.to/lastmile_qr_scan"}, "lon": -77.02415366666666, "type": "electric_scooter"}, {"bike_id": "94820f9578ab8c58300f3d09463a4618", "is_reserved": 0, "fusion_lon": 0.0, "lat": 38.943697, "is_disabled": 0, "name": "94820f9578ab8c58300f3d09463a4618", "fusion_lat": 0.0, "rental_uris": {"ios": "https://dc.lft.to/lastmile_qr_scan", "android": "https://dc.lft.to/lastmile_qr_scan"}, "lon": -77.0218495, "type": "electric_scooter"}, {"bike_id": "e46fb723314a6bc06f1d3da97bfdbf1a", "is_reserved": 0, "fusion_lon": 0.0, "lat": 38.940425, "is_disabled": 0, "name": "e46fb723314a6bc06f1d3da97bfdbf1a", "fusion_lat": 0.0, "rental_uris": {"ios": "https://dc.lft.to/lastmile_qr_scan", "android": "https://dc.lft.to/lastmile_qr_scan"}, "lon": -77.02902883333333, "type": "electric_scooter"}, {"bike_id": "d60c5f144a9bf17367534aec1bffa4e9", "is_reserved": 0, "fusion_lon": 0.0, "lat": 38.895481833333335, "is_disabled": 0, "name": "d60c5f144a9bf17367534aec1bffa4e9", "fusion_lat": 0.0, "rental_uris": {"ios": "https://dc.lft.to/lastmile_qr_scan", "android": "https://dc.lft.to/lastmile_qr_scan"}, "lon": -77.00922216666666, "type": "electric_scooter"}, {"bike_id": "f190620b023c1ac94ba66421469088a7", "is_reserved": 0, "fusion_lon": 0.0, "lat": 38.9236595, "is_disabled": 0, "name": "f190620b023c1ac94ba66421469088a7", "fusion_lat": 0.0, "rental_uris": {"ios": "https://dc.lft.to/lastmile_qr_scan", "android": "https://dc.lft.to/lastmile_qr_scan"}, "lon": -77.05030233333333, "type": "electric_scooter"}, {"bike_id": "6fef36f4722986ec7d05939f7febcdbc", "is_reserved": 0, "fusion_lon": 0.0, "lat": 38.887680833333334, "is_disabled": 0, "name": "6fef36f4722986ec7d05939f7febcdbc", "fusion_lat": 0.0, "rental_uris": {"ios": "https://dc.lft.to/lastmile_qr_scan", "android": "https://dc.lft.to/lastmile_qr_scan"}, "lon": -76.98052183333333, "type": "electric_scooter"}, {"bike_id": "f68e48eb5ea078a957ddf1c54c29786e", "is_reserved": 0, "fusion_lon": 0.0, "lat": 38.9079795, "is_disabled": 0, "name": "f68e48eb5ea078a957ddf1c54c29786e", "fusion_lat": 0.0, "rental_uris": {"ios": "https://dc.lft.to/lastmile_qr_scan", "android": "https://dc.lft.to/lastmile_qr_scan"}, "lon": -77.04249166666666, "type": "electric_scooter"}, {"bike_id": "2c47bc3344da865fa29b863de985704a", "is_reserved": 0, "fusion_lon": 0.0, "lat": 38.87337216666667, "is_disabled": 0, "name": "2c47bc3344da865fa29b863de985704a", "fusion_lat": 0.0, "rental_uris": {"ios": "https://dc.lft.to/lastmile_qr_scan", "android": "https://dc.lft.to/lastmile_qr_scan"}, "lon": -77.1061745, "type": "electric_bike"}, {"bike_id": "2df5ca8b03111e87c1da218a2aef305a", "is_reserved": 0, "fusion_lon": 0.0, "lat": 38.935015666666665, "is_disabled": 0, "name": "2df5ca8b03111e87c1da218a2aef305a", "fusion_lat": 0.0, "rental_uris": {"ios": "https://dc.lft.to/lastmile_qr_scan", "android": "https://dc.lft.to/lastmile_qr_scan"}, "lon": -77.01999833333333, "type": "electric_scooter"}, {"bike_id": "9070087863534a516b991fb5a7e97896", "is_reserved": 0, "fusion_lon": 0.0, "lat": 38.92264016666667, "is_disabled": 0, "name": "9070087863534a516b991fb5a7e97896", "fusion_lat": 0.0, "rental_uris": {"ios": "https://dc.lft.to/lastmile_qr_scan", "android": "https://dc.lft.to/lastmile_qr_scan"}, "lon": -76.97434916666667, "type": "electric_bike"}, {"bike_id": "a3bb5c7b624ebe785c8a1afce790b6bc", "is_reserved": 0, "fusion_lon": 0.0, "lat": 38.922906, "is_disabled": 0, "name": "a3bb5c7b624ebe785c8a1afce790b6bc", "fusion_lat": 0.0, "rental_uris": {"ios": "https://dc.lft.to/lastmile_qr_scan", "android": "https://dc.lft.to/lastmile_qr_scan"}, "lon": -77.02072816666667, "type": "electric_scooter"}, {"bike_id": "21b7449494d0ac6d1e9e29b7e6c4b713", "is_reserved": 0, "fusion_lon": 0.0, "lat": 38.9053425, "is_disabled": 0, "name": "21b7449494d0ac6d1e9e29b7e6c4b713", "fusion_lat": 0.0, "rental_uris": {"ios": "https://dc.lft.to/lastmile_qr_scan", "android": "https://dc.lft.to/lastmile_qr_scan"}, "lon": -76.9980445, "type": "electric_bike"}, {"bike_id": "fe631316594be58cf8b39302f4db1e03", "is_reserved": 0, "fusion_lon": 0.0, "lat": 38.9415115, "is_disabled": 0, "name": "fe631316594be58cf8b39302f4db1e03", "fusion_lat": 0.0, "rental_uris": {"ios": "https://dc.lft.to/lastmile_qr_scan", "android": "https://dc.lft.to/lastmile_qr_scan"}, "lon": -77.03655266666667, "type": "electric_scooter"}, {"bike_id": "fabf43957934fef22be5dc99ceec2ee4", "is_reserved": 0, "fusion_lon": 0.0, "lat": 38.913295166666664, "is_disabled": 0, "name": "fabf43957934fef22be5dc99ceec2ee4", "fusion_lat": 0.0, "rental_uris": {"ios": "https://dc.lft.to/lastmile_qr_scan", "android": "https://dc.lft.to/lastmile_qr_scan"}, "lon": -77.0303235, "type": "electric_scooter"}, {"bike_id": "ca3c90276849bdeaa80289595cb1b19b", "is_reserved": 0, "fusion_lon": 0.0, "lat": 38.905617166666666, "is_disabled": 0, "name": "ca3c90276849bdeaa80289595cb1b19b", "fusion_lat": 0.0, "rental_uris": {"ios": "https://dc.lft.to/lastmile_qr_scan", "android": "https://dc.lft.to/lastmile_qr_scan"}, "lon": -76.99795916666666, "type": "electric_bike"}, {"bike_id": "e2e50259ec9380d203e77a1437f30386", "is_reserved": 0, "fusion_lon": 0.0, "lat": 38.99093116666667, "is_disabled": 0, "name": "e2e50259ec9380d203e77a1437f30386", "fusion_lat": 0.0, "rental_uris": {"ios": "https://dc.lft.to/lastmile_qr_scan", "android": "https://dc.lft.to/lastmile_qr_scan"}, "lon": -76.875004, "type": "electric_bike"}, {"bike_id": "5686364b5c2f965f40e008705b5677f6", "is_reserved": 0, "fusion_lon": 0.0, "lat": 38.90744883333333, "is_disabled": 0, "name": "5686364b5c2f965f40e008705b5677f6", "fusion_lat": 0.0, "rental_uris": {"ios": "https://dc.lft.to/lastmile_qr_scan", "android": "https://dc.lft.to/lastmile_qr_scan"}, "lon": -77.03482016666666, "type": "electric_scooter"}, {"bike_id": "cc8059e031467ff0809c3118a0376889", "is_reserved": 0, "fusion_lon": 0.0, "lat": 38.92406666666667, "is_disabled": 0, "name": "cc8059e031467ff0809c3118a0376889", "fusion_lat": 0.0, "rental_uris": {"ios": "https://dc.lft.to/lastmile_qr_scan", "android": "https://dc.lft.to/lastmile_qr_scan"}, "lon": -77.02541766666667, "type": "electric_scooter"}, {"bike_id": "98ddf380eb15b1567ac66d534536a03b", "is_reserved": 0, "fusion_lon": 0.0, "lat": 38.8842955, "is_disabled": 0, "name": "98ddf380eb15b1567ac66d534536a03b", "fusion_lat": 0.0, "rental_uris": {"ios": "https://dc.lft.to/lastmile_qr_scan", "android": "https://dc.lft.to/lastmile_qr_scan"}, "lon": -76.957511, "type": "electric_scooter"}, {"bike_id": "d2d51ca797dcbab6e27c387d09435fd2", "is_reserved": 0, "fusion_lon": 0.0, "lat": 38.9006455, "is_disabled": 0, "name": "d2d51ca797dcbab6e27c387d09435fd2", "fusion_lat": 0.0, "rental_uris": {"ios": "https://dc.lft.to/lastmile_qr_scan", "android": "https://dc.lft.to/lastmile_qr_scan"}, "lon": -76.93386466666666, "type": "electric_scooter"}, {"bike_id": "6743712e8b1cc8b722cddb12b952ac6f", "is_reserved": 0, "fusion_lon": 0.0, "lat": 38.92291, "is_disabled": 0, "name": "6743712e8b1cc8b722cddb12b952ac6f", "fusion_lat": 0.0, "rental_uris": {"ios": "https://dc.lft.to/lastmile_qr_scan", "android": "https://dc.lft.to/lastmile_qr_scan"}, "lon": -77.03193166666667, "type": "electric_scooter"}, {"bike_id": "22cb8da3eefcf595d3a7714ae5ca4b56", "is_reserved": 0, "fusion_lon": 0.0, "lat": 38.916623666666666, "is_disabled": 0, "name": "22cb8da3eefcf595d3a7714ae5ca4b56", "fusion_lat": 0.0, "rental_uris": {"ios": "https://dc.lft.to/lastmile_qr_scan", "android": "https://dc.lft.to/lastmile_qr_scan"}, "lon": -77.0271145, "type": "electric_scooter"}, {"bike_id": "b34d5423d89ba50866216fb2ab9b3641", "is_reserved": 0, "fusion_lon": 0.0, "lat": 38.90555966666667, "is_disabled": 0, "name": "b34d5423d89ba50866216fb2ab9b3641", "fusion_lat": 0.0, "rental_uris": {"ios": "https://dc.lft.to/lastmile_qr_scan", "android": "https://dc.lft.to/lastmile_qr_scan"}, "lon": -77.0347195, "type": "electric_scooter"}, {"bike_id": "2901538d2acc0eda9a10c1ce16320f81", "is_reserved": 0, "fusion_lon": 0.0, "lat": 38.866978333333336, "is_disabled": 0, "name": "2901538d2acc0eda9a10c1ce16320f81", "fusion_lat": 0.0, "rental_uris": {"ios": "https://dc.lft.to/lastmile_qr_scan", "android": "https://dc.lft.to/lastmile_qr_scan"}, "lon": -76.98709866666667, "type": "electric_scooter"}, {"bike_id": "bf92d57238b8ea19d02861ea5f24fe6b", "is_reserved": 0, "fusion_lon": 0.0, "lat": 38.931097, "is_disabled": 0, "name": "bf92d57238b8ea19d02861ea5f24fe6b", "fusion_lat": 0.0, "rental_uris": {"ios": "https://dc.lft.to/lastmile_qr_scan", "android": "https://dc.lft.to/lastmile_qr_scan"}, "lon": -77.01846, "type": "electric_scooter"}, {"bike_id": "f7494f07ab224ac0b84776f440d0b5d1", "is_reserved": 0, "fusion_lon": 0.0, "lat": 38.900118166666665, "is_disabled": 0, "name": "f7494f07ab224ac0b84776f440d0b5d1", "fusion_lat": 0.0, "rental_uris": {"ios": "https://dc.lft.to/lastmile_qr_scan", "android": "https://dc.lft.to/lastmile_qr_scan"}, "lon": -76.99790333333334, "type": "electric_scooter"}, {"bike_id": "36ede7e1b53affc90d6e05573994e3b8", "is_reserved": 0, "fusion_lon": 0.0, "lat": 38.87261133333333, "is_disabled": 0, "name": "36ede7e1b53affc90d6e05573994e3b8", "fusion_lat": 0.0, "rental_uris": {"ios": "https://dc.lft.to/lastmile_qr_scan", "android": "https://dc.lft.to/lastmile_qr_scan"}, "lon": -76.97908883333334, "type": "electric_bike"}, {"bike_id": "043c92f3528c709830219b7c62581af4", "is_reserved": 0, "fusion_lon": 0.0, "lat": 38.898444833333336, "is_disabled": 0, "name": "043c92f3528c709830219b7c62581af4", "fusion_lat": 0.0, "rental_uris": {"ios": "https://dc.lft.to/lastmile_qr_scan", "android": "https://dc.lft.to/lastmile_qr_scan"}, "lon": -76.94477683333334, "type": "electric_scooter"}, {"bike_id": "1dea2c827a90b637d9d60012b050a7a9", "is_reserved": 0, "fusion_lon": 0.0, "lat": 38.903671333333335, "is_disabled": 0, "name": "1dea2c827a90b637d9d60012b050a7a9", "fusion_lat": 0.0, "rental_uris": {"ios": "https://dc.lft.to/lastmile_qr_scan", "android": "https://dc.lft.to/lastmile_qr_scan"}, "lon": -77.0455195, "type": "electric_scooter"}, {"bike_id": "a7104209e2c6ec97007d4dac6ab06c6c", "is_reserved": 0, "fusion_lon": 0.0, "lat": 38.86286666666667, "is_disabled": 0, "name": "a7104209e2c6ec97007d4dac6ab06c6c", "fusion_lat": 0.0, "rental_uris": {"ios": "https://dc.lft.to/lastmile_qr_scan", "android": "https://dc.lft.to/lastmile_qr_scan"}, "lon": -76.99227583333334, "type": "electric_scooter"}, {"bike_id": "7a92e3d9ae8b1079ba91425aa5f2244b", "is_reserved": 0, "fusion_lon": 0.0, "lat": 38.84056066666667, "is_disabled": 0, "name": "7a92e3d9ae8b1079ba91425aa5f2244b", "fusion_lat": 0.0, "rental_uris": {"ios": "https://dc.lft.to/lastmile_qr_scan", "android": "https://dc.lft.to/lastmile_qr_scan"}, "lon": -77.06401733333334, "type": "electric_bike"}, {"bike_id": "e153f0f7e4ad9a493e1c4955948e2915", "is_reserved": 0, "fusion_lon": 0.0, "lat": 39.09457833333333, "is_disabled": 0, "name": "e153f0f7e4ad9a493e1c4955948e2915", "fusion_lat": 0.0, "rental_uris": {"ios": "https://dc.lft.to/lastmile_qr_scan", "android": "https://dc.lft.to/lastmile_qr_scan"}, "lon": -77.14994016666667, "type": "electric_bike"}, {"bike_id": "5a15687796435f448d8734c080088a48", "is_reserved": 0, "fusion_lon": 0.0, "lat": 38.90148083333333, "is_disabled": 0, "name": "5a15687796435f448d8734c080088a48", "fusion_lat": 0.0, "rental_uris": {"ios": "https://dc.lft.to/lastmile_qr_scan", "android": "https://dc.lft.to/lastmile_qr_scan"}, "lon": -77.0228515, "type": "electric_scooter"}, {"bike_id": "dc5ae8d2ac7b9bc46aab994539faec73", "is_reserved": 0, "fusion_lon": 0.0, "lat": 38.921499833333336, "is_disabled": 0, "name": "dc5ae8d2ac7b9bc46aab994539faec73", "fusion_lat": 0.0, "rental_uris": {"ios": "https://dc.lft.to/lastmile_qr_scan", "android": "https://dc.lft.to/lastmile_qr_scan"}, "lon": -77.03533716666666, "type": "electric_scooter"}, {"bike_id": "ed45ef655f71ce011a8436ab76f503b4", "is_reserved": 0, "fusion_lon": 0.0, "lat": 38.82782533333334, "is_disabled": 0, "name": "ed45ef655f71ce011a8436ab76f503b4", "fusion_lat": 0.0, "rental_uris": {"ios": "https://dc.lft.to/lastmile_qr_scan", "android": "https://dc.lft.to/lastmile_qr_scan"}, "lon": -77.00907133333334, "type": "electric_bike"}, {"bike_id": "caf2b343767d052b52e056b0f3e498ae", "is_reserved": 0, "fusion_lon": 0.0, "lat": 38.904480666666664, "is_disabled": 0, "name": "caf2b343767d052b52e056b0f3e498ae", "fusion_lat": 0.0, "rental_uris": {"ios": "https://dc.lft.to/lastmile_qr_scan", "android": "https://dc.lft.to/lastmile_qr_scan"}, "lon": -76.99626, "type": "electric_scooter"}, {"bike_id": "4a4de72a6ac4fa36cba07ead0565e41b", "is_reserved": 0, "fusion_lon": 0.0, "lat": 38.91629783333333, "is_disabled": 0, "name": "4a4de72a6ac4fa36cba07ead0565e41b", "fusion_lat": 0.0, "rental_uris": {"ios": "https://dc.lft.to/lastmile_qr_scan", "android": "https://dc.lft.to/lastmile_qr_scan"}, "lon": -77.03168833333334, "type": "electric_scooter"}, {"bike_id": "16309a56f7c090e68c45499831198113", "is_reserved": 0, "fusion_lon": 0.0, "lat": 38.90298516666667, "is_disabled": 0, "name": "16309a56f7c090e68c45499831198113", "fusion_lat": 0.0, "rental_uris": {"ios": "https://dc.lft.to/lastmile_qr_scan", "android": "https://dc.lft.to/lastmile_qr_scan"}, "lon": -76.99854966666666, "type": "electric_scooter"}, {"bike_id": "62763caa15fc4c67d40b52b00cb0dae5", "is_reserved": 0, "fusion_lon": 0.0, "lat": 38.89837983333334, "is_disabled": 0, "name": "62763caa15fc4c67d40b52b00cb0dae5", "fusion_lat": 0.0, "rental_uris": {"ios": "https://dc.lft.to/lastmile_qr_scan", "android": "https://dc.lft.to/lastmile_qr_scan"}, "lon": -77.03336983333334, "type": "electric_scooter"}, {"bike_id": "1ad3fe300aeb99e0a1cd4d5fb112922a", "is_reserved": 0, "fusion_lon": 0.0, "lat": 38.90471983333333, "is_disabled": 0, "name": "1ad3fe300aeb99e0a1cd4d5fb112922a", "fusion_lat": 0.0, "rental_uris": {"ios": "https://dc.lft.to/lastmile_qr_scan", "android": "https://dc.lft.to/lastmile_qr_scan"}, "lon": -77.04859416666666, "type": "electric_scooter"}, {"bike_id": "861b613a36a0280c31d91dc8f6197bb9", "is_reserved": 0, "fusion_lon": 0.0, "lat": 38.922610166666665, "is_disabled": 0, "name": "861b613a36a0280c31d91dc8f6197bb9", "fusion_lat": 0.0, "rental_uris": {"ios": "https://dc.lft.to/lastmile_qr_scan", "android": "https://dc.lft.to/lastmile_qr_scan"}, "lon": -77.01826783333334, "type": "electric_scooter"}, {"bike_id": "3d1c85828f80360230c6edeafe731216", "is_reserved": 0, "fusion_lon": 0.0, "lat": 38.87836033333333, "is_disabled": 0, "name": "3d1c85828f80360230c6edeafe731216", "fusion_lat": 0.0, "rental_uris": {"ios": "https://dc.lft.to/lastmile_qr_scan", "android": "https://dc.lft.to/lastmile_qr_scan"}, "lon": -76.99038233333333, "type": "electric_scooter"}, {"bike_id": "583d3477de5dbebc53208e7bcbf2fc65", "is_reserved": 0, "fusion_lon": 0.0, "lat": 38.8429175, "is_disabled": 0, "name": "583d3477de5dbebc53208e7bcbf2fc65", "fusion_lat": 0.0, "rental_uris": {"ios": "https://dc.lft.to/lastmile_qr_scan", "android": "https://dc.lft.to/lastmile_qr_scan"}, "lon": -76.999465, "type": "electric_scooter"}, {"bike_id": "e44d1b89b8ae2cb39c17674b06591adb", "is_reserved": 0, "fusion_lon": 0.0, "lat": 38.941758166666666, "is_disabled": 0, "name": "e44d1b89b8ae2cb39c17674b06591adb", "fusion_lat": 0.0, "rental_uris": {"ios": "https://dc.lft.to/lastmile_qr_scan", "android": "https://dc.lft.to/lastmile_qr_scan"}, "lon": -77.02500866666666, "type": "electric_scooter"}, {"bike_id": "b5a1b1a3a38b894a42473f8035d9b134", "is_reserved": 0, "fusion_lon": 0.0, "lat": 38.905750166666664, "is_disabled": 0, "name": "b5a1b1a3a38b894a42473f8035d9b134", "fusion_lat": 0.0, "rental_uris": {"ios": "https://dc.lft.to/lastmile_qr_scan", "android": "https://dc.lft.to/lastmile_qr_scan"}, "lon": -77.02206333333334, "type": "electric_scooter"}, {"bike_id": "9aadeb68a3e1671e117ac76f77aec2ba", "is_reserved": 0, "fusion_lon": 0.0, "lat": 38.91932283333333, "is_disabled": 0, "name": "9aadeb68a3e1671e117ac76f77aec2ba", "fusion_lat": 0.0, "rental_uris": {"ios": "https://dc.lft.to/lastmile_qr_scan", "android": "https://dc.lft.to/lastmile_qr_scan"}, "lon": -77.03184933333333, "type": "electric_scooter"}, {"bike_id": "d8f4e13ae7097855847582660ada38bd", "is_reserved": 0, "fusion_lon": 0.0, "lat": 38.907796, "is_disabled": 0, "name": "d8f4e13ae7097855847582660ada38bd", "fusion_lat": 0.0, "rental_uris": {"ios": "https://dc.lft.to/lastmile_qr_scan", "android": "https://dc.lft.to/lastmile_qr_scan"}, "lon": -77.069229, "type": "electric_scooter"}, {"bike_id": "b34bb5f894fc4c8fe6b3ae667edaab61", "is_reserved": 0, "fusion_lon": 0.0, "lat": 38.876283666666666, "is_disabled": 0, "name": "b34bb5f894fc4c8fe6b3ae667edaab61", "fusion_lat": 0.0, "rental_uris": {"ios": "https://dc.lft.to/lastmile_qr_scan", "android": "https://dc.lft.to/lastmile_qr_scan"}, "lon": -76.9652375, "type": "electric_scooter"}, {"bike_id": "62c2050065340dbc771bccde7876a320", "is_reserved": 0, "fusion_lon": 0.0, "lat": 38.924975333333336, "is_disabled": 0, "name": "62c2050065340dbc771bccde7876a320", "fusion_lat": 0.0, "rental_uris": {"ios": "https://dc.lft.to/lastmile_qr_scan", "android": "https://dc.lft.to/lastmile_qr_scan"}, "lon": -77.00894033333333, "type": "electric_scooter"}, {"bike_id": "691daaf3028bd26e059e7565c13309d6", "is_reserved": 0, "fusion_lon": 0.0, "lat": 38.907793833333336, "is_disabled": 0, "name": "691daaf3028bd26e059e7565c13309d6", "fusion_lat": 0.0, "rental_uris": {"ios": "https://dc.lft.to/lastmile_qr_scan", "android": "https://dc.lft.to/lastmile_qr_scan"}, "lon": -77.03833166666666, "type": "electric_scooter"}, {"bike_id": "cb980a9ca28aa4f9922b81d8e785a283", "is_reserved": 0, "fusion_lon": 0.0, "lat": 38.89363766666666, "is_disabled": 0, "name": "cb980a9ca28aa4f9922b81d8e785a283", "fusion_lat": 0.0, "rental_uris": {"ios": "https://dc.lft.to/lastmile_qr_scan", "android": "https://dc.lft.to/lastmile_qr_scan"}, "lon": -76.98511216666667, "type": "electric_bike"}, {"bike_id": "b190d26320f684032c711a768b0589aa", "is_reserved": 0, "fusion_lon": 0.0, "lat": 38.9507535, "is_disabled": 0, "name": "b190d26320f684032c711a768b0589aa", "fusion_lat": 0.0, "rental_uris": {"ios": "https://dc.lft.to/lastmile_qr_scan", "android": "https://dc.lft.to/lastmile_qr_scan"}, "lon": -77.01201316666666, "type": "electric_bike"}, {"bike_id": "ce29c61098f8c55f1bf78cce0fbb0e1c", "is_reserved": 0, "fusion_lon": 0.0, "lat": 38.89532283333333, "is_disabled": 0, "name": "ce29c61098f8c55f1bf78cce0fbb0e1c", "fusion_lat": 0.0, "rental_uris": {"ios": "https://dc.lft.to/lastmile_qr_scan", "android": "https://dc.lft.to/lastmile_qr_scan"}, "lon": -76.94891283333334, "type": "electric_scooter"}, {"bike_id": "88c6254c8f06b813a36b7e29f77d6c91", "is_reserved": 0, "fusion_lon": 0.0, "lat": 38.8987635, "is_disabled": 0, "name": "88c6254c8f06b813a36b7e29f77d6c91", "fusion_lat": 0.0, "rental_uris": {"ios": "https://dc.lft.to/lastmile_qr_scan", "android": "https://dc.lft.to/lastmile_qr_scan"}, "lon": -76.93159983333334, "type": "electric_scooter"}, {"bike_id": "cf3702b0512886a89a10e3cc871c6e4b", "is_reserved": 0, "fusion_lon": 0.0, "lat": 38.934335, "is_disabled": 0, "name": "cf3702b0512886a89a10e3cc871c6e4b", "fusion_lat": 0.0, "rental_uris": {"ios": "https://dc.lft.to/lastmile_qr_scan", "android": "https://dc.lft.to/lastmile_qr_scan"}, "lon": -77.03447533333333, "type": "electric_scooter"}, {"bike_id": "2eab57de57d2d362ae0e4c29c88f8cf4", "is_reserved": 0, "fusion_lon": 0.0, "lat": 38.8996685, "is_disabled": 0, "name": "2eab57de57d2d362ae0e4c29c88f8cf4", "fusion_lat": 0.0, "rental_uris": {"ios": "https://dc.lft.to/lastmile_qr_scan", "android": "https://dc.lft.to/lastmile_qr_scan"}, "lon": -77.0335735, "type": "electric_scooter"}, {"bike_id": "9c2475eea6c28562c574e85c46d48f6e", "is_reserved": 0, "fusion_lon": 0.0, "lat": 38.90668316666667, "is_disabled": 0, "name": "9c2475eea6c28562c574e85c46d48f6e", "fusion_lat": 0.0, "rental_uris": {"ios": "https://dc.lft.to/lastmile_qr_scan", "android": "https://dc.lft.to/lastmile_qr_scan"}, "lon": -77.02712383333333, "type": "electric_scooter"}, {"bike_id": "854578cb38782a60baae61b1a0320751", "is_reserved": 0, "fusion_lon": 0.0, "lat": 38.9061265, "is_disabled": 0, "name": "854578cb38782a60baae61b1a0320751", "fusion_lat": 0.0, "rental_uris": {"ios": "https://dc.lft.to/lastmile_qr_scan", "android": "https://dc.lft.to/lastmile_qr_scan"}, "lon": -77.03968733333333, "type": "electric_scooter"}, {"bike_id": "dd81d71c0b5d39a4425adc8b1af8c0d4", "is_reserved": 0, "fusion_lon": 0.0, "lat": 38.9231755, "is_disabled": 0, "name": "dd81d71c0b5d39a4425adc8b1af8c0d4", "fusion_lat": 0.0, "rental_uris": {"ios": "https://dc.lft.to/lastmile_qr_scan", "android": "https://dc.lft.to/lastmile_qr_scan"}, "lon": -77.0366895, "type": "electric_scooter"}, {"bike_id": "ff4ae9fcf9531e05d2c4f44df43853cb", "is_reserved": 0, "fusion_lon": 0.0, "lat": 38.92243466666667, "is_disabled": 0, "name": "ff4ae9fcf9531e05d2c4f44df43853cb", "fusion_lat": 0.0, "rental_uris": {"ios": "https://dc.lft.to/lastmile_qr_scan", "android": "https://dc.lft.to/lastmile_qr_scan"}, "lon": -77.036689, "type": "electric_scooter"}, {"bike_id": "a71a473a8157ddce2f1aeb8345f2a61b", "is_reserved": 0, "fusion_lon": 0.0, "lat": 38.903140666666665, "is_disabled": 0, "name": "a71a473a8157ddce2f1aeb8345f2a61b", "fusion_lat": 0.0, "rental_uris": {"ios": "https://dc.lft.to/lastmile_qr_scan", "android": "https://dc.lft.to/lastmile_qr_scan"}, "lon": -77.03772966666666, "type": "electric_scooter"}, {"bike_id": "af6571c40bbbc20815aa28d180ea41be", "is_reserved": 0, "fusion_lon": 0.0, "lat": 38.93890283333333, "is_disabled": 0, "name": "af6571c40bbbc20815aa28d180ea41be", "fusion_lat": 0.0, "rental_uris": {"ios": "https://dc.lft.to/lastmile_qr_scan", "android": "https://dc.lft.to/lastmile_qr_scan"}, "lon": -77.0332205, "type": "electric_scooter"}, {"bike_id": "115fd218b332fc60e2458d4e43633593", "is_reserved": 0, "fusion_lon": 0.0, "lat": 38.92149716666667, "is_disabled": 0, "name": "115fd218b332fc60e2458d4e43633593", "fusion_lat": 0.0, "rental_uris": {"ios": "https://dc.lft.to/lastmile_qr_scan", "android": "https://dc.lft.to/lastmile_qr_scan"}, "lon": -77.03528566666667, "type": "electric_scooter"}, {"bike_id": "64d9a76fb25aeff1e2f8d3b6f3b6c8a2", "is_reserved": 0, "fusion_lon": 0.0, "lat": 38.885022166666666, "is_disabled": 0, "name": "64d9a76fb25aeff1e2f8d3b6f3b6c8a2", "fusion_lat": 0.0, "rental_uris": {"ios": "https://dc.lft.to/lastmile_qr_scan", "android": "https://dc.lft.to/lastmile_qr_scan"}, "lon": -77.00564483333333, "type": "electric_scooter"}, {"bike_id": "4ef9aca9413456783aa2c357902f1b8d", "is_reserved": 0, "fusion_lon": 0.0, "lat": 38.928810666666664, "is_disabled": 0, "name": "4ef9aca9413456783aa2c357902f1b8d", "fusion_lat": 0.0, "rental_uris": {"ios": "https://dc.lft.to/lastmile_qr_scan", "android": "https://dc.lft.to/lastmile_qr_scan"}, "lon": -77.037556, "type": "electric_scooter"}, {"bike_id": "7a1b4b6c428a735b01c6499edc1b6e54", "is_reserved": 0, "fusion_lon": 0.0, "lat": 38.9203825, "is_disabled": 0, "name": "7a1b4b6c428a735b01c6499edc1b6e54", "fusion_lat": 0.0, "rental_uris": {"ios": "https://dc.lft.to/lastmile_qr_scan", "android": "https://dc.lft.to/lastmile_qr_scan"}, "lon": -76.9790325, "type": "electric_scooter"}, {"bike_id": "094669541ac237003199ab2535ac25cf", "is_reserved": 0, "fusion_lon": 0.0, "lat": 38.91835433333333, "is_disabled": 0, "name": "094669541ac237003199ab2535ac25cf", "fusion_lat": 0.0, "rental_uris": {"ios": "https://dc.lft.to/lastmile_qr_scan", "android": "https://dc.lft.to/lastmile_qr_scan"}, "lon": -77.0228915, "type": "electric_scooter"}, {"bike_id": "9289ce14df205d1bca966f2c305f1d24", "is_reserved": 0, "fusion_lon": 0.0, "lat": 38.90386133333333, "is_disabled": 0, "name": "9289ce14df205d1bca966f2c305f1d24", "fusion_lat": 0.0, "rental_uris": {"ios": "https://dc.lft.to/lastmile_qr_scan", "android": "https://dc.lft.to/lastmile_qr_scan"}, "lon": -77.03992266666667, "type": "electric_scooter"}, {"bike_id": "a5267e2eaf993b2c9518a3c3666f2b4a", "is_reserved": 0, "fusion_lon": 0.0, "lat": 38.959106, "is_disabled": 0, "name": "a5267e2eaf993b2c9518a3c3666f2b4a", "fusion_lat": 0.0, "rental_uris": {"ios": "https://dc.lft.to/lastmile_qr_scan", "android": "https://dc.lft.to/lastmile_qr_scan"}, "lon": -77.00156466666667, "type": "electric_bike"}, {"bike_id": "bd4171f373f71129c5492a1eb2f46412", "is_reserved": 0, "fusion_lon": 0.0, "lat": 38.909707166666664, "is_disabled": 0, "name": "bd4171f373f71129c5492a1eb2f46412", "fusion_lat": 0.0, "rental_uris": {"ios": "https://dc.lft.to/lastmile_qr_scan", "android": "https://dc.lft.to/lastmile_qr_scan"}, "lon": -77.02727216666666, "type": "electric_scooter"}, {"bike_id": "cb64487d0d74ecc37f08288ceb592865", "is_reserved": 0, "fusion_lon": 0.0, "lat": 38.887377, "is_disabled": 0, "name": "cb64487d0d74ecc37f08288ceb592865", "fusion_lat": 0.0, "rental_uris": {"ios": "https://dc.lft.to/lastmile_qr_scan", "android": "https://dc.lft.to/lastmile_qr_scan"}, "lon": -77.01535933333334, "type": "electric_scooter"}, {"bike_id": "0593954b05872041e0d9c4a9ef596621", "is_reserved": 0, "fusion_lon": 0.0, "lat": 38.87457333333333, "is_disabled": 0, "name": "0593954b05872041e0d9c4a9ef596621", "fusion_lat": 0.0, "rental_uris": {"ios": "https://dc.lft.to/lastmile_qr_scan", "android": "https://dc.lft.to/lastmile_qr_scan"}, "lon": -77.005415, "type": "electric_scooter"}, {"bike_id": "e9fde2cb30c4ba9ff5841a7e2205f932", "is_reserved": 0, "fusion_lon": 0.0, "lat": 38.8978685, "is_disabled": 0, "name": "e9fde2cb30c4ba9ff5841a7e2205f932", "fusion_lat": 0.0, "rental_uris": {"ios": "https://dc.lft.to/lastmile_qr_scan", "android": "https://dc.lft.to/lastmile_qr_scan"}, "lon": -77.00732866666667, "type": "electric_scooter"}, {"bike_id": "af0af13c8fdb8050e99dd67bfe66923d", "is_reserved": 0, "fusion_lon": 0.0, "lat": 38.890348, "is_disabled": 0, "name": "af0af13c8fdb8050e99dd67bfe66923d", "fusion_lat": 0.0, "rental_uris": {"ios": "https://dc.lft.to/lastmile_qr_scan", "android": "https://dc.lft.to/lastmile_qr_scan"}, "lon": -76.9362685, "type": "electric_scooter"}, {"bike_id": "b1cbc4e26a8b3bcfbcb18216288799d7", "is_reserved": 0, "fusion_lon": 0.0, "lat": 38.89890333333334, "is_disabled": 0, "name": "b1cbc4e26a8b3bcfbcb18216288799d7", "fusion_lat": 0.0, "rental_uris": {"ios": "https://dc.lft.to/lastmile_qr_scan", "android": "https://dc.lft.to/lastmile_qr_scan"}, "lon": -77.0328425, "type": "electric_scooter"}, {"bike_id": "1abd587ed284d94b11fd8ce8df9823d5", "is_reserved": 0, "fusion_lon": 0.0, "lat": 38.970897, "is_disabled": 0, "name": "1abd587ed284d94b11fd8ce8df9823d5", "fusion_lat": 0.0, "rental_uris": {"ios": "https://dc.lft.to/lastmile_qr_scan", "android": "https://dc.lft.to/lastmile_qr_scan"}, "lon": -77.06968716666667, "type": "electric_bike"}, {"bike_id": "7b724864fa75555a58f70b0c66414a7a", "is_reserved": 0, "fusion_lon": 0.0, "lat": 38.90279966666667, "is_disabled": 0, "name": "7b724864fa75555a58f70b0c66414a7a", "fusion_lat": 0.0, "rental_uris": {"ios": "https://dc.lft.to/lastmile_qr_scan", "android": "https://dc.lft.to/lastmile_qr_scan"}, "lon": -77.0188465, "type": "electric_scooter"}, {"bike_id": "646d2a4e6d15e2f67bd4075d96b85cc1", "is_reserved": 0, "fusion_lon": 0.0, "lat": 38.86507533333333, "is_disabled": 0, "name": "646d2a4e6d15e2f67bd4075d96b85cc1", "fusion_lat": 0.0, "rental_uris": {"ios": "https://dc.lft.to/lastmile_qr_scan", "android": "https://dc.lft.to/lastmile_qr_scan"}, "lon": -76.9897845, "type": "electric_scooter"}, {"bike_id": "7467f5c8809395a7a26751fe70ea130b", "is_reserved": 0, "fusion_lon": 0.0, "lat": 38.926389666666665, "is_disabled": 0, "name": "7467f5c8809395a7a26751fe70ea130b", "fusion_lat": 0.0, "rental_uris": {"ios": "https://dc.lft.to/lastmile_qr_scan", "android": "https://dc.lft.to/lastmile_qr_scan"}, "lon": -77.037979, "type": "electric_scooter"}, {"bike_id": "909b98f3c297d53354020af5b04b757d", "is_reserved": 0, "fusion_lon": 0.0, "lat": 38.9258235, "is_disabled": 0, "name": "909b98f3c297d53354020af5b04b757d", "fusion_lat": 0.0, "rental_uris": {"ios": "https://dc.lft.to/lastmile_qr_scan", "android": "https://dc.lft.to/lastmile_qr_scan"}, "lon": -77.00477083333334, "type": "electric_scooter"}, {"bike_id": "c3515df009ce82855c6bfa4a520f69a0", "is_reserved": 0, "fusion_lon": 0.0, "lat": 38.93586116666667, "is_disabled": 0, "name": "c3515df009ce82855c6bfa4a520f69a0", "fusion_lat": 0.0, "rental_uris": {"ios": "https://dc.lft.to/lastmile_qr_scan", "android": "https://dc.lft.to/lastmile_qr_scan"}, "lon": -77.02767783333333, "type": "electric_scooter"}, {"bike_id": "2ee89cc5b4dd822b6797ca43a08827d4", "is_reserved": 0, "fusion_lon": 0.0, "lat": 38.8933985, "is_disabled": 0, "name": "2ee89cc5b4dd822b6797ca43a08827d4", "fusion_lat": 0.0, "rental_uris": {"ios": "https://dc.lft.to/lastmile_qr_scan", "android": "https://dc.lft.to/lastmile_qr_scan"}, "lon": -76.984636, "type": "electric_scooter"}, {"bike_id": "1b8b33808ccc0d754d8d5bcf8fa38e44", "is_reserved": 0, "fusion_lon": 0.0, "lat": 38.8850095, "is_disabled": 0, "name": "1b8b33808ccc0d754d8d5bcf8fa38e44", "fusion_lat": 0.0, "rental_uris": {"ios": "https://dc.lft.to/lastmile_qr_scan", "android": "https://dc.lft.to/lastmile_qr_scan"}, "lon": -77.01552733333334, "type": "electric_scooter"}, {"bike_id": "78a5b298949428cd9942f448cd01cd5d", "is_reserved": 0, "fusion_lon": 0.0, "lat": 38.90248883333334, "is_disabled": 0, "name": "78a5b298949428cd9942f448cd01cd5d", "fusion_lat": 0.0, "rental_uris": {"ios": "https://dc.lft.to/lastmile_qr_scan", "android": "https://dc.lft.to/lastmile_qr_scan"}, "lon": -77.04555066666667, "type": "electric_bike"}, {"bike_id": "8e4035a44ccb664f7b61a2764ac21a26", "is_reserved": 0, "fusion_lon": 0.0, "lat": 38.878491, "is_disabled": 0, "name": "8e4035a44ccb664f7b61a2764ac21a26", "fusion_lat": 0.0, "rental_uris": {"ios": "https://dc.lft.to/lastmile_qr_scan", "android": "https://dc.lft.to/lastmile_qr_scan"}, "lon": -77.00504716666667, "type": "electric_scooter"}, {"bike_id": "6dd2adad1e3e1da7642e40334be4f12f", "is_reserved": 0, "fusion_lon": 0.0, "lat": 38.91333683333333, "is_disabled": 0, "name": "6dd2adad1e3e1da7642e40334be4f12f", "fusion_lat": 0.0, "rental_uris": {"ios": "https://dc.lft.to/lastmile_qr_scan", "android": "https://dc.lft.to/lastmile_qr_scan"}, "lon": -77.04867966666667, "type": "electric_scooter"}, {"bike_id": "f47964e3d0c94f1e6fe8bd032f1ea93a", "is_reserved": 0, "fusion_lon": 0.0, "lat": 38.9265555, "is_disabled": 0, "name": "f47964e3d0c94f1e6fe8bd032f1ea93a", "fusion_lat": 0.0, "rental_uris": {"ios": "https://dc.lft.to/lastmile_qr_scan", "android": "https://dc.lft.to/lastmile_qr_scan"}, "lon": -77.0371355, "type": "electric_scooter"}, {"bike_id": "1b5a4337142ee16079f18d3f6f4a60b4", "is_reserved": 0, "fusion_lon": 0.0, "lat": 38.92768916666667, "is_disabled": 0, "name": "1b5a4337142ee16079f18d3f6f4a60b4", "fusion_lat": 0.0, "rental_uris": {"ios": "https://dc.lft.to/lastmile_qr_scan", "android": "https://dc.lft.to/lastmile_qr_scan"}, "lon": -77.026763, "type": "electric_scooter"}, {"bike_id": "7038f2ea9f080fcc013b8586c9c9e7d4", "is_reserved": 0, "fusion_lon": 0.0, "lat": 38.923437666666665, "is_disabled": 0, "name": "7038f2ea9f080fcc013b8586c9c9e7d4", "fusion_lat": 0.0, "rental_uris": {"ios": "https://dc.lft.to/lastmile_qr_scan", "android": "https://dc.lft.to/lastmile_qr_scan"}, "lon": -77.22407866666667, "type": "electric_bike"}, {"bike_id": "c343ff97cf60d00d49a18b29b49e6263", "is_reserved": 0, "fusion_lon": 0.0, "lat": 38.884922333333336, "is_disabled": 0, "name": "c343ff97cf60d00d49a18b29b49e6263", "fusion_lat": 0.0, "rental_uris": {"ios": "https://dc.lft.to/lastmile_qr_scan", "android": "https://dc.lft.to/lastmile_qr_scan"}, "lon": -77.007136, "type": "electric_scooter"}, {"bike_id": "66e4089a5887908458758e1ded652be6", "is_reserved": 0, "fusion_lon": 0.0, "lat": 38.89843583333333, "is_disabled": 0, "name": "66e4089a5887908458758e1ded652be6", "fusion_lat": 0.0, "rental_uris": {"ios": "https://dc.lft.to/lastmile_qr_scan", "android": "https://dc.lft.to/lastmile_qr_scan"}, "lon": -77.03312466666667, "type": "electric_scooter"}, {"bike_id": "cc1a4eb7ed74fa1d82c24790a561577b", "is_reserved": 0, "fusion_lon": 0.0, "lat": 38.91338566666667, "is_disabled": 0, "name": "cc1a4eb7ed74fa1d82c24790a561577b", "fusion_lat": 0.0, "rental_uris": {"ios": "https://dc.lft.to/lastmile_qr_scan", "android": "https://dc.lft.to/lastmile_qr_scan"}, "lon": -77.00339783333334, "type": "electric_scooter"}, {"bike_id": "9e3b143bb9ef138bd4c89ae8cc99013a", "is_reserved": 0, "fusion_lon": 0.0, "lat": 38.9027135, "is_disabled": 0, "name": "9e3b143bb9ef138bd4c89ae8cc99013a", "fusion_lat": 0.0, "rental_uris": {"ios": "https://dc.lft.to/lastmile_qr_scan", "android": "https://dc.lft.to/lastmile_qr_scan"}, "lon": -77.0383435, "type": "electric_scooter"}, {"bike_id": "d75f0fa7e513b96627e8f54b38394c5e", "is_reserved": 0, "fusion_lon": 0.0, "lat": 38.89169916666667, "is_disabled": 0, "name": "d75f0fa7e513b96627e8f54b38394c5e", "fusion_lat": 0.0, "rental_uris": {"ios": "https://dc.lft.to/lastmile_qr_scan", "android": "https://dc.lft.to/lastmile_qr_scan"}, "lon": -77.015461, "type": "electric_scooter"}, {"bike_id": "42e3b281a261940589a7d05782e0f67a", "is_reserved": 0, "fusion_lon": 0.0, "lat": 38.932542833333336, "is_disabled": 0, "name": "42e3b281a261940589a7d05782e0f67a", "fusion_lat": 0.0, "rental_uris": {"ios": "https://dc.lft.to/lastmile_qr_scan", "android": "https://dc.lft.to/lastmile_qr_scan"}, "lon": -77.03274233333333, "type": "electric_scooter"}, {"bike_id": "1b93b0675a79fd7385cb53a1a9fadcde", "is_reserved": 0, "fusion_lon": 0.0, "lat": 38.87635383333333, "is_disabled": 0, "name": "1b93b0675a79fd7385cb53a1a9fadcde", "fusion_lat": 0.0, "rental_uris": {"ios": "https://dc.lft.to/lastmile_qr_scan", "android": "https://dc.lft.to/lastmile_qr_scan"}, "lon": -76.995864, "type": "electric_scooter"}, {"bike_id": "4955c724fa33592e53c9e3646c9094db", "is_reserved": 0, "fusion_lon": 0.0, "lat": 38.920039833333334, "is_disabled": 0, "name": "4955c724fa33592e53c9e3646c9094db", "fusion_lat": 0.0, "rental_uris": {"ios": "https://dc.lft.to/lastmile_qr_scan", "android": "https://dc.lft.to/lastmile_qr_scan"}, "lon": -77.03156983333334, "type": "electric_scooter"}, {"bike_id": "172073fbb99b2da7e199f1caa664d8fa", "is_reserved": 0, "fusion_lon": 0.0, "lat": 38.91848683333333, "is_disabled": 0, "name": "172073fbb99b2da7e199f1caa664d8fa", "fusion_lat": 0.0, "rental_uris": {"ios": "https://dc.lft.to/lastmile_qr_scan", "android": "https://dc.lft.to/lastmile_qr_scan"}, "lon": -77.03904583333333, "type": "electric_scooter"}, {"bike_id": "38f526e569ef5199a995e2c1f11632e9", "is_reserved": 0, "fusion_lon": 0.0, "lat": 38.914857, "is_disabled": 0, "name": "38f526e569ef5199a995e2c1f11632e9", "fusion_lat": 0.0, "rental_uris": {"ios": "https://dc.lft.to/lastmile_qr_scan", "android": "https://dc.lft.to/lastmile_qr_scan"}, "lon": -77.02186366666666, "type": "electric_scooter"}, {"bike_id": "bc7f09f15df8a852eebb108e882d6946", "is_reserved": 0, "fusion_lon": 0.0, "lat": 38.91677716666667, "is_disabled": 0, "name": "bc7f09f15df8a852eebb108e882d6946", "fusion_lat": 0.0, "rental_uris": {"ios": "https://dc.lft.to/lastmile_qr_scan", "android": "https://dc.lft.to/lastmile_qr_scan"}, "lon": -77.02955433333334, "type": "electric_scooter"}, {"bike_id": "c3b53571a91d5089bd409764cd042983", "is_reserved": 0, "fusion_lon": 0.0, "lat": 38.9086125, "is_disabled": 0, "name": "c3b53571a91d5089bd409764cd042983", "fusion_lat": 0.0, "rental_uris": {"ios": "https://dc.lft.to/lastmile_qr_scan", "android": "https://dc.lft.to/lastmile_qr_scan"}, "lon": -77.02591066666666, "type": "electric_scooter"}, {"bike_id": "c99f4f7db192879adc9d642803b34bfc", "is_reserved": 0, "fusion_lon": 0.0, "lat": 38.891879, "is_disabled": 0, "name": "c99f4f7db192879adc9d642803b34bfc", "fusion_lat": 0.0, "rental_uris": {"ios": "https://dc.lft.to/lastmile_qr_scan", "android": "https://dc.lft.to/lastmile_qr_scan"}, "lon": -77.122596, "type": "electric_bike"}, {"bike_id": "27df3fc07d58467d219fc1ce96f72e3d", "is_reserved": 0, "fusion_lon": 0.0, "lat": 38.907139666666666, "is_disabled": 0, "name": "27df3fc07d58467d219fc1ce96f72e3d", "fusion_lat": 0.0, "rental_uris": {"ios": "https://dc.lft.to/lastmile_qr_scan", "android": "https://dc.lft.to/lastmile_qr_scan"}, "lon": -76.99795083333333, "type": "electric_scooter"}, {"bike_id": "9bf4013d2011b1ae1c6cc1db80992cd4", "is_reserved": 0, "fusion_lon": 0.0, "lat": 38.9200705, "is_disabled": 0, "name": "9bf4013d2011b1ae1c6cc1db80992cd4", "fusion_lat": 0.0, "rental_uris": {"ios": "https://dc.lft.to/lastmile_qr_scan", "android": "https://dc.lft.to/lastmile_qr_scan"}, "lon": -77.04178466666667, "type": "electric_scooter"}, {"bike_id": "73d7058e60364b2e66f540267d51cbc0", "is_reserved": 0, "fusion_lon": 0.0, "lat": 38.909541, "is_disabled": 0, "name": "73d7058e60364b2e66f540267d51cbc0", "fusion_lat": 0.0, "rental_uris": {"ios": "https://dc.lft.to/lastmile_qr_scan", "android": "https://dc.lft.to/lastmile_qr_scan"}, "lon": -77.048257, "type": "electric_scooter"}, {"bike_id": "5d09bc25694d9e803d7cdfeea09442a5", "is_reserved": 0, "fusion_lon": 0.0, "lat": 38.92460766666667, "is_disabled": 0, "name": "5d09bc25694d9e803d7cdfeea09442a5", "fusion_lat": 0.0, "rental_uris": {"ios": "https://dc.lft.to/lastmile_qr_scan", "android": "https://dc.lft.to/lastmile_qr_scan"}, "lon": -77.208397, "type": "electric_bike"}, {"bike_id": "e2b067cc32d46c507ec861650d71f661", "is_reserved": 0, "fusion_lon": 0.0, "lat": 38.88037966666667, "is_disabled": 0, "name": "e2b067cc32d46c507ec861650d71f661", "fusion_lat": 0.0, "rental_uris": {"ios": "https://dc.lft.to/lastmile_qr_scan", "android": "https://dc.lft.to/lastmile_qr_scan"}, "lon": -76.92723416666666, "type": "electric_scooter"}, {"bike_id": "7a17fd8f36674d3eb80b47c82401a2b1", "is_reserved": 0, "fusion_lon": 0.0, "lat": 38.911475833333334, "is_disabled": 0, "name": "7a17fd8f36674d3eb80b47c82401a2b1", "fusion_lat": 0.0, "rental_uris": {"ios": "https://dc.lft.to/lastmile_qr_scan", "android": "https://dc.lft.to/lastmile_qr_scan"}, "lon": -77.04183566666667, "type": "electric_scooter"}, {"bike_id": "f464226a358034cc4a11eb5f2025ca0f", "is_reserved": 0, "fusion_lon": 0.0, "lat": 38.92440333333333, "is_disabled": 0, "name": "f464226a358034cc4a11eb5f2025ca0f", "fusion_lat": 0.0, "rental_uris": {"ios": "https://dc.lft.to/lastmile_qr_scan", "android": "https://dc.lft.to/lastmile_qr_scan"}, "lon": -77.03359066666667, "type": "electric_scooter"}, {"bike_id": "abd178191eb27d7f2d75d336d0e04761", "is_reserved": 0, "fusion_lon": 0.0, "lat": 38.89225183333333, "is_disabled": 0, "name": "abd178191eb27d7f2d75d336d0e04761", "fusion_lat": 0.0, "rental_uris": {"ios": "https://dc.lft.to/lastmile_qr_scan", "android": "https://dc.lft.to/lastmile_qr_scan"}, "lon": -77.03220633333333, "type": "electric_scooter"}, {"bike_id": "96c23096cd260bc161ca061b9e6189da", "is_reserved": 0, "fusion_lon": 0.0, "lat": 38.9057245, "is_disabled": 0, "name": "96c23096cd260bc161ca061b9e6189da", "fusion_lat": 0.0, "rental_uris": {"ios": "https://dc.lft.to/lastmile_qr_scan", "android": "https://dc.lft.to/lastmile_qr_scan"}, "lon": -77.00430133333333, "type": "electric_scooter"}, {"bike_id": "f2ee8517ca457499b6b3079ab77cb431", "is_reserved": 0, "fusion_lon": 0.0, "lat": 38.93421166666667, "is_disabled": 0, "name": "f2ee8517ca457499b6b3079ab77cb431", "fusion_lat": 0.0, "rental_uris": {"ios": "https://dc.lft.to/lastmile_qr_scan", "android": "https://dc.lft.to/lastmile_qr_scan"}, "lon": -77.03412916666667, "type": "electric_scooter"}, {"bike_id": "29e54271192541284028fe5aacc179e8", "is_reserved": 0, "fusion_lon": 0.0, "lat": 38.924418, "is_disabled": 0, "name": "29e54271192541284028fe5aacc179e8", "fusion_lat": 0.0, "rental_uris": {"ios": "https://dc.lft.to/lastmile_qr_scan", "android": "https://dc.lft.to/lastmile_qr_scan"}, "lon": -77.03413633333334, "type": "electric_scooter"}, {"bike_id": "1374e467dd103d73301f17881786e220", "is_reserved": 0, "fusion_lon": 0.0, "lat": 38.93600766666667, "is_disabled": 0, "name": "1374e467dd103d73301f17881786e220", "fusion_lat": 0.0, "rental_uris": {"ios": "https://dc.lft.to/lastmile_qr_scan", "android": "https://dc.lft.to/lastmile_qr_scan"}, "lon": -77.02331483333333, "type": "electric_scooter"}, {"bike_id": "efa9f53b34e446be3c4bd85ed909fc1a", "is_reserved": 0, "fusion_lon": 0.0, "lat": 38.955398, "is_disabled": 0, "name": "efa9f53b34e446be3c4bd85ed909fc1a", "fusion_lat": 0.0, "rental_uris": {"ios": "https://dc.lft.to/lastmile_qr_scan", "android": "https://dc.lft.to/lastmile_qr_scan"}, "lon": -76.9352575, "type": "electric_bike"}, {"bike_id": "7bebdeb2ff4a727834d7e0d8096cf27c", "is_reserved": 0, "fusion_lon": 0.0, "lat": 38.90538816666667, "is_disabled": 0, "name": "7bebdeb2ff4a727834d7e0d8096cf27c", "fusion_lat": 0.0, "rental_uris": {"ios": "https://dc.lft.to/lastmile_qr_scan", "android": "https://dc.lft.to/lastmile_qr_scan"}, "lon": -77.05055733333333, "type": "electric_scooter"}, {"bike_id": "ee5295ef78c31b90787a01d3b4cefc97", "is_reserved": 0, "fusion_lon": 0.0, "lat": 38.85809483333333, "is_disabled": 0, "name": "ee5295ef78c31b90787a01d3b4cefc97", "fusion_lat": 0.0, "rental_uris": {"ios": "https://dc.lft.to/lastmile_qr_scan", "android": "https://dc.lft.to/lastmile_qr_scan"}, "lon": -76.986531, "type": "electric_scooter"}, {"bike_id": "dbceeb6e1d050fd138b6b62693b9ccd6", "is_reserved": 0, "fusion_lon": 0.0, "lat": 38.91759233333333, "is_disabled": 0, "name": "dbceeb6e1d050fd138b6b62693b9ccd6", "fusion_lat": 0.0, "rental_uris": {"ios": "https://dc.lft.to/lastmile_qr_scan", "android": "https://dc.lft.to/lastmile_qr_scan"}, "lon": -77.01498516666666, "type": "electric_scooter"}, {"bike_id": "8f67c3b887958fec22e996f9e949ed08", "is_reserved": 0, "fusion_lon": 0.0, "lat": 38.92313633333333, "is_disabled": 0, "name": "8f67c3b887958fec22e996f9e949ed08", "fusion_lat": 0.0, "rental_uris": {"ios": "https://dc.lft.to/lastmile_qr_scan", "android": "https://dc.lft.to/lastmile_qr_scan"}, "lon": -77.02983633333334, "type": "electric_scooter"}, {"bike_id": "e32e09ee44aa6e4c82a15b3060704e16", "is_reserved": 0, "fusion_lon": 0.0, "lat": 38.913929833333334, "is_disabled": 0, "name": "e32e09ee44aa6e4c82a15b3060704e16", "fusion_lat": 0.0, "rental_uris": {"ios": "https://dc.lft.to/lastmile_qr_scan", "android": "https://dc.lft.to/lastmile_qr_scan"}, "lon": -77.04595933333333, "type": "electric_scooter"}, {"bike_id": "40f0475714ed8da80c25b45f221d6c51", "is_reserved": 0, "fusion_lon": 0.0, "lat": 38.93363133333333, "is_disabled": 0, "name": "40f0475714ed8da80c25b45f221d6c51", "fusion_lat": 0.0, "rental_uris": {"ios": "https://dc.lft.to/lastmile_qr_scan", "android": "https://dc.lft.to/lastmile_qr_scan"}, "lon": -77.0571985, "type": "electric_scooter"}, {"bike_id": "e95cfcee4c81fb5ef9ab7ee905635cbb", "is_reserved": 0, "fusion_lon": 0.0, "lat": 38.9150135, "is_disabled": 0, "name": "e95cfcee4c81fb5ef9ab7ee905635cbb", "fusion_lat": 0.0, "rental_uris": {"ios": "https://dc.lft.to/lastmile_qr_scan", "android": "https://dc.lft.to/lastmile_qr_scan"}, "lon": -76.98351566666666, "type": "electric_scooter"}, {"bike_id": "1bc5bc83ac0d9e2d05d823735d46086a", "is_reserved": 0, "fusion_lon": 0.0, "lat": 38.88588983333333, "is_disabled": 0, "name": "1bc5bc83ac0d9e2d05d823735d46086a", "fusion_lat": 0.0, "rental_uris": {"ios": "https://dc.lft.to/lastmile_qr_scan", "android": "https://dc.lft.to/lastmile_qr_scan"}, "lon": -77.01761516666667, "type": "electric_scooter"}, {"bike_id": "b137112d5fc0917787a31e71eb2088e4", "is_reserved": 0, "fusion_lon": 0.0, "lat": 38.91042066666667, "is_disabled": 0, "name": "b137112d5fc0917787a31e71eb2088e4", "fusion_lat": 0.0, "rental_uris": {"ios": "https://dc.lft.to/lastmile_qr_scan", "android": "https://dc.lft.to/lastmile_qr_scan"}, "lon": -77.0358035, "type": "electric_scooter"}, {"bike_id": "839e6fe9ffdcf9bd667fa2b8f290ed13", "is_reserved": 0, "fusion_lon": 0.0, "lat": 38.915830166666666, "is_disabled": 0, "name": "839e6fe9ffdcf9bd667fa2b8f290ed13", "fusion_lat": 0.0, "rental_uris": {"ios": "https://dc.lft.to/lastmile_qr_scan", "android": "https://dc.lft.to/lastmile_qr_scan"}, "lon": -77.0124295, "type": "electric_scooter"}, {"bike_id": "04153b88cd83e16f141f3a4fb48c45fa", "is_reserved": 0, "fusion_lon": 0.0, "lat": 38.907776, "is_disabled": 0, "name": "04153b88cd83e16f141f3a4fb48c45fa", "fusion_lat": 0.0, "rental_uris": {"ios": "https://dc.lft.to/lastmile_qr_scan", "android": "https://dc.lft.to/lastmile_qr_scan"}, "lon": -77.03831633333333, "type": "electric_scooter"}, {"bike_id": "202931d94af394febac8a217d7e6f6ac", "is_reserved": 0, "fusion_lon": 0.0, "lat": 38.822646166666665, "is_disabled": 0, "name": "202931d94af394febac8a217d7e6f6ac", "fusion_lat": 0.0, "rental_uris": {"ios": "https://dc.lft.to/lastmile_qr_scan", "android": "https://dc.lft.to/lastmile_qr_scan"}, "lon": -77.00548366666666, "type": "electric_bike"}, {"bike_id": "816bb971fe0d71000f426bdbba889e48", "is_reserved": 0, "fusion_lon": 0.0, "lat": 38.907254333333334, "is_disabled": 0, "name": "816bb971fe0d71000f426bdbba889e48", "fusion_lat": 0.0, "rental_uris": {"ios": "https://dc.lft.to/lastmile_qr_scan", "android": "https://dc.lft.to/lastmile_qr_scan"}, "lon": -77.03242416666667, "type": "electric_scooter"}, {"bike_id": "c5a2c5b6bfef4e4fa124edce7099b689", "is_reserved": 0, "fusion_lon": 0.0, "lat": 38.893647, "is_disabled": 0, "name": "c5a2c5b6bfef4e4fa124edce7099b689", "fusion_lat": 0.0, "rental_uris": {"ios": "https://dc.lft.to/lastmile_qr_scan", "android": "https://dc.lft.to/lastmile_qr_scan"}, "lon": -77.02829966666667, "type": "electric_scooter"}, {"bike_id": "084418b080c64909a3927e087e3a8041", "is_reserved": 0, "fusion_lon": 0.0, "lat": 38.930832833333334, "is_disabled": 0, "name": "084418b080c64909a3927e087e3a8041", "fusion_lat": 0.0, "rental_uris": {"ios": "https://dc.lft.to/lastmile_qr_scan", "android": "https://dc.lft.to/lastmile_qr_scan"}, "lon": -77.03416883333334, "type": "electric_scooter"}, {"bike_id": "4b0bb71fb59e2d6d1b07e7fc1ebb348a", "is_reserved": 0, "fusion_lon": 0.0, "lat": 38.9078235, "is_disabled": 0, "name": "4b0bb71fb59e2d6d1b07e7fc1ebb348a", "fusion_lat": 0.0, "rental_uris": {"ios": "https://dc.lft.to/lastmile_qr_scan", "android": "https://dc.lft.to/lastmile_qr_scan"}, "lon": -77.03854083333333, "type": "electric_scooter"}, {"bike_id": "6faf9e8c40e3a95978f0a3ad088e5d73", "is_reserved": 0, "fusion_lon": 0.0, "lat": 38.90051883333334, "is_disabled": 0, "name": "6faf9e8c40e3a95978f0a3ad088e5d73", "fusion_lat": 0.0, "rental_uris": {"ios": "https://dc.lft.to/lastmile_qr_scan", "android": "https://dc.lft.to/lastmile_qr_scan"}, "lon": -77.03165183333333, "type": "electric_scooter"}, {"bike_id": "2bb924a13f18e2018cdc400a837ffbf8", "is_reserved": 0, "fusion_lon": 0.0, "lat": 38.864222166666664, "is_disabled": 0, "name": "2bb924a13f18e2018cdc400a837ffbf8", "fusion_lat": 0.0, "rental_uris": {"ios": "https://dc.lft.to/lastmile_qr_scan", "android": "https://dc.lft.to/lastmile_qr_scan"}, "lon": -76.98580966666667, "type": "electric_scooter"}, {"bike_id": "a6ec923690bc0fcca16fb1d88e6ce186", "is_reserved": 0, "fusion_lon": 0.0, "lat": 38.894546, "is_disabled": 0, "name": "a6ec923690bc0fcca16fb1d88e6ce186", "fusion_lat": 0.0, "rental_uris": {"ios": "https://dc.lft.to/lastmile_qr_scan", "android": "https://dc.lft.to/lastmile_qr_scan"}, "lon": -76.97037483333334, "type": "electric_bike"}, {"bike_id": "8f9fbe141e10d59fdf043eedc8788a7f", "is_reserved": 0, "fusion_lon": 0.0, "lat": 38.92656066666667, "is_disabled": 0, "name": "8f9fbe141e10d59fdf043eedc8788a7f", "fusion_lat": 0.0, "rental_uris": {"ios": "https://dc.lft.to/lastmile_qr_scan", "android": "https://dc.lft.to/lastmile_qr_scan"}, "lon": -77.03724983333333, "type": "electric_scooter"}, {"bike_id": "4651aa0ccffd344a26f8f7555870a4e1", "is_reserved": 0, "fusion_lon": 0.0, "lat": 38.9183675, "is_disabled": 0, "name": "4651aa0ccffd344a26f8f7555870a4e1", "fusion_lat": 0.0, "rental_uris": {"ios": "https://dc.lft.to/lastmile_qr_scan", "android": "https://dc.lft.to/lastmile_qr_scan"}, "lon": -77.02600016666666, "type": "electric_scooter"}, {"bike_id": "c788d8f728cdf700ebee18a01020bfbd", "is_reserved": 0, "fusion_lon": 0.0, "lat": 38.890417, "is_disabled": 0, "name": "c788d8f728cdf700ebee18a01020bfbd", "fusion_lat": 0.0, "rental_uris": {"ios": "https://dc.lft.to/lastmile_qr_scan", "android": "https://dc.lft.to/lastmile_qr_scan"}, "lon": -76.93757183333334, "type": "electric_scooter"}, {"bike_id": "4d0d313d40860a2fcbc5657518e04495", "is_reserved": 0, "fusion_lon": 0.0, "lat": 38.897394166666665, "is_disabled": 0, "name": "4d0d313d40860a2fcbc5657518e04495", "fusion_lat": 0.0, "rental_uris": {"ios": "https://dc.lft.to/lastmile_qr_scan", "android": "https://dc.lft.to/lastmile_qr_scan"}, "lon": -76.93846, "type": "electric_scooter"}, {"bike_id": "a3a6bcae612c8a8cefd42ad0d51e166d", "is_reserved": 0, "fusion_lon": 0.0, "lat": 38.83827816666667, "is_disabled": 0, "name": "a3a6bcae612c8a8cefd42ad0d51e166d", "fusion_lat": 0.0, "rental_uris": {"ios": "https://dc.lft.to/lastmile_qr_scan", "android": "https://dc.lft.to/lastmile_qr_scan"}, "lon": -76.9968645, "type": "electric_bike"}, {"bike_id": "dda74c967b9d8ee805405ea9477b30f4", "is_reserved": 0, "fusion_lon": 0.0, "lat": 38.904676, "is_disabled": 0, "name": "dda74c967b9d8ee805405ea9477b30f4", "fusion_lat": 0.0, "rental_uris": {"ios": "https://dc.lft.to/lastmile_qr_scan", "android": "https://dc.lft.to/lastmile_qr_scan"}, "lon": -77.02957, "type": "electric_scooter"}, {"bike_id": "839aa47ca1e12e582afd6d99b94fff55", "is_reserved": 0, "fusion_lon": 0.0, "lat": 38.86525666666667, "is_disabled": 0, "name": "839aa47ca1e12e582afd6d99b94fff55", "fusion_lat": 0.0, "rental_uris": {"ios": "https://dc.lft.to/lastmile_qr_scan", "android": "https://dc.lft.to/lastmile_qr_scan"}, "lon": -76.99024916666667, "type": "electric_scooter"}, {"bike_id": "ef17edcb111f3f1ea0e73eeb237e6a80", "is_reserved": 0, "fusion_lon": 0.0, "lat": 38.896088666666664, "is_disabled": 0, "name": "ef17edcb111f3f1ea0e73eeb237e6a80", "fusion_lat": 0.0, "rental_uris": {"ios": "https://dc.lft.to/lastmile_qr_scan", "android": "https://dc.lft.to/lastmile_qr_scan"}, "lon": -77.04450883333334, "type": "electric_scooter"}, {"bike_id": "0fa374aa68dfc496c0e9155b4d6c6f3b", "is_reserved": 0, "fusion_lon": 0.0, "lat": 38.92875433333333, "is_disabled": 0, "name": "0fa374aa68dfc496c0e9155b4d6c6f3b", "fusion_lat": 0.0, "rental_uris": {"ios": "https://dc.lft.to/lastmile_qr_scan", "android": "https://dc.lft.to/lastmile_qr_scan"}, "lon": -77.01377783333334, "type": "electric_scooter"}, {"bike_id": "ed951fe0dfca60d9a987c7fdee1cb51e", "is_reserved": 0, "fusion_lon": 0.0, "lat": 38.933375833333336, "is_disabled": 0, "name": "ed951fe0dfca60d9a987c7fdee1cb51e", "fusion_lat": 0.0, "rental_uris": {"ios": "https://dc.lft.to/lastmile_qr_scan", "android": "https://dc.lft.to/lastmile_qr_scan"}, "lon": -77.03283583333334, "type": "electric_scooter"}, {"bike_id": "6a82f8a4621a0c073a161bd62b7e764a", "is_reserved": 0, "fusion_lon": 0.0, "lat": 38.83812533333333, "is_disabled": 0, "name": "6a82f8a4621a0c073a161bd62b7e764a", "fusion_lat": 0.0, "rental_uris": {"ios": "https://dc.lft.to/lastmile_qr_scan", "android": "https://dc.lft.to/lastmile_qr_scan"}, "lon": -77.0952595, "type": "electric_bike"}, {"bike_id": "bbf7fa1ca5a6e328732bd053db33c82a", "is_reserved": 0, "fusion_lon": 0.0, "lat": 38.876308333333334, "is_disabled": 0, "name": "bbf7fa1ca5a6e328732bd053db33c82a", "fusion_lat": 0.0, "rental_uris": {"ios": "https://dc.lft.to/lastmile_qr_scan", "android": "https://dc.lft.to/lastmile_qr_scan"}, "lon": -76.965287, "type": "electric_scooter"}, {"bike_id": "b4f30ffdec76ecf360cc0be0ded330f0", "is_reserved": 0, "fusion_lon": 0.0, "lat": 38.866614, "is_disabled": 0, "name": "b4f30ffdec76ecf360cc0be0ded330f0", "fusion_lat": 0.0, "rental_uris": {"ios": "https://dc.lft.to/lastmile_qr_scan", "android": "https://dc.lft.to/lastmile_qr_scan"}, "lon": -76.989039, "type": "electric_scooter"}, {"bike_id": "bff73514d927df138477067ef79e4054", "is_reserved": 0, "fusion_lon": 0.0, "lat": 38.9328815, "is_disabled": 0, "name": "bff73514d927df138477067ef79e4054", "fusion_lat": 0.0, "rental_uris": {"ios": "https://dc.lft.to/lastmile_qr_scan", "android": "https://dc.lft.to/lastmile_qr_scan"}, "lon": -77.03985883333333, "type": "electric_scooter"}, {"bike_id": "e9d2add4d97cdfe686525f888508c65b", "is_reserved": 0, "fusion_lon": 0.0, "lat": 38.946296333333336, "is_disabled": 0, "name": "e9d2add4d97cdfe686525f888508c65b", "fusion_lat": 0.0, "rental_uris": {"ios": "https://dc.lft.to/lastmile_qr_scan", "android": "https://dc.lft.to/lastmile_qr_scan"}, "lon": -77.01847533333333, "type": "electric_scooter"}, {"bike_id": "15d5ae42d25a33f93baca5477c27bf96", "is_reserved": 0, "fusion_lon": 0.0, "lat": 38.9032905, "is_disabled": 0, "name": "15d5ae42d25a33f93baca5477c27bf96", "fusion_lat": 0.0, "rental_uris": {"ios": "https://dc.lft.to/lastmile_qr_scan", "android": "https://dc.lft.to/lastmile_qr_scan"}, "lon": -76.97592033333333, "type": "electric_scooter"}, {"bike_id": "0612898a4c7f7915b279cb4f616c15ef", "is_reserved": 0, "fusion_lon": 0.0, "lat": 38.918045666666664, "is_disabled": 0, "name": "0612898a4c7f7915b279cb4f616c15ef", "fusion_lat": 0.0, "rental_uris": {"ios": "https://dc.lft.to/lastmile_qr_scan", "android": "https://dc.lft.to/lastmile_qr_scan"}, "lon": -77.03437666666666, "type": "electric_scooter"}, {"bike_id": "e4ee457484a2d4bb7d50a2eddfef63ba", "is_reserved": 0, "fusion_lon": 0.0, "lat": 38.9591145, "is_disabled": 0, "name": "e4ee457484a2d4bb7d50a2eddfef63ba", "fusion_lat": 0.0, "rental_uris": {"ios": "https://dc.lft.to/lastmile_qr_scan", "android": "https://dc.lft.to/lastmile_qr_scan"}, "lon": -77.08076083333333, "type": "electric_scooter"}, {"bike_id": "24ae9a4fdec47d5899e48377bd6c6d2e", "is_reserved": 0, "fusion_lon": 0.0, "lat": 38.93398633333334, "is_disabled": 0, "name": "24ae9a4fdec47d5899e48377bd6c6d2e", "fusion_lat": 0.0, "rental_uris": {"ios": "https://dc.lft.to/lastmile_qr_scan", "android": "https://dc.lft.to/lastmile_qr_scan"}, "lon": -77.03881333333334, "type": "electric_scooter"}, {"bike_id": "bf07e5891ca90e9f9f1b168312cff9ab", "is_reserved": 0, "fusion_lon": 0.0, "lat": 38.883137166666664, "is_disabled": 0, "name": "bf07e5891ca90e9f9f1b168312cff9ab", "fusion_lat": 0.0, "rental_uris": {"ios": "https://dc.lft.to/lastmile_qr_scan", "android": "https://dc.lft.to/lastmile_qr_scan"}, "lon": -77.005978, "type": "electric_scooter"}, {"bike_id": "0e810b5ee6bd05e86cfe7bccfe7f6484", "is_reserved": 0, "fusion_lon": 0.0, "lat": 38.91092033333334, "is_disabled": 0, "name": "0e810b5ee6bd05e86cfe7bccfe7f6484", "fusion_lat": 0.0, "rental_uris": {"ios": "https://dc.lft.to/lastmile_qr_scan", "android": "https://dc.lft.to/lastmile_qr_scan"}, "lon": -77.03853483333333, "type": "electric_scooter"}, {"bike_id": "eef640a0c7e53fc36de56bdd3d261474", "is_reserved": 0, "fusion_lon": 0.0, "lat": 38.884905, "is_disabled": 0, "name": "eef640a0c7e53fc36de56bdd3d261474", "fusion_lat": 0.0, "rental_uris": {"ios": "https://dc.lft.to/lastmile_qr_scan", "android": "https://dc.lft.to/lastmile_qr_scan"}, "lon": -77.00722083333334, "type": "electric_scooter"}, {"bike_id": "67922574147da41fd7a85cc18fa95056", "is_reserved": 0, "fusion_lon": 0.0, "lat": 38.92655, "is_disabled": 0, "name": "67922574147da41fd7a85cc18fa95056", "fusion_lat": 0.0, "rental_uris": {"ios": "https://dc.lft.to/lastmile_qr_scan", "android": "https://dc.lft.to/lastmile_qr_scan"}, "lon": -77.03711216666666, "type": "electric_scooter"}, {"bike_id": "b290fa64aef37efd5ae636d2235f2a49", "is_reserved": 0, "fusion_lon": 0.0, "lat": 38.92088366666667, "is_disabled": 0, "name": "b290fa64aef37efd5ae636d2235f2a49", "fusion_lat": 0.0, "rental_uris": {"ios": "https://dc.lft.to/lastmile_qr_scan", "android": "https://dc.lft.to/lastmile_qr_scan"}, "lon": -76.9990205, "type": "electric_scooter"}, {"bike_id": "f62fc805ef21afae31d644b10835279d", "is_reserved": 0, "fusion_lon": 0.0, "lat": 38.918705333333335, "is_disabled": 0, "name": "f62fc805ef21afae31d644b10835279d", "fusion_lat": 0.0, "rental_uris": {"ios": "https://dc.lft.to/lastmile_qr_scan", "android": "https://dc.lft.to/lastmile_qr_scan"}, "lon": -77.03506883333333, "type": "electric_scooter"}, {"bike_id": "a827f22436befe60d52c6c60e45265e3", "is_reserved": 0, "fusion_lon": 0.0, "lat": 38.934012, "is_disabled": 0, "name": "a827f22436befe60d52c6c60e45265e3", "fusion_lat": 0.0, "rental_uris": {"ios": "https://dc.lft.to/lastmile_qr_scan", "android": "https://dc.lft.to/lastmile_qr_scan"}, "lon": -77.02072716666666, "type": "electric_scooter"}, {"bike_id": "6558be5f6cac2af64003a89ca5bb1502", "is_reserved": 0, "fusion_lon": 0.0, "lat": 38.920460166666665, "is_disabled": 0, "name": "6558be5f6cac2af64003a89ca5bb1502", "fusion_lat": 0.0, "rental_uris": {"ios": "https://dc.lft.to/lastmile_qr_scan", "android": "https://dc.lft.to/lastmile_qr_scan"}, "lon": -76.9981855, "type": "electric_scooter"}, {"bike_id": "dd8d78acc1d3ac9f9e1f429eb3780e0c", "is_reserved": 0, "fusion_lon": 0.0, "lat": 38.92418683333333, "is_disabled": 0, "name": "dd8d78acc1d3ac9f9e1f429eb3780e0c", "fusion_lat": 0.0, "rental_uris": {"ios": "https://dc.lft.to/lastmile_qr_scan", "android": "https://dc.lft.to/lastmile_qr_scan"}, "lon": -77.03549033333333, "type": "electric_scooter"}, {"bike_id": "ffd380b1befbd3010921f73f2cec8f3f", "is_reserved": 0, "fusion_lon": 0.0, "lat": 38.91806866666667, "is_disabled": 0, "name": "ffd380b1befbd3010921f73f2cec8f3f", "fusion_lat": 0.0, "rental_uris": {"ios": "https://dc.lft.to/lastmile_qr_scan", "android": "https://dc.lft.to/lastmile_qr_scan"}, "lon": -77.034348, "type": "electric_scooter"}, {"bike_id": "7d06fbd2d6c1c90efd3bb6723bc12590", "is_reserved": 0, "fusion_lon": 0.0, "lat": 38.908039, "is_disabled": 0, "name": "7d06fbd2d6c1c90efd3bb6723bc12590", "fusion_lat": 0.0, "rental_uris": {"ios": "https://dc.lft.to/lastmile_qr_scan", "android": "https://dc.lft.to/lastmile_qr_scan"}, "lon": -77.0346335, "type": "electric_scooter"}, {"bike_id": "f3732faaa85a0a1aba16dceb6066cbdc", "is_reserved": 0, "fusion_lon": 0.0, "lat": 38.9906325, "is_disabled": 0, "name": "f3732faaa85a0a1aba16dceb6066cbdc", "fusion_lat": 0.0, "rental_uris": {"ios": "https://dc.lft.to/lastmile_qr_scan", "android": "https://dc.lft.to/lastmile_qr_scan"}, "lon": -77.100295, "type": "electric_bike"}, {"bike_id": "430d194cb1f2459153794ad733125fc9", "is_reserved": 0, "fusion_lon": 0.0, "lat": 38.90007383333333, "is_disabled": 0, "name": "430d194cb1f2459153794ad733125fc9", "fusion_lat": 0.0, "rental_uris": {"ios": "https://dc.lft.to/lastmile_qr_scan", "android": "https://dc.lft.to/lastmile_qr_scan"}, "lon": -77.00186516666666, "type": "electric_scooter"}, {"bike_id": "be4876f60bd38b148024f89c5ad71ae4", "is_reserved": 0, "fusion_lon": 0.0, "lat": 38.87230316666667, "is_disabled": 0, "name": "be4876f60bd38b148024f89c5ad71ae4", "fusion_lat": 0.0, "rental_uris": {"ios": "https://dc.lft.to/lastmile_qr_scan", "android": "https://dc.lft.to/lastmile_qr_scan"}, "lon": -77.01168216666667, "type": "electric_bike"}, {"bike_id": "83321312044a65ffbc56041adeb3672a", "is_reserved": 0, "fusion_lon": 0.0, "lat": 38.892312833333335, "is_disabled": 0, "name": "83321312044a65ffbc56041adeb3672a", "fusion_lat": 0.0, "rental_uris": {"ios": "https://dc.lft.to/lastmile_qr_scan", "android": "https://dc.lft.to/lastmile_qr_scan"}, "lon": -77.02177666666667, "type": "electric_scooter"}, {"bike_id": "7fc1b6c2c32865343c01be6ca32f7685", "is_reserved": 0, "fusion_lon": 0.0, "lat": 38.924366666666664, "is_disabled": 0, "name": "7fc1b6c2c32865343c01be6ca32f7685", "fusion_lat": 0.0, "rental_uris": {"ios": "https://dc.lft.to/lastmile_qr_scan", "android": "https://dc.lft.to/lastmile_qr_scan"}, "lon": -77.040015, "type": "electric_scooter"}, {"bike_id": "be66b93b6f982bfec413e93813859379", "is_reserved": 0, "fusion_lon": 0.0, "lat": 38.899598166666664, "is_disabled": 0, "name": "be66b93b6f982bfec413e93813859379", "fusion_lat": 0.0, "rental_uris": {"ios": "https://dc.lft.to/lastmile_qr_scan", "android": "https://dc.lft.to/lastmile_qr_scan"}, "lon": -77.01619433333333, "type": "electric_scooter"}, {"bike_id": "f9eb1299d2d5eacb1e7715c3a6412187", "is_reserved": 0, "fusion_lon": 0.0, "lat": 38.952809333333335, "is_disabled": 0, "name": "f9eb1299d2d5eacb1e7715c3a6412187", "fusion_lat": 0.0, "rental_uris": {"ios": "https://dc.lft.to/lastmile_qr_scan", "android": "https://dc.lft.to/lastmile_qr_scan"}, "lon": -77.007908, "type": "electric_scooter"}, {"bike_id": "4fb375bb8e6a80c9205a1b4a80b66343", "is_reserved": 0, "fusion_lon": 0.0, "lat": 38.90017866666667, "is_disabled": 0, "name": "4fb375bb8e6a80c9205a1b4a80b66343", "fusion_lat": 0.0, "rental_uris": {"ios": "https://dc.lft.to/lastmile_qr_scan", "android": "https://dc.lft.to/lastmile_qr_scan"}, "lon": -76.99799733333333, "type": "electric_scooter"}, {"bike_id": "94cce0d4388ad0c747e1e21fe5d3a4ef", "is_reserved": 0, "fusion_lon": 0.0, "lat": 38.8531875, "is_disabled": 0, "name": "94cce0d4388ad0c747e1e21fe5d3a4ef", "fusion_lat": 0.0, "rental_uris": {"ios": "https://dc.lft.to/lastmile_qr_scan", "android": "https://dc.lft.to/lastmile_qr_scan"}, "lon": -76.98006783333334, "type": "electric_scooter"}, {"bike_id": "95733097de9c6fec58da532e6f189b23", "is_reserved": 0, "fusion_lon": 0.0, "lat": 38.9394575, "is_disabled": 0, "name": "95733097de9c6fec58da532e6f189b23", "fusion_lat": 0.0, "rental_uris": {"ios": "https://dc.lft.to/lastmile_qr_scan", "android": "https://dc.lft.to/lastmile_qr_scan"}, "lon": -77.03264183333333, "type": "electric_scooter"}, {"bike_id": "072af97c9c3cffc9c9aa4037f01d2d42", "is_reserved": 0, "fusion_lon": 0.0, "lat": 38.940462, "is_disabled": 0, "name": "072af97c9c3cffc9c9aa4037f01d2d42", "fusion_lat": 0.0, "rental_uris": {"ios": "https://dc.lft.to/lastmile_qr_scan", "android": "https://dc.lft.to/lastmile_qr_scan"}, "lon": -77.02978683333333, "type": "electric_scooter"}, {"bike_id": "8dac9d782144c3a1989b6b1f5405875d", "is_reserved": 0, "fusion_lon": 0.0, "lat": 38.92256583333333, "is_disabled": 0, "name": "8dac9d782144c3a1989b6b1f5405875d", "fusion_lat": 0.0, "rental_uris": {"ios": "https://dc.lft.to/lastmile_qr_scan", "android": "https://dc.lft.to/lastmile_qr_scan"}, "lon": -77.04136766666667, "type": "electric_scooter"}, {"bike_id": "6b6448cd117b7b58583f44df81a7673e", "is_reserved": 0, "fusion_lon": 0.0, "lat": 38.9050435, "is_disabled": 0, "name": "6b6448cd117b7b58583f44df81a7673e", "fusion_lat": 0.0, "rental_uris": {"ios": "https://dc.lft.to/lastmile_qr_scan", "android": "https://dc.lft.to/lastmile_qr_scan"}, "lon": -77.029502, "type": "electric_scooter"}, {"bike_id": "1dc7c25fb9765def65320384da9e72ec", "is_reserved": 0, "fusion_lon": 0.0, "lat": 38.91992616666667, "is_disabled": 0, "name": "1dc7c25fb9765def65320384da9e72ec", "fusion_lat": 0.0, "rental_uris": {"ios": "https://dc.lft.to/lastmile_qr_scan", "android": "https://dc.lft.to/lastmile_qr_scan"}, "lon": -77.03228033333333, "type": "electric_scooter"}, {"bike_id": "904e7b958f9bdf4456e4743f7fbe9b75", "is_reserved": 0, "fusion_lon": 0.0, "lat": 38.877081833333335, "is_disabled": 0, "name": "904e7b958f9bdf4456e4743f7fbe9b75", "fusion_lat": 0.0, "rental_uris": {"ios": "https://dc.lft.to/lastmile_qr_scan", "android": "https://dc.lft.to/lastmile_qr_scan"}, "lon": -77.01783916666666, "type": "electric_scooter"}, {"bike_id": "115186d7ef46a8f73ba7d521988b150f", "is_reserved": 0, "fusion_lon": 0.0, "lat": 38.85797383333333, "is_disabled": 0, "name": "115186d7ef46a8f73ba7d521988b150f", "fusion_lat": 0.0, "rental_uris": {"ios": "https://dc.lft.to/lastmile_qr_scan", "android": "https://dc.lft.to/lastmile_qr_scan"}, "lon": -76.98747366666667, "type": "electric_bike"}, {"bike_id": "4fa3b0b7962b4140f9cb3d4f8c290d3a", "is_reserved": 0, "fusion_lon": 0.0, "lat": 38.842898166666664, "is_disabled": 0, "name": "4fa3b0b7962b4140f9cb3d4f8c290d3a", "fusion_lat": 0.0, "rental_uris": {"ios": "https://dc.lft.to/lastmile_qr_scan", "android": "https://dc.lft.to/lastmile_qr_scan"}, "lon": -76.99947933333334, "type": "electric_scooter"}, {"bike_id": "fae8529f29c6c6fdabc9b5ccb804135c", "is_reserved": 0, "fusion_lon": 0.0, "lat": 38.935412666666664, "is_disabled": 0, "name": "fae8529f29c6c6fdabc9b5ccb804135c", "fusion_lat": 0.0, "rental_uris": {"ios": "https://dc.lft.to/lastmile_qr_scan", "android": "https://dc.lft.to/lastmile_qr_scan"}, "lon": -77.03286266666667, "type": "electric_scooter"}, {"bike_id": "632f3b50aedae7c11fc7b4b4ead851d2", "is_reserved": 0, "fusion_lon": 0.0, "lat": 38.910507333333335, "is_disabled": 0, "name": "632f3b50aedae7c11fc7b4b4ead851d2", "fusion_lat": 0.0, "rental_uris": {"ios": "https://dc.lft.to/lastmile_qr_scan", "android": "https://dc.lft.to/lastmile_qr_scan"}, "lon": -77.01688266666666, "type": "electric_scooter"}, {"bike_id": "584fe4c8bc3cbd00fc3187c6295f5d8e", "is_reserved": 0, "fusion_lon": 0.0, "lat": 38.941752, "is_disabled": 0, "name": "584fe4c8bc3cbd00fc3187c6295f5d8e", "fusion_lat": 0.0, "rental_uris": {"ios": "https://dc.lft.to/lastmile_qr_scan", "android": "https://dc.lft.to/lastmile_qr_scan"}, "lon": -77.02505333333333, "type": "electric_scooter"}, {"bike_id": "d7754f9d3448b08bd99cf21bb599049e", "is_reserved": 0, "fusion_lon": 0.0, "lat": 38.92027933333333, "is_disabled": 0, "name": "d7754f9d3448b08bd99cf21bb599049e", "fusion_lat": 0.0, "rental_uris": {"ios": "https://dc.lft.to/lastmile_qr_scan", "android": "https://dc.lft.to/lastmile_qr_scan"}, "lon": -77.01114033333333, "type": "electric_scooter"}, {"bike_id": "2ccefccd13a66127a4f6a279052a327d", "is_reserved": 0, "fusion_lon": 0.0, "lat": 38.9254215, "is_disabled": 0, "name": "2ccefccd13a66127a4f6a279052a327d", "fusion_lat": 0.0, "rental_uris": {"ios": "https://dc.lft.to/lastmile_qr_scan", "android": "https://dc.lft.to/lastmile_qr_scan"}, "lon": -77.03468016666666, "type": "electric_scooter"}, {"bike_id": "21e00cf355aa614525af3c3686630462", "is_reserved": 0, "fusion_lon": 0.0, "lat": 38.90666916666667, "is_disabled": 0, "name": "21e00cf355aa614525af3c3686630462", "fusion_lat": 0.0, "rental_uris": {"ios": "https://dc.lft.to/lastmile_qr_scan", "android": "https://dc.lft.to/lastmile_qr_scan"}, "lon": -77.02713666666666, "type": "electric_scooter"}, {"bike_id": "63cfe67f7999b13ca24f5a47ea819b3e", "is_reserved": 0, "fusion_lon": 0.0, "lat": 38.923412166666665, "is_disabled": 0, "name": "63cfe67f7999b13ca24f5a47ea819b3e", "fusion_lat": 0.0, "rental_uris": {"ios": "https://dc.lft.to/lastmile_qr_scan", "android": "https://dc.lft.to/lastmile_qr_scan"}, "lon": -77.03507516666667, "type": "electric_scooter"}, {"bike_id": "5a5eb40d644ea700c3357be76a03518f", "is_reserved": 0, "fusion_lon": 0.0, "lat": 38.922201, "is_disabled": 0, "name": "5a5eb40d644ea700c3357be76a03518f", "fusion_lat": 0.0, "rental_uris": {"ios": "https://dc.lft.to/lastmile_qr_scan", "android": "https://dc.lft.to/lastmile_qr_scan"}, "lon": -77.039048, "type": "electric_scooter"},