{"data": {"bikes": [{"rental_uris": {"ios": "https://dc.lft.to/lastmile_qr_scan", "android": "https://dc.lft.to/lastmile_qr_scan"}, "lon": -77.03421716666666, "type": "electric_scooter", "fusion_lat": 0.0, "lat": 38.91911483333333, "name": "0ab3c35c2ed97ad5ae97b240b8bc4af2", "fusion_lon": 0.0, "bike_id": "0ab3c35c2ed97ad5ae97b240b8bc4af2", "is_disabled": 0, "is_reserved": 0}, {"rental_uris": {"ios": "https://dc.lft.to/lastmile_qr_scan", "android": "https://dc.lft.to/lastmile_qr_scan"}, "lon": -77.04121533333333, "type": "electric_scooter", "fusion_lat": 0.0, "lat": 38.92155566666667, "name": "443813da6d4221d129ace9e4baacf14b", "fusion_lon": 0.0, "bike_id": "443813da6d4221d129ace9e4baacf14b", "is_disabled": 0, "is_reserved": 0}, {"rental_uris": {"ios": "https://dc.lft.to/lastmile_qr_scan", "android": "https://dc.lft.to/lastmile_qr_scan"}, "lon": -77.04493933333333, "type": "electric_scooter", "fusion_lat": 0.0, "lat": 38.912792333333336, "name": "761397fbfbe5a0c8bc556478f032aeaf", "fusion_lon": 0.0, "bike_id": "761397fbfbe5a0c8bc556478f032aeaf", "is_disabled": 0, "is_reserved": 0}, {"rental_uris": {"ios": "https://dc.lft.to/lastmile_qr_scan", "android": "https://dc.lft.to/lastmile_qr_scan"}, "lon": -77.03703916666667, "type": "electric_scooter", "fusion_lat": 0.0, "lat": 38.92636316666667, "name": "c89067beb1502d1d5523b5aa09b2e652", "fusion_lon": 0.0, "bike_id": "c89067beb1502d1d5523b5aa09b2e652", "is_disabled": 0, "is_reserved": 0}, {"rental_uris": {"ios": "https://dc.lft.to/lastmile_qr_scan", "android": "https://dc.lft.to/lastmile_qr_scan"}, "lon": -77.04332083333334, "type": "electric_scooter", "fusion_lat": 0.0, "lat": 38.892185833333336, "name": "3b17a875416f43972aca865b70127fd2", "fusion_lon": 0.0, "bike_id": "3b17a875416f43972aca865b70127fd2", "is_disabled": 0, "is_reserved": 0}, {"rental_uris": {"ios": "https://dc.lft.to/lastmile_qr_scan", "android": "https://dc.lft.to/lastmile_qr_scan"}, "lon": -77.02968483333333, "type": "electric_scooter", "fusion_lat": 0.0, "lat": 38.93023016666667, "name": "ea2fa880e78f24f2f19a64ee57090fde", "fusion_lon": 0.0, "bike_id": "ea2fa880e78f24f2f19a64ee57090fde", "is_disabled": 0, "is_reserved": 0}, {"rental_uris": {"ios": "https://dc.lft.to/lastmile_qr_scan", "android": "https://dc.lft.to/lastmile_qr_scan"}, "lon": -77.031471, "type": "electric_scooter", "fusion_lat": 0.0, "lat": 38.914129, "name": "67e16fa26d687fed4b34bfc99266b489", "fusion_lon": 0.0, "bike_id": "67e16fa26d687fed4b34bfc99266b489", "is_disabled": 0, "is_reserved": 0}, {"rental_uris": {"ios": "https://dc.lft.to/lastmile_qr_scan", "android": "https://dc.lft.to/lastmile_qr_scan"}, "lon": -76.957457, "type": "electric_scooter", "fusion_lat": 0.0, "lat": 38.8917105, "name": "37cfc14b43b572efbdd7c8e5bc66cf36", "fusion_lon": 0.0, "bike_id": "37cfc14b43b572efbdd7c8e5bc66cf36", "is_disabled": 0, "is_reserved": 0}, {"rental_uris": {"ios": "https://dc.lft.to/lastmile_qr_scan", "android": "https://dc.lft.to/lastmile_qr_scan"}, "lon": -77.03043916666667, "type": "electric_scooter", "fusion_lat": 0.0, "lat": 38.89704166666667, "name": "67278be74823ace011b072d16bbf083e", "fusion_lon": 0.0, "bike_id": "67278be74823ace011b072d16bbf083e", "is_disabled": 0, "is_reserved": 0}, {"rental_uris": {"ios": "https://dc.lft.to/lastmile_qr_scan", "android": "https://dc.lft.to/lastmile_qr_scan"}, "lon": -77.03806783333333, "type": "electric_scooter", "fusion_lat": 0.0, "lat": 38.91250083333333, "name": "7969d3e48d63bd108e54028a9bbe93fe", "fusion_lon": 0.0, "bike_id": "7969d3e48d63bd108e54028a9bbe93fe", "is_disabled": 0, "is_reserved": 0}, {"rental_uris": {"ios": "https://dc.lft.to/lastmile_qr_scan", "android": "https://dc.lft.to/lastmile_qr_scan"}, "lon": -77.0371495, "type": "electric_scooter", "fusion_lat": 0.0, "lat": 38.951825, "name": "3b86b26275bda7c28acbf50064c8094b", "fusion_lon": 0.0, "bike_id": "3b86b26275bda7c28acbf50064c8094b", "is_disabled": 0, "is_reserved": 0}, {"rental_uris": {"ios": "https://dc.lft.to/lastmile_qr_scan", "android": "https://dc.lft.to/lastmile_qr_scan"}, "lon": -77.088306, "type": "electric_bike", "fusion_lat": 0.0, "lat": 38.90966483333333, "name": "1a047c055a47b48abc637c18c5236ebb", "fusion_lon": 0.0, "bike_id": "1a047c055a47b48abc637c18c5236ebb", "is_disabled": 0, "is_reserved": 0}, {"rental_uris": {"ios": "https://dc.lft.to/lastmile_qr_scan", "android": "https://dc.lft.to/lastmile_qr_scan"}, "lon": -77.0377615, "type": "electric_scooter", "fusion_lat": 0.0, "lat": 38.916925, "name": "1a6740b060c02a3aca41388f6ea41196", "fusion_lon": 0.0, "bike_id": "1a6740b060c02a3aca41388f6ea41196", "is_disabled": 0, "is_reserved": 0}, {"rental_uris": {"ios": "https://dc.lft.to/lastmile_qr_scan", "android": "https://dc.lft.to/lastmile_qr_scan"}, "lon": -77.04794833333334, "type": "electric_scooter", "fusion_lat": 0.0, "lat": 38.8977245, "name": "8131ff2612cbddc46b91d8437fbbfd10", "fusion_lon": 0.0, "bike_id": "8131ff2612cbddc46b91d8437fbbfd10", "is_disabled": 0, "is_reserved": 0}, {"rental_uris": {"ios": "https://dc.lft.to/lastmile_qr_scan", "android": "https://dc.lft.to/lastmile_qr_scan"}, "lon": -77.011966, "type": "electric_scooter", "fusion_lat": 0.0, "lat": 38.8979265, "name": "d64d5451e3b6d78bfe9fc8082f282b13", "fusion_lon": 0.0, "bike_id": "d64d5451e3b6d78bfe9fc8082f282b13", "is_disabled": 0, "is_reserved": 0}, {"rental_uris": {"ios": "https://dc.lft.to/lastmile_qr_scan", "android": "https://dc.lft.to/lastmile_qr_scan"}, "lon": -77.02389366666667, "type": "electric_scooter", "fusion_lat": 0.0, "lat": 38.90709416666667, "name": "00030e9ed6108744db5caa637068a92c", "fusion_lon": 0.0, "bike_id": "00030e9ed6108744db5caa637068a92c", "is_disabled": 0, "is_reserved": 0}, {"rental_uris": {"ios": "https://dc.lft.to/lastmile_qr_scan", "android": "https://dc.lft.to/lastmile_qr_scan"}, "lon": -76.9652875, "type": "electric_scooter", "fusion_lat": 0.0, "lat": 38.87624916666667, "name": "db0e68410356dec38106796cd88f5283", "fusion_lon": 0.0, "bike_id": "db0e68410356dec38106796cd88f5283", "is_disabled": 0, "is_reserved": 0}, {"rental_uris": {"ios": "https://dc.lft.to/lastmile_qr_scan", "android": "https://dc.lft.to/lastmile_qr_scan"}, "lon": -77.05958083333333, "type": "electric_scooter", "fusion_lat": 0.0, "lat": 38.91192066666667, "name": "1821da7e5707de00281f9ca371386da5", "fusion_lon": 0.0, "bike_id": "1821da7e5707de00281f9ca371386da5", "is_disabled": 0, "is_reserved": 0}, {"rental_uris": {"ios": "https://dc.lft.to/lastmile_qr_scan", "android": "https://dc.lft.to/lastmile_qr_scan"}, "lon": -77.02702216666667, "type": "electric_scooter", "fusion_lat": 0.0, "lat": 38.91821916666667, "name": "b4087b0d09fde3da5d0d9c182bae4313", "fusion_lon": 0.0, "bike_id": "b4087b0d09fde3da5d0d9c182bae4313", "is_disabled": 0, "is_reserved": 0}, {"rental_uris": {"ios": "https://dc.lft.to/lastmile_qr_scan", "android": "https://dc.lft.to/lastmile_qr_scan"}, "lon": -77.02946933333334, "type": "electric_scooter", "fusion_lat": 0.0, "lat": 38.915593666666666, "name": "a2fe18d60087df200bb498ade800b5e4", "fusion_lon": 0.0, "bike_id": "a2fe18d60087df200bb498ade800b5e4", "is_disabled": 0, "is_reserved": 0}, {"rental_uris": {"ios": "https://dc.lft.to/lastmile_qr_scan", "android": "https://dc.lft.to/lastmile_qr_scan"}, "lon": -77.06612, "type": "electric_scooter", "fusion_lat": 0.0, "lat": 38.90532433333333, "name": "cf7c65ca0c2c0a85aa76eb346cc7167c", "fusion_lon": 0.0, "bike_id": "cf7c65ca0c2c0a85aa76eb346cc7167c", "is_disabled": 0, "is_reserved": 0}, {"rental_uris": {"ios": "https://dc.lft.to/lastmile_qr_scan", "android": "https://dc.lft.to/lastmile_qr_scan"}, "lon": -77.00346616666667, "type": "electric_scooter", "fusion_lat": 0.0, "lat": 38.91345366666667, "name": "26aff985492f47939caabe568b79f6d9", "fusion_lon": 0.0, "bike_id": "26aff985492f47939caabe568b79f6d9", "is_disabled": 0, "is_reserved": 0}, {"rental_uris": {"ios": "https://dc.lft.to/lastmile_qr_scan", "android": "https://dc.lft.to/lastmile_qr_scan"}, "lon": -76.99682116666666, "type": "electric_scooter", "fusion_lat": 0.0, "lat": 38.900241, "name": "04e2566a72fa07a0e7b2cea591f28f65", "fusion_lon": 0.0, "bike_id": "04e2566a72fa07a0e7b2cea591f28f65", "is_disabled": 0, "is_reserved": 0}, {"rental_uris": {"ios": "https://dc.lft.to/lastmile_qr_scan", "android": "https://dc.lft.to/lastmile_qr_scan"}, "lon": -77.0110695, "type": "electric_scooter", "fusion_lat": 0.0, "lat": 38.90014583333333, "name": "81b7d38d1c80e252de7d08a788a342d1", "fusion_lon": 0.0, "bike_id": "81b7d38d1c80e252de7d08a788a342d1", "is_disabled": 0, "is_reserved": 0}, {"rental_uris": {"ios": "https://dc.lft.to/lastmile_qr_scan", "android": "https://dc.lft.to/lastmile_qr_scan"}, "lon": -77.01798816666667, "type": "electric_scooter", "fusion_lat": 0.0, "lat": 38.9023905, "name": "6ee87ec8eb8ca2d532aeae1149107c8f", "fusion_lon": 0.0, "bike_id": "6ee87ec8eb8ca2d532aeae1149107c8f", "is_disabled": 0, "is_reserved": 0}, {"rental_uris": {"ios": "https://dc.lft.to/lastmile_qr_scan", "android": "https://dc.lft.to/lastmile_qr_scan"}, "lon": -77.02023466666667, "type": "electric_scooter", "fusion_lat": 0.0, "lat": 38.91657133333333, "name": "4a98ec24fb106a0d832b218bb57cda52", "fusion_lon": 0.0, "bike_id": "4a98ec24fb106a0d832b218bb57cda52", "is_disabled": 0, "is_reserved": 0}, {"rental_uris": {"ios": "https://dc.lft.to/lastmile_qr_scan", "android": "https://dc.lft.to/lastmile_qr_scan"}, "lon": -76.967573, "type": "electric_bike", "fusion_lat": 0.0, "lat": 38.87547433333334, "name": "37a27115edbadcfb39f5b5a12ab8c156", "fusion_lon": 0.0, "bike_id": "37a27115edbadcfb39f5b5a12ab8c156", "is_disabled": 0, "is_reserved": 0}, {"rental_uris": {"ios": "https://dc.lft.to/lastmile_qr_scan", "android": "https://dc.lft.to/lastmile_qr_scan"}, "lon": -77.0500915, "type": "electric_scooter", "fusion_lat": 0.0, "lat": 38.90729966666667, "name": "e15325dbfcd8ae759ea6454ba6a06e4d", "fusion_lon": 0.0, "bike_id": "e15325dbfcd8ae759ea6454ba6a06e4d", "is_disabled": 0, "is_reserved": 0}, {"rental_uris": {"ios": "https://dc.lft.to/lastmile_qr_scan", "android": "https://dc.lft.to/lastmile_qr_scan"}, "lon": -77.04014066666667, "type": "electric_scooter", "fusion_lat": 0.0, "lat": 38.932506000000004, "name": "6dc64ae402557f59c978c4c1cab8032b", "fusion_lon": 0.0, "bike_id": "6dc64ae402557f59c978c4c1cab8032b", "is_disabled": 0, "is_reserved": 0}, {"rental_uris": {"ios": "https://dc.lft.to/lastmile_qr_scan", "android": "https://dc.lft.to/lastmile_qr_scan"}, "lon": -77.01950583333333, "type": "electric_scooter", "fusion_lat": 0.0, "lat": 38.883797666666666, "name": "d5d32b335e9d1f207ef1c81a96ce8e9c", "fusion_lon": 0.0, "bike_id": "d5d32b335e9d1f207ef1c81a96ce8e9c", "is_disabled": 0, "is_reserved": 0}, {"rental_uris": {"ios": "https://dc.lft.to/lastmile_qr_scan", "android": "https://dc.lft.to/lastmile_qr_scan"}, "lon": -77.07307333333334, "type": "electric_scooter", "fusion_lat": 0.0, "lat": 38.936297333333336, "name": "0a01ae2f06c5c9e334f5bbc0d3b5150d", "fusion_lon": 0.0, "bike_id": "0a01ae2f06c5c9e334f5bbc0d3b5150d", "is_disabled": 0, "is_reserved": 0}, {"rental_uris": {"ios": "https://dc.lft.to/lastmile_qr_scan", "android": "https://dc.lft.to/lastmile_qr_scan"}, "lon": -77.0081345, "type": "electric_scooter", "fusion_lat": 0.0, "lat": 38.87651566666667, "name": "6af3c4cd91f176505b662663a36b1c18", "fusion_lon": 0.0, "bike_id": "6af3c4cd91f176505b662663a36b1c18", "is_disabled": 0, "is_reserved": 0}, {"rental_uris": {"ios": "https://dc.lft.to/lastmile_qr_scan", "android": "https://dc.lft.to/lastmile_qr_scan"}, "lon": -77.112239, "type": "electric_bike", "fusion_lat": 0.0, "lat": 38.828656333333335, "name": "d7ded04bb5d279a02dc68f0f2baa66d9", "fusion_lon": 0.0, "bike_id": "d7ded04bb5d279a02dc68f0f2baa66d9", "is_disabled": 0, "is_reserved": 0}, {"rental_uris": {"ios": "https://dc.lft.to/lastmile_qr_scan", "android": "https://dc.lft.to/lastmile_qr_scan"}, "lon": -77.026943, "type": "electric_scooter", "fusion_lat": 0.0, "lat": 38.908373, "name": "88262f9a766f47d6ab45df5a97a8219f", "fusion_lon": 0.0, "bike_id": "88262f9a766f47d6ab45df5a97a8219f", "is_disabled": 0, "is_reserved": 0}, {"rental_uris": {"ios": "https://dc.lft.to/lastmile_qr_scan", "android": "https://dc.lft.to/lastmile_qr_scan"}, "lon": -77.02739883333334, "type": "electric_scooter", "fusion_lat": 0.0, "lat": 38.88153666666667, "name": "6f6e2ade616bbbcada84a31de8df7e80", "fusion_lon": 0.0, "bike_id": "6f6e2ade616bbbcada84a31de8df7e80", "is_disabled": 0, "is_reserved": 0}, {"rental_uris": {"ios": "https://dc.lft.to/lastmile_qr_scan", "android": "https://dc.lft.to/lastmile_qr_scan"}, "lon": -76.87498683333334, "type": "electric_bike", "fusion_lat": 0.0, "lat": 38.9908665, "name": "1124948575ae91d54fb166e4741edf58", "fusion_lon": 0.0, "bike_id": "1124948575ae91d54fb166e4741edf58", "is_disabled": 0, "is_reserved": 0}, {"rental_uris": {"ios": "https://dc.lft.to/lastmile_qr_scan", "android": "https://dc.lft.to/lastmile_qr_scan"}, "lon": -77.021994, "type": "electric_scooter", "fusion_lat": 0.0, "lat": 38.920877, "name": "69b8e73c14f64bbdd2191cc6484314a1", "fusion_lon": 0.0, "bike_id": "69b8e73c14f64bbdd2191cc6484314a1", "is_disabled": 0, "is_reserved": 0}, {"rental_uris": {"ios": "https://dc.lft.to/lastmile_qr_scan", "android": "https://dc.lft.to/lastmile_qr_scan"}, "lon": -77.0237875, "type": "electric_scooter", "fusion_lat": 0.0, "lat": 38.90375816666667, "name": "aa1a9c0da2531979fd471fddcaef303f", "fusion_lon": 0.0, "bike_id": "aa1a9c0da2531979fd471fddcaef303f", "is_disabled": 0, "is_reserved": 0}, {"rental_uris": {"ios": "https://dc.lft.to/lastmile_qr_scan", "android": "https://dc.lft.to/lastmile_qr_scan"}, "lon": -77.05702816666667, "type": "electric_scooter", "fusion_lat": 0.0, "lat": 38.899635833333335, "name": "a85929b38b22dccf7d93493d753071e1", "fusion_lon": 0.0, "bike_id": "a85929b38b22dccf7d93493d753071e1", "is_disabled": 0, "is_reserved": 0}, {"rental_uris": {"ios": "https://dc.lft.to/lastmile_qr_scan", "android": "https://dc.lft.to/lastmile_qr_scan"}, "lon": -76.98887783333333, "type": "electric_scooter", "fusion_lat": 0.0, "lat": 38.86653833333333, "name": "6b8d73793cc0ef512800e92d4623b057", "fusion_lon": 0.0, "bike_id": "6b8d73793cc0ef512800e92d4623b057", "is_disabled": 0, "is_reserved": 0}, {"rental_uris": {"ios": "https://dc.lft.to/lastmile_qr_scan", "android": "https://dc.lft.to/lastmile_qr_scan"}, "lon": -77.02075516666666, "type": "electric_scooter", "fusion_lat": 0.0, "lat": 38.899731, "name": "709b52e7cac42dd56671e3ea38e80060", "fusion_lon": 0.0, "bike_id": "709b52e7cac42dd56671e3ea38e80060", "is_disabled": 0, "is_reserved": 0}, {"rental_uris": {"ios": "https://dc.lft.to/lastmile_qr_scan", "android": "https://dc.lft.to/lastmile_qr_scan"}, "lon": -77.03192566666667, "type": "electric_scooter", "fusion_lat": 0.0, "lat": 38.89227533333333, "name": "0b7f2f9ac49b9e1bf0edad65243bec00", "fusion_lon": 0.0, "bike_id": "0b7f2f9ac49b9e1bf0edad65243bec00", "is_disabled": 0, "is_reserved": 0}, {"rental_uris": {"ios": "https://dc.lft.to/lastmile_qr_scan", "android": "https://dc.lft.to/lastmile_qr_scan"}, "lon": -77.01145316666667, "type": "electric_scooter", "fusion_lat": 0.0, "lat": 38.900273, "name": "a5b778095800b3028cbc1e237ceb3faf", "fusion_lon": 0.0, "bike_id": "a5b778095800b3028cbc1e237ceb3faf", "is_disabled": 0, "is_reserved": 0}, {"rental_uris": {"ios": "https://dc.lft.to/lastmile_qr_scan", "android": "https://dc.lft.to/lastmile_qr_scan"}, "lon": -77.02699, "type": "electric_scooter", "fusion_lat": 0.0, "lat": 38.908338, "name": "e924ec3f37835cb5c068b6f12cc6cbb6", "fusion_lon": 0.0, "bike_id": "e924ec3f37835cb5c068b6f12cc6cbb6", "is_disabled": 0, "is_reserved": 0}, {"rental_uris": {"ios": "https://dc.lft.to/lastmile_qr_scan", "android": "https://dc.lft.to/lastmile_qr_scan"}, "lon": -77.05804316666666, "type": "electric_scooter", "fusion_lat": 0.0, "lat": 38.90098483333333, "name": "993b48421cd372d00d2307e5fa9cad40", "fusion_lon": 0.0, "bike_id": "993b48421cd372d00d2307e5fa9cad40", "is_disabled": 0, "is_reserved": 0}, {"rental_uris": {"ios": "https://dc.lft.to/lastmile_qr_scan", "android": "https://dc.lft.to/lastmile_qr_scan"}, "lon": -77.026564, "type": "electric_scooter", "fusion_lat": 0.0, "lat": 38.916979, "name": "88717da5de76c2a36fe21cea363ef4dd", "fusion_lon": 0.0, "bike_id": "88717da5de76c2a36fe21cea363ef4dd", "is_disabled": 0, "is_reserved": 0}, {"rental_uris": {"ios": "https://dc.lft.to/lastmile_qr_scan", "android": "https://dc.lft.to/lastmile_qr_scan"}, "lon": -77.08536233333334, "type": "electric_bike", "fusion_lat": 0.0, "lat": 38.8561555, "name": "abb4d8dfd903b1883a788e4161f1652e", "fusion_lon": 0.0, "bike_id": "abb4d8dfd903b1883a788e4161f1652e", "is_disabled": 0, "is_reserved": 0}, {"rental_uris": {"ios": "https://dc.lft.to/lastmile_qr_scan", "android": "https://dc.lft.to/lastmile_qr_scan"}, "lon": -77.0275115, "type": "electric_scooter", "fusion_lat": 0.0, "lat": 38.88154766666667, "name": "5bd87bbbebb5c02aaf25afdae6e2ba35", "fusion_lon": 0.0, "bike_id": "5bd87bbbebb5c02aaf25afdae6e2ba35", "is_disabled": 0, "is_reserved": 0}, {"rental_uris": {"ios": "https://dc.lft.to/lastmile_qr_scan", "android": "https://dc.lft.to/lastmile_qr_scan"}, "lon": -77.05198216666666, "type": "electric_scooter", "fusion_lat": 0.0, "lat": 38.92448133333333, "name": "af8cfa9a4e5fdc3aee3780083ec2a3c2", "fusion_lon": 0.0, "bike_id": "af8cfa9a4e5fdc3aee3780083ec2a3c2", "is_disabled": 0, "is_reserved": 0}, {"rental_uris": {"ios": "https://dc.lft.to/lastmile_qr_scan", "android": "https://dc.lft.to/lastmile_qr_scan"}, "lon": -77.05434716666667, "type": "electric_scooter", "fusion_lat": 0.0, "lat": 38.92352416666667, "name": "8f96ef807b41b0ee7277d8ac8c738027", "fusion_lon": 0.0, "bike_id": "8f96ef807b41b0ee7277d8ac8c738027", "is_disabled": 0, "is_reserved": 0}, {"rental_uris": {"ios": "https://dc.lft.to/lastmile_qr_scan", "android": "https://dc.lft.to/lastmile_qr_scan"}, "lon": -77.029461, "type": "electric_scooter", "fusion_lat": 0.0, "lat": 38.90837966666667, "name": "8db9402de1518e6e140cff48eef7a1dc", "fusion_lon": 0.0, "bike_id": "8db9402de1518e6e140cff48eef7a1dc", "is_disabled": 0, "is_reserved": 0}, {"rental_uris": {"ios": "https://dc.lft.to/lastmile_qr_scan", "android": "https://dc.lft.to/lastmile_qr_scan"}, "lon": -77.12963866666666, "type": "electric_bike", "fusion_lat": 0.0, "lat": 38.807907166666666, "name": "8cabb504723daad4b7ab0a3b7ac67383", "fusion_lon": 0.0, "bike_id": "8cabb504723daad4b7ab0a3b7ac67383", "is_disabled": 0, "is_reserved": 0}, {"rental_uris": {"ios": "https://dc.lft.to/lastmile_qr_scan", "android": "https://dc.lft.to/lastmile_qr_scan"}, "lon": -76.99040866666667, "type": "electric_scooter", "fusion_lat": 0.0, "lat": 38.856572166666666, "name": "9df713e043bbcffbd4ed23ab4fdad217", "fusion_lon": 0.0, "bike_id": "9df713e043bbcffbd4ed23ab4fdad217", "is_disabled": 0, "is_reserved": 0}, {"rental_uris": {"ios": "https://dc.lft.to/lastmile_qr_scan", "android": "https://dc.lft.to/lastmile_qr_scan"}, "lon": -77.01303283333333, "type": "electric_bike", "fusion_lat": 0.0, "lat": 39.0035935, "name": "4d2e96509bdb70c7b7dd438bf5e50cc6", "fusion_lon": 0.0, "bike_id": "4d2e96509bdb70c7b7dd438bf5e50cc6", "is_disabled": 0, "is_reserved": 0}, {"rental_uris": {"ios": "https://dc.lft.to/lastmile_qr_scan", "android": "https://dc.lft.to/lastmile_qr_scan"}, "lon": -77.046606, "type": "electric_scooter", "fusion_lat": 0.0, "lat": 38.932892833333334, "name": "65ed4b9d0e713c3297a31dd3f7d84301", "fusion_lon": 0.0, "bike_id": "65ed4b9d0e713c3297a31dd3f7d84301", "is_disabled": 0, "is_reserved": 0}, {"rental_uris": {"ios": "https://dc.lft.to/lastmile_qr_scan", "android": "https://dc.lft.to/lastmile_qr_scan"}, "lon": -77.02278966666667, "type": "electric_scooter", "fusion_lat": 0.0, "lat": 38.878420166666665, "name": "ceaa78f622400cf0bfdc3001b3d0483a", "fusion_lon": 0.0, "bike_id": "ceaa78f622400cf0bfdc3001b3d0483a", "is_disabled": 0, "is_reserved": 0}, {"rental_uris": {"ios": "https://dc.lft.to/lastmile_qr_scan", "android": "https://dc.lft.to/lastmile_qr_scan"}, "lon": -76.93243966666667, "type": "electric_scooter", "fusion_lat": 0.0, "lat": 38.8940315, "name": "94e4ad519058835bc5957ef71dd32c35", "fusion_lon": 0.0, "bike_id": "94e4ad519058835bc5957ef71dd32c35", "is_disabled": 0, "is_reserved": 0}, {"rental_uris": {"ios": "https://dc.lft.to/lastmile_qr_scan", "android": "https://dc.lft.to/lastmile_qr_scan"}, "lon": -77.07383516666667, "type": "electric_scooter", "fusion_lat": 0.0, "lat": 38.9617025, "name": "4f95581fa0658892f336b59fc15299e3", "fusion_lon": 0.0, "bike_id": "4f95581fa0658892f336b59fc15299e3", "is_disabled": 0, "is_reserved": 0}, {"rental_uris": {"ios": "https://dc.lft.to/lastmile_qr_scan", "android": "https://dc.lft.to/lastmile_qr_scan"}, "lon": -77.039354, "type": "electric_scooter", "fusion_lat": 0.0, "lat": 38.92491616666667, "name": "f6abb424f0f22db131e5ad6e20b6cd2d", "fusion_lon": 0.0, "bike_id": "f6abb424f0f22db131e5ad6e20b6cd2d", "is_disabled": 0, "is_reserved": 0}, {"rental_uris": {"ios": "https://dc.lft.to/lastmile_qr_scan", "android": "https://dc.lft.to/lastmile_qr_scan"}, "lon": -77.0232215, "type": "electric_scooter", "fusion_lat": 0.0, "lat": 38.9306245, "name": "ee5c22b40432a312d30c63a811aea99f", "fusion_lon": 0.0, "bike_id": "ee5c22b40432a312d30c63a811aea99f", "is_disabled": 0, "is_reserved": 0}, {"rental_uris": {"ios": "https://dc.lft.to/lastmile_qr_scan", "android": "https://dc.lft.to/lastmile_qr_scan"}, "lon": -77.01945533333334, "type": "electric_scooter", "fusion_lat": 0.0, "lat": 38.94696866666666, "name": "e606e4edffc29fe31998f7b00464d04f", "fusion_lon": 0.0, "bike_id": "e606e4edffc29fe31998f7b00464d04f", "is_disabled": 0, "is_reserved": 0}, {"rental_uris": {"ios": "https://dc.lft.to/lastmile_qr_scan", "android": "https://dc.lft.to/lastmile_qr_scan"}, "lon": -77.046462, "type": "electric_bike", "fusion_lat": 0.0, "lat": 38.85210166666667, "name": "94e70879078d0bdb6f7ab137208e79dd", "fusion_lon": 0.0, "bike_id": "94e70879078d0bdb6f7ab137208e79dd", "is_disabled": 0, "is_reserved": 0}, {"rental_uris": {"ios": "https://dc.lft.to/lastmile_qr_scan", "android": "https://dc.lft.to/lastmile_qr_scan"}, "lon": -77.02208783333333, "type": "electric_scooter", "fusion_lat": 0.0, "lat": 38.878852, "name": "52b7cd7cde678d4ff51b8562d7e96c30", "fusion_lon": 0.0, "bike_id": "52b7cd7cde678d4ff51b8562d7e96c30", "is_disabled": 0, "is_reserved": 0}, {"rental_uris": {"ios": "https://dc.lft.to/lastmile_qr_scan", "android": "https://dc.lft.to/lastmile_qr_scan"}, "lon": -77.0464245, "type": "electric_scooter", "fusion_lat": 0.0, "lat": 38.9050405, "name": "26fb98c433ff21ebef5c0299154e2a2d", "fusion_lon": 0.0, "bike_id": "26fb98c433ff21ebef5c0299154e2a2d", "is_disabled": 0, "is_reserved": 0}, {"rental_uris": {"ios": "https://dc.lft.to/lastmile_qr_scan", "android": "https://dc.lft.to/lastmile_qr_scan"}, "lon": -77.04887583333333, "type": "electric_scooter", "fusion_lat": 0.0, "lat": 38.900709166666665, "name": "517ad65dbd008b2f4f6288e7e538f8ab", "fusion_lon": 0.0, "bike_id": "517ad65dbd008b2f4f6288e7e538f8ab", "is_disabled": 0, "is_reserved": 0}, {"rental_uris": {"ios": "https://dc.lft.to/lastmile_qr_scan", "android": "https://dc.lft.to/lastmile_qr_scan"}, "lon": -77.03630666666666, "type": "electric_scooter", "fusion_lat": 0.0, "lat": 38.92650283333333, "name": "0f5485fc08ae7bc5becf356cce33b9d6", "fusion_lon": 0.0, "bike_id": "0f5485fc08ae7bc5becf356cce33b9d6", "is_disabled": 0, "is_reserved": 0}, {"rental_uris": {"ios": "https://dc.lft.to/lastmile_qr_scan", "android": "https://dc.lft.to/lastmile_qr_scan"}, "lon": -77.03207266666666, "type": "electric_scooter", "fusion_lat": 0.0, "lat": 38.93045983333333, "name": "bd77ff08712f35894ae589c251d3fcdd", "fusion_lon": 0.0, "bike_id": "bd77ff08712f35894ae589c251d3fcdd", "is_disabled": 0, "is_reserved": 0}, {"rental_uris": {"ios": "https://dc.lft.to/lastmile_qr_scan", "android": "https://dc.lft.to/lastmile_qr_scan"}, "lon": -77.00432983333333, "type": "electric_scooter", "fusion_lat": 0.0, "lat": 38.90388466666667, "name": "4cbaca1de150e08fb9570ff3310120e5", "fusion_lon": 0.0, "bike_id": "4cbaca1de150e08fb9570ff3310120e5", "is_disabled": 0, "is_reserved": 0}, {"rental_uris": {"ios": "https://dc.lft.to/lastmile_qr_scan", "android": "https://dc.lft.to/lastmile_qr_scan"}, "lon": -77.02023966666667, "type": "electric_scooter", "fusion_lat": 0.0, "lat": 38.91541333333333, "name": "4dbc068bfeb2b9d24d4e2ac608d6c33d", "fusion_lon": 0.0, "bike_id": "4dbc068bfeb2b9d24d4e2ac608d6c33d", "is_disabled": 0, "is_reserved": 0}, {"rental_uris": {"ios": "https://dc.lft.to/lastmile_qr_scan", "android": "https://dc.lft.to/lastmile_qr_scan"}, "lon": -77.02614416666667, "type": "electric_scooter", "fusion_lat": 0.0, "lat": 38.896849, "name": "af3aca26835c5fd01f6f66a99efe372d", "fusion_lon": 0.0, "bike_id": "af3aca26835c5fd01f6f66a99efe372d", "is_disabled": 0, "is_reserved": 0}, {"rental_uris": {"ios": "https://dc.lft.to/lastmile_qr_scan", "android": "https://dc.lft.to/lastmile_qr_scan"}, "lon": -77.025493, "type": "electric_scooter", "fusion_lat": 0.0, "lat": 38.934961333333334, "name": "7aeaf639e6931d02ff73685e2b089853", "fusion_lon": 0.0, "bike_id": "7aeaf639e6931d02ff73685e2b089853", "is_disabled": 0, "is_reserved": 0}, {"rental_uris": {"ios": "https://dc.lft.to/lastmile_qr_scan", "android": "https://dc.lft.to/lastmile_qr_scan"}, "lon": -77.0419365, "type": "electric_scooter", "fusion_lat": 0.0, "lat": 38.92045933333333, "name": "03cb695ab7b831ecfbc073f231f5d8fe", "fusion_lon": 0.0, "bike_id": "03cb695ab7b831ecfbc073f231f5d8fe", "is_disabled": 0, "is_reserved": 0}, {"rental_uris": {"ios": "https://dc.lft.to/lastmile_qr_scan", "android": "https://dc.lft.to/lastmile_qr_scan"}, "lon": -77.03467533333334, "type": "electric_scooter", "fusion_lat": 0.0, "lat": 38.9083085, "name": "987af47ba7d623d2b4383a07805a6077", "fusion_lon": 0.0, "bike_id": "987af47ba7d623d2b4383a07805a6077", "is_disabled": 0, "is_reserved": 0}, {"rental_uris": {"ios": "https://dc.lft.to/lastmile_qr_scan", "android": "https://dc.lft.to/lastmile_qr_scan"}, "lon": -77.06115333333334, "type": "electric_scooter", "fusion_lat": 0.0, "lat": 38.912896833333335, "name": "4a0aede42176bceba1a0d419ad6499cb", "fusion_lon": 0.0, "bike_id": "4a0aede42176bceba1a0d419ad6499cb", "is_disabled": 0, "is_reserved": 0}, {"rental_uris": {"ios": "https://dc.lft.to/lastmile_qr_scan", "android": "https://dc.lft.to/lastmile_qr_scan"}, "lon": -76.99002933333334, "type": "electric_scooter", "fusion_lat": 0.0, "lat": 38.86502733333333, "name": "a000968910bc27b54db897262319c4b9", "fusion_lon": 0.0, "bike_id": "a000968910bc27b54db897262319c4b9", "is_disabled": 0, "is_reserved": 0}, {"rental_uris": {"ios": "https://dc.lft.to/lastmile_qr_scan", "android": "https://dc.lft.to/lastmile_qr_scan"}, "lon": -77.03272233333334, "type": "electric_scooter", "fusion_lat": 0.0, "lat": 38.93725966666667, "name": "7eb16834f9ae8008d6a03bf764e0ed69", "fusion_lon": 0.0, "bike_id": "7eb16834f9ae8008d6a03bf764e0ed69", "is_disabled": 0, "is_reserved": 0}, {"rental_uris": {"ios": "https://dc.lft.to/lastmile_qr_scan", "android": "https://dc.lft.to/lastmile_qr_scan"}, "lon": -76.97711483333333, "type": "electric_scooter", "fusion_lat": 0.0, "lat": 38.88520616666667, "name": "a1cedf0be32a754e64b7d4c3cb2f57c0", "fusion_lon": 0.0, "bike_id": "a1cedf0be32a754e64b7d4c3cb2f57c0", "is_disabled": 0, "is_reserved": 0}, {"rental_uris": {"ios": "https://dc.lft.to/lastmile_qr_scan", "android": "https://dc.lft.to/lastmile_qr_scan"}, "lon": -77.01458233333334, "type": "electric_scooter", "fusion_lat": 0.0, "lat": 38.91808066666667, "name": "b57e66b56cf9ea3da26c87b4b875ac9c", "fusion_lon": 0.0, "bike_id": "b57e66b56cf9ea3da26c87b4b875ac9c", "is_disabled": 0, "is_reserved": 0}, {"rental_uris": {"ios": "https://dc.lft.to/lastmile_qr_scan", "android": "https://dc.lft.to/lastmile_qr_scan"}, "lon": -77.02696516666667, "type": "electric_scooter", "fusion_lat": 0.0, "lat": 38.908426, "name": "928cafaf3dc406f8e5b9e68a2e087b73", "fusion_lon": 0.0, "bike_id": "928cafaf3dc406f8e5b9e68a2e087b73", "is_disabled": 0, "is_reserved": 0}, {"rental_uris": {"ios": "https://dc.lft.to/lastmile_qr_scan", "android": "https://dc.lft.to/lastmile_qr_scan"}, "lon": -77.023962, "type": "electric_scooter", "fusion_lat": 0.0, "lat": 38.90709916666667, "name": "8408cf9271382ea40d01ba6fd4ac6142", "fusion_lon": 0.0, "bike_id": "8408cf9271382ea40d01ba6fd4ac6142", "is_disabled": 0, "is_reserved": 0}, {"rental_uris": {"ios": "https://dc.lft.to/lastmile_qr_scan", "android": "https://dc.lft.to/lastmile_qr_scan"}, "lon": -77.03752683333333, "type": "electric_scooter", "fusion_lat": 0.0, "lat": 38.9118415, "name": "55bd043139d48ccff1f403a53e776ba4", "fusion_lon": 0.0, "bike_id": "55bd043139d48ccff1f403a53e776ba4", "is_disabled": 0, "is_reserved": 0}, {"rental_uris": {"ios": "https://dc.lft.to/lastmile_qr_scan", "android": "https://dc.lft.to/lastmile_qr_scan"}, "lon": -77.05861166666666, "type": "electric_scooter", "fusion_lat": 0.0, "lat": 38.93606533333333, "name": "c8465707eeb7111fa26027801168a88c", "fusion_lon": 0.0, "bike_id": "c8465707eeb7111fa26027801168a88c", "is_disabled": 0, "is_reserved": 0}, {"rental_uris": {"ios": "https://dc.lft.to/lastmile_qr_scan", "android": "https://dc.lft.to/lastmile_qr_scan"}, "lon": -77.03915066666667, "type": "electric_scooter", "fusion_lat": 0.0, "lat": 38.9246855, "name": "28117ec34b88ac41b79a4523426333b0", "fusion_lon": 0.0, "bike_id": "28117ec34b88ac41b79a4523426333b0", "is_disabled": 0, "is_reserved": 0}, {"rental_uris": {"ios": "https://dc.lft.to/lastmile_qr_scan", "android": "https://dc.lft.to/lastmile_qr_scan"}, "lon": -77.02310483333333, "type": "electric_scooter", "fusion_lat": 0.0, "lat": 38.89559833333333, "name": "63ffb2ac2b2abd2f8b2b170d2c77c971", "fusion_lon": 0.0, "bike_id": "63ffb2ac2b2abd2f8b2b170d2c77c971", "is_disabled": 0, "is_reserved": 0}, {"rental_uris": {"ios": "https://dc.lft.to/lastmile_qr_scan", "android": "https://dc.lft.to/lastmile_qr_scan"}, "lon": -77.04315266666667, "type": "electric_scooter", "fusion_lat": 0.0, "lat": 38.9094815, "name": "32fecb6c92bf0cbbb8f2e5d633fd7300", "fusion_lon": 0.0, "bike_id": "32fecb6c92bf0cbbb8f2e5d633fd7300", "is_disabled": 0, "is_reserved": 0}, {"rental_uris": {"ios": "https://dc.lft.to/lastmile_qr_scan", "android": "https://dc.lft.to/lastmile_qr_scan"}, "lon": -77.0141915, "type": "electric_scooter", "fusion_lat": 0.0, "lat": 38.91529333333333, "name": "a97d9016b12b975a91c4d9d066309221", "fusion_lon": 0.0, "bike_id": "a97d9016b12b975a91c4d9d066309221", "is_disabled": 0, "is_reserved": 0}, {"rental_uris": {"ios": "https://dc.lft.to/lastmile_qr_scan", "android": "https://dc.lft.to/lastmile_qr_scan"}, "lon": -77.02750566666667, "type": "electric_scooter", "fusion_lat": 0.0, "lat": 38.92384216666667, "name": "7d90fd39844a839279cda1c4d672cc6f", "fusion_lon": 0.0, "bike_id": "7d90fd39844a839279cda1c4d672cc6f", "is_disabled": 0, "is_reserved": 0}, {"rental_uris": {"ios": "https://dc.lft.to/lastmile_qr_scan", "android": "https://dc.lft.to/lastmile_qr_scan"}, "lon": -76.98816966666666, "type": "electric_scooter", "fusion_lat": 0.0, "lat": 38.9034125, "name": "6c0149368dfe99eeb9fc08cbb4f2bed2", "fusion_lon": 0.0, "bike_id": "6c0149368dfe99eeb9fc08cbb4f2bed2", "is_disabled": 0, "is_reserved": 0}, {"rental_uris": {"ios": "https://dc.lft.to/lastmile_qr_scan", "android": "https://dc.lft.to/lastmile_qr_scan"}, "lon": -77.01224033333334, "type": "electric_scooter", "fusion_lat": 0.0, "lat": 38.90968866666667, "name": "739049179c786a070ca77c128cd0c551", "fusion_lon": 0.0, "bike_id": "739049179c786a070ca77c128cd0c551", "is_disabled": 0, "is_reserved": 0}, {"rental_uris": {"ios": "https://dc.lft.to/lastmile_qr_scan", "android": "https://dc.lft.to/lastmile_qr_scan"}, "lon": -77.04196166666667, "type": "electric_scooter", "fusion_lat": 0.0, "lat": 38.91134816666667, "name": "8ccff5b40c1efd763e549acba53d22a9", "fusion_lon": 0.0, "bike_id": "8ccff5b40c1efd763e549acba53d22a9", "is_disabled": 0, "is_reserved": 0}, {"rental_uris": {"ios": "https://dc.lft.to/lastmile_qr_scan", "android": "https://dc.lft.to/lastmile_qr_scan"}, "lon": -76.9329535, "type": "electric_scooter", "fusion_lat": 0.0, "lat": 38.898944, "name": "c322b0f12a3b248ccda3a39802ee4960", "fusion_lon": 0.0, "bike_id": "c322b0f12a3b248ccda3a39802ee4960", "is_disabled": 0, "is_reserved": 0}, {"rental_uris": {"ios": "https://dc.lft.to/lastmile_qr_scan", "android": "https://dc.lft.to/lastmile_qr_scan"}, "lon": -76.98570016666666, "type": "electric_scooter", "fusion_lat": 0.0, "lat": 38.8995745, "name": "b288af8c04b349a33e27e783f002c322", "fusion_lon": 0.0, "bike_id": "b288af8c04b349a33e27e783f002c322", "is_disabled": 0, "is_reserved": 0}, {"rental_uris": {"ios": "https://dc.lft.to/lastmile_qr_scan", "android": "https://dc.lft.to/lastmile_qr_scan"}, "lon": -76.98587216666667, "type": "electric_scooter", "fusion_lat": 0.0, "lat": 38.9065505, "name": "5f7105c8e0d1ba77331597ad4121899d", "fusion_lon": 0.0, "bike_id": "5f7105c8e0d1ba77331597ad4121899d", "is_disabled": 0, "is_reserved": 0}, {"rental_uris": {"ios": "https://dc.lft.to/lastmile_qr_scan", "android": "https://dc.lft.to/lastmile_qr_scan"}, "lon": -77.09552116666667, "type": "electric_scooter", "fusion_lat": 0.0, "lat": 38.9165415, "name": "3d5bdde5c290303dbd6c346b41f29fcf", "fusion_lon": 0.0, "bike_id": "3d5bdde5c290303dbd6c346b41f29fcf", "is_disabled": 0, "is_reserved": 0}, {"rental_uris": {"ios": "https://dc.lft.to/lastmile_qr_scan", "android": "https://dc.lft.to/lastmile_qr_scan"}, "lon": -76.97499383333333, "type": "electric_scooter", "fusion_lat": 0.0, "lat": 38.869166, "name": "475dde06c36627c8e9bba422ea54190b", "fusion_lon": 0.0, "bike_id": "475dde06c36627c8e9bba422ea54190b", "is_disabled": 0, "is_reserved": 0}, {"rental_uris": {"ios": "https://dc.lft.to/lastmile_qr_scan", "android": "https://dc.lft.to/lastmile_qr_scan"}, "lon": -77.07251433333333, "type": "electric_scooter", "fusion_lat": 0.0, "lat": 38.93323983333333, "name": "2ab5ce224742ea3216d855eff7be75a0", "fusion_lon": 0.0, "bike_id": "2ab5ce224742ea3216d855eff7be75a0", "is_disabled": 0, "is_reserved": 0}, {"rental_uris": {"ios": "https://dc.lft.to/lastmile_qr_scan", "android": "https://dc.lft.to/lastmile_qr_scan"}, "lon": -77.059195, "type": "electric_scooter", "fusion_lat": 0.0, "lat": 38.90212283333334, "name": "3e5f7a565d8860dabdcd0f1a96c71b3a", "fusion_lon": 0.0, "bike_id": "3e5f7a565d8860dabdcd0f1a96c71b3a", "is_disabled": 0, "is_reserved": 0}, {"rental_uris": {"ios": "https://dc.lft.to/lastmile_qr_scan", "android": "https://dc.lft.to/lastmile_qr_scan"}, "lon": -77.02076416666667, "type": "electric_scooter", "fusion_lat": 0.0, "lat": 38.91545416666666, "name": "9b3a9036c7165c3a1290aaa7f11c5b51", "fusion_lon": 0.0, "bike_id": "9b3a9036c7165c3a1290aaa7f11c5b51", "is_disabled": 0, "is_reserved": 0}, {"rental_uris": {"ios": "https://dc.lft.to/lastmile_qr_scan", "android": "https://dc.lft.to/lastmile_qr_scan"}, "lon": -76.99494666666666, "type": "electric_scooter", "fusion_lat": 0.0, "lat": 38.899521666666665, "name": "bd151fa13756ce0d369a48989af90ba9", "fusion_lon": 0.0, "bike_id": "bd151fa13756ce0d369a48989af90ba9", "is_disabled": 0, "is_reserved": 0}, {"rental_uris": {"ios": "https://dc.lft.to/lastmile_qr_scan", "android": "https://dc.lft.to/lastmile_qr_scan"}, "lon": -77.05217666666667, "type": "electric_scooter", "fusion_lat": 0.0, "lat": 38.92494266666667, "name": "1029d73b5112591cbf5fd266908406e6", "fusion_lon": 0.0, "bike_id": "1029d73b5112591cbf5fd266908406e6", "is_disabled": 0, "is_reserved": 0}, {"rental_uris": {"ios": "https://dc.lft.to/lastmile_qr_scan", "android": "https://dc.lft.to/lastmile_qr_scan"}, "lon": -77.02102483333333, "type": "electric_scooter", "fusion_lat": 0.0, "lat": 38.879208166666665, "name": "2600fbf7013b541b75886f6c1ccce316", "fusion_lon": 0.0, "bike_id": "2600fbf7013b541b75886f6c1ccce316", "is_disabled": 0, "is_reserved": 0}, {"rental_uris": {"ios": "https://dc.lft.to/lastmile_qr_scan", "android": "https://dc.lft.to/lastmile_qr_scan"}, "lon": -76.93176566666666, "type": "electric_scooter", "fusion_lat": 0.0, "lat": 38.8988285, "name": "39591c9ad7a9546b3995b09867621838", "fusion_lon": 0.0, "bike_id": "39591c9ad7a9546b3995b09867621838", "is_disabled": 0, "is_reserved": 0}, {"rental_uris": {"ios": "https://dc.lft.to/lastmile_qr_scan", "android": "https://dc.lft.to/lastmile_qr_scan"}, "lon": -77.0222075, "type": "electric_scooter", "fusion_lat": 0.0, "lat": 38.9387015, "name": "b5fbeceed2f296bb7a7200cba7ae497b", "fusion_lon": 0.0, "bike_id": "b5fbeceed2f296bb7a7200cba7ae497b", "is_disabled": 0, "is_reserved": 0}, {"rental_uris": {"ios": "https://dc.lft.to/lastmile_qr_scan", "android": "https://dc.lft.to/lastmile_qr_scan"}, "lon": -76.98616016666666, "type": "electric_scooter", "fusion_lat": 0.0, "lat": 38.868206666666666, "name": "a5a4ccb938f6cdf876da3e334e0401f0", "fusion_lon": 0.0, "bike_id": "a5a4ccb938f6cdf876da3e334e0401f0", "is_disabled": 0, "is_reserved": 0}, {"rental_uris": {"ios": "https://dc.lft.to/lastmile_qr_scan", "android": "https://dc.lft.to/lastmile_qr_scan"}, "lon": -77.03466466666667, "type": "electric_scooter", "fusion_lat": 0.0, "lat": 38.920660166666664, "name": "47b5948b1fdee35eee38ff7fa5d43897", "fusion_lon": 0.0, "bike_id": "47b5948b1fdee35eee38ff7fa5d43897", "is_disabled": 0, "is_reserved": 0}, {"rental_uris": {"ios": "https://dc.lft.to/lastmile_qr_scan", "android": "https://dc.lft.to/lastmile_qr_scan"}, "lon": -77.0449675, "type": "electric_scooter", "fusion_lat": 0.0, "lat": 38.91189516666667, "name": "23733b6500a7b18cabfb008decf9ce6b", "fusion_lon": 0.0, "bike_id": "23733b6500a7b18cabfb008decf9ce6b", "is_disabled": 0, "is_reserved": 0}, {"rental_uris": {"ios": "https://dc.lft.to/lastmile_qr_scan", "android": "https://dc.lft.to/lastmile_qr_scan"}, "lon": -77.031079, "type": "electric_scooter", "fusion_lat": 0.0, "lat": 38.914142166666664, "name": "ee45507d53f10cea417021359db99f75", "fusion_lon": 0.0, "bike_id": "ee45507d53f10cea417021359db99f75", "is_disabled": 0, "is_reserved": 0}, {"rental_uris": {"ios": "https://dc.lft.to/lastmile_qr_scan", "android": "https://dc.lft.to/lastmile_qr_scan"}, "lon": -77.03182366666667, "type": "electric_scooter", "fusion_lat": 0.0, "lat": 38.895716, "name": "b9df2a57ddf0205eb805eb8544aa5b21", "fusion_lon": 0.0, "bike_id": "b9df2a57ddf0205eb805eb8544aa5b21", "is_disabled": 0, "is_reserved": 0}, {"rental_uris": {"ios": "https://dc.lft.to/lastmile_qr_scan", "android": "https://dc.lft.to/lastmile_qr_scan"}, "lon": -77.04257866666667, "type": "electric_scooter", "fusion_lat": 0.0, "lat": 38.91577633333333, "name": "09002940ee906509739024721c183171", "fusion_lon": 0.0, "bike_id": "09002940ee906509739024721c183171", "is_disabled": 0, "is_reserved": 0}, {"rental_uris": {"ios": "https://dc.lft.to/lastmile_qr_scan", "android": "https://dc.lft.to/lastmile_qr_scan"}, "lon": -77.03714183333334, "type": "electric_scooter", "fusion_lat": 0.0, "lat": 38.905599333333335, "name": "2efab1642963c94c6cffea95c03707f5", "fusion_lon": 0.0, "bike_id": "2efab1642963c94c6cffea95c03707f5", "is_disabled": 0, "is_reserved": 0}, {"rental_uris": {"ios": "https://dc.lft.to/lastmile_qr_scan", "android": "https://dc.lft.to/lastmile_qr_scan"}, "lon": -77.05886466666666, "type": "electric_scooter", "fusion_lat": 0.0, "lat": 38.9363255, "name": "c1ade01f2f723444bf96c64a9a43171e", "fusion_lon": 0.0, "bike_id": "c1ade01f2f723444bf96c64a9a43171e", "is_disabled": 0, "is_reserved": 0}, {"rental_uris": {"ios": "https://dc.lft.to/lastmile_qr_scan", "android": "https://dc.lft.to/lastmile_qr_scan"}, "lon": -77.0344505, "type": "electric_scooter", "fusion_lat": 0.0, "lat": 38.90731866666667, "name": "3e9869ef6d0204f445b3a1a76569792f", "fusion_lon": 0.0, "bike_id": "3e9869ef6d0204f445b3a1a76569792f", "is_disabled": 0, "is_reserved": 0}, {"rental_uris": {"ios": "https://dc.lft.to/lastmile_qr_scan", "android": "https://dc.lft.to/lastmile_qr_scan"}, "lon": -76.939607, "type": "electric_scooter", "fusion_lat": 0.0, "lat": 38.8941875, "name": "02109f2ff65e65aca54ffbbbe9ef6f98", "fusion_lon": 0.0, "bike_id": "02109f2ff65e65aca54ffbbbe9ef6f98", "is_disabled": 0, "is_reserved": 0}, {"rental_uris": {"ios": "https://dc.lft.to/lastmile_qr_scan", "android": "https://dc.lft.to/lastmile_qr_scan"}, "lon": -76.95209316666667, "type": "electric_bike", "fusion_lat": 0.0, "lat": 38.936678, "name": "2d3bec67a08500ef779e41a74f9be6bc", "fusion_lon": 0.0, "bike_id": "2d3bec67a08500ef779e41a74f9be6bc", "is_disabled": 0, "is_reserved": 0}, {"rental_uris": {"ios": "https://dc.lft.to/lastmile_qr_scan", "android": "https://dc.lft.to/lastmile_qr_scan"}, "lon": -77.02890233333333, "type": "electric_scooter", "fusion_lat": 0.0, "lat": 38.90327716666667, "name": "0a8acefe2f5b3adc21f19e43193a513e", "fusion_lon": 0.0, "bike_id": "0a8acefe2f5b3adc21f19e43193a513e", "is_disabled": 0, "is_reserved": 0}, {"rental_uris": {"ios": "https://dc.lft.to/lastmile_qr_scan", "android": "https://dc.lft.to/lastmile_qr_scan"}, "lon": -77.01826016666666, "type": "electric_scooter", "fusion_lat": 0.0, "lat": 38.9006055, "name": "1a668c6ae534eb5b5180ff304f807830", "fusion_lon": 0.0, "bike_id": "1a668c6ae534eb5b5180ff304f807830", "is_disabled": 0, "is_reserved": 0}, {"rental_uris": {"ios": "https://dc.lft.to/lastmile_qr_scan", "android": "https://dc.lft.to/lastmile_qr_scan"}, "lon": -76.92983066666666, "type": "electric_bike", "fusion_lat": 0.0, "lat": 38.887906666666666, "name": "1ccb87aae10314c0b75d5b515bd205e9", "fusion_lon": 0.0, "bike_id": "1ccb87aae10314c0b75d5b515bd205e9", "is_disabled": 0, "is_reserved": 0}, {"rental_uris": {"ios": "https://dc.lft.to/lastmile_qr_scan", "android": "https://dc.lft.to/lastmile_qr_scan"}, "lon": -77.04333, "type": "electric_scooter", "fusion_lat": 0.0, "lat": 38.892156166666666, "name": "f52e1f7c9dccf83d1812f3df663a5412", "fusion_lon": 0.0, "bike_id": "f52e1f7c9dccf83d1812f3df663a5412", "is_disabled": 0, "is_reserved": 0}, {"rental_uris": {"ios": "https://dc.lft.to/lastmile_qr_scan", "android": "https://dc.lft.to/lastmile_qr_scan"}, "lon": -77.00619133333333, "type": "electric_scooter", "fusion_lat": 0.0, "lat": 38.874694, "name": "45741cf876b6d3308846e3475889d5c9", "fusion_lon": 0.0, "bike_id": "45741cf876b6d3308846e3475889d5c9", "is_disabled": 0, "is_reserved": 0}, {"rental_uris": {"ios": "https://dc.lft.to/lastmile_qr_scan", "android": "https://dc.lft.to/lastmile_qr_scan"}, "lon": -77.0345505, "type": "electric_scooter", "fusion_lat": 0.0, "lat": 38.90940633333334, "name": "d0d72246b018e5fcc6206e036cefce49", "fusion_lon": 0.0, "bike_id": "d0d72246b018e5fcc6206e036cefce49", "is_disabled": 0, "is_reserved": 0}, {"rental_uris": {"ios": "https://dc.lft.to/lastmile_qr_scan", "android": "https://dc.lft.to/lastmile_qr_scan"}, "lon": -77.035218, "type": "electric_scooter", "fusion_lat": 0.0, "lat": 38.93588, "name": "01475f47ff84685bc1245d57f10461d9", "fusion_lon": 0.0, "bike_id": "01475f47ff84685bc1245d57f10461d9", "is_disabled": 0, "is_reserved": 0}, {"rental_uris": {"ios": "https://dc.lft.to/lastmile_qr_scan", "android": "https://dc.lft.to/lastmile_qr_scan"}, "lon": -76.93738516666667, "type": "electric_scooter", "fusion_lat": 0.0, "lat": 38.890123, "name": "5ee9bdd11dff2714852a237f2f04c812", "fusion_lon": 0.0, "bike_id": "5ee9bdd11dff2714852a237f2f04c812", "is_disabled": 0, "is_reserved": 0}, {"rental_uris": {"ios": "https://dc.lft.to/lastmile_qr_scan", "android": "https://dc.lft.to/lastmile_qr_scan"}, "lon": -76.97408583333333, "type": "electric_scooter", "fusion_lat": 0.0, "lat": 38.901562166666665, "name": "1a645ab84ed84f5b56a0bbf6c33c03dd", "fusion_lon": 0.0, "bike_id": "1a645ab84ed84f5b56a0bbf6c33c03dd", "is_disabled": 0, "is_reserved": 0}, {"rental_uris": {"ios": "https://dc.lft.to/lastmile_qr_scan", "android": "https://dc.lft.to/lastmile_qr_scan"}, "lon": -76.93717333333333, "type": "electric_scooter", "fusion_lat": 0.0, "lat": 38.89587933333333, "name": "ac9fad7fd00af06489d6c711242f3615", "fusion_lon": 0.0, "bike_id": "ac9fad7fd00af06489d6c711242f3615", "is_disabled": 0, "is_reserved": 0}, {"rental_uris": {"ios": "https://dc.lft.to/lastmile_qr_scan", "android": "https://dc.lft.to/lastmile_qr_scan"}, "lon": -77.007459, "type": "electric_scooter", "fusion_lat": 0.0, "lat": 38.903746166666664, "name": "9378e873124ec5d448b9ec1fba998ae9", "fusion_lon": 0.0, "bike_id": "9378e873124ec5d448b9ec1fba998ae9", "is_disabled": 0, "is_reserved": 0}, {"rental_uris": {"ios": "https://dc.lft.to/lastmile_qr_scan", "android": "https://dc.lft.to/lastmile_qr_scan"}, "lon": -77.04523166666667, "type": "electric_scooter", "fusion_lat": 0.0, "lat": 38.90712216666667, "name": "4f1efaf792070a335d5b03baca3c0841", "fusion_lon": 0.0, "bike_id": "4f1efaf792070a335d5b03baca3c0841", "is_disabled": 0, "is_reserved": 0}, {"rental_uris": {"ios": "https://dc.lft.to/lastmile_qr_scan", "android": "https://dc.lft.to/lastmile_qr_scan"}, "lon": -77.0205785, "type": "electric_scooter", "fusion_lat": 0.0, "lat": 38.8757165, "name": "8e19a13a543e005ce9c4048b451a383f", "fusion_lon": 0.0, "bike_id": "8e19a13a543e005ce9c4048b451a383f", "is_disabled": 0, "is_reserved": 0}, {"rental_uris": {"ios": "https://dc.lft.to/lastmile_qr_scan", "android": "https://dc.lft.to/lastmile_qr_scan"}, "lon": -77.00529366666666, "type": "electric_bike", "fusion_lat": 0.0, "lat": 38.87907583333333, "name": "9f38661881259e5dbbc634630df04ac3", "fusion_lon": 0.0, "bike_id": "9f38661881259e5dbbc634630df04ac3", "is_disabled": 0, "is_reserved": 0}, {"rental_uris": {"ios": "https://dc.lft.to/lastmile_qr_scan", "android": "https://dc.lft.to/lastmile_qr_scan"}, "lon": -77.01341483333333, "type": "electric_bike", "fusion_lat": 0.0, "lat": 38.92728066666667, "name": "88d7c002f7d5c82ec8d9bf629ff88020", "fusion_lon": 0.0, "bike_id": "88d7c002f7d5c82ec8d9bf629ff88020", "is_disabled": 0, "is_reserved": 0}, {"rental_uris": {"ios": "https://dc.lft.to/lastmile_qr_scan", "android": "https://dc.lft.to/lastmile_qr_scan"}, "lon": -77.048692, "type": "electric_scooter", "fusion_lat": 0.0, "lat": 38.90847016666667, "name": "07aad078f36f5fcce460e1a537e2a09a", "fusion_lon": 0.0, "bike_id": "07aad078f36f5fcce460e1a537e2a09a", "is_disabled": 0, "is_reserved": 0}, {"rental_uris": {"ios": "https://dc.lft.to/lastmile_qr_scan", "android": "https://dc.lft.to/lastmile_qr_scan"}, "lon": -77.03225683333334, "type": "electric_scooter", "fusion_lat": 0.0, "lat": 38.92669033333333, "name": "91645b7d68c600453838faf606a9c279", "fusion_lon": 0.0, "bike_id": "91645b7d68c600453838faf606a9c279", "is_disabled": 0, "is_reserved": 0}, {"rental_uris": {"ios": "https://dc.lft.to/lastmile_qr_scan", "android": "https://dc.lft.to/lastmile_qr_scan"}, "lon": -77.03433116666666, "type": "electric_scooter", "fusion_lat": 0.0, "lat": 38.909724833333335, "name": "679f486a0e32f2d29e85d594d0444a11", "fusion_lon": 0.0, "bike_id": "679f486a0e32f2d29e85d594d0444a11", "is_disabled": 0, "is_reserved": 0}, {"rental_uris": {"ios": "https://dc.lft.to/lastmile_qr_scan", "android": "https://dc.lft.to/lastmile_qr_scan"}, "lon": -76.974937, "type": "electric_bike", "fusion_lat": 0.0, "lat": 38.92004716666667, "name": "1e524ae69dfd653c0f601104159045f4", "fusion_lon": 0.0, "bike_id": "1e524ae69dfd653c0f601104159045f4", "is_disabled": 0, "is_reserved": 0}, {"rental_uris": {"ios": "https://dc.lft.to/lastmile_qr_scan", "android": "https://dc.lft.to/lastmile_qr_scan"}, "lon": -77.00887233333333, "type": "electric_scooter", "fusion_lat": 0.0, "lat": 38.914198166666665, "name": "5b06047461261704bd5de42beab8d17f", "fusion_lon": 0.0, "bike_id": "5b06047461261704bd5de42beab8d17f", "is_disabled": 0, "is_reserved": 0}, {"rental_uris": {"ios": "https://dc.lft.to/lastmile_qr_scan", "android": "https://dc.lft.to/lastmile_qr_scan"}, "lon": -77.0609315, "type": "electric_scooter", "fusion_lat": 0.0, "lat": 38.91269916666667, "name": "e757e08096990f5b8b3797762880e6ef", "fusion_lon": 0.0, "bike_id": "e757e08096990f5b8b3797762880e6ef", "is_disabled": 0, "is_reserved": 0}, {"rental_uris": {"ios": "https://dc.lft.to/lastmile_qr_scan", "android": "https://dc.lft.to/lastmile_qr_scan"}, "lon": -77.02339966666666, "type": "electric_scooter", "fusion_lat": 0.0, "lat": 38.9250895, "name": "da6e22dddd0d774245f882b4ea8b60ba", "fusion_lon": 0.0, "bike_id": "da6e22dddd0d774245f882b4ea8b60ba", "is_disabled": 0, "is_reserved": 0}, {"rental_uris": {"ios": "https://dc.lft.to/lastmile_qr_scan", "android": "https://dc.lft.to/lastmile_qr_scan"}, "lon": -77.032279, "type": "electric_scooter", "fusion_lat": 0.0, "lat": 38.91403533333333, "name": "cfe691666a5f037ef7faa532a9c9e95b", "fusion_lon": 0.0, "bike_id": "cfe691666a5f037ef7faa532a9c9e95b", "is_disabled": 0, "is_reserved": 0}, {"rental_uris": {"ios": "https://dc.lft.to/lastmile_qr_scan", "android": "https://dc.lft.to/lastmile_qr_scan"}, "lon": -76.93750916666667, "type": "electric_scooter", "fusion_lat": 0.0, "lat": 38.912821666666666, "name": "a4669c05908d8a9aaf6a356f2dead741", "fusion_lon": 0.0, "bike_id": "a4669c05908d8a9aaf6a356f2dead741", "is_disabled": 0, "is_reserved": 0}, {"rental_uris": {"ios": "https://dc.lft.to/lastmile_qr_scan", "android": "https://dc.lft.to/lastmile_qr_scan"}, "lon": -76.9770275, "type": "electric_scooter", "fusion_lat": 0.0, "lat": 38.90252866666667, "name": "f816bf0b14ea53d1f9ba973c203f671a", "fusion_lon": 0.0, "bike_id": "f816bf0b14ea53d1f9ba973c203f671a", "is_disabled": 0, "is_reserved": 0}, {"rental_uris": {"ios": "https://dc.lft.to/lastmile_qr_scan", "android": "https://dc.lft.to/lastmile_qr_scan"}, "lon": -76.99160016666667, "type": "electric_bike", "fusion_lat": 0.0, "lat": 38.89352916666667, "name": "6fbcd310de0fdaadfb7be475b14725be", "fusion_lon": 0.0, "bike_id": "6fbcd310de0fdaadfb7be475b14725be", "is_disabled": 0, "is_reserved": 0}, {"rental_uris": {"ios": "https://dc.lft.to/lastmile_qr_scan", "android": "https://dc.lft.to/lastmile_qr_scan"}, "lon": -77.04114566666667, "type": "electric_scooter", "fusion_lat": 0.0, "lat": 38.929663, "name": "c58eb9197d7573c5f5920e02a78f9bc9", "fusion_lon": 0.0, "bike_id": "c58eb9197d7573c5f5920e02a78f9bc9", "is_disabled": 0, "is_reserved": 0}, {"rental_uris": {"ios": "https://dc.lft.to/lastmile_qr_scan", "android": "https://dc.lft.to/lastmile_qr_scan"}, "lon": -77.01069033333333, "type": "electric_scooter", "fusion_lat": 0.0, "lat": 38.875724, "name": "3149b2005122ec0481384511be9dabe2", "fusion_lon": 0.0, "bike_id": "3149b2005122ec0481384511be9dabe2", "is_disabled": 0, "is_reserved": 0}, {"rental_uris": {"ios": "https://dc.lft.to/lastmile_qr_scan", "android": "https://dc.lft.to/lastmile_qr_scan"}, "lon": -77.09671466666667, "type": "electric_scooter", "fusion_lat": 0.0, "lat": 38.917573833333336, "name": "e896585bf9f7a4eb7d0a1352c08a43be", "fusion_lon": 0.0, "bike_id": "e896585bf9f7a4eb7d0a1352c08a43be", "is_disabled": 0, "is_reserved": 0}, {"rental_uris": {"ios": "https://dc.lft.to/lastmile_qr_scan", "android": "https://dc.lft.to/lastmile_qr_scan"}, "lon": -77.03873716666666, "type": "electric_scooter", "fusion_lat": 0.0, "lat": 38.92146616666667, "name": "aff3541c7c7d3ef5b7a860ccce96ed9e", "fusion_lon": 0.0, "bike_id": "aff3541c7c7d3ef5b7a860ccce96ed9e", "is_disabled": 0, "is_reserved": 0}, {"rental_uris": {"ios": "https://dc.lft.to/lastmile_qr_scan", "android": "https://dc.lft.to/lastmile_qr_scan"}, "lon": -77.01685766666667, "type": "electric_scooter", "fusion_lat": 0.0, "lat": 38.91143183333333, "name": "7d7c4e36e2418a957776250beba13b60", "fusion_lon": 0.0, "bike_id": "7d7c4e36e2418a957776250beba13b60", "is_disabled": 0, "is_reserved": 0}, {"rental_uris": {"ios": "https://dc.lft.to/lastmile_qr_scan", "android": "https://dc.lft.to/lastmile_qr_scan"}, "lon": -76.98883383333333, "type": "electric_scooter", "fusion_lat": 0.0, "lat": 38.866505833333335, "name": "d0cbe28e0b20c12d0beb4dd6377ebf5a", "fusion_lon": 0.0, "bike_id": "d0cbe28e0b20c12d0beb4dd6377ebf5a", "is_disabled": 0, "is_reserved": 0}, {"rental_uris": {"ios": "https://dc.lft.to/lastmile_qr_scan", "android": "https://dc.lft.to/lastmile_qr_scan"}, "lon": -77.02462883333334, "type": "electric_scooter", "fusion_lat": 0.0, "lat": 38.91106933333333, "name": "736c5d7ad0f2e999ea8a2f1cd301bd3f", "fusion_lon": 0.0, "bike_id": "736c5d7ad0f2e999ea8a2f1cd301bd3f", "is_disabled": 0, "is_reserved": 0}, {"rental_uris": {"ios": "https://dc.lft.to/lastmile_qr_scan", "android": "https://dc.lft.to/lastmile_qr_scan"}, "lon": -77.04685583333334, "type": "electric_scooter", "fusion_lat": 0.0, "lat": 38.896069, "name": "bae7d7d7209861fb8c2d034d9665bec9", "fusion_lon": 0.0, "bike_id": "bae7d7d7209861fb8c2d034d9665bec9", "is_disabled": 0, "is_reserved": 0}, {"rental_uris": {"ios": "https://dc.lft.to/lastmile_qr_scan", "android": "https://dc.lft.to/lastmile_qr_scan"}, "lon": -77.02356, "type": "electric_scooter", "fusion_lat": 0.0, "lat": 38.9250545, "name": "d7cd9235621ce5bad03fe4f4c213e89c", "fusion_lon": 0.0, "bike_id": "d7cd9235621ce5bad03fe4f4c213e89c", "is_disabled": 0, "is_reserved": 0}, {"rental_uris": {"ios": "https://dc.lft.to/lastmile_qr_scan", "android": "https://dc.lft.to/lastmile_qr_scan"}, "lon": -77.03420266666667, "type": "electric_scooter", "fusion_lat": 0.0, "lat": 38.93531516666667, "name": "b7192749a9e1ae2cd1d3d20ec5d45f74", "fusion_lon": 0.0, "bike_id": "b7192749a9e1ae2cd1d3d20ec5d45f74", "is_disabled": 0, "is_reserved": 0}, {"rental_uris": {"ios": "https://dc.lft.to/lastmile_qr_scan", "android": "https://dc.lft.to/lastmile_qr_scan"}, "lon": -77.0132015, "type": "electric_scooter", "fusion_lat": 0.0, "lat": 38.900485833333335, "name": "6d7ce34c9ecdbd0f089c41ba1528bd98", "fusion_lon": 0.0, "bike_id": "6d7ce34c9ecdbd0f089c41ba1528bd98", "is_disabled": 0, "is_reserved": 0}, {"rental_uris": {"ios": "https://dc.lft.to/lastmile_qr_scan", "android": "https://dc.lft.to/lastmile_qr_scan"}, "lon": -77.019487, "type": "electric_scooter", "fusion_lat": 0.0, "lat": 38.950018166666666, "name": "9f55e20a261ad2cd8686de58e17eeb2b", "fusion_lon": 0.0, "bike_id": "9f55e20a261ad2cd8686de58e17eeb2b", "is_disabled": 0, "is_reserved": 0}, {"rental_uris": {"ios": "https://dc.lft.to/lastmile_qr_scan", "android": "https://dc.lft.to/lastmile_qr_scan"}, "lon": -77.03383266666667, "type": "electric_scooter", "fusion_lat": 0.0, "lat": 38.92148383333333, "name": "daa63bfde57db68fd684882348402809", "fusion_lon": 0.0, "bike_id": "daa63bfde57db68fd684882348402809", "is_disabled": 0, "is_reserved": 0}, {"rental_uris": {"ios": "https://dc.lft.to/lastmile_qr_scan", "android": "https://dc.lft.to/lastmile_qr_scan"}, "lon": -77.04809283333333, "type": "electric_scooter", "fusion_lat": 0.0, "lat": 38.9204065, "name": "f648b2486f4b06b2029f3d1950374ec1", "fusion_lon": 0.0, "bike_id": "f648b2486f4b06b2029f3d1950374ec1", "is_disabled": 0, "is_reserved": 0}, {"rental_uris": {"ios": "https://dc.lft.to/lastmile_qr_scan", "android": "https://dc.lft.to/lastmile_qr_scan"}, "lon": -77.04014133333334, "type": "electric_scooter", "fusion_lat": 0.0, "lat": 38.921256, "name": "9349826b27814de6b5a836653641385a", "fusion_lon": 0.0, "bike_id": "9349826b27814de6b5a836653641385a", "is_disabled": 0, "is_reserved": 0}, {"rental_uris": {"ios": "https://dc.lft.to/lastmile_qr_scan", "android": "https://dc.lft.to/lastmile_qr_scan"}, "lon": -77.02428383333333, "type": "electric_scooter", "fusion_lat": 0.0, "lat": 38.93609883333333, "name": "c3b8ba8880cd09396918171097ed414b", "fusion_lon": 0.0, "bike_id": "c3b8ba8880cd09396918171097ed414b", "is_disabled": 0, "is_reserved": 0}, {"rental_uris": {"ios": "https://dc.lft.to/lastmile_qr_scan", "android": "https://dc.lft.to/lastmile_qr_scan"}, "lon": -77.03385433333334, "type": "electric_scooter", "fusion_lat": 0.0, "lat": 38.92153866666666, "name": "97800bf67bf6777d577a50b1c750a8c7", "fusion_lon": 0.0, "bike_id": "97800bf67bf6777d577a50b1c750a8c7", "is_disabled": 0, "is_reserved": 0}, {"rental_uris": {"ios": "https://dc.lft.to/lastmile_qr_scan", "android": "https://dc.lft.to/lastmile_qr_scan"}, "lon": -77.02962616666667, "type": "electric_scooter", "fusion_lat": 0.0, "lat": 38.91679, "name": "31708a072d36cb21004c1b1206c9c259", "fusion_lon": 0.0, "bike_id": "31708a072d36cb21004c1b1206c9c259", "is_disabled": 0, "is_reserved": 0}, {"rental_uris": {"ios": "https://dc.lft.to/lastmile_qr_scan", "android": "https://dc.lft.to/lastmile_qr_scan"}, "lon": -77.0704945, "type": "electric_bike", "fusion_lat": 0.0, "lat": 38.8243915, "name": "58db170da09f014e6fb156eb25c27eb8", "fusion_lon": 0.0, "bike_id": "58db170da09f014e6fb156eb25c27eb8", "is_disabled": 0, "is_reserved": 0}, {"rental_uris": {"ios": "https://dc.lft.to/lastmile_qr_scan", "android": "https://dc.lft.to/lastmile_qr_scan"}, "lon": -77.03474333333334, "type": "electric_scooter", "fusion_lat": 0.0, "lat": 38.91709766666666, "name": "62858f2c0d9d413ee5a3e4421cc17baa", "fusion_lon": 0.0, "bike_id": "62858f2c0d9d413ee5a3e4421cc17baa", "is_disabled": 0, "is_reserved": 0}, {"rental_uris": {"ios": "https://dc.lft.to/lastmile_qr_scan", "android": "https://dc.lft.to/lastmile_qr_scan"}, "lon": -76.98571666666666, "type": "electric_scooter", "fusion_lat": 0.0, "lat": 38.906327166666664, "name": "69392552db38d1793d8a253d864fc68a", "fusion_lon": 0.0, "bike_id": "69392552db38d1793d8a253d864fc68a", "is_disabled": 0, "is_reserved": 0}, {"rental_uris": {"ios": "https://dc.lft.to/lastmile_qr_scan", "android": "https://dc.lft.to/lastmile_qr_scan"}, "lon": -77.030478, "type": "electric_scooter", "fusion_lat": 0.0, "lat": 38.884231666666665, "name": "cb3f264d388c88cd984f2ab86dd71a92", "fusion_lon": 0.0, "bike_id": "cb3f264d388c88cd984f2ab86dd71a92", "is_disabled": 0, "is_reserved": 0}, {"rental_uris": {"ios": "https://dc.lft.to/lastmile_qr_scan", "android": "https://dc.lft.to/lastmile_qr_scan"}, "lon": -77.04129033333334, "type": "electric_scooter", "fusion_lat": 0.0, "lat": 38.9220255, "name": "75f0cd10fdbf86827d913ab26a989502", "fusion_lon": 0.0, "bike_id": "75f0cd10fdbf86827d913ab26a989502", "is_disabled": 0, "is_reserved": 0}, {"rental_uris": {"ios": "https://dc.lft.to/lastmile_qr_scan", "android": "https://dc.lft.to/lastmile_qr_scan"}, "lon": -77.02723133333333, "type": "electric_scooter", "fusion_lat": 0.0, "lat": 38.91562416666667, "name": "cc24ddb367bd9038f9c95dd0a748c271", "fusion_lon": 0.0, "bike_id": "cc24ddb367bd9038f9c95dd0a748c271", "is_disabled": 0, "is_reserved": 0}, {"rental_uris": {"ios": "https://dc.lft.to/lastmile_qr_scan", "android": "https://dc.lft.to/lastmile_qr_scan"}, "lon": -76.9790675, "type": "electric_bike", "fusion_lat": 0.0, "lat": 38.8885495, "name": "5f1a350b9bde9202fb83017a4b8f7bbf", "fusion_lon": 0.0, "bike_id": "5f1a350b9bde9202fb83017a4b8f7bbf", "is_disabled": 0, "is_reserved": 0}, {"rental_uris": {"ios": "https://dc.lft.to/lastmile_qr_scan", "android": "https://dc.lft.to/lastmile_qr_scan"}, "lon": -77.02248466666667, "type": "electric_scooter", "fusion_lat": 0.0, "lat": 38.879131, "name": "9b58249c9298b6d0f0077387dede4e5d", "fusion_lon": 0.0, "bike_id": "9b58249c9298b6d0f0077387dede4e5d", "is_disabled": 0, "is_reserved": 0}, {"rental_uris": {"ios": "https://dc.lft.to/lastmile_qr_scan", "android": "https://dc.lft.to/lastmile_qr_scan"}, "lon": -77.043602, "type": "electric_scooter", "fusion_lat": 0.0, "lat": 38.9102935, "name": "35584a55d1525f24ddd6e9757eb6014a", "fusion_lon": 0.0, "bike_id": "35584a55d1525f24ddd6e9757eb6014a", "is_disabled": 0, "is_reserved": 0}, {"rental_uris": {"ios": "https://dc.lft.to/lastmile_qr_scan", "android": "https://dc.lft.to/lastmile_qr_scan"}, "lon": -77.03907316666667, "type": "electric_scooter", "fusion_lat": 0.0, "lat": 38.92209033333334, "name": "a0d51ecf63ab4f12481f9a0844a817db", "fusion_lon": 0.0, "bike_id": "a0d51ecf63ab4f12481f9a0844a817db", "is_disabled": 0, "is_reserved": 0}, {"rental_uris": {"ios": "https://dc.lft.to/lastmile_qr_scan", "android": "https://dc.lft.to/lastmile_qr_scan"}, "lon": -77.05801533333333, "type": "electric_scooter", "fusion_lat": 0.0, "lat": 38.90289766666667, "name": "af7ebc1126a12c934399723de54e404f", "fusion_lon": 0.0, "bike_id": "af7ebc1126a12c934399723de54e404f", "is_disabled": 0, "is_reserved": 0}, {"rental_uris": {"ios": "https://dc.lft.to/lastmile_qr_scan", "android": "https://dc.lft.to/lastmile_qr_scan"}, "lon": -77.08157666666666, "type": "electric_scooter", "fusion_lat": 0.0, "lat": 38.9470335, "name": "46efd4230f6eee3d67be22bf2dc96bbb", "fusion_lon": 0.0, "bike_id": "46efd4230f6eee3d67be22bf2dc96bbb", "is_disabled": 0, "is_reserved": 0}, {"rental_uris": {"ios": "https://dc.lft.to/lastmile_qr_scan", "android": "https://dc.lft.to/lastmile_qr_scan"}, "lon": -76.9994985, "type": "electric_scooter", "fusion_lat": 0.0, "lat": 38.842930333333335, "name": "feaa47030a21b967157150e77671734d", "fusion_lon": 0.0, "bike_id": "feaa47030a21b967157150e77671734d", "is_disabled": 0, "is_reserved": 0}, {"rental_uris": {"ios": "https://dc.lft.to/lastmile_qr_scan", "android": "https://dc.lft.to/lastmile_qr_scan"}, "lon": -77.034361, "type": "electric_scooter", "fusion_lat": 0.0, "lat": 38.91804533333333, "name": "a79e8b6974d878f627212bae8d834f04", "fusion_lon": 0.0, "bike_id": "a79e8b6974d878f627212bae8d834f04", "is_disabled": 0, "is_reserved": 0}, {"rental_uris": {"ios": "https://dc.lft.to/lastmile_qr_scan", "android": "https://dc.lft.to/lastmile_qr_scan"}, "lon": -77.06103, "type": "electric_scooter", "fusion_lat": 0.0, "lat": 38.937013, "name": "bcb7397bfc8f061eca0fe18d20fabd5a", "fusion_lon": 0.0, "bike_id": "bcb7397bfc8f061eca0fe18d20fabd5a", "is_disabled": 0, "is_reserved": 0}, {"rental_uris": {"ios": "https://dc.lft.to/lastmile_qr_scan", "android": "https://dc.lft.to/lastmile_qr_scan"}, "lon": -77.044849, "type": "electric_scooter", "fusion_lat": 0.0, "lat": 38.900057833333335, "name": "35df4ed9dad768ee727477e1a80bb0d6", "fusion_lon": 0.0, "bike_id": "35df4ed9dad768ee727477e1a80bb0d6", "is_disabled": 0, "is_reserved": 0}, {"rental_uris": {"ios": "https://dc.lft.to/lastmile_qr_scan", "android": "https://dc.lft.to/lastmile_qr_scan"}, "lon": -76.9865525, "type": "electric_scooter", "fusion_lat": 0.0, "lat": 38.858017333333336, "name": "c7bf211f4a13ebe8bcdc3f24c72b13ad", "fusion_lon": 0.0, "bike_id": "c7bf211f4a13ebe8bcdc3f24c72b13ad", "is_disabled": 0, "is_reserved": 0}, {"rental_uris": {"ios": "https://dc.lft.to/lastmile_qr_scan", "android": "https://dc.lft.to/lastmile_qr_scan"}, "lon": -77.0272445, "type": "electric_scooter", "fusion_lat": 0.0, "lat": 38.93427966666667, "name": "1abd55ec20b44cc74a2a61a8f3231b20", "fusion_lon": 0.0, "bike_id": "1abd55ec20b44cc74a2a61a8f3231b20", "is_disabled": 0, "is_reserved": 0}, {"rental_uris": {"ios": "https://dc.lft.to/lastmile_qr_scan", "android": "https://dc.lft.to/lastmile_qr_scan"}, "lon": -76.9605935, "type": "electric_bike", "fusion_lat": 0.0, "lat": 38.88400216666667, "name": "025181f1f856bcfc548d25ecc8fa2e30", "fusion_lon": 0.0, "bike_id": "025181f1f856bcfc548d25ecc8fa2e30", "is_disabled": 0, "is_reserved": 0}, {"rental_uris": {"ios": "https://dc.lft.to/lastmile_qr_scan", "android": "https://dc.lft.to/lastmile_qr_scan"}, "lon": -76.99679183333333, "type": "electric_scooter", "fusion_lat": 0.0, "lat": 38.9100525, "name": "ab48f0dcdfdd98a11295d72447dc8337", "fusion_lon": 0.0, "bike_id": "ab48f0dcdfdd98a11295d72447dc8337", "is_disabled": 0, "is_reserved": 0}, {"rental_uris": {"ios": "https://dc.lft.to/lastmile_qr_scan", "android": "https://dc.lft.to/lastmile_qr_scan"}, "lon": -77.0111575, "type": "electric_scooter", "fusion_lat": 0.0, "lat": 38.9035795, "name": "ecf8f5b8d8801dba785b51992dda60a3", "fusion_lon": 0.0, "bike_id": "ecf8f5b8d8801dba785b51992dda60a3", "is_disabled": 0, "is_reserved": 0}, {"rental_uris": {"ios": "https://dc.lft.to/lastmile_qr_scan", "android": "https://dc.lft.to/lastmile_qr_scan"}, "lon": -77.0791645, "type": "electric_bike", "fusion_lat": 0.0, "lat": 38.802191, "name": "e09c1da5c3dc4c10651d1b4a2dac3d4c", "fusion_lon": 0.0, "bike_id": "e09c1da5c3dc4c10651d1b4a2dac3d4c", "is_disabled": 0, "is_reserved": 0}, {"rental_uris": {"ios": "https://dc.lft.to/lastmile_qr_scan", "android": "https://dc.lft.to/lastmile_qr_scan"}, "lon": -77.03666383333334, "type": "electric_scooter", "fusion_lat": 0.0, "lat": 38.91865583333333, "name": "080b4a683d5ebf9327cc153524f94a67", "fusion_lon": 0.0, "bike_id": "080b4a683d5ebf9327cc153524f94a67", "is_disabled": 0, "is_reserved": 0}, {"rental_uris": {"ios": "https://dc.lft.to/lastmile_qr_scan", "android": "https://dc.lft.to/lastmile_qr_scan"}, "lon": -77.04289683333333, "type": "electric_scooter", "fusion_lat": 0.0, "lat": 38.89526466666667, "name": "bc3d7278a7bdcce0e17ae1ac5fdb6387", "fusion_lon": 0.0, "bike_id": "bc3d7278a7bdcce0e17ae1ac5fdb6387", "is_disabled": 0, "is_reserved": 0}, {"rental_uris": {"ios": "https://dc.lft.to/lastmile_qr_scan", "android": "https://dc.lft.to/lastmile_qr_scan"}, "lon": -77.01373816666667, "type": "electric_scooter", "fusion_lat": 0.0, "lat": 38.886499666666666, "name": "68d39630ef08a9f9590e27430a868e10", "fusion_lon": 0.0, "bike_id": "68d39630ef08a9f9590e27430a868e10", "is_disabled": 0, "is_reserved": 0}, {"rental_uris": {"ios": "https://dc.lft.to/lastmile_qr_scan", "android": "https://dc.lft.to/lastmile_qr_scan"}, "lon": -76.93173016666667, "type": "electric_scooter", "fusion_lat": 0.0, "lat": 38.898811, "name": "5471c8e8782c0a8fb0bb5568dbfa71c8", "fusion_lon": 0.0, "bike_id": "5471c8e8782c0a8fb0bb5568dbfa71c8", "is_disabled": 0, "is_reserved": 0}, {"rental_uris": {"ios": "https://dc.lft.to/lastmile_qr_scan", "android": "https://dc.lft.to/lastmile_qr_scan"}, "lon": -77.07146883333333, "type": "electric_scooter", "fusion_lat": 0.0, "lat": 38.95270416666666, "name": "7eaec7636d020ae0807454f08cf3640e", "fusion_lon": 0.0, "bike_id": "7eaec7636d020ae0807454f08cf3640e", "is_disabled": 0, "is_reserved": 0}, {"rental_uris": {"ios": "https://dc.lft.to/lastmile_qr_scan", "android": "https://dc.lft.to/lastmile_qr_scan"}, "lon": -77.03458983333333, "type": "electric_scooter", "fusion_lat": 0.0, "lat": 38.90940583333333, "name": "339492197cb147932df107e4c9de6c86", "fusion_lon": 0.0, "bike_id": "339492197cb147932df107e4c9de6c86", "is_disabled": 0, "is_reserved": 0}, {"rental_uris": {"ios": "https://dc.lft.to/lastmile_qr_scan", "android": "https://dc.lft.to/lastmile_qr_scan"}, "lon": -76.95190233333334, "type": "electric_bike", "fusion_lat": 0.0, "lat": 38.90678916666667, "name": "fa527b008d6cf58815e3a309e2d304d4", "fusion_lon": 0.0, "bike_id": "fa527b008d6cf58815e3a309e2d304d4", "is_disabled": 0, "is_reserved": 0}, {"rental_uris": {"ios": "https://dc.lft.to/lastmile_qr_scan", "android": "https://dc.lft.to/lastmile_qr_scan"}, "lon": -76.99969933333334, "type": "electric_scooter", "fusion_lat": 0.0, "lat": 38.901348, "name": "5d9d0f23ddd4842fc60adfe76c9fca78", "fusion_lon": 0.0, "bike_id": "5d9d0f23ddd4842fc60adfe76c9fca78", "is_disabled": 0, "is_reserved": 0}, {"rental_uris": {"ios": "https://dc.lft.to/lastmile_qr_scan", "android": "https://dc.lft.to/lastmile_qr_scan"}, "lon": -77.04672966666666, "type": "electric_scooter", "fusion_lat": 0.0, "lat": 38.90497233333333, "name": "8295686488356432b2737cebf28ad327", "fusion_lon": 0.0, "bike_id": "8295686488356432b2737cebf28ad327", "is_disabled": 0, "is_reserved": 0}, {"rental_uris": {"ios": "https://dc.lft.to/lastmile_qr_scan", "android": "https://dc.lft.to/lastmile_qr_scan"}, "lon": -77.02153916666667, "type": "electric_bike", "fusion_lat": 0.0, "lat": 38.9732045, "name": "cf896e1aa51983a6a71f63e8819e301f", "fusion_lon": 0.0, "bike_id": "cf896e1aa51983a6a71f63e8819e301f", "is_disabled": 0, "is_reserved": 0}, {"rental_uris": {"ios": "https://dc.lft.to/lastmile_qr_scan", "android": "https://dc.lft.to/lastmile_qr_scan"}, "lon": -77.0065145, "type": "electric_scooter", "fusion_lat": 0.0, "lat": 38.876407666666665, "name": "f00a2b3d003aed8c9ae4f8ce5208298c", "fusion_lon": 0.0, "bike_id": "f00a2b3d003aed8c9ae4f8ce5208298c", "is_disabled": 0, "is_reserved": 0}, {"rental_uris": {"ios": "https://dc.lft.to/lastmile_qr_scan", "android": "https://dc.lft.to/lastmile_qr_scan"}, "lon": -76.93620683333333, "type": "electric_bike", "fusion_lat": 0.0, "lat": 38.9705715, "name": "bb3a4fab3bd25ec14c24c6047e4b2eb0", "fusion_lon": 0.0, "bike_id": "bb3a4fab3bd25ec14c24c6047e4b2eb0", "is_disabled": 0, "is_reserved": 0}, {"rental_uris": {"ios": "https://dc.lft.to/lastmile_qr_scan", "android": "https://dc.lft.to/lastmile_qr_scan"}, "lon": -77.079052, "type": "electric_bike", "fusion_lat": 0.0, "lat": 38.839320666666666, "name": "d1c83779deecb6cc2b952d749dd615be", "fusion_lon": 0.0, "bike_id": "d1c83779deecb6cc2b952d749dd615be", "is_disabled": 0, "is_reserved": 0}, {"rental_uris": {"ios": "https://dc.lft.to/lastmile_qr_scan", "android": "https://dc.lft.to/lastmile_qr_scan"}, "lon": -77.04017216666666, "type": "electric_scooter", "fusion_lat": 0.0, "lat": 38.918199, "name": "a63a9ae08b0e41fd80fdd7a3dbc1d9c6", "fusion_lon": 0.0, "bike_id": "a63a9ae08b0e41fd80fdd7a3dbc1d9c6", "is_disabled": 0, "is_reserved": 0}, {"rental_uris": {"ios": "https://dc.lft.to/lastmile_qr_scan", "android": "https://dc.lft.to/lastmile_qr_scan"}, "lon": -76.98087433333333, "type": "electric_bike", "fusion_lat": 0.0, "lat": 38.90285033333333, "name": "b82cab06d43bb443e7458d31bcd81302", "fusion_lon": 0.0, "bike_id": "b82cab06d43bb443e7458d31bcd81302", "is_disabled": 0, "is_reserved": 0}, {"rental_uris": {"ios": "https://dc.lft.to/lastmile_qr_scan", "android": "https://dc.lft.to/lastmile_qr_scan"}, "lon": -77.024077, "type": "electric_scooter", "fusion_lat": 0.0, "lat": 38.930806, "name": "ede4c6bbabd3610574704c2806d054e8", "fusion_lon": 0.0, "bike_id": "ede4c6bbabd3610574704c2806d054e8", "is_disabled": 0, "is_reserved": 0}, {"rental_uris": {"ios": "https://dc.lft.to/lastmile_qr_scan", "android": "https://dc.lft.to/lastmile_qr_scan"}, "lon": -76.97612516666666, "type": "electric_bike", "fusion_lat": 0.0, "lat": 38.9130895, "name": "8fe257048bedbdf76fb49c69a22f8c46", "fusion_lon": 0.0, "bike_id": "8fe257048bedbdf76fb49c69a22f8c46", "is_disabled": 0, "is_reserved": 0}, {"rental_uris": {"ios": "https://dc.lft.to/lastmile_qr_scan", "android": "https://dc.lft.to/lastmile_qr_scan"}, "lon": -77.027952, "type": "electric_scooter", "fusion_lat": 0.0, "lat": 38.9307445, "name": "f2e95db7bc3014ee542572548573d541", "fusion_lon": 0.0, "bike_id": "f2e95db7bc3014ee542572548573d541", "is_disabled": 0, "is_reserved": 0}, {"rental_uris": {"ios": "https://dc.lft.to/lastmile_qr_scan", "android": "https://dc.lft.to/lastmile_qr_scan"}, "lon": -77.04150616666666, "type": "electric_scooter", "fusion_lat": 0.0, "lat": 38.907588833333335, "name": "8052c274f53cf106c4e16a4aa028d29a", "fusion_lon": 0.0, "bike_id": "8052c274f53cf106c4e16a4aa028d29a", "is_disabled": 0, "is_reserved": 0}, {"rental_uris": {"ios": "https://dc.lft.to/lastmile_qr_scan", "android": "https://dc.lft.to/lastmile_qr_scan"}, "lon": -77.03217783333334, "type": "electric_scooter", "fusion_lat": 0.0, "lat": 38.91816133333333, "name": "a90f4941f65dd325422753166950c2f9", "fusion_lon": 0.0, "bike_id": "a90f4941f65dd325422753166950c2f9", "is_disabled": 0, "is_reserved": 0}, {"rental_uris": {"ios": "https://dc.lft.to/lastmile_qr_scan", "android": "https://dc.lft.to/lastmile_qr_scan"}, "lon": -77.060285, "type": "electric_scooter", "fusion_lat": 0.0, "lat": 38.9048205, "name": "286d6fbc5b8bb2e8dd0bca975430efbc", "fusion_lon": 0.0, "bike_id": "286d6fbc5b8bb2e8dd0bca975430efbc", "is_disabled": 0, "is_reserved": 0}, {"rental_uris": {"ios": "https://dc.lft.to/lastmile_qr_scan", "android": "https://dc.lft.to/lastmile_qr_scan"}, "lon": -77.017171, "type": "electric_scooter", "fusion_lat": 0.0, "lat": 38.909641666666666, "name": "88a0e082df0ebbd7f9766ab56074fb14", "fusion_lon": 0.0, "bike_id": "88a0e082df0ebbd7f9766ab56074fb14", "is_disabled": 0, "is_reserved": 0}, {"rental_uris": {"ios": "https://dc.lft.to/lastmile_qr_scan", "android": "https://dc.lft.to/lastmile_qr_scan"}, "lon": -77.02973483333334, "type": "electric_scooter", "fusion_lat": 0.0, "lat": 38.92313566666667, "name": "41934a96d2bf03a229bf71ac614b1bf5", "fusion_lon": 0.0, "bike_id": "41934a96d2bf03a229bf71ac614b1bf5", "is_disabled": 0, "is_reserved": 0}, {"rental_uris": {"ios": "https://dc.lft.to/lastmile_qr_scan", "android": "https://dc.lft.to/lastmile_qr_scan"}, "lon": -77.03259233333333, "type": "electric_scooter", "fusion_lat": 0.0, "lat": 38.938718333333334, "name": "52b786a10cd0a0f9ee21b9865edd72bf", "fusion_lon": 0.0, "bike_id": "52b786a10cd0a0f9ee21b9865edd72bf", "is_disabled": 0, "is_reserved": 0}, {"rental_uris": {"ios": "https://dc.lft.to/lastmile_qr_scan", "android": "https://dc.lft.to/lastmile_qr_scan"}, "lon": -77.0326185, "type": "electric_scooter", "fusion_lat": 0.0, "lat": 38.935241833333336, "name": "e85c1e8b2eed98b97b43e5968ac51978", "fusion_lon": 0.0, "bike_id": "e85c1e8b2eed98b97b43e5968ac51978", "is_disabled": 0, "is_reserved": 0}, {"rental_uris": {"ios": "https://dc.lft.to/lastmile_qr_scan", "android": "https://dc.lft.to/lastmile_qr_scan"}, "lon": -76.99035316666667, "type": "electric_scooter", "fusion_lat": 0.0, "lat": 38.858690333333335, "name": "fd700af569b6b4a9b57f9ef095879b8d", "fusion_lon": 0.0, "bike_id": "fd700af569b6b4a9b57f9ef095879b8d", "is_disabled": 0, "is_reserved": 0}, {"rental_uris": {"ios": "https://dc.lft.to/lastmile_qr_scan", "android": "https://dc.lft.to/lastmile_qr_scan"}, "lon": -77.05309266666667, "type": "electric_scooter", "fusion_lat": 0.0, "lat": 38.90653266666666, "name": "a0a61b915a9b49d7947c9652e9969946", "fusion_lon": 0.0, "bike_id": "a0a61b915a9b49d7947c9652e9969946", "is_disabled": 0, "is_reserved": 0}, {"rental_uris": {"ios": "https://dc.lft.to/lastmile_qr_scan", "android": "https://dc.lft.to/lastmile_qr_scan"}, "lon": -76.94630316666667, "type": "electric_bike", "fusion_lat": 0.0, "lat": 38.94624866666667, "name": "ae0a5d1f7b59138b414a99970c4e9a01", "fusion_lon": 0.0, "bike_id": "ae0a5d1f7b59138b414a99970c4e9a01", "is_disabled": 0, "is_reserved": 0}, {"rental_uris": {"ios": "https://dc.lft.to/lastmile_qr_scan", "android": "https://dc.lft.to/lastmile_qr_scan"}, "lon": -77.03665066666667, "type": "electric_scooter", "fusion_lat": 0.0, "lat": 38.911712333333334, "name": "14dfb735e1fa657cb1093e8556a6bf65", "fusion_lon": 0.0, "bike_id": "14dfb735e1fa657cb1093e8556a6bf65", "is_disabled": 0, "is_reserved": 0}, {"rental_uris": {"ios": "https://dc.lft.to/lastmile_qr_scan", "android": "https://dc.lft.to/lastmile_qr_scan"}, "lon": -77.0397345, "type": "electric_scooter", "fusion_lat": 0.0, "lat": 38.900340666666665, "name": "1dc4bc3c19135b973cbfdee3c126d922", "fusion_lon": 0.0, "bike_id": "1dc4bc3c19135b973cbfdee3c126d922", "is_disabled": 0, "is_reserved": 0}, {"rental_uris": {"ios": "https://dc.lft.to/lastmile_qr_scan", "android": "https://dc.lft.to/lastmile_qr_scan"}, "lon": -77.03942083333334, "type": "electric_scooter", "fusion_lat": 0.0, "lat": 38.8990665, "name": "9e19c89b58199708615ff9d5877dd8ae", "fusion_lon": 0.0, "bike_id": "9e19c89b58199708615ff9d5877dd8ae", "is_disabled": 0, "is_reserved": 0}, {"rental_uris": {"ios": "https://dc.lft.to/lastmile_qr_scan", "android": "https://dc.lft.to/lastmile_qr_scan"}, "lon": -76.97227066666666, "type": "electric_scooter", "fusion_lat": 0.0, "lat": 38.854875666666665, "name": "d03f51f3a31b4af03dea7997f439984f", "fusion_lon": 0.0, "bike_id": "d03f51f3a31b4af03dea7997f439984f", "is_disabled": 0, "is_reserved": 0}, {"rental_uris": {"ios": "https://dc.lft.to/lastmile_qr_scan", "android": "https://dc.lft.to/lastmile_qr_scan"}, "lon": -77.01767033333333, "type": "electric_scooter", "fusion_lat": 0.0, "lat": 38.887259, "name": "f400c6d529e4c147fa5e891b5f8660f5", "fusion_lon": 0.0, "bike_id": "f400c6d529e4c147fa5e891b5f8660f5", "is_disabled": 0, "is_reserved": 0}, {"rental_uris": {"ios": "https://dc.lft.to/lastmile_qr_scan", "android": "https://dc.lft.to/lastmile_qr_scan"}, "lon": -77.02954966666667, "type": "electric_bike", "fusion_lat": 0.0, "lat": 38.90673983333333, "name": "8f38466565e1073a3c937f33df843c90", "fusion_lon": 0.0, "bike_id": "8f38466565e1073a3c937f33df843c90", "is_disabled": 0, "is_reserved": 0}, {"rental_uris": {"ios": "https://dc.lft.to/lastmile_qr_scan", "android": "https://dc.lft.to/lastmile_qr_scan"}, "lon": -77.02923216666667, "type": "electric_scooter", "fusion_lat": 0.0, "lat": 38.89547183333333, "name": "46ee0cfccdd1eebceff496535c7dce49", "fusion_lon": 0.0, "bike_id": "46ee0cfccdd1eebceff496535c7dce49", "is_disabled": 0, "is_reserved": 0}, {"rental_uris": {"ios": "https://dc.lft.to/lastmile_qr_scan", "android": "https://dc.lft.to/lastmile_qr_scan"}, "lon": -77.01332266666667, "type": "electric_scooter", "fusion_lat": 0.0, "lat": 38.88047666666667, "name": "04e1a4a923adfa5bd64461c7f781791d", "fusion_lon": 0.0, "bike_id": "04e1a4a923adfa5bd64461c7f781791d", "is_disabled": 0, "is_reserved": 0}, {"rental_uris": {"ios": "https://dc.lft.to/lastmile_qr_scan", "android": "https://dc.lft.to/lastmile_qr_scan"}, "lon": -77.03201616666666, "type": "electric_scooter", "fusion_lat": 0.0, "lat": 38.91174433333333, "name": "dadca02097b63a9b6a05f73e4fa0e56a", "fusion_lon": 0.0, "bike_id": "dadca02097b63a9b6a05f73e4fa0e56a", "is_disabled": 0, "is_reserved": 0}, {"rental_uris": {"ios": "https://dc.lft.to/lastmile_qr_scan", "android": "https://dc.lft.to/lastmile_qr_scan"}, "lon": -76.998918, "type": "electric_scooter", "fusion_lat": 0.0, "lat": 38.907389, "name": "097ae6d433081e1aba5ec5bfe35140f3", "fusion_lon": 0.0, "bike_id": "097ae6d433081e1aba5ec5bfe35140f3", "is_disabled": 0, "is_reserved": 0}, {"rental_uris": {"ios": "https://dc.lft.to/lastmile_qr_scan", "android": "https://dc.lft.to/lastmile_qr_scan"}, "lon": -77.04343083333333, "type": "electric_scooter", "fusion_lat": 0.0, "lat": 38.907991, "name": "25f1bf5c6080fbdd8cf169bf19a9d60d", "fusion_lon": 0.0, "bike_id": "25f1bf5c6080fbdd8cf169bf19a9d60d", "is_disabled": 0, "is_reserved": 0}, {"rental_uris": {"ios": "https://dc.lft.to/lastmile_qr_scan", "android": "https://dc.lft.to/lastmile_qr_scan"}, "lon": -77.04510766666667, "type": "electric_scooter", "fusion_lat": 0.0, "lat": 38.911843833333336, "name": "c698b476ced55d55785039b2ec26f7e0", "fusion_lon": 0.0, "bike_id": "c698b476ced55d55785039b2ec26f7e0", "is_disabled": 0, "is_reserved": 0}, {"rental_uris": {"ios": "https://dc.lft.to/lastmile_qr_scan", "android": "https://dc.lft.to/lastmile_qr_scan"}, "lon": -76.94622416666667, "type": "electric_bike", "fusion_lat": 0.0, "lat": 38.832358166666666, "name": "e3fa43d02679ef681afc8ed29c4b9fc5", "fusion_lon": 0.0, "bike_id": "e3fa43d02679ef681afc8ed29c4b9fc5", "is_disabled": 0, "is_reserved": 0}, {"rental_uris": {"ios": "https://dc.lft.to/lastmile_qr_scan", "android": "https://dc.lft.to/lastmile_qr_scan"}, "lon": -77.03822483333333, "type": "electric_scooter", "fusion_lat": 0.0, "lat": 38.90959083333333, "name": "5bf45ff8b03108c080a6b49bbe319b24", "fusion_lon": 0.0, "bike_id": "5bf45ff8b03108c080a6b49bbe319b24", "is_disabled": 0, "is_reserved": 0}, {"rental_uris": {"ios": "https://dc.lft.to/lastmile_qr_scan", "android": "https://dc.lft.to/lastmile_qr_scan"}, "lon": -77.04373283333334, "type": "electric_scooter", "fusion_lat": 0.0, "lat": 38.93337, "name": "87e0addbbc0dddedc24aa931450da018", "fusion_lon": 0.0, "bike_id": "87e0addbbc0dddedc24aa931450da018", "is_disabled": 0, "is_reserved": 0}, {"rental_uris": {"ios": "https://dc.lft.to/lastmile_qr_scan", "android": "https://dc.lft.to/lastmile_qr_scan"}, "lon": -77.02960716666666, "type": "electric_scooter", "fusion_lat": 0.0, "lat": 38.908345, "name": "ce7c5fabf7c83735fe573f24fadd8108", "fusion_lon": 0.0, "bike_id": "ce7c5fabf7c83735fe573f24fadd8108", "is_disabled": 0, "is_reserved": 0}, {"rental_uris": {"ios": "https://dc.lft.to/lastmile_qr_scan", "android": "https://dc.lft.to/lastmile_qr_scan"}, "lon": -77.02171016666667, "type": "electric_scooter", "fusion_lat": 0.0, "lat": 38.89393183333333, "name": "3704994641e1b9d96176d10e3416f129", "fusion_lon": 0.0, "bike_id": "3704994641e1b9d96176d10e3416f129", "is_disabled": 0, "is_reserved": 0}, {"rental_uris": {"ios": "https://dc.lft.to/lastmile_qr_scan", "android": "https://dc.lft.to/lastmile_qr_scan"}, "lon": -76.939306, "type": "electric_scooter", "fusion_lat": 0.0, "lat": 38.8929785, "name": "112dee9fbfda8065734de62cddcea9fc", "fusion_lon": 0.0, "bike_id": "112dee9fbfda8065734de62cddcea9fc", "is_disabled": 0, "is_reserved": 0}, {"rental_uris": {"ios": "https://dc.lft.to/lastmile_qr_scan", "android": "https://dc.lft.to/lastmile_qr_scan"}, "lon": -77.019981, "type": "electric_scooter", "fusion_lat": 0.0, "lat": 38.9006795, "name": "80d0f3cb342bebc8cab24efc88824137", "fusion_lon": 0.0, "bike_id": "80d0f3cb342bebc8cab24efc88824137", "is_disabled": 0, "is_reserved": 0}, {"rental_uris": {"ios": "https://dc.lft.to/lastmile_qr_scan", "android": "https://dc.lft.to/lastmile_qr_scan"}, "lon": -77.032649, "type": "electric_scooter", "fusion_lat": 0.0, "lat": 38.929615166666665, "name": "73440a5e915b88e27c873ca633864bf5", "fusion_lon": 0.0, "bike_id": "73440a5e915b88e27c873ca633864bf5", "is_disabled": 0, "is_reserved": 0}, {"rental_uris": {"ios": "https://dc.lft.to/lastmile_qr_scan", "android": "https://dc.lft.to/lastmile_qr_scan"}, "lon": -77.0321035, "type": "electric_scooter", "fusion_lat": 0.0, "lat": 38.918099833333336, "name": "aaefe1d4236b4cc59f6b2d41b24f0fd4", "fusion_lon": 0.0, "bike_id": "aaefe1d4236b4cc59f6b2d41b24f0fd4", "is_disabled": 0, "is_reserved": 0}, {"rental_uris": {"ios": "https://dc.lft.to/lastmile_qr_scan", "android": "https://dc.lft.to/lastmile_qr_scan"}, "lon": -77.03842166666666, "type": "electric_scooter", "fusion_lat": 0.0, "lat": 38.9310755, "name": "1da61bcea0929f3492a3a4b188ab4e65", "fusion_lon": 0.0, "bike_id": "1da61bcea0929f3492a3a4b188ab4e65", "is_disabled": 0, "is_reserved": 0}, {"rental_uris": {"ios": "https://dc.lft.to/lastmile_qr_scan", "android": "https://dc.lft.to/lastmile_qr_scan"}, "lon": -77.04869433333333, "type": "electric_scooter", "fusion_lat": 0.0, "lat": 38.89218, "name": "40ce80ab5cd98e6440a9a3ca0892ffd7", "fusion_lon": 0.0, "bike_id": "40ce80ab5cd98e6440a9a3ca0892ffd7", "is_disabled": 0, "is_reserved": 0}, {"rental_uris": {"ios": "https://dc.lft.to/lastmile_qr_scan", "android": "https://dc.lft.to/lastmile_qr_scan"}, "lon": -76.93366716666667, "type": "electric_scooter", "fusion_lat": 0.0, "lat": 38.899150666666664, "name": "6b25071cfe0030a4661e510f00ddcd46", "fusion_lon": 0.0, "bike_id": "6b25071cfe0030a4661e510f00ddcd46", "is_disabled": 0, "is_reserved": 0}, {"rental_uris": {"ios": "https://dc.lft.to/lastmile_qr_scan", "android": "https://dc.lft.to/lastmile_qr_scan"}, "lon": -77.01127366666667, "type": "electric_scooter", "fusion_lat": 0.0, "lat": 38.911724666666665, "name": "53b64e00f567292bc1b888fb8cdb1df6", "fusion_lon": 0.0, "bike_id": "53b64e00f567292bc1b888fb8cdb1df6", "is_disabled": 0, "is_reserved": 0}, {"rental_uris": {"ios": "https://dc.lft.to/lastmile_qr_scan", "android": "https://dc.lft.to/lastmile_qr_scan"}, "lon": -76.9560555, "type": "electric_scooter", "fusion_lat": 0.0, "lat": 38.88759066666667, "name": "fc204128dba85c885c02f674572fb9e7", "fusion_lon": 0.0, "bike_id": "fc204128dba85c885c02f674572fb9e7", "is_disabled": 0, "is_reserved": 0}, {"rental_uris": {"ios": "https://dc.lft.to/lastmile_qr_scan", "android": "https://dc.lft.to/lastmile_qr_scan"}, "lon": -77.03873483333334, "type": "electric_scooter", "fusion_lat": 0.0, "lat": 38.934313333333336, "name": "d1ce2b81f33f654b4cca978aad1cda1b", "fusion_lon": 0.0, "bike_id": "d1ce2b81f33f654b4cca978aad1cda1b", "is_disabled": 0, "is_reserved": 0}, {"rental_uris": {"ios": "https://dc.lft.to/lastmile_qr_scan", "android": "https://dc.lft.to/lastmile_qr_scan"}, "lon": -77.039003, "type": "electric_scooter", "fusion_lat": 0.0, "lat": 38.93260433333333, "name": "c1114eac6caf01ca7c14859fb43f993b", "fusion_lon": 0.0, "bike_id": "c1114eac6caf01ca7c14859fb43f993b", "is_disabled": 0, "is_reserved": 0}, {"rental_uris": {"ios": "https://dc.lft.to/lastmile_qr_scan", "android": "https://dc.lft.to/lastmile_qr_scan"}, "lon": -77.02128816666666, "type": "electric_scooter", "fusion_lat": 0.0, "lat": 38.91606083333333, "name": "4f88625a4fdbc507d03f1a7d33a76bf1", "fusion_lon": 0.0, "bike_id": "4f88625a4fdbc507d03f1a7d33a76bf1", "is_disabled": 0, "is_reserved": 0}, {"rental_uris": {"ios": "https://dc.lft.to/lastmile_qr_scan", "android": "https://dc.lft.to/lastmile_qr_scan"}, "lon": -77.01899516666667, "type": "electric_scooter", "fusion_lat": 0.0, "lat": 38.91189283333333, "name": "20d94eb3ca78212c7aae0fad6f3db2ed", "fusion_lon": 0.0, "bike_id": "20d94eb3ca78212c7aae0fad6f3db2ed", "is_disabled": 0, "is_reserved": 0}, {"rental_uris": {"ios": "https://dc.lft.to/lastmile_qr_scan", "android": "https://dc.lft.to/lastmile_qr_scan"}, "lon": -77.02947216666666, "type": "electric_scooter", "fusion_lat": 0.0, "lat": 38.91683533333333, "name": "51dbfe24aa6bc0edf060848225bf9332", "fusion_lon": 0.0, "bike_id": "51dbfe24aa6bc0edf060848225bf9332", "is_disabled": 0, "is_reserved": 0}, {"rental_uris": {"ios": "https://dc.lft.to/lastmile_qr_scan", "android": "https://dc.lft.to/lastmile_qr_scan"}, "lon": -77.00492933333334, "type": "electric_scooter", "fusion_lat": 0.0, "lat": 38.8745675, "name": "ff087e31fe7ecbaf5f8a3ea8097bb262", "fusion_lon": 0.0, "bike_id": "ff087e31fe7ecbaf5f8a3ea8097bb262", "is_disabled": 0, "is_reserved": 0}, {"rental_uris": {"ios": "https://dc.lft.to/lastmile_qr_scan", "android": "https://dc.lft.to/lastmile_qr_scan"}, "lon": -77.0465645, "type": "electric_scooter", "fusion_lat": 0.0, "lat": 38.89356933333333, "name": "7cd49027f50f8d945ce60820807a9361", "fusion_lon": 0.0, "bike_id": "7cd49027f50f8d945ce60820807a9361", "is_disabled": 0, "is_reserved": 0}, {"rental_uris": {"ios": "https://dc.lft.to/lastmile_qr_scan", "android": "https://dc.lft.to/lastmile_qr_scan"}, "lon": -77.02951016666667, "type": "electric_scooter", "fusion_lat": 0.0, "lat": 38.9126605, "name": "5c81aec864b230dc5a3151e7e7b25dee", "fusion_lon": 0.0, "bike_id": "5c81aec864b230dc5a3151e7e7b25dee", "is_disabled": 0, "is_reserved": 0}, {"rental_uris": {"ios": "https://dc.lft.to/lastmile_qr_scan", "android": "https://dc.lft.to/lastmile_qr_scan"}, "lon": -77.01293466666667, "type": "electric_bike", "fusion_lat": 0.0, "lat": 38.88119783333333, "name": "bedcb58952667af9c130a97ee0a38d37", "fusion_lon": 0.0, "bike_id": "bedcb58952667af9c130a97ee0a38d37", "is_disabled": 0, "is_reserved": 0}, {"rental_uris": {"ios": "https://dc.lft.to/lastmile_qr_scan", "android": "https://dc.lft.to/lastmile_qr_scan"}, "lon": -77.04579483333333, "type": "electric_scooter", "fusion_lat": 0.0, "lat": 38.9106035, "name": "88bbc4c14ed421d18685c52f0bf4b5ef", "fusion_lon": 0.0, "bike_id": "88bbc4c14ed421d18685c52f0bf4b5ef", "is_disabled": 0, "is_reserved": 0}, {"rental_uris": {"ios": "https://dc.lft.to/lastmile_qr_scan", "android": "https://dc.lft.to/lastmile_qr_scan"}, "lon": -77.02300816666667, "type": "electric_scooter", "fusion_lat": 0.0, "lat": 38.8788215, "name": "326f1a648cd4000ed47f08ecd464cbd1", "fusion_lon": 0.0, "bike_id": "326f1a648cd4000ed47f08ecd464cbd1", "is_disabled": 0, "is_reserved": 0}, {"rental_uris": {"ios": "https://dc.lft.to/lastmile_qr_scan", "android": "https://dc.lft.to/lastmile_qr_scan"}, "lon": -77.0206335, "type": "electric_scooter", "fusion_lat": 0.0, "lat": 38.908473, "name": "4d958b19a3730bdfbbd0192f31109d7a", "fusion_lon": 0.0, "bike_id": "4d958b19a3730bdfbbd0192f31109d7a", "is_disabled": 0, "is_reserved": 0}, {"rental_uris": {"ios": "https://dc.lft.to/lastmile_qr_scan", "android": "https://dc.lft.to/lastmile_qr_scan"}, "lon": -77.04316016666667, "type": "electric_scooter", "fusion_lat": 0.0, "lat": 38.9188035, "name": "92799e56de495fa81b83f67993076c28", "fusion_lon": 0.0, "bike_id": "92799e56de495fa81b83f67993076c28", "is_disabled": 0, "is_reserved": 0}, {"rental_uris": {"ios": "https://dc.lft.to/lastmile_qr_scan", "android": "https://dc.lft.to/lastmile_qr_scan"}, "lon": -77.0057935, "type": "electric_scooter", "fusion_lat": 0.0, "lat": 38.84496883333333, "name": "10871027a40605883f7f7f4c1e307ec3", "fusion_lon": 0.0, "bike_id": "10871027a40605883f7f7f4c1e307ec3", "is_disabled": 0, "is_reserved": 0}, {"rental_uris": {"ios": "https://dc.lft.to/lastmile_qr_scan", "android": "https://dc.lft.to/lastmile_qr_scan"}, "lon": -77.02192866666667, "type": "electric_scooter", "fusion_lat": 0.0, "lat": 38.897882333333335, "name": "c45539f970e0f3d32767dbbc363e5162", "fusion_lon": 0.0, "bike_id": "c45539f970e0f3d32767dbbc363e5162", "is_disabled": 0, "is_reserved": 0}, {"rental_uris": {"ios": "https://dc.lft.to/lastmile_qr_scan", "android": "https://dc.lft.to/lastmile_qr_scan"}, "lon": -77.03853616666666, "type": "electric_scooter", "fusion_lat": 0.0, "lat": 38.920311166666664, "name": "53cc285fbb2c8832713b4583169aa175", "fusion_lon": 0.0, "bike_id": "53cc285fbb2c8832713b4583169aa175", "is_disabled": 0, "is_reserved": 0}, {"rental_uris": {"ios": "https://dc.lft.to/lastmile_qr_scan", "android": "https://dc.lft.to/lastmile_qr_scan"}, "lon": -76.97731, "type": "electric_scooter", "fusion_lat": 0.0, "lat": 38.8723745, "name": "7d3ff3d5d2004450cb3b7bebfab52e16", "fusion_lon": 0.0, "bike_id": "7d3ff3d5d2004450cb3b7bebfab52e16", "is_disabled": 0, "is_reserved": 0}, {"rental_uris": {"ios": "https://dc.lft.to/lastmile_qr_scan", "android": "https://dc.lft.to/lastmile_qr_scan"}, "lon": -77.04690133333334, "type": "electric_scooter", "fusion_lat": 0.0, "lat": 38.89599, "name": "792f93cb36cd4031cb7ca8a5b10fe315", "fusion_lon": 0.0, "bike_id": "792f93cb36cd4031cb7ca8a5b10fe315", "is_disabled": 0, "is_reserved": 0}, {"rental_uris": {"ios": "https://dc.lft.to/lastmile_qr_scan", "android": "https://dc.lft.to/lastmile_qr_scan"}, "lon": -77.042847, "type": "electric_bike", "fusion_lat": 0.0, "lat": 38.911028333333334, "name": "88499d0abf5c8ddced596363ca019c0d", "fusion_lon": 0.0, "bike_id": "88499d0abf5c8ddced596363ca019c0d", "is_disabled": 0, "is_reserved": 0}, {"rental_uris": {"ios": "https://dc.lft.to/lastmile_qr_scan", "android": "https://dc.lft.to/lastmile_qr_scan"}, "lon": -77.05418033333333, "type": "electric_scooter", "fusion_lat": 0.0, "lat": 38.92834783333333, "name": "fcb58f2565a21a2022996d3fd6d2d702", "fusion_lon": 0.0, "bike_id": "fcb58f2565a21a2022996d3fd6d2d702", "is_disabled": 0, "is_reserved": 0}, {"rental_uris": {"ios": "https://dc.lft.to/lastmile_qr_scan", "android": "https://dc.lft.to/lastmile_qr_scan"}, "lon": -77.04091133333333, "type": "electric_scooter", "fusion_lat": 0.0, "lat": 38.92395166666667, "name": "fadc5805408f9f2c00830562efaf6823", "fusion_lon": 0.0, "bike_id": "fadc5805408f9f2c00830562efaf6823", "is_disabled": 0, "is_reserved": 0}, {"rental_uris": {"ios": "https://dc.lft.to/lastmile_qr_scan", "android": "https://dc.lft.to/lastmile_qr_scan"}, "lon": -77.02649516666666, "type": "electric_scooter", "fusion_lat": 0.0, "lat": 38.98495033333333, "name": "8b3b46cfb64d1b41546624dcb1b66f78", "fusion_lon": 0.0, "bike_id": "8b3b46cfb64d1b41546624dcb1b66f78", "is_disabled": 0, "is_reserved": 0}, {"rental_uris": {"ios": "https://dc.lft.to/lastmile_qr_scan", "android": "https://dc.lft.to/lastmile_qr_scan"}, "lon": -77.05058033333333, "type": "electric_scooter", "fusion_lat": 0.0, "lat": 38.923575666666665, "name": "cee219d34d601a79258b8bf47721804f", "fusion_lon": 0.0, "bike_id": "cee219d34d601a79258b8bf47721804f", "is_disabled": 0, "is_reserved": 0}, {"rental_uris": {"ios": "https://dc.lft.to/lastmile_qr_scan", "android": "https://dc.lft.to/lastmile_qr_scan"}, "lon": -77.032875, "type": "electric_scooter", "fusion_lat": 0.0, "lat": 38.93681733333333, "name": "d767524db9ace5595b094b4d3b65cb83", "fusion_lon": 0.0, "bike_id": "d767524db9ace5595b094b4d3b65cb83", "is_disabled": 0, "is_reserved": 0}, {"rental_uris": {"ios": "https://dc.lft.to/lastmile_qr_scan", "android": "https://dc.lft.to/lastmile_qr_scan"}, "lon": -77.03670983333333, "type": "electric_scooter", "fusion_lat": 0.0, "lat": 38.929912333333334, "name": "d3449b16239b4d38e84dbedb11544d99", "fusion_lon": 0.0, "bike_id": "d3449b16239b4d38e84dbedb11544d99", "is_disabled": 0, "is_reserved": 0}, {"rental_uris": {"ios": "https://dc.lft.to/lastmile_qr_scan", "android": "https://dc.lft.to/lastmile_qr_scan"}, "lon": -77.022475, "type": "electric_scooter", "fusion_lat": 0.0, "lat": 38.91271666666667, "name": "599c442bd39c163cb0c33fc5513da4b3", "fusion_lon": 0.0, "bike_id": "599c442bd39c163cb0c33fc5513da4b3", "is_disabled": 0, "is_reserved": 0}, {"rental_uris": {"ios": "https://dc.lft.to/lastmile_qr_scan", "android": "https://dc.lft.to/lastmile_qr_scan"}, "lon": -77.04605216666667, "type": "electric_scooter", "fusion_lat": 0.0, "lat": 38.90235533333333, "name": "47aa0576e59027e7890b5652fa2233fe", "fusion_lon": 0.0, "bike_id": "47aa0576e59027e7890b5652fa2233fe", "is_disabled": 0, "is_reserved": 0}, {"rental_uris": {"ios": "https://dc.lft.to/lastmile_qr_scan", "android": "https://dc.lft.to/lastmile_qr_scan"}, "lon": -77.03206966666667, "type": "electric_scooter", "fusion_lat": 0.0, "lat": 38.911965333333335, "name": "0693c41347aaa41af4f663c39486a7a7", "fusion_lon": 0.0, "bike_id": "0693c41347aaa41af4f663c39486a7a7", "is_disabled": 0, "is_reserved": 0}, {"rental_uris": {"ios": "https://dc.lft.to/lastmile_qr_scan", "android": "https://dc.lft.to/lastmile_qr_scan"}, "lon": -76.9732965, "type": "electric_bike", "fusion_lat": 0.0, "lat": 38.85059583333334, "name": "7f323216386e23043f9226384ec299ad", "fusion_lon": 0.0, "bike_id": "7f323216386e23043f9226384ec299ad", "is_disabled": 0, "is_reserved": 0}, {"rental_uris": {"ios": "https://dc.lft.to/lastmile_qr_scan", "android": "https://dc.lft.to/lastmile_qr_scan"}, "lon": -77.050367, "type": "electric_scooter", "fusion_lat": 0.0, "lat": 38.89656216666667, "name": "2e513529b8103ad3d152f4eaeeefe494", "fusion_lon": 0.0, "bike_id": "2e513529b8103ad3d152f4eaeeefe494", "is_disabled": 0, "is_reserved": 0}, {"rental_uris": {"ios": "https://dc.lft.to/lastmile_qr_scan", "android": "https://dc.lft.to/lastmile_qr_scan"}, "lon": -77.04654066666667, "type": "electric_scooter", "fusion_lat": 0.0, "lat": 38.934271333333335, "name": "2f752729efd839688e4d18fbbd0a2ffd", "fusion_lon": 0.0, "bike_id": "2f752729efd839688e4d18fbbd0a2ffd", "is_disabled": 0, "is_reserved": 0}, {"rental_uris": {"ios": "https://dc.lft.to/lastmile_qr_scan", "android": "https://dc.lft.to/lastmile_qr_scan"}, "lon": -77.04681716666667, "type": "electric_scooter", "fusion_lat": 0.0, "lat": 38.8926775, "name": "babd680096b83574013b907fc3f823d7", "fusion_lon": 0.0, "bike_id": "babd680096b83574013b907fc3f823d7", "is_disabled": 0, "is_reserved": 0}, {"rental_uris": {"ios": "https://dc.lft.to/lastmile_qr_scan", "android": "https://dc.lft.to/lastmile_qr_scan"}, "lon": -76.97332916666667, "type": "electric_bike", "fusion_lat": 0.0, "lat": 38.917617666666665, "name": "28c9559ee1957f83131546a621d7eb92", "fusion_lon": 0.0, "bike_id": "28c9559ee1957f83131546a621d7eb92", "is_disabled": 0, "is_reserved": 0}, {"rental_uris": {"ios": "https://dc.lft.to/lastmile_qr_scan", "android": "https://dc.lft.to/lastmile_qr_scan"}, "lon": -77.02316816666666, "type": "electric_scooter", "fusion_lat": 0.0, "lat": 38.881926666666665, "name": "0035363004b1107c456b8f8e1b9bd430", "fusion_lon": 0.0, "bike_id": "0035363004b1107c456b8f8e1b9bd430", "is_disabled": 0, "is_reserved": 0}, {"rental_uris": {"ios": "https://dc.lft.to/lastmile_qr_scan", "android": "https://dc.lft.to/lastmile_qr_scan"}, "lon": -77.03383033333333, "type": "electric_scooter", "fusion_lat": 0.0, "lat": 38.908152333333334, "name": "79a3a04b6e15a1536d3384bea3169ee2", "fusion_lon": 0.0, "bike_id": "79a3a04b6e15a1536d3384bea3169ee2", "is_disabled": 0, "is_reserved": 0}, {"rental_uris": {"ios": "https://dc.lft.to/lastmile_qr_scan", "android": "https://dc.lft.to/lastmile_qr_scan"}, "lon": -77.01177083333333, "type": "electric_bike", "fusion_lat": 0.0, "lat": 38.87222083333333, "name": "caaf64fda7e4620501fc4781eaa30e31", "fusion_lon": 0.0, "bike_id": "caaf64fda7e4620501fc4781eaa30e31", "is_disabled": 0, "is_reserved": 0}, {"rental_uris": {"ios": "https://dc.lft.to/lastmile_qr_scan", "android": "https://dc.lft.to/lastmile_qr_scan"}, "lon": -77.03169116666666, "type": "electric_scooter", "fusion_lat": 0.0, "lat": 38.88344083333333, "name": "53c5f0eac3c4b6243244640264dd1d21", "fusion_lon": 0.0, "bike_id": "53c5f0eac3c4b6243244640264dd1d21", "is_disabled": 0, "is_reserved": 0}, {"rental_uris": {"ios": "https://dc.lft.to/lastmile_qr_scan", "android": "https://dc.lft.to/lastmile_qr_scan"}, "lon": -77.034453, "type": "electric_scooter", "fusion_lat": 0.0, "lat": 38.90733633333333, "name": "616d0cb89e949980a45f0d0a70648fc6", "fusion_lon": 0.0, "bike_id": "616d0cb89e949980a45f0d0a70648fc6", "is_disabled": 0, "is_reserved": 0}, {"rental_uris": {"ios": "https://dc.lft.to/lastmile_qr_scan", "android": "https://dc.lft.to/lastmile_qr_scan"}, "lon": -77.02117966666667, "type": "electric_scooter", "fusion_lat": 0.0, "lat": 38.930147166666664, "name": "3dd67681b2cb14dc4f890da6abe9cb6e", "fusion_lon": 0.0, "bike_id": "3dd67681b2cb14dc4f890da6abe9cb6e", "is_disabled": 0, "is_reserved": 0}, {"rental_uris": {"ios": "https://dc.lft.to/lastmile_qr_scan", "android": "https://dc.lft.to/lastmile_qr_scan"}, "lon": -76.9442225, "type": "electric_scooter", "fusion_lat": 0.0, "lat": 38.89788266666667, "name": "85a84354566b55bd6e2e853f171edff5", "fusion_lon": 0.0, "bike_id": "85a84354566b55bd6e2e853f171edff5", "is_disabled": 0, "is_reserved": 0}, {"rental_uris": {"ios": "https://dc.lft.to/lastmile_qr_scan", "android": "https://dc.lft.to/lastmile_qr_scan"}, "lon": -77.06496066666666, "type": "electric_bike", "fusion_lat": 0.0, "lat": 38.96495016666667, "name": "cf0c8c86122b73ad8401200dcf66b598", "fusion_lon": 0.0, "bike_id": "cf0c8c86122b73ad8401200dcf66b598", "is_disabled": 0, "is_reserved": 0}, {"rental_uris": {"ios": "https://dc.lft.to/lastmile_qr_scan", "android": "https://dc.lft.to/lastmile_qr_scan"}, "lon": -77.0321445, "type": "electric_scooter", "fusion_lat": 0.0, "lat": 38.91586316666667, "name": "53a19102e87fc01500e088695a517e40", "fusion_lon": 0.0, "bike_id": "53a19102e87fc01500e088695a517e40", "is_disabled": 0, "is_reserved": 0}, {"rental_uris": {"ios": "https://dc.lft.to/lastmile_qr_scan", "android": "https://dc.lft.to/lastmile_qr_scan"}, "lon": -77.00916916666667, "type": "electric_scooter", "fusion_lat": 0.0, "lat": 38.912382, "name": "62644522244f0b9269b993fbc17a7b30", "fusion_lon": 0.0, "bike_id": "62644522244f0b9269b993fbc17a7b30", "is_disabled": 0, "is_reserved": 0}, {"rental_uris": {"ios": "https://dc.lft.to/lastmile_qr_scan", "android": "https://dc.lft.to/lastmile_qr_scan"}, "lon": -77.05026083333334, "type": "electric_scooter", "fusion_lat": 0.0, "lat": 38.9178835, "name": "c6f020a319c96bd703f913bd2adec03f", "fusion_lon": 0.0, "bike_id": "c6f020a319c96bd703f913bd2adec03f", "is_disabled": 0, "is_reserved": 0}, {"rental_uris": {"ios": "https://dc.lft.to/lastmile_qr_scan", "android": "https://dc.lft.to/lastmile_qr_scan"}, "lon": -77.04108166666667, "type": "electric_scooter", "fusion_lat": 0.0, "lat": 38.9213045, "name": "b78dd0f3b9726e8947c2b857a22f1984", "fusion_lon": 0.0, "bike_id": "b78dd0f3b9726e8947c2b857a22f1984", "is_disabled": 0, "is_reserved": 0}, {"rental_uris": {"ios": "https://dc.lft.to/lastmile_qr_scan", "android": "https://dc.lft.to/lastmile_qr_scan"}, "lon": -77.03227183333334, "type": "electric_scooter", "fusion_lat": 0.0, "lat": 38.9266365, "name": "27cb7bdf62647aacffbd72a809dd7de8", "fusion_lon": 0.0, "bike_id": "27cb7bdf62647aacffbd72a809dd7de8", "is_disabled": 0, "is_reserved": 0}, {"rental_uris": {"ios": "https://dc.lft.to/lastmile_qr_scan", "android": "https://dc.lft.to/lastmile_qr_scan"}, "lon": -77.02403633333333, "type": "electric_scooter", "fusion_lat": 0.0, "lat": 38.9369125, "name": "14111538d0614276e6ca6656b099d6b1", "fusion_lon": 0.0, "bike_id": "14111538d0614276e6ca6656b099d6b1", "is_disabled": 0, "is_reserved": 0}, {"rental_uris": {"ios": "https://dc.lft.to/lastmile_qr_scan", "android": "https://dc.lft.to/lastmile_qr_scan"}, "lon": -76.927253, "type": "electric_scooter", "fusion_lat": 0.0, "lat": 38.88037966666667, "name": "97ba3208e6a10055b9693edda4728642", "fusion_lon": 0.0, "bike_id": "97ba3208e6a10055b9693edda4728642", "is_disabled": 0, "is_reserved": 0}, {"rental_uris": {"ios": "https://dc.lft.to/lastmile_qr_scan", "android": "https://dc.lft.to/lastmile_qr_scan"},