{"data": {"bikes": [{"is_disabled": 0, "rental_uris": {"android": "https://dc.lft.to/lastmile_qr_scan", "ios": "https://dc.lft.to/lastmile_qr_scan"}, "is_reserved": 0, "name": "f592b62e1d2630a485cf2cee8afe5b38", "lon": -76.93187433333334, "type": "electric_scooter", "bike_id": "f592b62e1d2630a485cf2cee8afe5b38", "fusion_lon": 0.0, "lat": 38.89874416666667, "fusion_lat": 0.0}, {"is_disabled": 0, "rental_uris": {"android": "https://dc.lft.to/lastmile_qr_scan", "ios": "https://dc.lft.to/lastmile_qr_scan"}, "is_reserved": 0, "name": "d2f519710ee9090d6597355fc9951ea8", "lon": -77.01157816666667, "type": "electric_scooter", "bike_id": "d2f519710ee9090d6597355fc9951ea8", "fusion_lon": 0.0, "lat": 38.900247666666665, "fusion_lat": 0.0}, {"is_disabled": 0, "rental_uris": {"android": "https://dc.lft.to/lastmile_qr_scan", "ios": "https://dc.lft.to/lastmile_qr_scan"}, "is_reserved": 0, "name": "ec6861f96b01ad2b59d7ff0aa4948bcb", "lon": -77.01979266666666, "type": "electric_scooter", "bike_id": "ec6861f96b01ad2b59d7ff0aa4948bcb", "fusion_lon": 0.0, "lat": 38.91196566666667, "fusion_lat": 0.0}, {"is_disabled": 0, "rental_uris": {"android": "https://dc.lft.to/lastmile_qr_scan", "ios": "https://dc.lft.to/lastmile_qr_scan"}, "is_reserved": 0, "name": "20965f42c93e0e00283de8f8552cea6e", "lon": -77.05706183333334, "type": "electric_scooter", "bike_id": "20965f42c93e0e00283de8f8552cea6e", "fusion_lon": 0.0, "lat": 38.926253, "fusion_lat": 0.0}, {"is_disabled": 0, "rental_uris": {"android": "https://dc.lft.to/lastmile_qr_scan", "ios": "https://dc.lft.to/lastmile_qr_scan"}, "is_reserved": 0, "name": "aa1ec0844a231cf034d67d1a6622f12b", "lon": -76.956739, "type": "electric_scooter", "bike_id": "aa1ec0844a231cf034d67d1a6622f12b", "fusion_lon": 0.0, "lat": 38.887641, "fusion_lat": 0.0}, {"is_disabled": 0, "rental_uris": {"android": "https://dc.lft.to/lastmile_qr_scan", "ios": "https://dc.lft.to/lastmile_qr_scan"}, "is_reserved": 0, "name": "7b9015041c3fdb9ded8f8a7bb5b82748", "lon": -77.02789716666666, "type": "electric_scooter", "bike_id": "7b9015041c3fdb9ded8f8a7bb5b82748", "fusion_lon": 0.0, "lat": 38.961300666666666, "fusion_lat": 0.0}, {"is_disabled": 0, "rental_uris": {"android": "https://dc.lft.to/lastmile_qr_scan", "ios": "https://dc.lft.to/lastmile_qr_scan"}, "is_reserved": 0, "name": "ebb7d5976a868f325de9c0044df4b338", "lon": -77.0246985, "type": "electric_bike", "bike_id": "ebb7d5976a868f325de9c0044df4b338", "fusion_lon": 0.0, "lat": 38.95577216666667, "fusion_lat": 0.0}, {"is_disabled": 0, "rental_uris": {"android": "https://dc.lft.to/lastmile_qr_scan", "ios": "https://dc.lft.to/lastmile_qr_scan"}, "is_reserved": 0, "name": "38b97ed1bf5748d98afa584da4b219cd", "lon": -76.98160133333333, "type": "electric_bike", "bike_id": "38b97ed1bf5748d98afa584da4b219cd", "fusion_lon": 0.0, "lat": 38.959647, "fusion_lat": 0.0}, {"is_disabled": 0, "rental_uris": {"android": "https://dc.lft.to/lastmile_qr_scan", "ios": "https://dc.lft.to/lastmile_qr_scan"}, "is_reserved": 0, "name": "dcc2f37ba7e1c37a498c4bb45187cc07", "lon": -77.04062966666666, "type": "electric_scooter", "bike_id": "dcc2f37ba7e1c37a498c4bb45187cc07", "fusion_lon": 0.0, "lat": 38.910391833333335, "fusion_lat": 0.0}, {"is_disabled": 0, "rental_uris": {"android": "https://dc.lft.to/lastmile_qr_scan", "ios": "https://dc.lft.to/lastmile_qr_scan"}, "is_reserved": 0, "name": "e5717fb9e9779d3a7d2bf12e0702c22c", "lon": -77.03521766666667, "type": "electric_scooter", "bike_id": "e5717fb9e9779d3a7d2bf12e0702c22c", "fusion_lon": 0.0, "lat": 38.922432, "fusion_lat": 0.0}, {"is_disabled": 0, "rental_uris": {"android": "https://dc.lft.to/lastmile_qr_scan", "ios": "https://dc.lft.to/lastmile_qr_scan"}, "is_reserved": 0, "name": "b2b63f5aeff6fb244c909517cd19a445", "lon": -76.98599333333334, "type": "electric_scooter", "bike_id": "b2b63f5aeff6fb244c909517cd19a445", "fusion_lon": 0.0, "lat": 38.900122333333336, "fusion_lat": 0.0}, {"is_disabled": 0, "rental_uris": {"android": "https://dc.lft.to/lastmile_qr_scan", "ios": "https://dc.lft.to/lastmile_qr_scan"}, "is_reserved": 0, "name": "c02127a965c445829001158332522f37", "lon": -77.044478, "type": "electric_scooter", "bike_id": "c02127a965c445829001158332522f37", "fusion_lon": 0.0, "lat": 38.91268683333333, "fusion_lat": 0.0}, {"is_disabled": 0, "rental_uris": {"android": "https://dc.lft.to/lastmile_qr_scan", "ios": "https://dc.lft.to/lastmile_qr_scan"}, "is_reserved": 0, "name": "3c0ad2599d839ebcb89d115aa1445124", "lon": -77.02163166666666, "type": "electric_scooter", "bike_id": "3c0ad2599d839ebcb89d115aa1445124", "fusion_lon": 0.0, "lat": 38.90255066666667, "fusion_lat": 0.0}, {"is_disabled": 0, "rental_uris": {"android": "https://dc.lft.to/lastmile_qr_scan", "ios": "https://dc.lft.to/lastmile_qr_scan"}, "is_reserved": 0, "name": "fed2c020f4753ae9d8bbe72533f9e1b6", "lon": -77.04201783333333, "type": "electric_scooter", "bike_id": "fed2c020f4753ae9d8bbe72533f9e1b6", "fusion_lon": 0.0, "lat": 38.91682, "fusion_lat": 0.0}, {"is_disabled": 0, "rental_uris": {"android": "https://dc.lft.to/lastmile_qr_scan", "ios": "https://dc.lft.to/lastmile_qr_scan"}, "is_reserved": 0, "name": "824da3ec17e2ff8568bc27192e86e235", "lon": -77.1151475, "type": "electric_bike", "bike_id": "824da3ec17e2ff8568bc27192e86e235", "fusion_lon": 0.0, "lat": 38.882274833333334, "fusion_lat": 0.0}, {"is_disabled": 0, "rental_uris": {"android": "https://dc.lft.to/lastmile_qr_scan", "ios": "https://dc.lft.to/lastmile_qr_scan"}, "is_reserved": 0, "name": "c39f8bec364fdd5d9d52b1e924e0ec0b", "lon": -76.97993916666667, "type": "electric_scooter", "bike_id": "c39f8bec364fdd5d9d52b1e924e0ec0b", "fusion_lon": 0.0, "lat": 38.88871433333333, "fusion_lat": 0.0}, {"is_disabled": 0, "rental_uris": {"android": "https://dc.lft.to/lastmile_qr_scan", "ios": "https://dc.lft.to/lastmile_qr_scan"}, "is_reserved": 0, "name": "5406d90405597c72d2ab849ae49a85f8", "lon": -77.03223683333333, "type": "electric_scooter", "bike_id": "5406d90405597c72d2ab849ae49a85f8", "fusion_lon": 0.0, "lat": 38.90967583333333, "fusion_lat": 0.0}, {"is_disabled": 0, "rental_uris": {"android": "https://dc.lft.to/lastmile_qr_scan", "ios": "https://dc.lft.to/lastmile_qr_scan"}, "is_reserved": 0, "name": "e1ccbdc9846277d454637ad3ab614409", "lon": -76.98469216666666, "type": "electric_scooter", "bike_id": "e1ccbdc9846277d454637ad3ab614409", "fusion_lon": 0.0, "lat": 38.89354766666666, "fusion_lat": 0.0}, {"is_disabled": 0, "rental_uris": {"android": "https://dc.lft.to/lastmile_qr_scan", "ios": "https://dc.lft.to/lastmile_qr_scan"}, "is_reserved": 0, "name": "14cc4a134d0254b912264a3be084e819", "lon": -77.03086783333333, "type": "electric_scooter", "bike_id": "14cc4a134d0254b912264a3be084e819", "fusion_lon": 0.0, "lat": 38.92239683333333, "fusion_lat": 0.0}, {"is_disabled": 0, "rental_uris": {"android": "https://dc.lft.to/lastmile_qr_scan", "ios": "https://dc.lft.to/lastmile_qr_scan"}, "is_reserved": 0, "name": "2a7d3975d9c8512e9149093890201aea", "lon": -77.02789016666667, "type": "electric_scooter", "bike_id": "2a7d3975d9c8512e9149093890201aea", "fusion_lon": 0.0, "lat": 38.884275333333335, "fusion_lat": 0.0}, {"is_disabled": 0, "rental_uris": {"android": "https://dc.lft.to/lastmile_qr_scan", "ios": "https://dc.lft.to/lastmile_qr_scan"}, "is_reserved": 0, "name": "2edc119e27e5b900eeee2064a729b17a", "lon": -77.0168435, "type": "electric_scooter", "bike_id": "2edc119e27e5b900eeee2064a729b17a", "fusion_lon": 0.0, "lat": 38.8998275, "fusion_lat": 0.0}, {"is_disabled": 0, "rental_uris": {"android": "https://dc.lft.to/lastmile_qr_scan", "ios": "https://dc.lft.to/lastmile_qr_scan"}, "is_reserved": 0, "name": "d793974a51fc1c5af7113fecf5f5a627", "lon": -77.02952116666667, "type": "electric_scooter", "bike_id": "d793974a51fc1c5af7113fecf5f5a627", "fusion_lon": 0.0, "lat": 38.91187816666667, "fusion_lat": 0.0}, {"is_disabled": 0, "rental_uris": {"android": "https://dc.lft.to/lastmile_qr_scan", "ios": "https://dc.lft.to/lastmile_qr_scan"}, "is_reserved": 0, "name": "7782be89144d7d6d6596c83b5cf4d500", "lon": -77.06530633333334, "type": "electric_scooter", "bike_id": "7782be89144d7d6d6596c83b5cf4d500", "fusion_lon": 0.0, "lat": 38.90524716666667, "fusion_lat": 0.0}, {"is_disabled": 0, "rental_uris": {"android": "https://dc.lft.to/lastmile_qr_scan", "ios": "https://dc.lft.to/lastmile_qr_scan"}, "is_reserved": 0, "name": "9e232fe439ed11f6d54fdcb2e8637a63", "lon": -77.0910645, "type": "electric_scooter", "bike_id": "9e232fe439ed11f6d54fdcb2e8637a63", "fusion_lon": 0.0, "lat": 38.9563825, "fusion_lat": 0.0}, {"is_disabled": 0, "rental_uris": {"android": "https://dc.lft.to/lastmile_qr_scan", "ios": "https://dc.lft.to/lastmile_qr_scan"}, "is_reserved": 0, "name": "43067c3f2940983d80d55df00347b001", "lon": -77.03209416666667, "type": "electric_scooter", "bike_id": "43067c3f2940983d80d55df00347b001", "fusion_lon": 0.0, "lat": 38.92578783333333, "fusion_lat": 0.0}, {"is_disabled": 0, "rental_uris": {"android": "https://dc.lft.to/lastmile_qr_scan", "ios": "https://dc.lft.to/lastmile_qr_scan"}, "is_reserved": 0, "name": "4eb7529a0cef3fa57afccb8ce5013747", "lon": -77.04942983333333, "type": "electric_scooter", "bike_id": "4eb7529a0cef3fa57afccb8ce5013747", "fusion_lon": 0.0, "lat": 38.909914666666666, "fusion_lat": 0.0}, {"is_disabled": 0, "rental_uris": {"android": "https://dc.lft.to/lastmile_qr_scan", "ios": "https://dc.lft.to/lastmile_qr_scan"}, "is_reserved": 0, "name": "1a2b551e3176cebefad1d6816b38d1c8", "lon": -77.009078, "type": "electric_scooter", "bike_id": "1a2b551e3176cebefad1d6816b38d1c8", "fusion_lon": 0.0, "lat": 38.8983635, "fusion_lat": 0.0}, {"is_disabled": 0, "rental_uris": {"android": "https://dc.lft.to/lastmile_qr_scan", "ios": "https://dc.lft.to/lastmile_qr_scan"}, "is_reserved": 0, "name": "c5494f5aacb124faa29d95748b59b94f", "lon": -77.02193066666666, "type": "electric_scooter", "bike_id": "c5494f5aacb124faa29d95748b59b94f", "fusion_lon": 0.0, "lat": 38.92102283333333, "fusion_lat": 0.0}, {"is_disabled": 0, "rental_uris": {"android": "https://dc.lft.to/lastmile_qr_scan", "ios": "https://dc.lft.to/lastmile_qr_scan"}, "is_reserved": 0, "name": "239f3d7a51c48a6f8011456f5d7259ec", "lon": -77.0320725, "type": "electric_scooter", "bike_id": "239f3d7a51c48a6f8011456f5d7259ec", "fusion_lon": 0.0, "lat": 38.90949583333333, "fusion_lat": 0.0}, {"is_disabled": 0, "rental_uris": {"android": "https://dc.lft.to/lastmile_qr_scan", "ios": "https://dc.lft.to/lastmile_qr_scan"}, "is_reserved": 0, "name": "575fdfaccbe98d346fa75c380f4ef8c3", "lon": -77.11452066666666, "type": "electric_bike", "bike_id": "575fdfaccbe98d346fa75c380f4ef8c3", "fusion_lon": 0.0, "lat": 38.87945716666667, "fusion_lat": 0.0}, {"is_disabled": 0, "rental_uris": {"android": "https://dc.lft.to/lastmile_qr_scan", "ios": "https://dc.lft.to/lastmile_qr_scan"}, "is_reserved": 0, "name": "9fe9f635a67da2dc55c067db9aaf0830", "lon": -76.989532, "type": "electric_scooter", "bike_id": "9fe9f635a67da2dc55c067db9aaf0830", "fusion_lon": 0.0, "lat": 38.84404283333333, "fusion_lat": 0.0}, {"is_disabled": 0, "rental_uris": {"android": "https://dc.lft.to/lastmile_qr_scan", "ios": "https://dc.lft.to/lastmile_qr_scan"}, "is_reserved": 0, "name": "0c3d8673e5331a78fb1bb782ce103d50", "lon": -77.009302, "type": "electric_scooter", "bike_id": "0c3d8673e5331a78fb1bb782ce103d50", "fusion_lon": 0.0, "lat": 38.871193, "fusion_lat": 0.0}, {"is_disabled": 0, "rental_uris": {"android": "https://dc.lft.to/lastmile_qr_scan", "ios": "https://dc.lft.to/lastmile_qr_scan"}, "is_reserved": 0, "name": "aa0196c355c113d46216d6bed9bdf18a", "lon": -77.01771266666667, "type": "electric_scooter", "bike_id": "aa0196c355c113d46216d6bed9bdf18a", "fusion_lon": 0.0, "lat": 38.8772335, "fusion_lat": 0.0}, {"is_disabled": 0, "rental_uris": {"android": "https://dc.lft.to/lastmile_qr_scan", "ios": "https://dc.lft.to/lastmile_qr_scan"}, "is_reserved": 0, "name": "d85eebf78a7239d451c49fd88ac1ff2b", "lon": -76.97747583333333, "type": "electric_scooter", "bike_id": "d85eebf78a7239d451c49fd88ac1ff2b", "fusion_lon": 0.0, "lat": 38.86487266666666, "fusion_lat": 0.0}, {"is_disabled": 0, "rental_uris": {"android": "https://dc.lft.to/lastmile_qr_scan", "ios": "https://dc.lft.to/lastmile_qr_scan"}, "is_reserved": 0, "name": "5ce53bd687db27b6fd3563fb8184cb33", "lon": -77.00195983333333, "type": "electric_scooter", "bike_id": "5ce53bd687db27b6fd3563fb8184cb33", "fusion_lon": 0.0, "lat": 38.9006655, "fusion_lat": 0.0}, {"is_disabled": 0, "rental_uris": {"android": "https://dc.lft.to/lastmile_qr_scan", "ios": "https://dc.lft.to/lastmile_qr_scan"}, "is_reserved": 0, "name": "7ab4cee70b9fb37c4e980971dd0f6013", "lon": -77.032616, "type": "electric_scooter", "bike_id": "7ab4cee70b9fb37c4e980971dd0f6013", "fusion_lon": 0.0, "lat": 38.93522683333333, "fusion_lat": 0.0}, {"is_disabled": 0, "rental_uris": {"android": "https://dc.lft.to/lastmile_qr_scan", "ios": "https://dc.lft.to/lastmile_qr_scan"}, "is_reserved": 0, "name": "70aa29db7cac7e575a3a3f81535fc8e3", "lon": -77.0416385, "type": "electric_scooter", "bike_id": "70aa29db7cac7e575a3a3f81535fc8e3", "fusion_lon": 0.0, "lat": 38.91193033333333, "fusion_lat": 0.0}, {"is_disabled": 0, "rental_uris": {"android": "https://dc.lft.to/lastmile_qr_scan", "ios": "https://dc.lft.to/lastmile_qr_scan"}, "is_reserved": 0, "name": "a0698f6f70cc19288f7670b09cba4316", "lon": -76.94869233333333, "type": "electric_bike", "bike_id": "a0698f6f70cc19288f7670b09cba4316", "fusion_lon": 0.0, "lat": 38.8897335, "fusion_lat": 0.0}, {"is_disabled": 0, "rental_uris": {"android": "https://dc.lft.to/lastmile_qr_scan", "ios": "https://dc.lft.to/lastmile_qr_scan"}, "is_reserved": 0, "name": "f132b906151197bfb578008a27e80507", "lon": -77.02965216666666, "type": "electric_scooter", "bike_id": "f132b906151197bfb578008a27e80507", "fusion_lon": 0.0, "lat": 38.92460466666667, "fusion_lat": 0.0}, {"is_disabled": 0, "rental_uris": {"android": "https://dc.lft.to/lastmile_qr_scan", "ios": "https://dc.lft.to/lastmile_qr_scan"}, "is_reserved": 0, "name": "2d20d639267d7b1c17a0c517dfc3d776", "lon": -77.03860866666666, "type": "electric_scooter", "bike_id": "2d20d639267d7b1c17a0c517dfc3d776", "fusion_lon": 0.0, "lat": 38.9160235, "fusion_lat": 0.0}, {"is_disabled": 0, "rental_uris": {"android": "https://dc.lft.to/lastmile_qr_scan", "ios": "https://dc.lft.to/lastmile_qr_scan"}, "is_reserved": 0, "name": "061cd3f096bb15d6af137876cb30994e", "lon": -77.01581783333333, "type": "electric_scooter", "bike_id": "061cd3f096bb15d6af137876cb30994e", "fusion_lon": 0.0, "lat": 38.9289085, "fusion_lat": 0.0}, {"is_disabled": 0, "rental_uris": {"android": "https://dc.lft.to/lastmile_qr_scan", "ios": "https://dc.lft.to/lastmile_qr_scan"}, "is_reserved": 0, "name": "7b123be7dc87c92a0f962470bbbee14a", "lon": -76.98378116666666, "type": "electric_scooter", "bike_id": "7b123be7dc87c92a0f962470bbbee14a", "fusion_lon": 0.0, "lat": 38.844453, "fusion_lat": 0.0}, {"is_disabled": 0, "rental_uris": {"android": "https://dc.lft.to/lastmile_qr_scan", "ios": "https://dc.lft.to/lastmile_qr_scan"}, "is_reserved": 0, "name": "3ab71cb612fe042991fcc43cbce0a7d5", "lon": -77.024053, "type": "electric_scooter", "bike_id": "3ab71cb612fe042991fcc43cbce0a7d5", "fusion_lon": 0.0, "lat": 38.89252966666667, "fusion_lat": 0.0}, {"is_disabled": 0, "rental_uris": {"android": "https://dc.lft.to/lastmile_qr_scan", "ios": "https://dc.lft.to/lastmile_qr_scan"}, "is_reserved": 0, "name": "b1c025649053871819a84ba1f009df0a", "lon": -77.01474466666667, "type": "electric_scooter", "bike_id": "b1c025649053871819a84ba1f009df0a", "fusion_lon": 0.0, "lat": 38.876393, "fusion_lat": 0.0}, {"is_disabled": 0, "rental_uris": {"android": "https://dc.lft.to/lastmile_qr_scan", "ios": "https://dc.lft.to/lastmile_qr_scan"}, "is_reserved": 0, "name": "6162d519853ed996f0341baba45a6167", "lon": -76.87769666666667, "type": "electric_bike", "bike_id": "6162d519853ed996f0341baba45a6167", "fusion_lon": 0.0, "lat": 38.99224516666666, "fusion_lat": 0.0}, {"is_disabled": 0, "rental_uris": {"android": "https://dc.lft.to/lastmile_qr_scan", "ios": "https://dc.lft.to/lastmile_qr_scan"}, "is_reserved": 0, "name": "865be277991a976cbf4ab61fb41f2e29", "lon": -76.96391333333334, "type": "electric_bike", "bike_id": "865be277991a976cbf4ab61fb41f2e29", "fusion_lon": 0.0, "lat": 38.9757835, "fusion_lat": 0.0}, {"is_disabled": 0, "rental_uris": {"android": "https://dc.lft.to/lastmile_qr_scan", "ios": "https://dc.lft.to/lastmile_qr_scan"}, "is_reserved": 0, "name": "a64c7ce85d4ba01293084bae262f8a09", "lon": -77.0131045, "type": "electric_scooter", "bike_id": "a64c7ce85d4ba01293084bae262f8a09", "fusion_lon": 0.0, "lat": 38.901465333333334, "fusion_lat": 0.0}, {"is_disabled": 0, "rental_uris": {"android": "https://dc.lft.to/lastmile_qr_scan", "ios": "https://dc.lft.to/lastmile_qr_scan"}, "is_reserved": 0, "name": "c7f71c4128ee00a1e9df86ee28be65d8", "lon": -77.0413505, "type": "electric_scooter", "bike_id": "c7f71c4128ee00a1e9df86ee28be65d8", "fusion_lon": 0.0, "lat": 38.93101333333333, "fusion_lat": 0.0}, {"is_disabled": 0, "rental_uris": {"android": "https://dc.lft.to/lastmile_qr_scan", "ios": "https://dc.lft.to/lastmile_qr_scan"}, "is_reserved": 0, "name": "6c186791f5f4aa1bd537de3f8108e278", "lon": -77.038471, "type": "electric_scooter", "bike_id": "6c186791f5f4aa1bd537de3f8108e278", "fusion_lon": 0.0, "lat": 38.93250033333333, "fusion_lat": 0.0}, {"is_disabled": 0, "rental_uris": {"android": "https://dc.lft.to/lastmile_qr_scan", "ios": "https://dc.lft.to/lastmile_qr_scan"}, "is_reserved": 0, "name": "57d990dcb785892932ee8823c6dfa48c", "lon": -77.027034, "type": "electric_scooter", "bike_id": "57d990dcb785892932ee8823c6dfa48c", "fusion_lon": 0.0, "lat": 38.949823333333335, "fusion_lat": 0.0}, {"is_disabled": 0, "rental_uris": {"android": "https://dc.lft.to/lastmile_qr_scan", "ios": "https://dc.lft.to/lastmile_qr_scan"}, "is_reserved": 0, "name": "b9c97bd1df90f62bf44bdf6f8be35e14", "lon": -77.03310833333333, "type": "electric_scooter", "bike_id": "b9c97bd1df90f62bf44bdf6f8be35e14", "fusion_lon": 0.0, "lat": 38.8970555, "fusion_lat": 0.0}, {"is_disabled": 0, "rental_uris": {"android": "https://dc.lft.to/lastmile_qr_scan", "ios": "https://dc.lft.to/lastmile_qr_scan"}, "is_reserved": 0, "name": "7035d1993e739b8db82014d95f426518", "lon": -77.0356655, "type": "electric_scooter", "bike_id": "7035d1993e739b8db82014d95f426518", "fusion_lon": 0.0, "lat": 38.918176833333334, "fusion_lat": 0.0}, {"is_disabled": 0, "rental_uris": {"android": "https://dc.lft.to/lastmile_qr_scan", "ios": "https://dc.lft.to/lastmile_qr_scan"}, "is_reserved": 0, "name": "eb6b9f6f31f6188e75a5fc863e133022", "lon": -77.09563166666666, "type": "electric_bike", "bike_id": "eb6b9f6f31f6188e75a5fc863e133022", "fusion_lon": 0.0, "lat": 38.916919166666666, "fusion_lat": 0.0}, {"is_disabled": 0, "rental_uris": {"android": "https://dc.lft.to/lastmile_qr_scan", "ios": "https://dc.lft.to/lastmile_qr_scan"}, "is_reserved": 0, "name": "f6cc28ee0c5cb76d8439fe9cd476c993", "lon": -77.01379683333333, "type": "electric_scooter", "bike_id": "f6cc28ee0c5cb76d8439fe9cd476c993", "fusion_lon": 0.0, "lat": 38.9103395, "fusion_lat": 0.0}, {"is_disabled": 0, "rental_uris": {"android": "https://dc.lft.to/lastmile_qr_scan", "ios": "https://dc.lft.to/lastmile_qr_scan"}, "is_reserved": 0, "name": "4dbb880c86a475ef6a9348c4ffb15002", "lon": -76.99008933333333, "type": "electric_scooter", "bike_id": "4dbb880c86a475ef6a9348c4ffb15002", "fusion_lon": 0.0, "lat": 38.8650445, "fusion_lat": 0.0}, {"is_disabled": 0, "rental_uris": {"android": "https://dc.lft.to/lastmile_qr_scan", "ios": "https://dc.lft.to/lastmile_qr_scan"}, "is_reserved": 0, "name": "425292192f012978cf30d707fbe055a7", "lon": -77.0190265, "type": "electric_scooter", "bike_id": "425292192f012978cf30d707fbe055a7", "fusion_lon": 0.0, "lat": 38.91217916666667, "fusion_lat": 0.0}, {"is_disabled": 0, "rental_uris": {"android": "https://dc.lft.to/lastmile_qr_scan", "ios": "https://dc.lft.to/lastmile_qr_scan"}, "is_reserved": 0, "name": "c23418e500a652c07c372e2a9ffcc381", "lon": -77.0333855, "type": "electric_scooter", "bike_id": "c23418e500a652c07c372e2a9ffcc381", "fusion_lon": 0.0, "lat": 38.89228816666667, "fusion_lat": 0.0}, {"is_disabled": 0, "rental_uris": {"android": "https://dc.lft.to/lastmile_qr_scan", "ios": "https://dc.lft.to/lastmile_qr_scan"}, "is_reserved": 0, "name": "9f7207f888bc313924437569da30ee79", "lon": -77.01185466666666, "type": "electric_scooter", "bike_id": "9f7207f888bc313924437569da30ee79", "fusion_lon": 0.0, "lat": 38.90057983333333, "fusion_lat": 0.0}, {"is_disabled": 0, "rental_uris": {"android": "https://dc.lft.to/lastmile_qr_scan", "ios": "https://dc.lft.to/lastmile_qr_scan"}, "is_reserved": 0, "name": "ad05dde105e515230af2836227eded9d", "lon": -77.01556216666667, "type": "electric_scooter", "bike_id": "ad05dde105e515230af2836227eded9d", "fusion_lon": 0.0, "lat": 38.90267333333333, "fusion_lat": 0.0}, {"is_disabled": 0, "rental_uris": {"android": "https://dc.lft.to/lastmile_qr_scan", "ios": "https://dc.lft.to/lastmile_qr_scan"}, "is_reserved": 0, "name": "fde834c1dba4c3231c4a14d778310d40", "lon": -77.01898133333333, "type": "electric_scooter", "bike_id": "fde834c1dba4c3231c4a14d778310d40", "fusion_lon": 0.0, "lat": 38.90362833333333, "fusion_lat": 0.0}, {"is_disabled": 0, "rental_uris": {"android": "https://dc.lft.to/lastmile_qr_scan", "ios": "https://dc.lft.to/lastmile_qr_scan"}, "is_reserved": 0, "name": "e856c8982b1c5deb421c63517c6f2f4b", "lon": -77.02371333333333, "type": "electric_scooter", "bike_id": "e856c8982b1c5deb421c63517c6f2f4b", "fusion_lon": 0.0, "lat": 38.906948166666666, "fusion_lat": 0.0}, {"is_disabled": 0, "rental_uris": {"android": "https://dc.lft.to/lastmile_qr_scan", "ios": "https://dc.lft.to/lastmile_qr_scan"}, "is_reserved": 0, "name": "72844403aad6a41c87b51dc0068df946", "lon": -77.05058633333333, "type": "electric_scooter", "bike_id": "72844403aad6a41c87b51dc0068df946", "fusion_lon": 0.0, "lat": 38.916373666666665, "fusion_lat": 0.0}, {"is_disabled": 0, "rental_uris": {"android": "https://dc.lft.to/lastmile_qr_scan", "ios": "https://dc.lft.to/lastmile_qr_scan"}, "is_reserved": 0, "name": "ab2a1940a099c8b9ee7d10dc43379cfb", "lon": -77.002099, "type": "electric_scooter", "bike_id": "ab2a1940a099c8b9ee7d10dc43379cfb", "fusion_lon": 0.0, "lat": 38.89720116666667, "fusion_lat": 0.0}, {"is_disabled": 0, "rental_uris": {"android": "https://dc.lft.to/lastmile_qr_scan", "ios": "https://dc.lft.to/lastmile_qr_scan"}, "is_reserved": 0, "name": "b4852f6000e841592436b9fd216ce449", "lon": -77.04369816666667, "type": "electric_scooter", "bike_id": "b4852f6000e841592436b9fd216ce449", "fusion_lon": 0.0, "lat": 38.92236316666666, "fusion_lat": 0.0}, {"is_disabled": 0, "rental_uris": {"android": "https://dc.lft.to/lastmile_qr_scan", "ios": "https://dc.lft.to/lastmile_qr_scan"}, "is_reserved": 0, "name": "e8cd88a090b2ea421b4fb622835e5fa3", "lon": -77.02832216666667, "type": "electric_scooter", "bike_id": "e8cd88a090b2ea421b4fb622835e5fa3", "fusion_lon": 0.0, "lat": 38.9318955, "fusion_lat": 0.0}, {"is_disabled": 0, "rental_uris": {"android": "https://dc.lft.to/lastmile_qr_scan", "ios": "https://dc.lft.to/lastmile_qr_scan"}, "is_reserved": 0, "name": "13110ae02206861b9e9ca68bfd6acfef", "lon": -77.02155333333333, "type": "electric_scooter", "bike_id": "13110ae02206861b9e9ca68bfd6acfef", "fusion_lon": 0.0, "lat": 38.926030833333336, "fusion_lat": 0.0}, {"is_disabled": 0, "rental_uris": {"android": "https://dc.lft.to/lastmile_qr_scan", "ios": "https://dc.lft.to/lastmile_qr_scan"}, "is_reserved": 0, "name": "0db7fad15639a6495320973d3ae73962", "lon": -76.9995475, "type": "electric_scooter", "bike_id": "0db7fad15639a6495320973d3ae73962", "fusion_lon": 0.0, "lat": 38.900330833333335, "fusion_lat": 0.0}, {"is_disabled": 0, "rental_uris": {"android": "https://dc.lft.to/lastmile_qr_scan", "ios": "https://dc.lft.to/lastmile_qr_scan"}, "is_reserved": 0, "name": "f7e99b6c74681e4794421a885460f3fa", "lon": -77.00710683333334, "type": "electric_scooter", "bike_id": "f7e99b6c74681e4794421a885460f3fa", "fusion_lon": 0.0, "lat": 38.8849505, "fusion_lat": 0.0}, {"is_disabled": 0, "rental_uris": {"android": "https://dc.lft.to/lastmile_qr_scan", "ios": "https://dc.lft.to/lastmile_qr_scan"}, "is_reserved": 0, "name": "d82c6310ba42dd86fac6acf97cbf2178", "lon": -77.0051595, "type": "electric_scooter", "bike_id": "d82c6310ba42dd86fac6acf97cbf2178", "fusion_lon": 0.0, "lat": 38.84880733333333, "fusion_lat": 0.0}, {"is_disabled": 0, "rental_uris": {"android": "https://dc.lft.to/lastmile_qr_scan", "ios": "https://dc.lft.to/lastmile_qr_scan"}, "is_reserved": 0, "name": "d3254f3f935004e5ff6a6091a69c2faf", "lon": -77.02192533333333, "type": "electric_scooter", "bike_id": "d3254f3f935004e5ff6a6091a69c2faf", "fusion_lon": 0.0, "lat": 38.9145515, "fusion_lat": 0.0}, {"is_disabled": 0, "rental_uris": {"android": "https://dc.lft.to/lastmile_qr_scan", "ios": "https://dc.lft.to/lastmile_qr_scan"}, "is_reserved": 0, "name": "03eeeda4590d2bfd8cb185042c0401b0", "lon": -77.014304, "type": "electric_scooter", "bike_id": "03eeeda4590d2bfd8cb185042c0401b0", "fusion_lon": 0.0, "lat": 38.87776983333333, "fusion_lat": 0.0}, {"is_disabled": 0, "rental_uris": {"android": "https://dc.lft.to/lastmile_qr_scan", "ios": "https://dc.lft.to/lastmile_qr_scan"}, "is_reserved": 0, "name": "249ca537c86c27f9cede79961a160c95", "lon": -77.038635, "type": "electric_scooter", "bike_id": "249ca537c86c27f9cede79961a160c95", "fusion_lon": 0.0, "lat": 38.917073333333335, "fusion_lat": 0.0}, {"is_disabled": 0, "rental_uris": {"android": "https://dc.lft.to/lastmile_qr_scan", "ios": "https://dc.lft.to/lastmile_qr_scan"}, "is_reserved": 0, "name": "e9eb301523a190e59eb0e96e9e0b73d3", "lon": -77.0138365, "type": "electric_scooter", "bike_id": "e9eb301523a190e59eb0e96e9e0b73d3", "fusion_lon": 0.0, "lat": 38.91009783333333, "fusion_lat": 0.0}, {"is_disabled": 0, "rental_uris": {"android": "https://dc.lft.to/lastmile_qr_scan", "ios": "https://dc.lft.to/lastmile_qr_scan"}, "is_reserved": 0, "name": "a1485cedaa86cea799d11a5c529f53cb", "lon": -77.00432966666666, "type": "electric_scooter", "bike_id": "a1485cedaa86cea799d11a5c529f53cb", "fusion_lon": 0.0, "lat": 38.83810583333333, "fusion_lat": 0.0}, {"is_disabled": 0, "rental_uris": {"android": "https://dc.lft.to/lastmile_qr_scan", "ios": "https://dc.lft.to/lastmile_qr_scan"}, "is_reserved": 0, "name": "1bb46ba9e151c213a0388f5fc938bf5d", "lon": -77.03436433333333, "type": "electric_scooter", "bike_id": "1bb46ba9e151c213a0388f5fc938bf5d", "fusion_lon": 0.0, "lat": 38.907777833333334, "fusion_lat": 0.0}, {"is_disabled": 0, "rental_uris": {"android": "https://dc.lft.to/lastmile_qr_scan", "ios": "https://dc.lft.to/lastmile_qr_scan"}, "is_reserved": 0, "name": "6888ce953fd08aa8e9ed1062ba663775", "lon": -77.0180915, "type": "electric_scooter", "bike_id": "6888ce953fd08aa8e9ed1062ba663775", "fusion_lon": 0.0, "lat": 38.92100816666667, "fusion_lat": 0.0}, {"is_disabled": 0, "rental_uris": {"android": "https://dc.lft.to/lastmile_qr_scan", "ios": "https://dc.lft.to/lastmile_qr_scan"}, "is_reserved": 0, "name": "64563c38cf7a1267a46d4dd01ec1be09", "lon": -76.988115, "type": "electric_scooter", "bike_id": "64563c38cf7a1267a46d4dd01ec1be09", "fusion_lon": 0.0, "lat": 38.90821866666667, "fusion_lat": 0.0}, {"is_disabled": 0, "rental_uris": {"android": "https://dc.lft.to/lastmile_qr_scan", "ios": "https://dc.lft.to/lastmile_qr_scan"}, "is_reserved": 0, "name": "204883bc40380e9761fdb7d1b72481c3", "lon": -76.9849755, "type": "electric_scooter", "bike_id": "204883bc40380e9761fdb7d1b72481c3", "fusion_lon": 0.0, "lat": 38.910063666666666, "fusion_lat": 0.0}, {"is_disabled": 0, "rental_uris": {"android": "https://dc.lft.to/lastmile_qr_scan", "ios": "https://dc.lft.to/lastmile_qr_scan"}, "is_reserved": 0, "name": "be69f6674c6e665cbf10bef8164a4a7e", "lon": -77.0337255, "type": "electric_scooter", "bike_id": "be69f6674c6e665cbf10bef8164a4a7e", "fusion_lon": 0.0, "lat": 38.92863366666667, "fusion_lat": 0.0}, {"is_disabled": 0, "rental_uris": {"android": "https://dc.lft.to/lastmile_qr_scan", "ios": "https://dc.lft.to/lastmile_qr_scan"}, "is_reserved": 0, "name": "1d37c552182d4d1c8204ddf658ec2c6a", "lon": -77.03574633333334, "type": "electric_scooter", "bike_id": "1d37c552182d4d1c8204ddf658ec2c6a", "fusion_lon": 0.0, "lat": 38.93682616666667, "fusion_lat": 0.0}, {"is_disabled": 0, "rental_uris": {"android": "https://dc.lft.to/lastmile_qr_scan", "ios": "https://dc.lft.to/lastmile_qr_scan"}, "is_reserved": 0, "name": "b805c0bd9fa624e1f04d6e7afd3fe15c", "lon": -77.06101016666666, "type": "electric_scooter", "bike_id": "b805c0bd9fa624e1f04d6e7afd3fe15c", "fusion_lon": 0.0, "lat": 38.937052666666666, "fusion_lat": 0.0}, {"is_disabled": 0, "rental_uris": {"android": "https://dc.lft.to/lastmile_qr_scan", "ios": "https://dc.lft.to/lastmile_qr_scan"}, "is_reserved": 0, "name": "d532524234deeefaffafec2c9de14574", "lon": -77.03185333333333, "type": "electric_scooter", "bike_id": "d532524234deeefaffafec2c9de14574", "fusion_lon": 0.0, "lat": 38.91244416666667, "fusion_lat": 0.0}, {"is_disabled": 0, "rental_uris": {"android": "https://dc.lft.to/lastmile_qr_scan", "ios": "https://dc.lft.to/lastmile_qr_scan"}, "is_reserved": 0, "name": "11e5a51f1231381dc31cab0ed3f0e0fa", "lon": -76.91233666666666, "type": "electric_scooter", "bike_id": "11e5a51f1231381dc31cab0ed3f0e0fa", "fusion_lon": 0.0, "lat": 38.893925333333335, "fusion_lat": 0.0}, {"is_disabled": 0, "rental_uris": {"android": "https://dc.lft.to/lastmile_qr_scan", "ios": "https://dc.lft.to/lastmile_qr_scan"}, "is_reserved": 0, "name": "f616ebb542ae1851c3cd2fdc27ccd655", "lon": -77.00736233333333, "type": "electric_scooter", "bike_id": "f616ebb542ae1851c3cd2fdc27ccd655", "fusion_lon": 0.0, "lat": 38.915634833333336, "fusion_lat": 0.0}, {"is_disabled": 0, "rental_uris": {"android": "https://dc.lft.to/lastmile_qr_scan", "ios": "https://dc.lft.to/lastmile_qr_scan"}, "is_reserved": 0, "name": "19e5ced2c158e7761cf987601c099341", "lon": -77.02960016666667, "type": "electric_scooter", "bike_id": "19e5ced2c158e7761cf987601c099341", "fusion_lon": 0.0, "lat": 38.89226, "fusion_lat": 0.0}, {"is_disabled": 0, "rental_uris": {"android": "https://dc.lft.to/lastmile_qr_scan", "ios": "https://dc.lft.to/lastmile_qr_scan"}, "is_reserved": 0, "name": "c10bcf8cd604d95108d06b9e407cef6f", "lon": -77.02413066666666, "type": "electric_scooter", "bike_id": "c10bcf8cd604d95108d06b9e407cef6f", "fusion_lon": 0.0, "lat": 38.9040565, "fusion_lat": 0.0}, {"is_disabled": 0, "rental_uris": {"android": "https://dc.lft.to/lastmile_qr_scan", "ios": "https://dc.lft.to/lastmile_qr_scan"}, "is_reserved": 0, "name": "50c3470b420c3375d68fbb523df2f597", "lon": -77.12627416666666, "type": "electric_bike", "bike_id": "50c3470b420c3375d68fbb523df2f597", "fusion_lon": 0.0, "lat": 39.058124666666664, "fusion_lat": 0.0}, {"is_disabled": 0, "rental_uris": {"android": "https://dc.lft.to/lastmile_qr_scan", "ios": "https://dc.lft.to/lastmile_qr_scan"}, "is_reserved": 0, "name": "4a511a5d03321cf550ed75c9f03de6c8", "lon": -77.06151566666666, "type": "electric_scooter", "bike_id": "4a511a5d03321cf550ed75c9f03de6c8", "fusion_lon": 0.0, "lat": 38.90519233333333, "fusion_lat": 0.0}, {"is_disabled": 0, "rental_uris": {"android": "https://dc.lft.to/lastmile_qr_scan", "ios": "https://dc.lft.to/lastmile_qr_scan"}, "is_reserved": 0, "name": "f501ce3eed04d37af43abe31042eda56", "lon": -77.0222595, "type": "electric_scooter", "bike_id": "f501ce3eed04d37af43abe31042eda56", "fusion_lon": 0.0, "lat": 38.8874705, "fusion_lat": 0.0}, {"is_disabled": 0, "rental_uris": {"android": "https://dc.lft.to/lastmile_qr_scan", "ios": "https://dc.lft.to/lastmile_qr_scan"}, "is_reserved": 0, "name": "88e49d93374ea4366f36a59338e566f7", "lon": -77.02123616666667, "type": "electric_scooter", "bike_id": "88e49d93374ea4366f36a59338e566f7", "fusion_lon": 0.0, "lat": 38.887452833333334, "fusion_lat": 0.0}, {"is_disabled": 0, "rental_uris": {"android": "https://dc.lft.to/lastmile_qr_scan", "ios": "https://dc.lft.to/lastmile_qr_scan"}, "is_reserved": 0, "name": "352eda895c1c3ab76cb6048466b7d52a", "lon": -77.00532433333333, "type": "electric_scooter", "bike_id": "352eda895c1c3ab76cb6048466b7d52a", "fusion_lon": 0.0, "lat": 38.929697166666664, "fusion_lat": 0.0}, {"is_disabled": 0, "rental_uris": {"android": "https://dc.lft.to/lastmile_qr_scan", "ios": "https://dc.lft.to/lastmile_qr_scan"}, "is_reserved": 0, "name": "e67ca8d9a2ab802d444f7a6d3bc498ad", "lon": -77.03525666666667, "type": "electric_scooter", "bike_id": "e67ca8d9a2ab802d444f7a6d3bc498ad", "fusion_lon": 0.0, "lat": 38.9272865, "fusion_lat": 0.0}, {"is_disabled": 0, "rental_uris": {"android": "https://dc.lft.to/lastmile_qr_scan", "ios": "https://dc.lft.to/lastmile_qr_scan"}, "is_reserved": 0, "name": "8808e53b73fdcda0aa260926f68e81ad", "lon": -77.17521083333334, "type": "electric_bike", "bike_id": "8808e53b73fdcda0aa260926f68e81ad", "fusion_lon": 0.0, "lat": 39.095984, "fusion_lat": 0.0}, {"is_disabled": 0, "rental_uris": {"android": "https://dc.lft.to/lastmile_qr_scan", "ios": "https://dc.lft.to/lastmile_qr_scan"}, "is_reserved": 0, "name": "1b8200fe95c654ddd9b68d9a20453609", "lon": -77.0033415, "type": "electric_scooter", "bike_id": "1b8200fe95c654ddd9b68d9a20453609", "fusion_lon": 0.0, "lat": 38.893552666666665, "fusion_lat": 0.0}, {"is_disabled": 0, "rental_uris": {"android": "https://dc.lft.to/lastmile_qr_scan", "ios": "https://dc.lft.to/lastmile_qr_scan"}, "is_reserved": 0, "name": "4aaa876ec428a83b9a8e6b275950a604", "lon": -77.00421033333333, "type": "electric_scooter", "bike_id": "4aaa876ec428a83b9a8e6b275950a604", "fusion_lon": 0.0, "lat": 38.876506, "fusion_lat": 0.0}, {"is_disabled": 0, "rental_uris": {"android": "https://dc.lft.to/lastmile_qr_scan", "ios": "https://dc.lft.to/lastmile_qr_scan"}, "is_reserved": 0, "name": "d187ec257e5062084b38f8ad04906438", "lon": -77.03319516666667, "type": "electric_scooter", "bike_id": "d187ec257e5062084b38f8ad04906438", "fusion_lon": 0.0, "lat": 38.9162315, "fusion_lat": 0.0}, {"is_disabled": 0, "rental_uris": {"android": "https://dc.lft.to/lastmile_qr_scan", "ios": "https://dc.lft.to/lastmile_qr_scan"}, "is_reserved": 0, "name": "ec711d0694273f4a93c9ec3d3380d02c", "lon": -77.02473883333333, "type": "electric_scooter", "bike_id": "ec711d0694273f4a93c9ec3d3380d02c", "fusion_lon": 0.0, "lat": 38.88509066666667, "fusion_lat": 0.0}, {"is_disabled": 0, "rental_uris": {"android": "https://dc.lft.to/lastmile_qr_scan", "ios": "https://dc.lft.to/lastmile_qr_scan"}, "is_reserved": 0, "name": "62c22d6b5270d29b32df1cec17b73ee3", "lon": -77.06605966666666, "type": "electric_scooter", "bike_id": "62c22d6b5270d29b32df1cec17b73ee3", "fusion_lon": 0.0, "lat": 38.907404166666666, "fusion_lat": 0.0}, {"is_disabled": 0, "rental_uris": {"android": "https://dc.lft.to/lastmile_qr_scan", "ios": "https://dc.lft.to/lastmile_qr_scan"}, "is_reserved": 0, "name": "9443bcc3cd924aec3743c0568d8cb6e2", "lon": -76.99932766666667, "type": "electric_scooter", "bike_id": "9443bcc3cd924aec3743c0568d8cb6e2", "fusion_lon": 0.0, "lat": 38.932308, "fusion_lat": 0.0}, {"is_disabled": 0, "rental_uris": {"android": "https://dc.lft.to/lastmile_qr_scan", "ios": "https://dc.lft.to/lastmile_qr_scan"}, "is_reserved": 0, "name": "c74186eb49449f45db8def5cc103707e", "lon": -76.98798, "type": "electric_bike", "bike_id": "c74186eb49449f45db8def5cc103707e", "fusion_lon": 0.0, "lat": 38.9221425, "fusion_lat": 0.0}, {"is_disabled": 0, "rental_uris": {"android": "https://dc.lft.to/lastmile_qr_scan", "ios": "https://dc.lft.to/lastmile_qr_scan"}, "is_reserved": 0, "name": "e7e107936ab5eae28fa8b26d957ba8e8", "lon": -77.02168466666667, "type": "electric_scooter", "bike_id": "e7e107936ab5eae28fa8b26d957ba8e8", "fusion_lon": 0.0, "lat": 38.94292, "fusion_lat": 0.0}, {"is_disabled": 0, "rental_uris": {"android": "https://dc.lft.to/lastmile_qr_scan", "ios": "https://dc.lft.to/lastmile_qr_scan"}, "is_reserved": 0, "name": "e19583f0f65eb6b158c766ae0e8329bf", "lon": -77.13232466666666, "type": "electric_bike", "bike_id": "e19583f0f65eb6b158c766ae0e8329bf", "fusion_lon": 0.0, "lat": 38.869733, "fusion_lat": 0.0}, {"is_disabled": 0, "rental_uris": {"android": "https://dc.lft.to/lastmile_qr_scan", "ios": "https://dc.lft.to/lastmile_qr_scan"}, "is_reserved": 0, "name": "d2c5ed074e959a585a8d770b0785b178", "lon": -77.00568566666666, "type": "electric_scooter", "bike_id": "d2c5ed074e959a585a8d770b0785b178", "fusion_lon": 0.0, "lat": 38.87897916666667, "fusion_lat": 0.0}, {"is_disabled": 0, "rental_uris": {"android": "https://dc.lft.to/lastmile_qr_scan", "ios": "https://dc.lft.to/lastmile_qr_scan"}, "is_reserved": 0, "name": "4929610773a7dc23b29035f4b32fbf10", "lon": -77.02293833333333, "type": "electric_scooter", "bike_id": "4929610773a7dc23b29035f4b32fbf10", "fusion_lon": 0.0, "lat": 38.91784, "fusion_lat": 0.0}, {"is_disabled": 0, "rental_uris": {"android": "https://dc.lft.to/lastmile_qr_scan", "ios": "https://dc.lft.to/lastmile_qr_scan"}, "is_reserved": 0, "name": "f26e07a8d85f0a879811c485a1b10ee6", "lon": -77.00050383333334, "type": "electric_scooter", "bike_id": "f26e07a8d85f0a879811c485a1b10ee6", "fusion_lon": 0.0, "lat": 38.92082516666667, "fusion_lat": 0.0}, {"is_disabled": 0, "rental_uris": {"android": "https://dc.lft.to/lastmile_qr_scan", "ios": "https://dc.lft.to/lastmile_qr_scan"}, "is_reserved": 0, "name": "2bd003a787ea7aa2ecb6074de781faad", "lon": -76.9906405, "type": "electric_scooter", "bike_id": "2bd003a787ea7aa2ecb6074de781faad", "fusion_lon": 0.0, "lat": 38.86355983333333, "fusion_lat": 0.0}, {"is_disabled": 0, "rental_uris": {"android": "https://dc.lft.to/lastmile_qr_scan", "ios": "https://dc.lft.to/lastmile_qr_scan"}, "is_reserved": 0, "name": "0f3e3290bab62f56807c9fcdaf8a5df9", "lon": -76.99055883333334, "type": "electric_bike", "bike_id": "0f3e3290bab62f56807c9fcdaf8a5df9", "fusion_lon": 0.0, "lat": 38.88219, "fusion_lat": 0.0}, {"is_disabled": 0, "rental_uris": {"android": "https://dc.lft.to/lastmile_qr_scan", "ios": "https://dc.lft.to/lastmile_qr_scan"}, "is_reserved": 0, "name": "c665368573a8897a417a3ac25afaac98", "lon": -76.98076783333333, "type": "electric_scooter", "bike_id": "c665368573a8897a417a3ac25afaac98", "fusion_lon": 0.0, "lat": 38.93648533333333, "fusion_lat": 0.0}, {"is_disabled": 0, "rental_uris": {"android": "https://dc.lft.to/lastmile_qr_scan", "ios": "https://dc.lft.to/lastmile_qr_scan"}, "is_reserved": 0, "name": "97cc85fc1cbad4080f139d14de431488", "lon": -76.96552216666667, "type": "electric_scooter", "bike_id": "97cc85fc1cbad4080f139d14de431488", "fusion_lon": 0.0, "lat": 38.9183215, "fusion_lat": 0.0}, {"is_disabled": 0, "rental_uris": {"android": "https://dc.lft.to/lastmile_qr_scan", "ios": "https://dc.lft.to/lastmile_qr_scan"}, "is_reserved": 0, "name": "6dcec56c74485b928c037e7188b78ef0", "lon": -77.02971616666666, "type": "electric_scooter", "bike_id": "6dcec56c74485b928c037e7188b78ef0", "fusion_lon": 0.0, "lat": 38.912332166666666, "fusion_lat": 0.0}, {"is_disabled": 0, "rental_uris": {"android": "https://dc.lft.to/lastmile_qr_scan", "ios": "https://dc.lft.to/lastmile_qr_scan"}, "is_reserved": 0, "name": "7c199c4f4ed461b6b026de091ad23860", "lon": -77.03440066666667, "type": "electric_scooter", "bike_id": "7c199c4f4ed461b6b026de091ad23860", "fusion_lon": 0.0, "lat": 38.91007066666667, "fusion_lat": 0.0}, {"is_disabled": 0, "rental_uris": {"android": "https://dc.lft.to/lastmile_qr_scan", "ios": "https://dc.lft.to/lastmile_qr_scan"}, "is_reserved": 0, "name": "4eb203e9ce272552063dd18fc656ca4d", "lon": -77.03300433333334, "type": "electric_scooter", "bike_id": "4eb203e9ce272552063dd18fc656ca4d", "fusion_lon": 0.0, "lat": 38.933939333333335, "fusion_lat": 0.0}, {"is_disabled": 0, "rental_uris": {"android": "https://dc.lft.to/lastmile_qr_scan", "ios": "https://dc.lft.to/lastmile_qr_scan"}, "is_reserved": 0, "name": "dfd35cf0848ad032a8ad0a9a6e0c30e0", "lon": -77.07300083333334, "type": "electric_scooter", "bike_id": "dfd35cf0848ad032a8ad0a9a6e0c30e0", "fusion_lon": 0.0, "lat": 38.92280566666667, "fusion_lat": 0.0}, {"is_disabled": 0, "rental_uris": {"android": "https://dc.lft.to/lastmile_qr_scan", "ios": "https://dc.lft.to/lastmile_qr_scan"}, "is_reserved": 0, "name": "3bf388d4160f2a92898d00674eb5ee36", "lon": -77.0145475, "type": "electric_scooter", "bike_id": "3bf388d4160f2a92898d00674eb5ee36", "fusion_lon": 0.0, "lat": 38.92990116666667, "fusion_lat": 0.0}, {"is_disabled": 0, "rental_uris": {"android": "https://dc.lft.to/lastmile_qr_scan", "ios": "https://dc.lft.to/lastmile_qr_scan"}, "is_reserved": 0, "name": "76953cb0ea1f35b9a092a15a052a2bbe", "lon": -77.023712, "type": "electric_scooter", "bike_id": "76953cb0ea1f35b9a092a15a052a2bbe", "fusion_lon": 0.0, "lat": 38.89846566666667, "fusion_lat": 0.0}, {"is_disabled": 0, "rental_uris": {"android": "https://dc.lft.to/lastmile_qr_scan", "ios": "https://dc.lft.to/lastmile_qr_scan"}, "is_reserved": 0, "name": "afdf3da9fbdf744d2433cc5ed8f44827", "lon": -77.0114435, "type": "electric_scooter", "bike_id": "afdf3da9fbdf744d2433cc5ed8f44827", "fusion_lon": 0.0, "lat": 38.92028466666667, "fusion_lat": 0.0}, {"is_disabled": 0, "rental_uris": {"android": "https://dc.lft.to/lastmile_qr_scan", "ios": "https://dc.lft.to/lastmile_qr_scan"}, "is_reserved": 0, "name": "ae8893ab0a9d13fe28d229fae1ab6f8b", "lon": -77.01739866666667, "type": "electric_scooter", "bike_id": "ae8893ab0a9d13fe28d229fae1ab6f8b", "fusion_lon": 0.0, "lat": 38.91444516666667, "fusion_lat": 0.0}, {"is_disabled": 0, "rental_uris": {"android": "https://dc.lft.to/lastmile_qr_scan", "ios": "https://dc.lft.to/lastmile_qr_scan"}, "is_reserved": 0, "name": "fd7cf98c4bd948a30ae9f5be2f254c9d", "lon": -76.9955435, "type": "electric_scooter", "bike_id": "fd7cf98c4bd948a30ae9f5be2f254c9d", "fusion_lon": 0.0, "lat": 38.88385483333333, "fusion_lat": 0.0}, {"is_disabled": 0, "rental_uris": {"android": "https://dc.lft.to/lastmile_qr_scan", "ios": "https://dc.lft.to/lastmile_qr_scan"}, "is_reserved": 0, "name": "9b3ea803a9718bfb5b8cfc4459c545a5", "lon": -77.03182766666667, "type": "electric_scooter", "bike_id": "9b3ea803a9718bfb5b8cfc4459c545a5", "fusion_lon": 0.0, "lat": 38.930650666666665, "fusion_lat": 0.0}, {"is_disabled": 0, "rental_uris": {"android": "https://dc.lft.to/lastmile_qr_scan", "ios": "https://dc.lft.to/lastmile_qr_scan"}, "is_reserved": 0, "name": "0eaec3f5db04baca1d8786b8fc39100e", "lon": -77.00645766666666, "type": "electric_bike", "bike_id": "0eaec3f5db04baca1d8786b8fc39100e", "fusion_lon": 0.0, "lat": 38.9447285, "fusion_lat": 0.0}, {"is_disabled": 0, "rental_uris": {"android": "https://dc.lft.to/lastmile_qr_scan", "ios": "https://dc.lft.to/lastmile_qr_scan"}, "is_reserved": 0, "name": "2d7fea37b12ab807e55df3ad1c28f75e", "lon": -76.99953266666667, "type": "electric_scooter", "bike_id": "2d7fea37b12ab807e55df3ad1c28f75e", "fusion_lon": 0.0, "lat": 38.90337933333333, "fusion_lat": 0.0}, {"is_disabled": 0, "rental_uris": {"android": "https://dc.lft.to/lastmile_qr_scan", "ios": "https://dc.lft.to/lastmile_qr_scan"}, "is_reserved": 0, "name": "117d3a8eb78870f4190a8787530b4f80", "lon": -77.058326, "type": "electric_scooter", "bike_id": "117d3a8eb78870f4190a8787530b4f80", "fusion_lon": 0.0, "lat": 38.934303, "fusion_lat": 0.0}, {"is_disabled": 0, "rental_uris": {"android": "https://dc.lft.to/lastmile_qr_scan", "ios": "https://dc.lft.to/lastmile_qr_scan"}, "is_reserved": 0, "name": "5ef4d05f3ce184ee6db288f4c65e3bf6", "lon": -77.03877216666666, "type": "electric_scooter", "bike_id": "5ef4d05f3ce184ee6db288f4c65e3bf6", "fusion_lon": 0.0, "lat": 38.934304833333336, "fusion_lat": 0.0}, {"is_disabled": 0, "rental_uris": {"android": "https://dc.lft.to/lastmile_qr_scan", "ios": "https://dc.lft.to/lastmile_qr_scan"}, "is_reserved": 0, "name": "07ab3a768dddea6a412e9fe1b9d17bd6", "lon": -77.05573716666666, "type": "electric_scooter", "bike_id": "07ab3a768dddea6a412e9fe1b9d17bd6", "fusion_lon": 0.0, "lat": 38.899657166666664, "fusion_lat": 0.0}, {"is_disabled": 0, "rental_uris": {"android": "https://dc.lft.to/lastmile_qr_scan", "ios": "https://dc.lft.to/lastmile_qr_scan"}, "is_reserved": 0, "name": "53d5a99c2e77624c1f61007ad26f07aa", "lon": -76.99395766666666, "type": "electric_scooter", "bike_id": "53d5a99c2e77624c1f61007ad26f07aa", "fusion_lon": 0.0, "lat": 38.921637, "fusion_lat": 0.0}, {"is_disabled": 0, "rental_uris": {"android": "https://dc.lft.to/lastmile_qr_scan", "ios": "https://dc.lft.to/lastmile_qr_scan"}, "is_reserved": 0, "name": "7df011bbc1c7be5f1024e2c7517e884e", "lon": -77.10733933333333, "type": "electric_bike", "bike_id": "7df011bbc1c7be5f1024e2c7517e884e", "fusion_lon": 0.0, "lat": 38.8553965, "fusion_lat": 0.0}, {"is_disabled": 0, "rental_uris": {"android": "https://dc.lft.to/lastmile_qr_scan", "ios": "https://dc.lft.to/lastmile_qr_scan"}, "is_reserved": 0, "name": "25162bb7cdc1856ee8fa8c7b7b694d39", "lon": -77.0510505, "type": "electric_bike", "bike_id": "25162bb7cdc1856ee8fa8c7b7b694d39", "fusion_lon": 0.0, "lat": 38.945529666666665, "fusion_lat": 0.0}, {"is_disabled": 0, "rental_uris": {"android": "https://dc.lft.to/lastmile_qr_scan", "ios": "https://dc.lft.to/lastmile_qr_scan"}, "is_reserved": 0, "name": "217d6e47ff2f1e6afb6babc34bfa59f1", "lon": -77.0282825, "type": "electric_scooter", "bike_id": "217d6e47ff2f1e6afb6babc34bfa59f1", "fusion_lon": 0.0, "lat": 38.91416133333333, "fusion_lat": 0.0}, {"is_disabled": 0, "rental_uris": {"android": "https://dc.lft.to/lastmile_qr_scan", "ios": "https://dc.lft.to/lastmile_qr_scan"}, "is_reserved": 0, "name": "9f2ba2d3b151b22ac63b34e8c514ca63", "lon": -76.94720116666667, "type": "electric_scooter", "bike_id": "9f2ba2d3b151b22ac63b34e8c514ca63", "fusion_lon": 0.0, "lat": 38.897043833333335, "fusion_lat": 0.0}, {"is_disabled": 0, "rental_uris": {"android": "https://dc.lft.to/lastmile_qr_scan", "ios": "https://dc.lft.to/lastmile_qr_scan"}, "is_reserved": 0, "name": "3513e59077864e40b921667e35d4fe48", "lon": -77.01644433333334, "type": "electric_scooter", "bike_id": "3513e59077864e40b921667e35d4fe48", "fusion_lon": 0.0, "lat": 38.87634116666667, "fusion_lat": 0.0}, {"is_disabled": 0, "rental_uris": {"android": "https://dc.lft.to/lastmile_qr_scan", "ios": "https://dc.lft.to/lastmile_qr_scan"}, "is_reserved": 0, "name": "fc9cb3831b026ab36f4476f697a20d5b", "lon": -77.00566366666666, "type": "electric_scooter", "bike_id": "fc9cb3831b026ab36f4476f697a20d5b", "fusion_lon": 0.0, "lat": 38.8850255, "fusion_lat": 0.0}, {"is_disabled": 0, "rental_uris": {"android": "https://dc.lft.to/lastmile_qr_scan", "ios": "https://dc.lft.to/lastmile_qr_scan"}, "is_reserved": 0, "name": "8d7114bb303f1630a484f3d4ba2dd2ea", "lon": -77.03633683333334, "type": "electric_scooter", "bike_id": "8d7114bb303f1630a484f3d4ba2dd2ea", "fusion_lon": 0.0, "lat": 38.95630666666667, "fusion_lat": 0.0}, {"is_disabled": 0, "rental_uris": {"android": "https://dc.lft.to/lastmile_qr_scan", "ios": "https://dc.lft.to/lastmile_qr_scan"}, "is_reserved": 0, "name": "abd7b873c45075b38233b390d6f023c7", "lon": -77.03394866666666, "type": "electric_scooter", "bike_id": "abd7b873c45075b38233b390d6f023c7", "fusion_lon": 0.0, "lat": 38.919158, "fusion_lat": 0.0}, {"is_disabled": 0, "rental_uris": {"android": "https://dc.lft.to/lastmile_qr_scan", "ios": "https://dc.lft.to/lastmile_qr_scan"}, "is_reserved": 0, "name": "a4148b2b256b3fbe80f8146e41b62db6", "lon": -77.060124, "type": "electric_scooter", "bike_id": "a4148b2b256b3fbe80f8146e41b62db6", "fusion_lon": 0.0, "lat": 38.90532133333333, "fusion_lat": 0.0}, {"is_disabled": 0, "rental_uris": {"android": "https://dc.lft.to/lastmile_qr_scan", "ios": "https://dc.lft.to/lastmile_qr_scan"}, "is_reserved": 0, "name": "5fa6314c0ad9a37f52e377ce71302828", "lon": -77.03456066666666, "type": "electric_scooter", "bike_id": "5fa6314c0ad9a37f52e377ce71302828", "fusion_lon": 0.0, "lat": 38.92151466666667, "fusion_lat": 0.0}, {"is_disabled": 0, "rental_uris": {"android": "https://dc.lft.to/lastmile_qr_scan", "ios": "https://dc.lft.to/lastmile_qr_scan"}, "is_reserved": 0, "name": "53593fba95a333a05d1ebcaad0c7c21a", "lon": -77.04385583333334, "type": "electric_scooter", "bike_id": "53593fba95a333a05d1ebcaad0c7c21a", "fusion_lon": 0.0, "lat": 38.91050366666666, "fusion_lat": 0.0}, {"is_disabled": 0, "rental_uris": {"android": "https://dc.lft.to/lastmile_qr_scan", "ios": "https://dc.lft.to/lastmile_qr_scan"}, "is_reserved": 0, "name": "dcbfeb108fe223e19c97980c85a06355", "lon": -77.03786066666666, "type": "electric_scooter", "bike_id": "dcbfeb108fe223e19c97980c85a06355", "fusion_lon": 0.0, "lat": 38.93024233333333, "fusion_lat": 0.0}, {"is_disabled": 0, "rental_uris": {"android": "https://dc.lft.to/lastmile_qr_scan", "ios": "https://dc.lft.to/lastmile_qr_scan"}, "is_reserved": 0, "name": "0d13d44f50249d025d2b755635460534", "lon": -77.02970333333333, "type": "electric_scooter", "bike_id": "0d13d44f50249d025d2b755635460534", "fusion_lon": 0.0, "lat": 38.904329833333335, "fusion_lat": 0.0}, {"is_disabled": 0, "rental_uris": {"android": "https://dc.lft.to/lastmile_qr_scan", "ios": "https://dc.lft.to/lastmile_qr_scan"}, "is_reserved": 0, "name": "23ff68e445a5dacba64bf5f31dbcbd59", "lon": -77.03264866666666, "type": "electric_scooter", "bike_id": "23ff68e445a5dacba64bf5f31dbcbd59", "fusion_lon": 0.0, "lat": 38.93327683333333, "fusion_lat": 0.0}, {"is_disabled": 0, "rental_uris": {"android": "https://dc.lft.to/lastmile_qr_scan", "ios": "https://dc.lft.to/lastmile_qr_scan"}, "is_reserved": 0, "name": "7542f8c3e5fbea66a4372e43dedd4f54", "lon": -77.0327545, "type": "electric_scooter", "bike_id": "7542f8c3e5fbea66a4372e43dedd4f54", "fusion_lon": 0.0, "lat": 38.92845466666667, "fusion_lat": 0.0}, {"is_disabled": 0, "rental_uris": {"android": "https://dc.lft.to/lastmile_qr_scan", "ios": "https://dc.lft.to/lastmile_qr_scan"}, "is_reserved": 0, "name": "dfec7c0477822e06b8f5708f2805aa93", "lon": -76.9919825, "type": "electric_scooter", "bike_id": "dfec7c0477822e06b8f5708f2805aa93", "fusion_lon": 0.0, "lat": 38.88970583333333, "fusion_lat": 0.0}, {"is_disabled": 0, "rental_uris": {"android": "https://dc.lft.to/lastmile_qr_scan", "ios": "https://dc.lft.to/lastmile_qr_scan"}, "is_reserved": 0, "name": "884d976954afd0085d3c929afcccf1be", "lon": -76.99286616666667, "type": "electric_bike", "bike_id": "884d976954afd0085d3c929afcccf1be", "fusion_lon": 0.0, "lat": 38.858377833333336, "fusion_lat": 0.0}, {"is_disabled": 0, "rental_uris": {"android": "https://dc.lft.to/lastmile_qr_scan", "ios": "https://dc.lft.to/lastmile_qr_scan"}, "is_reserved": 0, "name": "1742f8d9f06342aff118eac15a21ed46", "lon": -77.09440283333333, "type": "electric_scooter", "bike_id": "1742f8d9f06342aff118eac15a21ed46", "fusion_lon": 0.0, "lat": 38.91792066666667, "fusion_lat": 0.0}, {"is_disabled": 0, "rental_uris": {"android": "https://dc.lft.to/lastmile_qr_scan", "ios": "https://dc.lft.to/lastmile_qr_scan"}, "is_reserved": 0, "name": "94e83b5f7a28825cd96c9550a956c74f", "lon": -76.9830095, "type": "electric_scooter", "bike_id": "94e83b5f7a28825cd96c9550a956c74f", "fusion_lon": 0.0, "lat": 38.903741333333336, "fusion_lat": 0.0}, {"is_disabled": 0, "rental_uris": {"android": "https://dc.lft.to/lastmile_qr_scan", "ios": "https://dc.lft.to/lastmile_qr_scan"}, "is_reserved": 0, "name": "f168eff6a9b15cdac5aaea6ce4654d27", "lon": -77.01016183333333, "type": "electric_scooter", "bike_id": "f168eff6a9b15cdac5aaea6ce4654d27", "fusion_lon": 0.0, "lat": 38.918143, "fusion_lat": 0.0}, {"is_disabled": 0, "rental_uris": {"android": "https://dc.lft.to/lastmile_qr_scan", "ios": "https://dc.lft.to/lastmile_qr_scan"}, "is_reserved": 0, "name": "c190d96fb888380c057d3aea089f298d", "lon": -77.02477616666667, "type": "electric_scooter", "bike_id": "c190d96fb888380c057d3aea089f298d", "fusion_lon": 0.0, "lat": 38.8842205, "fusion_lat": 0.0}, {"is_disabled": 0, "rental_uris": {"android": "https://dc.lft.to/lastmile_qr_scan", "ios": "https://dc.lft.to/lastmile_qr_scan"}, "is_reserved": 0, "name": "ea05d3cdcc076a29086a8aac296c5b67", "lon": -77.02716466666666, "type": "electric_scooter", "bike_id": "ea05d3cdcc076a29086a8aac296c5b67", "fusion_lon": 0.0, "lat": 38.91767316666667, "fusion_lat": 0.0}, {"is_disabled": 0, "rental_uris": {"android": "https://dc.lft.to/lastmile_qr_scan", "ios": "https://dc.lft.to/lastmile_qr_scan"}, "is_reserved": 0, "name": "489eb36eb73109b7b195a1137fd3dcc4", "lon": -76.98833533333334, "type": "electric_scooter", "bike_id": "489eb36eb73109b7b195a1137fd3dcc4", "fusion_lon": 0.0, "lat": 38.8985195, "fusion_lat": 0.0}, {"is_disabled": 0, "rental_uris": {"android": "https://dc.lft.to/lastmile_qr_scan", "ios": "https://dc.lft.to/lastmile_qr_scan"}, "is_reserved": 0, "name": "e829836489ec8027d1d1374f472bb2ba", "lon": -77.01522633333333, "type": "electric_scooter", "bike_id": "e829836489ec8027d1d1374f472bb2ba", "fusion_lon": 0.0, "lat": 38.8954105, "fusion_lat": 0.0}, {"is_disabled": 0, "rental_uris": {"android": "https://dc.lft.to/lastmile_qr_scan", "ios": "https://dc.lft.to/lastmile_qr_scan"}, "is_reserved": 0, "name": "6707bbe2ecd89a51aa39d8286efc9f56", "lon": -77.03470966666667, "type": "electric_scooter", "bike_id": "6707bbe2ecd89a51aa39d8286efc9f56", "fusion_lon": 0.0, "lat": 38.91706533333333, "fusion_lat": 0.0}, {"is_disabled": 0, "rental_uris": {"android": "https://dc.lft.to/lastmile_qr_scan", "ios": "https://dc.lft.to/lastmile_qr_scan"}, "is_reserved": 0, "name": "d5944e28f10aaafb3c25f44ee13839a0", "lon": -77.10104466666667, "type": "electric_bike", "bike_id": "d5944e28f10aaafb3c25f44ee13839a0", "fusion_lon": 0.0, "lat": 38.850385333333335, "fusion_lat": 0.0}, {"is_disabled": 0, "rental_uris": {"android": "https://dc.lft.to/lastmile_qr_scan", "ios": "https://dc.lft.to/lastmile_qr_scan"}, "is_reserved": 0, "name": "513c9032ac4f9ed66c9f48eb0260add9", "lon": -76.949447, "type": "electric_scooter", "bike_id": "513c9032ac4f9ed66c9f48eb0260add9", "fusion_lon": 0.0, "lat": 38.8832075, "fusion_lat": 0.0}, {"is_disabled": 0, "rental_uris": {"android": "https://dc.lft.to/lastmile_qr_scan", "ios": "https://dc.lft.to/lastmile_qr_scan"}, "is_reserved": 0, "name": "640a84b2cfdd5c80858479c430894e38", "lon": -77.04328916666667, "type": "electric_scooter", "bike_id": "640a84b2cfdd5c80858479c430894e38", "fusion_lon": 0.0, "lat": 38.923345166666664, "fusion_lat": 0.0}, {"is_disabled": 0, "rental_uris": {"android": "https://dc.lft.to/lastmile_qr_scan", "ios": "https://dc.lft.to/lastmile_qr_scan"}, "is_reserved": 0, "name": "00c3a15c5fa7b5539bb828b0fd9ee9f6", "lon": -77.02733, "type": "electric_scooter", "bike_id": "00c3a15c5fa7b5539bb828b0fd9ee9f6", "fusion_lon": 0.0, "lat": 38.92868816666667, "fusion_lat": 0.0}, {"is_disabled": 0, "rental_uris": {"android": "https://dc.lft.to/lastmile_qr_scan", "ios": "https://dc.lft.to/lastmile_qr_scan"}, "is_reserved": 0, "name": "1d1201d1e68b26f2b88a510deac3ecf9", "lon": -76.99672083333333, "type": "electric_scooter", "bike_id": "1d1201d1e68b26f2b88a510deac3ecf9", "fusion_lon": 0.0, "lat": 38.86088983333333, "fusion_lat": 0.0}, {"is_disabled": 0, "rental_uris": {"android": "https://dc.lft.to/lastmile_qr_scan", "ios": "https://dc.lft.to/lastmile_qr_scan"}, "is_reserved": 0, "name": "e76fb6497f69a5a05d7cb484032ab203", "lon": -77.02983716666667, "type": "electric_scooter", "bike_id": "e76fb6497f69a5a05d7cb484032ab203", "fusion_lon": 0.0, "lat": 38.898202, "fusion_lat": 0.0}, {"is_disabled": 0, "rental_uris": {"android": "https://dc.lft.to/lastmile_qr_scan", "ios": "https://dc.lft.to/lastmile_qr_scan"}, "is_reserved": 0, "name": "ae1092dc6eaae0faa885ffc5364d00c1", "lon": -76.9939695, "type": "electric_scooter", "bike_id": "ae1092dc6eaae0faa885ffc5364d00c1", "fusion_lon": 0.0, "lat": 38.92116083333333, "fusion_lat": 0.0}, {"is_disabled": 0, "rental_uris": {"android": "https://dc.lft.to/lastmile_qr_scan", "ios": "https://dc.lft.to/lastmile_qr_scan"}, "is_reserved": 0, "name": "84521c25fb7f48ab864250ab93368388", "lon": -77.03518366666667, "type": "electric_scooter", "bike_id": "84521c25fb7f48ab864250ab93368388", "fusion_lon": 0.0, "lat": 38.92234033333333, "fusion_lat": 0.0}, {"is_disabled": 0, "rental_uris": {"android": "https://dc.lft.to/lastmile_qr_scan", "ios": "https://dc.lft.to/lastmile_qr_scan"}, "is_reserved": 0, "name": "2dea56c0f30c7f8ee15f868b18d179f5", "lon": -76.99010283333334, "type": "electric_scooter", "bike_id": "2dea56c0f30c7f8ee15f868b18d179f5", "fusion_lon": 0.0, "lat": 38.865069166666665, "fusion_lat": 0.0}, {"is_disabled": 0, "rental_uris": {"android": "https://dc.lft.to/lastmile_qr_scan", "ios": "https://dc.lft.to/lastmile_qr_scan"}, "is_reserved": 0, "name": "8e7b73445b9aa2ca4ab9fcbc0c8df0ea", "lon": -76.94993816666667, "type": "electric_scooter", "bike_id": "8e7b73445b9aa2ca4ab9fcbc0c8df0ea", "fusion_lon": 0.0, "lat": 38.89396383333333, "fusion_lat": 0.0}, {"is_disabled": 0, "rental_uris": {"android": "https://dc.lft.to/lastmile_qr_scan", "ios": "https://dc.lft.to/lastmile_qr_scan"}, "is_reserved": 0, "name": "8ba9c89ee2e8fe8af7f3cd2c055d5c19", "lon": -77.05399916666667, "type": "electric_scooter", "bike_id": "8ba9c89ee2e8fe8af7f3cd2c055d5c19", "fusion_lon": 0.0, "lat": 38.9052815, "fusion_lat": 0.0}, {"is_disabled": 0, "rental_uris": {"android": "https://dc.lft.to/lastmile_qr_scan", "ios": "https://dc.lft.to/lastmile_qr_scan"}, "is_reserved": 0, "name": "258f78f314dfc1801c476d8c9b3b3dde", "lon": -76.96554566666667, "type": "electric_scooter", "bike_id": "258f78f314dfc1801c476d8c9b3b3dde", "fusion_lon": 0.0, "lat": 38.918346166666666, "fusion_lat": 0.0}, {"is_disabled": 0, "rental_uris": {"android": "https://dc.lft.to/lastmile_qr_scan", "ios": "https://dc.lft.to/lastmile_qr_scan"}, "is_reserved": 0, "name": "476ef81b2a58ea790edd7e9d6096ed85", "lon": -77.04167733333334, "type": "electric_scooter", "bike_id": "476ef81b2a58ea790edd7e9d6096ed85", "fusion_lon": 0.0, "lat": 38.90840133333333, "fusion_lat": 0.0}, {"is_disabled": 0, "rental_uris": {"android": "https://dc.lft.to/lastmile_qr_scan", "ios": "https://dc.lft.to/lastmile_qr_scan"}, "is_reserved": 0, "name": "78be516f2f1bbe642f33e03e99f63ea9", "lon": -77.0911895, "type": "electric_bike", "bike_id": "78be516f2f1bbe642f33e03e99f63ea9", "fusion_lon": 0.0, "lat": 38.88848633333333, "fusion_lat": 0.0}, {"is_disabled": 0, "rental_uris": {"android": "https://dc.lft.to/lastmile_qr_scan", "ios": "https://dc.lft.to/lastmile_qr_scan"}, "is_reserved": 0, "name": "21a768c7c385c52caeee33e471c33033", "lon": -76.98969016666666, "type": "electric_scooter", "bike_id": "21a768c7c385c52caeee33e471c33033", "fusion_lon": 0.0, "lat": 38.9024495, "fusion_lat": 0.0}, {"is_disabled": 0, "rental_uris": {"android": "https://dc.lft.to/lastmile_qr_scan", "ios": "https://dc.lft.to/lastmile_qr_scan"}, "is_reserved": 0, "name": "78bdad4c6de6b10c1868667d32ef945b", "lon": -77.0042175, "type": "electric_scooter", "bike_id": "78bdad4c6de6b10c1868667d32ef945b", "fusion_lon": 0.0, "lat": 38.87655516666667, "fusion_lat": 0.0}, {"is_disabled": 0, "rental_uris": {"android": "https://dc.lft.to/lastmile_qr_scan", "ios": "https://dc.lft.to/lastmile_qr_scan"}, "is_reserved": 0, "name": "c422e1025364f3686de9aec3c4dc4574", "lon": -76.99957083333334, "type": "electric_scooter", "bike_id": "c422e1025364f3686de9aec3c4dc4574", "fusion_lon": 0.0, "lat": 38.84281166666667, "fusion_lat": 0.0}, {"is_disabled": 0, "rental_uris": {"android": "https://dc.lft.to/lastmile_qr_scan", "ios": "https://dc.lft.to/lastmile_qr_scan"}, "is_reserved": 0, "name": "f0d8987520351550e8ea81a829e7e408", "lon": -77.01629216666667, "type": "electric_scooter", "bike_id": "f0d8987520351550e8ea81a829e7e408", "fusion_lon": 0.0, "lat": 38.872371333333334, "fusion_lat": 0.0}, {"is_disabled": 0, "rental_uris": {"android": "https://dc.lft.to/lastmile_qr_scan", "ios": "https://dc.lft.to/lastmile_qr_scan"}, "is_reserved": 0, "name": "079a77d707425c75413bce53bbd5105c", "lon": -77.004289, "type": "electric_scooter", "bike_id": "079a77d707425c75413bce53bbd5105c", "fusion_lon": 0.0, "lat": 38.8380895, "fusion_lat": 0.0}, {"is_disabled": 0, "rental_uris": {"android": "https://dc.lft.to/lastmile_qr_scan", "ios": "https://dc.lft.to/lastmile_qr_scan"}, "is_reserved": 0, "name": "0243037027ee3712de082748411ebd1b", "lon": -77.03908716666666, "type": "electric_scooter", "bike_id": "0243037027ee3712de082748411ebd1b", "fusion_lon": 0.0, "lat": 38.9024865, "fusion_lat": 0.0}, {"is_disabled": 0, "rental_uris": {"android": "https://dc.lft.to/lastmile_qr_scan", "ios": "https://dc.lft.to/lastmile_qr_scan"}, "is_reserved": 0, "name": "2ab9cc038d37903f4a291b7f7a3d3d4e", "lon": -76.94954083333333, "type": "electric_bike", "bike_id": "2ab9cc038d37903f4a291b7f7a3d3d4e", "fusion_lon": 0.0, "lat": 38.935019, "fusion_lat": 0.0}, {"is_disabled": 0, "rental_uris": {"android": "https://dc.lft.to/lastmile_qr_scan", "ios": "https://dc.lft.to/lastmile_qr_scan"}, "is_reserved": 0, "name": "a936111315ef8422a37fd5dc107b04fd", "lon": -77.05006483333334, "type": "electric_scooter", "bike_id": "a936111315ef8422a37fd5dc107b04fd", "fusion_lon": 0.0, "lat": 38.892296333333334, "fusion_lat": 0.0}, {"is_disabled": 0, "rental_uris": {"android": "https://dc.lft.to/lastmile_qr_scan", "ios": "https://dc.lft.to/lastmile_qr_scan"}, "is_reserved": 0, "name": "0041287c81d1499e3ccf25b12f7a0c06", "lon": -77.03146633333333, "type": "electric_scooter", "bike_id": "0041287c81d1499e3ccf25b12f7a0c06", "fusion_lon": 0.0, "lat": 38.916290000000004, "fusion_lat": 0.0}, {"is_disabled": 0, "rental_uris": {"android": "https://dc.lft.to/lastmile_qr_scan", "ios": "https://dc.lft.to/lastmile_qr_scan"}, "is_reserved": 0, "name": "01e35885e505a4f201c1c0ad8bf6813e", "lon": -77.0394095, "type": "electric_scooter", "bike_id": "01e35885e505a4f201c1c0ad8bf6813e", "fusion_lon": 0.0, "lat": 38.902586666666664, "fusion_lat": 0.0}, {"is_disabled": 0, "rental_uris": {"android": "https://dc.lft.to/lastmile_qr_scan", "ios": "https://dc.lft.to/lastmile_qr_scan"}, "is_reserved": 0, "name": "18846029888de3217c62884019cf16d7", "lon": -77.05289033333334, "type": "electric_scooter", "bike_id": "18846029888de3217c62884019cf16d7", "fusion_lon": 0.0, "lat": 38.9033835, "fusion_lat": 0.0}, {"is_disabled": 0, "rental_uris": {"android": "https://dc.lft.to/lastmile_qr_scan", "ios": "https://dc.lft.to/lastmile_qr_scan"}, "is_reserved": 0, "name": "e2281b2c0e5b9e176fe4e0d9abe157eb", "lon": -77.00719083333334, "type": "electric_bike", "bike_id": "e2281b2c0e5b9e176fe4e0d9abe157eb", "fusion_lon": 0.0, "lat": 38.877001, "fusion_lat": 0.0}, {"is_disabled": 0, "rental_uris": {"android": "https://dc.lft.to/lastmile_qr_scan", "ios": "https://dc.lft.to/lastmile_qr_scan"}, "is_reserved": 0, "name": "b2deada18fe1bff2462b4b7c83d60442", "lon": -77.05250766666667, "type": "electric_scooter", "bike_id": "b2deada18fe1bff2462b4b7c83d60442", "fusion_lon": 0.0, "lat": 38.92736, "fusion_lat": 0.0}, {"is_disabled": 0, "rental_uris": {"android": "https://dc.lft.to/lastmile_qr_scan", "ios": "https://dc.lft.to/lastmile_qr_scan"}, "is_reserved": 0, "name": "41efd4c644b86588682201c8055fee7b", "lon": -77.0226405, "type": "electric_scooter", "bike_id": "41efd4c644b86588682201c8055fee7b", "fusion_lon": 0.0, "lat": 38.927406166666664, "fusion_lat": 0.0}, {"is_disabled": 0, "rental_uris": {"android": "https://dc.lft.to/lastmile_qr_scan", "ios": "https://dc.lft.to/lastmile_qr_scan"}, "is_reserved": 0, "name": "85ec03032e710d8f19c64ec08af7e77c", "lon": -76.987099, "type": "electric_scooter", "bike_id": "85ec03032e710d8f19c64ec08af7e77c", "fusion_lon": 0.0, "lat": 38.86697916666667, "fusion_lat": 0.0}, {"is_disabled": 0, "rental_uris": {"android": "https://dc.lft.to/lastmile_qr_scan", "ios": "https://dc.lft.to/lastmile_qr_scan"}, "is_reserved": 0, "name": "eced4aec5ae8ced2311067e90144fc64", "lon": -77.04155816666666, "type": "electric_scooter", "bike_id": "eced4aec5ae8ced2311067e90144fc64", "fusion_lon": 0.0, "lat": 38.910282, "fusion_lat": 0.0}, {"is_disabled": 0, "rental_uris": {"android": "https://dc.lft.to/lastmile_qr_scan", "ios": "https://dc.lft.to/lastmile_qr_scan"}, "is_reserved": 0, "name": "1a7e60731fa15539dd1d7bcca0abd0d9", "lon": -77.03265966666666, "type": "electric_scooter", "bike_id": "1a7e60731fa15539dd1d7bcca0abd0d9", "fusion_lon": 0.0, "lat": 38.93326183333333, "fusion_lat": 0.0}, {"is_disabled": 0, "rental_uris": {"android": "https://dc.lft.to/lastmile_qr_scan", "ios": "https://dc.lft.to/lastmile_qr_scan"}, "is_reserved": 0, "name": "66ecc3ce37d1d549e620679633fa77ea", "lon": -77.00924033333334, "type": "electric_scooter", "bike_id": "66ecc3ce37d1d549e620679633fa77ea", "fusion_lon": 0.0, "lat": 38.89788433333333, "fusion_lat": 0.0}, {"is_disabled": 0, "rental_uris": {"android": "https://dc.lft.to/lastmile_qr_scan", "ios": "https://dc.lft.to/lastmile_qr_scan"}, "is_reserved": 0, "name": "fca3c67abf828595674799a08918bdef", "lon": -77.04201433333333, "type": "electric_scooter", "bike_id": "fca3c67abf828595674799a08918bdef", "fusion_lon": 0.0, "lat": 38.92963733333333, "fusion_lat": 0.0}, {"is_disabled": 0, "rental_uris": {"android": "https://dc.lft.to/lastmile_qr_scan", "ios": "https://dc.lft.to/lastmile_qr_scan"}, "is_reserved": 0, "name": "6cf829fb580ca9070002e9b1810cdecb", "lon": -77.01364016666666, "type": "electric_scooter", "bike_id": "6cf829fb580ca9070002e9b1810cdecb", "fusion_lon": 0.0, "lat": 38.930308, "fusion_lat": 0.0}, {"is_disabled": 0, "rental_uris": {"android": "https://dc.lft.to/lastmile_qr_scan", "ios": "https://dc.lft.to/lastmile_qr_scan"}, "is_reserved": 0, "name": "87de8b7416981bd311011def67d2e299", "lon": -76.98697983333334, "type": "electric_scooter", "bike_id": "87de8b7416981bd311011def67d2e299", "fusion_lon": 0.0, "lat": 38.907053833333336, "fusion_lat": 0.0}, {"is_disabled": 0, "rental_uris": {"android": "https://dc.lft.to/lastmile_qr_scan", "ios": "https://dc.lft.to/lastmile_qr_scan"}, "is_reserved": 0, "name": "5f00613fc19767c8e292fc0ebbca774e", "lon": -76.98336866666666, "type": "electric_bike", "bike_id": "5f00613fc19767c8e292fc0ebbca774e", "fusion_lon": 0.0, "lat": 38.934993666666664, "fusion_lat": 0.0}, {"is_disabled": 0, "rental_uris": {"android": "https://dc.lft.to/lastmile_qr_scan", "ios": "https://dc.lft.to/lastmile_qr_scan"}, "is_reserved": 0, "name": "7bedf2a4fa4ebd49ed520377a8c4ff68", "lon": -77.02999583333333, "type": "electric_scooter", "bike_id": "7bedf2a4fa4ebd49ed520377a8c4ff68", "fusion_lon": 0.0, "lat": 38.90506233333333, "fusion_lat": 0.0}, {"is_disabled": 0, "rental_uris": {"android": "https://dc.lft.to/lastmile_qr_scan", "ios": "https://dc.lft.to/lastmile_qr_scan"}, "is_reserved": 0, "name": "a43276b6a682e602e1101c3d9c566a9a", "lon": -76.97992466666666, "type": "electric_bike", "bike_id": "a43276b6a682e602e1101c3d9c566a9a", "fusion_lon": 0.0, "lat": 38.877586666666666, "fusion_lat": 0.0}, {"is_disabled": 0, "rental_uris": {"android": "https://dc.lft.to/lastmile_qr_scan", "ios": "https://dc.lft.to/lastmile_qr_scan"}, "is_reserved": 0, "name": "e50e544a35aa54af06b235420e8ce04f", "lon": -77.03779783333333, "type": "electric_scooter", "bike_id": "e50e544a35aa54af06b235420e8ce04f", "fusion_lon": 0.0, "lat": 38.92626383333333, "fusion_lat": 0.0}, {"is_disabled": 0, "rental_uris": {"android": "https://dc.lft.to/lastmile_qr_scan", "ios": "https://dc.lft.to/lastmile_qr_scan"}, "is_reserved": 0, "name": "7935c5044539d92f92bf54ba96ab3ec8", "lon": -77.02618, "type": "electric_scooter", "bike_id": "7935c5044539d92f92bf54ba96ab3ec8", "fusion_lon": 0.0, "lat": 38.91706583333333, "fusion_lat": 0.0}, {"is_disabled": 0, "rental_uris": {"android": "https://dc.lft.to/lastmile_qr_scan", "ios": "https://dc.lft.to/lastmile_qr_scan"}, "is_reserved": 0, "name": "ad961bd19dbf1a3783d7e27f89c39928", "lon": -77.02172583333333, "type": "electric_scooter", "bike_id": "ad961bd19dbf1a3783d7e27f89c39928", "fusion_lon": 0.0, "lat": 38.94292516666667, "fusion_lat": 0.0}, {"is_disabled": 0, "rental_uris": {"android": "https://dc.lft.to/lastmile_qr_scan", "ios": "https://dc.lft.to/lastmile_qr_scan"}, "is_reserved": 0, "name": "2c9bc0bf205b2b07a5a6f1267bfecb98", "lon": -77.03415433333333, "type": "electric_scooter", "bike_id": "2c9bc0bf205b2b07a5a6f1267bfecb98", "fusion_lon": 0.0, "lat": 38.919280666666666, "fusion_lat": 0.0}, {"is_disabled": 0, "rental_uris": {"android": "https://dc.lft.to/lastmile_qr_scan", "ios": "https://dc.lft.to/lastmile_qr_scan"}, "is_reserved": 0, "name": "9801d11cc1a6b94e4077a625cd52a376", "lon": -77.01215266666667, "type": "electric_bike", "bike_id": "9801d11cc1a6b94e4077a625cd52a376", "fusion_lon": 0.0, "lat": 38.8708195, "fusion_lat": 0.0}, {"is_disabled": 0, "rental_uris": {"android": "https://dc.lft.to/lastmile_qr_scan", "ios": "https://dc.lft.to/lastmile_qr_scan"}, "is_reserved": 0, "name": "bcfbe6b48045ca274cc3c1a55abf4068", "lon": -76.98537333333333, "type": "electric_scooter", "bike_id": "bcfbe6b48045ca274cc3c1a55abf4068", "fusion_lon": 0.0, "lat": 38.90796366666667, "fusion_lat": 0.0}, {"is_disabled": 0, "rental_uris": {"android": "https://dc.lft.to/lastmile_qr_scan", "ios": "https://dc.lft.to/lastmile_qr_scan"}, "is_reserved": 0, "name": "37b5158eecd1b21a7abd1760a9490ce1", "lon": -77.03187733333333, "type": "electric_scooter", "bike_id": "37b5158eecd1b21a7abd1760a9490ce1", "fusion_lon": 0.0, "lat": 38.913525166666666, "fusion_lat": 0.0}, {"is_disabled": 0, "rental_uris": {"android": "https://dc.lft.to/lastmile_qr_scan", "ios": "https://dc.lft.to/lastmile_qr_scan"}, "is_reserved": 0, "name": "16bff869aa82ea892bef44e77a52408b", "lon": -77.0136605, "type": "electric_scooter", "bike_id": "16bff869aa82ea892bef44e77a52408b", "fusion_lon": 0.0, "lat": 38.879002166666666, "fusion_lat": 0.0}, {"is_disabled": 0, "rental_uris": {"android": "https://dc.lft.to/lastmile_qr_scan", "ios": "https://dc.lft.to/lastmile_qr_scan"}, "is_reserved": 0, "name": "08382a4d97a3fdb30338de314929365f", "lon": -77.360913, "type": "electric_bike", "bike_id": "08382a4d97a3fdb30338de314929365f", "fusion_lon": 0.0, "lat": 38.93964166666667, "fusion_lat": 0.0}, {"is_disabled": 0, "rental_uris": {"android": "https://dc.lft.to/lastmile_qr_scan", "ios": "https://dc.lft.to/lastmile_qr_scan"}, "is_reserved": 0, "name": "2b0ef2ba1c100328f77311690b437433", "lon": -77.03344433333334, "type": "electric_scooter", "bike_id": "2b0ef2ba1c100328f77311690b437433", "fusion_lon": 0.0, "lat": 38.917086, "fusion_lat": 0.0}, {"is_disabled": 0, "rental_uris": {"android": "https://dc.lft.to/lastmile_qr_scan", "ios": "https://dc.lft.to/lastmile_qr_scan"}, "is_reserved": 0, "name": "4d005ebe0c7026907822d406f31046e4", "lon": -77.03061883333334, "type": "electric_scooter", "bike_id": "4d005ebe0c7026907822d406f31046e4", "fusion_lon": 0.0, "lat": 38.92584216666667, "fusion_lat": 0.0}, {"is_disabled": 0, "rental_uris": {"android": "https://dc.lft.to/lastmile_qr_scan", "ios": "https://dc.lft.to/lastmile_qr_scan"}, "is_reserved": 0, "name": "3f18e1759f2cd25bbf3f154951cad125", "lon": -77.04464616666667, "type": "electric_scooter", "bike_id": "3f18e1759f2cd25bbf3f154951cad125", "fusion_lon": 0.0, "lat": 38.922795, "fusion_lat": 0.0}, {"is_disabled": 0, "rental_uris": {"android": "https://dc.lft.to/lastmile_qr_scan", "ios": "https://dc.lft.to/lastmile_qr_scan"}, "is_reserved": 0, "name": "ba5eb1be9007f3a8f6c0370525ef4786", "lon": -77.02841016666666, "type": "electric_scooter", "bike_id": "ba5eb1be9007f3a8f6c0370525ef4786", "fusion_lon": 0.0, "lat": 38.9043585, "fusion_lat": 0.0}, {"is_disabled": 0, "rental_uris": {"android": "https://dc.lft.to/lastmile_qr_scan", "ios": "https://dc.lft.to/lastmile_qr_scan"}, "is_reserved": 0, "name": "0f5c8867b7d4e5762dfa6b10e96e91c5", "lon": -76.99064133333333, "type": "electric_scooter", "bike_id": "0f5c8867b7d4e5762dfa6b10e96e91c5", "fusion_lon": 0.0, "lat": 38.86361733333333, "fusion_lat": 0.0}, {"is_disabled": 0, "rental_uris": {"android": "https://dc.lft.to/lastmile_qr_scan", "ios": "https://dc.lft.to/lastmile_qr_scan"}, "is_reserved": 0, "name": "19406ea487a440991d322ff8b50d8700", "lon": -77.017661, "type": "electric_scooter", "bike_id": "19406ea487a440991d322ff8b50d8700", "fusion_lon": 0.0, "lat": 38.88326266666667, "fusion_lat": 0.0}, {"is_disabled": 0, "rental_uris": {"android": "https://dc.lft.to/lastmile_qr_scan", "ios": "https://dc.lft.to/lastmile_qr_scan"}, "is_reserved": 0, "name": "25a19228db354298427fae78443f31f3", "lon": -77.050008, "type": "electric_scooter", "bike_id": "25a19228db354298427fae78443f31f3", "fusion_lon": 0.0, "lat": 38.8923015, "fusion_lat": 0.0}, {"is_disabled": 0, "rental_uris": {"android": "https://dc.lft.to/lastmile_qr_scan", "ios": "https://dc.lft.to/lastmile_qr_scan"}, "is_reserved": 0, "name": "3e3b431267092674f2221ad2b4173a7e", "lon": -77.07046066666666, "type": "electric_bike", "bike_id": "3e3b431267092674f2221ad2b4173a7e", "fusion_lon": 0.0, "lat": 38.82449166666667, "fusion_lat": 0.0}, {"is_disabled": 0, "rental_uris": {"android": "https://dc.lft.to/lastmile_qr_scan", "ios": "https://dc.lft.to/lastmile_qr_scan"}, "is_reserved": 0, "name": "ce52eace34f92f89d1fdfd0db01282a7", "lon": -77.11088016666666, "type": "electric_bike", "bike_id": "ce52eace34f92f89d1fdfd0db01282a7", "fusion_lon": 0.0, "lat": 38.82780966666667, "fusion_lat": 0.0}, {"is_disabled": 0, "rental_uris": {"android": "https://dc.lft.to/lastmile_qr_scan", "ios": "https://dc.lft.to/lastmile_qr_scan"}, "is_reserved": 0, "name": "b729b012840a4972825c0ab7c57e947c", "lon": -77.02550733333334, "type": "electric_scooter", "bike_id": "b729b012840a4972825c0ab7c57e947c", "fusion_lon": 0.0, "lat": 38.88390233333333, "fusion_lat": 0.0}, {"is_disabled": 0, "rental_uris": {"android": "https://dc.lft.to/lastmile_qr_scan", "ios": "https://dc.lft.to/lastmile_qr_scan"}, "is_reserved": 0, "name": "dc09f72fd3c4d86dda0d897a45e6f453", "lon": -77.05478733333334, "type": "electric_scooter", "bike_id": "dc09f72fd3c4d86dda0d897a45e6f453", "fusion_lon": 0.0, "lat": 38.90202466666667, "fusion_lat": 0.0}, {"is_disabled": 0, "rental_uris": {"android": "https://dc.lft.to/lastmile_qr_scan", "ios": "https://dc.lft.to/lastmile_qr_scan"}, "is_reserved": 0, "name": "5df2f3e61a5a407c5a3188d74d599360", "lon": -77.12813433333334, "type": "electric_bike", "bike_id": "5df2f3e61a5a407c5a3188d74d599360", "fusion_lon": 0.0, "lat": 38.865301333333335, "fusion_lat": 0.0}, {"is_disabled": 0, "rental_uris": {"android": "https://dc.lft.to/lastmile_qr_scan", "ios": "https://dc.lft.to/lastmile_qr_scan"}, "is_reserved": 0, "name": "2778c97fc141e8819023e485a8abb9c4", "lon": -77.04222383333334, "type": "electric_scooter", "bike_id": "2778c97fc141e8819023e485a8abb9c4", "fusion_lon": 0.0, "lat": 38.92252916666666, "fusion_lat": 0.0}, {"is_disabled": 0, "rental_uris": {"android": "https://dc.lft.to/lastmile_qr_scan", "ios": "https://dc.lft.to/lastmile_qr_scan"}, "is_reserved": 0, "name": "f27e8edafb2e1965bd6d2b4c1a4bfe66", "lon": -76.96557366666667, "type": "electric_bike", "bike_id": "f27e8edafb2e1965bd6d2b4c1a4bfe66", "fusion_lon": 0.0, "lat": 38.95093166666667, "fusion_lat": 0.0}, {"is_disabled": 0, "rental_uris": {"android": "https://dc.lft.to/lastmile_qr_scan", "ios": "https://dc.lft.to/lastmile_qr_scan"}, "is_reserved": 0, "name": "7f883cdb2330f785e5ca970668af6216", "lon": -77.0409315, "type": "electric_scooter", "bike_id": "7f883cdb2330f785e5ca970668af6216", "fusion_lon": 0.0, "lat": 38.907919666666665, "fusion_lat": 0.0}, {"is_disabled": 0, "rental_uris": {"android": "https://dc.lft.to/lastmile_qr_scan", "ios": "https://dc.lft.to/lastmile_qr_scan"}, "is_reserved": 0, "name": "0d78a3ca9ae79b29e818f5d88a3d9401", "lon": -76.96527966666666, "type": "electric_scooter", "bike_id": "0d78a3ca9ae79b29e818f5d88a3d9401", "fusion_lon": 0.0, "lat": 38.8762845, "fusion_lat": 0.0}, {"is_disabled": 0, "rental_uris": {"android": "https://dc.lft.to/lastmile_qr_scan", "ios": "https://dc.lft.to/lastmile_qr_scan"}, "is_reserved": 0, "name": "bd33bff49fdf9a9625f1091bcf809196", "lon": -77.02798566666667, "type": "electric_scooter", "bike_id": "bd33bff49fdf9a9625f1091bcf809196", "fusion_lon": 0.0, "lat": 38.91249533333333, "fusion_lat": 0.0}, {"is_disabled": 0, "rental_uris": {"android": "https://dc.lft.to/lastmile_qr_scan", "ios": "https://dc.lft.to/lastmile_qr_scan"}, "is_reserved": 0, "name": "3a95bfcdf6d8e6688eb60c24ad5ad8ec", "lon": -77.03471016666667, "type": "electric_scooter", "bike_id": "3a95bfcdf6d8e6688eb60c24ad5ad8ec", "fusion_lon": 0.0, "lat": 38.917053333333335, "fusion_lat": 0.0}, {"is_disabled": 0, "rental_uris": {"android": "https://dc.lft.to/lastmile_qr_scan", "ios": "https://dc.lft.to/lastmile_qr_scan"}, "is_reserved": 0, "name": "4c560b31ffa3980662d6c301df2f3b32", "lon": -77.020713, "type": "electric_scooter", "bike_id": "4c560b31ffa3980662d6c301df2f3b32", "fusion_lon": 0.0, "lat": 38.93118966666667, "fusion_lat": 0.0}, {"is_disabled": 0, "rental_uris": {"android": "https://dc.lft.to/lastmile_qr_scan", "ios": "https://dc.lft.to/lastmile_qr_scan"}, "is_reserved": 0, "name": "60c9b6aebd8eae458007a1d2d0b3e368", "lon": -76.94640066666666, "type": "electric_scooter", "bike_id": "60c9b6aebd8eae458007a1d2d0b3e368", "fusion_lon": 0.0, "lat": 38.8984415, "fusion_lat": 0.0}, {"is_disabled": 0, "rental_uris": {"android": "https://dc.lft.to/lastmile_qr_scan", "ios": "https://dc.lft.to/lastmile_qr_scan"}, "is_reserved": 0, "name": "190d888e03a6cf91a6b584bf2003eadb", "lon": -77.029481, "type": "electric_scooter", "bike_id": "190d888e03a6cf91a6b584bf2003eadb", "fusion_lon": 0.0, "lat": 38.927558833333336, "fusion_lat": 0.0}, {"is_disabled": 0, "rental_uris": {"android": "https://dc.lft.to/lastmile_qr_scan", "ios": "https://dc.lft.to/lastmile_qr_scan"}, "is_reserved": 0, "name": "452b79474e4d170375e40b2eb4dea232", "lon": -77.0169585, "type": "electric_scooter", "bike_id": "452b79474e4d170375e40b2eb4dea232", "fusion_lon": 0.0, "lat": 38.90245616666667, "fusion_lat": 0.0}, {"is_disabled": 0, "rental_uris": {"android": "https://dc.lft.to/lastmile_qr_scan", "ios": "https://dc.lft.to/lastmile_qr_scan"}, "is_reserved": 0, "name": "da5cca3b89687aac88776ac476467262", "lon": -77.029633, "type": "electric_scooter", "bike_id": "da5cca3b89687aac88776ac476467262", "fusion_lon": 0.0, "lat": 38.922514666666665, "fusion_lat": 0.0}, {"is_disabled": 0, "rental_uris": {"android": "https://dc.lft.to/lastmile_qr_scan", "ios": "https://dc.lft.to/lastmile_qr_scan"}, "is_reserved": 0, "name": "e4bf5d15dcecbc754e68bdc142f8ac58", "lon": -77.00757616666667, "type": "electric_scooter", "bike_id": "e4bf5d15dcecbc754e68bdc142f8ac58", "fusion_lon": 0.0, "lat": 38.87641216666667, "fusion_lat": 0.0}, {"is_disabled": 0, "rental_uris": {"android": "https://dc.lft.to/lastmile_qr_scan", "ios": "https://dc.lft.to/lastmile_qr_scan"}, "is_reserved": 0, "name": "01de374486d81f6057599b1d852e2af9", "lon": -77.0264185, "type": "electric_scooter", "bike_id": "01de374486d81f6057599b1d852e2af9", "fusion_lon": 0.0, "lat": 38.89591333333333, "fusion_lat": 0.0}, {"is_disabled": 0, "rental_uris": {"android": "https://dc.lft.to/lastmile_qr_scan", "ios": "https://dc.lft.to/lastmile_qr_scan"}, "is_reserved": 0, "name": "8f431d2ceca047235ce3bf59847d2d25", "lon": -76.92914683333333, "type": "electric_bike", "bike_id": "8f431d2ceca047235ce3bf59847d2d25", "fusion_lon": 0.0, "lat": 38.980248333333336, "fusion_lat": 0.0}, {"is_disabled": 0, "rental_uris": {"android": "https://dc.lft.to/lastmile_qr_scan", "ios": "https://dc.lft.to/lastmile_qr_scan"}, "is_reserved": 0, "name": "88c02c95f310caf5520dbf4578443b49", "lon": -77.00061483333333, "type": "electric_scooter", "bike_id": "88c02c95f310caf5520dbf4578443b49", "fusion_lon": 0.0, "lat": 38.8885515, "fusion_lat": 0.0}, {"is_disabled": 0, "rental_uris": {"android": "https://dc.lft.to/lastmile_qr_scan", "ios": "https://dc.lft.to/lastmile_qr_scan"}, "is_reserved": 0, "name": "14394fc77abe3dc1815c707156736a18", "lon": -77.02536416666666, "type": "electric_scooter", "bike_id": "14394fc77abe3dc1815c707156736a18", "fusion_lon": 0.0, "lat": 38.9240315, "fusion_lat": 0.0}, {"is_disabled": 0, "rental_uris": {"android": "https://dc.lft.to/lastmile_qr_scan", "ios": "https://dc.lft.to/lastmile_qr_scan"}, "is_reserved": 0, "name": "2c6f75d2d8aee566292ad6c0f39f5c88", "lon": -77.0173285, "type": "electric_scooter", "bike_id": "2c6f75d2d8aee566292ad6c0f39f5c88", "fusion_lon": 0.0, "lat": 38.911178666666665, "fusion_lat": 0.0}, {"is_disabled": 0, "rental_uris": {"android": "https://dc.lft.to/lastmile_qr_scan", "ios": "https://dc.lft.to/lastmile_qr_scan"}, "is_reserved": 0, "name": "e8c491966edc80dee9ee59b39d654219", "lon": -77.03516333333333, "type": "electric_scooter", "bike_id": "e8c491966edc80dee9ee59b39d654219", "fusion_lon": 0.0, "lat": 38.92262016666667, "fusion_lat": 0.0}, {"is_disabled": 0, "rental_uris": {"android": "https://dc.lft.to/lastmile_qr_scan", "ios": "https://dc.lft.to/lastmile_qr_scan"}, "is_reserved": 0, "name": "80f61ed73a2acd5de15365e5d24703ef", "lon": -76.93186866666667, "type": "electric_scooter", "bike_id": "80f61ed73a2acd5de15365e5d24703ef", "fusion_lon": 0.0, "lat": 38.8987595, "fusion_lat": 0.0}, {"is_disabled": 0, "rental_uris": {"android": "https://dc.lft.to/lastmile_qr_scan", "ios": "https://dc.lft.to/lastmile_qr_scan"}, "is_reserved": 0, "name": "c6dd69b5a94adb637fcd47e001ee2495", "lon": -77.02492616666666, "type": "electric_scooter", "bike_id": "c6dd69b5a94adb637fcd47e001ee2495", "fusion_lon": 0.0, "lat": 38.9418285, "fusion_lat": 0.0}, {"is_disabled": 0, "rental_uris": {"android": "https://dc.lft.to/lastmile_qr_scan", "ios": "https://dc.lft.to/lastmile_qr_scan"}, "is_reserved": 0, "name": "9d0cdd549c39363264acb64cbdb7a54b", "lon": -77.00406833333334, "type": "electric_scooter", "bike_id": "9d0cdd549c39363264acb64cbdb7a54b", "fusion_lon": 0.0, "lat": 38.895551833333336, "fusion_lat": 0.0}, {"is_disabled": 0, "rental_uris": {"android": "https://dc.lft.to/lastmile_qr_scan", "ios": "https://dc.lft.to/lastmile_qr_scan"}, "is_reserved": 0, "name": "c45011f1e7a5dad1a6ea032ff585e7b7", "lon": -77.02775316666667, "type": "electric_scooter", "bike_id": "c45011f1e7a5dad1a6ea032ff585e7b7", "fusion_lon": 0.0, "lat": 38.9170495, "fusion_lat": 0.0}, {"is_disabled": 0, "rental_uris": {"android": "https://dc.lft.to/lastmile_qr_scan", "ios": "https://dc.lft.to/lastmile_qr_scan"}, "is_reserved": 0, "name": "72c917aaed06c3bb93aa89abbb0033d2", "lon": -77.05026766666667, "type": "electric_scooter", "bike_id": "72c917aaed06c3bb93aa89abbb0033d2", "fusion_lon": 0.0, "lat": 38.900973666666665, "fusion_lat": 0.0}, {"is_disabled": 0, "rental_uris": {"android": "https://dc.lft.to/lastmile_qr_scan", "ios": "https://dc.lft.to/lastmile_qr_scan"}, "is_reserved": 0, "name": "3914263faf851553aa6cdbfa2058c076", "lon": -77.0262545, "type": "electric_scooter", "bike_id": "3914263faf851553aa6cdbfa2058c076", "fusion_lon": 0.0, "lat": 38.915693, "fusion_lat": 0.0}, {"is_disabled": 0, "rental_uris": {"android": "https://dc.lft.to/lastmile_qr_scan", "ios": "https://dc.lft.to/lastmile_qr_scan"}, "is_reserved": 0, "name": "1f5c7f746761eb4a2d2f0939e6a7aa46", "lon": -77.03206116666667, "type": "electric_scooter", "bike_id": "1f5c7f746761eb4a2d2f0939e6a7aa46", "fusion_lon": 0.0, "lat": 38.909465833333336, "fusion_lat": 0.0}, {"is_disabled": 0, "rental_uris": {"android": "https://dc.lft.to/lastmile_qr_scan", "ios": "https://dc.lft.to/lastmile_qr_scan"}, "is_reserved": 0, "name": "70b6917b583a9d02dee1f2487a156588", "lon": -77.0481205, "type": "electric_scooter", "bike_id": "70b6917b583a9d02dee1f2487a156588", "fusion_lon": 0.0, "lat": 38.904682333333334, "fusion_lat": 0.0}, {"is_disabled": 0, "rental_uris": {"android": "https://dc.lft.to/lastmile_qr_scan", "ios": "https://dc.lft.to/lastmile_qr_scan"}, "is_reserved": 0, "name": "655bc14c6e01b87c3dd0622f6bec5824", "lon": -77.05058666666666, "type": "electric_scooter", "bike_id": "655bc14c6e01b87c3dd0622f6bec5824", "fusion_lon": 0.0, "lat": 38.9006895, "fusion_lat": 0.0}, {"is_disabled": 0, "rental_uris": {"android": "https://dc.lft.to/lastmile_qr_scan", "ios": "https://dc.lft.to/lastmile_qr_scan"}, "is_reserved": 0, "name": "30a8c0cf3ed26cb1d30e78eb357e92a9", "lon": -77.04757716666667, "type": "electric_scooter", "bike_id": "30a8c0cf3ed26cb1d30e78eb357e92a9", "fusion_lon": 0.0, "lat": 38.91246566666667, "fusion_lat": 0.0}, {"is_disabled": 0, "rental_uris": {"android": "https://dc.lft.to/lastmile_qr_scan", "ios": "https://dc.lft.to/lastmile_qr_scan"}, "is_reserved": 0, "name": "fb5f63acc2fec56ae8d49e6d7a7f8002", "lon": -77.02380366666667, "type": "electric_bike", "bike_id": "fb5f63acc2fec56ae8d49e6d7a7f8002", "fusion_lon": 0.0, "lat": 38.99072783333333, "fusion_lat": 0.0}, {"is_disabled": 0, "rental_uris": {"android": "https://dc.lft.to/lastmile_qr_scan", "ios": "https://dc.lft.to/lastmile_qr_scan"}, "is_reserved": 0, "name": "a272f97ac4de33be3d90b3859c9cbb65", "lon": -76.98885566666667, "type": "electric_scooter", "bike_id": "a272f97ac4de33be3d90b3859c9cbb65", "fusion_lon": 0.0, "lat": 38.86658633333333, "fusion_lat": 0.0}, {"is_disabled": 0, "rental_uris": {"android": "https://dc.lft.to/lastmile_qr_scan", "ios": "https://dc.lft.to/lastmile_qr_scan"}, "is_reserved": 0, "name": "c4304cab2b120eb51f37e389e2fa97b2", "lon": -77.00702616666666, "type": "electric_scooter", "bike_id": "c4304cab2b120eb51f37e389e2fa97b2", "fusion_lon": 0.0, "lat": 38.876252666666666, "fusion_lat": 0.0}, {"is_disabled": 0, "rental_uris": {"android": "https://dc.lft.to/lastmile_qr_scan", "ios": "https://dc.lft.to/lastmile_qr_scan"}, "is_reserved": 0, "name": "0cef08ae329e92d3ada0baea9f008287", "lon": -77.03490083333334, "type": "electric_scooter", "bike_id": "0cef08ae329e92d3ada0baea9f008287", "fusion_lon": 0.0, "lat": 38.92479466666666, "fusion_lat": 0.0}, {"is_disabled": 0, "rental_uris": {"android": "https://dc.lft.to/lastmile_qr_scan", "ios": "https://dc.lft.to/lastmile_qr_scan"}, "is_reserved": 0, "name": "40a4631464c9e017492ffb0147a92082", "lon": -77.02065916666666, "type": "electric_scooter", "bike_id": "40a4631464c9e017492ffb0147a92082", "fusion_lon": 0.0, "lat": 38.8811885, "fusion_lat": 0.0}, {"is_disabled": 0, "rental_uris": {"android": "https://dc.lft.to/lastmile_qr_scan", "ios": "https://dc.lft.to/lastmile_qr_scan"}, "is_reserved": 0, "name": "4f213654127dab49bb9a6a9f001fe44f", "lon": -77.04807316666667, "type": "electric_scooter", "bike_id": "4f213654127dab49bb9a6a9f001fe44f", "fusion_lon": 0.0, "lat": 38.92039916666667, "fusion_lat": 0.0}, {"is_disabled": 0, "rental_uris": {"android": "https://dc.lft.to/lastmile_qr_scan", "ios": "https://dc.lft.to/lastmile_qr_scan"}, "is_reserved": 0, "name": "40fcc2a15a7a2db5001c2eca3dc8b276", "lon": -77.08826433333333, "type": "electric_bike", "bike_id": "40fcc2a15a7a2db5001c2eca3dc8b276", "fusion_lon": 0.0, "lat": 38.90974766666667, "fusion_lat": 0.0}, {"is_disabled": 0, "rental_uris": {"android": "https://dc.lft.to/lastmile_qr_scan", "ios": "https://dc.lft.to/lastmile_qr_scan"}, "is_reserved": 0, "name": "760b243891cb8c886d54ab35fa4dc1f4", "lon": -76.99646316666667, "type": "electric_scooter", "bike_id": "760b243891cb8c886d54ab35fa4dc1f4", "fusion_lon": 0.0, "lat": 38.887204, "fusion_lat": 0.0}, {"is_disabled": 0, "rental_uris": {"android": "https://dc.lft.to/lastmile_qr_scan", "ios": "https://dc.lft.to/lastmile_qr_scan"}, "is_reserved": 0, "name": "f635a8c4cd6de02609f7793af7e5c52b", "lon": -77.03206316666666, "type": "electric_scooter", "bike_id": "f635a8c4cd6de02609f7793af7e5c52b", "fusion_lon": 0.0, "lat": 38.914753833333336, "fusion_lat": 0.0}, {"is_disabled": 0, "rental_uris": {"android": "https://dc.lft.to/lastmile_qr_scan", "ios": "https://dc.lft.to/lastmile_qr_scan"}, "is_reserved": 0, "name": "8890c442f37fc498cf0638fc91b31a63", "lon": -77.02849033333334, "type": "electric_scooter", "bike_id": "8890c442f37fc498cf0638fc91b31a63", "fusion_lon": 0.0, "lat": 38.90159583333333, "fusion_lat": 0.0}, {"is_disabled": 0, "rental_uris": {"android": "https://dc.lft.to/lastmile_qr_scan", "ios": "https://dc.lft.to/lastmile_qr_scan"}, "is_reserved": 0, "name": "b1974c546d102f86393b5233cce2adf9", "lon": -77.031883, "type": "electric_scooter", "bike_id": "b1974c546d102f86393b5233cce2adf9", "fusion_lon": 0.0, "lat": 38.9134645, "fusion_lat": 0.0}, {"is_disabled": 0, "rental_uris": {"android": "https://dc.lft.to/lastmile_qr_scan", "ios": "https://dc.lft.to/lastmile_qr_scan"}, "is_reserved": 0, "name": "af004be66f687dffa03734a803b8b6c0", "lon": -77.04354216666667, "type": "electric_scooter", "bike_id": "af004be66f687dffa03734a803b8b6c0", "fusion_lon": 0.0, "lat": 38.91787983333333, "fusion_lat": 0.0}, {"is_disabled": 0, "rental_uris": {"android": "https://dc.lft.to/lastmile_qr_scan", "ios": "https://dc.lft.to/lastmile_qr_scan"}, "is_reserved": 0, "name": "cc629143193935253f4a9c4aba9cc117", "lon": -77.0268955, "type": "electric_scooter", "bike_id": "cc629143193935253f4a9c4aba9cc117", "fusion_lon": 0.0, "lat": 38.89638133333333, "fusion_lat": 0.0}, {"is_disabled": 0, "rental_uris": {"android": "https://dc.lft.to/lastmile_qr_scan", "ios": "https://dc.lft.to/lastmile_qr_scan"}, "is_reserved": 0, "name": "fc4d59f2dea39b06784be0da62562574", "lon": -76.99633033333333, "type": "electric_scooter", "bike_id": "fc4d59f2dea39b06784be0da62562574", "fusion_lon": 0.0, "lat": 38.84621533333333, "fusion_lat": 0.0}, {"is_disabled": 0, "rental_uris": {"android": "https://dc.lft.to/lastmile_qr_scan", "ios": "https://dc.lft.to/lastmile_qr_scan"}, "is_reserved": 0, "name": "b258e307dba3bb89d8ed2102fb6a9a33", "lon": -77.0318235, "type": "electric_scooter", "bike_id": "b258e307dba3bb89d8ed2102fb6a9a33", "fusion_lon": 0.0, "lat": 38.89731316666666, "fusion_lat": 0.0}, {"is_disabled": 0, "rental_uris": {"android": "https://dc.lft.to/lastmile_qr_scan", "ios": "https://dc.lft.to/lastmile_qr_scan"}, "is_reserved": 0, "name": "c562aed4d908611f4d11d2dd7859e968", "lon": -77.04295383333333, "type": "electric_bike", "bike_id": "c562aed4d908611f4d11d2dd7859e968", "fusion_lon": 0.0, "lat": 38.83095866666667, "fusion_lat": 0.0}, {"is_disabled": 0, "rental_uris": {"android": "https://dc.lft.to/lastmile_qr_scan", "ios": "https://dc.lft.to/lastmile_qr_scan"}, "is_reserved": 0, "name": "bea6ef5f675e822b2b6df64adf081a3f", "lon": -77.03111916666667, "type": "electric_scooter", "bike_id": "bea6ef5f675e822b2b6df64adf081a3f", "fusion_lon": 0.0, "lat": 38.89851983333333, "fusion_lat": 0.0}, {"is_disabled": 0, "rental_uris": {"android": "https://dc.lft.to/lastmile_qr_scan", "ios": "https://dc.lft.to/lastmile_qr_scan"}, "is_reserved": 0, "name": "8b88ada9b7975ac03f467b4d84a576d6", "lon": -76.99014966666667, "type": "electric_scooter", "bike_id": "8b88ada9b7975ac03f467b4d84a576d6", "fusion_lon": 0.0, "lat": 38.8610445, "fusion_lat": 0.0}, {"is_disabled": 0, "rental_uris": {"android": "https://dc.lft.to/lastmile_qr_scan", "ios": "https://dc.lft.to/lastmile_qr_scan"}, "is_reserved": 0, "name": "7d4dcc24f4fab1f0823a8a55cb0091fb", "lon": -77.0297985, "type": "electric_scooter", "bike_id": "7d4dcc24f4fab1f0823a8a55cb0091fb", "fusion_lon": 0.0, "lat": 38.945184, "fusion_lat": 0.0}, {"is_disabled": 0, "rental_uris": {"android": "https://dc.lft.to/lastmile_qr_scan", "ios": "https://dc.lft.to/lastmile_qr_scan"}, "is_reserved": 0, "name": "091f7286cca55ec79cafb840d43184a9", "lon": -77.02491766666667, "type": "electric_scooter", "bike_id": "091f7286cca55ec79cafb840d43184a9", "fusion_lon": 0.0, "lat": 38.941841333333336, "fusion_lat": 0.0}, {"is_disabled": 0, "rental_uris": {"android": "https://dc.lft.to/lastmile_qr_scan", "ios": "https://dc.lft.to/lastmile_qr_scan"}, "is_reserved": 0, "name": "350329f65fbe12dd85e1f1ebc27efcd8", "lon": -77.03413833333333, "type": "electric_scooter", "bike_id": "350329f65fbe12dd85e1f1ebc27efcd8", "fusion_lon": 0.0, "lat": 38.9192345, "fusion_lat": 0.0}, {"is_disabled": 0, "rental_uris": {"android": "https://dc.lft.to/lastmile_qr_scan", "ios": "https://dc.lft.to/lastmile_qr_scan"}, "is_reserved": 0, "name": "be7b016d560056acbfdbb13d14e4f5fd", "lon": -76.99389283333333, "type": "electric_scooter", "bike_id": "be7b016d560056acbfdbb13d14e4f5fd", "fusion_lon": 0.0, "lat": 38.884528333333336, "fusion_lat": 0.0}, {"is_disabled": 0, "rental_uris": {"android": "https://dc.lft.to/lastmile_qr_scan", "ios": "https://dc.lft.to/lastmile_qr_scan"}, "is_reserved": 0, "name": "7abc93378b822e69139de301767771ad", "lon": -77.00771733333333, "type": "electric_scooter", "bike_id": "7abc93378b822e69139de301767771ad", "fusion_lon": 0.0, "lat": 38.914988, "fusion_lat": 0.0}, {"is_disabled": 0, "rental_uris": {"android": "https://dc.lft.to/lastmile_qr_scan", "ios": "https://dc.lft.to/lastmile_qr_scan"}, "is_reserved": 0, "name": "98088d32185f63e047239be1c8b0e923", "lon": -77.04110416666667, "type": "electric_scooter", "bike_id": "98088d32185f63e047239be1c8b0e923", "fusion_lon": 0.0, "lat": 38.924459166666665, "fusion_lat": 0.0}, {"is_disabled": 0, "rental_uris": {"android": "https://dc.lft.to/lastmile_qr_scan", "ios": "https://dc.lft.to/lastmile_qr_scan"}, "is_reserved": 0, "name": "e8f2fe831465dd4f8aa2857c4c2534ab", "lon": -77.0448155, "type": "electric_scooter", "bike_id": "e8f2fe831465dd4f8aa2857c4c2534ab", "fusion_lon": 0.0, "lat": 38.9242485, "fusion_lat": 0.0}, {"is_disabled": 0, "rental_uris": {"android": "https://dc.lft.to/lastmile_qr_scan", "ios": "https://dc.lft.to/lastmile_qr_scan"}, "is_reserved": 0, "name": "5df85d6bfdce72767bed032640e9dbd9", "lon": -77.0324005, "type": "electric_scooter", "bike_id": "5df85d6bfdce72767bed032640e9dbd9", "fusion_lon": 0.0, "lat": 38.91496716666666, "fusion_lat": 0.0}, {"is_disabled": 0, "rental_uris": {"android": "https://dc.lft.to/lastmile_qr_scan", "ios": "https://dc.lft.to/lastmile_qr_scan"}, "is_reserved": 0, "name": "f16805e17f030c72bb04877b8018a208", "lon": -77.0230465, "type": "electric_scooter", "bike_id": "f16805e17f030c72bb04877b8018a208", "fusion_lon": 0.0, "lat": 38.89578916666667, "fusion_lat": 0.0}, {"is_disabled": 0, "rental_uris": {"android": "https://dc.lft.to/lastmile_qr_scan", "ios": "https://dc.lft.to/lastmile_qr_scan"}, "is_reserved": 0, "name": "401c3c2b819cd777c7fa8a362eae149a", "lon": -77.0056185, "type": "electric_scooter", "bike_id": "401c3c2b819cd777c7fa8a362eae149a", "fusion_lon": 0.0, "lat": 38.875333166666664, "fusion_lat": 0.0}, {"is_disabled": 0, "rental_uris": {"android": "https://dc.lft.to/lastmile_qr_scan", "ios": "https://dc.lft.to/lastmile_qr_scan"}, "is_reserved": 0, "name": "a6febd00aee6e774f740fdfcb990eb6a", "lon": -77.03252733333333, "type": "electric_scooter", "bike_id": "a6febd00aee6e774f740fdfcb990eb6a", "fusion_lon": 0.0, "lat": 38.935262, "fusion_lat": 0.0}, {"is_disabled": 0, "rental_uris": {"android": "https://dc.lft.to/lastmile_qr_scan", "ios": "https://dc.lft.to/lastmile_qr_scan"}, "is_reserved": 0, "name": "ad89d2b8617df2c40b21e68b8897cb5a", "lon": -77.02784783333334, "type": "electric_scooter", "bike_id": "ad89d2b8617df2c40b21e68b8897cb5a", "fusion_lon": 0.0, "lat": 38.91815316666667, "fusion_lat": 0.0}, {"is_disabled": 0, "rental_uris": {"android": "https://dc.lft.to/lastmile_qr_scan", "ios": "https://dc.lft.to/lastmile_qr_scan"}, "is_reserved": 0, "name": "7503d929c7789f15680e0678be0996e9", "lon": -77.00197416666667, "type": "electric_scooter", "bike_id": "7503d929c7789f15680e0678be0996e9", "fusion_lon": 0.0, "lat": 38.900549166666664, "fusion_lat": 0.0}, {"is_disabled": 0, "rental_uris": {"android": "https://dc.lft.to/lastmile_qr_scan", "ios": "https://dc.lft.to/lastmile_qr_scan"}, "is_reserved": 0, "name": "04c30d0e21436e92e581ec272d71d32e", "lon": -77.05333216666666, "type": "electric_scooter", "bike_id": "04c30d0e21436e92e581ec272d71d32e", "fusion_lon": 0.0, "lat": 38.92787966666667, "fusion_lat": 0.0}, {"is_disabled": 0, "rental_uris": {"android": "https://dc.lft.to/lastmile_qr_scan", "ios": "https://dc.lft.to/lastmile_qr_scan"}, "is_reserved": 0, "name": "0f3280c4fb76cb716ed63c4828c20d30", "lon": -77.00656783333334, "type": "electric_scooter", "bike_id": "0f3280c4fb76cb716ed63c4828c20d30", "fusion_lon": 0.0, "lat": 38.9446255, "fusion_lat": 0.0}, {"is_disabled": 0, "rental_uris": {"android": "https://dc.lft.to/lastmile_qr_scan", "ios": "https://dc.lft.to/lastmile_qr_scan"}, "is_reserved": 0, "name": "b3e2de1ecd0eb968bf93ddd02cdd282c", "lon": -77.22937583333334, "type": "electric_bike", "bike_id": "b3e2de1ecd0eb968bf93ddd02cdd282c", "fusion_lon": 0.0, "lat": 38.931951833333336, "fusion_lat": 0.0}, {"is_disabled": 0, "rental_uris": {"android": "https://dc.lft.to/lastmile_qr_scan", "ios": "https://dc.lft.to/lastmile_qr_scan"}, "is_reserved": 0, "name": "1da13f983cb46f678a9a25d2c35b05fa", "lon": -77.03830616666667, "type": "electric_scooter", "bike_id": "1da13f983cb46f678a9a25d2c35b05fa", "fusion_lon": 0.0, "lat": 38.9111695, "fusion_lat": 0.0}, {"is_disabled": 0, "rental_uris": {"android": "https://dc.lft.to/lastmile_qr_scan", "ios": "https://dc.lft.to/lastmile_qr_scan"}, "is_reserved": 0, "name": "3473ef190c9752469d0a4a291e435533", "lon": -77.0404285, "type": "electric_scooter", "bike_id": "3473ef190c9752469d0a4a291e435533", "fusion_lon": 0.0, "lat": 38.9056805, "fusion_lat": 0.0}, {"is_disabled": 0, "rental_uris": {"android": "https://dc.lft.to/lastmile_qr_scan", "ios": "https://dc.lft.to/lastmile_qr_scan"}, "is_reserved": 0, "name": "da4a229698b255bc1459b9bf9c338d24", "lon": -77.0249105, "type": "electric_scooter", "bike_id": "da4a229698b255bc1459b9bf9c338d24", "fusion_lon": 0.0, "lat": 38.917521, "fusion_lat": 0.0}, {"is_disabled": 0, "rental_uris": {"android": "https://dc.lft.to/lastmile_qr_scan", "ios": "https://dc.lft.to/lastmile_qr_scan"}, "is_reserved": 0, "name": "ae0fe32da21f464a8cb628b3984658d2", "lon": -77.00566383333333, "type": "electric_scooter", "bike_id": "ae0fe32da21f464a8cb628b3984658d2", "fusion_lon": 0.0, "lat": 38.88501433333333, "fusion_lat": 0.0}, {"is_disabled": 0, "rental_uris": {"android": "https://dc.lft.to/lastmile_qr_scan", "ios": "https://dc.lft.to/lastmile_qr_scan"}, "is_reserved": 0, "name": "14b46edbdee5f63c81d8bb7e8de432d6", "lon": -77.03910966666666, "type": "electric_scooter", "bike_id": "14b46edbdee5f63c81d8bb7e8de432d6", "fusion_lon": 0.0, "lat": 38.91421283333333, "fusion_lat": 0.0}, {"is_disabled": 0, "rental_uris": {"android": "https://dc.lft.to/lastmile_qr_scan", "ios": "https://dc.lft.to/lastmile_qr_scan"}, "is_reserved": 0, "name": "4cf7f57c7bc2e67ecc859fb97a8cd21a", "lon": -77.0293585, "type": "electric_bike", "bike_id": "4cf7f57c7bc2e67ecc859fb97a8cd21a", "fusion_lon": 0.0, "lat": 38.99851133333333, "fusion_lat": 0.0}, {"is_disabled": 0, "rental_uris": {"android": "https://dc.lft.to/lastmile_qr_scan", "ios": "https://dc.lft.to/lastmile_qr_scan"}, "is_reserved": 0, "name": "c13135c78eca57d9067e9af81fab9c42", "lon": -76.916582, "type": "electric_bike", "bike_id": "c13135c78eca57d9067e9af81fab9c42", "fusion_lon": 0.0, "lat": 38.86859533333333, "fusion_lat": 0.0}, {"is_disabled": 0, "rental_uris": {"android": "https://dc.lft.to/lastmile_qr_scan", "ios": "https://dc.lft.to/lastmile_qr_scan"}, "is_reserved": 0, "name": "94794126e96083564fc574078c162704", "lon": -76.99503416666667, "type": "electric_scooter", "bike_id": "94794126e96083564fc574078c162704", "fusion_lon": 0.0, "lat": 38.88283583333333, "fusion_lat": 0.0}, {"is_disabled": 0, "rental_uris": {"android": "https://dc.lft.to/lastmile_qr_scan", "ios": "https://dc.lft.to/lastmile_qr_scan"}, "is_reserved": 0, "name": "40336f39a88ac0636483a5b4d65d4d41", "lon": -77.02592833333334, "type": "electric_scooter", "bike_id": "40336f39a88ac0636483a5b4d65d4d41", "fusion_lon": 0.0, "lat": 38.920911333333336, "fusion_lat": 0.0}, {"is_disabled": 0, "rental_uris": {"android": "https://dc.lft.to/lastmile_qr_scan", "ios": "https://dc.lft.to/lastmile_qr_scan"}, "is_reserved": 0, "name": "19b0c197617ee0f1693db3b6a83c393a", "lon": -76.95191966666667, "type": "electric_bike", "bike_id": "19b0c197617ee0f1693db3b6a83c393a", "fusion_lon": 0.0, "lat": 38.906892, "fusion_lat": 0.0}, {"is_disabled": 0, "rental_uris": {"android": "https://dc.lft.to/lastmile_qr_scan", "ios": "https://dc.lft.to/lastmile_qr_scan"}, "is_reserved": 0, "name": "bae5388f87a32d342c365a78d2a650dd", "lon": -77.049832, "type": "electric_scooter", "bike_id": "bae5388f87a32d342c365a78d2a650dd", "fusion_lon": 0.0, "lat": 38.90792966666667, "fusion_lat": 0.0},