{"data": {"bikes": [{"fusion_lat": 0.0, "name": "53d168b20ae8e6166bbe5455e3ec8eb5", "is_disabled": 0, "rental_uris": {"android": "https://dc.lft.to/lastmile_qr_scan", "ios": "https://dc.lft.to/lastmile_qr_scan"}, "fusion_lon": 0.0, "lat": 38.942332666666665, "bike_id": "53d168b20ae8e6166bbe5455e3ec8eb5", "type": "electric_scooter", "is_reserved": 0, "lon": -77.013864}, {"fusion_lat": 0.0, "name": "77099b0f68ce45d7777c17a33eaed1fb", "is_disabled": 0, "rental_uris": {"android": "https://dc.lft.to/lastmile_qr_scan", "ios": "https://dc.lft.to/lastmile_qr_scan"}, "fusion_lon": 0.0, "lat": 38.936532666666665, "bike_id": "77099b0f68ce45d7777c17a33eaed1fb", "type": "electric_scooter", "is_reserved": 0, "lon": -77.0304655}, {"fusion_lat": 0.0, "name": "9f586d9f686c9f504adbc147a094e24d", "is_disabled": 0, "rental_uris": {"android": "https://dc.lft.to/lastmile_qr_scan", "ios": "https://dc.lft.to/lastmile_qr_scan"}, "fusion_lon": 0.0, "lat": 38.91330033333333, "bike_id": "9f586d9f686c9f504adbc147a094e24d", "type": "electric_scooter", "is_reserved": 0, "lon": -77.03187333333334}, {"fusion_lat": 0.0, "name": "d470ba78187fff423f86b76ed120ecf0", "is_disabled": 0, "rental_uris": {"android": "https://dc.lft.to/lastmile_qr_scan", "ios": "https://dc.lft.to/lastmile_qr_scan"}, "fusion_lon": 0.0, "lat": 38.88511233333333, "bike_id": "d470ba78187fff423f86b76ed120ecf0", "type": "electric_scooter", "is_reserved": 0, "lon": -77.015189}, {"fusion_lat": 0.0, "name": "2942d09072d3810e99b4b8256ba9064b", "is_disabled": 0, "rental_uris": {"android": "https://dc.lft.to/lastmile_qr_scan", "ios": "https://dc.lft.to/lastmile_qr_scan"}, "fusion_lon": 0.0, "lat": 38.923401166666665, "bike_id": "2942d09072d3810e99b4b8256ba9064b", "type": "electric_scooter", "is_reserved": 0, "lon": -77.03516633333334}, {"fusion_lat": 0.0, "name": "f822a8613ec9937745e361a43e643521", "is_disabled": 0, "rental_uris": {"android": "https://dc.lft.to/lastmile_qr_scan", "ios": "https://dc.lft.to/lastmile_qr_scan"}, "fusion_lon": 0.0, "lat": 38.90251283333333, "bike_id": "f822a8613ec9937745e361a43e643521", "type": "electric_scooter", "is_reserved": 0, "lon": -77.05939066666667}, {"fusion_lat": 0.0, "name": "e9f40554ca6fe815c9999abd801f0363", "is_disabled": 0, "rental_uris": {"android": "https://dc.lft.to/lastmile_qr_scan", "ios": "https://dc.lft.to/lastmile_qr_scan"}, "fusion_lon": 0.0, "lat": 38.91730333333334, "bike_id": "e9f40554ca6fe815c9999abd801f0363", "type": "electric_scooter", "is_reserved": 0, "lon": -77.025021}, {"fusion_lat": 0.0, "name": "601b091468f690ea1849784801390ff4", "is_disabled": 0, "rental_uris": {"android": "https://dc.lft.to/lastmile_qr_scan", "ios": "https://dc.lft.to/lastmile_qr_scan"}, "fusion_lon": 0.0, "lat": 38.895151, "bike_id": "601b091468f690ea1849784801390ff4", "type": "electric_scooter", "is_reserved": 0, "lon": -77.02178266666667}, {"fusion_lat": 0.0, "name": "219668f25314c69b86aca1a0affb3a08", "is_disabled": 0, "rental_uris": {"android": "https://dc.lft.to/lastmile_qr_scan", "ios": "https://dc.lft.to/lastmile_qr_scan"}, "fusion_lon": 0.0, "lat": 38.93723283333333, "bike_id": "219668f25314c69b86aca1a0affb3a08", "type": "electric_scooter", "is_reserved": 0, "lon": -77.02457366666667}, {"fusion_lat": 0.0, "name": "7fe46e3be8abc0cf504184a36bd3ca2f", "is_disabled": 0, "rental_uris": {"android": "https://dc.lft.to/lastmile_qr_scan", "ios": "https://dc.lft.to/lastmile_qr_scan"}, "fusion_lon": 0.0, "lat": 38.901206, "bike_id": "7fe46e3be8abc0cf504184a36bd3ca2f", "type": "electric_scooter", "is_reserved": 0, "lon": -77.04994333333333}, {"fusion_lat": 0.0, "name": "439b716e7c42b6950a790d82c6218849", "is_disabled": 0, "rental_uris": {"android": "https://dc.lft.to/lastmile_qr_scan", "ios": "https://dc.lft.to/lastmile_qr_scan"}, "fusion_lon": 0.0, "lat": 38.8982875, "bike_id": "439b716e7c42b6950a790d82c6218849", "type": "electric_scooter", "is_reserved": 0, "lon": -77.04683033333333}, {"fusion_lat": 0.0, "name": "28fd233873a758f24246d72bfed8891e", "is_disabled": 0, "rental_uris": {"android": "https://dc.lft.to/lastmile_qr_scan", "ios": "https://dc.lft.to/lastmile_qr_scan"}, "fusion_lon": 0.0, "lat": 38.920812166666664, "bike_id": "28fd233873a758f24246d72bfed8891e", "type": "electric_bike", "is_reserved": 0, "lon": -76.98945366666666}, {"fusion_lat": 0.0, "name": "a8af4697e4382f7fae49cb61dccda418", "is_disabled": 0, "rental_uris": {"android": "https://dc.lft.to/lastmile_qr_scan", "ios": "https://dc.lft.to/lastmile_qr_scan"}, "fusion_lon": 0.0, "lat": 38.950739, "bike_id": "a8af4697e4382f7fae49cb61dccda418", "type": "electric_bike", "is_reserved": 0, "lon": -77.07230133333333}, {"fusion_lat": 0.0, "name": "76740312e8f4f87b6b0ed82e0482aade", "is_disabled": 0, "rental_uris": {"android": "https://dc.lft.to/lastmile_qr_scan", "ios": "https://dc.lft.to/lastmile_qr_scan"}, "fusion_lon": 0.0, "lat": 38.922794, "bike_id": "76740312e8f4f87b6b0ed82e0482aade", "type": "electric_scooter", "is_reserved": 0, "lon": -76.991267}, {"fusion_lat": 0.0, "name": "bcb4244bdb085820bd65ffc1b86c1b72", "is_disabled": 0, "rental_uris": {"android": "https://dc.lft.to/lastmile_qr_scan", "ios": "https://dc.lft.to/lastmile_qr_scan"}, "fusion_lon": 0.0, "lat": 38.917888833333336, "bike_id": "bcb4244bdb085820bd65ffc1b86c1b72", "type": "electric_scooter", "is_reserved": 0, "lon": -77.02697516666667}, {"fusion_lat": 0.0, "name": "eb3fbe179fbea7b05fc8ffba015ea477", "is_disabled": 0, "rental_uris": {"android": "https://dc.lft.to/lastmile_qr_scan", "ios": "https://dc.lft.to/lastmile_qr_scan"}, "fusion_lon": 0.0, "lat": 38.958811833333336, "bike_id": "eb3fbe179fbea7b05fc8ffba015ea477", "type": "electric_bike", "is_reserved": 0, "lon": -76.9705655}, {"fusion_lat": 0.0, "name": "d2c535bb275633ebd543ea815385a695", "is_disabled": 0, "rental_uris": {"android": "https://dc.lft.to/lastmile_qr_scan", "ios": "https://dc.lft.to/lastmile_qr_scan"}, "fusion_lon": 0.0, "lat": 38.956387666666664, "bike_id": "d2c535bb275633ebd543ea815385a695", "type": "electric_scooter", "is_reserved": 0, "lon": -77.03302983333333}, {"fusion_lat": 0.0, "name": "567d0eb48146abcc66cac84602cd5ba5", "is_disabled": 0, "rental_uris": {"android": "https://dc.lft.to/lastmile_qr_scan", "ios": "https://dc.lft.to/lastmile_qr_scan"}, "fusion_lon": 0.0, "lat": 38.9097715, "bike_id": "567d0eb48146abcc66cac84602cd5ba5", "type": "electric_scooter", "is_reserved": 0, "lon": -77.02178933333333}, {"fusion_lat": 0.0, "name": "90d29a7edd11e486268a80299891c188", "is_disabled": 0, "rental_uris": {"android": "https://dc.lft.to/lastmile_qr_scan", "ios": "https://dc.lft.to/lastmile_qr_scan"}, "fusion_lon": 0.0, "lat": 38.900004833333334, "bike_id": "90d29a7edd11e486268a80299891c188", "type": "electric_scooter", "is_reserved": 0, "lon": -77.0449585}, {"fusion_lat": 0.0, "name": "00d7d05ea6005feab55533cddcd323c3", "is_disabled": 0, "rental_uris": {"android": "https://dc.lft.to/lastmile_qr_scan", "ios": "https://dc.lft.to/lastmile_qr_scan"}, "fusion_lon": 0.0, "lat": 38.916524333333335, "bike_id": "00d7d05ea6005feab55533cddcd323c3", "type": "electric_scooter", "is_reserved": 0, "lon": -77.03690883333333}, {"fusion_lat": 0.0, "name": "a945a90c9c6b1e5c448ed4a4f6e55f0d", "is_disabled": 0, "rental_uris": {"android": "https://dc.lft.to/lastmile_qr_scan", "ios": "https://dc.lft.to/lastmile_qr_scan"}, "fusion_lon": 0.0, "lat": 38.9266655, "bike_id": "a945a90c9c6b1e5c448ed4a4f6e55f0d", "type": "electric_bike", "is_reserved": 0, "lon": -77.09849766666666}, {"fusion_lat": 0.0, "name": "83b2e6c5d1a40dd4d2c2ee79bf11ac88", "is_disabled": 0, "rental_uris": {"android": "https://dc.lft.to/lastmile_qr_scan", "ios": "https://dc.lft.to/lastmile_qr_scan"}, "fusion_lon": 0.0, "lat": 38.920923333333334, "bike_id": "83b2e6c5d1a40dd4d2c2ee79bf11ac88", "type": "electric_scooter", "is_reserved": 0, "lon": -77.07371466666666}, {"fusion_lat": 0.0, "name": "c1cb5281d8b79520020fa264047b40fe", "is_disabled": 0, "rental_uris": {"android": "https://dc.lft.to/lastmile_qr_scan", "ios": "https://dc.lft.to/lastmile_qr_scan"}, "fusion_lon": 0.0, "lat": 38.9132125, "bike_id": "c1cb5281d8b79520020fa264047b40fe", "type": "electric_scooter", "is_reserved": 0, "lon": -77.02954066666666}, {"fusion_lat": 0.0, "name": "5daf072f6ea4eea60be37fe44274a951", "is_disabled": 0, "rental_uris": {"android": "https://dc.lft.to/lastmile_qr_scan", "ios": "https://dc.lft.to/lastmile_qr_scan"}, "fusion_lon": 0.0, "lat": 38.9111595, "bike_id": "5daf072f6ea4eea60be37fe44274a951", "type": "electric_scooter", "is_reserved": 0, "lon": -77.01149216666667}, {"fusion_lat": 0.0, "name": "f4bca2b338ece4fab13e913251518dc7", "is_disabled": 0, "rental_uris": {"android": "https://dc.lft.to/lastmile_qr_scan", "ios": "https://dc.lft.to/lastmile_qr_scan"}, "fusion_lon": 0.0, "lat": 38.892389666666666, "bike_id": "f4bca2b338ece4fab13e913251518dc7", "type": "electric_scooter", "is_reserved": 0, "lon": -77.032176}, {"fusion_lat": 0.0, "name": "3c6d324f06bc81cb635126eb22686681", "is_disabled": 0, "rental_uris": {"android": "https://dc.lft.to/lastmile_qr_scan", "ios": "https://dc.lft.to/lastmile_qr_scan"}, "fusion_lon": 0.0, "lat": 38.957464, "bike_id": "3c6d324f06bc81cb635126eb22686681", "type": "electric_bike", "is_reserved": 0, "lon": -76.97255216666667}, {"fusion_lat": 0.0, "name": "80ae0043b6561b20e14655325040fa71", "is_disabled": 0, "rental_uris": {"android": "https://dc.lft.to/lastmile_qr_scan", "ios": "https://dc.lft.to/lastmile_qr_scan"}, "fusion_lon": 0.0, "lat": 38.92075083333334, "bike_id": "80ae0043b6561b20e14655325040fa71", "type": "electric_scooter", "is_reserved": 0, "lon": -77.02309966666667}, {"fusion_lat": 0.0, "name": "16197840ed85acc171aba7c752ba6a0c", "is_disabled": 0, "rental_uris": {"android": "https://dc.lft.to/lastmile_qr_scan", "ios": "https://dc.lft.to/lastmile_qr_scan"}, "fusion_lon": 0.0, "lat": 38.917320833333335, "bike_id": "16197840ed85acc171aba7c752ba6a0c", "type": "electric_scooter", "is_reserved": 0, "lon": -77.0684005}, {"fusion_lat": 0.0, "name": "99c360bb7754c0b4878202c84c6cfbcb", "is_disabled": 0, "rental_uris": {"android": "https://dc.lft.to/lastmile_qr_scan", "ios": "https://dc.lft.to/lastmile_qr_scan"}, "fusion_lon": 0.0, "lat": 38.913231333333336, "bike_id": "99c360bb7754c0b4878202c84c6cfbcb", "type": "electric_scooter", "is_reserved": 0, "lon": -77.02135883333334}, {"fusion_lat": 0.0, "name": "97420fa83c478e09341d0a7a0cd35761", "is_disabled": 0, "rental_uris": {"android": "https://dc.lft.to/lastmile_qr_scan", "ios": "https://dc.lft.to/lastmile_qr_scan"}, "fusion_lon": 0.0, "lat": 38.88668666666667, "bike_id": "97420fa83c478e09341d0a7a0cd35761", "type": "electric_scooter", "is_reserved": 0, "lon": -77.0283175}, {"fusion_lat": 0.0, "name": "180c2d95186e6afaee82f79b2980df8b", "is_disabled": 0, "rental_uris": {"android": "https://dc.lft.to/lastmile_qr_scan", "ios": "https://dc.lft.to/lastmile_qr_scan"}, "fusion_lon": 0.0, "lat": 38.9001295, "bike_id": "180c2d95186e6afaee82f79b2980df8b", "type": "electric_scooter", "is_reserved": 0, "lon": -76.9881355}, {"fusion_lat": 0.0, "name": "4ce30d75243fdbfc64f55d8f44d11f5f", "is_disabled": 0, "rental_uris": {"android": "https://dc.lft.to/lastmile_qr_scan", "ios": "https://dc.lft.to/lastmile_qr_scan"}, "fusion_lon": 0.0, "lat": 38.926172666666666, "bike_id": "4ce30d75243fdbfc64f55d8f44d11f5f", "type": "electric_scooter", "is_reserved": 0, "lon": -77.021707}, {"fusion_lat": 0.0, "name": "7e39aa45906f98d86e0babad9496ed29", "is_disabled": 0, "rental_uris": {"android": "https://dc.lft.to/lastmile_qr_scan", "ios": "https://dc.lft.to/lastmile_qr_scan"}, "fusion_lon": 0.0, "lat": 38.92824233333333, "bike_id": "7e39aa45906f98d86e0babad9496ed29", "type": "electric_scooter", "is_reserved": 0, "lon": -77.05460466666666}, {"fusion_lat": 0.0, "name": "fd4060925ae6738e75aa15c669e49331", "is_disabled": 0, "rental_uris": {"android": "https://dc.lft.to/lastmile_qr_scan", "ios": "https://dc.lft.to/lastmile_qr_scan"}, "fusion_lon": 0.0, "lat": 38.9155815, "bike_id": "fd4060925ae6738e75aa15c669e49331", "type": "electric_scooter", "is_reserved": 0, "lon": -77.03231566666666}, {"fusion_lat": 0.0, "name": "d94b414212c9ac4dd656524686790063", "is_disabled": 0, "rental_uris": {"android": "https://dc.lft.to/lastmile_qr_scan", "ios": "https://dc.lft.to/lastmile_qr_scan"}, "fusion_lon": 0.0, "lat": 38.924248, "bike_id": "d94b414212c9ac4dd656524686790063", "type": "electric_scooter", "is_reserved": 0, "lon": -77.01955083333333}, {"fusion_lat": 0.0, "name": "1195fa125624725942d84467d3a6f23b", "is_disabled": 0, "rental_uris": {"android": "https://dc.lft.to/lastmile_qr_scan", "ios": "https://dc.lft.to/lastmile_qr_scan"}, "fusion_lon": 0.0, "lat": 38.987705, "bike_id": "1195fa125624725942d84467d3a6f23b", "type": "electric_bike", "is_reserved": 0, "lon": -77.140559}, {"fusion_lat": 0.0, "name": "61fec47981dc1f8663bafe39da309cc2", "is_disabled": 0, "rental_uris": {"android": "https://dc.lft.to/lastmile_qr_scan", "ios": "https://dc.lft.to/lastmile_qr_scan"}, "fusion_lon": 0.0, "lat": 38.872467, "bike_id": "61fec47981dc1f8663bafe39da309cc2", "type": "electric_scooter", "is_reserved": 0, "lon": -76.97732166666667}, {"fusion_lat": 0.0, "name": "ac5ec9065cd72f94365ee50112b0e83e", "is_disabled": 0, "rental_uris": {"android": "https://dc.lft.to/lastmile_qr_scan", "ios": "https://dc.lft.to/lastmile_qr_scan"}, "fusion_lon": 0.0, "lat": 38.9141735, "bike_id": "ac5ec9065cd72f94365ee50112b0e83e", "type": "electric_scooter", "is_reserved": 0, "lon": -77.0221555}, {"fusion_lat": 0.0, "name": "63ccb3929f6a6614dab4b52a3f10ef86", "is_disabled": 0, "rental_uris": {"android": "https://dc.lft.to/lastmile_qr_scan", "ios": "https://dc.lft.to/lastmile_qr_scan"}, "fusion_lon": 0.0, "lat": 38.90409616666667, "bike_id": "63ccb3929f6a6614dab4b52a3f10ef86", "type": "electric_scooter", "is_reserved": 0, "lon": -76.97329483333333}, {"fusion_lat": 0.0, "name": "4a8566093d59be6b71d14c7cb5fc30ad", "is_disabled": 0, "rental_uris": {"android": "https://dc.lft.to/lastmile_qr_scan", "ios": "https://dc.lft.to/lastmile_qr_scan"}, "fusion_lon": 0.0, "lat": 38.910525166666666, "bike_id": "4a8566093d59be6b71d14c7cb5fc30ad", "type": "electric_scooter", "is_reserved": 0, "lon": -77.053219}, {"fusion_lat": 0.0, "name": "965c86cc2cad4f9ad912c228efee96c1", "is_disabled": 0, "rental_uris": {"android": "https://dc.lft.to/lastmile_qr_scan", "ios": "https://dc.lft.to/lastmile_qr_scan"}, "fusion_lon": 0.0, "lat": 38.9070705, "bike_id": "965c86cc2cad4f9ad912c228efee96c1", "type": "electric_scooter", "is_reserved": 0, "lon": -77.02394033333333}, {"fusion_lat": 0.0, "name": "98fa37e55e397a8908422aca4a327198", "is_disabled": 0, "rental_uris": {"android": "https://dc.lft.to/lastmile_qr_scan", "ios": "https://dc.lft.to/lastmile_qr_scan"}, "fusion_lon": 0.0, "lat": 38.956025833333335, "bike_id": "98fa37e55e397a8908422aca4a327198", "type": "electric_bike", "is_reserved": 0, "lon": -77.01017883333333}, {"fusion_lat": 0.0, "name": "4bc6c6bbff4acbebca40049db99ecef8", "is_disabled": 0, "rental_uris": {"android": "https://dc.lft.to/lastmile_qr_scan", "ios": "https://dc.lft.to/lastmile_qr_scan"}, "fusion_lon": 0.0, "lat": 38.917003333333334, "bike_id": "4bc6c6bbff4acbebca40049db99ecef8", "type": "electric_scooter", "is_reserved": 0, "lon": -77.03588083333334}, {"fusion_lat": 0.0, "name": "cc092914603ab98852af44f33fae5a67", "is_disabled": 0, "rental_uris": {"android": "https://dc.lft.to/lastmile_qr_scan", "ios": "https://dc.lft.to/lastmile_qr_scan"}, "fusion_lon": 0.0, "lat": 38.8973745, "bike_id": "cc092914603ab98852af44f33fae5a67", "type": "electric_scooter", "is_reserved": 0, "lon": -77.043997}, {"fusion_lat": 0.0, "name": "8a02027b5077493d326420a47bbd0497", "is_disabled": 0, "rental_uris": {"android": "https://dc.lft.to/lastmile_qr_scan", "ios": "https://dc.lft.to/lastmile_qr_scan"}, "fusion_lon": 0.0, "lat": 38.941528, "bike_id": "8a02027b5077493d326420a47bbd0497", "type": "electric_bike", "is_reserved": 0, "lon": -77.001976}, {"fusion_lat": 0.0, "name": "03d07c5284cf8d7b1ebe71fdcf74c74d", "is_disabled": 0, "rental_uris": {"android": "https://dc.lft.to/lastmile_qr_scan", "ios": "https://dc.lft.to/lastmile_qr_scan"}, "fusion_lon": 0.0, "lat": 38.88323416666667, "bike_id": "03d07c5284cf8d7b1ebe71fdcf74c74d", "type": "electric_scooter", "is_reserved": 0, "lon": -77.01745666666666}, {"fusion_lat": 0.0, "name": "e376e71032252ef6a3113bdbca3d29d5", "is_disabled": 0, "rental_uris": {"android": "https://dc.lft.to/lastmile_qr_scan", "ios": "https://dc.lft.to/lastmile_qr_scan"}, "fusion_lon": 0.0, "lat": 38.862462666666666, "bike_id": "e376e71032252ef6a3113bdbca3d29d5", "type": "electric_scooter", "is_reserved": 0, "lon": -76.99497783333334}, {"fusion_lat": 0.0, "name": "5f70158bf4993749af7c6ef9f210a624", "is_disabled": 0, "rental_uris": {"android": "https://dc.lft.to/lastmile_qr_scan", "ios": "https://dc.lft.to/lastmile_qr_scan"}, "fusion_lon": 0.0, "lat": 38.883279333333334, "bike_id": "5f70158bf4993749af7c6ef9f210a624", "type": "electric_scooter", "is_reserved": 0, "lon": -77.01763116666666}, {"fusion_lat": 0.0, "name": "9bf7ca18a0e6c057fab127b6b3ae2885", "is_disabled": 0, "rental_uris": {"android": "https://dc.lft.to/lastmile_qr_scan", "ios": "https://dc.lft.to/lastmile_qr_scan"}, "fusion_lon": 0.0, "lat": 38.892314166666665, "bike_id": "9bf7ca18a0e6c057fab127b6b3ae2885", "type": "electric_scooter", "is_reserved": 0, "lon": -77.02410266666666}, {"fusion_lat": 0.0, "name": "b029dfff5a1292d86cf3a3970225dfa9", "is_disabled": 0, "rental_uris": {"android": "https://dc.lft.to/lastmile_qr_scan", "ios": "https://dc.lft.to/lastmile_qr_scan"}, "fusion_lon": 0.0, "lat": 38.897639166666664, "bike_id": "b029dfff5a1292d86cf3a3970225dfa9", "type": "electric_scooter", "is_reserved": 0, "lon": -77.00893283333333}, {"fusion_lat": 0.0, "name": "0a8e1784982d7cf15bbc28bf6408a237", "is_disabled": 0, "rental_uris": {"android": "https://dc.lft.to/lastmile_qr_scan", "ios": "https://dc.lft.to/lastmile_qr_scan"}, "fusion_lon": 0.0, "lat": 38.8962025, "bike_id": "0a8e1784982d7cf15bbc28bf6408a237", "type": "electric_scooter", "is_reserved": 0, "lon": -77.00915433333333}, {"fusion_lat": 0.0, "name": "f6eae0d7c7b1455a6a78365bddfb2294", "is_disabled": 0, "rental_uris": {"android": "https://dc.lft.to/lastmile_qr_scan", "ios": "https://dc.lft.to/lastmile_qr_scan"}, "fusion_lon": 0.0, "lat": 39.052547833333335, "bike_id": "f6eae0d7c7b1455a6a78365bddfb2294", "type": "electric_bike", "is_reserved": 0, "lon": -77.08066583333333}, {"fusion_lat": 0.0, "name": "ee761229f497355694d72b99d3bd317c", "is_disabled": 0, "rental_uris": {"android": "https://dc.lft.to/lastmile_qr_scan", "ios": "https://dc.lft.to/lastmile_qr_scan"}, "fusion_lon": 0.0, "lat": 38.899294833333336, "bike_id": "ee761229f497355694d72b99d3bd317c", "type": "electric_scooter", "is_reserved": 0, "lon": -77.00349483333333}, {"fusion_lat": 0.0, "name": "a0d379bbe643c7424d7cf8bf90d4669d", "is_disabled": 0, "rental_uris": {"android": "https://dc.lft.to/lastmile_qr_scan", "ios": "https://dc.lft.to/lastmile_qr_scan"}, "fusion_lon": 0.0, "lat": 38.9275015, "bike_id": "a0d379bbe643c7424d7cf8bf90d4669d", "type": "electric_scooter", "is_reserved": 0, "lon": -77.02432366666666}, {"fusion_lat": 0.0, "name": "fe10f0f52ee0f8be8e46c34db7b1af15", "is_disabled": 0, "rental_uris": {"android": "https://dc.lft.to/lastmile_qr_scan", "ios": "https://dc.lft.to/lastmile_qr_scan"}, "fusion_lon": 0.0, "lat": 38.908161166666666, "bike_id": "fe10f0f52ee0f8be8e46c34db7b1af15", "type": "electric_scooter", "is_reserved": 0, "lon": -77.0341805}, {"fusion_lat": 0.0, "name": "6b237b87ac9cd4ff591a39d834bb89d0", "is_disabled": 0, "rental_uris": {"android": "https://dc.lft.to/lastmile_qr_scan", "ios": "https://dc.lft.to/lastmile_qr_scan"}, "fusion_lon": 0.0, "lat": 38.8833115, "bike_id": "6b237b87ac9cd4ff591a39d834bb89d0", "type": "electric_scooter", "is_reserved": 0, "lon": -77.01764916666667}, {"fusion_lat": 0.0, "name": "a90715335a5cc206cd45d90cc6cf048d", "is_disabled": 0, "rental_uris": {"android": "https://dc.lft.to/lastmile_qr_scan", "ios": "https://dc.lft.to/lastmile_qr_scan"}, "fusion_lon": 0.0, "lat": 38.91259933333333, "bike_id": "a90715335a5cc206cd45d90cc6cf048d", "type": "electric_scooter", "is_reserved": 0, "lon": -77.00155016666666}, {"fusion_lat": 0.0, "name": "5cf7a39ac72e7056f6920a618a40bd14", "is_disabled": 0, "rental_uris": {"android": "https://dc.lft.to/lastmile_qr_scan", "ios": "https://dc.lft.to/lastmile_qr_scan"}, "fusion_lon": 0.0, "lat": 38.87183266666667, "bike_id": "5cf7a39ac72e7056f6920a618a40bd14", "type": "electric_scooter", "is_reserved": 0, "lon": -77.00616466666666}, {"fusion_lat": 0.0, "name": "b3d96838328021b1e7beac53382f21a2", "is_disabled": 0, "rental_uris": {"android": "https://dc.lft.to/lastmile_qr_scan", "ios": "https://dc.lft.to/lastmile_qr_scan"}, "fusion_lon": 0.0, "lat": 38.9352485, "bike_id": "b3d96838328021b1e7beac53382f21a2", "type": "electric_scooter", "is_reserved": 0, "lon": -77.0725915}, {"fusion_lat": 0.0, "name": "4151788df6f894caa206a33c19b94aac", "is_disabled": 0, "rental_uris": {"android": "https://dc.lft.to/lastmile_qr_scan", "ios": "https://dc.lft.to/lastmile_qr_scan"}, "fusion_lon": 0.0, "lat": 38.898757833333335, "bike_id": "4151788df6f894caa206a33c19b94aac", "type": "electric_scooter", "is_reserved": 0, "lon": -76.93186066666667}, {"fusion_lat": 0.0, "name": "10cf059dd0b5b2804b0d2034bb585cf7", "is_disabled": 0, "rental_uris": {"android": "https://dc.lft.to/lastmile_qr_scan", "ios": "https://dc.lft.to/lastmile_qr_scan"}, "fusion_lon": 0.0, "lat": 38.9096415, "bike_id": "10cf059dd0b5b2804b0d2034bb585cf7", "type": "electric_scooter", "is_reserved": 0, "lon": -77.03543733333333}, {"fusion_lat": 0.0, "name": "67bf3d1330c158b61bcc111b901dc649", "is_disabled": 0, "rental_uris": {"android": "https://dc.lft.to/lastmile_qr_scan", "ios": "https://dc.lft.to/lastmile_qr_scan"}, "fusion_lon": 0.0, "lat": 38.9202605, "bike_id": "67bf3d1330c158b61bcc111b901dc649", "type": "electric_scooter", "is_reserved": 0, "lon": -77.03125616666667}, {"fusion_lat": 0.0, "name": "ff588f01cb749f8d733ccd35107609d8", "is_disabled": 0, "rental_uris": {"android": "https://dc.lft.to/lastmile_qr_scan", "ios": "https://dc.lft.to/lastmile_qr_scan"}, "fusion_lon": 0.0, "lat": 38.8616815, "bike_id": "ff588f01cb749f8d733ccd35107609d8", "type": "electric_scooter", "is_reserved": 0, "lon": -76.98365}, {"fusion_lat": 0.0, "name": "182c332529b8b8de7eb0e47c8b46c611", "is_disabled": 0, "rental_uris": {"android": "https://dc.lft.to/lastmile_qr_scan", "ios": "https://dc.lft.to/lastmile_qr_scan"}, "fusion_lon": 0.0, "lat": 38.92799083333333, "bike_id": "182c332529b8b8de7eb0e47c8b46c611", "type": "electric_scooter", "is_reserved": 0, "lon": -77.032086}, {"fusion_lat": 0.0, "name": "d2b38adc248c2a9e4f56ef41a4bdb0a8", "is_disabled": 0, "rental_uris": {"android": "https://dc.lft.to/lastmile_qr_scan", "ios": "https://dc.lft.to/lastmile_qr_scan"}, "fusion_lon": 0.0, "lat": 38.892887, "bike_id": "d2b38adc248c2a9e4f56ef41a4bdb0a8", "type": "electric_scooter", "is_reserved": 0, "lon": -76.98308566666667}, {"fusion_lat": 0.0, "name": "d415c0ca0e88c46a1294d6874fbd451f", "is_disabled": 0, "rental_uris": {"android": "https://dc.lft.to/lastmile_qr_scan", "ios": "https://dc.lft.to/lastmile_qr_scan"}, "fusion_lon": 0.0, "lat": 38.8995495, "bike_id": "d415c0ca0e88c46a1294d6874fbd451f", "type": "electric_scooter", "is_reserved": 0, "lon": -77.02404033333333}, {"fusion_lat": 0.0, "name": "ec28ec1ac81bf23eee0716cb7b87e390", "is_disabled": 0, "rental_uris": {"android": "https://dc.lft.to/lastmile_qr_scan", "ios": "https://dc.lft.to/lastmile_qr_scan"}, "fusion_lon": 0.0, "lat": 38.908286833333335, "bike_id": "ec28ec1ac81bf23eee0716cb7b87e390", "type": "electric_scooter", "is_reserved": 0, "lon": -76.98260716666667}, {"fusion_lat": 0.0, "name": "e96a506837e786c9757ef68a66247c4d", "is_disabled": 0, "rental_uris": {"android": "https://dc.lft.to/lastmile_qr_scan", "ios": "https://dc.lft.to/lastmile_qr_scan"}, "fusion_lon": 0.0, "lat": 38.920560333333334, "bike_id": "e96a506837e786c9757ef68a66247c4d", "type": "electric_scooter", "is_reserved": 0, "lon": -77.00208716666667}, {"fusion_lat": 0.0, "name": "eac682d875ff1ccdb9e72023d3cf38ce", "is_disabled": 0, "rental_uris": {"android": "https://dc.lft.to/lastmile_qr_scan", "ios": "https://dc.lft.to/lastmile_qr_scan"}, "fusion_lon": 0.0, "lat": 38.91415766666667, "bike_id": "eac682d875ff1ccdb9e72023d3cf38ce", "type": "electric_scooter", "is_reserved": 0, "lon": -77.02211916666667}, {"fusion_lat": 0.0, "name": "0f7b85562a0a4aaef3555c537e6c72dc", "is_disabled": 0, "rental_uris": {"android": "https://dc.lft.to/lastmile_qr_scan", "ios": "https://dc.lft.to/lastmile_qr_scan"}, "fusion_lon": 0.0, "lat": 38.91838283333333, "bike_id": "0f7b85562a0a4aaef3555c537e6c72dc", "type": "electric_scooter", "is_reserved": 0, "lon": -77.03519033333333}, {"fusion_lat": 0.0, "name": "dce811c5e68e4ddf078662b72034bc72", "is_disabled": 0, "rental_uris": {"android": "https://dc.lft.to/lastmile_qr_scan", "ios": "https://dc.lft.to/lastmile_qr_scan"}, "fusion_lon": 0.0, "lat": 38.9250215, "bike_id": "dce811c5e68e4ddf078662b72034bc72", "type": "electric_scooter", "is_reserved": 0, "lon": -77.02142316666666}, {"fusion_lat": 0.0, "name": "c5a01bd5c9a0bd409eed437f6832288a", "is_disabled": 0, "rental_uris": {"android": "https://dc.lft.to/lastmile_qr_scan", "ios": "https://dc.lft.to/lastmile_qr_scan"}, "fusion_lon": 0.0, "lat": 38.91768416666667, "bike_id": "c5a01bd5c9a0bd409eed437f6832288a", "type": "electric_scooter", "is_reserved": 0, "lon": -77.036411}, {"fusion_lat": 0.0, "name": "3646bd7fc27c9300cc35d337d7a4ed21", "is_disabled": 0, "rental_uris": {"android": "https://dc.lft.to/lastmile_qr_scan", "ios": "https://dc.lft.to/lastmile_qr_scan"}, "fusion_lon": 0.0, "lat": 38.913074, "bike_id": "3646bd7fc27c9300cc35d337d7a4ed21", "type": "electric_scooter", "is_reserved": 0, "lon": -77.04870783333334}, {"fusion_lat": 0.0, "name": "2c1e222d1d815035173831fc28b11a2f", "is_disabled": 0, "rental_uris": {"android": "https://dc.lft.to/lastmile_qr_scan", "ios": "https://dc.lft.to/lastmile_qr_scan"}, "fusion_lon": 0.0, "lat": 38.91963366666667, "bike_id": "2c1e222d1d815035173831fc28b11a2f", "type": "electric_scooter", "is_reserved": 0, "lon": -77.07083633333333}, {"fusion_lat": 0.0, "name": "6cb2f4dfec6f0262b1fd931dba9f5c90", "is_disabled": 0, "rental_uris": {"android": "https://dc.lft.to/lastmile_qr_scan", "ios": "https://dc.lft.to/lastmile_qr_scan"}, "fusion_lon": 0.0, "lat": 38.942317, "bike_id": "6cb2f4dfec6f0262b1fd931dba9f5c90", "type": "electric_bike", "is_reserved": 0, "lon": -77.01387333333334}, {"fusion_lat": 0.0, "name": "8c2942864255fb44e37cb787c8a33969", "is_disabled": 0, "rental_uris": {"android": "https://dc.lft.to/lastmile_qr_scan", "ios": "https://dc.lft.to/lastmile_qr_scan"}, "fusion_lon": 0.0, "lat": 38.93600883333333, "bike_id": "8c2942864255fb44e37cb787c8a33969", "type": "electric_scooter", "is_reserved": 0, "lon": -77.02288383333334}, {"fusion_lat": 0.0, "name": "36ed8c0f063965c35c6d47811a00372b", "is_disabled": 0, "rental_uris": {"android": "https://dc.lft.to/lastmile_qr_scan", "ios": "https://dc.lft.to/lastmile_qr_scan"}, "fusion_lon": 0.0, "lat": 38.91394483333333, "bike_id": "36ed8c0f063965c35c6d47811a00372b", "type": "electric_scooter", "is_reserved": 0, "lon": -77.03320766666667}, {"fusion_lat": 0.0, "name": "c16fc7ca95e62f3e06a0befb9f16818a", "is_disabled": 0, "rental_uris": {"android": "https://dc.lft.to/lastmile_qr_scan", "ios": "https://dc.lft.to/lastmile_qr_scan"}, "fusion_lon": 0.0, "lat": 38.9111965, "bike_id": "c16fc7ca95e62f3e06a0befb9f16818a", "type": "electric_scooter", "is_reserved": 0, "lon": -77.03835166666667}, {"fusion_lat": 0.0, "name": "4bd2f4c1995e03c97f8d3c8bfa813611", "is_disabled": 0, "rental_uris": {"android": "https://dc.lft.to/lastmile_qr_scan", "ios": "https://dc.lft.to/lastmile_qr_scan"}, "fusion_lon": 0.0, "lat": 38.924829, "bike_id": "4bd2f4c1995e03c97f8d3c8bfa813611", "type": "electric_scooter", "is_reserved": 0, "lon": -77.026487}, {"fusion_lat": 0.0, "name": "e0a6118e4d348d476e90b43147f29e6a", "is_disabled": 0, "rental_uris": {"android": "https://dc.lft.to/lastmile_qr_scan", "ios": "https://dc.lft.to/lastmile_qr_scan"}, "fusion_lon": 0.0, "lat": 38.9014615, "bike_id": "e0a6118e4d348d476e90b43147f29e6a", "type": "electric_scooter", "is_reserved": 0, "lon": -77.00250616666666}, {"fusion_lat": 0.0, "name": "d254ad52c0ea02f8c6ca0edfd116afa0", "is_disabled": 0, "rental_uris": {"android": "https://dc.lft.to/lastmile_qr_scan", "ios": "https://dc.lft.to/lastmile_qr_scan"}, "fusion_lon": 0.0, "lat": 38.891703166666666, "bike_id": "d254ad52c0ea02f8c6ca0edfd116afa0", "type": "electric_scooter", "is_reserved": 0, "lon": -76.99467383333334}, {"fusion_lat": 0.0, "name": "3cad4bf7f69c4aff7d8c3c99e812cd7f", "is_disabled": 0, "rental_uris": {"android": "https://dc.lft.to/lastmile_qr_scan", "ios": "https://dc.lft.to/lastmile_qr_scan"}, "fusion_lon": 0.0, "lat": 38.899303833333335, "bike_id": "3cad4bf7f69c4aff7d8c3c99e812cd7f", "type": "electric_scooter", "is_reserved": 0, "lon": -77.00351133333334}, {"fusion_lat": 0.0, "name": "b8cee764732ce340292781db14d242e4", "is_disabled": 0, "rental_uris": {"android": "https://dc.lft.to/lastmile_qr_scan", "ios": "https://dc.lft.to/lastmile_qr_scan"}, "fusion_lon": 0.0, "lat": 38.93200083333333, "bike_id": "b8cee764732ce340292781db14d242e4", "type": "electric_scooter", "is_reserved": 0, "lon": -77.027944}, {"fusion_lat": 0.0, "name": "6b7614be478b61320b7ba5eb9fbc8ed8", "is_disabled": 0, "rental_uris": {"android": "https://dc.lft.to/lastmile_qr_scan", "ios": "https://dc.lft.to/lastmile_qr_scan"}, "fusion_lon": 0.0, "lat": 38.895342166666666, "bike_id": "6b7614be478b61320b7ba5eb9fbc8ed8", "type": "electric_scooter", "is_reserved": 0, "lon": -77.0121025}, {"fusion_lat": 0.0, "name": "a411986035ab7d8d5dd56b8cedc7f943", "is_disabled": 0, "rental_uris": {"android": "https://dc.lft.to/lastmile_qr_scan", "ios": "https://dc.lft.to/lastmile_qr_scan"}, "fusion_lon": 0.0, "lat": 38.89067283333333, "bike_id": "a411986035ab7d8d5dd56b8cedc7f943", "type": "electric_scooter", "is_reserved": 0, "lon": -76.944481}, {"fusion_lat": 0.0, "name": "e48136915be5e5c0cb2c00934c64a7b4", "is_disabled": 0, "rental_uris": {"android": "https://dc.lft.to/lastmile_qr_scan", "ios": "https://dc.lft.to/lastmile_qr_scan"}, "fusion_lon": 0.0, "lat": 38.925187333333334, "bike_id": "e48136915be5e5c0cb2c00934c64a7b4", "type": "electric_scooter", "is_reserved": 0, "lon": -76.99569516666666}, {"fusion_lat": 0.0, "name": "5f6344f678d7906c3378a39cdf338f1d", "is_disabled": 0, "rental_uris": {"android": "https://dc.lft.to/lastmile_qr_scan", "ios": "https://dc.lft.to/lastmile_qr_scan"}, "fusion_lon": 0.0, "lat": 38.956424, "bike_id": "5f6344f678d7906c3378a39cdf338f1d", "type": "electric_scooter", "is_reserved": 0, "lon": -77.0241365}, {"fusion_lat": 0.0, "name": "4c1d7baf3de121d0439ee1153731e4c8", "is_disabled": 0, "rental_uris": {"android": "https://dc.lft.to/lastmile_qr_scan", "ios": "https://dc.lft.to/lastmile_qr_scan"}, "fusion_lon": 0.0, "lat": 38.875526666666666, "bike_id": "4c1d7baf3de121d0439ee1153731e4c8", "type": "electric_scooter", "is_reserved": 0, "lon": -77.005635}, {"fusion_lat": 0.0, "name": "a1888c0280a710199675e90fd07cc0d6", "is_disabled": 0, "rental_uris": {"android": "https://dc.lft.to/lastmile_qr_scan", "ios": "https://dc.lft.to/lastmile_qr_scan"}, "fusion_lon": 0.0, "lat": 38.92287366666667, "bike_id": "a1888c0280a710199675e90fd07cc0d6", "type": "electric_scooter", "is_reserved": 0, "lon": -77.0199675}, {"fusion_lat": 0.0, "name": "033a79e27003c9ee51d0fbb65daa7228", "is_disabled": 0, "rental_uris": {"android": "https://dc.lft.to/lastmile_qr_scan", "ios": "https://dc.lft.to/lastmile_qr_scan"}, "fusion_lon": 0.0, "lat": 38.94158083333333, "bike_id": "033a79e27003c9ee51d0fbb65daa7228", "type": "electric_scooter", "is_reserved": 0, "lon": -77.02629183333333}, {"fusion_lat": 0.0, "name": "2c3461c31daba9d943e8b028808e9718", "is_disabled": 0, "rental_uris": {"android": "https://dc.lft.to/lastmile_qr_scan", "ios": "https://dc.lft.to/lastmile_qr_scan"}, "fusion_lon": 0.0, "lat": 38.918299, "bike_id": "2c3461c31daba9d943e8b028808e9718", "type": "electric_scooter", "is_reserved": 0, "lon": -77.03642883333333}, {"fusion_lat": 0.0, "name": "249c1bbc072338b4650d0f6049bbcc31", "is_disabled": 0, "rental_uris": {"android": "https://dc.lft.to/lastmile_qr_scan", "ios": "https://dc.lft.to/lastmile_qr_scan"}, "fusion_lon": 0.0, "lat": 38.926066166666665, "bike_id": "249c1bbc072338b4650d0f6049bbcc31", "type": "electric_scooter", "is_reserved": 0, "lon": -77.021557}, {"fusion_lat": 0.0, "name": "cbcb04e3da24a98a3e657241a9d17c22", "is_disabled": 0, "rental_uris": {"android": "https://dc.lft.to/lastmile_qr_scan", "ios": "https://dc.lft.to/lastmile_qr_scan"}, "fusion_lon": 0.0, "lat": 38.9027125, "bike_id": "cbcb04e3da24a98a3e657241a9d17c22", "type": "electric_scooter", "is_reserved": 0, "lon": -77.0397265}, {"fusion_lat": 0.0, "name": "9d2b63bda65c200e510d1e36ae56ddde", "is_disabled": 0, "rental_uris": {"android": "https://dc.lft.to/lastmile_qr_scan", "ios": "https://dc.lft.to/lastmile_qr_scan"}, "fusion_lon": 0.0, "lat": 38.9620325, "bike_id": "9d2b63bda65c200e510d1e36ae56ddde", "type": "electric_scooter", "is_reserved": 0, "lon": -77.02232933333333}, {"fusion_lat": 0.0, "name": "e760e7278e7e5bd128d2746731077366", "is_disabled": 0, "rental_uris": {"android": "https://dc.lft.to/lastmile_qr_scan", "ios": "https://dc.lft.to/lastmile_qr_scan"}, "fusion_lon": 0.0, "lat": 38.8842895, "bike_id": "e760e7278e7e5bd128d2746731077366", "type": "electric_scooter", "is_reserved": 0, "lon": -77.0220595}, {"fusion_lat": 0.0, "name": "bf52580117a91e79fabbd0020919f775", "is_disabled": 0, "rental_uris": {"android": "https://dc.lft.to/lastmile_qr_scan", "ios": "https://dc.lft.to/lastmile_qr_scan"}, "fusion_lon": 0.0, "lat": 38.99783983333333, "bike_id": "bf52580117a91e79fabbd0020919f775", "type": "electric_bike", "is_reserved": 0, "lon": -77.04716}, {"fusion_lat": 0.0, "name": "4f42a179df4fea79666ef1dc3595818f", "is_disabled": 0, "rental_uris": {"android": "https://dc.lft.to/lastmile_qr_scan", "ios": "https://dc.lft.to/lastmile_qr_scan"}, "fusion_lon": 0.0, "lat": 38.8924495, "bike_id": "4f42a179df4fea79666ef1dc3595818f", "type": "electric_scooter", "is_reserved": 0, "lon": -77.02205466666666}, {"fusion_lat": 0.0, "name": "878c61651f86f7a3d4b176a863043db3", "is_disabled": 0, "rental_uris": {"android": "https://dc.lft.to/lastmile_qr_scan", "ios": "https://dc.lft.to/lastmile_qr_scan"}, "fusion_lon": 0.0, "lat": 38.90309083333333, "bike_id": "878c61651f86f7a3d4b176a863043db3", "type": "electric_bike", "is_reserved": 0, "lon": -76.97653733333334}, {"fusion_lat": 0.0, "name": "5bb99be947cbfb22499130cc4647fe5b", "is_disabled": 0, "rental_uris": {"android": "https://dc.lft.to/lastmile_qr_scan", "ios": "https://dc.lft.to/lastmile_qr_scan"}, "fusion_lon": 0.0, "lat": 38.933952166666664, "bike_id": "5bb99be947cbfb22499130cc4647fe5b", "type": "electric_scooter", "is_reserved": 0, "lon": -77.05745}, {"fusion_lat": 0.0, "name": "5989bd55ba0585d79cccbad4d211457c", "is_disabled": 0, "rental_uris": {"android": "https://dc.lft.to/lastmile_qr_scan", "ios": "https://dc.lft.to/lastmile_qr_scan"}, "fusion_lon": 0.0, "lat": 38.90590316666667, "bike_id": "5989bd55ba0585d79cccbad4d211457c", "type": "electric_scooter", "is_reserved": 0, "lon": -77.03875216666667}, {"fusion_lat": 0.0, "name": "f52b12f2474ce9d98d3e2944ef0bffd3", "is_disabled": 0, "rental_uris": {"android": "https://dc.lft.to/lastmile_qr_scan", "ios": "https://dc.lft.to/lastmile_qr_scan"}, "fusion_lon": 0.0, "lat": 38.93863183333333, "bike_id": "f52b12f2474ce9d98d3e2944ef0bffd3", "type": "electric_scooter", "is_reserved": 0, "lon": -77.02325833333333}, {"fusion_lat": 0.0, "name": "e7a0532bc1c80ce1d574a0d551b0b914", "is_disabled": 0, "rental_uris": {"android": "https://dc.lft.to/lastmile_qr_scan", "ios": "https://dc.lft.to/lastmile_qr_scan"}, "fusion_lon": 0.0, "lat": 38.902948333333335, "bike_id": "e7a0532bc1c80ce1d574a0d551b0b914", "type": "electric_scooter", "is_reserved": 0, "lon": -76.97635616666666}, {"fusion_lat": 0.0, "name": "30a667f69c76e2444f16ad78e6b2a8d1", "is_disabled": 0, "rental_uris": {"android": "https://dc.lft.to/lastmile_qr_scan", "ios": "https://dc.lft.to/lastmile_qr_scan"}, "fusion_lon": 0.0, "lat": 38.896230833333334, "bike_id": "30a667f69c76e2444f16ad78e6b2a8d1", "type": "electric_scooter", "is_reserved": 0, "lon": -77.03166616666667}, {"fusion_lat": 0.0, "name": "9d38e087a86100124d21ff525b103816", "is_disabled": 0, "rental_uris": {"android": "https://dc.lft.to/lastmile_qr_scan", "ios": "https://dc.lft.to/lastmile_qr_scan"}, "fusion_lon": 0.0, "lat": 38.9076185, "bike_id": "9d38e087a86100124d21ff525b103816", "type": "electric_scooter", "is_reserved": 0, "lon": -77.03860783333333}, {"fusion_lat": 0.0, "name": "0716ba462564055be86e284a9e523b9c", "is_disabled": 0, "rental_uris": {"android": "https://dc.lft.to/lastmile_qr_scan", "ios": "https://dc.lft.to/lastmile_qr_scan"}, "fusion_lon": 0.0, "lat": 38.89230533333333, "bike_id": "0716ba462564055be86e284a9e523b9c", "type": "electric_scooter", "is_reserved": 0, "lon": -77.028273}, {"fusion_lat": 0.0, "name": "b107025e7bd90bf9090572b19ab46bfd", "is_disabled": 0, "rental_uris": {"android": "https://dc.lft.to/lastmile_qr_scan", "ios": "https://dc.lft.to/lastmile_qr_scan"}, "fusion_lon": 0.0, "lat": 38.92984516666667, "bike_id": "b107025e7bd90bf9090572b19ab46bfd", "type": "electric_scooter", "is_reserved": 0, "lon": -77.01979716666666}, {"fusion_lat": 0.0, "name": "4cd04dbf446d70278e9e9818d7f2d46c", "is_disabled": 0, "rental_uris": {"android": "https://dc.lft.to/lastmile_qr_scan", "ios": "https://dc.lft.to/lastmile_qr_scan"}, "fusion_lon": 0.0, "lat": 38.91604516666666, "bike_id": "4cd04dbf446d70278e9e9818d7f2d46c", "type": "electric_scooter", "is_reserved": 0, "lon": -77.02204783333333}, {"fusion_lat": 0.0, "name": "871a158088db02a1f3eb4c54a4eb7dc3", "is_disabled": 0, "rental_uris": {"android": "https://dc.lft.to/lastmile_qr_scan", "ios": "https://dc.lft.to/lastmile_qr_scan"}, "fusion_lon": 0.0, "lat": 38.892105, "bike_id": "871a158088db02a1f3eb4c54a4eb7dc3", "type": "electric_scooter", "is_reserved": 0, "lon": -76.99716366666667}, {"fusion_lat": 0.0, "name": "c9fbb9ad3fd67a2b57c1937434a7f3a7", "is_disabled": 0, "rental_uris": {"android": "https://dc.lft.to/lastmile_qr_scan", "ios": "https://dc.lft.to/lastmile_qr_scan"}, "fusion_lon": 0.0, "lat": 38.951861, "bike_id": "c9fbb9ad3fd67a2b57c1937434a7f3a7", "type": "electric_scooter", "is_reserved": 0, "lon": -77.0272495}, {"fusion_lat": 0.0, "name": "e4a6ba673bba3e6be6b6c188af7cc6a7", "is_disabled": 0, "rental_uris": {"android": "https://dc.lft.to/lastmile_qr_scan", "ios": "https://dc.lft.to/lastmile_qr_scan"}, "fusion_lon": 0.0, "lat": 38.92051266666667, "bike_id": "e4a6ba673bba3e6be6b6c188af7cc6a7", "type": "electric_scooter", "is_reserved": 0, "lon": -77.02196483333333}, {"fusion_lat": 0.0, "name": "bce98969fafb0336a03c10e97259de4b", "is_disabled": 0, "rental_uris": {"android": "https://dc.lft.to/lastmile_qr_scan", "ios": "https://dc.lft.to/lastmile_qr_scan"}, "fusion_lon": 0.0, "lat": 38.907858166666664, "bike_id": "bce98969fafb0336a03c10e97259de4b", "type": "electric_scooter", "is_reserved": 0, "lon": -77.03859966666667}, {"fusion_lat": 0.0, "name": "1e1c084921648a38c80f4e9386dfbf9f", "is_disabled": 0, "rental_uris": {"android": "https://dc.lft.to/lastmile_qr_scan", "ios": "https://dc.lft.to/lastmile_qr_scan"}, "fusion_lon": 0.0, "lat": 38.879424666666665, "bike_id": "1e1c084921648a38c80f4e9386dfbf9f", "type": "electric_scooter", "is_reserved": 0, "lon": -77.0087805}, {"fusion_lat": 0.0, "name": "b09965e00760d0be9aab34fbe0cec0ff", "is_disabled": 0, "rental_uris": {"android": "https://dc.lft.to/lastmile_qr_scan", "ios": "https://dc.lft.to/lastmile_qr_scan"}, "fusion_lon": 0.0, "lat": 38.877994, "bike_id": "b09965e00760d0be9aab34fbe0cec0ff", "type": "electric_scooter", "is_reserved": 0, "lon": -77.00124766666667}, {"fusion_lat": 0.0, "name": "32e591527978e90980e14353bf66cf0c", "is_disabled": 0, "rental_uris": {"android": "https://dc.lft.to/lastmile_qr_scan", "ios": "https://dc.lft.to/lastmile_qr_scan"}, "fusion_lon": 0.0, "lat": 38.897350333333335, "bike_id": "32e591527978e90980e14353bf66cf0c", "type": "electric_scooter", "is_reserved": 0, "lon": -77.0442875}, {"fusion_lat": 0.0, "name": "953ef650f78a653cf3145847274f5365", "is_disabled": 0, "rental_uris": {"android": "https://dc.lft.to/lastmile_qr_scan", "ios": "https://dc.lft.to/lastmile_qr_scan"}, "fusion_lon": 0.0, "lat": 38.8841385, "bike_id": "953ef650f78a653cf3145847274f5365", "type": "electric_bike", "is_reserved": 0, "lon": -76.9541865}, {"fusion_lat": 0.0, "name": "8e158f9f5e7df4c2e4e48bf0dbc5398b", "is_disabled": 0, "rental_uris": {"android": "https://dc.lft.to/lastmile_qr_scan", "ios": "https://dc.lft.to/lastmile_qr_scan"}, "fusion_lon": 0.0, "lat": 38.90700233333333, "bike_id": "8e158f9f5e7df4c2e4e48bf0dbc5398b", "type": "electric_scooter", "is_reserved": 0, "lon": -77.02714983333334}, {"fusion_lat": 0.0, "name": "2be6fa33b35cae7a7bd972bdad2ef135", "is_disabled": 0, "rental_uris": {"android": "https://dc.lft.to/lastmile_qr_scan", "ios": "https://dc.lft.to/lastmile_qr_scan"}, "fusion_lon": 0.0, "lat": 38.911296666666665, "bike_id": "2be6fa33b35cae7a7bd972bdad2ef135", "type": "electric_scooter", "is_reserved": 0, "lon": -77.02096566666667}, {"fusion_lat": 0.0, "name": "f2794c34e147b82a65ca41ec8297026d", "is_disabled": 0, "rental_uris": {"android": "https://dc.lft.to/lastmile_qr_scan", "ios": "https://dc.lft.to/lastmile_qr_scan"}, "fusion_lon": 0.0, "lat": 38.96987566666667, "bike_id": "f2794c34e147b82a65ca41ec8297026d", "type": "electric_scooter", "is_reserved": 0, "lon": -77.01161416666666}, {"fusion_lat": 0.0, "name": "86af998eaa4454db3eadb11fb7a68e2a", "is_disabled": 0, "rental_uris": {"android": "https://dc.lft.to/lastmile_qr_scan", "ios": "https://dc.lft.to/lastmile_qr_scan"}, "fusion_lon": 0.0, "lat": 38.96186983333333, "bike_id": "86af998eaa4454db3eadb11fb7a68e2a", "type": "electric_bike", "is_reserved": 0, "lon": -77.05266416666667}, {"fusion_lat": 0.0, "name": "a04ddff057b7e8dabcca51134f40a3d9", "is_disabled": 0, "rental_uris": {"android": "https://dc.lft.to/lastmile_qr_scan", "ios": "https://dc.lft.to/lastmile_qr_scan"}, "fusion_lon": 0.0, "lat": 38.911119166666666, "bike_id": "a04ddff057b7e8dabcca51134f40a3d9", "type": "electric_scooter", "is_reserved": 0, "lon": -77.02907216666667}, {"fusion_lat": 0.0, "name": "92f61326dbb47073f6c4da29d0aded81", "is_disabled": 0, "rental_uris": {"android": "https://dc.lft.to/lastmile_qr_scan", "ios": "https://dc.lft.to/lastmile_qr_scan"}, "fusion_lon": 0.0, "lat": 38.930639666666664, "bike_id": "92f61326dbb47073f6c4da29d0aded81", "type": "electric_scooter", "is_reserved": 0, "lon": -77.04049633333334}, {"fusion_lat": 0.0, "name": "7a992aa8094409419a3f5972ee3b88d0", "is_disabled": 0, "rental_uris": {"android": "https://dc.lft.to/lastmile_qr_scan", "ios": "https://dc.lft.to/lastmile_qr_scan"}, "fusion_lon": 0.0, "lat": 38.97466516666667, "bike_id": "7a992aa8094409419a3f5972ee3b88d0", "type": "electric_scooter", "is_reserved": 0, "lon": -77.01318866666666}, {"fusion_lat": 0.0, "name": "05652472c4128be0602b997334d73ab6", "is_disabled": 0, "rental_uris": {"android": "https://dc.lft.to/lastmile_qr_scan", "ios": "https://dc.lft.to/lastmile_qr_scan"}, "fusion_lon": 0.0, "lat": 38.897318166666665, "bike_id": "05652472c4128be0602b997334d73ab6", "type": "electric_scooter", "is_reserved": 0, "lon": -77.0037465}, {"fusion_lat": 0.0, "name": "d56dc4dab39e9f812bb28c9947196e5b", "is_disabled": 0, "rental_uris": {"android": "https://dc.lft.to/lastmile_qr_scan", "ios": "https://dc.lft.to/lastmile_qr_scan"}, "fusion_lon": 0.0, "lat": 38.909214, "bike_id": "d56dc4dab39e9f812bb28c9947196e5b", "type": "electric_scooter", "is_reserved": 0, "lon": -77.072783}, {"fusion_lat": 0.0, "name": "56212dbaee4be72aab9383734e04d9bc", "is_disabled": 0, "rental_uris": {"android": "https://dc.lft.to/lastmile_qr_scan", "ios": "https://dc.lft.to/lastmile_qr_scan"}, "fusion_lon": 0.0, "lat": 38.919087833333336, "bike_id": "56212dbaee4be72aab9383734e04d9bc", "type": "electric_scooter", "is_reserved": 0, "lon": -77.002141}, {"fusion_lat": 0.0, "name": "c4ef007f0dd228b03df0da82edb3bd1a", "is_disabled": 0, "rental_uris": {"android": "https://dc.lft.to/lastmile_qr_scan", "ios": "https://dc.lft.to/lastmile_qr_scan"}, "fusion_lon": 0.0, "lat": 38.896995, "bike_id": "c4ef007f0dd228b03df0da82edb3bd1a", "type": "electric_scooter", "is_reserved": 0, "lon": -77.0434215}, {"fusion_lat": 0.0, "name": "da14ae173b249c283407422d25456437", "is_disabled": 0, "rental_uris": {"android": "https://dc.lft.to/lastmile_qr_scan", "ios": "https://dc.lft.to/lastmile_qr_scan"}, "fusion_lon": 0.0, "lat": 38.90873416666667, "bike_id": "da14ae173b249c283407422d25456437", "type": "electric_scooter", "is_reserved": 0, "lon": -77.04268483333334}, {"fusion_lat": 0.0, "name": "5acaab80fda953fe997a6cd42e990737", "is_disabled": 0, "rental_uris": {"android": "https://dc.lft.to/lastmile_qr_scan", "ios": "https://dc.lft.to/lastmile_qr_scan"}, "fusion_lon": 0.0, "lat": 38.897355833333336, "bike_id": "5acaab80fda953fe997a6cd42e990737", "type": "electric_bike", "is_reserved": 0, "lon": -76.92047516666666}, {"fusion_lat": 0.0, "name": "0a7d9471f5b22ee88850f6eef74e4526", "is_disabled": 0, "rental_uris": {"android": "https://dc.lft.to/lastmile_qr_scan", "ios": "https://dc.lft.to/lastmile_qr_scan"}, "fusion_lon": 0.0, "lat": 38.891248166666664, "bike_id": "0a7d9471f5b22ee88850f6eef74e4526", "type": "electric_scooter", "is_reserved": 0, "lon": -76.94383016666667}, {"fusion_lat": 0.0, "name": "f1a7536abcf131b17807fc546fd57d40", "is_disabled": 0, "rental_uris": {"android": "https://dc.lft.to/lastmile_qr_scan", "ios": "https://dc.lft.to/lastmile_qr_scan"}, "fusion_lon": 0.0, "lat": 38.9096145, "bike_id": "f1a7536abcf131b17807fc546fd57d40", "type": "electric_scooter", "is_reserved": 0, "lon": -77.03542533333334}, {"fusion_lat": 0.0, "name": "68356e519b6d8825a64c34ba4f9f8ddc", "is_disabled": 0, "rental_uris": {"android": "https://dc.lft.to/lastmile_qr_scan", "ios": "https://dc.lft.to/lastmile_qr_scan"}, "fusion_lon": 0.0, "lat": 38.884858333333334, "bike_id": "68356e519b6d8825a64c34ba4f9f8ddc", "type": "electric_scooter", "is_reserved": 0, "lon": -77.0059845}, {"fusion_lat": 0.0, "name": "dc636b5632fa2bc9440ccb50d530368b", "is_disabled": 0, "rental_uris": {"android": "https://dc.lft.to/lastmile_qr_scan", "ios": "https://dc.lft.to/lastmile_qr_scan"}, "fusion_lon": 0.0, "lat": 38.887700333333335, "bike_id": "dc636b5632fa2bc9440ccb50d530368b", "type": "electric_scooter", "is_reserved": 0, "lon": -76.9835285}, {"fusion_lat": 0.0, "name": "9708443ba95b9de4bb9ef97cf95c8d67", "is_disabled": 0, "rental_uris": {"android": "https://dc.lft.to/lastmile_qr_scan", "ios": "https://dc.lft.to/lastmile_qr_scan"}, "fusion_lon": 0.0, "lat": 38.888958833333334, "bike_id": "9708443ba95b9de4bb9ef97cf95c8d67", "type": "electric_bike", "is_reserved": 0, "lon": -77.115264}, {"fusion_lat": 0.0, "name": "fe1ffc5ab0f7dba1b43d0f385247f1a2", "is_disabled": 0, "rental_uris": {"android": "https://dc.lft.to/lastmile_qr_scan", "ios": "https://dc.lft.to/lastmile_qr_scan"}, "fusion_lon": 0.0, "lat": 38.9087545, "bike_id": "fe1ffc5ab0f7dba1b43d0f385247f1a2", "type": "electric_scooter", "is_reserved": 0, "lon": -77.0345725}, {"fusion_lat": 0.0, "name": "08bde5105c9ba4adbf98e59998696a3c", "is_disabled": 0, "rental_uris": {"android": "https://dc.lft.to/lastmile_qr_scan", "ios": "https://dc.lft.to/lastmile_qr_scan"}, "fusion_lon": 0.0, "lat": 38.89817333333333, "bike_id": "08bde5105c9ba4adbf98e59998696a3c", "type": "electric_scooter", "is_reserved": 0, "lon": -77.03313916666667}, {"fusion_lat": 0.0, "name": "8213b15b4f81f5212121f9ad6a02852f", "is_disabled": 0, "rental_uris": {"android": "https://dc.lft.to/lastmile_qr_scan", "ios": "https://dc.lft.to/lastmile_qr_scan"}, "fusion_lon": 0.0, "lat": 38.909611166666664, "bike_id": "8213b15b4f81f5212121f9ad6a02852f", "type": "electric_bike", "is_reserved": 0, "lon": -77.22890516666666}, {"fusion_lat": 0.0, "name": "e4e4d0f451c79e522d2d6d4c5f8d4598", "is_disabled": 0, "rental_uris": {"android": "https://dc.lft.to/lastmile_qr_scan", "ios": "https://dc.lft.to/lastmile_qr_scan"}, "fusion_lon": 0.0, "lat": 38.88055283333333, "bike_id": "e4e4d0f451c79e522d2d6d4c5f8d4598", "type": "electric_scooter", "is_reserved": 0, "lon": -76.9321635}, {"fusion_lat": 0.0, "name": "38ad81618d43cf1d853d9d6992869d59", "is_disabled": 0, "rental_uris": {"android": "https://dc.lft.to/lastmile_qr_scan", "ios": "https://dc.lft.to/lastmile_qr_scan"}, "fusion_lon": 0.0, "lat": 38.907404166666666, "bike_id": "38ad81618d43cf1d853d9d6992869d59", "type": "electric_scooter", "is_reserved": 0, "lon": -77.03862916666667}, {"fusion_lat": 0.0, "name": "056360e80cee2614989ade86f84e4a43", "is_disabled": 0, "rental_uris": {"android": "https://dc.lft.to/lastmile_qr_scan", "ios": "https://dc.lft.to/lastmile_qr_scan"}, "fusion_lon": 0.0, "lat": 38.92560116666667, "bike_id": "056360e80cee2614989ade86f84e4a43", "type": "electric_scooter", "is_reserved": 0, "lon": -77.022812}, {"fusion_lat": 0.0, "name": "07182046322f2c553baa400da6caec76", "is_disabled": 0, "rental_uris": {"android": "https://dc.lft.to/lastmile_qr_scan", "ios": "https://dc.lft.to/lastmile_qr_scan"}, "fusion_lon": 0.0, "lat": 38.87964016666667, "bike_id": "07182046322f2c553baa400da6caec76", "type": "electric_scooter", "is_reserved": 0, "lon": -77.00605333333333}, {"fusion_lat": 0.0, "name": "9a3006eab1eb6efa9e14185628f893d6", "is_disabled": 0, "rental_uris": {"android": "https://dc.lft.to/lastmile_qr_scan", "ios": "https://dc.lft.to/lastmile_qr_scan"}, "fusion_lon": 0.0, "lat": 38.917177833333334, "bike_id": "9a3006eab1eb6efa9e14185628f893d6", "type": "electric_scooter", "is_reserved": 0, "lon": -77.03666333333334}, {"fusion_lat": 0.0, "name": "a7af99a69a37089cef58c81bfd51d2fa", "is_disabled": 0, "rental_uris": {"android": "https://dc.lft.to/lastmile_qr_scan", "ios": "https://dc.lft.to/lastmile_qr_scan"}, "fusion_lon": 0.0, "lat": 38.932579833333335, "bike_id": "a7af99a69a37089cef58c81bfd51d2fa", "type": "electric_scooter", "is_reserved": 0, "lon": -77.03263}, {"fusion_lat": 0.0, "name": "6d85c0277771d4e76809609a3bc0b13d", "is_disabled": 0, "rental_uris": {"android": "https://dc.lft.to/lastmile_qr_scan", "ios": "https://dc.lft.to/lastmile_qr_scan"}, "fusion_lon": 0.0, "lat": 38.934954, "bike_id": "6d85c0277771d4e76809609a3bc0b13d", "type": "electric_scooter", "is_reserved": 0, "lon": -77.03081583333334}, {"fusion_lat": 0.0, "name": "3e65f664926cfe9533ec8789141e2ae9", "is_disabled": 0, "rental_uris": {"android": "https://dc.lft.to/lastmile_qr_scan", "ios": "https://dc.lft.to/lastmile_qr_scan"}, "fusion_lon": 0.0, "lat": 38.92504066666667, "bike_id": "3e65f664926cfe9533ec8789141e2ae9", "type": "electric_scooter", "is_reserved": 0, "lon": -77.0379815}, {"fusion_lat": 0.0, "name": "0eaf981834d4f12301117a9fa9690167", "is_disabled": 0, "rental_uris": {"android": "https://dc.lft.to/lastmile_qr_scan", "ios": "https://dc.lft.to/lastmile_qr_scan"}, "fusion_lon": 0.0, "lat": 38.991652333333334, "bike_id": "0eaf981834d4f12301117a9fa9690167", "type": "electric_bike", "is_reserved": 0, "lon": -77.02576916666666}, {"fusion_lat": 0.0, "name": "642ce4ffbb3620e2b8fd51c967032d3a", "is_disabled": 0, "rental_uris": {"android": "https://dc.lft.to/lastmile_qr_scan", "ios": "https://dc.lft.to/lastmile_qr_scan"}, "fusion_lon": 0.0, "lat": 38.910179, "bike_id": "642ce4ffbb3620e2b8fd51c967032d3a", "type": "electric_scooter", "is_reserved": 0, "lon": -77.02718283333333}, {"fusion_lat": 0.0, "name": "c1faa07415c3b051402b22be3e1ed9fd", "is_disabled": 0, "rental_uris": {"android": "https://dc.lft.to/lastmile_qr_scan", "ios": "https://dc.lft.to/lastmile_qr_scan"}, "fusion_lon": 0.0, "lat": 38.905783666666665, "bike_id": "c1faa07415c3b051402b22be3e1ed9fd", "type": "electric_scooter", "is_reserved": 0, "lon": -77.022105}, {"fusion_lat": 0.0, "name": "1624c6125af87bccfcdbb9fb2b036141", "is_disabled": 0, "rental_uris": {"android": "https://dc.lft.to/lastmile_qr_scan", "ios": "https://dc.lft.to/lastmile_qr_scan"}, "fusion_lon": 0.0, "lat": 38.905696666666664, "bike_id": "1624c6125af87bccfcdbb9fb2b036141", "type": "electric_scooter", "is_reserved": 0, "lon": -77.04637566666666}, {"fusion_lat": 0.0, "name": "76b029be8d514447d049949b8768e599", "is_disabled": 0, "rental_uris": {"android": "https://dc.lft.to/lastmile_qr_scan", "ios": "https://dc.lft.to/lastmile_qr_scan"}, "fusion_lon": 0.0, "lat": 38.92375633333333, "bike_id": "76b029be8d514447d049949b8768e599", "type": "electric_scooter", "is_reserved": 0, "lon": -77.0213925}, {"fusion_lat": 0.0, "name": "3c1ab19a7ca028356964de7c962474df", "is_disabled": 0, "rental_uris": {"android": "https://dc.lft.to/lastmile_qr_scan", "ios": "https://dc.lft.to/lastmile_qr_scan"}, "fusion_lon": 0.0, "lat": 38.9077895, "bike_id": "3c1ab19a7ca028356964de7c962474df", "type": "electric_scooter", "is_reserved": 0, "lon": -77.03857483333333}, {"fusion_lat": 0.0, "name": "57ff55d4cc4175ccf3cd6f7df5bbb134", "is_disabled": 0, "rental_uris": {"android": "https://dc.lft.to/lastmile_qr_scan", "ios": "https://dc.lft.to/lastmile_qr_scan"}, "fusion_lon": 0.0, "lat": 38.9079375, "bike_id": "57ff55d4cc4175ccf3cd6f7df5bbb134", "type": "electric_scooter", "is_reserved": 0, "lon": -77.03443466666667}, {"fusion_lat": 0.0, "name": "fcc1271b6f29a348d843302fd3fa3dde", "is_disabled": 0, "rental_uris": {"android": "https://dc.lft.to/lastmile_qr_scan", "ios": "https://dc.lft.to/lastmile_qr_scan"}, "fusion_lon": 0.0, "lat": 38.884696, "bike_id": "fcc1271b6f29a348d843302fd3fa3dde", "type": "electric_scooter", "is_reserved": 0, "lon": -77.01513783333333}, {"fusion_lat": 0.0, "name": "ab6cfc1d3fbd83fc675e54bcbe03b39a", "is_disabled": 0, "rental_uris": {"android": "https://dc.lft.to/lastmile_qr_scan", "ios": "https://dc.lft.to/lastmile_qr_scan"}, "fusion_lon": 0.0, "lat": 38.91322366666667, "bike_id": "ab6cfc1d3fbd83fc675e54bcbe03b39a", "type": "electric_scooter", "is_reserved": 0, "lon": -77.02132366666666}, {"fusion_lat": 0.0, "name": "45f87a0e05d99c7cc2ec9550a674149f", "is_disabled": 0, "rental_uris": {"android": "https://dc.lft.to/lastmile_qr_scan", "ios": "https://dc.lft.to/lastmile_qr_scan"}, "fusion_lon": 0.0, "lat": 38.88331016666667, "bike_id": "45f87a0e05d99c7cc2ec9550a674149f", "type": "electric_scooter", "is_reserved": 0, "lon": -77.01670366666667}, {"fusion_lat": 0.0, "name": "8331328b80f69d1d98e4927f833aa75c", "is_disabled": 0, "rental_uris": {"android": "https://dc.lft.to/lastmile_qr_scan", "ios": "https://dc.lft.to/lastmile_qr_scan"}, "fusion_lon": 0.0, "lat": 38.8961265, "bike_id": "8331328b80f69d1d98e4927f833aa75c", "type": "electric_scooter", "is_reserved": 0, "lon": -77.0092775}, {"fusion_lat": 0.0, "name": "86ec5c29a45502475a8a1cc2363bc791", "is_disabled": 0, "rental_uris": {"android": "https://dc.lft.to/lastmile_qr_scan", "ios": "https://dc.lft.to/lastmile_qr_scan"}, "fusion_lon": 0.0, "lat": 38.9318125, "bike_id": "86ec5c29a45502475a8a1cc2363bc791", "type": "electric_scooter", "is_reserved": 0, "lon": -77.0731825}, {"fusion_lat": 0.0, "name": "b290c463457aa0a6ce7442c692ac7ae5", "is_disabled": 0, "rental_uris": {"android": "https://dc.lft.to/lastmile_qr_scan", "ios": "https://dc.lft.to/lastmile_qr_scan"}, "fusion_lon": 0.0, "lat": 38.88492166666666, "bike_id": "b290c463457aa0a6ce7442c692ac7ae5", "type": "electric_scooter", "is_reserved": 0, "lon": -77.01085566666667}, {"fusion_lat": 0.0, "name": "08adc8fe48ae8e412089b2f7e131a702", "is_disabled": 0, "rental_uris": {"android": "https://dc.lft.to/lastmile_qr_scan", "ios": "https://dc.lft.to/lastmile_qr_scan"}, "fusion_lon": 0.0, "lat": 38.917031333333334, "bike_id": "08adc8fe48ae8e412089b2f7e131a702", "type": "electric_scooter", "is_reserved": 0, "lon": -77.02740516666667}, {"fusion_lat": 0.0, "name": "6c2390eb57c3a1ae0b82298b2bbcd447", "is_disabled": 0, "rental_uris": {"android": "https://dc.lft.to/lastmile_qr_scan", "ios": "https://dc.lft.to/lastmile_qr_scan"}, "fusion_lon": 0.0, "lat": 38.928157666666664, "bike_id": "6c2390eb57c3a1ae0b82298b2bbcd447", "type": "electric_scooter", "is_reserved": 0, "lon": -77.01410433333334}, {"fusion_lat": 0.0, "name": "aa1a7ed1d7a26e49274e941c81fcd7b4", "is_disabled": 0, "rental_uris": {"android": "https://dc.lft.to/lastmile_qr_scan", "ios": "https://dc.lft.to/lastmile_qr_scan"}, "fusion_lon": 0.0, "lat": 38.91794733333333, "bike_id": "aa1a7ed1d7a26e49274e941c81fcd7b4", "type": "electric_scooter", "is_reserved": 0, "lon": -77.03193333333333}, {"fusion_lat": 0.0, "name": "bd0aa8e97c83668c13a4aee52674d309", "is_disabled": 0, "rental_uris": {"android": "https://dc.lft.to/lastmile_qr_scan", "ios": "https://dc.lft.to/lastmile_qr_scan"}, "fusion_lon": 0.0, "lat": 38.90986683333333, "bike_id": "bd0aa8e97c83668c13a4aee52674d309", "type": "electric_scooter", "is_reserved": 0, "lon": -77.03189183333333}, {"fusion_lat": 0.0, "name": "0c2c2faef8edcda4d396a05f94e0ce03", "is_disabled": 0, "rental_uris": {"android": "https://dc.lft.to/lastmile_qr_scan", "ios": "https://dc.lft.to/lastmile_qr_scan"}, "fusion_lon": 0.0, "lat": 38.916403, "bike_id": "0c2c2faef8edcda4d396a05f94e0ce03", "type": "electric_scooter", "is_reserved": 0, "lon": -77.03983683333334}, {"fusion_lat": 0.0, "name": "70edef3beb7bf673a65d0c25d52c4f33", "is_disabled": 0, "rental_uris": {"android": "https://dc.lft.to/lastmile_qr_scan", "ios": "https://dc.lft.to/lastmile_qr_scan"}, "fusion_lon": 0.0, "lat": 38.94952766666667, "bike_id": "70edef3beb7bf673a65d0c25d52c4f33", "type": "electric_bike", "is_reserved": 0, "lon": -77.0653}, {"fusion_lat": 0.0, "name": "e5529813aa13ef7eb976f19bef42b82b", "is_disabled": 0, "rental_uris": {"android": "https://dc.lft.to/lastmile_qr_scan", "ios": "https://dc.lft.to/lastmile_qr_scan"}, "fusion_lon": 0.0, "lat": 38.922554, "bike_id": "e5529813aa13ef7eb976f19bef42b82b", "type": "electric_scooter", "is_reserved": 0, "lon": -77.04245416666667}, {"fusion_lat": 0.0, "name": "e4cc8d904991cd9ae1d5992f9e729468", "is_disabled": 0, "rental_uris": {"android": "https://dc.lft.to/lastmile_qr_scan", "ios": "https://dc.lft.to/lastmile_qr_scan"}, "fusion_lon": 0.0, "lat": 38.914189, "bike_id": "e4cc8d904991cd9ae1d5992f9e729468", "type": "electric_scooter", "is_reserved": 0, "lon": -77.01327133333334}, {"fusion_lat": 0.0, "name": "0a69a841ea0e63cdcc20fef625dcc355", "is_disabled": 0, "rental_uris": {"android": "https://dc.lft.to/lastmile_qr_scan", "ios": "https://dc.lft.to/lastmile_qr_scan"}, "fusion_lon": 0.0, "lat": 38.91930833333333, "bike_id": "0a69a841ea0e63cdcc20fef625dcc355", "type": "electric_scooter", "is_reserved": 0, "lon": -77.04479516666666}, {"fusion_lat": 0.0, "name": "258ec800219309eb7d80e3ceff716152", "is_disabled": 0, "rental_uris": {"android": "https://dc.lft.to/lastmile_qr_scan", "ios": "https://dc.lft.to/lastmile_qr_scan"}, "fusion_lon": 0.0, "lat": 38.866246, "bike_id": "258ec800219309eb7d80e3ceff716152", "type": "electric_bike", "is_reserved": 0, "lon": -76.945687}, {"fusion_lat": 0.0, "name": "857a64a95a543cfe0fcadec04c0329ad", "is_disabled": 0, "rental_uris": {"android": "https://dc.lft.to/lastmile_qr_scan", "ios": "https://dc.lft.to/lastmile_qr_scan"}, "fusion_lon": 0.0, "lat": 38.864582, "bike_id": "857a64a95a543cfe0fcadec04c0329ad", "type": "electric_bike", "is_reserved": 0, "lon": -76.94528783333334}, {"fusion_lat": 0.0, "name": "be5a173bcfb8d1359772566383081bbb", "is_disabled": 0, "rental_uris": {"android": "https://dc.lft.to/lastmile_qr_scan", "ios": "https://dc.lft.to/lastmile_qr_scan"}, "fusion_lon": 0.0, "lat": 38.902771, "bike_id": "be5a173bcfb8d1359772566383081bbb", "type": "electric_scooter", "is_reserved": 0, "lon": -77.03942033333334}, {"fusion_lat": 0.0, "name": "0a28befeca4fd8cbd3830ae608bffe6b", "is_disabled": 0, "rental_uris": {"android": "https://dc.lft.to/lastmile_qr_scan", "ios": "https://dc.lft.to/lastmile_qr_scan"}, "fusion_lon": 0.0, "lat": 38.9734465, "bike_id": "0a28befeca4fd8cbd3830ae608bffe6b", "type": "electric_bike", "is_reserved": 0, "lon": -77.0180055}, {"fusion_lat": 0.0, "name": "60f587df404a5c62731f4620bee2fa9b", "is_disabled": 0, "rental_uris": {"android": "https://dc.lft.to/lastmile_qr_scan", "ios": "https://dc.lft.to/lastmile_qr_scan"}, "fusion_lon": 0.0, "lat": 38.90685833333333, "bike_id": "60f587df404a5c62731f4620bee2fa9b", "type": "electric_bike", "is_reserved": 0, "lon": -76.94493466666667}, {"fusion_lat": 0.0, "name": "346d8554642052d964937e647c9b038f", "is_disabled": 0, "rental_uris": {"android": "https://dc.lft.to/lastmile_qr_scan", "ios": "https://dc.lft.to/lastmile_qr_scan"}, "fusion_lon": 0.0, "lat": 38.90732933333334, "bike_id": "346d8554642052d964937e647c9b038f", "type": "electric_scooter", "is_reserved": 0, "lon": -77.01113366666667}, {"fusion_lat": 0.0, "name": "c6ab81631daad2a594f4c5e3991bbd3a", "is_disabled": 0, "rental_uris": {"android": "https://dc.lft.to/lastmile_qr_scan", "ios": "https://dc.lft.to/lastmile_qr_scan"}, "fusion_lon": 0.0, "lat": 38.90030616666667, "bike_id": "c6ab81631daad2a594f4c5e3991bbd3a", "type": "electric_scooter", "is_reserved": 0, "lon": -76.99859366666666}, {"fusion_lat": 0.0, "name": "febb849985e4ee9ec096ddeb500ab96f", "is_disabled": 0, "rental_uris": {"android": "https://dc.lft.to/lastmile_qr_scan", "ios": "https://dc.lft.to/lastmile_qr_scan"}, "fusion_lon": 0.0, "lat": 38.984648166666666, "bike_id": "febb849985e4ee9ec096ddeb500ab96f", "type": "electric_bike", "is_reserved": 0, "lon": -76.97050466666667}, {"fusion_lat": 0.0, "name": "02b2f14f4ddbf5207c7308ea87e973ae", "is_disabled": 0, "rental_uris": {"android": "https://dc.lft.to/lastmile_qr_scan", "ios": "https://dc.lft.to/lastmile_qr_scan"}, "fusion_lon": 0.0, "lat": 38.90585016666667, "bike_id": "02b2f14f4ddbf5207c7308ea87e973ae", "type": "electric_scooter", "is_reserved": 0, "lon": -77.04427366666667}, {"fusion_lat": 0.0, "name": "c417f85c9797172e9ab86bc735cd73af", "is_disabled": 0, "rental_uris": {"android": "https://dc.lft.to/lastmile_qr_scan", "ios": "https://dc.lft.to/lastmile_qr_scan"}, "fusion_lon": 0.0, "lat": 38.88770983333333, "bike_id": "c417f85c9797172e9ab86bc735cd73af", "type": "electric_scooter", "is_reserved": 0, "lon": -76.97746166666667}, {"fusion_lat": 0.0, "name": "301c1698f8b5a37581fae9a1442013fa", "is_disabled": 0, "rental_uris": {"android": "https://dc.lft.to/lastmile_qr_scan", "ios": "https://dc.lft.to/lastmile_qr_scan"}, "fusion_lon": 0.0, "lat": 38.917862666666664, "bike_id": "301c1698f8b5a37581fae9a1442013fa", "type": "electric_scooter", "is_reserved": 0, "lon": -77.02308266666667}, {"fusion_lat": 0.0, "name": "7ee28ef839717b6ca87e42a58b7167c3", "is_disabled": 0, "rental_uris": {"android": "https://dc.lft.to/lastmile_qr_scan", "ios": "https://dc.lft.to/lastmile_qr_scan"}, "fusion_lon": 0.0, "lat": 38.898389, "bike_id": "7ee28ef839717b6ca87e42a58b7167c3", "type": "electric_scooter", "is_reserved": 0, "lon": -77.0075655}, {"fusion_lat": 0.0, "name": "5c696b89aa036099cb169bf7bd796049", "is_disabled": 0, "rental_uris": {"android": "https://dc.lft.to/lastmile_qr_scan", "ios": "https://dc.lft.to/lastmile_qr_scan"}, "fusion_lon": 0.0, "lat": 38.92780666666667, "bike_id": "5c696b89aa036099cb169bf7bd796049", "type": "electric_scooter", "is_reserved": 0, "lon": -77.0270675}, {"fusion_lat": 0.0, "name": "3df0e0e503c6a8a5f089ab57edbdf7f7", "is_disabled": 0, "rental_uris": {"android": "https://dc.lft.to/lastmile_qr_scan", "ios": "https://dc.lft.to/lastmile_qr_scan"}, "fusion_lon": 0.0, "lat": 38.9015205, "bike_id": "3df0e0e503c6a8a5f089ab57edbdf7f7", "type": "electric_scooter", "is_reserved": 0, "lon": -76.9306555}, {"fusion_lat": 0.0, "name": "cfc0a358ef3f2cd48f3246d8ca5a36d7", "is_disabled": 0, "rental_uris": {"android": "https://dc.lft.to/lastmile_qr_scan", "ios": "https://dc.lft.to/lastmile_qr_scan"}, "fusion_lon": 0.0, "lat": 38.92108116666667, "bike_id": "cfc0a358ef3f2cd48f3246d8ca5a36d7", "type": "electric_scooter", "is_reserved": 0, "lon": -77.04166766666667}, {"fusion_lat": 0.0, "name": "4600c9430ccad308fcfea72d43cf1f9b", "is_disabled": 0, "rental_uris": {"android": "https://dc.lft.to/lastmile_qr_scan", "ios": "https://dc.lft.to/lastmile_qr_scan"}, "fusion_lon": 0.0, "lat": 38.88612366666667, "bike_id": "4600c9430ccad308fcfea72d43cf1f9b", "type": "electric_scooter", "is_reserved": 0, "lon": -77.01250066666667}, {"fusion_lat": 0.0, "name": "0d44b9a1af4df2c969cebc3b89b5244b", "is_disabled": 0, "rental_uris": {"android": "https://dc.lft.to/lastmile_qr_scan", "ios": "https://dc.lft.to/lastmile_qr_scan"}, "fusion_lon": 0.0, "lat": 38.899646, "bike_id": "0d44b9a1af4df2c969cebc3b89b5244b", "type": "electric_scooter", "is_reserved": 0, "lon": -77.00679866666667}, {"fusion_lat": 0.0, "name": "3fe77e016a5b2c06173d75ac6a249598", "is_disabled": 0, "rental_uris": {"android": "https://dc.lft.to/lastmile_qr_scan", "ios": "https://dc.lft.to/lastmile_qr_scan"}, "fusion_lon": 0.0, "lat": 38.9089645, "bike_id": "3fe77e016a5b2c06173d75ac6a249598", "type": "electric_scooter", "is_reserved": 0, "lon": -76.9985855}, {"fusion_lat": 0.0, "name": "ca2d96e47dc2bb7b809c45e7cd5468a9", "is_disabled": 0, "rental_uris": {"android": "https://dc.lft.to/lastmile_qr_scan", "ios": "https://dc.lft.to/lastmile_qr_scan"}, "fusion_lon": 0.0, "lat": 38.89230383333334, "bike_id": "ca2d96e47dc2bb7b809c45e7cd5468a9", "type": "electric_scooter", "is_reserved": 0, "lon": -77.0240875}, {"fusion_lat": 0.0, "name": "e1f095a62ad854271dfe074e162b5ce7", "is_disabled": 0, "rental_uris": {"android": "https://dc.lft.to/lastmile_qr_scan", "ios": "https://dc.lft.to/lastmile_qr_scan"}, "fusion_lon": 0.0, "lat": 38.911180333333334, "bike_id": "e1f095a62ad854271dfe074e162b5ce7", "type": "electric_scooter", "is_reserved": 0, "lon": -76.99769366666666}, {"fusion_lat": 0.0, "name": "c0edf0770cb72a5f95dc247266ba7714", "is_disabled": 0, "rental_uris": {"android": "https://dc.lft.to/lastmile_qr_scan", "ios": "https://dc.lft.to/lastmile_qr_scan"}, "fusion_lon": 0.0, "lat": 38.929588833333334, "bike_id": "c0edf0770cb72a5f95dc247266ba7714", "type": "electric_scooter", "is_reserved": 0, "lon": -77.029783}, {"fusion_lat": 0.0, "name": "43d7cd145a7409b7bcff8483e1922181", "is_disabled": 0, "rental_uris": {"android": "https://dc.lft.to/lastmile_qr_scan", "ios": "https://dc.lft.to/lastmile_qr_scan"}, "fusion_lon": 0.0, "lat": 38.90736366666667, "bike_id": "43d7cd145a7409b7bcff8483e1922181", "type": "electric_scooter", "is_reserved": 0, "lon": -77.03861}, {"fusion_lat": 0.0, "name": "b62869b376a6f896840b850f5887d253", "is_disabled": 0, "rental_uris": {"android": "https://dc.lft.to/lastmile_qr_scan", "ios": "https://dc.lft.to/lastmile_qr_scan"}, "fusion_lon": 0.0, "lat": 38.905189166666666, "bike_id": "b62869b376a6f896840b850f5887d253", "type": "electric_scooter", "is_reserved": 0, "lon": -77.06883216666667}, {"fusion_lat": 0.0, "name": "1dfe8fb820187033e95a02fbf8af58c7", "is_disabled": 0, "rental_uris": {"android": "https://dc.lft.to/lastmile_qr_scan", "ios": "https://dc.lft.to/lastmile_qr_scan"}, "fusion_lon": 0.0, "lat": 38.88638566666667, "bike_id": "1dfe8fb820187033e95a02fbf8af58c7", "type": "electric_scooter", "is_reserved": 0, "lon": -77.0195255}, {"fusion_lat": 0.0, "name": "37392e93bbc310c14f76e0206311c039", "is_disabled": 0, "rental_uris": {"android": "https://dc.lft.to/lastmile_qr_scan", "ios": "https://dc.lft.to/lastmile_qr_scan"}, "fusion_lon": 0.0, "lat": 38.932189, "bike_id": "37392e93bbc310c14f76e0206311c039", "type": "electric_scooter", "is_reserved": 0, "lon": -77.03520133333333}, {"fusion_lat": 0.0, "name": "9bc058ec9f6dfb0b0912c5bc4ad717a8", "is_disabled": 0, "rental_uris": {"android": "https://dc.lft.to/lastmile_qr_scan", "ios": "https://dc.lft.to/lastmile_qr_scan"}, "fusion_lon": 0.0, "lat": 38.92320333333333, "bike_id": "9bc058ec9f6dfb0b0912c5bc4ad717a8", "type": "electric_scooter", "is_reserved": 0, "lon": -77.029086}, {"fusion_lat": 0.0, "name": "44aec2d9ae372b9de6f89a324941f07c", "is_disabled": 0, "rental_uris": {"android": "https://dc.lft.to/lastmile_qr_scan", "ios": "https://dc.lft.to/lastmile_qr_scan"}, "fusion_lon": 0.0, "lat": 38.88558116666667, "bike_id": "44aec2d9ae372b9de6f89a324941f07c", "type": "electric_scooter", "is_reserved": 0, "lon": -76.977161}, {"fusion_lat": 0.0, "name": "14efc5c8a23a3209eb599a43b2234811", "is_disabled": 0, "rental_uris": {"android": "https://dc.lft.to/lastmile_qr_scan", "ios": "https://dc.lft.to/lastmile_qr_scan"}, "fusion_lon": 0.0, "lat": 38.89229, "bike_id": "14efc5c8a23a3209eb599a43b2234811", "type": "electric_scooter", "is_reserved": 0, "lon": -77.03216716666667}, {"fusion_lat": 0.0, "name": "ff3a18783ce876b91df05c23bcace7d3", "is_disabled": 0, "rental_uris": {"android": "https://dc.lft.to/lastmile_qr_scan", "ios": "https://dc.lft.to/lastmile_qr_scan"}, "fusion_lon": 0.0, "lat": 38.90067466666667, "bike_id": "ff3a18783ce876b91df05c23bcace7d3", "type": "electric_scooter", "is_reserved": 0, "lon": -77.054206}, {"fusion_lat": 0.0, "name": "2d55c206ded95ed043773b53e695441e", "is_disabled": 0, "rental_uris": {"android": "https://dc.lft.to/lastmile_qr_scan", "ios": "https://dc.lft.to/lastmile_qr_scan"}, "fusion_lon": 0.0, "lat": 38.91660916666667, "bike_id": "2d55c206ded95ed043773b53e695441e", "type": "electric_scooter", "is_reserved": 0, "lon": -77.02821183333333}, {"fusion_lat": 0.0, "name": "e757a5b90c85c3a4bf2979b6f6573e74", "is_disabled": 0, "rental_uris": {"android": "https://dc.lft.to/lastmile_qr_scan", "ios": "https://dc.lft.to/lastmile_qr_scan"}, "fusion_lon": 0.0, "lat": 38.919248833333334, "bike_id": "e757a5b90c85c3a4bf2979b6f6573e74", "type": "electric_scooter", "is_reserved": 0, "lon": -77.009677}, {"fusion_lat": 0.0, "name": "2b0b851266ca16d1d59434e1aaf17803", "is_disabled": 0, "rental_uris": {"android": "https://dc.lft.to/lastmile_qr_scan", "ios": "https://dc.lft.to/lastmile_qr_scan"}, "fusion_lon": 0.0, "lat": 38.916712833333335, "bike_id": "2b0b851266ca16d1d59434e1aaf17803", "type": "electric_scooter", "is_reserved": 0, "lon": -77.02261033333333}, {"fusion_lat": 0.0, "name": "a87b77ff083cd7b3d88856386ba91251", "is_disabled": 0, "rental_uris": {"android": "https://dc.lft.to/lastmile_qr_scan", "ios": "https://dc.lft.to/lastmile_qr_scan"}, "fusion_lon": 0.0, "lat": 38.89221633333333, "bike_id": "a87b77ff083cd7b3d88856386ba91251", "type": "electric_scooter", "is_reserved": 0, "lon": -77.03219416666667}, {"fusion_lat": 0.0, "name": "026216554424d77c4ca2a46aa0e703e3", "is_disabled": 0, "rental_uris": {"android": "https://dc.lft.to/lastmile_qr_scan", "ios": "https://dc.lft.to/lastmile_qr_scan"}, "fusion_lon": 0.0, "lat": 38.876350333333335, "bike_id": "026216554424d77c4ca2a46aa0e703e3", "type": "electric_scooter", "is_reserved": 0, "lon": -77.009493}, {"fusion_lat": 0.0, "name": "7f975022949aaf31ee8231473be865f4", "is_disabled": 0, "rental_uris": {"android": "https://dc.lft.to/lastmile_qr_scan", "ios": "https://dc.lft.to/lastmile_qr_scan"}, "fusion_lon": 0.0, "lat": 38.89744733333333, "bike_id": "7f975022949aaf31ee8231473be865f4", "type": "electric_scooter", "is_reserved": 0, "lon": -77.03173766666667}, {"fusion_lat": 0.0, "name": "4194949d71f3792d031ee1a36b9d7e26", "is_disabled": 0, "rental_uris": {"android": "https://dc.lft.to/lastmile_qr_scan", "ios": "https://dc.lft.to/lastmile_qr_scan"}, "fusion_lon": 0.0, "lat": 38.91813116666667, "bike_id": "4194949d71f3792d031ee1a36b9d7e26", "type": "electric_scooter", "is_reserved": 0, "lon": -77.03338166666667}, {"fusion_lat": 0.0, "name": "44ba196dd11898e668c0fe20f8ddc2d9", "is_disabled": 0, "rental_uris": {"android": "https://dc.lft.to/lastmile_qr_scan", "ios": "https://dc.lft.to/lastmile_qr_scan"}, "fusion_lon": 0.0, "lat": 38.9156075, "bike_id": "44ba196dd11898e668c0fe20f8ddc2d9", "type": "electric_scooter", "is_reserved": 0, "lon": -77.03227016666666}, {"fusion_lat": 0.0, "name": "5f9c137181aabc40a2e73a5627dc92a1", "is_disabled": 0, "rental_uris": {"android": "https://dc.lft.to/lastmile_qr_scan", "ios": "https://dc.lft.to/lastmile_qr_scan"}, "fusion_lon": 0.0, "lat": 38.926143833333334, "bike_id": "5f9c137181aabc40a2e73a5627dc92a1", "type": "electric_scooter", "is_reserved": 0, "lon": -77.0221165}, {"fusion_lat": 0.0, "name": "3febf4a17c595d5b9a9876174e47ff44", "is_disabled": 0, "rental_uris": {"android": "https://dc.lft.to/lastmile_qr_scan", "ios": "https://dc.lft.to/lastmile_qr_scan"}, "fusion_lon": 0.0, "lat": 38.94018333333333, "bike_id": "3febf4a17c595d5b9a9876174e47ff44", "type": "electric_scooter", "is_reserved": 0, "lon": -77.02766416666667}, {"fusion_lat": 0.0, "name": "2436f066378319edfd28173859b24642", "is_disabled": 0, "rental_uris": {"android": "https://dc.lft.to/lastmile_qr_scan", "ios": "https://dc.lft.to/lastmile_qr_scan"}, "fusion_lon": 0.0, "lat": 38.919337, "bike_id": "2436f066378319edfd28173859b24642", "type": "electric_scooter", "is_reserved": 0, "lon": -77.0249805}, {"fusion_lat": 0.0, "name": "f312beb37d6db4b35a784455c471c080", "is_disabled": 0, "rental_uris": {"android": "https://dc.lft.to/lastmile_qr_scan", "ios": "https://dc.lft.to/lastmile_qr_scan"}, "fusion_lon": 0.0, "lat": 38.91154866666667, "bike_id": "f312beb37d6db4b35a784455c471c080", "type": "electric_scooter", "is_reserved": 0, "lon": -77.01076766666667}, {"fusion_lat": 0.0, "name": "878bdb10367a62bdfe7eb83b6fef2e33", "is_disabled": 0, "rental_uris": {"android": "https://dc.lft.to/lastmile_qr_scan", "ios": "https://dc.lft.to/lastmile_qr_scan"}, "fusion_lon": 0.0, "lat": 38.897444166666666, "bike_id": "878bdb10367a62bdfe7eb83b6fef2e33", "type": "electric_scooter", "is_reserved": 0, "lon": -77.041955}, {"fusion_lat": 0.0, "name": "b4e79501378758713a973cd82fc704b1", "is_disabled": 0, "rental_uris": {"android": "https://dc.lft.to/lastmile_qr_scan", "ios": "https://dc.lft.to/lastmile_qr_scan"}, "fusion_lon": 0.0, "lat": 38.8920885, "bike_id": "b4e79501378758713a973cd82fc704b1", "type": "electric_scooter", "is_reserved": 0, "lon": -76.97704933333333}, {"fusion_lat": 0.0, "name": "c143c8a7aabe42116033e1e6eb9ec63a", "is_disabled": 0, "rental_uris": {"android": "https://dc.lft.to/lastmile_qr_scan", "ios": "https://dc.lft.to/lastmile_qr_scan"}, "fusion_lon": 0.0, "lat": 38.904128666666665, "bike_id": "c143c8a7aabe42116033e1e6eb9ec63a", "type": "electric_scooter", "is_reserved": 0, "lon": -76.97331866666667}, {"fusion_lat": 0.0, "name": "e963b718766344d6d0814c30eeb3e553", "is_disabled": 0, "rental_uris": {"android": "https://dc.lft.to/lastmile_qr_scan", "ios": "https://dc.lft.to/lastmile_qr_scan"}, "fusion_lon": 0.0, "lat": 38.916729, "bike_id": "e963b718766344d6d0814c30eeb3e553", "type": "electric_scooter", "is_reserved": 0, "lon": -77.03191766666667}, {"fusion_lat": 0.0, "name": "a056ee966326359902e3495421edffe3", "is_disabled": 0, "rental_uris": {"android": "https://dc.lft.to/lastmile_qr_scan", "ios": "https://dc.lft.to/lastmile_qr_scan"}, "fusion_lon": 0.0, "lat": 38.8778535, "bike_id": "a056ee966326359902e3495421edffe3", "type": "electric_scooter", "is_reserved": 0, "lon": -76.99409116666666}, {"fusion_lat": 0.0, "name": "e68787e6ca8f51af59437e8c334c6531", "is_disabled": 0, "rental_uris": {"android": "https://dc.lft.to/lastmile_qr_scan", "ios": "https://dc.lft.to/lastmile_qr_scan"}, "fusion_lon": 0.0, "lat": 38.907176666666665, "bike_id": "e68787e6ca8f51af59437e8c334c6531", "type": "electric_scooter", "is_reserved": 0, "lon": -77.05133616666667}, {"fusion_lat": 0.0, "name": "4867587336678494f713a48eff37684a", "is_disabled": 0, "rental_uris": {"android": "https://dc.lft.to/lastmile_qr_scan", "ios": "https://dc.lft.to/lastmile_qr_scan"}, "fusion_lon": 0.0, "lat": 38.914116166666666, "bike_id": "4867587336678494f713a48eff37684a", "type": "electric_scooter", "is_reserved": 0, "lon": -77.04866933333334}, {"fusion_lat": 0.0, "name": "eb913a64852792c69fd81933ba77780f", "is_disabled": 0, "rental_uris": {"android": "https://dc.lft.to/lastmile_qr_scan", "ios": "https://dc.lft.to/lastmile_qr_scan"}, "fusion_lon": 0.0, "lat": 38.892318333333336, "bike_id": "eb913a64852792c69fd81933ba77780f", "type": "electric_scooter", "is_reserved": 0, "lon": -77.028272}, {"fusion_lat": 0.0, "name": "6dd71c9570f98b85e19e779041e3cff1", "is_disabled": 0, "rental_uris": {"android": "https://dc.lft.to/lastmile_qr_scan", "ios": "https://dc.lft.to/lastmile_qr_scan"}, "fusion_lon": 0.0, "lat": 38.9330925, "bike_id": "6dd71c9570f98b85e19e779041e3cff1", "type": "electric_scooter", "is_reserved": 0, "lon": -77.03089016666667}, {"fusion_lat": 0.0, "name": "d04a6bd2b0c4e32ca58e43da598f952c", "is_disabled": 0, "rental_uris": {"android": "https://dc.lft.to/lastmile_qr_scan", "ios": "https://dc.lft.to/lastmile_qr_scan"}, "fusion_lon": 0.0, "lat": 38.8996115, "bike_id": "d04a6bd2b0c4e32ca58e43da598f952c", "type": "electric_scooter", "is_reserved": 0, "lon": -77.04149616666666}, {"fusion_lat": 0.0, "name": "1c654bd2e68e4d5b14af79cab4493135", "is_disabled": 0, "rental_uris": {"android": "https://dc.lft.to/lastmile_qr_scan", "ios": "https://dc.lft.to/lastmile_qr_scan"}, "fusion_lon": 0.0, "lat": 38.90581516666666, "bike_id": "1c654bd2e68e4d5b14af79cab4493135", "type": "electric_scooter", "is_reserved": 0, "lon": -77.038661}, {"fusion_lat": 0.0, "name": "3728e85807645a54093439bb8b849d01", "is_disabled": 0, "rental_uris": {"android": "https://dc.lft.to/lastmile_qr_scan", "ios": "https://dc.lft.to/lastmile_qr_scan"}, "fusion_lon": 0.0, "lat": 38.90032, "bike_id": "3728e85807645a54093439bb8b849d01", "type": "electric_scooter", "is_reserved": 0, "lon": -77.0398525}, {"fusion_lat": 0.0, "name": "801614bb59ca7a1744346511230990e8", "is_disabled": 0, "rental_uris": {"android": "https://dc.lft.to/lastmile_qr_scan", "ios": "https://dc.lft.to/lastmile_qr_scan"}, "fusion_lon": 0.0, "lat": 38.91108966666667, "bike_id": "801614bb59ca7a1744346511230990e8", "type": "electric_scooter", "is_reserved": 0, "lon": -77.00358783333333}, {"fusion_lat": 0.0, "name": "0433c4e470e0f24b51e88584a1bdce39", "is_disabled": 0, "rental_uris": {"android": "https://dc.lft.to/lastmile_qr_scan", "ios": "https://dc.lft.to/lastmile_qr_scan"}, "fusion_lon": 0.0, "lat": 38.896185, "bike_id": "0433c4e470e0f24b51e88584a1bdce39", "type": "electric_bike", "is_reserved": 0, "lon": -76.907411}, {"fusion_lat": 0.0, "name": "edd7c26d23ef8e7315b6910e78862297", "is_disabled": 0, "rental_uris": {"android": "https://dc.lft.to/lastmile_qr_scan", "ios": "https://dc.lft.to/lastmile_qr_scan"}, "fusion_lon": 0.0, "lat": 38.84617633333333, "bike_id": "edd7c26d23ef8e7315b6910e78862297", "type": "electric_bike", "is_reserved": 0, "lon": -76.96907016666667}, {"fusion_lat": 0.0, "name": "50205484bb788bd71fcfb6b9bb1b7ba2", "is_disabled": 0, "rental_uris": {"android": "https://dc.lft.to/lastmile_qr_scan", "ios": "https://dc.lft.to/lastmile_qr_scan"}, "fusion_lon": 0.0, "lat": 38.95882966666667, "bike_id": "50205484bb788bd71fcfb6b9bb1b7ba2", "type": "electric_bike", "is_reserved": 0, "lon": -76.92484316666666}, {"fusion_lat": 0.0, "name": "94a2b2d2af68d6cc2d094ff05113a48e", "is_disabled": 0, "rental_uris": {"android": "https://dc.lft.to/lastmile_qr_scan", "ios": "https://dc.lft.to/lastmile_qr_scan"}, "fusion_lon": 0.0, "lat": 38.9285915, "bike_id": "94a2b2d2af68d6cc2d094ff05113a48e", "type": "electric_scooter", "is_reserved": 0, "lon": -77.05627466666667}, {"fusion_lat": 0.0, "name": "cd091255a72576af7f02a0ac85f0369a", "is_disabled": 0, "rental_uris": {"android": "https://dc.lft.to/lastmile_qr_scan", "ios": "https://dc.lft.to/lastmile_qr_scan"}, "fusion_lon": 0.0, "lat": 38.9175165, "bike_id": "cd091255a72576af7f02a0ac85f0369a", "type": "electric_scooter", "is_reserved": 0, "lon": -77.023026}, {"fusion_lat": 0.0, "name": "2adf61bbe7d4978ab648ac5dcc3c093f", "is_disabled": 0, "rental_uris": {"android": "https://dc.lft.to/lastmile_qr_scan", "ios": "https://dc.lft.to/lastmile_qr_scan"}, "fusion_lon": 0.0, "lat": 38.87753816666667, "bike_id": "2adf61bbe7d4978ab648ac5dcc3c093f", "type": "electric_scooter", "is_reserved": 0, "lon": -77.00264533333333}, {"fusion_lat": 0.0, "name": "8070a5c6fdafc66c06d75c2dac93b716", "is_disabled": 0, "rental_uris": {"android": "https://dc.lft.to/lastmile_qr_scan", "ios": "https://dc.lft.to/lastmile_qr_scan"}, "fusion_lon": 0.0, "lat": 38.948331, "bike_id": "8070a5c6fdafc66c06d75c2dac93b716", "type": "electric_scooter", "is_reserved": 0, "lon": -77.0800125}, {"fusion_lat": 0.0, "name": "99493db61758ba84a3114f31a5ea429e", "is_disabled": 0, "rental_uris": {"android": "https://dc.lft.to/lastmile_qr_scan", "ios": "https://dc.lft.to/lastmile_qr_scan"}, "fusion_lon": 0.0, "lat": 38.9233155, "bike_id": "99493db61758ba84a3114f31a5ea429e", "type": "electric_scooter", "is_reserved": 0, "lon": -77.02969383333334}, {"fusion_lat": 0.0, "name": "0b6116d1bc8a22a0e80c77a4c1a8415f", "is_disabled": 0, "rental_uris": {"android": "https://dc.lft.to/lastmile_qr_scan", "ios": "https://dc.lft.to/lastmile_qr_scan"}, "fusion_lon": 0.0, "lat": 38.92678933333333, "bike_id": "0b6116d1bc8a22a0e80c77a4c1a8415f", "type": "electric_scooter", "is_reserved": 0, "lon": -77.03635883333334}, {"fusion_lat": 0.0, "name": "6c98082811d2dc5720d8762a502fddbf", "is_disabled": 0, "rental_uris": {"android": "https://dc.lft.to/lastmile_qr_scan", "ios": "https://dc.lft.to/lastmile_qr_scan"}, "fusion_lon": 0.0, "lat": 38.946343, "bike_id": "6c98082811d2dc5720d8762a502fddbf", "type": "electric_scooter", "is_reserved": 0, "lon": -77.08020316666666}, {"fusion_lat": 0.0, "name": "1c0dac514f043114b5c3944101068250", "is_disabled": 0, "rental_uris": {"android": "https://dc.lft.to/lastmile_qr_scan", "ios": "https://dc.lft.to/lastmile_qr_scan"}, "fusion_lon": 0.0, "lat": 38.92269116666667, "bike_id": "1c0dac514f043114b5c3944101068250", "type": "electric_scooter", "is_reserved": 0, "lon": -77.02969683333333}, {"fusion_lat": 0.0, "name": "be4547eaf23570c9fccb688bb3b2498c", "is_disabled": 0, "rental_uris": {"android": "https://dc.lft.to/lastmile_qr_scan", "ios": "https://dc.lft.to/lastmile_qr_scan"}, "fusion_lon": 0.0, "lat": 38.874948833333335, "bike_id": "be4547eaf23570c9fccb688bb3b2498c", "type": "electric_bike", "is_reserved": 0, "lon": -77.21122683333333}, {"fusion_lat": 0.0, "name": "6b9ba05e1bfdcbf36cbee2ede18f03d7", "is_disabled": 0, "rental_uris": {"android": "https://dc.lft.to/lastmile_qr_scan", "ios": "https://dc.lft.to/lastmile_qr_scan"}, "fusion_lon": 0.0, "lat": 38.917960666666666, "bike_id": "6b9ba05e1bfdcbf36cbee2ede18f03d7", "type": "electric_scooter", "is_reserved": 0, "lon": -77.03210966666667}, {"fusion_lat": 0.0, "name": "fdf3e5ddf5c7fd9e7ccd323e5e24557f", "is_disabled": 0, "rental_uris": {"android": "https://dc.lft.to/lastmile_qr_scan", "ios": "https://dc.lft.to/lastmile_qr_scan"}, "fusion_lon": 0.0, "lat": 38.89691233333333, "bike_id": "fdf3e5ddf5c7fd9e7ccd323e5e24557f", "type": "electric_scooter", "is_reserved": 0, "lon": -77.043465}, {"fusion_lat": 0.0, "name": "1d109f8977e9592b1792578d67f00b53", "is_disabled": 0, "rental_uris": {"android": "https://dc.lft.to/lastmile_qr_scan", "ios": "https://dc.lft.to/lastmile_qr_scan"}, "fusion_lon": 0.0, "lat": 38.89008033333333, "bike_id": "1d109f8977e9592b1792578d67f00b53", "type": "electric_scooter", "is_reserved": 0, "lon": -76.93746216666666}, {"fusion_lat": 0.0, "name": "78ec5273f90e3caa79389a8eb7420a73", "is_disabled": 0, "rental_uris": {"android": "https://dc.lft.to/lastmile_qr_scan", "ios": "https://dc.lft.to/lastmile_qr_scan"}, "fusion_lon": 0.0, "lat": 38.9619285, "bike_id": "78ec5273f90e3caa79389a8eb7420a73", "type": "electric_bike", "is_reserved": 0, "lon": -77.05269116666666}, {"fusion_lat": 0.0, "name": "c40b08b4fd580517caec01c9efdc9a76", "is_disabled": 0, "rental_uris": {"android": "https://dc.lft.to/lastmile_qr_scan", "ios": "https://dc.lft.to/lastmile_qr_scan"}, "fusion_lon": 0.0, "lat": 38.91824666666667, "bike_id": "c40b08b4fd580517caec01c9efdc9a76", "type": "electric_scooter", "is_reserved": 0, "lon": -77.02536966666666}, {"fusion_lat": 0.0, "name": "f2fadad65f50713751c41f3f0fcf537f", "is_disabled": 0, "rental_uris": {"android": "https://dc.lft.to/lastmile_qr_scan", "ios": "https://dc.lft.to/lastmile_qr_scan"}, "fusion_lon": 0.0, "lat": 38.926101, "bike_id": "f2fadad65f50713751c41f3f0fcf537f", "type": "electric_scooter", "is_reserved": 0, "lon": -77.039648}, {"fusion_lat": 0.0, "name": "e5ed1cb521c6b71d836be47ebdb21d7a", "is_disabled": 0, "rental_uris": {"android": "https://dc.lft.to/lastmile_qr_scan", "ios": "https://dc.lft.to/lastmile_qr_scan"}, "fusion_lon": 0.0, "lat": 38.8901545, "bike_id": "e5ed1cb521c6b71d836be47ebdb21d7a", "type": "electric_scooter", "is_reserved": 0, "lon": -76.93742083333333}, {"fusion_lat": 0.0, "name": "4cf3f83dc3c2199c2aa4df64fc7ddd9f", "is_disabled": 0, "rental_uris": {"android": "https://dc.lft.to/lastmile_qr_scan", "ios": "https://dc.lft.to/lastmile_qr_scan"}, "fusion_lon": 0.0, "lat": 38.85604516666667, "bike_id": "4cf3f83dc3c2199c2aa4df64fc7ddd9f", "type": "electric_scooter", "is_reserved": 0, "lon": -76.97274533333334}, {"fusion_lat": 0.0, "name": "79a14f7e24241e76f9b802175f746f97", "is_disabled": 0, "rental_uris": {"android": "https://dc.lft.to/lastmile_qr_scan", "ios": "https://dc.lft.to/lastmile_qr_scan"}, "fusion_lon": 0.0, "lat": 38.89828266666667, "bike_id": "79a14f7e24241e76f9b802175f746f97", "type": "electric_scooter", "is_reserved": 0, "lon": -77.04649816666667}, {"fusion_lat": 0.0, "name": "f36749a6847113492ce57b6f989d7fa8", "is_disabled": 0, "rental_uris": {"android": "https://dc.lft.to/lastmile_qr_scan", "ios": "https://dc.lft.to/lastmile_qr_scan"}, "fusion_lon": 0.0, "lat": 38.89747666666667, "bike_id": "f36749a6847113492ce57b6f989d7fa8", "type": "electric_scooter", "is_reserved": 0, "lon": -77.02715416666666}, {"fusion_lat": 0.0, "name": "301a80190bd37289b3ac9106bc74b535", "is_disabled": 0, "rental_uris": {"android": "https://dc.lft.to/lastmile_qr_scan", "ios": "https://dc.lft.to/lastmile_qr_scan"}, "fusion_lon": 0.0, "lat": 38.92077116666667, "bike_id": "301a80190bd37289b3ac9106bc74b535", "type": "electric_scooter", "is_reserved": 0, "lon": -77.02317916666667}, {"fusion_lat": 0.0, "name": "7db0de46c0522e4bd525b01cd8a15555", "is_disabled": 0, "rental_uris": {"android": "https://dc.lft.to/lastmile_qr_scan", "ios": "https://dc.lft.to/lastmile_qr_scan"}, "fusion_lon": 0.0, "lat": 38.93769066666667, "bike_id": "7db0de46c0522e4bd525b01cd8a15555", "type": "electric_scooter", "is_reserved": 0, "lon": -77.020746}, {"fusion_lat": 0.0, "name": "70f109d3053586d28523420ca9798095", "is_disabled": 0, "rental_uris": {"android": "https://dc.lft.to/lastmile_qr_scan", "ios": "https://dc.lft.to/lastmile_qr_scan"}, "fusion_lon": 0.0, "lat": 38.8923445, "bike_id": "70f109d3053586d28523420ca9798095", "type": "electric_scooter", "is_reserved": 0, "lon": -77.03219333333334}, {"fusion_lat": 0.0, "name": "12d1f2ab2422cc060f865f3af7cf0956", "is_disabled": 0, "rental_uris": {"android": "https://dc.lft.to/lastmile_qr_scan", "ios": "https://dc.lft.to/lastmile_qr_scan"}, "fusion_lon": 0.0, "lat": 38.89251333333333, "bike_id": "12d1f2ab2422cc060f865f3af7cf0956", "type": "electric_scooter", "is_reserved": 0, "lon": -77.046531}, {"fusion_lat": 0.0, "name": "fcd79a7b1d1d866f0c4bee5b40413d44", "is_disabled": 0, "rental_uris": {"android": "https://dc.lft.to/lastmile_qr_scan", "ios": "https://dc.lft.to/lastmile_qr_scan"}, "fusion_lon": 0.0, "lat": 38.93863116666667, "bike_id": "fcd79a7b1d1d866f0c4bee5b40413d44", "type": "electric_scooter", "is_reserved": 0, "lon": -77.02648766666667}, {"fusion_lat": 0.0, "name": "d75e0c101e1e3be66e1d9291665a3459", "is_disabled": 0, "rental_uris": {"android": "https://dc.lft.to/lastmile_qr_scan", "ios": "https://dc.lft.to/lastmile_qr_scan"}, "fusion_lon": 0.0, "lat": 38.923418166666664, "bike_id": "d75e0c101e1e3be66e1d9291665a3459", "type": "electric_scooter", "is_reserved": 0, "lon": -77.03520133333333}, {"fusion_lat": 0.0, "name": "0af451d2f80d55c66e5af16d63f86060", "is_disabled": 0, "rental_uris": {"android": "https://dc.lft.to/lastmile_qr_scan", "ios": "https://dc.lft.to/lastmile_qr_scan"}, "fusion_lon": 0.0, "lat": 38.83210533333333, "bike_id": "0af451d2f80d55c66e5af16d63f86060", "type": "electric_bike", "is_reserved": 0, "lon": -76.99675333333333}, {"fusion_lat": 0.0, "name": "ebb625d74f892cdadfb0a0c56499ff45", "is_disabled": 0, "rental_uris": {"android": "https://dc.lft.to/lastmile_qr_scan", "ios": "https://dc.lft.to/lastmile_qr_scan"}, "fusion_lon": 0.0, "lat": 38.96677783333333, "bike_id": "ebb625d74f892cdadfb0a0c56499ff45", "type": "electric_bike", "is_reserved": 0, "lon": -77.023054}, {"fusion_lat": 0.0, "name": "2053d986756295c41d7820feaf7461d2", "is_disabled": 0, "rental_uris": {"android": "https://dc.lft.to/lastmile_qr_scan", "ios": "https://dc.lft.to/lastmile_qr_scan"}, "fusion_lon": 0.0, "lat": 38.87713266666667, "bike_id": "2053d986756295c41d7820feaf7461d2", "type": "electric_scooter", "is_reserved": 0, "lon": -77.0040985}, {"fusion_lat": 0.0, "name": "51b38d47125046e1b34070e756a2bea5", "is_disabled": 0, "rental_uris": {"android": "https://dc.lft.to/lastmile_qr_scan", "ios": "https://dc.lft.to/lastmile_qr_scan"}, "fusion_lon": 0.0, "lat": 38.914383666666666, "bike_id": "51b38d47125046e1b34070e756a2bea5", "type": "electric_scooter", "is_reserved": 0, "lon": -76.99356016666667}, {"fusion_lat": 0.0, "name": "a39898b781e51fcb766287ec610e15e5", "is_disabled": 0, "rental_uris": {"android": "https://dc.lft.to/lastmile_qr_scan", "ios": "https://dc.lft.to/lastmile_qr_scan"}, "fusion_lon": 0.0, "lat": 38.902439333333334, "bike_id": "a39898b781e51fcb766287ec610e15e5", "type": "electric_scooter", "is_reserved": 0, "lon": -77.026903}, {"fusion_lat": 0.0, "name": "4b7b8d738560730b2bc427620ed626f4", "is_disabled": 0, "rental_uris": {"android": "https://dc.lft.to/lastmile_qr_scan", "ios": "https://dc.lft.to/lastmile_qr_scan"}, "fusion_lon": 0.0, "lat": 38.9073815, "bike_id": "4b7b8d738560730b2bc427620ed626f4", "type": "electric_scooter", "is_reserved": 0, "lon": -77.03448916666666}, {"fusion_lat": 0.0, "name": "239000e0398ff7571f88c0b510c9e9a2", "is_disabled": 0, "rental_uris": {"android": "https://dc.lft.to/lastmile_qr_scan", "ios": "https://dc.lft.to/lastmile_qr_scan"}, "fusion_lon": 0.0, "lat": 38.917049, "bike_id": "239000e0398ff7571f88c0b510c9e9a2", "type": "electric_scooter", "is_reserved": 0, "lon": -77.03168783333334}, {"fusion_lat": 0.0, "name": "8ceea7b626d33d57175ec5a311fe9e38", "is_disabled": 0, "rental_uris": {"android": "https://dc.lft.to/lastmile_qr_scan", "ios": "https://dc.lft.to/lastmile_qr_scan"}, "fusion_lon": 0.0, "lat": 38.92255766666667, "bike_id": "8ceea7b626d33d57175ec5a311fe9e38", "type": "electric_scooter", "is_reserved": 0, "lon": -77.00915966666666}, {"fusion_lat": 0.0, "name": "f4267048fc24847a2303197781ed39a4", "is_disabled": 0, "rental_uris": {"android": "https://dc.lft.to/lastmile_qr_scan", "ios": "https://dc.lft.to/lastmile_qr_scan"}, "fusion_lon": 0.0, "lat": 38.911172, "bike_id": "f4267048fc24847a2303197781ed39a4", "type": "electric_scooter", "is_reserved": 0, "lon": -77.03833033333333}, {"fusion_lat": 0.0, "name": "c222e3ee0908076ea3baea279aa3a32c", "is_disabled": 0, "rental_uris": {"android": "https://dc.lft.to/lastmile_qr_scan", "ios": "https://dc.lft.to/lastmile_qr_scan"}, "fusion_lon": 0.0, "lat": 38.9296295, "bike_id": "c222e3ee0908076ea3baea279aa3a32c", "type": "electric_scooter", "is_reserved": 0, "lon": -76.99173866666666}, {"fusion_lat": 0.0, "name": "ca24f27f94bf7daf16b3a575de8a6da1", "is_disabled": 0, "rental_uris": {"android": "https://dc.lft.to/lastmile_qr_scan", "ios": "https://dc.lft.to/lastmile_qr_scan"}, "fusion_lon": 0.0, "lat": 38.911428, "bike_id": "ca24f27f94bf7daf16b3a575de8a6da1", "type": "electric_scooter", "is_reserved": 0, "lon": -76.9969205}, {"fusion_lat": 0.0, "name": "9e93dde6c1478cb891cabe72db603ab9", "is_disabled": 0, "rental_uris": {"android": "https://dc.lft.to/lastmile_qr_scan", "ios": "https://dc.lft.to/lastmile_qr_scan"}, "fusion_lon": 0.0, "lat": 38.9038145, "bike_id": "9e93dde6c1478cb891cabe72db603ab9", "type": "electric_scooter", "is_reserved": 0, "lon": -77.05341566666667}, {"fusion_lat": 0.0, "name": "263280c3d3a8b0206a995054f4c8300a", "is_disabled": 0, "rental_uris": {"android": "https://dc.lft.to/lastmile_qr_scan", "ios": "https://dc.lft.to/lastmile_qr_scan"}, "fusion_lon": 0.0, "lat": 38.90770966666667, "bike_id": "263280c3d3a8b0206a995054f4c8300a", "type": "electric_scooter", "is_reserved": 0, "lon": -77.038335}, {"fusion_lat": 0.0, "name": "aef4684529ef523a328d9c05bb74dd8d", "is_disabled": 0, "rental_uris": {"android": "https://dc.lft.to/lastmile_qr_scan", "ios": "https://dc.lft.to/lastmile_qr_scan"}, "fusion_lon": 0.0, "lat": 38.90035983333333, "bike_id": "aef4684529ef523a328d9c05bb74dd8d", "type": "electric_bike", "is_reserved": 0, "lon": -76.97224133333333}, {"fusion_lat": 0.0, "name": "194e99fa35b2707fc478ba159ca7e15e", "is_disabled": 0, "rental_uris": {"android": "https://dc.lft.to/lastmile_qr_scan", "ios": "https://dc.lft.to/lastmile_qr_scan"}, "fusion_lon": 0.0, "lat": 38.92732266666667, "bike_id": "194e99fa35b2707fc478ba159ca7e15e", "type": "electric_scooter", "is_reserved": 0, "lon": -77.02308883333333}, {"fusion_lat": 0.0, "name": "50ff39b1ce301be4d42697ef9c2da032", "is_disabled": 0, "rental_uris": {"android": "https://dc.lft.to/lastmile_qr_scan", "ios": "https://dc.lft.to/lastmile_qr_scan"}, "fusion_lon": 0.0, "lat": 38.905223, "bike_id": "50ff39b1ce301be4d42697ef9c2da032", "type": "electric_scooter", "is_reserved": 0, "lon": -77.02952333333333}, {"fusion_lat": 0.0, "name": "c3b88fbb08b9c026a5a3bcf0db781462", "is_disabled": 0, "rental_uris": {"android": "https://dc.lft.to/lastmile_qr_scan", "ios": "https://dc.lft.to/lastmile_qr_scan"}, "fusion_lon": 0.0, "lat": 38.892213166666664, "bike_id": "c3b88fbb08b9c026a5a3bcf0db781462", "type": "electric_scooter", "is_reserved": 0, "lon": -77.02016183333333}, {"fusion_lat": 0.0, "name": "a751f11e0455036728a073af14fd0777", "is_disabled": 0, "rental_uris": {"android": "https://dc.lft.to/lastmile_qr_scan", "ios": "https://dc.lft.to/lastmile_qr_scan"}, "fusion_lon": 0.0, "lat": 38.8973065, "bike_id": "a751f11e0455036728a073af14fd0777", "type": "electric_scooter", "is_reserved": 0, "lon": -77.04629883333334}, {"fusion_lat": 0.0, "name": "ec596a0c820050f6280a69ebf7c494d0", "is_disabled": 0, "rental_uris": {"android": "https://dc.lft.to/lastmile_qr_scan", "ios": "https://dc.lft.to/lastmile_qr_scan"}, "fusion_lon": 0.0, "lat": 38.93179683333334, "bike_id": "ec596a0c820050f6280a69ebf7c494d0", "type": "electric_scooter", "is_reserved": 0, "lon": -77.03784316666666}, {"fusion_lat": 0.0, "name": "1fe10295be16c884bca24b5fc7b66adb", "is_disabled": 0, "rental_uris": {"android": "https://dc.lft.to/lastmile_qr_scan", "ios": "https://dc.lft.to/lastmile_qr_scan"}, "fusion_lon": 0.0, "lat": 38.90400133333333, "bike_id": "1fe10295be16c884bca24b5fc7b66adb", "type": "electric_bike", "is_reserved": 0, "lon": -77.02198166666666}, {"fusion_lat": 0.0, "name": "b1c45e4f273025f2c6fb6092b4214ec7", "is_disabled": 0, "rental_uris": {"android": "https://dc.lft.to/lastmile_qr_scan", "ios": "https://dc.lft.to/lastmile_qr_scan"}, "fusion_lon": 0.0, "lat": 38.924162333333335, "bike_id": "b1c45e4f273025f2c6fb6092b4214ec7", "type": "electric_scooter", "is_reserved": 0, "lon": -77.020137}, {"fusion_lat": 0.0, "name": "3ac08f2e529dec55f8dfb1baf0f8ff26", "is_disabled": 0, "rental_uris": {"android": "https://dc.lft.to/lastmile_qr_scan", "ios": "https://dc.lft.to/lastmile_qr_scan"}, "fusion_lon": 0.0, "lat": 38.9285285, "bike_id": "3ac08f2e529dec55f8dfb1baf0f8ff26", "type": "electric_scooter", "is_reserved": 0, "lon": -76.9976495}, {"fusion_lat": 0.0, "name": "4686188063a6417decbb9abcae7ed2c9", "is_disabled": 0, "rental_uris": {"android": "https://dc.lft.to/lastmile_qr_scan", "ios": "https://dc.lft.to/lastmile_qr_scan"}, "fusion_lon": 0.0, "lat": 38.922298833333336, "bike_id": "4686188063a6417decbb9abcae7ed2c9", "type": "electric_scooter", "is_reserved": 0, "lon": -77.04141883333334}, {"fusion_lat": 0.0, "name": "451d24519abdf914f884160b2e55c1c0", "is_disabled": 0, "rental_uris": {"android": "https://dc.lft.to/lastmile_qr_scan", "ios": "https://dc.lft.to/lastmile_qr_scan"}, "fusion_lon": 0.0, "lat": 38.9133065, "bike_id": "451d24519abdf914f884160b2e55c1c0", "type": "electric_scooter", "is_reserved": 0, "lon": -77.042327}, {"fusion_lat": 0.0, "name": "e8b4a58f432d05707fa7b0ce7bc0453a", "is_disabled": 0, "rental_uris": {"android": "https://dc.lft.to/lastmile_qr_scan", "ios": "https://dc.lft.to/lastmile_qr_scan"}, "fusion_lon": 0.0, "lat": 38.898551166666664, "bike_id": "e8b4a58f432d05707fa7b0ce7bc0453a", "type": "electric_scooter", "is_reserved": 0, "lon": -77.02854683333334}, {"fusion_lat": 0.0, "name": "38c5fe852e2be24d28870652685e3581", "is_disabled": 0, "rental_uris": {"android": "https://dc.lft.to/lastmile_qr_scan", "ios": "https://dc.lft.to/lastmile_qr_scan"}, "fusion_lon": 0.0, "lat": 38.92404966666667, "bike_id": "38c5fe852e2be24d28870652685e3581", "type": "electric_scooter", "is_reserved": 0, "lon": -77.03645416666667}, {"fusion_lat": 0.0, "name": "d6daffaa3895bcc9294ffb2060c8d7a4", "is_disabled": 0, "rental_uris": {"android": "https://dc.lft.to/lastmile_qr_scan", "ios": "https://dc.lft.to/lastmile_qr_scan"}, "fusion_lon": 0.0, "lat": 38.92355533333333, "bike_id": "d6daffaa3895bcc9294ffb2060c8d7a4", "type": "electric_scooter", "is_reserved": 0, "lon": -77.01961416666667}, {"fusion_lat": 0.0, "name": "1302f44f15683a66b0c81261a2acf9f4", "is_disabled": 0, "rental_uris": {"android": "https://dc.lft.to/lastmile_qr_scan", "ios": "https://dc.lft.to/lastmile_qr_scan"}, "fusion_lon": 0.0, "lat": 39.010762166666666, "bike_id": "1302f44f15683a66b0c81261a2acf9f4", "type": "electric_bike", "is_reserved": 0, "lon": -76.91065866666666}, {"fusion_lat": 0.0, "name": "d0552a6112168d5ad84277ac5e015e50", "is_disabled": 0, "rental_uris": {"android": "https://dc.lft.to/lastmile_qr_scan", "ios": "https://dc.lft.to/lastmile_qr_scan"}, "fusion_lon": 0.0, "lat": 38.944734, "bike_id": "d0552a6112168d5ad84277ac5e015e50", "type": "electric_scooter", "is_reserved": 0, "lon": -77.02358616666666}, {"fusion_lat": 0.0, "name": "a332cdde89898c5bbbd43eb057fff784", "is_disabled": 0, "rental_uris": {"android": "https://dc.lft.to/lastmile_qr_scan", "ios": "https://dc.lft.to/lastmile_qr_scan"}, "fusion_lon": 0.0, "lat": 38.94841533333334, "bike_id": "a332cdde89898c5bbbd43eb057fff784", "type": "electric_scooter", "is_reserved": 0, "lon": -77.0256915}, {"fusion_lat": 0.0, "name": "a4c282a3201a65bab7fbe395eb27c224", "is_disabled": 0, "rental_uris": {"android": "https://dc.lft.to/lastmile_qr_scan", "ios": "https://dc.lft.to/lastmile_qr_scan"}, "fusion_lon": 0.0, "lat": 38.93799216666667, "bike_id": "a4c282a3201a65bab7fbe395eb27c224", "type": "electric_scooter", "is_reserved": 0, "lon": -77.06863733333333}, {"fusion_lat": 0.0, "name": "2bb9220e71278affc44ffdbdc4f4df2f", "is_disabled": 0, "rental_uris": {"android": "https://dc.lft.to/lastmile_qr_scan", "ios": "https://dc.lft.to/lastmile_qr_scan"}, "fusion_lon": 0.0, "lat": 38.92028766666667, "bike_id": "2bb9220e71278affc44ffdbdc4f4df2f", "type": "electric_scooter", "is_reserved": 0, "lon": -77.02800283333333}, {"fusion_lat": 0.0, "name": "93407ebd6610f312277431d8072e2a78", "is_disabled": 0, "rental_uris": {"android": "https://dc.lft.to/lastmile_qr_scan", "ios": "https://dc.lft.to/lastmile_qr_scan"}, "fusion_lon": 0.0, "lat": 38.921131, "bike_id": "93407ebd6610f312277431d8072e2a78", "type": "electric_scooter", "is_reserved": 0, "lon": -77.04690583333333}, {"fusion_lat": 0.0, "name": "434a86cd5d04f2b4ba68bcda870d58af", "is_disabled": 0, "rental_uris": {"android": "https://dc.lft.to/lastmile_qr_scan", "ios": "https://dc.lft.to/lastmile_qr_scan"}, "fusion_lon": 0.0, "lat": 38.933885833333335, "bike_id": "434a86cd5d04f2b4ba68bcda870d58af", "type": "electric_scooter", "is_reserved": 0, "lon": -77.02640533333333}, {"fusion_lat": 0.0, "name": "d442656588f97f5953a9be34978dfe52", "is_disabled": 0, "rental_uris": {"android": "https://dc.lft.to/lastmile_qr_scan", "ios": "https://dc.lft.to/lastmile_qr_scan"},