{"data": {"bikes": [{"is_disabled": 0, "fusion_lon": 0.0, "fusion_lat": 0.0, "lat": 38.90003883333333, "type": "electric_scooter", "lon": -76.99426016666666, "bike_id": "2e8442e86984cc9971b3cbd159123839", "rental_uris": {"android": "https://dc.lft.to/lastmile_qr_scan", "ios": "https://dc.lft.to/lastmile_qr_scan"}, "name": "2e8442e86984cc9971b3cbd159123839", "is_reserved": 0}, {"is_disabled": 0, "fusion_lon": 0.0, "fusion_lat": 0.0, "lat": 38.896832, "type": "electric_scooter", "lon": -77.0049905, "bike_id": "dd9110a18c18baae118af49b5f725710", "rental_uris": {"android": "https://dc.lft.to/lastmile_qr_scan", "ios": "https://dc.lft.to/lastmile_qr_scan"}, "name": "dd9110a18c18baae118af49b5f725710", "is_reserved": 0}, {"is_disabled": 0, "fusion_lon": 0.0, "fusion_lat": 0.0, "lat": 38.8950295, "type": "electric_scooter", "lon": -76.948781, "bike_id": "56d9da49c3ce40ceb4faf3da67ba68c1", "rental_uris": {"android": "https://dc.lft.to/lastmile_qr_scan", "ios": "https://dc.lft.to/lastmile_qr_scan"}, "name": "56d9da49c3ce40ceb4faf3da67ba68c1", "is_reserved": 0}, {"is_disabled": 0, "fusion_lon": 0.0, "fusion_lat": 0.0, "lat": 38.893620166666665, "type": "electric_scooter", "lon": -77.02264866666667, "bike_id": "d4409e55691f6809d3664f4514c97e6b", "rental_uris": {"android": "https://dc.lft.to/lastmile_qr_scan", "ios": "https://dc.lft.to/lastmile_qr_scan"}, "name": "d4409e55691f6809d3664f4514c97e6b", "is_reserved": 0}, {"is_disabled": 0, "fusion_lon": 0.0, "fusion_lat": 0.0, "lat": 38.90969883333333, "type": "electric_scooter", "lon": -77.0386675, "bike_id": "c3b7f5646df9bd03cab3034efae956c1", "rental_uris": {"android": "https://dc.lft.to/lastmile_qr_scan", "ios": "https://dc.lft.to/lastmile_qr_scan"}, "name": "c3b7f5646df9bd03cab3034efae956c1", "is_reserved": 0}, {"is_disabled": 0, "fusion_lon": 0.0, "fusion_lat": 0.0, "lat": 38.941984833333336, "type": "electric_scooter", "lon": -77.025792, "bike_id": "55ff266f78bbf12656156c5372c878f3", "rental_uris": {"android": "https://dc.lft.to/lastmile_qr_scan", "ios": "https://dc.lft.to/lastmile_qr_scan"}, "name": "55ff266f78bbf12656156c5372c878f3", "is_reserved": 0}, {"is_disabled": 0, "fusion_lon": 0.0, "fusion_lat": 0.0, "lat": 38.91300233333333, "type": "electric_scooter", "lon": -77.046527, "bike_id": "fc983233f16bd205bebd9f5842c13c13", "rental_uris": {"android": "https://dc.lft.to/lastmile_qr_scan", "ios": "https://dc.lft.to/lastmile_qr_scan"}, "name": "fc983233f16bd205bebd9f5842c13c13", "is_reserved": 0}, {"is_disabled": 0, "fusion_lon": 0.0, "fusion_lat": 0.0, "lat": 38.900424, "type": "electric_scooter", "lon": -76.985082, "bike_id": "4c4fbd34442e07d51e47a09f0ac11d7d", "rental_uris": {"android": "https://dc.lft.to/lastmile_qr_scan", "ios": "https://dc.lft.to/lastmile_qr_scan"}, "name": "4c4fbd34442e07d51e47a09f0ac11d7d", "is_reserved": 0}, {"is_disabled": 0, "fusion_lon": 0.0, "fusion_lat": 0.0, "lat": 38.844213833333335, "type": "electric_scooter", "lon": -76.997802, "bike_id": "31f5acf8f6602fb65b85c2bc40140e7e", "rental_uris": {"android": "https://dc.lft.to/lastmile_qr_scan", "ios": "https://dc.lft.to/lastmile_qr_scan"}, "name": "31f5acf8f6602fb65b85c2bc40140e7e", "is_reserved": 0}, {"is_disabled": 0, "fusion_lon": 0.0, "fusion_lat": 0.0, "lat": 38.920257, "type": "electric_scooter", "lon": -77.012894, "bike_id": "2969a1bc2e381e9660fca094f24a15b0", "rental_uris": {"android": "https://dc.lft.to/lastmile_qr_scan", "ios": "https://dc.lft.to/lastmile_qr_scan"}, "name": "2969a1bc2e381e9660fca094f24a15b0", "is_reserved": 0}, {"is_disabled": 0, "fusion_lon": 0.0, "fusion_lat": 0.0, "lat": 38.87489766666667, "type": "electric_scooter", "lon": -77.00333566666667, "bike_id": "8f9ae8615b9ffc1bff81e93cbc28f03e", "rental_uris": {"android": "https://dc.lft.to/lastmile_qr_scan", "ios": "https://dc.lft.to/lastmile_qr_scan"}, "name": "8f9ae8615b9ffc1bff81e93cbc28f03e", "is_reserved": 0}, {"is_disabled": 0, "fusion_lon": 0.0, "fusion_lat": 0.0, "lat": 38.934675166666665, "type": "electric_scooter", "lon": -77.068734, "bike_id": "87d374e8e4f1b996268de3388fcbf1af", "rental_uris": {"android": "https://dc.lft.to/lastmile_qr_scan", "ios": "https://dc.lft.to/lastmile_qr_scan"}, "name": "87d374e8e4f1b996268de3388fcbf1af", "is_reserved": 0}, {"is_disabled": 0, "fusion_lon": 0.0, "fusion_lat": 0.0, "lat": 38.89951116666667, "type": "electric_scooter", "lon": -77.01615566666666, "bike_id": "81ab1afc69ed9c506b4058bbe4817dd9", "rental_uris": {"android": "https://dc.lft.to/lastmile_qr_scan", "ios": "https://dc.lft.to/lastmile_qr_scan"}, "name": "81ab1afc69ed9c506b4058bbe4817dd9", "is_reserved": 0}, {"is_disabled": 0, "fusion_lon": 0.0, "fusion_lat": 0.0, "lat": 38.894272666666666, "type": "electric_scooter", "lon": -77.010934, "bike_id": "cb337b3fcc2d2ecce825ac60b578c748", "rental_uris": {"android": "https://dc.lft.to/lastmile_qr_scan", "ios": "https://dc.lft.to/lastmile_qr_scan"}, "name": "cb337b3fcc2d2ecce825ac60b578c748", "is_reserved": 0}, {"is_disabled": 0, "fusion_lon": 0.0, "fusion_lat": 0.0, "lat": 38.972553, "type": "electric_bike", "lon": -76.99165483333333, "bike_id": "c898b4be576a49cfd2b15f66490269d5", "rental_uris": {"android": "https://dc.lft.to/lastmile_qr_scan", "ios": "https://dc.lft.to/lastmile_qr_scan"}, "name": "c898b4be576a49cfd2b15f66490269d5", "is_reserved": 0}, {"is_disabled": 0, "fusion_lon": 0.0, "fusion_lat": 0.0, "lat": 38.913415, "type": "electric_scooter", "lon": -77.04163133333333, "bike_id": "bf3b5e8e301625157833e97f5e10271d", "rental_uris": {"android": "https://dc.lft.to/lastmile_qr_scan", "ios": "https://dc.lft.to/lastmile_qr_scan"}, "name": "bf3b5e8e301625157833e97f5e10271d", "is_reserved": 0}, {"is_disabled": 0, "fusion_lon": 0.0, "fusion_lat": 0.0, "lat": 38.89712216666667, "type": "electric_scooter", "lon": -77.01003183333333, "bike_id": "57bdb1f141bdec9e15b181695a35815f", "rental_uris": {"android": "https://dc.lft.to/lastmile_qr_scan", "ios": "https://dc.lft.to/lastmile_qr_scan"}, "name": "57bdb1f141bdec9e15b181695a35815f", "is_reserved": 0}, {"is_disabled": 0, "fusion_lon": 0.0, "fusion_lat": 0.0, "lat": 38.83931116666667, "type": "electric_bike", "lon": -77.079039, "bike_id": "053d9fcc8efc6252b962a263b8035158", "rental_uris": {"android": "https://dc.lft.to/lastmile_qr_scan", "ios": "https://dc.lft.to/lastmile_qr_scan"}, "name": "053d9fcc8efc6252b962a263b8035158", "is_reserved": 0}, {"is_disabled": 0, "fusion_lon": 0.0, "fusion_lat": 0.0, "lat": 38.898304833333334, "type": "electric_scooter", "lon": -77.02919416666667, "bike_id": "1af81d76fd673774e8baca0d6d51f089", "rental_uris": {"android": "https://dc.lft.to/lastmile_qr_scan", "ios": "https://dc.lft.to/lastmile_qr_scan"}, "name": "1af81d76fd673774e8baca0d6d51f089", "is_reserved": 0}, {"is_disabled": 0, "fusion_lon": 0.0, "fusion_lat": 0.0, "lat": 38.9046665, "type": "electric_scooter", "lon": -76.992093, "bike_id": "23ac57e1b8906429fbc994e77ac35791", "rental_uris": {"android": "https://dc.lft.to/lastmile_qr_scan", "ios": "https://dc.lft.to/lastmile_qr_scan"}, "name": "23ac57e1b8906429fbc994e77ac35791", "is_reserved": 0}, {"is_disabled": 0, "fusion_lon": 0.0, "fusion_lat": 0.0, "lat": 38.90774066666667, "type": "electric_scooter", "lon": -76.94128866666667, "bike_id": "9b6427a471d1bb127f8fb4a2bb144875", "rental_uris": {"android": "https://dc.lft.to/lastmile_qr_scan", "ios": "https://dc.lft.to/lastmile_qr_scan"}, "name": "9b6427a471d1bb127f8fb4a2bb144875", "is_reserved": 0}, {"is_disabled": 0, "fusion_lon": 0.0, "fusion_lat": 0.0, "lat": 38.91460466666667, "type": "electric_scooter", "lon": -77.01430033333334, "bike_id": "5943218f94e66b403487f75c127320a8", "rental_uris": {"android": "https://dc.lft.to/lastmile_qr_scan", "ios": "https://dc.lft.to/lastmile_qr_scan"}, "name": "5943218f94e66b403487f75c127320a8", "is_reserved": 0}, {"is_disabled": 0, "fusion_lon": 0.0, "fusion_lat": 0.0, "lat": 38.902108166666665, "type": "electric_scooter", "lon": -77.024268, "bike_id": "6d36714073752d799313372bebb0b7e3", "rental_uris": {"android": "https://dc.lft.to/lastmile_qr_scan", "ios": "https://dc.lft.to/lastmile_qr_scan"}, "name": "6d36714073752d799313372bebb0b7e3", "is_reserved": 0}, {"is_disabled": 0, "fusion_lon": 0.0, "fusion_lat": 0.0, "lat": 38.9222655, "type": "electric_scooter", "lon": -77.02334816666666, "bike_id": "b4fe31d0c0866bda4443a93f9c682fcd", "rental_uris": {"android": "https://dc.lft.to/lastmile_qr_scan", "ios": "https://dc.lft.to/lastmile_qr_scan"}, "name": "b4fe31d0c0866bda4443a93f9c682fcd", "is_reserved": 0}, {"is_disabled": 0, "fusion_lon": 0.0, "fusion_lat": 0.0, "lat": 38.914314166666664, "type": "electric_scooter", "lon": -77.02816583333333, "bike_id": "f7bed98e85759eb0a336a61978d73e6a", "rental_uris": {"android": "https://dc.lft.to/lastmile_qr_scan", "ios": "https://dc.lft.to/lastmile_qr_scan"}, "name": "f7bed98e85759eb0a336a61978d73e6a", "is_reserved": 0}, {"is_disabled": 0, "fusion_lon": 0.0, "fusion_lat": 0.0, "lat": 38.92256066666667, "type": "electric_scooter", "lon": -77.07135866666667, "bike_id": "4c0b5b26efb6b233a43e7a60c958cd40", "rental_uris": {"android": "https://dc.lft.to/lastmile_qr_scan", "ios": "https://dc.lft.to/lastmile_qr_scan"}, "name": "4c0b5b26efb6b233a43e7a60c958cd40", "is_reserved": 0}, {"is_disabled": 0, "fusion_lon": 0.0, "fusion_lat": 0.0, "lat": 38.912467166666666, "type": "electric_scooter", "lon": -77.0380525, "bike_id": "1f505723e23efb3a6dbe17f3fc3811e6", "rental_uris": {"android": "https://dc.lft.to/lastmile_qr_scan", "ios": "https://dc.lft.to/lastmile_qr_scan"}, "name": "1f505723e23efb3a6dbe17f3fc3811e6", "is_reserved": 0}, {"is_disabled": 0, "fusion_lon": 0.0, "fusion_lat": 0.0, "lat": 38.9516705, "type": "electric_scooter", "lon": -77.033327, "bike_id": "f042d9277949cd22791b2eb8d255e38c", "rental_uris": {"android": "https://dc.lft.to/lastmile_qr_scan", "ios": "https://dc.lft.to/lastmile_qr_scan"}, "name": "f042d9277949cd22791b2eb8d255e38c", "is_reserved": 0}, {"is_disabled": 0, "fusion_lon": 0.0, "fusion_lat": 0.0, "lat": 38.929658333333336, "type": "electric_scooter", "lon": -77.04193583333333, "bike_id": "eec2b8ba742bd8ab34c0e1bf44e8629c", "rental_uris": {"android": "https://dc.lft.to/lastmile_qr_scan", "ios": "https://dc.lft.to/lastmile_qr_scan"}, "name": "eec2b8ba742bd8ab34c0e1bf44e8629c", "is_reserved": 0}, {"is_disabled": 0, "fusion_lon": 0.0, "fusion_lat": 0.0, "lat": 38.9224355, "type": "electric_scooter", "lon": -77.0334775, "bike_id": "b4b7814dab131cbcba8e7e2091a4c128", "rental_uris": {"android": "https://dc.lft.to/lastmile_qr_scan", "ios": "https://dc.lft.to/lastmile_qr_scan"}, "name": "b4b7814dab131cbcba8e7e2091a4c128", "is_reserved": 0}, {"is_disabled": 0, "fusion_lon": 0.0, "fusion_lat": 0.0, "lat": 38.94599766666666, "type": "electric_scooter", "lon": -77.02979183333333, "bike_id": "2e2dfbbc5217f74cab1c2357150a1a06", "rental_uris": {"android": "https://dc.lft.to/lastmile_qr_scan", "ios": "https://dc.lft.to/lastmile_qr_scan"}, "name": "2e2dfbbc5217f74cab1c2357150a1a06", "is_reserved": 0}, {"is_disabled": 0, "fusion_lon": 0.0, "fusion_lat": 0.0, "lat": 38.913089666666664, "type": "electric_scooter", "lon": -77.00845516666666, "bike_id": "ab1f476934084edf105eebc575bb2d18", "rental_uris": {"android": "https://dc.lft.to/lastmile_qr_scan", "ios": "https://dc.lft.to/lastmile_qr_scan"}, "name": "ab1f476934084edf105eebc575bb2d18", "is_reserved": 0}, {"is_disabled": 0, "fusion_lon": 0.0, "fusion_lat": 0.0, "lat": 38.9125735, "type": "electric_scooter", "lon": -77.03370433333333, "bike_id": "1146c808df7332ecbf3b0c33bfa93ffa", "rental_uris": {"android": "https://dc.lft.to/lastmile_qr_scan", "ios": "https://dc.lft.to/lastmile_qr_scan"}, "name": "1146c808df7332ecbf3b0c33bfa93ffa", "is_reserved": 0}, {"is_disabled": 0, "fusion_lon": 0.0, "fusion_lat": 0.0, "lat": 38.876418666666666, "type": "electric_scooter", "lon": -77.007417, "bike_id": "372890f3f7b996b6263cc77a4cdd31c6", "rental_uris": {"android": "https://dc.lft.to/lastmile_qr_scan", "ios": "https://dc.lft.to/lastmile_qr_scan"}, "name": "372890f3f7b996b6263cc77a4cdd31c6", "is_reserved": 0}, {"is_disabled": 0, "fusion_lon": 0.0, "fusion_lat": 0.0, "lat": 38.98988666666666, "type": "electric_scooter", "lon": -77.03358983333334, "bike_id": "ab777c1edc8260759e7899a287c3d025", "rental_uris": {"android": "https://dc.lft.to/lastmile_qr_scan", "ios": "https://dc.lft.to/lastmile_qr_scan"}, "name": "ab777c1edc8260759e7899a287c3d025", "is_reserved": 0}, {"is_disabled": 0, "fusion_lon": 0.0, "fusion_lat": 0.0, "lat": 38.910406, "type": "electric_scooter", "lon": -77.0484565, "bike_id": "943b3a72af218fd63730f9525bc10394", "rental_uris": {"android": "https://dc.lft.to/lastmile_qr_scan", "ios": "https://dc.lft.to/lastmile_qr_scan"}, "name": "943b3a72af218fd63730f9525bc10394", "is_reserved": 0}, {"is_disabled": 0, "fusion_lon": 0.0, "fusion_lat": 0.0, "lat": 38.902353166666664, "type": "electric_scooter", "lon": -77.05274083333333, "bike_id": "00711f3d42068fd0c86b3ea1bec61133", "rental_uris": {"android": "https://dc.lft.to/lastmile_qr_scan", "ios": "https://dc.lft.to/lastmile_qr_scan"}, "name": "00711f3d42068fd0c86b3ea1bec61133", "is_reserved": 0}, {"is_disabled": 0, "fusion_lon": 0.0, "fusion_lat": 0.0, "lat": 38.899932666666665, "type": "electric_scooter", "lon": -76.99163333333334, "bike_id": "6307b9ecdcdbc6b5f2e0ba4bb98869aa", "rental_uris": {"android": "https://dc.lft.to/lastmile_qr_scan", "ios": "https://dc.lft.to/lastmile_qr_scan"}, "name": "6307b9ecdcdbc6b5f2e0ba4bb98869aa", "is_reserved": 0}, {"is_disabled": 0, "fusion_lon": 0.0, "fusion_lat": 0.0, "lat": 38.93013466666667, "type": "electric_scooter", "lon": -77.0233205, "bike_id": "60772709292bca2803a4dd2eba47a1f7", "rental_uris": {"android": "https://dc.lft.to/lastmile_qr_scan", "ios": "https://dc.lft.to/lastmile_qr_scan"}, "name": "60772709292bca2803a4dd2eba47a1f7", "is_reserved": 0}, {"is_disabled": 0, "fusion_lon": 0.0, "fusion_lat": 0.0, "lat": 38.9170995, "type": "electric_scooter", "lon": -77.03873766666666, "bike_id": "acccf16bcaf5c3a8f83bb0afd8541a52", "rental_uris": {"android": "https://dc.lft.to/lastmile_qr_scan", "ios": "https://dc.lft.to/lastmile_qr_scan"}, "name": "acccf16bcaf5c3a8f83bb0afd8541a52", "is_reserved": 0}, {"is_disabled": 0, "fusion_lon": 0.0, "fusion_lat": 0.0, "lat": 38.90119216666667, "type": "electric_scooter", "lon": -77.03980266666667, "bike_id": "b55904d0f446c21b4786557e911df591", "rental_uris": {"android": "https://dc.lft.to/lastmile_qr_scan", "ios": "https://dc.lft.to/lastmile_qr_scan"}, "name": "b55904d0f446c21b4786557e911df591", "is_reserved": 0}, {"is_disabled": 0, "fusion_lon": 0.0, "fusion_lat": 0.0, "lat": 38.947760833333334, "type": "electric_bike", "lon": -76.9722165, "bike_id": "70efdc62271167d8055e612b589db40a", "rental_uris": {"android": "https://dc.lft.to/lastmile_qr_scan", "ios": "https://dc.lft.to/lastmile_qr_scan"}, "name": "70efdc62271167d8055e612b589db40a", "is_reserved": 0}, {"is_disabled": 0, "fusion_lon": 0.0, "fusion_lat": 0.0, "lat": 38.887563166666666, "type": "electric_scooter", "lon": -76.98912616666667, "bike_id": "93b2316fe832838d57748db1640cf084", "rental_uris": {"android": "https://dc.lft.to/lastmile_qr_scan", "ios": "https://dc.lft.to/lastmile_qr_scan"}, "name": "93b2316fe832838d57748db1640cf084", "is_reserved": 0}, {"is_disabled": 0, "fusion_lon": 0.0, "fusion_lat": 0.0, "lat": 38.926153666666664, "type": "electric_scooter", "lon": -76.98201516666667, "bike_id": "72101d6d5184ad69324a166d76499304", "rental_uris": {"android": "https://dc.lft.to/lastmile_qr_scan", "ios": "https://dc.lft.to/lastmile_qr_scan"}, "name": "72101d6d5184ad69324a166d76499304", "is_reserved": 0}, {"is_disabled": 0, "fusion_lon": 0.0, "fusion_lat": 0.0, "lat": 38.917292, "type": "electric_scooter", "lon": -76.9917985, "bike_id": "eade941c21aedaebbaf69715c78da828", "rental_uris": {"android": "https://dc.lft.to/lastmile_qr_scan", "ios": "https://dc.lft.to/lastmile_qr_scan"}, "name": "eade941c21aedaebbaf69715c78da828", "is_reserved": 0}, {"is_disabled": 0, "fusion_lon": 0.0, "fusion_lat": 0.0, "lat": 38.88748433333333, "type": "electric_scooter", "lon": -77.00221216666667, "bike_id": "9b101d62a98ecdf6bbc373012464d5a0", "rental_uris": {"android": "https://dc.lft.to/lastmile_qr_scan", "ios": "https://dc.lft.to/lastmile_qr_scan"}, "name": "9b101d62a98ecdf6bbc373012464d5a0", "is_reserved": 0}, {"is_disabled": 0, "fusion_lon": 0.0, "fusion_lat": 0.0, "lat": 38.970447166666666, "type": "electric_bike", "lon": -76.96060833333334, "bike_id": "7c17520b6b583c2505af503b912388dc", "rental_uris": {"android": "https://dc.lft.to/lastmile_qr_scan", "ios": "https://dc.lft.to/lastmile_qr_scan"}, "name": "7c17520b6b583c2505af503b912388dc", "is_reserved": 0}, {"is_disabled": 0, "fusion_lon": 0.0, "fusion_lat": 0.0, "lat": 38.87451333333333, "type": "electric_scooter", "lon": -77.00484233333333, "bike_id": "20bfefc91e52167972a6b15957c58249", "rental_uris": {"android": "https://dc.lft.to/lastmile_qr_scan", "ios": "https://dc.lft.to/lastmile_qr_scan"}, "name": "20bfefc91e52167972a6b15957c58249", "is_reserved": 0}, {"is_disabled": 0, "fusion_lon": 0.0, "fusion_lat": 0.0, "lat": 38.9245065, "type": "electric_scooter", "lon": -77.03170616666667, "bike_id": "e5036253f764abfeb6da19338e01efa5", "rental_uris": {"android": "https://dc.lft.to/lastmile_qr_scan", "ios": "https://dc.lft.to/lastmile_qr_scan"}, "name": "e5036253f764abfeb6da19338e01efa5", "is_reserved": 0}, {"is_disabled": 0, "fusion_lon": 0.0, "fusion_lat": 0.0, "lat": 38.92852533333333, "type": "electric_scooter", "lon": -77.01397866666667, "bike_id": "bb4d8a7ae776ea8ceb47c8f3eb9143d7", "rental_uris": {"android": "https://dc.lft.to/lastmile_qr_scan", "ios": "https://dc.lft.to/lastmile_qr_scan"}, "name": "bb4d8a7ae776ea8ceb47c8f3eb9143d7", "is_reserved": 0}, {"is_disabled": 0, "fusion_lon": 0.0, "fusion_lat": 0.0, "lat": 38.900455666666666, "type": "electric_scooter", "lon": -76.922683, "bike_id": "035dff571681883f9fa3859cc23f7b1c", "rental_uris": {"android": "https://dc.lft.to/lastmile_qr_scan", "ios": "https://dc.lft.to/lastmile_qr_scan"}, "name": "035dff571681883f9fa3859cc23f7b1c", "is_reserved": 0}, {"is_disabled": 0, "fusion_lon": 0.0, "fusion_lat": 0.0, "lat": 38.9346665, "type": "electric_scooter", "lon": -77.07248516666667, "bike_id": "e2d430effa83959829eebf2a59c5b40f", "rental_uris": {"android": "https://dc.lft.to/lastmile_qr_scan", "ios": "https://dc.lft.to/lastmile_qr_scan"}, "name": "e2d430effa83959829eebf2a59c5b40f", "is_reserved": 0}, {"is_disabled": 0, "fusion_lon": 0.0, "fusion_lat": 0.0, "lat": 38.88988666666667, "type": "electric_scooter", "lon": -77.00046883333333, "bike_id": "1125319a421fe7944b6994089c97b908", "rental_uris": {"android": "https://dc.lft.to/lastmile_qr_scan", "ios": "https://dc.lft.to/lastmile_qr_scan"}, "name": "1125319a421fe7944b6994089c97b908", "is_reserved": 0}, {"is_disabled": 0, "fusion_lon": 0.0, "fusion_lat": 0.0, "lat": 38.9317155, "type": "electric_scooter", "lon": -77.0234835, "bike_id": "ef0cbd4f08678c5ae83f696bedd32898", "rental_uris": {"android": "https://dc.lft.to/lastmile_qr_scan", "ios": "https://dc.lft.to/lastmile_qr_scan"}, "name": "ef0cbd4f08678c5ae83f696bedd32898", "is_reserved": 0}, {"is_disabled": 0, "fusion_lon": 0.0, "fusion_lat": 0.0, "lat": 38.93535266666667, "type": "electric_scooter", "lon": -77.023795, "bike_id": "d5988beec4535ab59b4281dbc8b3f953", "rental_uris": {"android": "https://dc.lft.to/lastmile_qr_scan", "ios": "https://dc.lft.to/lastmile_qr_scan"}, "name": "d5988beec4535ab59b4281dbc8b3f953", "is_reserved": 0}, {"is_disabled": 0, "fusion_lon": 0.0, "fusion_lat": 0.0, "lat": 38.915479166666664, "type": "electric_scooter", "lon": -77.02140483333334, "bike_id": "f721906a3d05aedc4c14d67327092f98", "rental_uris": {"android": "https://dc.lft.to/lastmile_qr_scan", "ios": "https://dc.lft.to/lastmile_qr_scan"}, "name": "f721906a3d05aedc4c14d67327092f98", "is_reserved": 0}, {"is_disabled": 0, "fusion_lon": 0.0, "fusion_lat": 0.0, "lat": 38.91823316666667, "type": "electric_scooter", "lon": -77.02426883333334, "bike_id": "61c2a09cbdfdd7a5b4a856af0ffa1b2e", "rental_uris": {"android": "https://dc.lft.to/lastmile_qr_scan", "ios": "https://dc.lft.to/lastmile_qr_scan"}, "name": "61c2a09cbdfdd7a5b4a856af0ffa1b2e", "is_reserved": 0}, {"is_disabled": 0, "fusion_lon": 0.0, "fusion_lat": 0.0, "lat": 38.895537, "type": "electric_scooter", "lon": -77.04672133333334, "bike_id": "5d5b7beb73666310eba76ce72de5f081", "rental_uris": {"android": "https://dc.lft.to/lastmile_qr_scan", "ios": "https://dc.lft.to/lastmile_qr_scan"}, "name": "5d5b7beb73666310eba76ce72de5f081", "is_reserved": 0}, {"is_disabled": 0, "fusion_lon": 0.0, "fusion_lat": 0.0, "lat": 38.893679, "type": "electric_scooter", "lon": -76.94998566666666, "bike_id": "4ddd65bc7322d078c924d2c31dbf39e5", "rental_uris": {"android": "https://dc.lft.to/lastmile_qr_scan", "ios": "https://dc.lft.to/lastmile_qr_scan"}, "name": "4ddd65bc7322d078c924d2c31dbf39e5", "is_reserved": 0}, {"is_disabled": 0, "fusion_lon": 0.0, "fusion_lat": 0.0, "lat": 38.90210716666667, "type": "electric_scooter", "lon": -77.02431583333333, "bike_id": "fffd19efc2c5732f7799575e43db0bd0", "rental_uris": {"android": "https://dc.lft.to/lastmile_qr_scan", "ios": "https://dc.lft.to/lastmile_qr_scan"}, "name": "fffd19efc2c5732f7799575e43db0bd0", "is_reserved": 0}, {"is_disabled": 0, "fusion_lon": 0.0, "fusion_lat": 0.0, "lat": 38.93627433333333, "type": "electric_scooter", "lon": -77.0591035, "bike_id": "8dea348a28506a6963b5654c6b8139a9", "rental_uris": {"android": "https://dc.lft.to/lastmile_qr_scan", "ios": "https://dc.lft.to/lastmile_qr_scan"}, "name": "8dea348a28506a6963b5654c6b8139a9", "is_reserved": 0}, {"is_disabled": 0, "fusion_lon": 0.0, "fusion_lat": 0.0, "lat": 38.9273225, "type": "electric_scooter", "lon": -77.02248916666667, "bike_id": "b828f579f7ee57a4cfa1b4c6a256ff3b", "rental_uris": {"android": "https://dc.lft.to/lastmile_qr_scan", "ios": "https://dc.lft.to/lastmile_qr_scan"}, "name": "b828f579f7ee57a4cfa1b4c6a256ff3b", "is_reserved": 0}, {"is_disabled": 0, "fusion_lon": 0.0, "fusion_lat": 0.0, "lat": 38.902341166666666, "type": "electric_scooter", "lon": -77.04591666666667, "bike_id": "982d29cce7f29ebf191132af0dffcd6f", "rental_uris": {"android": "https://dc.lft.to/lastmile_qr_scan", "ios": "https://dc.lft.to/lastmile_qr_scan"}, "name": "982d29cce7f29ebf191132af0dffcd6f", "is_reserved": 0}, {"is_disabled": 0, "fusion_lon": 0.0, "fusion_lat": 0.0, "lat": 38.8970765, "type": "electric_scooter", "lon": -77.039481, "bike_id": "631025497fc1ad9efba7f6591e6b1012", "rental_uris": {"android": "https://dc.lft.to/lastmile_qr_scan", "ios": "https://dc.lft.to/lastmile_qr_scan"}, "name": "631025497fc1ad9efba7f6591e6b1012", "is_reserved": 0}, {"is_disabled": 0, "fusion_lon": 0.0, "fusion_lat": 0.0, "lat": 38.91151, "type": "electric_scooter", "lon": -77.01081583333334, "bike_id": "a084366742e54691302f7b50edbd1108", "rental_uris": {"android": "https://dc.lft.to/lastmile_qr_scan", "ios": "https://dc.lft.to/lastmile_qr_scan"}, "name": "a084366742e54691302f7b50edbd1108", "is_reserved": 0}, {"is_disabled": 0, "fusion_lon": 0.0, "fusion_lat": 0.0, "lat": 38.91006433333333, "type": "electric_scooter", "lon": -77.02093933333333, "bike_id": "49d631299ce68f7215ec5e2765d19601", "rental_uris": {"android": "https://dc.lft.to/lastmile_qr_scan", "ios": "https://dc.lft.to/lastmile_qr_scan"}, "name": "49d631299ce68f7215ec5e2765d19601", "is_reserved": 0}, {"is_disabled": 0, "fusion_lon": 0.0, "fusion_lat": 0.0, "lat": 38.920902, "type": "electric_scooter", "lon": -77.02595183333334, "bike_id": "631fdab8b519f8198b0f4e1cd8a04c0c", "rental_uris": {"android": "https://dc.lft.to/lastmile_qr_scan", "ios": "https://dc.lft.to/lastmile_qr_scan"}, "name": "631fdab8b519f8198b0f4e1cd8a04c0c", "is_reserved": 0}, {"is_disabled": 0, "fusion_lon": 0.0, "fusion_lat": 0.0, "lat": 38.884452333333336, "type": "electric_scooter", "lon": -76.9509575, "bike_id": "d12f12c53d8619a65dbd4b45ef9846ff", "rental_uris": {"android": "https://dc.lft.to/lastmile_qr_scan", "ios": "https://dc.lft.to/lastmile_qr_scan"}, "name": "d12f12c53d8619a65dbd4b45ef9846ff", "is_reserved": 0}, {"is_disabled": 0, "fusion_lon": 0.0, "fusion_lat": 0.0, "lat": 38.907468333333334, "type": "electric_scooter", "lon": -77.00096183333333, "bike_id": "36823ef3d4ef84a000a9bcb03deb72de", "rental_uris": {"android": "https://dc.lft.to/lastmile_qr_scan", "ios": "https://dc.lft.to/lastmile_qr_scan"}, "name": "36823ef3d4ef84a000a9bcb03deb72de", "is_reserved": 0}, {"is_disabled": 0, "fusion_lon": 0.0, "fusion_lat": 0.0, "lat": 38.84430116666667, "type": "electric_scooter", "lon": -76.99813966666666, "bike_id": "7b3d1e1b5c24df7e327d57027ff4f0c9", "rental_uris": {"android": "https://dc.lft.to/lastmile_qr_scan", "ios": "https://dc.lft.to/lastmile_qr_scan"}, "name": "7b3d1e1b5c24df7e327d57027ff4f0c9", "is_reserved": 0}, {"is_disabled": 0, "fusion_lon": 0.0, "fusion_lat": 0.0, "lat": 38.934068, "type": "electric_scooter", "lon": -77.0426715, "bike_id": "5659cb78c87fecaa779d148138143e28", "rental_uris": {"android": "https://dc.lft.to/lastmile_qr_scan", "ios": "https://dc.lft.to/lastmile_qr_scan"}, "name": "5659cb78c87fecaa779d148138143e28", "is_reserved": 0}, {"is_disabled": 0, "fusion_lon": 0.0, "fusion_lat": 0.0, "lat": 38.8979705, "type": "electric_scooter", "lon": -77.04762516666666, "bike_id": "d7631749d5d98c45a0477fb645053345", "rental_uris": {"android": "https://dc.lft.to/lastmile_qr_scan", "ios": "https://dc.lft.to/lastmile_qr_scan"}, "name": "d7631749d5d98c45a0477fb645053345", "is_reserved": 0}, {"is_disabled": 0, "fusion_lon": 0.0, "fusion_lat": 0.0, "lat": 38.903322833333334, "type": "electric_scooter", "lon": -77.02133466666666, "bike_id": "77b13de7498e83acc1ea21610d03342d", "rental_uris": {"android": "https://dc.lft.to/lastmile_qr_scan", "ios": "https://dc.lft.to/lastmile_qr_scan"}, "name": "77b13de7498e83acc1ea21610d03342d", "is_reserved": 0}, {"is_disabled": 0, "fusion_lon": 0.0, "fusion_lat": 0.0, "lat": 38.83808166666667, "type": "electric_scooter", "lon": -77.00432083333334, "bike_id": "c04d910f352e9093311cf96b1d03b44a", "rental_uris": {"android": "https://dc.lft.to/lastmile_qr_scan", "ios": "https://dc.lft.to/lastmile_qr_scan"}, "name": "c04d910f352e9093311cf96b1d03b44a", "is_reserved": 0}, {"is_disabled": 0, "fusion_lon": 0.0, "fusion_lat": 0.0, "lat": 38.966168333333336, "type": "electric_bike", "lon": -77.03434416666667, "bike_id": "c93da1b3defbe40e8e93744ac5d39873", "rental_uris": {"android": "https://dc.lft.to/lastmile_qr_scan", "ios": "https://dc.lft.to/lastmile_qr_scan"}, "name": "c93da1b3defbe40e8e93744ac5d39873", "is_reserved": 0}, {"is_disabled": 0, "fusion_lon": 0.0, "fusion_lat": 0.0, "lat": 38.88624383333333, "type": "electric_scooter", "lon": -76.9984905, "bike_id": "2517e72b6fbdff672678ce9657eea8ae", "rental_uris": {"android": "https://dc.lft.to/lastmile_qr_scan", "ios": "https://dc.lft.to/lastmile_qr_scan"}, "name": "2517e72b6fbdff672678ce9657eea8ae", "is_reserved": 0}, {"is_disabled": 0, "fusion_lon": 0.0, "fusion_lat": 0.0, "lat": 38.84290333333333, "type": "electric_scooter", "lon": -76.99949533333333, "bike_id": "936d4ced4b08b09ea9dacd957a9cfdbd", "rental_uris": {"android": "https://dc.lft.to/lastmile_qr_scan", "ios": "https://dc.lft.to/lastmile_qr_scan"}, "name": "936d4ced4b08b09ea9dacd957a9cfdbd", "is_reserved": 0}, {"is_disabled": 0, "fusion_lon": 0.0, "fusion_lat": 0.0, "lat": 39.09943583333333, "type": "electric_bike", "lon": -77.1878965, "bike_id": "a58c329b5f4ceda3d8e688fc13d7496e", "rental_uris": {"android": "https://dc.lft.to/lastmile_qr_scan", "ios": "https://dc.lft.to/lastmile_qr_scan"}, "name": "a58c329b5f4ceda3d8e688fc13d7496e", "is_reserved": 0}, {"is_disabled": 0, "fusion_lon": 0.0, "fusion_lat": 0.0, "lat": 38.90792883333334, "type": "electric_scooter", "lon": -77.0498435, "bike_id": "e17b4b66aa46870953fa23e72f5bda5e", "rental_uris": {"android": "https://dc.lft.to/lastmile_qr_scan", "ios": "https://dc.lft.to/lastmile_qr_scan"}, "name": "e17b4b66aa46870953fa23e72f5bda5e", "is_reserved": 0}, {"is_disabled": 0, "fusion_lon": 0.0, "fusion_lat": 0.0, "lat": 38.93500083333333, "type": "electric_bike", "lon": -76.9495925, "bike_id": "0da7aa1a782ca590f233876980336b2e", "rental_uris": {"android": "https://dc.lft.to/lastmile_qr_scan", "ios": "https://dc.lft.to/lastmile_qr_scan"}, "name": "0da7aa1a782ca590f233876980336b2e", "is_reserved": 0}, {"is_disabled": 0, "fusion_lon": 0.0, "fusion_lat": 0.0, "lat": 38.90848533333333, "type": "electric_scooter", "lon": -77.00186683333334, "bike_id": "e88dbb84642303ab5cdba7cee43047d9", "rental_uris": {"android": "https://dc.lft.to/lastmile_qr_scan", "ios": "https://dc.lft.to/lastmile_qr_scan"}, "name": "e88dbb84642303ab5cdba7cee43047d9", "is_reserved": 0}, {"is_disabled": 0, "fusion_lon": 0.0, "fusion_lat": 0.0, "lat": 38.93344666666667, "type": "electric_scooter", "lon": -77.07219933333333, "bike_id": "da8f991e3e4c1254d1f2547efb95998c", "rental_uris": {"android": "https://dc.lft.to/lastmile_qr_scan", "ios": "https://dc.lft.to/lastmile_qr_scan"}, "name": "da8f991e3e4c1254d1f2547efb95998c", "is_reserved": 0}, {"is_disabled": 0, "fusion_lon": 0.0, "fusion_lat": 0.0, "lat": 38.89460783333333, "type": "electric_scooter", "lon": -76.99488833333334, "bike_id": "c1fa2b60bdd88c1691a19528d3a92ec4", "rental_uris": {"android": "https://dc.lft.to/lastmile_qr_scan", "ios": "https://dc.lft.to/lastmile_qr_scan"}, "name": "c1fa2b60bdd88c1691a19528d3a92ec4", "is_reserved": 0}, {"is_disabled": 0, "fusion_lon": 0.0, "fusion_lat": 0.0, "lat": 38.89905, "type": "electric_scooter", "lon": -76.93392933333334, "bike_id": "27795f286c8ee656389bdeb4d7172169", "rental_uris": {"android": "https://dc.lft.to/lastmile_qr_scan", "ios": "https://dc.lft.to/lastmile_qr_scan"}, "name": "27795f286c8ee656389bdeb4d7172169", "is_reserved": 0}, {"is_disabled": 0, "fusion_lon": 0.0, "fusion_lat": 0.0, "lat": 38.91330466666667, "type": "electric_scooter", "lon": -77.0316935, "bike_id": "01d8ecd5307b58deba083037b3a15841", "rental_uris": {"android": "https://dc.lft.to/lastmile_qr_scan", "ios": "https://dc.lft.to/lastmile_qr_scan"}, "name": "01d8ecd5307b58deba083037b3a15841", "is_reserved": 0}, {"is_disabled": 0, "fusion_lon": 0.0, "fusion_lat": 0.0, "lat": 38.95195, "type": "electric_scooter", "lon": -77.0273555, "bike_id": "01a29f5f14f2270511eb86aace0b0ce1", "rental_uris": {"android": "https://dc.lft.to/lastmile_qr_scan", "ios": "https://dc.lft.to/lastmile_qr_scan"}, "name": "01a29f5f14f2270511eb86aace0b0ce1", "is_reserved": 0}, {"is_disabled": 0, "fusion_lon": 0.0, "fusion_lat": 0.0, "lat": 38.94272933333333, "type": "electric_scooter", "lon": -77.03260066666667, "bike_id": "3cdaabe5348f8df551b38bf776417db4", "rental_uris": {"android": "https://dc.lft.to/lastmile_qr_scan", "ios": "https://dc.lft.to/lastmile_qr_scan"}, "name": "3cdaabe5348f8df551b38bf776417db4", "is_reserved": 0}, {"is_disabled": 0, "fusion_lon": 0.0, "fusion_lat": 0.0, "lat": 38.907650833333335, "type": "electric_scooter", "lon": -77.0239175, "bike_id": "f754dd1b02fda49a3eb1bd2fc90f6c1a", "rental_uris": {"android": "https://dc.lft.to/lastmile_qr_scan", "ios": "https://dc.lft.to/lastmile_qr_scan"}, "name": "f754dd1b02fda49a3eb1bd2fc90f6c1a", "is_reserved": 0}, {"is_disabled": 0, "fusion_lon": 0.0, "fusion_lat": 0.0, "lat": 38.84290433333334, "type": "electric_scooter", "lon": -76.99948216666667, "bike_id": "842eb035dc30d892b5b6c454fa27963e", "rental_uris": {"android": "https://dc.lft.to/lastmile_qr_scan", "ios": "https://dc.lft.to/lastmile_qr_scan"}, "name": "842eb035dc30d892b5b6c454fa27963e", "is_reserved": 0}, {"is_disabled": 0, "fusion_lon": 0.0, "fusion_lat": 0.0, "lat": 39.02996683333333, "type": "electric_bike", "lon": -77.10653466666666, "bike_id": "1974200104ee6a247c078333c67aed29", "rental_uris": {"android": "https://dc.lft.to/lastmile_qr_scan", "ios": "https://dc.lft.to/lastmile_qr_scan"}, "name": "1974200104ee6a247c078333c67aed29", "is_reserved": 0}, {"is_disabled": 0, "fusion_lon": 0.0, "fusion_lat": 0.0, "lat": 38.96450566666667, "type": "electric_bike", "lon": -76.97728116666667, "bike_id": "dd1c4f08c94072f9a8cdb52f68498f0f", "rental_uris": {"android": "https://dc.lft.to/lastmile_qr_scan", "ios": "https://dc.lft.to/lastmile_qr_scan"}, "name": "dd1c4f08c94072f9a8cdb52f68498f0f", "is_reserved": 0}, {"is_disabled": 0, "fusion_lon": 0.0, "fusion_lat": 0.0, "lat": 38.92022583333333, "type": "electric_scooter", "lon": -77.0312825, "bike_id": "c2578e572f093bf8c49c1de466f5267f", "rental_uris": {"android": "https://dc.lft.to/lastmile_qr_scan", "ios": "https://dc.lft.to/lastmile_qr_scan"}, "name": "c2578e572f093bf8c49c1de466f5267f", "is_reserved": 0}, {"is_disabled": 0, "fusion_lon": 0.0, "fusion_lat": 0.0, "lat": 38.88734916666667, "type": "electric_scooter", "lon": -77.0160275, "bike_id": "367b2096ce69b7a6ef3125eb5b648bef", "rental_uris": {"android": "https://dc.lft.to/lastmile_qr_scan", "ios": "https://dc.lft.to/lastmile_qr_scan"}, "name": "367b2096ce69b7a6ef3125eb5b648bef", "is_reserved": 0}, {"is_disabled": 0, "fusion_lon": 0.0, "fusion_lat": 0.0, "lat": 38.940505, "type": "electric_scooter", "lon": -77.02480666666666, "bike_id": "e7cd4624b0724e3162dae288a90cc443", "rental_uris": {"android": "https://dc.lft.to/lastmile_qr_scan", "ios": "https://dc.lft.to/lastmile_qr_scan"}, "name": "e7cd4624b0724e3162dae288a90cc443", "is_reserved": 0}, {"is_disabled": 0, "fusion_lon": 0.0, "fusion_lat": 0.0, "lat": 38.906719833333334, "type": "electric_scooter", "lon": -77.03803233333333, "bike_id": "8d95af15d71e589c144d106a0c0e1ac1", "rental_uris": {"android": "https://dc.lft.to/lastmile_qr_scan", "ios": "https://dc.lft.to/lastmile_qr_scan"}, "name": "8d95af15d71e589c144d106a0c0e1ac1", "is_reserved": 0}, {"is_disabled": 0, "fusion_lon": 0.0, "fusion_lat": 0.0, "lat": 38.85618083333333, "type": "electric_bike", "lon": -77.08541933333333, "bike_id": "7009c419df693ef1b055ae07b7968cf6", "rental_uris": {"android": "https://dc.lft.to/lastmile_qr_scan", "ios": "https://dc.lft.to/lastmile_qr_scan"}, "name": "7009c419df693ef1b055ae07b7968cf6", "is_reserved": 0}, {"is_disabled": 0, "fusion_lon": 0.0, "fusion_lat": 0.0, "lat": 38.85083516666667, "type": "electric_bike", "lon": -76.957007, "bike_id": "05a895d3623d521aa8a59d4bb40311a9", "rental_uris": {"android": "https://dc.lft.to/lastmile_qr_scan", "ios": "https://dc.lft.to/lastmile_qr_scan"}, "name": "05a895d3623d521aa8a59d4bb40311a9", "is_reserved": 0}, {"is_disabled": 0, "fusion_lon": 0.0, "fusion_lat": 0.0, "lat": 38.9076835, "type": "electric_scooter", "lon": -77.062857, "bike_id": "d3c78b9308196031941bb2c6e5cdb6b9", "rental_uris": {"android": "https://dc.lft.to/lastmile_qr_scan", "ios": "https://dc.lft.to/lastmile_qr_scan"}, "name": "d3c78b9308196031941bb2c6e5cdb6b9", "is_reserved": 0}, {"is_disabled": 0, "fusion_lon": 0.0, "fusion_lat": 0.0, "lat": 38.926032, "type": "electric_scooter", "lon": -77.02350066666666, "bike_id": "015d4e0b46ec95c5fa40318d2ba0714c", "rental_uris": {"android": "https://dc.lft.to/lastmile_qr_scan", "ios": "https://dc.lft.to/lastmile_qr_scan"}, "name": "015d4e0b46ec95c5fa40318d2ba0714c", "is_reserved": 0}, {"is_disabled": 0, "fusion_lon": 0.0, "fusion_lat": 0.0, "lat": 38.89598733333333, "type": "electric_scooter", "lon": -77.009131, "bike_id": "764600d2f493405d18a9186103013fcd", "rental_uris": {"android": "https://dc.lft.to/lastmile_qr_scan", "ios": "https://dc.lft.to/lastmile_qr_scan"}, "name": "764600d2f493405d18a9186103013fcd", "is_reserved": 0}, {"is_disabled": 0, "fusion_lon": 0.0, "fusion_lat": 0.0, "lat": 38.852055166666666, "type": "electric_bike", "lon": -77.1012775, "bike_id": "51271bc6cc9ed94f20ad0521105cc447", "rental_uris": {"android": "https://dc.lft.to/lastmile_qr_scan", "ios": "https://dc.lft.to/lastmile_qr_scan"}, "name": "51271bc6cc9ed94f20ad0521105cc447", "is_reserved": 0}, {"is_disabled": 0, "fusion_lon": 0.0, "fusion_lat": 0.0, "lat": 38.92755483333333, "type": "electric_scooter", "lon": -77.00595533333333, "bike_id": "5c1d16b3def34f35add34d8f99023c92", "rental_uris": {"android": "https://dc.lft.to/lastmile_qr_scan", "ios": "https://dc.lft.to/lastmile_qr_scan"}, "name": "5c1d16b3def34f35add34d8f99023c92", "is_reserved": 0}, {"is_disabled": 0, "fusion_lon": 0.0, "fusion_lat": 0.0, "lat": 38.92528516666667, "type": "electric_bike", "lon": -77.0324785, "bike_id": "f795ba370d399e775b8b9698672d93c7", "rental_uris": {"android": "https://dc.lft.to/lastmile_qr_scan", "ios": "https://dc.lft.to/lastmile_qr_scan"}, "name": "f795ba370d399e775b8b9698672d93c7", "is_reserved": 0}, {"is_disabled": 0, "fusion_lon": 0.0, "fusion_lat": 0.0, "lat": 38.922799499999996, "type": "electric_scooter", "lon": -77.0446435, "bike_id": "49eb24c4dfc4937f0433f7d3d7bf9ba5", "rental_uris": {"android": "https://dc.lft.to/lastmile_qr_scan", "ios": "https://dc.lft.to/lastmile_qr_scan"}, "name": "49eb24c4dfc4937f0433f7d3d7bf9ba5", "is_reserved": 0}, {"is_disabled": 0, "fusion_lon": 0.0, "fusion_lat": 0.0, "lat": 38.89530966666667, "type": "electric_scooter", "lon": -77.04847666666667, "bike_id": "e79d91c2818f8bc3fd1623930d188c9a", "rental_uris": {"android": "https://dc.lft.to/lastmile_qr_scan", "ios": "https://dc.lft.to/lastmile_qr_scan"}, "name": "e79d91c2818f8bc3fd1623930d188c9a", "is_reserved": 0}, {"is_disabled": 0, "fusion_lon": 0.0, "fusion_lat": 0.0, "lat": 38.939612833333335, "type": "electric_bike", "lon": -77.36089783333334, "bike_id": "5d305bfa365c32365dd539d89de8408f", "rental_uris": {"android": "https://dc.lft.to/lastmile_qr_scan", "ios": "https://dc.lft.to/lastmile_qr_scan"}, "name": "5d305bfa365c32365dd539d89de8408f", "is_reserved": 0}, {"is_disabled": 0, "fusion_lon": 0.0, "fusion_lat": 0.0, "lat": 38.87586916666667, "type": "electric_scooter", "lon": -77.00412833333333, "bike_id": "ff2ce89f1b4a5ff680a3d05044ee7b1e", "rental_uris": {"android": "https://dc.lft.to/lastmile_qr_scan", "ios": "https://dc.lft.to/lastmile_qr_scan"}, "name": "ff2ce89f1b4a5ff680a3d05044ee7b1e", "is_reserved": 0}, {"is_disabled": 0, "fusion_lon": 0.0, "fusion_lat": 0.0, "lat": 38.924683, "type": "electric_scooter", "lon": -77.07298416666667, "bike_id": "4a825492c23f8c770e9a87d9c96a0326", "rental_uris": {"android": "https://dc.lft.to/lastmile_qr_scan", "ios": "https://dc.lft.to/lastmile_qr_scan"}, "name": "4a825492c23f8c770e9a87d9c96a0326", "is_reserved": 0}, {"is_disabled": 0, "fusion_lon": 0.0, "fusion_lat": 0.0, "lat": 38.9407465, "type": "electric_scooter", "lon": -77.02878033333333, "bike_id": "2496011e79449a07de09e9015d0add5e", "rental_uris": {"android": "https://dc.lft.to/lastmile_qr_scan", "ios": "https://dc.lft.to/lastmile_qr_scan"}, "name": "2496011e79449a07de09e9015d0add5e", "is_reserved": 0}, {"is_disabled": 0, "fusion_lon": 0.0, "fusion_lat": 0.0, "lat": 38.921001, "type": "electric_scooter", "lon": -77.01774383333333, "bike_id": "6701f9c6e0ee4406f73a172120ea5126", "rental_uris": {"android": "https://dc.lft.to/lastmile_qr_scan", "ios": "https://dc.lft.to/lastmile_qr_scan"}, "name": "6701f9c6e0ee4406f73a172120ea5126", "is_reserved": 0}, {"is_disabled": 0, "fusion_lon": 0.0, "fusion_lat": 0.0, "lat": 38.91595566666667, "type": "electric_scooter", "lon": -77.02407633333333, "bike_id": "29c2877c050e3925a277a9e1fd26920b", "rental_uris": {"android": "https://dc.lft.to/lastmile_qr_scan", "ios": "https://dc.lft.to/lastmile_qr_scan"}, "name": "29c2877c050e3925a277a9e1fd26920b", "is_reserved": 0}, {"is_disabled": 0, "fusion_lon": 0.0, "fusion_lat": 0.0, "lat": 38.90357683333333, "type": "electric_scooter", "lon": -77.05913666666666, "bike_id": "24c5baca1d6094ea83698720833612b0", "rental_uris": {"android": "https://dc.lft.to/lastmile_qr_scan", "ios": "https://dc.lft.to/lastmile_qr_scan"}, "name": "24c5baca1d6094ea83698720833612b0", "is_reserved": 0}, {"is_disabled": 0, "fusion_lon": 0.0, "fusion_lat": 0.0, "lat": 38.93474883333333, "type": "electric_scooter", "lon": -77.072724, "bike_id": "a8af861852733a8b6857823b4d548a29", "rental_uris": {"android": "https://dc.lft.to/lastmile_qr_scan", "ios": "https://dc.lft.to/lastmile_qr_scan"}, "name": "a8af861852733a8b6857823b4d548a29", "is_reserved": 0}, {"is_disabled": 0, "fusion_lon": 0.0, "fusion_lat": 0.0, "lat": 38.8776275, "type": "electric_bike", "lon": -76.97998866666667, "bike_id": "6ff7c17d519d9474333eb20118234539", "rental_uris": {"android": "https://dc.lft.to/lastmile_qr_scan", "ios": "https://dc.lft.to/lastmile_qr_scan"}, "name": "6ff7c17d519d9474333eb20118234539", "is_reserved": 0}, {"is_disabled": 0, "fusion_lon": 0.0, "fusion_lat": 0.0, "lat": 38.91956866666666, "type": "electric_scooter", "lon": -77.04122133333334, "bike_id": "e570309450f7dfc6f09afc4bc242821d", "rental_uris": {"android": "https://dc.lft.to/lastmile_qr_scan", "ios": "https://dc.lft.to/lastmile_qr_scan"}, "name": "e570309450f7dfc6f09afc4bc242821d", "is_reserved": 0}, {"is_disabled": 0, "fusion_lon": 0.0, "fusion_lat": 0.0, "lat": 38.90698366666667, "type": "electric_scooter", "lon": -77.03721866666666, "bike_id": "d328b6a5e2566de46907d04cb4e4f057", "rental_uris": {"android": "https://dc.lft.to/lastmile_qr_scan", "ios": "https://dc.lft.to/lastmile_qr_scan"}, "name": "d328b6a5e2566de46907d04cb4e4f057", "is_reserved": 0}, {"is_disabled": 0, "fusion_lon": 0.0, "fusion_lat": 0.0, "lat": 38.88742516666667, "type": "electric_scooter", "lon": -77.01536566666667, "bike_id": "eb8b96fbb29bd77d79ccaf3a5c59e164", "rental_uris": {"android": "https://dc.lft.to/lastmile_qr_scan", "ios": "https://dc.lft.to/lastmile_qr_scan"}, "name": "eb8b96fbb29bd77d79ccaf3a5c59e164", "is_reserved": 0}, {"is_disabled": 0, "fusion_lon": 0.0, "fusion_lat": 0.0, "lat": 38.900347833333335, "type": "electric_scooter", "lon": -77.00785116666667, "bike_id": "4716f0b4a9f4932bcc9c03ea416d3902", "rental_uris": {"android": "https://dc.lft.to/lastmile_qr_scan", "ios": "https://dc.lft.to/lastmile_qr_scan"}, "name": "4716f0b4a9f4932bcc9c03ea416d3902", "is_reserved": 0}, {"is_disabled": 0, "fusion_lon": 0.0, "fusion_lat": 0.0, "lat": 38.906740166666665, "type": "electric_scooter", "lon": -77.02379416666666, "bike_id": "66a54e2b8f52b2896d7c1575f6673eba", "rental_uris": {"android": "https://dc.lft.to/lastmile_qr_scan", "ios": "https://dc.lft.to/lastmile_qr_scan"}, "name": "66a54e2b8f52b2896d7c1575f6673eba", "is_reserved": 0}, {"is_disabled": 0, "fusion_lon": 0.0, "fusion_lat": 0.0, "lat": 38.9072345, "type": "electric_scooter", "lon": -77.04513616666667, "bike_id": "fe33447171022c0cb186a65519eee781", "rental_uris": {"android": "https://dc.lft.to/lastmile_qr_scan", "ios": "https://dc.lft.to/lastmile_qr_scan"}, "name": "fe33447171022c0cb186a65519eee781", "is_reserved": 0}, {"is_disabled": 0, "fusion_lon": 0.0, "fusion_lat": 0.0, "lat": 38.802984333333335, "type": "electric_bike", "lon": -77.03986183333333, "bike_id": "cd5a62f8a178d14dc1ce5dec85b8b823", "rental_uris": {"android": "https://dc.lft.to/lastmile_qr_scan", "ios": "https://dc.lft.to/lastmile_qr_scan"}, "name": "cd5a62f8a178d14dc1ce5dec85b8b823", "is_reserved": 0}, {"is_disabled": 0, "fusion_lon": 0.0, "fusion_lat": 0.0, "lat": 38.92085383333333, "type": "electric_scooter", "lon": -77.02522916666666, "bike_id": "12314db3ad5d5571cafb9bd5a8943ac7", "rental_uris": {"android": "https://dc.lft.to/lastmile_qr_scan", "ios": "https://dc.lft.to/lastmile_qr_scan"}, "name": "12314db3ad5d5571cafb9bd5a8943ac7", "is_reserved": 0}, {"is_disabled": 0, "fusion_lon": 0.0, "fusion_lat": 0.0, "lat": 38.883661333333336, "type": "electric_scooter", "lon": -77.0243555, "bike_id": "9d3c86d11707219b55bd5cc9d4ce5c68", "rental_uris": {"android": "https://dc.lft.to/lastmile_qr_scan", "ios": "https://dc.lft.to/lastmile_qr_scan"}, "name": "9d3c86d11707219b55bd5cc9d4ce5c68", "is_reserved": 0}, {"is_disabled": 0, "fusion_lon": 0.0, "fusion_lat": 0.0, "lat": 38.90133866666667, "type": "electric_scooter", "lon": -77.03949583333333, "bike_id": "42d10b325e08f93a38591373b7a8f978", "rental_uris": {"android": "https://dc.lft.to/lastmile_qr_scan", "ios": "https://dc.lft.to/lastmile_qr_scan"}, "name": "42d10b325e08f93a38591373b7a8f978", "is_reserved": 0}, {"is_disabled": 0, "fusion_lon": 0.0, "fusion_lat": 0.0, "lat": 38.90720783333333, "type": "electric_scooter", "lon": -77.04512383333334, "bike_id": "e776fc92c2430c29a329ffbb6474ef96", "rental_uris": {"android": "https://dc.lft.to/lastmile_qr_scan", "ios": "https://dc.lft.to/lastmile_qr_scan"}, "name": "e776fc92c2430c29a329ffbb6474ef96", "is_reserved": 0}, {"is_disabled": 0, "fusion_lon": 0.0, "fusion_lat": 0.0, "lat": 38.930721166666665, "type": "electric_scooter", "lon": -77.03395, "bike_id": "f51d8abd4a91d0fc5cf3ee050adec36b", "rental_uris": {"android": "https://dc.lft.to/lastmile_qr_scan", "ios": "https://dc.lft.to/lastmile_qr_scan"}, "name": "f51d8abd4a91d0fc5cf3ee050adec36b", "is_reserved": 0}, {"is_disabled": 0, "fusion_lon": 0.0, "fusion_lat": 0.0, "lat": 38.917322, "type": "electric_scooter", "lon": -77.02295583333333, "bike_id": "d110f7f03b2e3a091ef75d1141f5c987", "rental_uris": {"android": "https://dc.lft.to/lastmile_qr_scan", "ios": "https://dc.lft.to/lastmile_qr_scan"}, "name": "d110f7f03b2e3a091ef75d1141f5c987", "is_reserved": 0}, {"is_disabled": 0, "fusion_lon": 0.0, "fusion_lat": 0.0, "lat": 38.91953783333334, "type": "electric_scooter", "lon": -77.01394083333334, "bike_id": "3f5f3064307f86c512e15d2f79e2ba69", "rental_uris": {"android": "https://dc.lft.to/lastmile_qr_scan", "ios": "https://dc.lft.to/lastmile_qr_scan"}, "name": "3f5f3064307f86c512e15d2f79e2ba69", "is_reserved": 0}, {"is_disabled": 0, "fusion_lon": 0.0, "fusion_lat": 0.0, "lat": 38.92226566666667, "type": "electric_scooter", "lon": -77.0331385, "bike_id": "09f9cf8694b6e0b06b61e2c452d296b3", "rental_uris": {"android": "https://dc.lft.to/lastmile_qr_scan", "ios": "https://dc.lft.to/lastmile_qr_scan"}, "name": "09f9cf8694b6e0b06b61e2c452d296b3", "is_reserved": 0}, {"is_disabled": 0, "fusion_lon": 0.0, "fusion_lat": 0.0, "lat": 38.9192325, "type": "electric_scooter", "lon": -77.0319985, "bike_id": "5459195d5a83cdf8baa0912956abb8f5", "rental_uris": {"android": "https://dc.lft.to/lastmile_qr_scan", "ios": "https://dc.lft.to/lastmile_qr_scan"}, "name": "5459195d5a83cdf8baa0912956abb8f5", "is_reserved": 0}, {"is_disabled": 0, "fusion_lon": 0.0, "fusion_lat": 0.0, "lat": 38.929768, "type": "electric_scooter", "lon": -77.03469933333334, "bike_id": "f2f328cb99e5b9360a70cb55a1bebd82", "rental_uris": {"android": "https://dc.lft.to/lastmile_qr_scan", "ios": "https://dc.lft.to/lastmile_qr_scan"}, "name": "f2f328cb99e5b9360a70cb55a1bebd82", "is_reserved": 0}, {"is_disabled": 0, "fusion_lon": 0.0, "fusion_lat": 0.0, "lat": 38.9284115, "type": "electric_scooter", "lon": -77.01403, "bike_id": "ba21beba4a4526b6f73037a7e5945771", "rental_uris": {"android": "https://dc.lft.to/lastmile_qr_scan", "ios": "https://dc.lft.to/lastmile_qr_scan"}, "name": "ba21beba4a4526b6f73037a7e5945771", "is_reserved": 0}, {"is_disabled": 0, "fusion_lon": 0.0, "fusion_lat": 0.0, "lat": 38.91118216666667, "type": "electric_scooter", "lon": -77.04723083333333, "bike_id": "4e67019f0cc29ead5d7f2ba13fa38424", "rental_uris": {"android": "https://dc.lft.to/lastmile_qr_scan", "ios": "https://dc.lft.to/lastmile_qr_scan"}, "name": "4e67019f0cc29ead5d7f2ba13fa38424", "is_reserved": 0}, {"is_disabled": 0, "fusion_lon": 0.0, "fusion_lat": 0.0, "lat": 38.877802333333335, "type": "electric_scooter", "lon": -76.99469733333333, "bike_id": "0316a541453c4fb100bd34e6363a0351", "rental_uris": {"android": "https://dc.lft.to/lastmile_qr_scan", "ios": "https://dc.lft.to/lastmile_qr_scan"}, "name": "0316a541453c4fb100bd34e6363a0351", "is_reserved": 0}, {"is_disabled": 0, "fusion_lon": 0.0, "fusion_lat": 0.0, "lat": 38.9285985, "type": "electric_scooter", "lon": -77.0359895, "bike_id": "72e15d5b610aacdc5be760de931dc6e1", "rental_uris": {"android": "https://dc.lft.to/lastmile_qr_scan", "ios": "https://dc.lft.to/lastmile_qr_scan"}, "name": "72e15d5b610aacdc5be760de931dc6e1", "is_reserved": 0}, {"is_disabled": 0, "fusion_lon": 0.0, "fusion_lat": 0.0, "lat": 38.91667783333333, "type": "electric_scooter", "lon": -77.02325933333333, "bike_id": "2fe64c8f53a96bd501ab29c3bab3ce11", "rental_uris": {"android": "https://dc.lft.to/lastmile_qr_scan", "ios": "https://dc.lft.to/lastmile_qr_scan"}, "name": "2fe64c8f53a96bd501ab29c3bab3ce11", "is_reserved": 0}, {"is_disabled": 0, "fusion_lon": 0.0, "fusion_lat": 0.0, "lat": 38.92034916666667, "type": "electric_scooter", "lon": -77.02588116666666, "bike_id": "6afa5d863e6ea438a468cc225df108cc", "rental_uris": {"android": "https://dc.lft.to/lastmile_qr_scan", "ios": "https://dc.lft.to/lastmile_qr_scan"}, "name": "6afa5d863e6ea438a468cc225df108cc", "is_reserved": 0}, {"is_disabled": 0, "fusion_lon": 0.0, "fusion_lat": 0.0, "lat": 38.926044833333336, "type": "electric_scooter", "lon": -77.02157183333334, "bike_id": "ebecd294454ee84b605bd1fbed511ca9", "rental_uris": {"android": "https://dc.lft.to/lastmile_qr_scan", "ios": "https://dc.lft.to/lastmile_qr_scan"}, "name": "ebecd294454ee84b605bd1fbed511ca9", "is_reserved": 0}, {"is_disabled": 0, "fusion_lon": 0.0, "fusion_lat": 0.0, "lat": 38.85917033333333, "type": "electric_scooter", "lon": -76.98781366666667, "bike_id": "f9d1a454d05475bddca149535e1126b4", "rental_uris": {"android": "https://dc.lft.to/lastmile_qr_scan", "ios": "https://dc.lft.to/lastmile_qr_scan"}, "name": "f9d1a454d05475bddca149535e1126b4", "is_reserved": 0}, {"is_disabled": 0, "fusion_lon": 0.0, "fusion_lat": 0.0, "lat": 38.876787666666665, "type": "electric_scooter", "lon": -77.00880766666667, "bike_id": "a3bd45ede4b5a0992963580deab6f10f", "rental_uris": {"android": "https://dc.lft.to/lastmile_qr_scan", "ios": "https://dc.lft.to/lastmile_qr_scan"}, "name": "a3bd45ede4b5a0992963580deab6f10f", "is_reserved": 0}, {"is_disabled": 0, "fusion_lon": 0.0, "fusion_lat": 0.0, "lat": 38.91448233333333, "type": "electric_scooter", "lon": -77.03201966666667, "bike_id": "91d946a23b2beee60e7bf976a7fd639e", "rental_uris": {"android": "https://dc.lft.to/lastmile_qr_scan", "ios": "https://dc.lft.to/lastmile_qr_scan"}, "name": "91d946a23b2beee60e7bf976a7fd639e", "is_reserved": 0}, {"is_disabled": 0, "fusion_lon": 0.0, "fusion_lat": 0.0, "lat": 38.897248833333336, "type": "electric_scooter", "lon": -77.02168583333334, "bike_id": "f525f95b3087d08003978e4d132b3296", "rental_uris": {"android": "https://dc.lft.to/lastmile_qr_scan", "ios": "https://dc.lft.to/lastmile_qr_scan"}, "name": "f525f95b3087d08003978e4d132b3296", "is_reserved": 0}, {"is_disabled": 0, "fusion_lon": 0.0, "fusion_lat": 0.0, "lat": 38.9849745, "type": "electric_bike", "lon": -76.98201033333333, "bike_id": "6aea42a8a74a957c92605384bc1d7462", "rental_uris": {"android": "https://dc.lft.to/lastmile_qr_scan", "ios": "https://dc.lft.to/lastmile_qr_scan"}, "name": "6aea42a8a74a957c92605384bc1d7462", "is_reserved": 0}, {"is_disabled": 0, "fusion_lon": 0.0, "fusion_lat": 0.0, "lat": 38.91694533333333, "type": "electric_scooter", "lon": -77.001126, "bike_id": "601f3fc27e3af80f501afe9f882b9a28", "rental_uris": {"android": "https://dc.lft.to/lastmile_qr_scan", "ios": "https://dc.lft.to/lastmile_qr_scan"}, "name": "601f3fc27e3af80f501afe9f882b9a28", "is_reserved": 0}, {"is_disabled": 0, "fusion_lon": 0.0, "fusion_lat": 0.0, "lat": 38.918841, "type": "electric_scooter", "lon": -77.044754, "bike_id": "1e23872d4cbf0fa8e39016c67de77bf4", "rental_uris": {"android": "https://dc.lft.to/lastmile_qr_scan", "ios": "https://dc.lft.to/lastmile_qr_scan"}, "name": "1e23872d4cbf0fa8e39016c67de77bf4", "is_reserved": 0}, {"is_disabled": 0, "fusion_lon": 0.0, "fusion_lat": 0.0, "lat": 38.892249, "type": "electric_scooter", "lon": -77.04646816666667, "bike_id": "207e3f34a2cb8132332fbd9a783f6787", "rental_uris": {"android": "https://dc.lft.to/lastmile_qr_scan", "ios": "https://dc.lft.to/lastmile_qr_scan"}, "name": "207e3f34a2cb8132332fbd9a783f6787", "is_reserved": 0}, {"is_disabled": 0, "fusion_lon": 0.0, "fusion_lat": 0.0, "lat": 38.90512416666667, "type": "electric_scooter", "lon": -77.024965, "bike_id": "84994e534ae03ceb6622df30ed08cb82", "rental_uris": {"android": "https://dc.lft.to/lastmile_qr_scan", "ios": "https://dc.lft.to/lastmile_qr_scan"}, "name": "84994e534ae03ceb6622df30ed08cb82", "is_reserved": 0}, {"is_disabled": 0, "fusion_lon": 0.0, "fusion_lat": 0.0, "lat": 38.85204183333333, "type": "electric_bike", "lon": -77.12758116666667, "bike_id": "aa5cae6f0a5312f7f3ec80413460601a", "rental_uris": {"android": "https://dc.lft.to/lastmile_qr_scan", "ios": "https://dc.lft.to/lastmile_qr_scan"}, "name": "aa5cae6f0a5312f7f3ec80413460601a", "is_reserved": 0}, {"is_disabled": 0, "fusion_lon": 0.0, "fusion_lat": 0.0, "lat": 38.91651483333333, "type": "electric_scooter", "lon": -77.01917016666667, "bike_id": "f9e3778c3bcae041f0b262c13c6eb266", "rental_uris": {"android": "https://dc.lft.to/lastmile_qr_scan", "ios": "https://dc.lft.to/lastmile_qr_scan"}, "name": "f9e3778c3bcae041f0b262c13c6eb266", "is_reserved": 0}, {"is_disabled": 0, "fusion_lon": 0.0, "fusion_lat": 0.0, "lat": 38.926374833333334, "type": "electric_scooter", "lon": -77.03372966666667, "bike_id": "56dc68581bd9087d1e93adcb26b4323a", "rental_uris": {"android": "https://dc.lft.to/lastmile_qr_scan", "ios": "https://dc.lft.to/lastmile_qr_scan"}, "name": "56dc68581bd9087d1e93adcb26b4323a", "is_reserved": 0}, {"is_disabled": 0, "fusion_lon": 0.0, "fusion_lat": 0.0, "lat": 38.874875333333335, "type": "electric_scooter", "lon": -77.0033375, "bike_id": "612b6c079f05104434f3decc34c5593f", "rental_uris": {"android": "https://dc.lft.to/lastmile_qr_scan", "ios": "https://dc.lft.to/lastmile_qr_scan"}, "name": "612b6c079f05104434f3decc34c5593f", "is_reserved": 0}, {"is_disabled": 0, "fusion_lon": 0.0, "fusion_lat": 0.0, "lat": 38.89221, "type": "electric_scooter", "lon": -77.043363, "bike_id": "3cb73273660f4536483c958dd1759b5f", "rental_uris": {"android": "https://dc.lft.to/lastmile_qr_scan", "ios": "https://dc.lft.to/lastmile_qr_scan"}, "name": "3cb73273660f4536483c958dd1759b5f", "is_reserved": 0}, {"is_disabled": 0, "fusion_lon": 0.0, "fusion_lat": 0.0, "lat": 38.949155166666664, "type": "electric_bike", "lon": -77.00804833333333, "bike_id": "23d1a25b636fa8fcd74ba759ff4b162d", "rental_uris": {"android": "https://dc.lft.to/lastmile_qr_scan", "ios": "https://dc.lft.to/lastmile_qr_scan"}, "name": "23d1a25b636fa8fcd74ba759ff4b162d", "is_reserved": 0}, {"is_disabled": 0, "fusion_lon": 0.0, "fusion_lat": 0.0, "lat": 38.90255633333334, "type": "electric_scooter", "lon": -77.0617035, "bike_id": "925b44b71b328de3303661e24fb01e49", "rental_uris": {"android": "https://dc.lft.to/lastmile_qr_scan", "ios": "https://dc.lft.to/lastmile_qr_scan"}, "name": "925b44b71b328de3303661e24fb01e49", "is_reserved": 0}, {"is_disabled": 0, "fusion_lon": 0.0, "fusion_lat": 0.0, "lat": 38.8974815, "type": "electric_scooter", "lon": -77.0512265, "bike_id": "09a2447b75c4b3331ae5a8e33a361e15", "rental_uris": {"android": "https://dc.lft.to/lastmile_qr_scan", "ios": "https://dc.lft.to/lastmile_qr_scan"}, "name": "09a2447b75c4b3331ae5a8e33a361e15", "is_reserved": 0}, {"is_disabled": 0, "fusion_lon": 0.0, "fusion_lat": 0.0, "lat": 38.91642733333333, "type": "electric_scooter", "lon": -77.0320955, "bike_id": "ba88fc45ae0154dc0a32f373878373c6", "rental_uris": {"android": "https://dc.lft.to/lastmile_qr_scan", "ios": "https://dc.lft.to/lastmile_qr_scan"}, "name": "ba88fc45ae0154dc0a32f373878373c6", "is_reserved": 0}, {"is_disabled": 0, "fusion_lon": 0.0, "fusion_lat": 0.0, "lat": 38.9140555, "type": "electric_scooter", "lon": -77.01423633333333, "bike_id": "f82f99f76df92e98c8d7228097b295a5", "rental_uris": {"android": "https://dc.lft.to/lastmile_qr_scan", "ios": "https://dc.lft.to/lastmile_qr_scan"}, "name": "f82f99f76df92e98c8d7228097b295a5", "is_reserved": 0}, {"is_disabled": 0, "fusion_lon": 0.0, "fusion_lat": 0.0, "lat": 38.88489116666667, "type": "electric_scooter", "lon": -77.00726766666666, "bike_id": "e808b336c0bc55e6eaad4c3df5f6ea69", "rental_uris": {"android": "https://dc.lft.to/lastmile_qr_scan", "ios": "https://dc.lft.to/lastmile_qr_scan"}, "name": "e808b336c0bc55e6eaad4c3df5f6ea69", "is_reserved": 0}, {"is_disabled": 0, "fusion_lon": 0.0, "fusion_lat": 0.0, "lat": 38.95174816666667, "type": "electric_scooter", "lon": -77.05655083333333, "bike_id": "7e883fc05f3be2ea1a136dbdf7d249a4", "rental_uris": {"android": "https://dc.lft.to/lastmile_qr_scan", "ios": "https://dc.lft.to/lastmile_qr_scan"}, "name": "7e883fc05f3be2ea1a136dbdf7d249a4", "is_reserved": 0}, {"is_disabled": 0, "fusion_lon": 0.0, "fusion_lat": 0.0, "lat": 38.90969916666667, "type": "electric_scooter", "lon": -77.03436616666667, "bike_id": "99361885b0f25b998aa7274e631ac6b5", "rental_uris": {"android": "https://dc.lft.to/lastmile_qr_scan", "ios": "https://dc.lft.to/lastmile_qr_scan"}, "name": "99361885b0f25b998aa7274e631ac6b5", "is_reserved": 0}, {"is_disabled": 0, "fusion_lon": 0.0, "fusion_lat": 0.0, "lat": 38.92551183333333, "type": "electric_scooter", "lon": -77.052974, "bike_id": "5e6e27ea472b3cb5567f21765a3819a4", "rental_uris": {"android": "https://dc.lft.to/lastmile_qr_scan", "ios": "https://dc.lft.to/lastmile_qr_scan"}, "name": "5e6e27ea472b3cb5567f21765a3819a4", "is_reserved": 0}, {"is_disabled": 0, "fusion_lon": 0.0, "fusion_lat": 0.0, "lat": 38.872394666666665, "type": "electric_scooter", "lon": -76.977281, "bike_id": "9072a83ae14dfa8839b2f495c23db87e", "rental_uris": {"android": "https://dc.lft.to/lastmile_qr_scan", "ios": "https://dc.lft.to/lastmile_qr_scan"}, "name": "9072a83ae14dfa8839b2f495c23db87e", "is_reserved": 0}, {"is_disabled": 0, "fusion_lon": 0.0, "fusion_lat": 0.0, "lat": 38.95537783333333, "type": "electric_bike", "lon": -76.93518833333333, "bike_id": "02b697b7644e2303bfdd6ed1c298fca8", "rental_uris": {"android": "https://dc.lft.to/lastmile_qr_scan", "ios": "https://dc.lft.to/lastmile_qr_scan"}, "name": "02b697b7644e2303bfdd6ed1c298fca8", "is_reserved": 0}, {"is_disabled": 0, "fusion_lon": 0.0, "fusion_lat": 0.0, "lat": 38.882607666666665, "type": "electric_scooter", "lon": -76.985391, "bike_id": "2060c1ca61f57fbd56831521b016e90f", "rental_uris": {"android": "https://dc.lft.to/lastmile_qr_scan", "ios": "https://dc.lft.to/lastmile_qr_scan"}, "name": "2060c1ca61f57fbd56831521b016e90f", "is_reserved": 0}, {"is_disabled": 0, "fusion_lon": 0.0, "fusion_lat": 0.0, "lat": 38.9086095, "type": "electric_scooter", "lon": -77.0230345, "bike_id": "f500c8f54de8c3578c466dccf1e9845e", "rental_uris": {"android": "https://dc.lft.to/lastmile_qr_scan", "ios": "https://dc.lft.to/lastmile_qr_scan"}, "name": "f500c8f54de8c3578c466dccf1e9845e", "is_reserved": 0}, {"is_disabled": 0, "fusion_lon": 0.0, "fusion_lat": 0.0, "lat": 38.82865616666667, "type": "electric_bike", "lon": -77.11224433333334, "bike_id": "cf067e677d9d478798f9fd1684eeeba9", "rental_uris": {"android": "https://dc.lft.to/lastmile_qr_scan", "ios": "https://dc.lft.to/lastmile_qr_scan"}, "name": "cf067e677d9d478798f9fd1684eeeba9", "is_reserved": 0}, {"is_disabled": 0, "fusion_lon": 0.0, "fusion_lat": 0.0, "lat": 38.90299066666667, "type": "electric_scooter", "lon": -77.02507666666666, "bike_id": "4b33f7e331cc23a4dbe0fa5e47e8788c", "rental_uris": {"android": "https://dc.lft.to/lastmile_qr_scan", "ios": "https://dc.lft.to/lastmile_qr_scan"}, "name": "4b33f7e331cc23a4dbe0fa5e47e8788c", "is_reserved": 0}, {"is_disabled": 0, "fusion_lon": 0.0, "fusion_lat": 0.0, "lat": 38.965690333333335, "type": "electric_scooter", "lon": -77.01564033333334, "bike_id": "77fed7560d3e81f0ad1f90962fdbe3fa", "rental_uris": {"android": "https://dc.lft.to/lastmile_qr_scan", "ios": "https://dc.lft.to/lastmile_qr_scan"}, "name": "77fed7560d3e81f0ad1f90962fdbe3fa", "is_reserved": 0}, {"is_disabled": 0, "fusion_lon": 0.0, "fusion_lat": 0.0, "lat": 38.898501, "type": "electric_scooter", "lon": -76.99029333333333, "bike_id": "872bbdf86f628bda7d2ca39ee9198c9d", "rental_uris": {"android": "https://dc.lft.to/lastmile_qr_scan", "ios": "https://dc.lft.to/lastmile_qr_scan"}, "name": "872bbdf86f628bda7d2ca39ee9198c9d", "is_reserved": 0}, {"is_disabled": 0, "fusion_lon": 0.0, "fusion_lat": 0.0, "lat": 38.915519333333336, "type": "electric_scooter", "lon": -77.02047633333333, "bike_id": "8ff4345298c7a847c1894d5237bc5036", "rental_uris": {"android": "https://dc.lft.to/lastmile_qr_scan", "ios": "https://dc.lft.to/lastmile_qr_scan"}, "name": "8ff4345298c7a847c1894d5237bc5036", "is_reserved": 0}, {"is_disabled": 0, "fusion_lon": 0.0, "fusion_lat": 0.0, "lat": 38.90933716666667, "type": "electric_scooter", "lon": -77.0536645, "bike_id": "99f947b32fd57aa9e71a1226da1c3a3f", "rental_uris": {"android": "https://dc.lft.to/lastmile_qr_scan", "ios": "https://dc.lft.to/lastmile_qr_scan"}, "name": "99f947b32fd57aa9e71a1226da1c3a3f", "is_reserved": 0}, {"is_disabled": 0, "fusion_lon": 0.0, "fusion_lat": 0.0, "lat": 38.903706166666666, "type": "electric_scooter", "lon": -77.04134816666667, "bike_id": "2fd2682a6de7331985c38152774f427f", "rental_uris": {"android": "https://dc.lft.to/lastmile_qr_scan", "ios": "https://dc.lft.to/lastmile_qr_scan"}, "name": "2fd2682a6de7331985c38152774f427f", "is_reserved": 0}, {"is_disabled": 0, "fusion_lon": 0.0, "fusion_lat": 0.0, "lat": 38.91185466666667, "type": "electric_scooter", "lon": -77.03805883333334, "bike_id": "0bafdce47ab06d95f9be3f9b9b1c7725", "rental_uris": {"android": "https://dc.lft.to/lastmile_qr_scan", "ios": "https://dc.lft.to/lastmile_qr_scan"}, "name": "0bafdce47ab06d95f9be3f9b9b1c7725", "is_reserved": 0}, {"is_disabled": 0, "fusion_lon": 0.0, "fusion_lat": 0.0, "lat": 38.918426, "type": "electric_scooter", "lon": -77.02591266666667, "bike_id": "78254a759f904f49ca0e5a0e175a43f6", "rental_uris": {"android": "https://dc.lft.to/lastmile_qr_scan", "ios": "https://dc.lft.to/lastmile_qr_scan"}, "name": "78254a759f904f49ca0e5a0e175a43f6", "is_reserved": 0}, {"is_disabled": 0, "fusion_lon": 0.0, "fusion_lat": 0.0, "lat": 38.88487883333333, "type": "electric_scooter", "lon": -77.022225, "bike_id": "97d87139d35527f47b7b6c32b4126841", "rental_uris": {"android": "https://dc.lft.to/lastmile_qr_scan", "ios": "https://dc.lft.to/lastmile_qr_scan"}, "name": "97d87139d35527f47b7b6c32b4126841", "is_reserved": 0}, {"is_disabled": 0, "fusion_lon": 0.0, "fusion_lat": 0.0, "lat": 38.91289283333333, "type": "electric_scooter", "lon": -77.0320575, "bike_id": "b14a7f2d42f586d0631e8ff51e7512b2", "rental_uris": {"android": "https://dc.lft.to/lastmile_qr_scan", "ios": "https://dc.lft.to/lastmile_qr_scan"}, "name": "b14a7f2d42f586d0631e8ff51e7512b2", "is_reserved": 0}, {"is_disabled": 0, "fusion_lon": 0.0, "fusion_lat": 0.0, "lat": 38.89519516666667, "type": "electric_scooter", "lon": -77.02816416666667, "bike_id": "02742f762fc54dd6d2ba799532e73377", "rental_uris": {"android": "https://dc.lft.to/lastmile_qr_scan", "ios": "https://dc.lft.to/lastmile_qr_scan"}, "name": "02742f762fc54dd6d2ba799532e73377", "is_reserved": 0}, {"is_disabled": 0, "fusion_lon": 0.0, "fusion_lat": 0.0, "lat": 38.878658, "type": "electric_scooter", "lon": -76.96530633333333, "bike_id": "8f183c12bd1d6f2a2fab95def0043e8e", "rental_uris": {"android": "https://dc.lft.to/lastmile_qr_scan", "ios": "https://dc.lft.to/lastmile_qr_scan"}, "name": "8f183c12bd1d6f2a2fab95def0043e8e", "is_reserved": 0}, {"is_disabled": 0, "fusion_lon": 0.0, "fusion_lat": 0.0, "lat": 38.9006105, "type": "electric_scooter", "lon": -77.03452283333333, "bike_id": "3dba3e70187b170e98304c3172c2188d", "rental_uris": {"android": "https://dc.lft.to/lastmile_qr_scan", "ios": "https://dc.lft.to/lastmile_qr_scan"}, "name": "3dba3e70187b170e98304c3172c2188d", "is_reserved": 0}, {"is_disabled": 0, "fusion_lon": 0.0, "fusion_lat": 0.0, "lat": 38.8999, "type": "electric_scooter", "lon": -77.0231805, "bike_id": "c36d9c75e82ae9c6f74489e48fef9620", "rental_uris": {"android": "https://dc.lft.to/lastmile_qr_scan", "ios": "https://dc.lft.to/lastmile_qr_scan"}, "name": "c36d9c75e82ae9c6f74489e48fef9620", "is_reserved": 0}, {"is_disabled": 0, "fusion_lon": 0.0, "fusion_lat": 0.0, "lat": 38.92256366666667, "type": "electric_scooter", "lon": -77.04214966666666, "bike_id": "0f10af54b9919b7494dfdaa973c8a642", "rental_uris": {"android": "https://dc.lft.to/lastmile_qr_scan", "ios": "https://dc.lft.to/lastmile_qr_scan"}, "name": "0f10af54b9919b7494dfdaa973c8a642", "is_reserved": 0}, {"is_disabled": 0, "fusion_lon": 0.0, "fusion_lat": 0.0, "lat": 38.91268566666667, "type": "electric_scooter", "lon": -77.01213583333333, "bike_id": "4ad5ee62921ae5333b7268364dc19e96", "rental_uris": {"android": "https://dc.lft.to/lastmile_qr_scan", "ios": "https://dc.lft.to/lastmile_qr_scan"}, "name": "4ad5ee62921ae5333b7268364dc19e96", "is_reserved": 0}, {"is_disabled": 0, "fusion_lon": 0.0, "fusion_lat": 0.0, "lat": 38.959273833333334, "type": "electric_bike", "lon": -77.03123483333333, "bike_id": "37bfd5703417dfe50df7c809a8ddebc2", "rental_uris": {"android": "https://dc.lft.to/lastmile_qr_scan", "ios": "https://dc.lft.to/lastmile_qr_scan"}, "name": "37bfd5703417dfe50df7c809a8ddebc2", "is_reserved": 0}, {"is_disabled": 0, "fusion_lon": 0.0, "fusion_lat": 0.0, "lat": 38.91489883333333, "type": "electric_scooter", "lon": -77.0282055, "bike_id": "4a76a35525c3c1fad9481a1f6ea7e2e1", "rental_uris": {"android": "https://dc.lft.to/lastmile_qr_scan", "ios": "https://dc.lft.to/lastmile_qr_scan"}, "name": "4a76a35525c3c1fad9481a1f6ea7e2e1", "is_reserved": 0}, {"is_disabled": 0, "fusion_lon": 0.0, "fusion_lat": 0.0, "lat": 38.927542333333335, "type": "electric_scooter", "lon": -77.032425, "bike_id": "18a0c0bd6820bb5131ef8196e4c5ee45", "rental_uris": {"android": "https://dc.lft.to/lastmile_qr_scan", "ios": "https://dc.lft.to/lastmile_qr_scan"}, "name": "18a0c0bd6820bb5131ef8196e4c5ee45", "is_reserved": 0}, {"is_disabled": 0, "fusion_lon": 0.0, "fusion_lat": 0.0, "lat": 38.9704435, "type": "electric_bike", "lon": -77.0308655, "bike_id": "884b64d1f8514de32adb9d12a2395a29", "rental_uris": {"android": "https://dc.lft.to/lastmile_qr_scan", "ios": "https://dc.lft.to/lastmile_qr_scan"}, "name": "884b64d1f8514de32adb9d12a2395a29", "is_reserved": 0}, {"is_disabled": 0, "fusion_lon": 0.0, "fusion_lat": 0.0, "lat": 38.9024485, "type": "electric_bike", "lon": -76.9701335, "bike_id": "4589cb6905fe7821f849051780889bd2", "rental_uris": {"android": "https://dc.lft.to/lastmile_qr_scan", "ios": "https://dc.lft.to/lastmile_qr_scan"}, "name": "4589cb6905fe7821f849051780889bd2", "is_reserved": 0}, {"is_disabled": 0, "fusion_lon": 0.0, "fusion_lat": 0.0, "lat": 38.9397525, "type": "electric_scooter", "lon": -77.030217, "bike_id": "904e9fa7c7b01c957b53bfb2ec06dd5e", "rental_uris": {"android": "https://dc.lft.to/lastmile_qr_scan", "ios": "https://dc.lft.to/lastmile_qr_scan"}, "name": "904e9fa7c7b01c957b53bfb2ec06dd5e", "is_reserved": 0}, {"is_disabled": 0, "fusion_lon": 0.0, "fusion_lat": 0.0, "lat": 38.897304166666665, "type": "electric_scooter", "lon": -77.026986, "bike_id": "afcfca97452ca729b8103414149b6c24", "rental_uris": {"android": "https://dc.lft.to/lastmile_qr_scan", "ios": "https://dc.lft.to/lastmile_qr_scan"}, "name": "afcfca97452ca729b8103414149b6c24", "is_reserved": 0}, {"is_disabled": 0, "fusion_lon": 0.0, "fusion_lat": 0.0, "lat": 38.9308, "type": "electric_scooter", "lon": -77.03440633333334, "bike_id": "bd165ee709671cd2f26314e50b630589", "rental_uris": {"android": "https://dc.lft.to/lastmile_qr_scan", "ios": "https://dc.lft.to/lastmile_qr_scan"}, "name": "bd165ee709671cd2f26314e50b630589", "is_reserved": 0}, {"is_disabled": 0, "fusion_lon": 0.0, "fusion_lat": 0.0, "lat": 38.88375416666667, "type": "electric_scooter", "lon": -76.92375616666666, "bike_id": "41191050b59ab6c675f21a1125151c69", "rental_uris": {"android": "https://dc.lft.to/lastmile_qr_scan", "ios": "https://dc.lft.to/lastmile_qr_scan"}, "name": "41191050b59ab6c675f21a1125151c69", "is_reserved": 0}, {"is_disabled": 0, "fusion_lon": 0.0, "fusion_lat": 0.0, "lat": 38.907616833333336, "type": "electric_scooter", "lon": -77.0714505, "bike_id": "d56e0e537aa8b9315173351befbc6019", "rental_uris": {"android": "https://dc.lft.to/lastmile_qr_scan", "ios": "https://dc.lft.to/lastmile_qr_scan"}, "name": "d56e0e537aa8b9315173351befbc6019", "is_reserved": 0}, {"is_disabled": 0, "fusion_lon": 0.0, "fusion_lat": 0.0, "lat": 38.910339, "type": "electric_scooter", "lon": -77.04659366666667, "bike_id": "aaf5a37f7c82a75e193cf7d42445e0ca", "rental_uris": {"android": "https://dc.lft.to/lastmile_qr_scan", "ios": "https://dc.lft.to/lastmile_qr_scan"}, "name": "aaf5a37f7c82a75e193cf7d42445e0ca", "is_reserved": 0}, {"is_disabled": 0, "fusion_lon": 0.0, "fusion_lat": 0.0, "lat": 38.9181755, "type": "electric_scooter", "lon": -77.0271105, "bike_id": "81d6b94232812df0e0051cd33f47129e", "rental_uris": {"android": "https://dc.lft.to/lastmile_qr_scan", "ios": "https://dc.lft.to/lastmile_qr_scan"}, "name": "81d6b94232812df0e0051cd33f47129e", "is_reserved": 0}, {"is_disabled": 0, "fusion_lon": 0.0, "fusion_lat": 0.0, "lat": 38.91255616666667, "type": "electric_scooter", "lon": -77.028593, "bike_id": "e7060612b5795bf0750d867f6fb4e2bc", "rental_uris": {"android": "https://dc.lft.to/lastmile_qr_scan", "ios": "https://dc.lft.to/lastmile_qr_scan"}, "name": "e7060612b5795bf0750d867f6fb4e2bc", "is_reserved": 0}, {"is_disabled": 0, "fusion_lon": 0.0, "fusion_lat": 0.0, "lat": 39.058107, "type": "electric_bike", "lon": -77.12626183333333, "bike_id": "aaffd775ed4bebc123d8fcd2429257b8", "rental_uris": {"android": "https://dc.lft.to/lastmile_qr_scan", "ios": "https://dc.lft.to/lastmile_qr_scan"}, "name": "aaffd775ed4bebc123d8fcd2429257b8", "is_reserved": 0}, {"is_disabled": 0, "fusion_lon": 0.0, "fusion_lat": 0.0, "lat": 38.908494833333336, "type": "electric_scooter", "lon": -77.02300766666667, "bike_id": "396c27a922da51b73622f928b8c3f7f7", "rental_uris": {"android": "https://dc.lft.to/lastmile_qr_scan", "ios": "https://dc.lft.to/lastmile_qr_scan"}, "name": "396c27a922da51b73622f928b8c3f7f7", "is_reserved": 0}, {"is_disabled": 0, "fusion_lon": 0.0, "fusion_lat": 0.0, "lat": 38.93380333333333, "type": "electric_scooter", "lon": -77.02466066666666, "bike_id": "963e10f6a39bf34585af91dcc9267b23", "rental_uris": {"android": "https://dc.lft.to/lastmile_qr_scan", "ios": "https://dc.lft.to/lastmile_qr_scan"}, "name": "963e10f6a39bf34585af91dcc9267b23", "is_reserved": 0}, {"is_disabled": 0, "fusion_lon": 0.0, "fusion_lat": 0.0, "lat": 38.94156916666667, "type": "electric_bike", "lon": -77.00197833333333, "bike_id": "3b048b0742529a24bff3fbcfa3fc7451", "rental_uris": {"android": "https://dc.lft.to/lastmile_qr_scan", "ios": "https://dc.lft.to/lastmile_qr_scan"}, "name": "3b048b0742529a24bff3fbcfa3fc7451", "is_reserved": 0}, {"is_disabled": 0, "fusion_lon": 0.0, "fusion_lat": 0.0, "lat": 38.93529733333333, "type": "electric_scooter", "lon": -77.02351216666666, "bike_id": "8bf2d3aa0f81dcea4a80efd56034ddb6", "rental_uris": {"android": "https://dc.lft.to/lastmile_qr_scan", "ios": "https://dc.lft.to/lastmile_qr_scan"}, "name": "8bf2d3aa0f81dcea4a80efd56034ddb6", "is_reserved": 0}, {"is_disabled": 0, "fusion_lon": 0.0, "fusion_lat": 0.0, "lat": 38.918336833333335, "type": "electric_scooter", "lon": -77.02324416666667, "bike_id": "768cdeffff8c251d10b3344874591fa2", "rental_uris": {"android": "https://dc.lft.to/lastmile_qr_scan", "ios": "https://dc.lft.to/lastmile_qr_scan"}, "name": "768cdeffff8c251d10b3344874591fa2", "is_reserved": 0}, {"is_disabled": 0, "fusion_lon": 0.0, "fusion_lat": 0.0, "lat": 38.9112975, "type": "electric_scooter", "lon": -77.03203516666666, "bike_id": "ce44e8fc5b440b1d7a94064e44ec26f1", "rental_uris": {"android": "https://dc.lft.to/lastmile_qr_scan", "ios": "https://dc.lft.to/lastmile_qr_scan"}, "name": "ce44e8fc5b440b1d7a94064e44ec26f1", "is_reserved": 0}, {"is_disabled": 0, "fusion_lon": 0.0, "fusion_lat": 0.0, "lat": 38.8817275, "type": "electric_scooter", "lon": -77.00893983333333, "bike_id": "9ead236935a5e8298d4a0dc5c6c9b9e3", "rental_uris": {"android": "https://dc.lft.to/lastmile_qr_scan", "ios": "https://dc.lft.to/lastmile_qr_scan"}, "name": "9ead236935a5e8298d4a0dc5c6c9b9e3", "is_reserved": 0}, {"is_disabled": 0, "fusion_lon": 0.0, "fusion_lat": 0.0, "lat": 38.85975616666666, "type": "electric_scooter", "lon": -76.98414433333333, "bike_id": "be1f9885a325254b7e5ffef63d5ad0a8", "rental_uris": {"android": "https://dc.lft.to/lastmile_qr_scan", "ios": "https://dc.lft.to/lastmile_qr_scan"}, "name": "be1f9885a325254b7e5ffef63d5ad0a8", "is_reserved": 0}, {"is_disabled": 0, "fusion_lon": 0.0, "fusion_lat": 0.0, "lat": 38.9216695, "type": "electric_scooter", "lon": -77.0120715, "bike_id": "1053e770d95f2ea4b09c4293da105536", "rental_uris": {"android": "https://dc.lft.to/lastmile_qr_scan", "ios": "https://dc.lft.to/lastmile_qr_scan"}, "name": "1053e770d95f2ea4b09c4293da105536", "is_reserved": 0}, {"is_disabled": 0, "fusion_lon": 0.0, "fusion_lat": 0.0, "lat": 38.930112333333334, "type": "electric_scooter", "lon": -77.0328195, "bike_id": "7b233dcc57ec229580fac6511099bdb8", "rental_uris": {"android": "https://dc.lft.to/lastmile_qr_scan", "ios": "https://dc.lft.to/lastmile_qr_scan"}, "name": "7b233dcc57ec229580fac6511099bdb8", "is_reserved": 0}, {"is_disabled": 0, "fusion_lon": 0.0, "fusion_lat": 0.0, "lat": 38.927337333333334, "type": "electric_bike", "lon": -76.99366416666666, "bike_id": "5766771a3e71cf12121d26801d613040", "rental_uris": {"android": "https://dc.lft.to/lastmile_qr_scan", "ios": "https://dc.lft.to/lastmile_qr_scan"}, "name": "5766771a3e71cf12121d26801d613040", "is_reserved": 0}, {"is_disabled": 0, "fusion_lon": 0.0, "fusion_lat": 0.0, "lat": 38.927939333333335, "type": "electric_scooter", "lon": -77.0229415, "bike_id": "4e30fc202bbd66a33ef3daec1c0bcf54", "rental_uris": {"android": "https://dc.lft.to/lastmile_qr_scan", "ios": "https://dc.lft.to/lastmile_qr_scan"}, "name": "4e30fc202bbd66a33ef3daec1c0bcf54", "is_reserved": 0}, {"is_disabled": 0, "fusion_lon": 0.0, "fusion_lat": 0.0, "lat": 38.850695333333334, "type": "electric_bike", "lon": -76.97333666666667, "bike_id": "130ffa9a2013059ae2475ffee4a155ae", "rental_uris": {"android": "https://dc.lft.to/lastmile_qr_scan", "ios": "https://dc.lft.to/lastmile_qr_scan"}, "name": "130ffa9a2013059ae2475ffee4a155ae", "is_reserved": 0}, {"is_disabled": 0, "fusion_lon": 0.0, "fusion_lat": 0.0, "lat": 38.90256933333333, "type": "electric_scooter", "lon": -77.03443416666667, "bike_id": "46b305c6d1a94ba74375139c63018ba3", "rental_uris": {"android": "https://dc.lft.to/lastmile_qr_scan", "ios": "https://dc.lft.to/lastmile_qr_scan"}, "name": "46b305c6d1a94ba74375139c63018ba3", "is_reserved": 0}, {"is_disabled": 0, "fusion_lon": 0.0, "fusion_lat": 0.0, "lat": 38.92029266666667, "type": "electric_scooter", "lon": -77.03114, "bike_id": "3daf999fa2a293024ec1ffbc4c5e358b", "rental_uris": {"android": "https://dc.lft.to/lastmile_qr_scan", "ios": "https://dc.lft.to/lastmile_qr_scan"}, "name": "3daf999fa2a293024ec1ffbc4c5e358b", "is_reserved": 0}, {"is_disabled": 0, "fusion_lon": 0.0, "fusion_lat": 0.0, "lat": 38.900172166666664, "type": "electric_scooter", "lon": -77.04658766666667, "bike_id": "36c90f25e44c5b1d8aaf85596484f9e7", "rental_uris": {"android": "https://dc.lft.to/lastmile_qr_scan", "ios": "https://dc.lft.to/lastmile_qr_scan"}, "name": "36c90f25e44c5b1d8aaf85596484f9e7", "is_reserved": 0}, {"is_disabled": 0, "fusion_lon": 0.0, "fusion_lat": 0.0, "lat": 38.91714916666667, "type": "electric_scooter", "lon": -77.02880783333333, "bike_id": "2480e6f271259a19b792daeb5c815b43", "rental_uris": {"android": "https://dc.lft.to/lastmile_qr_scan", "ios": "https://dc.lft.to/lastmile_qr_scan"}, "name": "2480e6f271259a19b792daeb5c815b43", "is_reserved": 0}, {"is_disabled": 0, "fusion_lon": 0.0, "fusion_lat": 0.0, "lat": 38.92018816666667, "type": "electric_bike", "lon": -76.97301033333333, "bike_id": "e2804022032f3fcacdce7f01fcc197ad", "rental_uris": {"android": "https://dc.lft.to/lastmile_qr_scan", "ios": "https://dc.lft.to/lastmile_qr_scan"}, "name": "e2804022032f3fcacdce7f01fcc197ad", "is_reserved": 0}, {"is_disabled": 0, "fusion_lon": 0.0, "fusion_lat": 0.0, "lat": 38.975417166666666, "type": "electric_bike", "lon": -76.99532516666666, "bike_id": "ec23402424c844fa161ce72ce26e0869", "rental_uris": {"android": "https://dc.lft.to/lastmile_qr_scan", "ios": "https://dc.lft.to/lastmile_qr_scan"}, "name": "ec23402424c844fa161ce72ce26e0869", "is_reserved": 0}, {"is_disabled": 0, "fusion_lon": 0.0, "fusion_lat": 0.0, "lat": 38.871367166666666, "type": "electric_scooter", "lon": -77.00752966666667, "bike_id": "b76cbb2bf6766cbe24b24d45b49eddb3", "rental_uris": {"android": "https://dc.lft.to/lastmile_qr_scan", "ios": "https://dc.lft.to/lastmile_qr_scan"}, "name": "b76cbb2bf6766cbe24b24d45b49eddb3", "is_reserved": 0}, {"is_disabled": 0, "fusion_lon": 0.0, "fusion_lat": 0.0, "lat": 38.9159025, "type": "electric_bike", "lon": -76.97149283333333, "bike_id": "db59069f7b429d14056781832d89af90", "rental_uris": {"android": "https://dc.lft.to/lastmile_qr_scan", "ios": "https://dc.lft.to/lastmile_qr_scan"}, "name": "db59069f7b429d14056781832d89af90", "is_reserved": 0}, {"is_disabled": 0, "fusion_lon": 0.0, "fusion_lat": 0.0, "lat": 38.86809983333333, "type": "electric_bike", "lon": -77.1316675, "bike_id": "cb7d059142fb69c47ff085bd63d44c5b", "rental_uris": {"android": "https://dc.lft.to/lastmile_qr_scan", "ios": "https://dc.lft.to/lastmile_qr_scan"}, "name": "cb7d059142fb69c47ff085bd63d44c5b", "is_reserved": 0}, {"is_disabled": 0, "fusion_lon": 0.0, "fusion_lat": 0.0, "lat": 38.935573166666664, "type": "electric_bike", "lon": -77.0826725, "bike_id": "563edd86358082a445de8660501aad43", "rental_uris": {"android": "https://dc.lft.to/lastmile_qr_scan", "ios": "https://dc.lft.to/lastmile_qr_scan"}, "name": "563edd86358082a445de8660501aad43", "is_reserved": 0}, {"is_disabled": 0, "fusion_lon": 0.0, "fusion_lat": 0.0, "lat": 38.896859666666664, "type": "electric_scooter", "lon": -77.011883, "bike_id": "01cf374d0cf0df42c98bea415cced8ad", "rental_uris": {"android": "https://dc.lft.to/lastmile_qr_scan", "ios": "https://dc.lft.to/lastmile_qr_scan"}, "name": "01cf374d0cf0df42c98bea415cced8ad", "is_reserved": 0}, {"is_disabled": 0, "fusion_lon": 0.0, "fusion_lat": 0.0, "lat": 38.91792433333333, "type": "electric_scooter", "lon": -77.04155366666667, "bike_id": "bcf4c398f6b280960370be556844c86d", "rental_uris": {"android": "https://dc.lft.to/lastmile_qr_scan", "ios": "https://dc.lft.to/lastmile_qr_scan"}, "name": "bcf4c398f6b280960370be556844c86d", "is_reserved": 0}, {"is_disabled": 0, "fusion_lon": 0.0, "fusion_lat": 0.0, "lat": 38.91985, "type": "electric_bike", "lon": -76.97313466666667, "bike_id": "06d67d5e679d155419b6d3982513aa96", "rental_uris": {"android": "https://dc.lft.to/lastmile_qr_scan", "ios": "https://dc.lft.to/lastmile_qr_scan"}, "name": "06d67d5e679d155419b6d3982513aa96", "is_reserved": 0}, {"is_disabled": 0, "fusion_lon": 0.0, "fusion_lat": 0.0, "lat": 38.89624, "type": "electric_scooter", "lon": -77.00898233333334, "bike_id": "5e13b1afe1310594f514d5b360a99c23", "rental_uris": {"android": "https://dc.lft.to/lastmile_qr_scan", "ios": "https://dc.lft.to/lastmile_qr_scan"}, "name": "5e13b1afe1310594f514d5b360a99c23", "is_reserved": 0}, {"is_disabled": 0, "fusion_lon": 0.0, "fusion_lat": 0.0, "lat": 38.933709666666665, "type": "electric_scooter", "lon": -77.0724945, "bike_id": "8b4a74aed5f16fcd4fa7d8701645a9af", "rental_uris": {"android": "https://dc.lft.to/lastmile_qr_scan", "ios": "https://dc.lft.to/lastmile_qr_scan"}, "name": "8b4a74aed5f16fcd4fa7d8701645a9af", "is_reserved": 0}, {"is_disabled": 0, "fusion_lon": 0.0, "fusion_lat": 0.0, "lat": 38.89748516666667, "type": "electric_scooter", "lon": -77.030395, "bike_id": "d6bb1de0d143b1c29b7243e0228420ad", "rental_uris": {"android": "https://dc.lft.to/lastmile_qr_scan", "ios": "https://dc.lft.to/lastmile_qr_scan"}, "name": "d6bb1de0d143b1c29b7243e0228420ad", "is_reserved": 0}, {"is_disabled": 0, "fusion_lon": 0.0, "fusion_lat": 0.0, "lat": 38.908485, "type": "electric_scooter", "lon": -77.0451355, "bike_id": "d4ab4c92996188fa024c9d945fe8fb67", "rental_uris": {"android": "https://dc.lft.to/lastmile_qr_scan", "ios": "https://dc.lft.to/lastmile_qr_scan"}, "name": "d4ab4c92996188fa024c9d945fe8fb67", "is_reserved": 0}, {"is_disabled": 0, "fusion_lon": 0.0, "fusion_lat": 0.0, "lat": 38.91185, "type": "electric_scooter", "lon": -77.0026225, "bike_id": "0bb200cb8741927d490b92ccf95d3af4", "rental_uris": {"android": "https://dc.lft.to/lastmile_qr_scan", "ios": "https://dc.lft.to/lastmile_qr_scan"}, "name": "0bb200cb8741927d490b92ccf95d3af4", "is_reserved": 0}, {"is_disabled": 0, "fusion_lon": 0.0, "fusion_lat": 0.0, "lat": 38.9046295, "type": "electric_scooter", "lon": -77.03560266666666, "bike_id": "9a9254574a896b13dc2adee383b90ad9", "rental_uris": {"android": "https://dc.lft.to/lastmile_qr_scan", "ios": "https://dc.lft.to/lastmile_qr_scan"}, "name": "9a9254574a896b13dc2adee383b90ad9", "is_reserved": 0}, {"is_disabled": 0, "fusion_lon": 0.0, "fusion_lat": 0.0, "lat": 38.908226166666665, "type": "electric_scooter", "lon": -77.03203466666666, "bike_id": "57b6d53e7707987227d9c9ff79e083ca", "rental_uris": {"android": "https://dc.lft.to/lastmile_qr_scan", "ios": "https://dc.lft.to/lastmile_qr_scan"}, "name": "57b6d53e7707987227d9c9ff79e083ca", "is_reserved": 0}, {"is_disabled": 0, "fusion_lon": 0.0, "fusion_lat": 0.0, "lat": 38.881358, "type": "electric_scooter", "lon": -77.02712416666667, "bike_id": "a291c847c9f0a590b530dae0b95e5a05", "rental_uris": {"android": "https://dc.lft.to/lastmile_qr_scan", "ios": "https://dc.lft.to/lastmile_qr_scan"}, "name": "a291c847c9f0a590b530dae0b95e5a05", "is_reserved": 0}, {"is_disabled": 0, "fusion_lon": 0.0, "fusion_lat": 0.0, "lat": 38.90223066666667, "type": "electric_scooter", "lon": -77.0223575, "bike_id": "48dedd1a2d7c7dd60290d54d03f85051", "rental_uris": {"android": "https://dc.lft.to/lastmile_qr_scan", "ios": "https://dc.lft.to/lastmile_qr_scan"}, "name": "48dedd1a2d7c7dd60290d54d03f85051", "is_reserved": 0}, {"is_disabled": 0, "fusion_lon": 0.0, "fusion_lat": 0.0, "lat": 38.88041283333333, "type": "electric_scooter", "lon": -77.005246, "bike_id": "1bf0049182709c26b31991383eb9f0e1", "rental_uris": {"android": "https://dc.lft.to/lastmile_qr_scan", "ios": "https://dc.lft.to/lastmile_qr_scan"}, "name": "1bf0049182709c26b31991383eb9f0e1", "is_reserved": 0}, {"is_disabled": 0, "fusion_lon": 0.0, "fusion_lat": 0.0, "lat": 38.883644, "type": "electric_scooter", "lon": -77.02443916666667, "bike_id": "bc01654a19be1ecf9f682ad269ff5b6b", "rental_uris": {"android": "https://dc.lft.to/lastmile_qr_scan", "ios": "https://dc.lft.to/lastmile_qr_scan"}, "name": "bc01654a19be1ecf9f682ad269ff5b6b", "is_reserved": 0}, {"is_disabled": 0, "fusion_lon": 0.0, "fusion_lat": 0.0, "lat": 38.936338666666664, "type": "electric_bike", "lon": -76.954565, "bike_id": "55739e7606f84e9875e792913dc1b00d", "rental_uris": {"android": "https://dc.lft.to/lastmile_qr_scan", "ios": "https://dc.lft.to/lastmile_qr_scan"}, "name": "55739e7606f84e9875e792913dc1b00d", "is_reserved": 0}, {"is_disabled": 0, "fusion_lon": 0.0, "fusion_lat": 0.0, "lat": 38.9112425, "type": "electric_scooter", "lon": -77.021919, "bike_id": "b1d04c4e720f1821ff34b75d422ba12e", "rental_uris": {"android": "https://dc.lft.to/lastmile_qr_scan", "ios": "https://dc.lft.to/lastmile_qr_scan"}, "name": "b1d04c4e720f1821ff34b75d422ba12e", "is_reserved": 0}, {"is_disabled": 0, "fusion_lon": 0.0, "fusion_lat": 0.0, "lat": 38.91047983333333, "type": "electric_scooter", "lon": -77.05445116666667, "bike_id": "edb86991d308fef56ba1b13eaa19acd6", "rental_uris": {"android": "https://dc.lft.to/lastmile_qr_scan", "ios": "https://dc.lft.to/lastmile_qr_scan"}, "name": "edb86991d308fef56ba1b13eaa19acd6", "is_reserved": 0}, {"is_disabled": 0, "fusion_lon": 0.0, "fusion_lat": 0.0, "lat": 38.832871, "type": "electric_scooter", "lon": -77.00825566666667, "bike_id": "f0b9cdf08e3bb9f2fc52e0bd1c4960c5", "rental_uris": {"android": "https://dc.lft.to/lastmile_qr_scan", "ios": "https://dc.lft.to/lastmile_qr_scan"}, "name": "f0b9cdf08e3bb9f2fc52e0bd1c4960c5", "is_reserved": 0}, {"is_disabled": 0, "fusion_lon": 0.0, "fusion_lat": 0.0, "lat": 38.899007, "type": "electric_scooter", "lon": -76.9319445, "bike_id": "4bb1969fa8abe80c2faf82cc638818fb", "rental_uris": {"android": "https://dc.lft.to/lastmile_qr_scan", "ios": "https://dc.lft.to/lastmile_qr_scan"}, "name": "4bb1969fa8abe80c2faf82cc638818fb", "is_reserved": 0}, {"is_disabled": 0, "fusion_lon": 0.0, "fusion_lat": 0.0, "lat": 38.945742333333335, "type": "electric_bike", "lon": -76.9877495, "bike_id": "6b2f913914e551074fdafabea38afbc4", "rental_uris": {"android": "https://dc.lft.to/lastmile_qr_scan", "ios": "https://dc.lft.to/lastmile_qr_scan"}, "name": "6b2f913914e551074fdafabea38afbc4", "is_reserved": 0}, {"is_disabled": 0, "fusion_lon": 0.0, "fusion_lat": 0.0, "lat": 38.96278266666667, "type": "electric_bike", "lon": -77.02871483333334, "bike_id": "06a31c1f76e3d00fc6b07e8b8b8decd6", "rental_uris": {"android": "https://dc.lft.to/lastmile_qr_scan", "ios": "https://dc.lft.to/lastmile_qr_scan"}, "name": "06a31c1f76e3d00fc6b07e8b8b8decd6", "is_reserved": 0}, {"is_disabled": 0, "fusion_lon": 0.0, "fusion_lat": 0.0, "lat": 38.93449733333333, "type": "electric_scooter", "lon": -77.03016116666667, "bike_id": "4c2a7747278bbea8c3721bae5b30eedc", "rental_uris": {"android": "https://dc.lft.to/lastmile_qr_scan", "ios": "https://dc.lft.to/lastmile_qr_scan"}, "name": "4c2a7747278bbea8c3721bae5b30eedc", "is_reserved": 0}, {"is_disabled": 0, "fusion_lon": 0.0, "fusion_lat": 0.0, "lat": 38.901243, "type": "electric_scooter", "lon": -77.03306916666666, "bike_id": "659ca8c304f24b06723cc788202176ea", "rental_uris": {"android": "https://dc.lft.to/lastmile_qr_scan", "ios": "https://dc.lft.to/lastmile_qr_scan"}, "name": "659ca8c304f24b06723cc788202176ea", "is_reserved": 0}, {"is_disabled": 0, "fusion_lon": 0.0, "fusion_lat": 0.0, "lat": 38.91896466666667, "type": "electric_scooter", "lon": -77.03217066666667, "bike_id": "9f0e5d07a10e724911a6a82e2d179195", "rental_uris": {"android": "https://dc.lft.to/lastmile_qr_scan", "ios": "https://dc.lft.to/lastmile_qr_scan"}, "name": "9f0e5d07a10e724911a6a82e2d179195", "is_reserved": 0}, {"is_disabled": 0, "fusion_lon": 0.0, "fusion_lat": 0.0, "lat": 38.925733666666666, "type": "electric_scooter", "lon": -77.03223883333334, "bike_id": "360798dbf177ec4956221710235913ba", "rental_uris": {"android": "https://dc.lft.to/lastmile_qr_scan", "ios": "https://dc.lft.to/lastmile_qr_scan"}, "name": "360798dbf177ec4956221710235913ba", "is_reserved": 0}, {"is_disabled": 0, "fusion_lon": 0.0, "fusion_lat": 0.0, "lat": 38.93114933333333, "type": "electric_scooter", "lon": -77.02040766666667, "bike_id": "0fb74f8524e6b2a92637c7e3555b030e", "rental_uris": {"android": "https://dc.lft.to/lastmile_qr_scan", "ios": "https://dc.lft.to/lastmile_qr_scan"}, "name": "0fb74f8524e6b2a92637c7e3555b030e", "is_reserved": 0}, {"is_disabled": 0, "fusion_lon": 0.0, "fusion_lat": 0.0, "lat": 38.904234833333334, "type": "electric_scooter", "lon": -76.98555466666667, "bike_id": "db1bbec16dcc0dd1394ef433c5543e4c", "rental_uris": {"android": "https://dc.lft.to/lastmile_qr_scan", "ios": "https://dc.lft.to/lastmile_qr_scan"}, "name": "db1bbec16dcc0dd1394ef433c5543e4c", "is_reserved": 0}, {"is_disabled": 0, "fusion_lon": 0.0, "fusion_lat": 0.0, "lat": 39.060648, "type": "electric_bike", "lon": -77.06465383333334, "bike_id": "0d7a24cd4ac1c3c7979ac87840a07923", "rental_uris": {"android": "https://dc.lft.to/lastmile_qr_scan", "ios": "https://dc.lft.to/lastmile_qr_scan"}, "name": "0d7a24cd4ac1c3c7979ac87840a07923", "is_reserved": 0}, {"is_disabled": 0, "fusion_lon": 0.0, "fusion_lat": 0.0, "lat": 38.887418, "type": "electric_scooter", "lon": -77.01737516666667, "bike_id": "74880fb6e87f07ceef52b8b1aafbdc0b", "rental_uris": {"android": "https://dc.lft.to/lastmile_qr_scan", "ios": "https://dc.lft.to/lastmile_qr_scan"}, "name": "74880fb6e87f07ceef52b8b1aafbdc0b", "is_reserved": 0}, {"is_disabled": 0, "fusion_lon": 0.0, "fusion_lat": 0.0, "lat": 38.91853866666666, "type": "electric_bike", "lon": -76.9608885, "bike_id": "0f8cb485878a029b5ee86c6ee5fa5d94", "rental_uris": {"android": "https://dc.lft.to/lastmile_qr_scan", "ios": "https://dc.lft.to/lastmile_qr_scan"}, "name": "0f8cb485878a029b5ee86c6ee5fa5d94", "is_reserved": 0}, {"is_disabled": 0, "fusion_lon": 0.0, "fusion_lat": 0.0, "lat": 38.949830166666665, "type": "electric_scooter", "lon": -77.027029, "bike_id": "e31bd7dcf49ac26412b7239045e4bc64", "rental_uris": {"android": "https://dc.lft.to/lastmile_qr_scan", "ios": "https://dc.lft.to/lastmile_qr_scan"}, "name": "e31bd7dcf49ac26412b7239045e4bc64", "is_reserved": 0}, {"is_disabled": 0, "fusion_lon": 0.0, "fusion_lat": 0.0, "lat": 38.895238666666664, "type": "electric_scooter", "lon": -77.033459, "bike_id": "48248ce3d0916f56bb6b53f496071008", "rental_uris": {"android": "https://dc.lft.to/lastmile_qr_scan", "ios": "https://dc.lft.to/lastmile_qr_scan"}, "name": "48248ce3d0916f56bb6b53f496071008", "is_reserved": 0}, {"is_disabled": 0, "fusion_lon": 0.0, "fusion_lat": 0.0, "lat": 38.962204166666666, "type": "electric_scooter", "lon": -77.02809566666667, "bike_id": "279899df146d291543f30c137d878fc9", "rental_uris": {"android": "https://dc.lft.to/lastmile_qr_scan", "ios": "https://dc.lft.to/lastmile_qr_scan"}, "name": "279899df146d291543f30c137d878fc9", "is_reserved": 0}, {"is_disabled": 0, "fusion_lon": 0.0, "fusion_lat": 0.0, "lat": 38.85805766666667, "type": "electric_scooter", "lon": -76.9896165, "bike_id": "9cb3d481cee5e53f110c2e4c4007f24d", "rental_uris": {"android": "https://dc.lft.to/lastmile_qr_scan", "ios": "https://dc.lft.to/lastmile_qr_scan"}, "name": "9cb3d481cee5e53f110c2e4c4007f24d", "is_reserved": 0}, {"is_disabled": 0, "fusion_lon": 0.0, "fusion_lat": 0.0, "lat": 38.860444333333334, "type": "electric_scooter", "lon": -76.98372883333333, "bike_id": "c0053d7c9ad7ba8293cad0f489cd3db7", "rental_uris": {"android": "https://dc.lft.to/lastmile_qr_scan", "ios": "https://dc.lft.to/lastmile_qr_scan"}, "name": "c0053d7c9ad7ba8293cad0f489cd3db7", "is_reserved": 0}, {"is_disabled": 0, "fusion_lon": 0.0, "fusion_lat": 0.0, "lat": 38.9613745, "type": "electric_scooter", "lon": -77.02808866666666, "bike_id": "24bc8000ac70d242dbf0020f7dd10d62", "rental_uris": {"android": "https://dc.lft.to/lastmile_qr_scan", "ios": "https://dc.lft.to/lastmile_qr_scan"}, "name": "24bc8000ac70d242dbf0020f7dd10d62", "is_reserved": 0}, {"is_disabled": 0, "fusion_lon": 0.0, "fusion_lat": 0.0, "lat": 38.921007333333336, "type": "electric_scooter", "lon": -77.017801, "bike_id": "b4c54f399258bffea49c37ed3cc2709d", "rental_uris": {"android": "https://dc.lft.to/lastmile_qr_scan", "ios": "https://dc.lft.to/lastmile_qr_scan"}, "name": "b4c54f399258bffea49c37ed3cc2709d", "is_reserved": 0}, {"is_disabled": 0, "fusion_lon": 0.0, "fusion_lat": 0.0, "lat": 38.906895166666665, "type": "electric_scooter", "lon": -77.03590216666667, "bike_id": "b91fbaf34daf2f104f7545f8cacdda39", "rental_uris": {"android": "https://dc.lft.to/lastmile_qr_scan", "ios": "https://dc.lft.to/lastmile_qr_scan"}, "name": "b91fbaf34daf2f104f7545f8cacdda39", "is_reserved": 0}, {"is_disabled": 0, "fusion_lon": 0.0, "fusion_lat": 0.0, "lat": 38.86517116666667, "type": "electric_scooter", "lon": -76.97329383333333, "bike_id": "9f0ada5b6782d9fd4e7e2c460f639f83", "rental_uris": {"android": "https://dc.lft.to/lastmile_qr_scan", "ios": "https://dc.lft.to/lastmile_qr_scan"}, "name": "9f0ada5b6782d9fd4e7e2c460f639f83", "is_reserved": 0}, {"is_disabled": 0, "fusion_lon": 0.0, "fusion_lat": 0.0, "lat": 38.894832, "type": "electric_scooter", "lon": -77.02289633333334, "bike_id": "98c006e814a6ca130e79f936659bdcd4", "rental_uris": {"android": "https://dc.lft.to/lastmile_qr_scan", "ios": "https://dc.lft.to/lastmile_qr_scan"}, "name": "98c006e814a6ca130e79f936659bdcd4", "is_reserved": 0}, {"is_disabled": 0, "fusion_lon": 0.0, "fusion_lat": 0.0, "lat": 38.917651166666666, "type": "electric_scooter", "lon": -77.04058933333333, "bike_id": "e834d380c4fe616a0173f843e66bfeeb", "rental_uris": {"android": "https://dc.lft.to/lastmile_qr_scan", "ios": "https://dc.lft.to/lastmile_qr_scan"}, "name": "e834d380c4fe616a0173f843e66bfeeb", "is_reserved": 0}, {"is_disabled": 0, "fusion_lon": 0.0, "fusion_lat": 0.0, "lat": 38.916850333333336, "type": "electric_scooter", "lon": -77.02711366666666, "bike_id": "235e7cab218e8fd56b013567c545e804", "rental_uris": {"android": "https://dc.lft.to/lastmile_qr_scan", "ios": "https://dc.lft.to/lastmile_qr_scan"}, "name": "235e7cab218e8fd56b013567c545e804", "is_reserved": 0}, {"is_disabled": 0, "fusion_lon": 0.0, "fusion_lat": 0.0, "lat": 38.90989783333333, "type": "electric_scooter", "lon": -77.0372785, "bike_id": "adac9a6e8c014586ff5a68a2135325ee", "rental_uris": {"android": "https://dc.lft.to/lastmile_qr_scan", "ios": "https://dc.lft.to/lastmile_qr_scan"}, "name": "adac9a6e8c014586ff5a68a2135325ee", "is_reserved": 0}, {"is_disabled": 0, "fusion_lon": 0.0, "fusion_lat": 0.0, "lat": 38.903778333333335, "type": "electric_scooter", "lon": -77.043522, "bike_id": "6de00b495cdcd9426747635f9fa34860", "rental_uris": {"android": "https://dc.lft.to/lastmile_qr_scan", "ios": "https://dc.lft.to/lastmile_qr_scan"}, "name": "6de00b495cdcd9426747635f9fa34860", "is_reserved": 0}, {"is_disabled": 0, "fusion_lon": 0.0, "fusion_lat": 0.0, "lat": 38.89291133333333, "type": "electric_scooter", "lon": -76.93724683333333, "bike_id": "958519f3e6240142f3fae6afe51ca35e", "rental_uris": {"android": "https://dc.lft.to/lastmile_qr_scan", "ios": "https://dc.lft.to/lastmile_qr_scan"}, "name": "958519f3e6240142f3fae6afe51ca35e", "is_reserved": 0}, {"is_disabled": 0, "fusion_lon": 0.0, "fusion_lat": 0.0, "lat": 38.872823333333336, "type": "electric_scooter", "lon": -77.00987466666666, "bike_id": "7d8667f8d455e51b6e4b4c26414c7734", "rental_uris": {"android": "https://dc.lft.to/lastmile_qr_scan", "ios": "https://dc.lft.to/lastmile_qr_scan"}, "name": "7d8667f8d455e51b6e4b4c26414c7734", "is_reserved": 0}, {"is_disabled": 0, "fusion_lon": 0.0, "fusion_lat": 0.0, "lat": 38.903666666666666, "type": "electric_scooter", "lon": -77.0413255, "bike_id": "e8bc5f376904391b33ccd6a1b62102c7", "rental_uris": {"android": "https://dc.lft.to/lastmile_qr_scan", "ios": "https://dc.lft.to/lastmile_qr_scan"}, "name": "e8bc5f376904391b33ccd6a1b62102c7", "is_reserved": 0}, {"is_disabled": 0, "fusion_lon": 0.0, "fusion_lat": 0.0, "lat": 38.88673716666667, "type": "electric_scooter", "lon": -77.019785, "bike_id": "a0534605932e074997806ac57a7cd29a", "rental_uris": {"android": "https://dc.lft.to/lastmile_qr_scan", "ios": "https://dc.lft.to/lastmile_qr_scan"}, "name": "a0534605932e074997806ac57a7cd29a", "is_reserved": 0}, {"is_disabled": 0, "fusion_lon": 0.0, "fusion_lat": 0.0, "lat": 38.943183833333336, "type": "electric_scooter", "lon": -77.085863, "bike_id": "86561dee31a331fa1eb2799f99f0eb4c", "rental_uris": {"android": "https://dc.lft.to/lastmile_qr_scan", "ios": "https://dc.lft.to/lastmile_qr_scan"}, "name": "86561dee31a331fa1eb2799f99f0eb4c", "is_reserved": 0}, {"is_disabled": 0, "fusion_lon": 0.0, "fusion_lat": 0.0, "lat": 38.89238116666667, "type": "electric_bike", "lon": -76.95220966666666, "bike_id": "bdb0ad8eb8f3f32f39978bfc080ce5e9", "rental_uris": {"android": "https://dc.lft.to/lastmile_qr_scan", "ios": "https://dc.lft.to/lastmile_qr_scan"}, "name": "bdb0ad8eb8f3f32f39978bfc080ce5e9", "is_reserved": 0}, {"is_disabled": 0, "fusion_lon": 0.0, "fusion_lat": 0.0, "lat": 38.887482166666665, "type": "electric_scooter", "lon": -77.01540883333334, "bike_id": "bea1177c69f9c0d9f2863e166fdf0e86", "rental_uris": {"android": "https://dc.lft.to/lastmile_qr_scan", "ios": "https://dc.lft.to/lastmile_qr_scan"}, "name": "bea1177c69f9c0d9f2863e166fdf0e86", "is_reserved": 0}, {"is_disabled": 0, "fusion_lon": 0.0, "fusion_lat": 0.0, "lat": 38.938593, "type": "electric_scooter", "lon": -77.02650383333334, "bike_id": "59b9ca1289bb11c59a5cbf7ba1c24c1a", "rental_uris": {"android": "https://dc.lft.to/lastmile_qr_scan", "ios": "https://dc.lft.to/lastmile_qr_scan"}, "name": "59b9ca1289bb11c59a5cbf7ba1c24c1a", "is_reserved": 0}, {"is_disabled": 0, "fusion_lon": 0.0, "fusion_lat": 0.0, "lat": 38.92586, "type": "electric_bike", "lon": -76.8890125, "bike_id": "2cc1e14454583486d4c03ebb2a3d49cd", "rental_uris": {"android": "https://dc.lft.to/lastmile_qr_scan", "ios": "https://dc.lft.to/lastmile_qr_scan"}, "name": "2cc1e14454583486d4c03ebb2a3d49cd", "is_reserved": 0}, {"is_disabled": 0, "fusion_lon": 0.0, "fusion_lat": 0.0, "lat": 38.8728025, "type": "electric_scooter", "lon": -76.97727616666667, "bike_id": "9afae933910153ae37eee4cf9d0655c5", "rental_uris": {"android": "https://dc.lft.to/lastmile_qr_scan", "ios": "https://dc.lft.to/lastmile_qr_scan"}, "name": "9afae933910153ae37eee4cf9d0655c5", "is_reserved": 0}, {"is_disabled": 0, "fusion_lon": 0.0, "fusion_lat": 0.0, "lat": 38.908527, "type": "electric_scooter", "lon": -77.07156966666666, "bike_id": "b94ee4d2f50f89612ff4b0fcc2e0c285", "rental_uris": {"android": "https://dc.lft.to/lastmile_qr_scan", "ios": "https://dc.lft.to/lastmile_qr_scan"}, "name": "b94ee4d2f50f89612ff4b0fcc2e0c285", "is_reserved": 0}, {"is_disabled": 0, "fusion_lon": 0.0, "fusion_lat": 0.0, "lat": 38.91411133333333, "type": "electric_scooter", "lon": -77.03099583333334, "bike_id": "6f9eb3e1a8ee0586b3dc54367186c91e", "rental_uris": {"android": "https://dc.lft.to/lastmile_qr_scan", "ios": "https://dc.lft.to/lastmile_qr_scan"}, "name": "6f9eb3e1a8ee0586b3dc54367186c91e", "is_reserved": 0}, {"is_disabled": 0, "fusion_lon": 0.0, "fusion_lat": 0.0, "lat": 38.894754166666665, "type": "electric_scooter", "lon": -77.02124333333333, "bike_id": "dd1c04cca30d4b0051461b03c746035c", "rental_uris": {"android": "https://dc.lft.to/lastmile_qr_scan", "ios": "https://dc.lft.to/lastmile_qr_scan"}, "name": "dd1c04cca30d4b0051461b03c746035c", "is_reserved": 0}, {"is_disabled": 0, "fusion_lon": 0.0, "fusion_lat": 0.0, "lat": 38.920409166666666, "type": "electric_scooter", "lon": -77.04256266666667, "bike_id": "4266ce99525915d2dbad4174f5804824", "rental_uris": {"android": "https://dc.lft.to/lastmile_qr_scan", "ios": "https://dc.lft.to/lastmile_qr_scan"}, "name": "4266ce99525915d2dbad4174f5804824", "is_reserved": 0}, {"is_disabled": 0, "fusion_lon": 0.0, "fusion_lat": 0.0, "lat": 38.89699733333333, "type": "electric_scooter", "lon": -77.0503465, "bike_id": "7eabd06f5139d6432154ea028e3d1d35", "rental_uris": {"android": "https://dc.lft.to/lastmile_qr_scan", "ios": "https://dc.lft.to/lastmile_qr_scan"}, "name": "7eabd06f5139d6432154ea028e3d1d35", "is_reserved": 0}, {"is_disabled": 0, "fusion_lon": 0.0, "fusion_lat": 0.0, "lat": 38.944939833333336, "type": "electric_bike", "lon": -76.9866315, "bike_id": "416613ce3b852682cd7dff0a4535f192", "rental_uris": {"android": "https://dc.lft.to/lastmile_qr_scan", "ios": "https://dc.lft.to/lastmile_qr_scan"}, "name": "416613ce3b852682cd7dff0a4535f192", "is_reserved": 0}, {"is_disabled": 0, "fusion_lon": 0.0, "fusion_lat": 0.0, "lat": 38.916284166666664, "type": "electric_scooter", "lon": -77.02378816666666, "bike_id": "ae6515d609aa124418712ad7ea4c3801", "rental_uris": {"android": "https://dc.lft.to/lastmile_qr_scan", "ios": "https://dc.lft.to/lastmile_qr_scan"}, "name": "ae6515d609aa124418712ad7ea4c3801", "is_reserved": 0}, {"is_disabled": 0, "fusion_lon": 0.0, "fusion_lat": 0.0, "lat": 38.931403, "type": "electric_scooter", "lon": -77.032428, "bike_id": "467b6876376d1194ec3b41846f2df6f8", "rental_uris": {"android": "https://dc.lft.to/lastmile_qr_scan", "ios": "https://dc.lft.to/lastmile_qr_scan"}, "name": "467b6876376d1194ec3b41846f2df6f8", "is_reserved": 0}, {"is_disabled": 0, "fusion_lon": 0.0, "fusion_lat": 0.0, "lat": 38.918709666666665, "type": "electric_scooter", "lon": -77.02442133333334, "bike_id": "3dbf53e1113d2654a0c7019c487f0c15", "rental_uris": {"android": "https://dc.lft.to/lastmile_qr_scan", "ios": "https://dc.lft.to/lastmile_qr_scan"}, "name": "3dbf53e1113d2654a0c7019c487f0c15", "is_reserved": 0},