{"data": {"bikes": [{"is_disabled": 0, "rental_uris": {"android": "https://dc.lft.to/lastmile_qr_scan", "ios": "https://dc.lft.to/lastmile_qr_scan"}, "is_reserved": 0, "name": "27d69aed7b8212bc76b0341b6e660b35", "lon": -77.03273216666666, "type": "electric_scooter", "bike_id": "27d69aed7b8212bc76b0341b6e660b35", "fusion_lon": 0.0, "lat": 38.9156165, "fusion_lat": 0.0}, {"is_disabled": 0, "rental_uris": {"android": "https://dc.lft.to/lastmile_qr_scan", "ios": "https://dc.lft.to/lastmile_qr_scan"}, "is_reserved": 0, "name": "c5fd85f1c757905e4d0329ee9d9f2ea9", "lon": -77.01612316666667, "type": "electric_scooter", "bike_id": "c5fd85f1c757905e4d0329ee9d9f2ea9", "fusion_lon": 0.0, "lat": 38.8787395, "fusion_lat": 0.0}, {"is_disabled": 0, "rental_uris": {"android": "https://dc.lft.to/lastmile_qr_scan", "ios": "https://dc.lft.to/lastmile_qr_scan"}, "is_reserved": 0, "name": "8ee36592161954ca98c94ddaccaedabf", "lon": -77.05046216666666, "type": "electric_scooter", "bike_id": "8ee36592161954ca98c94ddaccaedabf", "fusion_lon": 0.0, "lat": 38.923641833333335, "fusion_lat": 0.0}, {"is_disabled": 0, "rental_uris": {"android": "https://dc.lft.to/lastmile_qr_scan", "ios": "https://dc.lft.to/lastmile_qr_scan"}, "is_reserved": 0, "name": "55a8e3b43e77282f0d68e770629b0485", "lon": -76.96526966666667, "type": "electric_scooter", "bike_id": "55a8e3b43e77282f0d68e770629b0485", "fusion_lon": 0.0, "lat": 38.87631716666667, "fusion_lat": 0.0}, {"is_disabled": 0, "rental_uris": {"android": "https://dc.lft.to/lastmile_qr_scan", "ios": "https://dc.lft.to/lastmile_qr_scan"}, "is_reserved": 0, "name": "9fda7da03326e3319dfb5c1da2d8f95d", "lon": -77.03752333333334, "type": "electric_scooter", "bike_id": "9fda7da03326e3319dfb5c1da2d8f95d", "fusion_lon": 0.0, "lat": 38.92900183333333, "fusion_lat": 0.0}, {"is_disabled": 0, "rental_uris": {"android": "https://dc.lft.to/lastmile_qr_scan", "ios": "https://dc.lft.to/lastmile_qr_scan"}, "is_reserved": 0, "name": "b425ed20435858ef5a5240fb10dce4c5", "lon": -77.02671983333333, "type": "electric_scooter", "bike_id": "b425ed20435858ef5a5240fb10dce4c5", "fusion_lon": 0.0, "lat": 38.9127105, "fusion_lat": 0.0}, {"is_disabled": 0, "rental_uris": {"android": "https://dc.lft.to/lastmile_qr_scan", "ios": "https://dc.lft.to/lastmile_qr_scan"}, "is_reserved": 0, "name": "f4024835fea0106274a4c673be04e169", "lon": -77.04235733333333, "type": "electric_scooter", "bike_id": "f4024835fea0106274a4c673be04e169", "fusion_lon": 0.0, "lat": 38.922251833333334, "fusion_lat": 0.0}, {"is_disabled": 0, "rental_uris": {"android": "https://dc.lft.to/lastmile_qr_scan", "ios": "https://dc.lft.to/lastmile_qr_scan"}, "is_reserved": 0, "name": "a3d8d5e205a5442adf97e253ef0f515e", "lon": -77.02209883333333, "type": "electric_scooter", "bike_id": "a3d8d5e205a5442adf97e253ef0f515e", "fusion_lon": 0.0, "lat": 38.899461333333335, "fusion_lat": 0.0}, {"is_disabled": 0, "rental_uris": {"android": "https://dc.lft.to/lastmile_qr_scan", "ios": "https://dc.lft.to/lastmile_qr_scan"}, "is_reserved": 0, "name": "d47bd227844abe34cf1350c5701e239e", "lon": -77.03033233333333, "type": "electric_scooter", "bike_id": "d47bd227844abe34cf1350c5701e239e", "fusion_lon": 0.0, "lat": 38.931211833333336, "fusion_lat": 0.0}, {"is_disabled": 0, "rental_uris": {"android": "https://dc.lft.to/lastmile_qr_scan", "ios": "https://dc.lft.to/lastmile_qr_scan"}, "is_reserved": 0, "name": "2c5ffd2f4655d3fed9e6395b65e57396", "lon": -77.0487495, "type": "electric_scooter", "bike_id": "2c5ffd2f4655d3fed9e6395b65e57396", "fusion_lon": 0.0, "lat": 38.90953416666667, "fusion_lat": 0.0}, {"is_disabled": 0, "rental_uris": {"android": "https://dc.lft.to/lastmile_qr_scan", "ios": "https://dc.lft.to/lastmile_qr_scan"}, "is_reserved": 0, "name": "a541760172ade2994d7e374dddea6b1e", "lon": -77.03138816666667, "type": "electric_scooter", "bike_id": "a541760172ade2994d7e374dddea6b1e", "fusion_lon": 0.0, "lat": 38.92023, "fusion_lat": 0.0}, {"is_disabled": 0, "rental_uris": {"android": "https://dc.lft.to/lastmile_qr_scan", "ios": "https://dc.lft.to/lastmile_qr_scan"}, "is_reserved": 0, "name": "77d011df03c00156be8096cd16132fca", "lon": -77.0386805, "type": "electric_scooter", "bike_id": "77d011df03c00156be8096cd16132fca", "fusion_lon": 0.0, "lat": 38.908091666666664, "fusion_lat": 0.0}, {"is_disabled": 0, "rental_uris": {"android": "https://dc.lft.to/lastmile_qr_scan", "ios": "https://dc.lft.to/lastmile_qr_scan"}, "is_reserved": 0, "name": "ec01c142888bb0d443bf3604f2c58e19", "lon": -77.04485583333333, "type": "electric_scooter", "bike_id": "ec01c142888bb0d443bf3604f2c58e19", "fusion_lon": 0.0, "lat": 38.911544166666665, "fusion_lat": 0.0}, {"is_disabled": 0, "rental_uris": {"android": "https://dc.lft.to/lastmile_qr_scan", "ios": "https://dc.lft.to/lastmile_qr_scan"}, "is_reserved": 0, "name": "e5a44c927d7ca99e54c41362622ed624", "lon": -77.02817083333333, "type": "electric_scooter", "bike_id": "e5a44c927d7ca99e54c41362622ed624", "fusion_lon": 0.0, "lat": 38.931701833333335, "fusion_lat": 0.0}, {"is_disabled": 0, "rental_uris": {"android": "https://dc.lft.to/lastmile_qr_scan", "ios": "https://dc.lft.to/lastmile_qr_scan"}, "is_reserved": 0, "name": "b9fdd1dcbdd0b2a632ca4e660c9271b5", "lon": -77.04345716666667, "type": "electric_scooter", "bike_id": "b9fdd1dcbdd0b2a632ca4e660c9271b5", "fusion_lon": 0.0, "lat": 38.898323, "fusion_lat": 0.0}, {"is_disabled": 0, "rental_uris": {"android": "https://dc.lft.to/lastmile_qr_scan", "ios": "https://dc.lft.to/lastmile_qr_scan"}, "is_reserved": 0, "name": "183caef13030f6ac521d9bc846f3858c", "lon": -76.98729616666667, "type": "electric_scooter", "bike_id": "183caef13030f6ac521d9bc846f3858c", "fusion_lon": 0.0, "lat": 38.867213166666666, "fusion_lat": 0.0}, {"is_disabled": 0, "rental_uris": {"android": "https://dc.lft.to/lastmile_qr_scan", "ios": "https://dc.lft.to/lastmile_qr_scan"}, "is_reserved": 0, "name": "424c1dc01661a229577f628ef3011089", "lon": -77.0010635, "type": "electric_scooter", "bike_id": "424c1dc01661a229577f628ef3011089", "fusion_lon": 0.0, "lat": 38.91245516666667, "fusion_lat": 0.0}, {"is_disabled": 0, "rental_uris": {"android": "https://dc.lft.to/lastmile_qr_scan", "ios": "https://dc.lft.to/lastmile_qr_scan"}, "is_reserved": 0, "name": "5c4d1675434866a8c7b2f9aaf97d3380", "lon": -77.0239415, "type": "electric_scooter", "bike_id": "5c4d1675434866a8c7b2f9aaf97d3380", "fusion_lon": 0.0, "lat": 38.916714, "fusion_lat": 0.0}, {"is_disabled": 0, "rental_uris": {"android": "https://dc.lft.to/lastmile_qr_scan", "ios": "https://dc.lft.to/lastmile_qr_scan"}, "is_reserved": 0, "name": "f3091fadee4611794083faaf5d9099bf", "lon": -77.06643883333334, "type": "electric_scooter", "bike_id": "f3091fadee4611794083faaf5d9099bf", "fusion_lon": 0.0, "lat": 38.92691383333333, "fusion_lat": 0.0}, {"is_disabled": 0, "rental_uris": {"android": "https://dc.lft.to/lastmile_qr_scan", "ios": "https://dc.lft.to/lastmile_qr_scan"}, "is_reserved": 0, "name": "9d283c8bf912f93845224ecf165c43c1", "lon": -77.04749733333334, "type": "electric_scooter", "bike_id": "9d283c8bf912f93845224ecf165c43c1", "fusion_lon": 0.0, "lat": 38.9072665, "fusion_lat": 0.0}, {"is_disabled": 0, "rental_uris": {"android": "https://dc.lft.to/lastmile_qr_scan", "ios": "https://dc.lft.to/lastmile_qr_scan"}, "is_reserved": 0, "name": "6a669d911b9d798d2d912f1d256df40e", "lon": -77.00777083333334, "type": "electric_scooter", "bike_id": "6a669d911b9d798d2d912f1d256df40e", "fusion_lon": 0.0, "lat": 38.907659333333335, "fusion_lat": 0.0}, {"is_disabled": 0, "rental_uris": {"android": "https://dc.lft.to/lastmile_qr_scan", "ios": "https://dc.lft.to/lastmile_qr_scan"}, "is_reserved": 0, "name": "f35abd667645147417239c6db53a2685", "lon": -76.95207533333334, "type": "electric_bike", "bike_id": "f35abd667645147417239c6db53a2685", "fusion_lon": 0.0, "lat": 38.936679, "fusion_lat": 0.0}, {"is_disabled": 0, "rental_uris": {"android": "https://dc.lft.to/lastmile_qr_scan", "ios": "https://dc.lft.to/lastmile_qr_scan"}, "is_reserved": 0, "name": "9ed0dc477e470363ca28b32d9510f81e", "lon": -77.01998383333333, "type": "electric_scooter", "bike_id": "9ed0dc477e470363ca28b32d9510f81e", "fusion_lon": 0.0, "lat": 38.878037, "fusion_lat": 0.0}, {"is_disabled": 0, "rental_uris": {"android": "https://dc.lft.to/lastmile_qr_scan", "ios": "https://dc.lft.to/lastmile_qr_scan"}, "is_reserved": 0, "name": "2388985e03d8fdb71f3fabc71386c0d6", "lon": -77.03192316666667, "type": "electric_scooter", "bike_id": "2388985e03d8fdb71f3fabc71386c0d6", "fusion_lon": 0.0, "lat": 38.9180755, "fusion_lat": 0.0}, {"is_disabled": 0, "rental_uris": {"android": "https://dc.lft.to/lastmile_qr_scan", "ios": "https://dc.lft.to/lastmile_qr_scan"}, "is_reserved": 0, "name": "13b1a1c30433dd2ed004cebf661cfa70", "lon": -77.038441, "type": "electric_scooter", "bike_id": "13b1a1c30433dd2ed004cebf661cfa70", "fusion_lon": 0.0, "lat": 38.926519666666664, "fusion_lat": 0.0}, {"is_disabled": 0, "rental_uris": {"android": "https://dc.lft.to/lastmile_qr_scan", "ios": "https://dc.lft.to/lastmile_qr_scan"}, "is_reserved": 0, "name": "304dd20ae190cf517f42a95363b41c2b", "lon": -77.01024166666667, "type": "electric_scooter", "bike_id": "304dd20ae190cf517f42a95363b41c2b", "fusion_lon": 0.0, "lat": 38.90630766666666, "fusion_lat": 0.0}, {"is_disabled": 0, "rental_uris": {"android": "https://dc.lft.to/lastmile_qr_scan", "ios": "https://dc.lft.to/lastmile_qr_scan"}, "is_reserved": 0, "name": "cbe68117b5caf9c949b99352aa5e8eff", "lon": -77.02395616666666, "type": "electric_scooter", "bike_id": "cbe68117b5caf9c949b99352aa5e8eff", "fusion_lon": 0.0, "lat": 38.93108266666667, "fusion_lat": 0.0}, {"is_disabled": 0, "rental_uris": {"android": "https://dc.lft.to/lastmile_qr_scan", "ios": "https://dc.lft.to/lastmile_qr_scan"}, "is_reserved": 0, "name": "831a1d2f3bd573d043b1573d81483d14", "lon": -77.02343933333333, "type": "electric_scooter", "bike_id": "831a1d2f3bd573d043b1573d81483d14", "fusion_lon": 0.0, "lat": 38.922640333333334, "fusion_lat": 0.0}, {"is_disabled": 0, "rental_uris": {"android": "https://dc.lft.to/lastmile_qr_scan", "ios": "https://dc.lft.to/lastmile_qr_scan"}, "is_reserved": 0, "name": "6736a2d923c09138dd282722be48880c", "lon": -76.99958566666666, "type": "electric_scooter", "bike_id": "6736a2d923c09138dd282722be48880c", "fusion_lon": 0.0, "lat": 38.9033905, "fusion_lat": 0.0}, {"is_disabled": 0, "rental_uris": {"android": "https://dc.lft.to/lastmile_qr_scan", "ios": "https://dc.lft.to/lastmile_qr_scan"}, "is_reserved": 0, "name": "c61a8edaa5e41e541276c3a6f285153f", "lon": -77.03184616666667, "type": "electric_scooter", "bike_id": "c61a8edaa5e41e541276c3a6f285153f", "fusion_lon": 0.0, "lat": 38.91906566666667, "fusion_lat": 0.0}, {"is_disabled": 0, "rental_uris": {"android": "https://dc.lft.to/lastmile_qr_scan", "ios": "https://dc.lft.to/lastmile_qr_scan"}, "is_reserved": 0, "name": "80136dd9aeaaf1e50b5d1b34614036c8", "lon": -77.05100183333333, "type": "electric_bike", "bike_id": "80136dd9aeaaf1e50b5d1b34614036c8", "fusion_lon": 0.0, "lat": 38.94564183333333, "fusion_lat": 0.0}, {"is_disabled": 0, "rental_uris": {"android": "https://dc.lft.to/lastmile_qr_scan", "ios": "https://dc.lft.to/lastmile_qr_scan"}, "is_reserved": 0, "name": "2a21dc4454b8638c506c8cb1f297065d", "lon": -77.03889616666666, "type": "electric_scooter", "bike_id": "2a21dc4454b8638c506c8cb1f297065d", "fusion_lon": 0.0, "lat": 38.934209333333335, "fusion_lat": 0.0}, {"is_disabled": 0, "rental_uris": {"android": "https://dc.lft.to/lastmile_qr_scan", "ios": "https://dc.lft.to/lastmile_qr_scan"}, "is_reserved": 0, "name": "8ee247c32316122f840c23aba61e9809", "lon": -77.05838466666667, "type": "electric_scooter", "bike_id": "8ee247c32316122f840c23aba61e9809", "fusion_lon": 0.0, "lat": 38.93424783333333, "fusion_lat": 0.0}, {"is_disabled": 0, "rental_uris": {"android": "https://dc.lft.to/lastmile_qr_scan", "ios": "https://dc.lft.to/lastmile_qr_scan"}, "is_reserved": 0, "name": "b14d0f148fae6e39f4b5d55162d1e3d8", "lon": -77.10722783333334, "type": "electric_bike", "bike_id": "b14d0f148fae6e39f4b5d55162d1e3d8", "fusion_lon": 0.0, "lat": 38.855418666666665, "fusion_lat": 0.0}, {"is_disabled": 0, "rental_uris": {"android": "https://dc.lft.to/lastmile_qr_scan", "ios": "https://dc.lft.to/lastmile_qr_scan"}, "is_reserved": 0, "name": "26fe8f4a76b8ac8870dab7904b8a7317", "lon": -77.0320095, "type": "electric_scooter", "bike_id": "26fe8f4a76b8ac8870dab7904b8a7317", "fusion_lon": 0.0, "lat": 38.91903816666667, "fusion_lat": 0.0}, {"is_disabled": 0, "rental_uris": {"android": "https://dc.lft.to/lastmile_qr_scan", "ios": "https://dc.lft.to/lastmile_qr_scan"}, "is_reserved": 0, "name": "ff7373479ed383bda686073cab4f65f1", "lon": -76.98370266666667, "type": "electric_scooter", "bike_id": "ff7373479ed383bda686073cab4f65f1", "fusion_lon": 0.0, "lat": 38.922022, "fusion_lat": 0.0}, {"is_disabled": 0, "rental_uris": {"android": "https://dc.lft.to/lastmile_qr_scan", "ios": "https://dc.lft.to/lastmile_qr_scan"}, "is_reserved": 0, "name": "6ef23f19011018defd2e3c3970c4ccf6", "lon": -77.02178366666666, "type": "electric_scooter", "bike_id": "6ef23f19011018defd2e3c3970c4ccf6", "fusion_lon": 0.0, "lat": 38.89740783333333, "fusion_lat": 0.0}, {"is_disabled": 0, "rental_uris": {"android": "https://dc.lft.to/lastmile_qr_scan", "ios": "https://dc.lft.to/lastmile_qr_scan"}, "is_reserved": 0, "name": "8ca0cc7d9e66d78412229f037c519ee0", "lon": -77.02833, "type": "electric_scooter", "bike_id": "8ca0cc7d9e66d78412229f037c519ee0", "fusion_lon": 0.0, "lat": 38.91416, "fusion_lat": 0.0}, {"is_disabled": 0, "rental_uris": {"android": "https://dc.lft.to/lastmile_qr_scan", "ios": "https://dc.lft.to/lastmile_qr_scan"}, "is_reserved": 0, "name": "578e57f022105e1c2e7a22bd18747ac7", "lon": -77.0318775, "type": "electric_scooter", "bike_id": "578e57f022105e1c2e7a22bd18747ac7", "fusion_lon": 0.0, "lat": 38.93070183333333, "fusion_lat": 0.0}, {"is_disabled": 0, "rental_uris": {"android": "https://dc.lft.to/lastmile_qr_scan", "ios": "https://dc.lft.to/lastmile_qr_scan"}, "is_reserved": 0, "name": "42d863e56a00cc8afcdfd596bd782763", "lon": -77.06364416666666, "type": "electric_scooter", "bike_id": "42d863e56a00cc8afcdfd596bd782763", "fusion_lon": 0.0, "lat": 38.94417133333334, "fusion_lat": 0.0}, {"is_disabled": 0, "rental_uris": {"android": "https://dc.lft.to/lastmile_qr_scan", "ios": "https://dc.lft.to/lastmile_qr_scan"}, "is_reserved": 0, "name": "7429b17b5973c683d192aae0180dce2a", "lon": -77.0064515, "type": "electric_bike", "bike_id": "7429b17b5973c683d192aae0180dce2a", "fusion_lon": 0.0, "lat": 38.944738666666666, "fusion_lat": 0.0}, {"is_disabled": 0, "rental_uris": {"android": "https://dc.lft.to/lastmile_qr_scan", "ios": "https://dc.lft.to/lastmile_qr_scan"}, "is_reserved": 0, "name": "b0cd37dcc351082b623321492dc68941", "lon": -77.055762, "type": "electric_scooter", "bike_id": "b0cd37dcc351082b623321492dc68941", "fusion_lon": 0.0, "lat": 38.89971383333334, "fusion_lat": 0.0}, {"is_disabled": 0, "rental_uris": {"android": "https://dc.lft.to/lastmile_qr_scan", "ios": "https://dc.lft.to/lastmile_qr_scan"}, "is_reserved": 0, "name": "ef5a008495677924af0154be5bcb8e41", "lon": -77.04372016666666, "type": "electric_scooter", "bike_id": "ef5a008495677924af0154be5bcb8e41", "fusion_lon": 0.0, "lat": 38.9105695, "fusion_lat": 0.0}, {"is_disabled": 0, "rental_uris": {"android": "https://dc.lft.to/lastmile_qr_scan", "ios": "https://dc.lft.to/lastmile_qr_scan"}, "is_reserved": 0, "name": "8d6d2de3ff5b55757a8f7c97cd2d1c41", "lon": -77.02953966666666, "type": "electric_scooter", "bike_id": "8d6d2de3ff5b55757a8f7c97cd2d1c41", "fusion_lon": 0.0, "lat": 38.9042475, "fusion_lat": 0.0}, {"is_disabled": 0, "rental_uris": {"android": "https://dc.lft.to/lastmile_qr_scan", "ios": "https://dc.lft.to/lastmile_qr_scan"}, "is_reserved": 0, "name": "e9f1dcd3845b8f7f023c97d98ee4c185", "lon": -77.03786216666667, "type": "electric_scooter", "bike_id": "e9f1dcd3845b8f7f023c97d98ee4c185", "fusion_lon": 0.0, "lat": 38.93025, "fusion_lat": 0.0}, {"is_disabled": 0, "rental_uris": {"android": "https://dc.lft.to/lastmile_qr_scan", "ios": "https://dc.lft.to/lastmile_qr_scan"}, "is_reserved": 0, "name": "856f0dd5c7bc5ab310fd883530dab0ec", "lon": -77.0326685, "type": "electric_scooter", "bike_id": "856f0dd5c7bc5ab310fd883530dab0ec", "fusion_lon": 0.0, "lat": 38.933294, "fusion_lat": 0.0}, {"is_disabled": 0, "rental_uris": {"android": "https://dc.lft.to/lastmile_qr_scan", "ios": "https://dc.lft.to/lastmile_qr_scan"}, "is_reserved": 0, "name": "f4c622cb856f0790149030d638ac4485", "lon": -76.947141, "type": "electric_scooter", "bike_id": "f4c622cb856f0790149030d638ac4485", "fusion_lon": 0.0, "lat": 38.896995, "fusion_lat": 0.0}, {"is_disabled": 0, "rental_uris": {"android": "https://dc.lft.to/lastmile_qr_scan", "ios": "https://dc.lft.to/lastmile_qr_scan"}, "is_reserved": 0, "name": "de1db737c8483ebb0f832cbeaec7cad4", "lon": -76.99195683333333, "type": "electric_scooter", "bike_id": "de1db737c8483ebb0f832cbeaec7cad4", "fusion_lon": 0.0, "lat": 38.88961466666667, "fusion_lat": 0.0}, {"is_disabled": 0, "rental_uris": {"android": "https://dc.lft.to/lastmile_qr_scan", "ios": "https://dc.lft.to/lastmile_qr_scan"}, "is_reserved": 0, "name": "475655129886bf8abba3317058a7b62f", "lon": -77.0278105, "type": "electric_scooter", "bike_id": "475655129886bf8abba3317058a7b62f", "fusion_lon": 0.0, "lat": 38.9277905, "fusion_lat": 0.0}, {"is_disabled": 0, "rental_uris": {"android": "https://dc.lft.to/lastmile_qr_scan", "ios": "https://dc.lft.to/lastmile_qr_scan"}, "is_reserved": 0, "name": "d9f24e27f05b4ba21caf29fc176313d3", "lon": -77.06011416666666, "type": "electric_scooter", "bike_id": "d9f24e27f05b4ba21caf29fc176313d3", "fusion_lon": 0.0, "lat": 38.905298, "fusion_lat": 0.0}, {"is_disabled": 0, "rental_uris": {"android": "https://dc.lft.to/lastmile_qr_scan", "ios": "https://dc.lft.to/lastmile_qr_scan"}, "is_reserved": 0, "name": "930bb8f027bb636a63379afe35017116", "lon": -77.033859, "type": "electric_scooter", "bike_id": "930bb8f027bb636a63379afe35017116", "fusion_lon": 0.0, "lat": 38.91914083333333, "fusion_lat": 0.0}, {"is_disabled": 0, "rental_uris": {"android": "https://dc.lft.to/lastmile_qr_scan", "ios": "https://dc.lft.to/lastmile_qr_scan"}, "is_reserved": 0, "name": "2a2332fd1da4cad6c34772cce8d38acc", "lon": -77.005633, "type": "electric_scooter", "bike_id": "2a2332fd1da4cad6c34772cce8d38acc", "fusion_lon": 0.0, "lat": 38.885056, "fusion_lat": 0.0}, {"is_disabled": 0, "rental_uris": {"android": "https://dc.lft.to/lastmile_qr_scan", "ios": "https://dc.lft.to/lastmile_qr_scan"}, "is_reserved": 0, "name": "f79b6d67a95d2ec5dd6412afc3cbd2d8", "lon": -77.01643966666667, "type": "electric_scooter", "bike_id": "f79b6d67a95d2ec5dd6412afc3cbd2d8", "fusion_lon": 0.0, "lat": 38.876361333333335, "fusion_lat": 0.0}, {"is_disabled": 0, "rental_uris": {"android": "https://dc.lft.to/lastmile_qr_scan", "ios": "https://dc.lft.to/lastmile_qr_scan"}, "is_reserved": 0, "name": "eecb4c92a7e14baeb0f53c4ededee3b3", "lon": -77.0345865, "type": "electric_scooter", "bike_id": "eecb4c92a7e14baeb0f53c4ededee3b3", "fusion_lon": 0.0, "lat": 38.921582666666666, "fusion_lat": 0.0}, {"is_disabled": 0, "rental_uris": {"android": "https://dc.lft.to/lastmile_qr_scan", "ios": "https://dc.lft.to/lastmile_qr_scan"}, "is_reserved": 0, "name": "833eedb9da6ecba50afb8858ec47ecb1", "lon": -77.182933, "type": "electric_bike", "bike_id": "833eedb9da6ecba50afb8858ec47ecb1", "fusion_lon": 0.0, "lat": 38.883449166666665, "fusion_lat": 0.0}, {"is_disabled": 0, "rental_uris": {"android": "https://dc.lft.to/lastmile_qr_scan", "ios": "https://dc.lft.to/lastmile_qr_scan"}, "is_reserved": 0, "name": "d4679d6fe75cf9936cc0511f11406a4a", "lon": -77.03555166666666, "type": "electric_scooter", "bike_id": "d4679d6fe75cf9936cc0511f11406a4a", "fusion_lon": 0.0, "lat": 38.90696766666667, "fusion_lat": 0.0}, {"is_disabled": 0, "rental_uris": {"android": "https://dc.lft.to/lastmile_qr_scan", "ios": "https://dc.lft.to/lastmile_qr_scan"}, "is_reserved": 0, "name": "edb6bb75e8253c4de23e4f6b38652782", "lon": -77.059289, "type": "electric_scooter", "bike_id": "edb6bb75e8253c4de23e4f6b38652782", "fusion_lon": 0.0, "lat": 38.93670916666667, "fusion_lat": 0.0}, {"is_disabled": 0, "rental_uris": {"android": "https://dc.lft.to/lastmile_qr_scan", "ios": "https://dc.lft.to/lastmile_qr_scan"}, "is_reserved": 0, "name": "4674d6f3599afef112116ca011a9184b", "lon": -76.93112633333334, "type": "electric_scooter", "bike_id": "4674d6f3599afef112116ca011a9184b", "fusion_lon": 0.0, "lat": 38.88024716666666, "fusion_lat": 0.0}, {"is_disabled": 0, "rental_uris": {"android": "https://dc.lft.to/lastmile_qr_scan", "ios": "https://dc.lft.to/lastmile_qr_scan"}, "is_reserved": 0, "name": "dc7feb3ba661d1e2edb9e342434c5b61", "lon": -77.028395, "type": "electric_scooter", "bike_id": "dc7feb3ba661d1e2edb9e342434c5b61", "fusion_lon": 0.0, "lat": 38.8952925, "fusion_lat": 0.0}, {"is_disabled": 0, "rental_uris": {"android": "https://dc.lft.to/lastmile_qr_scan", "ios": "https://dc.lft.to/lastmile_qr_scan"}, "is_reserved": 0, "name": "fcbe5e27ea70fc8ee8c2be2130791f48", "lon": -77.01212183333334, "type": "electric_scooter", "bike_id": "fcbe5e27ea70fc8ee8c2be2130791f48", "fusion_lon": 0.0, "lat": 38.91817616666667, "fusion_lat": 0.0}, {"is_disabled": 0, "rental_uris": {"android": "https://dc.lft.to/lastmile_qr_scan", "ios": "https://dc.lft.to/lastmile_qr_scan"}, "is_reserved": 0, "name": "25bb68bc8d03c420932b42107c3e58ac", "lon": -77.050963, "type": "electric_scooter", "bike_id": "25bb68bc8d03c420932b42107c3e58ac", "fusion_lon": 0.0, "lat": 38.923421833333336, "fusion_lat": 0.0}, {"is_disabled": 0, "rental_uris": {"android": "https://dc.lft.to/lastmile_qr_scan", "ios": "https://dc.lft.to/lastmile_qr_scan"}, "is_reserved": 0, "name": "155102450e80ac3dcdf6156da560cbcb", "lon": -77.01700066666666, "type": "electric_scooter", "bike_id": "155102450e80ac3dcdf6156da560cbcb", "fusion_lon": 0.0, "lat": 38.9750655, "fusion_lat": 0.0}, {"is_disabled": 0, "rental_uris": {"android": "https://dc.lft.to/lastmile_qr_scan", "ios": "https://dc.lft.to/lastmile_qr_scan"}, "is_reserved": 0, "name": "782cafa8d866ecb54fba7871d7e1a1df", "lon": -76.98094516666667, "type": "electric_scooter", "bike_id": "782cafa8d866ecb54fba7871d7e1a1df", "fusion_lon": 0.0, "lat": 38.857178833333336, "fusion_lat": 0.0}, {"is_disabled": 0, "rental_uris": {"android": "https://dc.lft.to/lastmile_qr_scan", "ios": "https://dc.lft.to/lastmile_qr_scan"}, "is_reserved": 0, "name": "a777bfbdb19893b77a0273b5f04e842e", "lon": -77.0327215, "type": "electric_scooter", "bike_id": "a777bfbdb19893b77a0273b5f04e842e", "fusion_lon": 0.0, "lat": 38.918402, "fusion_lat": 0.0}, {"is_disabled": 0, "rental_uris": {"android": "https://dc.lft.to/lastmile_qr_scan", "ios": "https://dc.lft.to/lastmile_qr_scan"}, "is_reserved": 0, "name": "55f1c0305937f24fb8ab04f75f7d1fff", "lon": -77.04329816666667, "type": "electric_scooter", "bike_id": "55f1c0305937f24fb8ab04f75f7d1fff", "fusion_lon": 0.0, "lat": 38.8967, "fusion_lat": 0.0}, {"is_disabled": 0, "rental_uris": {"android": "https://dc.lft.to/lastmile_qr_scan", "ios": "https://dc.lft.to/lastmile_qr_scan"}, "is_reserved": 0, "name": "96dc1d798075dfc8186bae93897ed569", "lon": -77.01584766666667, "type": "electric_bike", "bike_id": "96dc1d798075dfc8186bae93897ed569", "fusion_lon": 0.0, "lat": 39.04635583333334, "fusion_lat": 0.0}, {"is_disabled": 0, "rental_uris": {"android": "https://dc.lft.to/lastmile_qr_scan", "ios": "https://dc.lft.to/lastmile_qr_scan"}, "is_reserved": 0, "name": "58f7e611538c1adac8a64fbd14790fa5", "lon": -77.0248535, "type": "electric_scooter", "bike_id": "58f7e611538c1adac8a64fbd14790fa5", "fusion_lon": 0.0, "lat": 38.939045666666665, "fusion_lat": 0.0}, {"is_disabled": 0, "rental_uris": {"android": "https://dc.lft.to/lastmile_qr_scan", "ios": "https://dc.lft.to/lastmile_qr_scan"}, "is_reserved": 0, "name": "caf8d11cd058c49d0e0e2124370d31e2", "lon": -76.969183, "type": "electric_scooter", "bike_id": "caf8d11cd058c49d0e0e2124370d31e2", "fusion_lon": 0.0, "lat": 38.855273333333336, "fusion_lat": 0.0}, {"is_disabled": 0, "rental_uris": {"android": "https://dc.lft.to/lastmile_qr_scan", "ios": "https://dc.lft.to/lastmile_qr_scan"}, "is_reserved": 0, "name": "18c161c130309210922c9f2893150292", "lon": -76.98518733333333, "type": "electric_scooter", "bike_id": "18c161c130309210922c9f2893150292", "fusion_lon": 0.0, "lat": 38.860038, "fusion_lat": 0.0}, {"is_disabled": 0, "rental_uris": {"android": "https://dc.lft.to/lastmile_qr_scan", "ios": "https://dc.lft.to/lastmile_qr_scan"}, "is_reserved": 0, "name": "cfe9ababe7481d560dbdc2c7b4ba4696", "lon": -77.098296, "type": "electric_bike", "bike_id": "cfe9ababe7481d560dbdc2c7b4ba4696", "fusion_lon": 0.0, "lat": 38.8578755, "fusion_lat": 0.0}, {"is_disabled": 0, "rental_uris": {"android": "https://dc.lft.to/lastmile_qr_scan", "ios": "https://dc.lft.to/lastmile_qr_scan"}, "is_reserved": 0, "name": "d59ee44fa14623968e286769f7e4aa80", "lon": -76.99079666666667, "type": "electric_scooter", "bike_id": "d59ee44fa14623968e286769f7e4aa80", "fusion_lon": 0.0, "lat": 38.9042275, "fusion_lat": 0.0}, {"is_disabled": 0, "rental_uris": {"android": "https://dc.lft.to/lastmile_qr_scan", "ios": "https://dc.lft.to/lastmile_qr_scan"}, "is_reserved": 0, "name": "694f590e1795ebf4e754f8e1182cb54c", "lon": -77.00201566666667, "type": "electric_scooter", "bike_id": "694f590e1795ebf4e754f8e1182cb54c", "fusion_lon": 0.0, "lat": 38.902354833333334, "fusion_lat": 0.0}, {"is_disabled": 0, "rental_uris": {"android": "https://dc.lft.to/lastmile_qr_scan", "ios": "https://dc.lft.to/lastmile_qr_scan"}, "is_reserved": 0, "name": "d2a5aa634d68b26205100ab197d61c01", "lon": -77.0309545, "type": "electric_scooter", "bike_id": "d2a5aa634d68b26205100ab197d61c01", "fusion_lon": 0.0, "lat": 38.928605, "fusion_lat": 0.0}, {"is_disabled": 0, "rental_uris": {"android": "https://dc.lft.to/lastmile_qr_scan", "ios": "https://dc.lft.to/lastmile_qr_scan"}, "is_reserved": 0, "name": "b817a5a853b0e7b57b9017e0e70ce6c1", "lon": -77.005425, "type": "electric_scooter", "bike_id": "b817a5a853b0e7b57b9017e0e70ce6c1", "fusion_lon": 0.0, "lat": 38.87720916666667, "fusion_lat": 0.0}, {"is_disabled": 0, "rental_uris": {"android": "https://dc.lft.to/lastmile_qr_scan", "ios": "https://dc.lft.to/lastmile_qr_scan"}, "is_reserved": 0, "name": "bb4dfb68a6b7a2080f7f4c58d9f2f91f", "lon": -77.0187195, "type": "electric_scooter", "bike_id": "bb4dfb68a6b7a2080f7f4c58d9f2f91f", "fusion_lon": 0.0, "lat": 38.9003375, "fusion_lat": 0.0}, {"is_disabled": 0, "rental_uris": {"android": "https://dc.lft.to/lastmile_qr_scan", "ios": "https://dc.lft.to/lastmile_qr_scan"}, "is_reserved": 0, "name": "3446c5f08c85766a86c729e6175a8ba6", "lon": -77.04834016666666, "type": "electric_scooter", "bike_id": "3446c5f08c85766a86c729e6175a8ba6", "fusion_lon": 0.0, "lat": 38.904585166666664, "fusion_lat": 0.0}, {"is_disabled": 0, "rental_uris": {"android": "https://dc.lft.to/lastmile_qr_scan", "ios": "https://dc.lft.to/lastmile_qr_scan"}, "is_reserved": 0, "name": "4a297786a74696518648bd2894bac0db", "lon": -77.0320245, "type": "electric_scooter", "bike_id": "4a297786a74696518648bd2894bac0db", "fusion_lon": 0.0, "lat": 38.910271, "fusion_lat": 0.0}, {"is_disabled": 0, "rental_uris": {"android": "https://dc.lft.to/lastmile_qr_scan", "ios": "https://dc.lft.to/lastmile_qr_scan"}, "is_reserved": 0, "name": "cddb85ce434ed432dbfedec5f9ea6d47", "lon": -77.00084783333334, "type": "electric_scooter", "bike_id": "cddb85ce434ed432dbfedec5f9ea6d47", "fusion_lon": 0.0, "lat": 38.90052816666667, "fusion_lat": 0.0}, {"is_disabled": 0, "rental_uris": {"android": "https://dc.lft.to/lastmile_qr_scan", "ios": "https://dc.lft.to/lastmile_qr_scan"}, "is_reserved": 0, "name": "35252c6c4df5b5484e35feb26474e3be", "lon": -77.03450533333333, "type": "electric_scooter", "bike_id": "35252c6c4df5b5484e35feb26474e3be", "fusion_lon": 0.0, "lat": 38.925410666666664, "fusion_lat": 0.0}, {"is_disabled": 0, "rental_uris": {"android": "https://dc.lft.to/lastmile_qr_scan", "ios": "https://dc.lft.to/lastmile_qr_scan"}, "is_reserved": 0, "name": "dc9ffc4ded4eaf7c9d81538c57881ce3", "lon": -76.931856, "type": "electric_scooter", "bike_id": "dc9ffc4ded4eaf7c9d81538c57881ce3", "fusion_lon": 0.0, "lat": 38.898779166666664, "fusion_lat": 0.0}, {"is_disabled": 0, "rental_uris": {"android": "https://dc.lft.to/lastmile_qr_scan", "ios": "https://dc.lft.to/lastmile_qr_scan"}, "is_reserved": 0, "name": "5395221bb8f5d1ae766b6aeee0baa9d4", "lon": -77.054802, "type": "electric_scooter", "bike_id": "5395221bb8f5d1ae766b6aeee0baa9d4", "fusion_lon": 0.0, "lat": 38.904401, "fusion_lat": 0.0}, {"is_disabled": 0, "rental_uris": {"android": "https://dc.lft.to/lastmile_qr_scan", "ios": "https://dc.lft.to/lastmile_qr_scan"}, "is_reserved": 0, "name": "2538fa1fc50d666c3c4c53cb77adbe01", "lon": -77.02495583333334, "type": "electric_bike", "bike_id": "2538fa1fc50d666c3c4c53cb77adbe01", "fusion_lon": 0.0, "lat": 38.97406383333333, "fusion_lat": 0.0}, {"is_disabled": 0, "rental_uris": {"android": "https://dc.lft.to/lastmile_qr_scan", "ios": "https://dc.lft.to/lastmile_qr_scan"}, "is_reserved": 0, "name": "c172395cb111083f5623708b45312d9a", "lon": -77.02226516666667, "type": "electric_scooter", "bike_id": "c172395cb111083f5623708b45312d9a", "fusion_lon": 0.0, "lat": 38.892208833333335, "fusion_lat": 0.0}, {"is_disabled": 0, "rental_uris": {"android": "https://dc.lft.to/lastmile_qr_scan", "ios": "https://dc.lft.to/lastmile_qr_scan"}, "is_reserved": 0, "name": "afd886d4021c7b2191fea84ec8633f6c", "lon": -76.93525066666666, "type": "electric_scooter", "bike_id": "afd886d4021c7b2191fea84ec8633f6c", "fusion_lon": 0.0, "lat": 38.878957666666665, "fusion_lat": 0.0}, {"is_disabled": 0, "rental_uris": {"android": "https://dc.lft.to/lastmile_qr_scan", "ios": "https://dc.lft.to/lastmile_qr_scan"}, "is_reserved": 0, "name": "71a1ba88389353743839f7cd74635c1c", "lon": -77.03786883333333, "type": "electric_bike", "bike_id": "71a1ba88389353743839f7cd74635c1c", "fusion_lon": 0.0, "lat": 38.996854666666664, "fusion_lat": 0.0}, {"is_disabled": 0, "rental_uris": {"android": "https://dc.lft.to/lastmile_qr_scan", "ios": "https://dc.lft.to/lastmile_qr_scan"}, "is_reserved": 0, "name": "c21178dfdce7455ecab6b2064495ac70", "lon": -77.0388105, "type": "electric_scooter", "bike_id": "c21178dfdce7455ecab6b2064495ac70", "fusion_lon": 0.0, "lat": 38.915615333333335, "fusion_lat": 0.0}, {"is_disabled": 0, "rental_uris": {"android": "https://dc.lft.to/lastmile_qr_scan", "ios": "https://dc.lft.to/lastmile_qr_scan"}, "is_reserved": 0, "name": "78e6ba4cb89d4d5c09e768e68013f57f", "lon": -76.933508, "type": "electric_scooter", "bike_id": "78e6ba4cb89d4d5c09e768e68013f57f", "fusion_lon": 0.0, "lat": 38.901936666666664, "fusion_lat": 0.0}, {"is_disabled": 0, "rental_uris": {"android": "https://dc.lft.to/lastmile_qr_scan", "ios": "https://dc.lft.to/lastmile_qr_scan"}, "is_reserved": 0, "name": "a1baac889b7615621a70274b197a92de", "lon": -77.03740283333333, "type": "electric_scooter", "bike_id": "a1baac889b7615621a70274b197a92de", "fusion_lon": 0.0, "lat": 38.9120155, "fusion_lat": 0.0}, {"is_disabled": 0, "rental_uris": {"android": "https://dc.lft.to/lastmile_qr_scan", "ios": "https://dc.lft.to/lastmile_qr_scan"}, "is_reserved": 0, "name": "092106097523bfe1f66bd31c1fdc6f21", "lon": -77.0365225, "type": "electric_scooter", "bike_id": "092106097523bfe1f66bd31c1fdc6f21", "fusion_lon": 0.0, "lat": 38.90281816666667, "fusion_lat": 0.0}, {"is_disabled": 0, "rental_uris": {"android": "https://dc.lft.to/lastmile_qr_scan", "ios": "https://dc.lft.to/lastmile_qr_scan"}, "is_reserved": 0, "name": "c13077ed71b3eef6226b577c46c83a83", "lon": -77.01636766666667, "type": "electric_scooter", "bike_id": "c13077ed71b3eef6226b577c46c83a83", "fusion_lon": 0.0, "lat": 38.883377333333335, "fusion_lat": 0.0}, {"is_disabled": 0, "rental_uris": {"android": "https://dc.lft.to/lastmile_qr_scan", "ios": "https://dc.lft.to/lastmile_qr_scan"}, "is_reserved": 0, "name": "e95c8a6e75999653c3099c70e12697a8", "lon": -77.02702283333333, "type": "electric_scooter", "bike_id": "e95c8a6e75999653c3099c70e12697a8", "fusion_lon": 0.0, "lat": 38.89972216666666, "fusion_lat": 0.0}, {"is_disabled": 0, "rental_uris": {"android": "https://dc.lft.to/lastmile_qr_scan", "ios": "https://dc.lft.to/lastmile_qr_scan"}, "is_reserved": 0, "name": "b1fa04802aa9aab38e5641099513e546", "lon": -77.03213133333334, "type": "electric_scooter", "bike_id": "b1fa04802aa9aab38e5641099513e546", "fusion_lon": 0.0, "lat": 38.92015266666667, "fusion_lat": 0.0}, {"is_disabled": 0, "rental_uris": {"android": "https://dc.lft.to/lastmile_qr_scan", "ios": "https://dc.lft.to/lastmile_qr_scan"}, "is_reserved": 0, "name": "b800684567f7f923ecf600ad69aaaa26", "lon": -77.00765833333334, "type": "electric_scooter", "bike_id": "b800684567f7f923ecf600ad69aaaa26", "fusion_lon": 0.0, "lat": 38.87111183333333, "fusion_lat": 0.0}, {"is_disabled": 0, "rental_uris": {"android": "https://dc.lft.to/lastmile_qr_scan", "ios": "https://dc.lft.to/lastmile_qr_scan"}, "is_reserved": 0, "name": "ffb10d22a5050dc99132e7a6adea450c", "lon": -76.99534033333333, "type": "electric_scooter", "bike_id": "ffb10d22a5050dc99132e7a6adea450c", "fusion_lon": 0.0, "lat": 38.86252, "fusion_lat": 0.0}, {"is_disabled": 0, "rental_uris": {"android": "https://dc.lft.to/lastmile_qr_scan", "ios": "https://dc.lft.to/lastmile_qr_scan"}, "is_reserved": 0, "name": "1860483134a9cc4164aeb2b8d7511db4", "lon": -76.983369, "type": "electric_scooter", "bike_id": "1860483134a9cc4164aeb2b8d7511db4", "fusion_lon": 0.0, "lat": 38.912732, "fusion_lat": 0.0}, {"is_disabled": 0, "rental_uris": {"android": "https://dc.lft.to/lastmile_qr_scan", "ios": "https://dc.lft.to/lastmile_qr_scan"}, "is_reserved": 0, "name": "f4830624cc695cc830808c224c19d155", "lon": -76.91595366666667, "type": "electric_bike", "bike_id": "f4830624cc695cc830808c224c19d155", "fusion_lon": 0.0, "lat": 38.88010416666667, "fusion_lat": 0.0}, {"is_disabled": 0, "rental_uris": {"android": "https://dc.lft.to/lastmile_qr_scan", "ios": "https://dc.lft.to/lastmile_qr_scan"}, "is_reserved": 0, "name": "fdc32c0525d2e629ceb821e1c2a382f0", "lon": -77.05097233333333, "type": "electric_scooter", "bike_id": "fdc32c0525d2e629ceb821e1c2a382f0", "fusion_lon": 0.0, "lat": 38.923428, "fusion_lat": 0.0}, {"is_disabled": 0, "rental_uris": {"android": "https://dc.lft.to/lastmile_qr_scan", "ios": "https://dc.lft.to/lastmile_qr_scan"}, "is_reserved": 0, "name": "3576d9fb626e464294178836063ec87a", "lon": -76.9489625, "type": "electric_scooter", "bike_id": "3576d9fb626e464294178836063ec87a", "fusion_lon": 0.0, "lat": 38.8952685, "fusion_lat": 0.0}, {"is_disabled": 0, "rental_uris": {"android": "https://dc.lft.to/lastmile_qr_scan", "ios": "https://dc.lft.to/lastmile_qr_scan"}, "is_reserved": 0, "name": "db16f522028b2545e826c8bf159e4ae8", "lon": -77.01941316666667, "type": "electric_scooter", "bike_id": "db16f522028b2545e826c8bf159e4ae8", "fusion_lon": 0.0, "lat": 38.94703416666667, "fusion_lat": 0.0}, {"is_disabled": 0, "rental_uris": {"android": "https://dc.lft.to/lastmile_qr_scan", "ios": "https://dc.lft.to/lastmile_qr_scan"}, "is_reserved": 0, "name": "a5191e925d98870dce1513d59888a354", "lon": -77.03444466666667, "type": "electric_scooter", "bike_id": "a5191e925d98870dce1513d59888a354", "fusion_lon": 0.0, "lat": 38.9149865, "fusion_lat": 0.0}, {"is_disabled": 0, "rental_uris": {"android": "https://dc.lft.to/lastmile_qr_scan", "ios": "https://dc.lft.to/lastmile_qr_scan"}, "is_reserved": 0, "name": "52c423f4f70746dced1a38dc34e3750e", "lon": -76.90814316666666, "type": "electric_bike", "bike_id": "52c423f4f70746dced1a38dc34e3750e", "fusion_lon": 0.0, "lat": 38.99455066666667, "fusion_lat": 0.0}, {"is_disabled": 0, "rental_uris": {"android": "https://dc.lft.to/lastmile_qr_scan", "ios": "https://dc.lft.to/lastmile_qr_scan"}, "is_reserved": 0, "name": "33358be14743371d4bd87203ff465de8", "lon": -77.04021583333333, "type": "electric_scooter", "bike_id": "33358be14743371d4bd87203ff465de8", "fusion_lon": 0.0, "lat": 38.9241725, "fusion_lat": 0.0}, {"is_disabled": 0, "rental_uris": {"android": "https://dc.lft.to/lastmile_qr_scan", "ios": "https://dc.lft.to/lastmile_qr_scan"}, "is_reserved": 0, "name": "36b9cd6186e4b4b5281c8d9c8a61c9cf", "lon": -76.978939, "type": "electric_bike", "bike_id": "36b9cd6186e4b4b5281c8d9c8a61c9cf", "fusion_lon": 0.0, "lat": 38.85488933333333, "fusion_lat": 0.0}, {"is_disabled": 0, "rental_uris": {"android": "https://dc.lft.to/lastmile_qr_scan", "ios": "https://dc.lft.to/lastmile_qr_scan"}, "is_reserved": 0, "name": "5ff34f7837d2a68a6a46f4124c18955c", "lon": -77.00336, "type": "electric_scooter", "bike_id": "5ff34f7837d2a68a6a46f4124c18955c", "fusion_lon": 0.0, "lat": 38.883180833333334, "fusion_lat": 0.0}, {"is_disabled": 0, "rental_uris": {"android": "https://dc.lft.to/lastmile_qr_scan", "ios": "https://dc.lft.to/lastmile_qr_scan"}, "is_reserved": 0, "name": "3d04dc2cfe8ae7df7ab1726753d55906", "lon": -77.07073983333333, "type": "electric_scooter", "bike_id": "3d04dc2cfe8ae7df7ab1726753d55906", "fusion_lon": 0.0, "lat": 38.91944616666667, "fusion_lat": 0.0}, {"is_disabled": 0, "rental_uris": {"android": "https://dc.lft.to/lastmile_qr_scan", "ios": "https://dc.lft.to/lastmile_qr_scan"}, "is_reserved": 0, "name": "529b5ebba66bc21471dd912b22650c3c", "lon": -77.03467683333334, "type": "electric_scooter", "bike_id": "529b5ebba66bc21471dd912b22650c3c", "fusion_lon": 0.0, "lat": 38.921527, "fusion_lat": 0.0}, {"is_disabled": 0, "rental_uris": {"android": "https://dc.lft.to/lastmile_qr_scan", "ios": "https://dc.lft.to/lastmile_qr_scan"}, "is_reserved": 0, "name": "09b21767971e13d04530af00abe9d4f0", "lon": -77.0434605, "type": "electric_scooter", "bike_id": "09b21767971e13d04530af00abe9d4f0", "fusion_lon": 0.0, "lat": 38.89839533333333, "fusion_lat": 0.0}, {"is_disabled": 0, "rental_uris": {"android": "https://dc.lft.to/lastmile_qr_scan", "ios": "https://dc.lft.to/lastmile_qr_scan"}, "is_reserved": 0, "name": "0010f6e329a514c9676def2680777ae0", "lon": -77.05124933333333, "type": "electric_scooter", "bike_id": "0010f6e329a514c9676def2680777ae0", "fusion_lon": 0.0, "lat": 38.906014666666664, "fusion_lat": 0.0}, {"is_disabled": 0, "rental_uris": {"android": "https://dc.lft.to/lastmile_qr_scan", "ios": "https://dc.lft.to/lastmile_qr_scan"}, "is_reserved": 0, "name": "cfe629f89f243461b7c64ac2b99e0b40", "lon": -76.952084, "type": "electric_scooter", "bike_id": "cfe629f89f243461b7c64ac2b99e0b40", "fusion_lon": 0.0, "lat": 38.892497166666665, "fusion_lat": 0.0}, {"is_disabled": 0, "rental_uris": {"android": "https://dc.lft.to/lastmile_qr_scan", "ios": "https://dc.lft.to/lastmile_qr_scan"}, "is_reserved": 0, "name": "6bc264fd354e13b0d570d9753d3b1e8b", "lon": -77.046711, "type": "electric_scooter", "bike_id": "6bc264fd354e13b0d570d9753d3b1e8b", "fusion_lon": 0.0, "lat": 38.90487666666667, "fusion_lat": 0.0}, {"is_disabled": 0, "rental_uris": {"android": "https://dc.lft.to/lastmile_qr_scan", "ios": "https://dc.lft.to/lastmile_qr_scan"}, "is_reserved": 0, "name": "b58bac2e0991822d0d30b7aca4394f71", "lon": -76.98372183333333, "type": "electric_scooter", "bike_id": "b58bac2e0991822d0d30b7aca4394f71", "fusion_lon": 0.0, "lat": 38.9149715, "fusion_lat": 0.0}, {"is_disabled": 0, "rental_uris": {"android": "https://dc.lft.to/lastmile_qr_scan", "ios": "https://dc.lft.to/lastmile_qr_scan"}, "is_reserved": 0, "name": "a37c0046b059af2cead6b12230e33e9e", "lon": -76.998965, "type": "electric_scooter", "bike_id": "a37c0046b059af2cead6b12230e33e9e", "fusion_lon": 0.0, "lat": 38.90019983333333, "fusion_lat": 0.0}, {"is_disabled": 0, "rental_uris": {"android": "https://dc.lft.to/lastmile_qr_scan", "ios": "https://dc.lft.to/lastmile_qr_scan"}, "is_reserved": 0, "name": "e7c74b59bbf2b2a6135032323442fb25", "lon": -77.04455066666667, "type": "electric_scooter", "bike_id": "e7c74b59bbf2b2a6135032323442fb25", "fusion_lon": 0.0, "lat": 38.91862883333334, "fusion_lat": 0.0}, {"is_disabled": 0, "rental_uris": {"android": "https://dc.lft.to/lastmile_qr_scan", "ios": "https://dc.lft.to/lastmile_qr_scan"}, "is_reserved": 0, "name": "e57e4ceeefb8406ff8f1cee13f7a4885", "lon": -77.04011966666667, "type": "electric_scooter", "bike_id": "e57e4ceeefb8406ff8f1cee13f7a4885", "fusion_lon": 0.0, "lat": 38.9208605, "fusion_lat": 0.0}, {"is_disabled": 0, "rental_uris": {"android": "https://dc.lft.to/lastmile_qr_scan", "ios": "https://dc.lft.to/lastmile_qr_scan"}, "is_reserved": 0, "name": "1950bb5e7754ab6e2f934759c5fcd34f", "lon": -77.003266, "type": "electric_scooter", "bike_id": "1950bb5e7754ab6e2f934759c5fcd34f", "fusion_lon": 0.0, "lat": 38.904705166666666, "fusion_lat": 0.0}, {"is_disabled": 0, "rental_uris": {"android": "https://dc.lft.to/lastmile_qr_scan", "ios": "https://dc.lft.to/lastmile_qr_scan"}, "is_reserved": 0, "name": "3c957e44020120ab48c95faa92f63121", "lon": -77.07895733333334, "type": "electric_bike", "bike_id": "3c957e44020120ab48c95faa92f63121", "fusion_lon": 0.0, "lat": 38.83933283333333, "fusion_lat": 0.0}, {"is_disabled": 0, "rental_uris": {"android": "https://dc.lft.to/lastmile_qr_scan", "ios": "https://dc.lft.to/lastmile_qr_scan"}, "is_reserved": 0, "name": "a56e0cab7e7c42118d730fa7cb817ef9", "lon": -77.03665966666667, "type": "electric_scooter", "bike_id": "a56e0cab7e7c42118d730fa7cb817ef9", "fusion_lon": 0.0, "lat": 38.922565, "fusion_lat": 0.0}, {"is_disabled": 0, "rental_uris": {"android": "https://dc.lft.to/lastmile_qr_scan", "ios": "https://dc.lft.to/lastmile_qr_scan"}, "is_reserved": 0, "name": "cd4ae687fff8cd398cd17eacd004c1f8", "lon": -77.0019815, "type": "electric_scooter", "bike_id": "cd4ae687fff8cd398cd17eacd004c1f8", "fusion_lon": 0.0, "lat": 38.900505333333335, "fusion_lat": 0.0}, {"is_disabled": 0, "rental_uris": {"android": "https://dc.lft.to/lastmile_qr_scan", "ios": "https://dc.lft.to/lastmile_qr_scan"}, "is_reserved": 0, "name": "29def81ac1ded3971045acce8e8663c5", "lon": -76.971688, "type": "electric_bike", "bike_id": "29def81ac1ded3971045acce8e8663c5", "fusion_lon": 0.0, "lat": 38.976805166666665, "fusion_lat": 0.0}, {"is_disabled": 0, "rental_uris": {"android": "https://dc.lft.to/lastmile_qr_scan", "ios": "https://dc.lft.to/lastmile_qr_scan"}, "is_reserved": 0, "name": "a1d0626d81576f7ebe0bdd6358d5dd3a", "lon": -77.054226, "type": "electric_scooter", "bike_id": "a1d0626d81576f7ebe0bdd6358d5dd3a", "fusion_lon": 0.0, "lat": 38.89916933333333, "fusion_lat": 0.0}, {"is_disabled": 0, "rental_uris": {"android": "https://dc.lft.to/lastmile_qr_scan", "ios": "https://dc.lft.to/lastmile_qr_scan"}, "is_reserved": 0, "name": "aa45ef41a1121dd87cddd68a082c2c0c", "lon": -77.0517775, "type": "electric_scooter", "bike_id": "aa45ef41a1121dd87cddd68a082c2c0c", "fusion_lon": 0.0, "lat": 38.905601, "fusion_lat": 0.0}, {"is_disabled": 0, "rental_uris": {"android": "https://dc.lft.to/lastmile_qr_scan", "ios": "https://dc.lft.to/lastmile_qr_scan"}, "is_reserved": 0, "name": "00af8ce2d741fda9c6758d48f3c75183", "lon": -77.007193, "type": "electric_bike", "bike_id": "00af8ce2d741fda9c6758d48f3c75183", "fusion_lon": 0.0, "lat": 38.90482016666667, "fusion_lat": 0.0}, {"is_disabled": 0, "rental_uris": {"android": "https://dc.lft.to/lastmile_qr_scan", "ios": "https://dc.lft.to/lastmile_qr_scan"}, "is_reserved": 0, "name": "6168a4977ffae9b4c50a572244e72667", "lon": -77.008283, "type": "electric_scooter", "bike_id": "6168a4977ffae9b4c50a572244e72667", "fusion_lon": 0.0, "lat": 38.912562666666666, "fusion_lat": 0.0}, {"is_disabled": 0, "rental_uris": {"android": "https://dc.lft.to/lastmile_qr_scan", "ios": "https://dc.lft.to/lastmile_qr_scan"}, "is_reserved": 0, "name": "17af4847966a1842078e91367f107d92", "lon": -77.0366285, "type": "electric_scooter", "bike_id": "17af4847966a1842078e91367f107d92", "fusion_lon": 0.0, "lat": 38.917102166666666, "fusion_lat": 0.0}, {"is_disabled": 0, "rental_uris": {"android": "https://dc.lft.to/lastmile_qr_scan", "ios": "https://dc.lft.to/lastmile_qr_scan"}, "is_reserved": 0, "name": "b99cd3aa87d10f2e94e6622bf77beec3", "lon": -77.01084383333334, "type": "electric_scooter", "bike_id": "b99cd3aa87d10f2e94e6622bf77beec3", "fusion_lon": 0.0, "lat": 38.91819016666667, "fusion_lat": 0.0}, {"is_disabled": 0, "rental_uris": {"android": "https://dc.lft.to/lastmile_qr_scan", "ios": "https://dc.lft.to/lastmile_qr_scan"}, "is_reserved": 0, "name": "d354dc39dc4c1134918112217eac6cee", "lon": -76.95223666666666, "type": "electric_bike", "bike_id": "d354dc39dc4c1134918112217eac6cee", "fusion_lon": 0.0, "lat": 38.89234616666667, "fusion_lat": 0.0}, {"is_disabled": 0, "rental_uris": {"android": "https://dc.lft.to/lastmile_qr_scan", "ios": "https://dc.lft.to/lastmile_qr_scan"}, "is_reserved": 0, "name": "19fbceedfab717b97431483e960f871a", "lon": -76.88905516666667, "type": "electric_bike", "bike_id": "19fbceedfab717b97431483e960f871a", "fusion_lon": 0.0, "lat": 38.92592483333333, "fusion_lat": 0.0}, {"is_disabled": 0, "rental_uris": {"android": "https://dc.lft.to/lastmile_qr_scan", "ios": "https://dc.lft.to/lastmile_qr_scan"}, "is_reserved": 0, "name": "55231513eba9471e7e6dca347fe4fea1", "lon": -77.02931, "type": "electric_scooter", "bike_id": "55231513eba9471e7e6dca347fe4fea1", "fusion_lon": 0.0, "lat": 38.937551666666664, "fusion_lat": 0.0}, {"is_disabled": 0, "rental_uris": {"android": "https://dc.lft.to/lastmile_qr_scan", "ios": "https://dc.lft.to/lastmile_qr_scan"}, "is_reserved": 0, "name": "d43371b0b861f122e294546489e3c119", "lon": -77.01422516666666, "type": "electric_scooter", "bike_id": "d43371b0b861f122e294546489e3c119", "fusion_lon": 0.0, "lat": 38.92838716666667, "fusion_lat": 0.0}, {"is_disabled": 0, "rental_uris": {"android": "https://dc.lft.to/lastmile_qr_scan", "ios": "https://dc.lft.to/lastmile_qr_scan"}, "is_reserved": 0, "name": "2f8a249e1f8a0ff1081f71c251576cc6", "lon": -77.020836, "type": "electric_scooter", "bike_id": "2f8a249e1f8a0ff1081f71c251576cc6", "fusion_lon": 0.0, "lat": 38.930121166666666, "fusion_lat": 0.0}, {"is_disabled": 0, "rental_uris": {"android": "https://dc.lft.to/lastmile_qr_scan", "ios": "https://dc.lft.to/lastmile_qr_scan"}, "is_reserved": 0, "name": "80a4494f5e99f67e37444cf26550325f", "lon": -77.00927516666667, "type": "electric_scooter", "bike_id": "80a4494f5e99f67e37444cf26550325f", "fusion_lon": 0.0, "lat": 38.8961365, "fusion_lat": 0.0}, {"is_disabled": 0, "rental_uris": {"android": "https://dc.lft.to/lastmile_qr_scan", "ios": "https://dc.lft.to/lastmile_qr_scan"}, "is_reserved": 0, "name": "e5c0efe13fd1c5dea5cdd2264ce96bc0", "lon": -77.05052983333333, "type": "electric_scooter", "bike_id": "e5c0efe13fd1c5dea5cdd2264ce96bc0", "fusion_lon": 0.0, "lat": 38.9009625, "fusion_lat": 0.0}, {"is_disabled": 0, "rental_uris": {"android": "https://dc.lft.to/lastmile_qr_scan", "ios": "https://dc.lft.to/lastmile_qr_scan"}, "is_reserved": 0, "name": "3a4a679823f2b5dd9a52ccf771cac54f", "lon": -77.03199483333333, "type": "electric_scooter", "bike_id": "3a4a679823f2b5dd9a52ccf771cac54f", "fusion_lon": 0.0, "lat": 38.9010795, "fusion_lat": 0.0}, {"is_disabled": 0, "rental_uris": {"android": "https://dc.lft.to/lastmile_qr_scan", "ios": "https://dc.lft.to/lastmile_qr_scan"}, "is_reserved": 0, "name": "48d5b7f9413b0d96bc0522d5b37e12e2", "lon": -77.02514, "type": "electric_scooter", "bike_id": "48d5b7f9413b0d96bc0522d5b37e12e2", "fusion_lon": 0.0, "lat": 38.91942566666667, "fusion_lat": 0.0}, {"is_disabled": 0, "rental_uris": {"android": "https://dc.lft.to/lastmile_qr_scan", "ios": "https://dc.lft.to/lastmile_qr_scan"}, "is_reserved": 0, "name": "4de5adaae8edc8b86a6c9aa78782b404", "lon": -76.985717, "type": "electric_scooter", "bike_id": "4de5adaae8edc8b86a6c9aa78782b404", "fusion_lon": 0.0, "lat": 38.8961735, "fusion_lat": 0.0}, {"is_disabled": 0, "rental_uris": {"android": "https://dc.lft.to/lastmile_qr_scan", "ios": "https://dc.lft.to/lastmile_qr_scan"}, "is_reserved": 0, "name": "b3ef1beb642bda413786e11d24ea312b", "lon": -77.027785, "type": "electric_scooter", "bike_id": "b3ef1beb642bda413786e11d24ea312b", "fusion_lon": 0.0, "lat": 38.91705283333334, "fusion_lat": 0.0}, {"is_disabled": 0, "rental_uris": {"android": "https://dc.lft.to/lastmile_qr_scan", "ios": "https://dc.lft.to/lastmile_qr_scan"}, "is_reserved": 0, "name": "46a42d6395bd412ccf701d51d826195c", "lon": -77.02624133333333, "type": "electric_scooter", "bike_id": "46a42d6395bd412ccf701d51d826195c", "fusion_lon": 0.0, "lat": 38.915679, "fusion_lat": 0.0}, {"is_disabled": 0, "rental_uris": {"android": "https://dc.lft.to/lastmile_qr_scan", "ios": "https://dc.lft.to/lastmile_qr_scan"}, "is_reserved": 0, "name": "e61d563cb83290a3b251f0bf147791bf", "lon": -77.04497016666667, "type": "electric_scooter", "bike_id": "e61d563cb83290a3b251f0bf147791bf", "fusion_lon": 0.0, "lat": 38.906818666666666, "fusion_lat": 0.0}, {"is_disabled": 0, "rental_uris": {"android": "https://dc.lft.to/lastmile_qr_scan", "ios": "https://dc.lft.to/lastmile_qr_scan"}, "is_reserved": 0, "name": "57449c5ac67695ea78a1265cafdddffe", "lon": -77.02658166666667, "type": "electric_scooter", "bike_id": "57449c5ac67695ea78a1265cafdddffe", "fusion_lon": 0.0, "lat": 38.8960375, "fusion_lat": 0.0}, {"is_disabled": 0, "rental_uris": {"android": "https://dc.lft.to/lastmile_qr_scan", "ios": "https://dc.lft.to/lastmile_qr_scan"}, "is_reserved": 0, "name": "35fa39898452e87590db5d3969a7f4f3", "lon": -77.0217285, "type": "electric_scooter", "bike_id": "35fa39898452e87590db5d3969a7f4f3", "fusion_lon": 0.0, "lat": 38.89730983333333, "fusion_lat": 0.0}, {"is_disabled": 0, "rental_uris": {"android": "https://dc.lft.to/lastmile_qr_scan", "ios": "https://dc.lft.to/lastmile_qr_scan"}, "is_reserved": 0, "name": "6fbba13aee53c2cc3d700ea95b75fad6", "lon": -77.04799433333334, "type": "electric_scooter", "bike_id": "6fbba13aee53c2cc3d700ea95b75fad6", "fusion_lon": 0.0, "lat": 38.90462466666666, "fusion_lat": 0.0}, {"is_disabled": 0, "rental_uris": {"android": "https://dc.lft.to/lastmile_qr_scan", "ios": "https://dc.lft.to/lastmile_qr_scan"}, "is_reserved": 0, "name": "5e22456c4152f87de351140c40cd2f91", "lon": -76.9950235, "type": "electric_scooter", "bike_id": "5e22456c4152f87de351140c40cd2f91", "fusion_lon": 0.0, "lat": 38.89817466666667, "fusion_lat": 0.0}, {"is_disabled": 0, "rental_uris": {"android": "https://dc.lft.to/lastmile_qr_scan", "ios": "https://dc.lft.to/lastmile_qr_scan"}, "is_reserved": 0, "name": "e3768167af41788e8d318e961828c171", "lon": -77.04769133333333, "type": "electric_scooter", "bike_id": "e3768167af41788e8d318e961828c171", "fusion_lon": 0.0, "lat": 38.9124165, "fusion_lat": 0.0}, {"is_disabled": 0, "rental_uris": {"android": "https://dc.lft.to/lastmile_qr_scan", "ios": "https://dc.lft.to/lastmile_qr_scan"}, "is_reserved": 0, "name": "ff9566475fc9dc900bf6f87bdaa75451", "lon": -76.944698, "type": "electric_scooter", "bike_id": "ff9566475fc9dc900bf6f87bdaa75451", "fusion_lon": 0.0, "lat": 38.9028075, "fusion_lat": 0.0}, {"is_disabled": 0, "rental_uris": {"android": "https://dc.lft.to/lastmile_qr_scan", "ios": "https://dc.lft.to/lastmile_qr_scan"}, "is_reserved": 0, "name": "0fdacae995dc54de1fca2b0d78fa728c", "lon": -77.0503655, "type": "electric_scooter", "bike_id": "0fdacae995dc54de1fca2b0d78fa728c", "fusion_lon": 0.0, "lat": 38.900768166666666, "fusion_lat": 0.0}, {"is_disabled": 0, "rental_uris": {"android": "https://dc.lft.to/lastmile_qr_scan", "ios": "https://dc.lft.to/lastmile_qr_scan"}, "is_reserved": 0, "name": "6de00d52e7b2954832bd399da32ecf77", "lon": -76.94638866666666, "type": "electric_scooter", "bike_id": "6de00d52e7b2954832bd399da32ecf77", "fusion_lon": 0.0, "lat": 38.898418, "fusion_lat": 0.0}, {"is_disabled": 0, "rental_uris": {"android": "https://dc.lft.to/lastmile_qr_scan", "ios": "https://dc.lft.to/lastmile_qr_scan"}, "is_reserved": 0, "name": "13f9058d0eb9ccf42d5e17620ed8795e", "lon": -77.025392, "type": "electric_scooter", "bike_id": "13f9058d0eb9ccf42d5e17620ed8795e", "fusion_lon": 0.0, "lat": 38.9240575, "fusion_lat": 0.0}, {"is_disabled": 0, "rental_uris": {"android": "https://dc.lft.to/lastmile_qr_scan", "ios": "https://dc.lft.to/lastmile_qr_scan"}, "is_reserved": 0, "name": "6e488419e96172024c28935b9ebca0e6", "lon": -77.03442333333334, "type": "electric_scooter", "bike_id": "6e488419e96172024c28935b9ebca0e6", "fusion_lon": 0.0, "lat": 38.90888533333333, "fusion_lat": 0.0}, {"is_disabled": 0, "rental_uris": {"android": "https://dc.lft.to/lastmile_qr_scan", "ios": "https://dc.lft.to/lastmile_qr_scan"}, "is_reserved": 0, "name": "42a6cc102c8e71677e28cad7c847e194", "lon": -77.03521633333334, "type": "electric_scooter", "bike_id": "42a6cc102c8e71677e28cad7c847e194", "fusion_lon": 0.0, "lat": 38.922611333333336, "fusion_lat": 0.0}, {"is_disabled": 0, "rental_uris": {"android": "https://dc.lft.to/lastmile_qr_scan", "ios": "https://dc.lft.to/lastmile_qr_scan"}, "is_reserved": 0, "name": "225e5eb5072bad4b1b1dc0d0acbeb344", "lon": -76.9291215, "type": "electric_bike", "bike_id": "225e5eb5072bad4b1b1dc0d0acbeb344", "fusion_lon": 0.0, "lat": 38.98027866666666, "fusion_lat": 0.0}, {"is_disabled": 0, "rental_uris": {"android": "https://dc.lft.to/lastmile_qr_scan", "ios": "https://dc.lft.to/lastmile_qr_scan"}, "is_reserved": 0, "name": "42d37461ee5c4af512011641f1b62b83", "lon": -77.03541916666667, "type": "electric_scooter", "bike_id": "42d37461ee5c4af512011641f1b62b83", "fusion_lon": 0.0, "lat": 38.92342883333333, "fusion_lat": 0.0}, {"is_disabled": 0, "rental_uris": {"android": "https://dc.lft.to/lastmile_qr_scan", "ios": "https://dc.lft.to/lastmile_qr_scan"}, "is_reserved": 0, "name": "e06c3162acccdb25ade86e6d496cbe20", "lon": -77.0386835, "type": "electric_scooter", "bike_id": "e06c3162acccdb25ade86e6d496cbe20", "fusion_lon": 0.0, "lat": 38.915619666666665, "fusion_lat": 0.0}, {"is_disabled": 0, "rental_uris": {"android": "https://dc.lft.to/lastmile_qr_scan", "ios": "https://dc.lft.to/lastmile_qr_scan"}, "is_reserved": 0, "name": "374523494f44e18321bb8cbfac3b0e70", "lon": -77.01733716666666, "type": "electric_scooter", "bike_id": "374523494f44e18321bb8cbfac3b0e70", "fusion_lon": 0.0, "lat": 38.91117766666667, "fusion_lat": 0.0}, {"is_disabled": 0, "rental_uris": {"android": "https://dc.lft.to/lastmile_qr_scan", "ios": "https://dc.lft.to/lastmile_qr_scan"}, "is_reserved": 0, "name": "95d95e8cc496e51a3c8ca56d5b9cfd0c", "lon": -77.01714816666667, "type": "electric_scooter", "bike_id": "95d95e8cc496e51a3c8ca56d5b9cfd0c", "fusion_lon": 0.0, "lat": 38.902464, "fusion_lat": 0.0}, {"is_disabled": 0, "rental_uris": {"android": "https://dc.lft.to/lastmile_qr_scan", "ios": "https://dc.lft.to/lastmile_qr_scan"}, "is_reserved": 0, "name": "d00dec79f2445a9406b5872580c707e8", "lon": -77.02948616666667, "type": "electric_scooter", "bike_id": "d00dec79f2445a9406b5872580c707e8", "fusion_lon": 0.0, "lat": 38.92763016666667, "fusion_lat": 0.0}, {"is_disabled": 0, "rental_uris": {"android": "https://dc.lft.to/lastmile_qr_scan", "ios": "https://dc.lft.to/lastmile_qr_scan"}, "is_reserved": 0, "name": "6e554f0fa81d82720fb1f00124d87a84", "lon": -77.02492566666666, "type": "electric_scooter", "bike_id": "6e554f0fa81d82720fb1f00124d87a84", "fusion_lon": 0.0, "lat": 38.9418245, "fusion_lat": 0.0}, {"is_disabled": 0, "rental_uris": {"android": "https://dc.lft.to/lastmile_qr_scan", "ios": "https://dc.lft.to/lastmile_qr_scan"}, "is_reserved": 0, "name": "394e3a56dc3c97e4ef6ac3fc5ab9785f", "lon": -76.97794266666666, "type": "electric_bike", "bike_id": "394e3a56dc3c97e4ef6ac3fc5ab9785f", "fusion_lon": 0.0, "lat": 38.89608916666667, "fusion_lat": 0.0}, {"is_disabled": 0, "rental_uris": {"android": "https://dc.lft.to/lastmile_qr_scan", "ios": "https://dc.lft.to/lastmile_qr_scan"}, "is_reserved": 0, "name": "2a7fa458ef4f4fd9496efd845238dc86", "lon": -77.041523, "type": "electric_scooter", "bike_id": "2a7fa458ef4f4fd9496efd845238dc86", "fusion_lon": 0.0, "lat": 38.912667166666665, "fusion_lat": 0.0}, {"is_disabled": 0, "rental_uris": {"android": "https://dc.lft.to/lastmile_qr_scan", "ios": "https://dc.lft.to/lastmile_qr_scan"}, "is_reserved": 0, "name": "6a1d6577574fd4dd7d4768f41f6544ea", "lon": -77.048183, "type": "electric_scooter", "bike_id": "6a1d6577574fd4dd7d4768f41f6544ea", "fusion_lon": 0.0, "lat": 38.92035766666667, "fusion_lat": 0.0}, {"is_disabled": 0, "rental_uris": {"android": "https://dc.lft.to/lastmile_qr_scan", "ios": "https://dc.lft.to/lastmile_qr_scan"}, "is_reserved": 0, "name": "157097ee4937d35655d006fa48d2cfee", "lon": -77.02381466666667, "type": "electric_bike", "bike_id": "157097ee4937d35655d006fa48d2cfee", "fusion_lon": 0.0, "lat": 38.990749666666666, "fusion_lat": 0.0}, {"is_disabled": 0, "rental_uris": {"android": "https://dc.lft.to/lastmile_qr_scan", "ios": "https://dc.lft.to/lastmile_qr_scan"}, "is_reserved": 0, "name": "d48801392215cb81b17fd8079f5dea4e", "lon": -77.020657, "type": "electric_scooter", "bike_id": "d48801392215cb81b17fd8079f5dea4e", "fusion_lon": 0.0, "lat": 38.881179833333334, "fusion_lat": 0.0}, {"is_disabled": 0, "rental_uris": {"android": "https://dc.lft.to/lastmile_qr_scan", "ios": "https://dc.lft.to/lastmile_qr_scan"}, "is_reserved": 0, "name": "2211442828c87c32b3a29e64404144ad", "lon": -76.98882766666667, "type": "electric_scooter", "bike_id": "2211442828c87c32b3a29e64404144ad", "fusion_lon": 0.0, "lat": 38.86658716666667, "fusion_lat": 0.0}, {"is_disabled": 0, "rental_uris": {"android": "https://dc.lft.to/lastmile_qr_scan", "ios": "https://dc.lft.to/lastmile_qr_scan"}, "is_reserved": 0, "name": "eb6b55b68abcc498a1d6096b69117fa4", "lon": -77.02688066666667, "type": "electric_scooter", "bike_id": "eb6b55b68abcc498a1d6096b69117fa4", "fusion_lon": 0.0, "lat": 38.8965975, "fusion_lat": 0.0}, {"is_disabled": 0, "rental_uris": {"android": "https://dc.lft.to/lastmile_qr_scan", "ios": "https://dc.lft.to/lastmile_qr_scan"}, "is_reserved": 0, "name": "97cac9bbfa96cdd26cc25779683a0098", "lon": -77.029745, "type": "electric_scooter", "bike_id": "97cac9bbfa96cdd26cc25779683a0098", "fusion_lon": 0.0, "lat": 38.92257883333333, "fusion_lat": 0.0}, {"is_disabled": 0, "rental_uris": {"android": "https://dc.lft.to/lastmile_qr_scan", "ios": "https://dc.lft.to/lastmile_qr_scan"}, "is_reserved": 0, "name": "e864b972517094d783cbb5344a91b7c1", "lon": -77.0882755, "type": "electric_bike", "bike_id": "e864b972517094d783cbb5344a91b7c1", "fusion_lon": 0.0, "lat": 38.90970216666667, "fusion_lat": 0.0}, {"is_disabled": 0, "rental_uris": {"android": "https://dc.lft.to/lastmile_qr_scan", "ios": "https://dc.lft.to/lastmile_qr_scan"}, "is_reserved": 0, "name": "4755038e1a2c413bc5e52ee5af3cbac1", "lon": -77.04280316666667, "type": "electric_scooter", "bike_id": "4755038e1a2c413bc5e52ee5af3cbac1", "fusion_lon": 0.0, "lat": 38.93412633333333, "fusion_lat": 0.0}, {"is_disabled": 0, "rental_uris": {"android": "https://dc.lft.to/lastmile_qr_scan", "ios": "https://dc.lft.to/lastmile_qr_scan"}, "is_reserved": 0, "name": "695a8e870f3a486a836c04c1cdf9ffbf", "lon": -77.00535616666667, "type": "electric_scooter", "bike_id": "695a8e870f3a486a836c04c1cdf9ffbf", "fusion_lon": 0.0, "lat": 38.87467683333333, "fusion_lat": 0.0}, {"is_disabled": 0, "rental_uris": {"android": "https://dc.lft.to/lastmile_qr_scan", "ios": "https://dc.lft.to/lastmile_qr_scan"}, "is_reserved": 0, "name": "a89595f03094ec806ea11d00e81d9e56", "lon": -77.04414366666667, "type": "electric_scooter", "bike_id": "a89595f03094ec806ea11d00e81d9e56", "fusion_lon": 0.0, "lat": 38.89390683333333, "fusion_lat": 0.0}, {"is_disabled": 0, "rental_uris": {"android": "https://dc.lft.to/lastmile_qr_scan", "ios": "https://dc.lft.to/lastmile_qr_scan"}, "is_reserved": 0, "name": "902ef44c1f16dd6967b7f3538b36fede", "lon": -77.03534083333334, "type": "electric_scooter", "bike_id": "902ef44c1f16dd6967b7f3538b36fede", "fusion_lon": 0.0, "lat": 38.923432, "fusion_lat": 0.0}, {"is_disabled": 0, "rental_uris": {"android": "https://dc.lft.to/lastmile_qr_scan", "ios": "https://dc.lft.to/lastmile_qr_scan"}, "is_reserved": 0, "name": "d7e54ec75e5c3959f2e37c75db938eb4", "lon": -77.03485933333333, "type": "electric_scooter", "bike_id": "d7e54ec75e5c3959f2e37c75db938eb4", "fusion_lon": 0.0, "lat": 38.924803833333335, "fusion_lat": 0.0}, {"is_disabled": 0, "rental_uris": {"android": "https://dc.lft.to/lastmile_qr_scan", "ios": "https://dc.lft.to/lastmile_qr_scan"}, "is_reserved": 0, "name": "2dafcceffce79737d52bb91bbddb41a0", "lon": -77.02845216666667, "type": "electric_scooter", "bike_id": "2dafcceffce79737d52bb91bbddb41a0", "fusion_lon": 0.0, "lat": 38.901479, "fusion_lat": 0.0}, {"is_disabled": 0, "rental_uris": {"android": "https://dc.lft.to/lastmile_qr_scan", "ios": "https://dc.lft.to/lastmile_qr_scan"}, "is_reserved": 0, "name": "74d7b21715cd574be62ed9ccd051b857", "lon": -76.99648416666666, "type": "electric_scooter", "bike_id": "74d7b21715cd574be62ed9ccd051b857", "fusion_lon": 0.0, "lat": 38.88719533333333, "fusion_lat": 0.0}, {"is_disabled": 0, "rental_uris": {"android": "https://dc.lft.to/lastmile_qr_scan", "ios": "https://dc.lft.to/lastmile_qr_scan"}, "is_reserved": 0, "name": "efb0dd4d78771f67b3e4dc5801bb18e5", "lon": -77.02726716666666, "type": "electric_scooter", "bike_id": "efb0dd4d78771f67b3e4dc5801bb18e5", "fusion_lon": 0.0, "lat": 38.910737, "fusion_lat": 0.0}, {"is_disabled": 0, "rental_uris": {"android": "https://dc.lft.to/lastmile_qr_scan", "ios": "https://dc.lft.to/lastmile_qr_scan"}, "is_reserved": 0, "name": "3166c8774f632bc10b28e0088a8a6881", "lon": -77.05599266666667, "type": "electric_scooter", "bike_id": "3166c8774f632bc10b28e0088a8a6881", "fusion_lon": 0.0, "lat": 38.93700316666666, "fusion_lat": 0.0}, {"is_disabled": 0, "rental_uris": {"android": "https://dc.lft.to/lastmile_qr_scan", "ios": "https://dc.lft.to/lastmile_qr_scan"}, "is_reserved": 0, "name": "24348a2f9f8287afe3241fc5b0669a24", "lon": -77.0254075, "type": "electric_scooter", "bike_id": "24348a2f9f8287afe3241fc5b0669a24", "fusion_lon": 0.0, "lat": 38.98413583333333, "fusion_lat": 0.0}, {"is_disabled": 0, "rental_uris": {"android": "https://dc.lft.to/lastmile_qr_scan", "ios": "https://dc.lft.to/lastmile_qr_scan"}, "is_reserved": 0, "name": "c49fe42644d5eeca8da2b3faf6508e4b", "lon": -77.02948483333333, "type": "electric_scooter", "bike_id": "c49fe42644d5eeca8da2b3faf6508e4b", "fusion_lon": 0.0, "lat": 38.917105166666666, "fusion_lat": 0.0}, {"is_disabled": 0, "rental_uris": {"android": "https://dc.lft.to/lastmile_qr_scan", "ios": "https://dc.lft.to/lastmile_qr_scan"}, "is_reserved": 0, "name": "f22c3cdedb69bd881f7e7518dd84d269", "lon": -77.03294766666667, "type": "electric_scooter", "bike_id": "f22c3cdedb69bd881f7e7518dd84d269", "fusion_lon": 0.0, "lat": 38.9158255, "fusion_lat": 0.0}, {"is_disabled": 0, "rental_uris": {"android": "https://dc.lft.to/lastmile_qr_scan", "ios": "https://dc.lft.to/lastmile_qr_scan"}, "is_reserved": 0, "name": "bcdc96cb3c8e9491bbc7cd4a906df20c", "lon": -76.93832816666666, "type": "electric_scooter", "bike_id": "bcdc96cb3c8e9491bbc7cd4a906df20c", "fusion_lon": 0.0, "lat": 38.890113, "fusion_lat": 0.0}, {"is_disabled": 0, "rental_uris": {"android": "https://dc.lft.to/lastmile_qr_scan", "ios": "https://dc.lft.to/lastmile_qr_scan"}, "is_reserved": 0, "name": "c5ada049a1b5faede132b19ead60612d", "lon": -77.05163466666667, "type": "electric_scooter", "bike_id": "c5ada049a1b5faede132b19ead60612d", "fusion_lon": 0.0, "lat": 38.9062835, "fusion_lat": 0.0}, {"is_disabled": 0, "rental_uris": {"android": "https://dc.lft.to/lastmile_qr_scan", "ios": "https://dc.lft.to/lastmile_qr_scan"}, "is_reserved": 0, "name": "8f5385fe7f0af5b2487b9e1393788023", "lon": -77.02315766666666, "type": "electric_scooter", "bike_id": "8f5385fe7f0af5b2487b9e1393788023", "fusion_lon": 0.0, "lat": 38.926642333333334, "fusion_lat": 0.0}, {"is_disabled": 0, "rental_uris": {"android": "https://dc.lft.to/lastmile_qr_scan", "ios": "https://dc.lft.to/lastmile_qr_scan"}, "is_reserved": 0, "name": "5548de4919acc4e29325b9f3ff9275cf", "lon": -77.04560566666666, "type": "electric_scooter", "bike_id": "5548de4919acc4e29325b9f3ff9275cf", "fusion_lon": 0.0, "lat": 38.913114, "fusion_lat": 0.0}, {"is_disabled": 0, "rental_uris": {"android": "https://dc.lft.to/lastmile_qr_scan", "ios": "https://dc.lft.to/lastmile_qr_scan"}, "is_reserved": 0, "name": "17c826dc7c7b4133814f1a774f2f3397", "lon": -77.00748016666667, "type": "electric_scooter", "bike_id": "17c826dc7c7b4133814f1a774f2f3397", "fusion_lon": 0.0, "lat": 38.903656166666664, "fusion_lat": 0.0}, {"is_disabled": 0, "rental_uris": {"android": "https://dc.lft.to/lastmile_qr_scan", "ios": "https://dc.lft.to/lastmile_qr_scan"}, "is_reserved": 0, "name": "01f81b278823c6e9d65f20e8579cd919", "lon": -77.0426105, "type": "electric_scooter", "bike_id": "01f81b278823c6e9d65f20e8579cd919", "fusion_lon": 0.0, "lat": 38.9076795, "fusion_lat": 0.0}, {"is_disabled": 0, "rental_uris": {"android": "https://dc.lft.to/lastmile_qr_scan", "ios": "https://dc.lft.to/lastmile_qr_scan"}, "is_reserved": 0, "name": "6a39b298247c6dd1708383e40990b052", "lon": -76.99869583333333, "type": "electric_scooter", "bike_id": "6a39b298247c6dd1708383e40990b052", "fusion_lon": 0.0, "lat": 38.900315166666665, "fusion_lat": 0.0}, {"is_disabled": 0, "rental_uris": {"android": "https://dc.lft.to/lastmile_qr_scan", "ios": "https://dc.lft.to/lastmile_qr_scan"}, "is_reserved": 0, "name": "ead48b5153ade2916f8bcb68a7f4ce67", "lon": -76.98319333333333, "type": "electric_bike", "bike_id": "ead48b5153ade2916f8bcb68a7f4ce67", "fusion_lon": 0.0, "lat": 38.922545166666666, "fusion_lat": 0.0}, {"is_disabled": 0, "rental_uris": {"android": "https://dc.lft.to/lastmile_qr_scan", "ios": "https://dc.lft.to/lastmile_qr_scan"}, "is_reserved": 0, "name": "6b213596df4b91b7e03f1bf17c66273c", "lon": -77.03307066666666, "type": "electric_scooter", "bike_id": "6b213596df4b91b7e03f1bf17c66273c", "fusion_lon": 0.0, "lat": 38.91827683333333, "fusion_lat": 0.0}, {"is_disabled": 0, "rental_uris": {"android": "https://dc.lft.to/lastmile_qr_scan", "ios": "https://dc.lft.to/lastmile_qr_scan"}, "is_reserved": 0, "name": "1e1fb1efd3d3030a131fd3f2828c52b5", "lon": -77.0521125, "type": "electric_scooter", "bike_id": "1e1fb1efd3d3030a131fd3f2828c52b5", "fusion_lon": 0.0, "lat": 38.92479, "fusion_lat": 0.0}, {"is_disabled": 0, "rental_uris": {"android": "https://dc.lft.to/lastmile_qr_scan", "ios": "https://dc.lft.to/lastmile_qr_scan"}, "is_reserved": 0, "name": "d4513ca9a481960fc3d8c081f7db5ecd", "lon": -77.03855666666666, "type": "electric_scooter", "bike_id": "d4513ca9a481960fc3d8c081f7db5ecd", "fusion_lon": 0.0, "lat": 38.93204183333334, "fusion_lat": 0.0}, {"is_disabled": 0, "rental_uris": {"android": "https://dc.lft.to/lastmile_qr_scan", "ios": "https://dc.lft.to/lastmile_qr_scan"}, "is_reserved": 0, "name": "05a3928249261509ea5a7f8bf8cfd0f1", "lon": -76.94632466666667, "type": "electric_scooter", "bike_id": "05a3928249261509ea5a7f8bf8cfd0f1", "fusion_lon": 0.0, "lat": 38.89833333333333, "fusion_lat": 0.0}, {"is_disabled": 0, "rental_uris": {"android": "https://dc.lft.to/lastmile_qr_scan", "ios": "https://dc.lft.to/lastmile_qr_scan"}, "is_reserved": 0, "name": "a117087bce50c272b74683d523a0d634", "lon": -77.03256, "type": "electric_scooter", "bike_id": "a117087bce50c272b74683d523a0d634", "fusion_lon": 0.0, "lat": 38.937, "fusion_lat": 0.0}, {"is_disabled": 0, "rental_uris": {"android": "https://dc.lft.to/lastmile_qr_scan", "ios": "https://dc.lft.to/lastmile_qr_scan"}, "is_reserved": 0, "name": "8315fdef50477a261666bfd278796f27", "lon": -77.05007416666666, "type": "electric_scooter", "bike_id": "8315fdef50477a261666bfd278796f27", "fusion_lon": 0.0, "lat": 38.905211333333334, "fusion_lat": 0.0}, {"is_disabled": 0, "rental_uris": {"android": "https://dc.lft.to/lastmile_qr_scan", "ios": "https://dc.lft.to/lastmile_qr_scan"}, "is_reserved": 0, "name": "e2af5cfdd22112af84c4303916f2a535", "lon": -77.0593245, "type": "electric_scooter", "bike_id": "e2af5cfdd22112af84c4303916f2a535", "fusion_lon": 0.0, "lat": 38.936778333333336, "fusion_lat": 0.0}, {"is_disabled": 0, "rental_uris": {"android": "https://dc.lft.to/lastmile_qr_scan", "ios": "https://dc.lft.to/lastmile_qr_scan"}, "is_reserved": 0, "name": "64008c8756a286335e881284aaeab501", "lon": -76.998502, "type": "electric_scooter", "bike_id": "64008c8756a286335e881284aaeab501", "fusion_lon": 0.0, "lat": 38.9088835, "fusion_lat": 0.0}, {"is_disabled": 0, "rental_uris": {"android": "https://dc.lft.to/lastmile_qr_scan", "ios": "https://dc.lft.to/lastmile_qr_scan"}, "is_reserved": 0, "name": "4a6bbfb9a5b5ce63162ba1ee64d29df1", "lon": -77.0305725, "type": "electric_scooter", "bike_id": "4a6bbfb9a5b5ce63162ba1ee64d29df1", "fusion_lon": 0.0, "lat": 38.923738166666666, "fusion_lat": 0.0}, {"is_disabled": 0, "rental_uris": {"android": "https://dc.lft.to/lastmile_qr_scan", "ios": "https://dc.lft.to/lastmile_qr_scan"}, "is_reserved": 0, "name": "e388c6446fa35f1a31eec6262d92b63d", "lon": -77.03265733333333, "type": "electric_scooter", "bike_id": "e388c6446fa35f1a31eec6262d92b63d", "fusion_lon": 0.0, "lat": 38.933283833333334, "fusion_lat": 0.0}, {"is_disabled": 0, "rental_uris": {"android": "https://dc.lft.to/lastmile_qr_scan", "ios": "https://dc.lft.to/lastmile_qr_scan"}, "is_reserved": 0, "name": "8c642d9ae070fd15a73a8355f3c446c2", "lon": -77.01655633333333, "type": "electric_bike", "bike_id": "8c642d9ae070fd15a73a8355f3c446c2", "fusion_lon": 0.0, "lat": 38.954352, "fusion_lat": 0.0}, {"is_disabled": 0, "rental_uris": {"android": "https://dc.lft.to/lastmile_qr_scan", "ios": "https://dc.lft.to/lastmile_qr_scan"}, "is_reserved": 0, "name": "3bd9c7d91f37990af63db0a177fa1ce7", "lon": -76.98708366666666, "type": "electric_scooter", "bike_id": "3bd9c7d91f37990af63db0a177fa1ce7", "fusion_lon": 0.0, "lat": 38.866972833333335, "fusion_lat": 0.0}, {"is_disabled": 0, "rental_uris": {"android": "https://dc.lft.to/lastmile_qr_scan", "ios": "https://dc.lft.to/lastmile_qr_scan"}, "is_reserved": 0, "name": "e558a95ab5bbb3440af9e4a462db61f1", "lon": -77.0060025, "type": "electric_scooter", "bike_id": "e558a95ab5bbb3440af9e4a462db61f1", "fusion_lon": 0.0, "lat": 38.905706, "fusion_lat": 0.0}, {"is_disabled": 0, "rental_uris": {"android": "https://dc.lft.to/lastmile_qr_scan", "ios": "https://dc.lft.to/lastmile_qr_scan"}, "is_reserved": 0, "name": "2f4c6114b5d6a33caebbe1c16e08ee56", "lon": -77.02691983333334, "type": "electric_scooter", "bike_id": "2f4c6114b5d6a33caebbe1c16e08ee56", "fusion_lon": 0.0, "lat": 38.907331, "fusion_lat": 0.0}, {"is_disabled": 0, "rental_uris": {"android": "https://dc.lft.to/lastmile_qr_scan", "ios": "https://dc.lft.to/lastmile_qr_scan"}, "is_reserved": 0, "name": "349d25941025d70a194bf93222ab252f", "lon": -77.00920283333333, "type": "electric_scooter", "bike_id": "349d25941025d70a194bf93222ab252f", "fusion_lon": 0.0, "lat": 38.89785083333334, "fusion_lat": 0.0}, {"is_disabled": 0, "rental_uris": {"android": "https://dc.lft.to/lastmile_qr_scan", "ios": "https://dc.lft.to/lastmile_qr_scan"}, "is_reserved": 0, "name": "12f201e043fd4c9e7ccdd464e97c3112", "lon": -77.04205383333333, "type": "electric_scooter", "bike_id": "12f201e043fd4c9e7ccdd464e97c3112", "fusion_lon": 0.0, "lat": 38.929658, "fusion_lat": 0.0}, {"is_disabled": 0, "rental_uris": {"android": "https://dc.lft.to/lastmile_qr_scan", "ios": "https://dc.lft.to/lastmile_qr_scan"}, "is_reserved": 0, "name": "6e00567218d107ebcd49093a673c321e", "lon": -77.02260133333333, "type": "electric_scooter", "bike_id": "6e00567218d107ebcd49093a673c321e", "fusion_lon": 0.0, "lat": 38.927432, "fusion_lat": 0.0}, {"is_disabled": 0, "rental_uris": {"android": "https://dc.lft.to/lastmile_qr_scan", "ios": "https://dc.lft.to/lastmile_qr_scan"}, "is_reserved": 0, "name": "2e0dc0866053bc7ca0f990e6a062136d", "lon": -77.0415485, "type": "electric_scooter", "bike_id": "2e0dc0866053bc7ca0f990e6a062136d", "fusion_lon": 0.0, "lat": 38.9102645, "fusion_lat": 0.0}, {"is_disabled": 0, "rental_uris": {"android": "https://dc.lft.to/lastmile_qr_scan", "ios": "https://dc.lft.to/lastmile_qr_scan"}, "is_reserved": 0, "name": "512b81dbf333d6d6e09daefcedfe25cf", "lon": -77.0525295, "type": "electric_scooter", "bike_id": "512b81dbf333d6d6e09daefcedfe25cf", "fusion_lon": 0.0, "lat": 38.92735416666667, "fusion_lat": 0.0}, {"is_disabled": 0, "rental_uris": {"android": "https://dc.lft.to/lastmile_qr_scan", "ios": "https://dc.lft.to/lastmile_qr_scan"}, "is_reserved": 0, "name": "23fe6ce609f3fcecb342e52b0385e253", "lon": -77.052886, "type": "electric_scooter", "bike_id": "23fe6ce609f3fcecb342e52b0385e253", "fusion_lon": 0.0, "lat": 38.90340483333333, "fusion_lat": 0.0}, {"is_disabled": 0, "rental_uris": {"android": "https://dc.lft.to/lastmile_qr_scan", "ios": "https://dc.lft.to/lastmile_qr_scan"}, "is_reserved": 0, "name": "61d2f77736f2d71ec5eea06fff21054b", "lon": -77.072904, "type": "electric_scooter", "bike_id": "61d2f77736f2d71ec5eea06fff21054b", "fusion_lon": 0.0, "lat": 38.92281783333333, "fusion_lat": 0.0}, {"is_disabled": 0, "rental_uris": {"android": "https://dc.lft.to/lastmile_qr_scan", "ios": "https://dc.lft.to/lastmile_qr_scan"}, "is_reserved": 0, "name": "ace6fdf8a0e57d9c67008e62c6cf1688", "lon": -77.02382783333333, "type": "electric_scooter", "bike_id": "ace6fdf8a0e57d9c67008e62c6cf1688", "fusion_lon": 0.0, "lat": 38.905709333333334, "fusion_lat": 0.0}, {"is_disabled": 0, "rental_uris": {"android": "https://dc.lft.to/lastmile_qr_scan", "ios": "https://dc.lft.to/lastmile_qr_scan"}, "is_reserved": 0, "name": "89c3ada77462462c10453f58b4e6a4f1", "lon": -77.11227183333334, "type": "electric_bike", "bike_id": "89c3ada77462462c10453f58b4e6a4f1", "fusion_lon": 0.0, "lat": 38.82863616666667, "fusion_lat": 0.0}, {"is_disabled": 0, "rental_uris": {"android": "https://dc.lft.to/lastmile_qr_scan", "ios": "https://dc.lft.to/lastmile_qr_scan"}, "is_reserved": 0, "name": "f41814beb05bfa71ec9d0501f356600c", "lon": -77.01218116666666, "type": "electric_scooter", "bike_id": "f41814beb05bfa71ec9d0501f356600c", "fusion_lon": 0.0, "lat": 38.9102275, "fusion_lat": 0.0}, {"is_disabled": 0, "rental_uris": {"android": "https://dc.lft.to/lastmile_qr_scan", "ios": "https://dc.lft.to/lastmile_qr_scan"}, "is_reserved": 0, "name": "cae449927dd1e5300d0d1d591d86d2d2", "lon": -77.02846033333333, "type": "electric_scooter", "bike_id": "cae449927dd1e5300d0d1d591d86d2d2", "fusion_lon": 0.0, "lat": 38.917116, "fusion_lat": 0.0}, {"is_disabled": 0, "rental_uris": {"android": "https://dc.lft.to/lastmile_qr_scan", "ios": "https://dc.lft.to/lastmile_qr_scan"}, "is_reserved": 0, "name": "229ae72cfe8018c17a837ec6af73b489", "lon": -77.03994566666667, "type": "electric_scooter", "bike_id": "229ae72cfe8018c17a837ec6af73b489", "fusion_lon": 0.0, "lat": 38.902410333333336, "fusion_lat": 0.0}, {"is_disabled": 0, "rental_uris": {"android": "https://dc.lft.to/lastmile_qr_scan", "ios": "https://dc.lft.to/lastmile_qr_scan"}, "is_reserved": 0, "name": "3ae9089b26ae87c3961d68676206066d", "lon": -77.03832233333333, "type": "electric_scooter", "bike_id": "3ae9089b26ae87c3961d68676206066d", "fusion_lon": 0.0, "lat": 38.90858166666666, "fusion_lat": 0.0}, {"is_disabled": 0, "rental_uris": {"android": "https://dc.lft.to/lastmile_qr_scan", "ios": "https://dc.lft.to/lastmile_qr_scan"}, "is_reserved": 0, "name": "37cb328a4e1ffd86f78eafec43015b6a", "lon": -77.05035916666667, "type": "electric_scooter", "bike_id": "37cb328a4e1ffd86f78eafec43015b6a", "fusion_lon": 0.0, "lat": 38.90414083333334, "fusion_lat": 0.0}, {"is_disabled": 0, "rental_uris": {"android": "https://dc.lft.to/lastmile_qr_scan", "ios": "https://dc.lft.to/lastmile_qr_scan"}, "is_reserved": 0, "name": "49b08105fbac8cf2b79c990d55e16ce7", "lon": -77.03806716666666, "type": "electric_scooter", "bike_id": "49b08105fbac8cf2b79c990d55e16ce7", "fusion_lon": 0.0, "lat": 38.90977733333333, "fusion_lat": 0.0}, {"is_disabled": 0, "rental_uris": {"android": "https://dc.lft.to/lastmile_qr_scan", "ios": "https://dc.lft.to/lastmile_qr_scan"}, "is_reserved": 0, "name": "b938db493b0d911ed0c5c091a5fd6392", "lon": -76.87496616666667, "type": "electric_bike", "bike_id": "b938db493b0d911ed0c5c091a5fd6392", "fusion_lon": 0.0, "lat": 38.99089466666667, "fusion_lat": 0.0}, {"is_disabled": 0, "rental_uris": {"android": "https://dc.lft.to/lastmile_qr_scan", "ios": "https://dc.lft.to/lastmile_qr_scan"}, "is_reserved": 0, "name": "5589fd8ea69c18bab94529bee4aee3e6", "lon": -77.01899616666667, "type": "electric_scooter", "bike_id": "5589fd8ea69c18bab94529bee4aee3e6", "fusion_lon": 0.0, "lat": 38.90358616666666, "fusion_lat": 0.0}, {"is_disabled": 0, "rental_uris": {"android": "https://dc.lft.to/lastmile_qr_scan", "ios": "https://dc.lft.to/lastmile_qr_scan"}, "is_reserved": 0, "name": "98ffcbcb6cc9a32a28911a7a9e6fa8a8", "lon": -77.05060266666666, "type": "electric_scooter", "bike_id": "98ffcbcb6cc9a32a28911a7a9e6fa8a8", "fusion_lon": 0.0, "lat": 38.91635766666667, "fusion_lat": 0.0}, {"is_disabled": 0, "rental_uris": {"android": "https://dc.lft.to/lastmile_qr_scan", "ios": "https://dc.lft.to/lastmile_qr_scan"}, "is_reserved": 0, "name": "de578f2fb2e045cd45b8255e1f0b04fd", "lon": -77.03466433333334, "type": "electric_scooter", "bike_id": "de578f2fb2e045cd45b8255e1f0b04fd", "fusion_lon": 0.0, "lat": 38.90748216666667, "fusion_lat": 0.0}, {"is_disabled": 0, "rental_uris": {"android": "https://dc.lft.to/lastmile_qr_scan", "ios": "https://dc.lft.to/lastmile_qr_scan"}, "is_reserved": 0, "name": "e238a7559b59b4b46fcf2cf4ee201317", "lon": -77.04360616666666, "type": "electric_scooter", "bike_id": "e238a7559b59b4b46fcf2cf4ee201317", "fusion_lon": 0.0, "lat": 38.92246766666667, "fusion_lat": 0.0}, {"is_disabled": 0, "rental_uris": {"android": "https://dc.lft.to/lastmile_qr_scan", "ios": "https://dc.lft.to/lastmile_qr_scan"}, "is_reserved": 0, "name": "a4a680f9f4339962b86bd86258146421", "lon": -77.02835916666666, "type": "electric_scooter", "bike_id": "a4a680f9f4339962b86bd86258146421", "fusion_lon": 0.0, "lat": 38.931916, "fusion_lat": 0.0}, {"is_disabled": 0, "rental_uris": {"android": "https://dc.lft.to/lastmile_qr_scan", "ios": "https://dc.lft.to/lastmile_qr_scan"}, "is_reserved": 0, "name": "2a905904a9a73e135e59c43a52be22b6", "lon": -77.03347983333333, "type": "electric_scooter", "bike_id": "2a905904a9a73e135e59c43a52be22b6", "fusion_lon": 0.0, "lat": 38.89233333333333, "fusion_lat": 0.0}, {"is_disabled": 0, "rental_uris": {"android": "https://dc.lft.to/lastmile_qr_scan", "ios": "https://dc.lft.to/lastmile_qr_scan"}, "is_reserved": 0, "name": "775772c67744ebe8ee54b2cbb405c923", "lon": -76.98578533333334, "type": "electric_scooter", "bike_id": "775772c67744ebe8ee54b2cbb405c923", "fusion_lon": 0.0, "lat": 38.910342166666666, "fusion_lat": 0.0}, {"is_disabled": 0, "rental_uris": {"android": "https://dc.lft.to/lastmile_qr_scan", "ios": "https://dc.lft.to/lastmile_qr_scan"}, "is_reserved": 0, "name": "3ad2647dde3e94f5e207b64e808329b1", "lon": -77.011867, "type": "electric_scooter", "bike_id": "3ad2647dde3e94f5e207b64e808329b1", "fusion_lon": 0.0, "lat": 38.900295666666665, "fusion_lat": 0.0}, {"is_disabled": 0, "rental_uris": {"android": "https://dc.lft.to/lastmile_qr_scan", "ios": "https://dc.lft.to/lastmile_qr_scan"}, "is_reserved": 0, "name": "a6509680fd21cc8a7034f24516b8181f", "lon": -77.04028283333334, "type": "electric_scooter", "bike_id": "a6509680fd21cc8a7034f24516b8181f", "fusion_lon": 0.0, "lat": 38.9170775, "fusion_lat": 0.0}, {"is_disabled": 0, "rental_uris": {"android": "https://dc.lft.to/lastmile_qr_scan", "ios": "https://dc.lft.to/lastmile_qr_scan"}, "is_reserved": 0, "name": "9003b9f4e8f5abea75bd3965f199e7a7", "lon": -77.0377135, "type": "electric_bike", "bike_id": "9003b9f4e8f5abea75bd3965f199e7a7", "fusion_lon": 0.0, "lat": 38.9294475, "fusion_lat": 0.0}, {"is_disabled": 0, "rental_uris": {"android": "https://dc.lft.to/lastmile_qr_scan", "ios": "https://dc.lft.to/lastmile_qr_scan"}, "is_reserved": 0, "name": "29505a71cd1ad7dae2f424ce9fdf9cb8", "lon": -77.04526283333334, "type": "electric_scooter", "bike_id": "29505a71cd1ad7dae2f424ce9fdf9cb8", "fusion_lon": 0.0, "lat": 38.90657216666666, "fusion_lat": 0.0}, {"is_disabled": 0, "rental_uris": {"android": "https://dc.lft.to/lastmile_qr_scan", "ios": "https://dc.lft.to/lastmile_qr_scan"}, "is_reserved": 0, "name": "faab851c7fad91093b2dcfc18a64233d", "lon": -76.99570516666667, "type": "electric_bike", "bike_id": "faab851c7fad91093b2dcfc18a64233d", "fusion_lon": 0.0, "lat": 39.007831833333334, "fusion_lat": 0.0}, {"is_disabled": 0, "rental_uris": {"android": "https://dc.lft.to/lastmile_qr_scan", "ios": "https://dc.lft.to/lastmile_qr_scan"}, "is_reserved": 0, "name": "4c2c98dfa2827b1c42778677f0a8bd97", "lon": -77.0215235, "type": "electric_scooter", "bike_id": "4c2c98dfa2827b1c42778677f0a8bd97", "fusion_lon": 0.0, "lat": 38.926034666666666, "fusion_lat": 0.0}, {"is_disabled": 0, "rental_uris": {"android": "https://dc.lft.to/lastmile_qr_scan", "ios": "https://dc.lft.to/lastmile_qr_scan"}, "is_reserved": 0, "name": "cd0a9ca90819c572f51fea143ee84eaf", "lon": -77.0222785, "type": "electric_scooter", "bike_id": "cd0a9ca90819c572f51fea143ee84eaf", "fusion_lon": 0.0, "lat": 38.90561066666667, "fusion_lat": 0.0}, {"is_disabled": 0, "rental_uris": {"android": "https://dc.lft.to/lastmile_qr_scan", "ios": "https://dc.lft.to/lastmile_qr_scan"}, "is_reserved": 0, "name": "588f250b03c37a6d8f5ed70a8fc34225", "lon": -77.02265783333333, "type": "electric_scooter", "bike_id": "588f250b03c37a6d8f5ed70a8fc34225", "fusion_lon": 0.0, "lat": 38.927381, "fusion_lat": 0.0}, {"is_disabled": 0, "rental_uris": {"android": "https://dc.lft.to/lastmile_qr_scan", "ios": "https://dc.lft.to/lastmile_qr_scan"}, "is_reserved": 0, "name": "fc08781bd766d0109e91f96b0ec18bbc", "lon": -76.987113, "type": "electric_scooter", "bike_id": "fc08781bd766d0109e91f96b0ec18bbc", "fusion_lon": 0.0, "lat": 38.86699133333333, "fusion_lat": 0.0}, {"is_disabled": 0, "rental_uris": {"android": "https://dc.lft.to/lastmile_qr_scan", "ios": "https://dc.lft.to/lastmile_qr_scan"}, "is_reserved": 0, "name": "c405fcaeb56ea812c7514a6bae468574", "lon": -76.988702, "type": "electric_scooter", "bike_id": "c405fcaeb56ea812c7514a6bae468574", "fusion_lon": 0.0, "lat": 38.89209433333333, "fusion_lat": 0.0}, {"is_disabled": 0, "rental_uris": {"android": "https://dc.lft.to/lastmile_qr_scan", "ios": "https://dc.lft.to/lastmile_qr_scan"}, "is_reserved": 0, "name": "6adfa2e1785e76785b4c038958811e75", "lon": -77.0266315, "type": "electric_scooter", "bike_id": "6adfa2e1785e76785b4c038958811e75", "fusion_lon": 0.0, "lat": 38.89618933333333, "fusion_lat": 0.0}, {"is_disabled": 0, "rental_uris": {"android": "https://dc.lft.to/lastmile_qr_scan", "ios": "https://dc.lft.to/lastmile_qr_scan"}, "is_reserved": 0, "name": "703e91da1583dcf8e91c52b9efdaac8c", "lon": -77.03212933333333, "type": "electric_scooter", "bike_id": "703e91da1583dcf8e91c52b9efdaac8c", "fusion_lon": 0.0, "lat": 38.925797333333335, "fusion_lat": 0.0}, {"is_disabled": 0, "rental_uris": {"android": "https://dc.lft.to/lastmile_qr_scan", "ios": "https://dc.lft.to/lastmile_qr_scan"}, "is_reserved": 0, "name": "e4c4e06fab428e61810b65c137119ac8", "lon": -77.02960883333333, "type": "electric_scooter", "bike_id": "e4c4e06fab428e61810b65c137119ac8", "fusion_lon": 0.0, "lat": 38.917708166666664, "fusion_lat": 0.0}, {"is_disabled": 0, "rental_uris": {"android": "https://dc.lft.to/lastmile_qr_scan", "ios": "https://dc.lft.to/lastmile_qr_scan"}, "is_reserved": 0, "name": "ce42155a11686cd19e67466f0ececbed", "lon": -77.01233, "type": "electric_scooter", "bike_id": "ce42155a11686cd19e67466f0ececbed", "fusion_lon": 0.0, "lat": 38.874752, "fusion_lat": 0.0}, {"is_disabled": 0, "rental_uris": {"android": "https://dc.lft.to/lastmile_qr_scan", "ios": "https://dc.lft.to/lastmile_qr_scan"}, "is_reserved": 0, "name": "e2d3de5ddc122bc65e2fa5ab0a379527", "lon": -77.02211183333333, "type": "electric_scooter", "bike_id": "e2d3de5ddc122bc65e2fa5ab0a379527", "fusion_lon": 0.0, "lat": 38.915502833333335, "fusion_lat": 0.0}, {"is_disabled": 0, "rental_uris": {"android": "https://dc.lft.to/lastmile_qr_scan", "ios": "https://dc.lft.to/lastmile_qr_scan"}, "is_reserved": 0, "name": "cc9ba604c387235a990f6bbe0607a44a", "lon": -77.017621, "type": "electric_scooter", "bike_id": "cc9ba604c387235a990f6bbe0607a44a", "fusion_lon": 0.0, "lat": 38.872250666666666, "fusion_lat": 0.0}, {"is_disabled": 0, "rental_uris": {"android": "https://dc.lft.to/lastmile_qr_scan", "ios": "https://dc.lft.to/lastmile_qr_scan"}, "is_reserved": 0, "name": "a987471eec44e7cddf273968d2746e4f", "lon": -77.02397283333333, "type": "electric_scooter", "bike_id": "a987471eec44e7cddf273968d2746e4f", "fusion_lon": 0.0, "lat": 38.92015383333333, "fusion_lat": 0.0}, {"is_disabled": 0, "rental_uris": {"android": "https://dc.lft.to/lastmile_qr_scan", "ios": "https://dc.lft.to/lastmile_qr_scan"}, "is_reserved": 0, "name": "e45d92e17389ab0984b83a2fc33075da", "lon": -77.0271475, "type": "electric_scooter", "bike_id": "e45d92e17389ab0984b83a2fc33075da", "fusion_lon": 0.0, "lat": 38.919649666666665, "fusion_lat": 0.0}, {"is_disabled": 0, "rental_uris": {"android": "https://dc.lft.to/lastmile_qr_scan", "ios": "https://dc.lft.to/lastmile_qr_scan"}, "is_reserved": 0, "name": "bd22fe681626a277ef9d482bf31dff01", "lon": -77.02466933333334, "type": "electric_scooter", "bike_id": "bd22fe681626a277ef9d482bf31dff01", "fusion_lon": 0.0, "lat": 38.9377005, "fusion_lat": 0.0}, {"is_disabled": 0, "rental_uris": {"android": "https://dc.lft.to/lastmile_qr_scan", "ios": "https://dc.lft.to/lastmile_qr_scan"}, "is_reserved": 0, "name": "cc24f04ca2e73da936d24660dd024002", "lon": -76.946371, "type": "electric_scooter", "bike_id": "cc24f04ca2e73da936d24660dd024002", "fusion_lon": 0.0, "lat": 38.89844133333333, "fusion_lat": 0.0}, {"is_disabled": 0, "rental_uris": {"android": "https://dc.lft.to/lastmile_qr_scan", "ios": "https://dc.lft.to/lastmile_qr_scan"}, "is_reserved": 0, "name": "07d322d6814b7065b24a265b1a095d30", "lon": -77.02794833333333, "type": "electric_scooter", "bike_id": "07d322d6814b7065b24a265b1a095d30", "fusion_lon": 0.0, "lat": 38.903958, "fusion_lat": 0.0}, {"is_disabled": 0, "rental_uris": {"android": "https://dc.lft.to/lastmile_qr_scan", "ios": "https://dc.lft.to/lastmile_qr_scan"}, "is_reserved": 0, "name": "f7eb46ecb84d812fc6af04586813b98c", "lon": -77.046126, "type": "electric_scooter", "bike_id": "f7eb46ecb84d812fc6af04586813b98c", "fusion_lon": 0.0, "lat": 38.899742833333335, "fusion_lat": 0.0}, {"is_disabled": 0, "rental_uris": {"android": "https://dc.lft.to/lastmile_qr_scan", "ios": "https://dc.lft.to/lastmile_qr_scan"}, "is_reserved": 0, "name": "9bb70f4464eedb96453e1ef87fb47490", "lon": -76.995353, "type": "electric_scooter", "bike_id": "9bb70f4464eedb96453e1ef87fb47490", "fusion_lon": 0.0, "lat": 38.862547666666664, "fusion_lat": 0.0}, {"is_disabled": 0, "rental_uris": {"android": "https://dc.lft.to/lastmile_qr_scan", "ios": "https://dc.lft.to/lastmile_qr_scan"}, "is_reserved": 0, "name": "f488372b1d7f8c6ec78171557302ee2a", "lon": -77.04869283333333, "type": "electric_scooter", "bike_id": "f488372b1d7f8c6ec78171557302ee2a", "fusion_lon": 0.0, "lat": 38.909464166666666, "fusion_lat": 0.0}, {"is_disabled": 0, "rental_uris": {"android": "https://dc.lft.to/lastmile_qr_scan", "ios": "https://dc.lft.to/lastmile_qr_scan"}, "is_reserved": 0, "name": "4d37b8b23d8753c9c3ac5638d09eed64", "lon": -77.04195933333334, "type": "electric_scooter", "bike_id": "4d37b8b23d8753c9c3ac5638d09eed64", "fusion_lon": 0.0, "lat": 38.90800633333333, "fusion_lat": 0.0}, {"is_disabled": 0, "rental_uris": {"android": "https://dc.lft.to/lastmile_qr_scan", "ios": "https://dc.lft.to/lastmile_qr_scan"}, "is_reserved": 0, "name": "e80d91c7368be6a5c122f46c5c56dc69", "lon": -77.020916, "type": "electric_scooter", "bike_id": "e80d91c7368be6a5c122f46c5c56dc69", "fusion_lon": 0.0, "lat": 38.93476716666667, "fusion_lat": 0.0}, {"is_disabled": 0, "rental_uris": {"android": "https://dc.lft.to/lastmile_qr_scan", "ios": "https://dc.lft.to/lastmile_qr_scan"}, "is_reserved": 0, "name": "bf550ddd29089675cb892779d85eb247", "lon": -77.124045, "type": "electric_bike", "bike_id": "bf550ddd29089675cb892779d85eb247", "fusion_lon": 0.0, "lat": 38.893348833333334, "fusion_lat": 0.0}, {"is_disabled": 0, "rental_uris": {"android": "https://dc.lft.to/lastmile_qr_scan", "ios": "https://dc.lft.to/lastmile_qr_scan"}, "is_reserved": 0, "name": "7d8b17be25710b8b062eb502a1f332cd", "lon": -77.01376, "type": "electric_scooter", "bike_id": "7d8b17be25710b8b062eb502a1f332cd", "fusion_lon": 0.0, "lat": 38.910344, "fusion_lat": 0.0}, {"is_disabled": 0, "rental_uris": {"android": "https://dc.lft.to/lastmile_qr_scan", "ios": "https://dc.lft.to/lastmile_qr_scan"}, "is_reserved": 0, "name": "03a1925dd8e8b4d44dc15ec2604a27ff", "lon": -77.02710583333334, "type": "electric_scooter", "bike_id": "03a1925dd8e8b4d44dc15ec2604a27ff", "fusion_lon": 0.0, "lat": 38.9182735, "fusion_lat": 0.0}, {"is_disabled": 0, "rental_uris": {"android": "https://dc.lft.to/lastmile_qr_scan", "ios": "https://dc.lft.to/lastmile_qr_scan"}, "is_reserved": 0, "name": "c15eb8396a7c4ff7d7769116c9307044", "lon": -77.03827616666666, "type": "electric_scooter", "bike_id": "c15eb8396a7c4ff7d7769116c9307044", "fusion_lon": 0.0, "lat": 38.9110955, "fusion_lat": 0.0}, {"is_disabled": 0, "rental_uris": {"android": "https://dc.lft.to/lastmile_qr_scan", "ios": "https://dc.lft.to/lastmile_qr_scan"}, "is_reserved": 0, "name": "5c3f32435c79d0f9fbbe3d580735bff2", "lon": -77.0319925, "type": "electric_scooter", "bike_id": "5c3f32435c79d0f9fbbe3d580735bff2", "fusion_lon": 0.0, "lat": 38.91803266666667, "fusion_lat": 0.0}, {"is_disabled": 0, "rental_uris": {"android": "https://dc.lft.to/lastmile_qr_scan", "ios": "https://dc.lft.to/lastmile_qr_scan"}, "is_reserved": 0, "name": "7ddf30a0f7468a414c0ddad64546f840", "lon": -77.00197283333334, "type": "electric_scooter", "bike_id": "7ddf30a0f7468a414c0ddad64546f840", "fusion_lon": 0.0, "lat": 38.91638733333333, "fusion_lat": 0.0}, {"is_disabled": 0, "rental_uris": {"android": "https://dc.lft.to/lastmile_qr_scan", "ios": "https://dc.lft.to/lastmile_qr_scan"}, "is_reserved": 0, "name": "5de99931722013cd4a1c7b3048e6c769", "lon": -77.01503283333334, "type": "electric_scooter", "bike_id": "5de99931722013cd4a1c7b3048e6c769", "fusion_lon": 0.0, "lat": 38.902664333333334, "fusion_lat": 0.0}, {"is_disabled": 0, "rental_uris": {"android": "https://dc.lft.to/lastmile_qr_scan", "ios": "https://dc.lft.to/lastmile_qr_scan"}, "is_reserved": 0, "name": "04667f7b2bd95f4c88f132b383ae4f6c", "lon": -77.01179883333333, "type": "electric_scooter", "bike_id": "04667f7b2bd95f4c88f132b383ae4f6c", "fusion_lon": 0.0, "lat": 38.870819, "fusion_lat": 0.0}, {"is_disabled": 0, "rental_uris": {"android": "https://dc.lft.to/lastmile_qr_scan", "ios": "https://dc.lft.to/lastmile_qr_scan"}, "is_reserved": 0, "name": "20d87456dbbaa95655dd413b7d1f7da2", "lon": -77.02524783333334, "type": "electric_scooter", "bike_id": "20d87456dbbaa95655dd413b7d1f7da2", "fusion_lon": 0.0, "lat": 38.97574566666667, "fusion_lat": 0.0}, {"is_disabled": 0, "rental_uris": {"android": "https://dc.lft.to/lastmile_qr_scan", "ios": "https://dc.lft.to/lastmile_qr_scan"}, "is_reserved": 0, "name": "986115ac632d564bead5ec8f84ebaa64", "lon": -77.035844, "type": "electric_scooter", "bike_id": "986115ac632d564bead5ec8f84ebaa64", "fusion_lon": 0.0, "lat": 38.907638, "fusion_lat": 0.0}, {"is_disabled": 0, "rental_uris": {"android": "https://dc.lft.to/lastmile_qr_scan", "ios": "https://dc.lft.to/lastmile_qr_scan"}, "is_reserved": 0, "name": "b80615b5b4e32b3b9f62e49a202916a6", "lon": -76.98799166666667, "type": "electric_scooter", "bike_id": "b80615b5b4e32b3b9f62e49a202916a6", "fusion_lon": 0.0, "lat": 38.892077, "fusion_lat": 0.0}, {"is_disabled": 0, "rental_uris": {"android": "https://dc.lft.to/lastmile_qr_scan", "ios": "https://dc.lft.to/lastmile_qr_scan"}, "is_reserved": 0, "name": "4905c893ae0562049f9f66239be04e7b", "lon": -77.06352866666667, "type": "electric_scooter", "bike_id": "4905c893ae0562049f9f66239be04e7b", "fusion_lon": 0.0, "lat": 38.9444015, "fusion_lat": 0.0}, {"is_disabled": 0, "rental_uris": {"android": "https://dc.lft.to/lastmile_qr_scan", "ios": "https://dc.lft.to/lastmile_qr_scan"}, "is_reserved": 0, "name": "0651a9a1f3c075666037d3b821c41174", "lon": -77.032623, "type": "electric_scooter", "bike_id": "0651a9a1f3c075666037d3b821c41174", "fusion_lon": 0.0, "lat": 38.93732833333333, "fusion_lat": 0.0}, {"is_disabled": 0, "rental_uris": {"android": "https://dc.lft.to/lastmile_qr_scan", "ios": "https://dc.lft.to/lastmile_qr_scan"}, "is_reserved": 0, "name": "459b56637bf19fb8cee5ec92bbb73a03", "lon": -76.933848, "type": "electric_scooter", "bike_id": "459b56637bf19fb8cee5ec92bbb73a03", "fusion_lon": 0.0, "lat": 38.899113, "fusion_lat": 0.0}, {"is_disabled": 0, "rental_uris": {"android": "https://dc.lft.to/lastmile_qr_scan", "ios": "https://dc.lft.to/lastmile_qr_scan"}, "is_reserved": 0, "name": "29f2b64b29dc94190497f8d282014df2", "lon": -77.02489583333333, "type": "electric_scooter", "bike_id": "29f2b64b29dc94190497f8d282014df2", "fusion_lon": 0.0, "lat": 38.90263433333333, "fusion_lat": 0.0}, {"is_disabled": 0, "rental_uris": {"android": "https://dc.lft.to/lastmile_qr_scan", "ios": "https://dc.lft.to/lastmile_qr_scan"}, "is_reserved": 0, "name": "91989dff36694849912a0c379652628e", "lon": -77.0250915, "type": "electric_bike", "bike_id": "91989dff36694849912a0c379652628e", "fusion_lon": 0.0, "lat": 38.934121166666664, "fusion_lat": 0.0}, {"is_disabled": 0, "rental_uris": {"android": "https://dc.lft.to/lastmile_qr_scan", "ios": "https://dc.lft.to/lastmile_qr_scan"}, "is_reserved": 0, "name": "4dad480d28b184ac4fff85fdb2ca4e21", "lon": -77.0309325, "type": "electric_scooter", "bike_id": "4dad480d28b184ac4fff85fdb2ca4e21", "fusion_lon": 0.0, "lat": 38.9354925, "fusion_lat": 0.0}, {"is_disabled": 0, "rental_uris": {"android": "https://dc.lft.to/lastmile_qr_scan", "ios": "https://dc.lft.to/lastmile_qr_scan"}, "is_reserved": 0, "name": "408dfca2c903706e8758236b99a0ca6f", "lon": -77.00579483333334, "type": "electric_bike", "bike_id": "408dfca2c903706e8758236b99a0ca6f", "fusion_lon": 0.0, "lat": 38.836969, "fusion_lat": 0.0}, {"is_disabled": 0, "rental_uris": {"android": "https://dc.lft.to/lastmile_qr_scan", "ios": "https://dc.lft.to/lastmile_qr_scan"}, "is_reserved": 0, "name": "16e311161b1a5b7dfbdad5ca8d5238a4", "lon": -77.03129966666667, "type": "electric_scooter", "bike_id": "16e311161b1a5b7dfbdad5ca8d5238a4", "fusion_lon": 0.0, "lat": 38.92381016666667, "fusion_lat": 0.0}, {"is_disabled": 0, "rental_uris": {"android": "https://dc.lft.to/lastmile_qr_scan", "ios": "https://dc.lft.to/lastmile_qr_scan"}, "is_reserved": 0, "name": "a0334f2cd733f3f9e1e4e59ce924eda3", "lon": -76.92933683333334, "type": "electric_bike", "bike_id": "a0334f2cd733f3f9e1e4e59ce924eda3", "fusion_lon": 0.0, "lat": 38.902904, "fusion_lat": 0.0}, {"is_disabled": 0, "rental_uris": {"android": "https://dc.lft.to/lastmile_qr_scan", "ios": "https://dc.lft.to/lastmile_qr_scan"}, "is_reserved": 0, "name": "914548d6914a3f42dd291d223d13b3da", "lon": -77.02221216666666, "type": "electric_scooter", "bike_id": "914548d6914a3f42dd291d223d13b3da", "fusion_lon": 0.0, "lat": 38.91266266666667, "fusion_lat": 0.0}, {"is_disabled": 0, "rental_uris": {"android": "https://dc.lft.to/lastmile_qr_scan", "ios": "https://dc.lft.to/lastmile_qr_scan"}, "is_reserved": 0, "name": "3552f7a06dda3245b90086dc449847e5", "lon": -77.04009333333333, "type": "electric_scooter", "bike_id": "3552f7a06dda3245b90086dc449847e5", "fusion_lon": 0.0, "lat": 38.90999566666667, "fusion_lat": 0.0}, {"is_disabled": 0, "rental_uris": {"android": "https://dc.lft.to/lastmile_qr_scan", "ios": "https://dc.lft.to/lastmile_qr_scan"}, "is_reserved": 0, "name": "f62e950d501f7ec207fc421e467c6567", "lon": -77.03189583333334, "type": "electric_scooter", "bike_id": "f62e950d501f7ec207fc421e467c6567", "fusion_lon": 0.0, "lat": 38.915536, "fusion_lat": 0.0}, {"is_disabled": 0, "rental_uris": {"android": "https://dc.lft.to/lastmile_qr_scan", "ios": "https://dc.lft.to/lastmile_qr_scan"}, "is_reserved": 0, "name": "3ef9c64b65dc0d127977a2126d4a0852", "lon": -76.96175316666667, "type": "electric_bike", "bike_id": "3ef9c64b65dc0d127977a2126d4a0852", "fusion_lon": 0.0, "lat": 38.9186475, "fusion_lat": 0.0}, {"is_disabled": 0, "rental_uris": {"android": "https://dc.lft.to/lastmile_qr_scan", "ios": "https://dc.lft.to/lastmile_qr_scan"}, "is_reserved": 0, "name": "ea4ec217fbee4f80809b11758b1fee5f", "lon": -77.031465, "type": "electric_scooter", "bike_id": "ea4ec217fbee4f80809b11758b1fee5f", "fusion_lon": 0.0, "lat": 38.909817, "fusion_lat": 0.0}, {"is_disabled": 0, "rental_uris": {"android": "https://dc.lft.to/lastmile_qr_scan", "ios": "https://dc.lft.to/lastmile_qr_scan"}, "is_reserved": 0, "name": "172fc23d490b31bd937e60337cdd65b8", "lon": -77.055298, "type": "electric_scooter", "bike_id": "172fc23d490b31bd937e60337cdd65b8", "fusion_lon": 0.0, "lat": 38.899763666666665, "fusion_lat": 0.0}, {"is_disabled": 0, "rental_uris": {"android": "https://dc.lft.to/lastmile_qr_scan", "ios": "https://dc.lft.to/lastmile_qr_scan"}, "is_reserved": 0, "name": "23e6914c845e30913429a471134df651", "lon": -77.00333616666667, "type": "electric_scooter", "bike_id": "23e6914c845e30913429a471134df651", "fusion_lon": 0.0, "lat": 38.88988716666667, "fusion_lat": 0.0}, {"is_disabled": 0, "rental_uris": {"android": "https://dc.lft.to/lastmile_qr_scan", "ios": "https://dc.lft.to/lastmile_qr_scan"}, "is_reserved": 0, "name": "36fe329935799f55ad4b5239955d4683", "lon": -77.04181666666666, "type": "electric_scooter", "bike_id": "36fe329935799f55ad4b5239955d4683", "fusion_lon": 0.0, "lat": 38.91412966666667, "fusion_lat": 0.0}, {"is_disabled": 0, "rental_uris": {"android": "https://dc.lft.to/lastmile_qr_scan", "ios": "https://dc.lft.to/lastmile_qr_scan"}, "is_reserved": 0, "name": "00fd5df82bc198aafae4fecb6324f41d", "lon": -77.00944883333334, "type": "electric_scooter", "bike_id": "00fd5df82bc198aafae4fecb6324f41d", "fusion_lon": 0.0, "lat": 38.8949655, "fusion_lat": 0.0}, {"is_disabled": 0, "rental_uris": {"android": "https://dc.lft.to/lastmile_qr_scan", "ios": "https://dc.lft.to/lastmile_qr_scan"}, "is_reserved": 0, "name": "a6fe2ab7fb2eb1737856860814b5fef3", "lon": -76.9750215, "type": "electric_bike", "bike_id": "a6fe2ab7fb2eb1737856860814b5fef3", "fusion_lon": 0.0, "lat": 38.9193515, "fusion_lat": 0.0}, {"is_disabled": 0, "rental_uris": {"android": "https://dc.lft.to/lastmile_qr_scan", "ios": "https://dc.lft.to/lastmile_qr_scan"}, "is_reserved": 0, "name": "1792363c9f3dd723bdfb685d93340aa2", "lon": -77.04276166666666, "type": "electric_scooter", "bike_id": "1792363c9f3dd723bdfb685d93340aa2", "fusion_lon": 0.0, "lat": 38.91690583333333, "fusion_lat": 0.0}, {"is_disabled": 0, "rental_uris": {"android": "https://dc.lft.to/lastmile_qr_scan", "ios": "https://dc.lft.to/lastmile_qr_scan"}, "is_reserved": 0, "name": "c470129f0e3bee56994a3137de1be461", "lon": -76.948249, "type": "electric_scooter", "bike_id": "c470129f0e3bee56994a3137de1be461", "fusion_lon": 0.0, "lat": 38.8851695, "fusion_lat": 0.0}, {"is_disabled": 0, "rental_uris": {"android": "https://dc.lft.to/lastmile_qr_scan", "ios": "https://dc.lft.to/lastmile_qr_scan"}, "is_reserved": 0, "name": "8b7fb05763cf28a9c7c2e437bd29e4fd", "lon": -76.97909433333334, "type": "electric_scooter", "bike_id": "8b7fb05763cf28a9c7c2e437bd29e4fd", "fusion_lon": 0.0, "lat": 38.9042905, "fusion_lat": 0.0}, {"is_disabled": 0, "rental_uris": {"android": "https://dc.lft.to/lastmile_qr_scan", "ios": "https://dc.lft.to/lastmile_qr_scan"}, "is_reserved": 0, "name": "3a8778a7d5f6abd4132f1baf5d60886b", "lon": -77.02335483333333, "type": "electric_scooter", "bike_id": "3a8778a7d5f6abd4132f1baf5d60886b", "fusion_lon": 0.0, "lat": 38.92230166666667, "fusion_lat": 0.0}, {"is_disabled": 0, "rental_uris": {"android": "https://dc.lft.to/lastmile_qr_scan", "ios": "https://dc.lft.to/lastmile_qr_scan"},