{"data": {"bikes": [{"name": "27696d04dcfccc93bb074e65a2ec5202", "type": "electric_scooter", "fusion_lon": 0.0, "lon": -77.03634733333334, "is_disabled": 0, "lat": 38.928152, "fusion_lat": 0.0, "is_reserved": 0, "rental_uris": {"android": "https://dc.lft.to/lastmile_qr_scan", "ios": "https://dc.lft.to/lastmile_qr_scan"}, "bike_id": "27696d04dcfccc93bb074e65a2ec5202"}, {"name": "aa24f6a830de87a00074e3311b9a025f", "type": "electric_scooter", "fusion_lon": 0.0, "lon": -77.0565175, "is_disabled": 0, "lat": 38.92332666666667, "fusion_lat": 0.0, "is_reserved": 0, "rental_uris": {"android": "https://dc.lft.to/lastmile_qr_scan", "ios": "https://dc.lft.to/lastmile_qr_scan"}, "bike_id": "aa24f6a830de87a00074e3311b9a025f"}, {"name": "4b7ab1eee65eb5e3e157c4b6d913d15a", "type": "electric_scooter", "fusion_lon": 0.0, "lon": -77.03835616666667, "is_disabled": 0, "lat": 38.912657333333335, "fusion_lat": 0.0, "is_reserved": 0, "rental_uris": {"android": "https://dc.lft.to/lastmile_qr_scan", "ios": "https://dc.lft.to/lastmile_qr_scan"}, "bike_id": "4b7ab1eee65eb5e3e157c4b6d913d15a"}, {"name": "ac1d08bc595495a9bd122b6b22eb58fc", "type": "electric_scooter", "fusion_lon": 0.0, "lon": -77.025305, "is_disabled": 0, "lat": 38.903433166666666, "fusion_lat": 0.0, "is_reserved": 0, "rental_uris": {"android": "https://dc.lft.to/lastmile_qr_scan", "ios": "https://dc.lft.to/lastmile_qr_scan"}, "bike_id": "ac1d08bc595495a9bd122b6b22eb58fc"}, {"name": "e6e64394481acb55311076c8f52d9e36", "type": "electric_scooter", "fusion_lon": 0.0, "lon": -76.93927816666667, "is_disabled": 0, "lat": 38.89331683333333, "fusion_lat": 0.0, "is_reserved": 0, "rental_uris": {"android": "https://dc.lft.to/lastmile_qr_scan", "ios": "https://dc.lft.to/lastmile_qr_scan"}, "bike_id": "e6e64394481acb55311076c8f52d9e36"}, {"name": "1d18f5e83adfd7a63d40a6a575acf6ba", "type": "electric_bike", "fusion_lon": 0.0, "lon": -76.985747, "is_disabled": 0, "lat": 38.958838, "fusion_lat": 0.0, "is_reserved": 0, "rental_uris": {"android": "https://dc.lft.to/lastmile_qr_scan", "ios": "https://dc.lft.to/lastmile_qr_scan"}, "bike_id": "1d18f5e83adfd7a63d40a6a575acf6ba"}, {"name": "653919a603fa690d2062f2595e0ab1ec", "type": "electric_scooter", "fusion_lon": 0.0, "lon": -77.03661666666666, "is_disabled": 0, "lat": 38.91711733333333, "fusion_lat": 0.0, "is_reserved": 0, "rental_uris": {"android": "https://dc.lft.to/lastmile_qr_scan", "ios": "https://dc.lft.to/lastmile_qr_scan"}, "bike_id": "653919a603fa690d2062f2595e0ab1ec"}, {"name": "1e2cc6f16468fa603549aeaca719050e", "type": "electric_scooter", "fusion_lon": 0.0, "lon": -77.014359, "is_disabled": 0, "lat": 38.913147333333335, "fusion_lat": 0.0, "is_reserved": 0, "rental_uris": {"android": "https://dc.lft.to/lastmile_qr_scan", "ios": "https://dc.lft.to/lastmile_qr_scan"}, "bike_id": "1e2cc6f16468fa603549aeaca719050e"}, {"name": "10ea65249aef44bb14503773528603f3", "type": "electric_bike", "fusion_lon": 0.0, "lon": -77.02181716666666, "is_disabled": 0, "lat": 38.90700866666667, "fusion_lat": 0.0, "is_reserved": 0, "rental_uris": {"android": "https://dc.lft.to/lastmile_qr_scan", "ios": "https://dc.lft.to/lastmile_qr_scan"}, "bike_id": "10ea65249aef44bb14503773528603f3"}, {"name": "853f30c983b3c9e08dea6c09f57d0760", "type": "electric_scooter", "fusion_lon": 0.0, "lon": -77.0453595, "is_disabled": 0, "lat": 38.9345965, "fusion_lat": 0.0, "is_reserved": 0, "rental_uris": {"android": "https://dc.lft.to/lastmile_qr_scan", "ios": "https://dc.lft.to/lastmile_qr_scan"}, "bike_id": "853f30c983b3c9e08dea6c09f57d0760"}, {"name": "fcb2883187cfd54b61a0cb701727e999", "type": "electric_scooter", "fusion_lon": 0.0, "lon": -77.0388235, "is_disabled": 0, "lat": 38.918486333333334, "fusion_lat": 0.0, "is_reserved": 0, "rental_uris": {"android": "https://dc.lft.to/lastmile_qr_scan", "ios": "https://dc.lft.to/lastmile_qr_scan"}, "bike_id": "fcb2883187cfd54b61a0cb701727e999"}, {"name": "b1d49470a0ea22d711cff24467c9b6c0", "type": "electric_scooter", "fusion_lon": 0.0, "lon": -77.02778666666667, "is_disabled": 0, "lat": 38.8961295, "fusion_lat": 0.0, "is_reserved": 0, "rental_uris": {"android": "https://dc.lft.to/lastmile_qr_scan", "ios": "https://dc.lft.to/lastmile_qr_scan"}, "bike_id": "b1d49470a0ea22d711cff24467c9b6c0"}, {"name": "bcc2bdf2df9da15b62de816cb615ae40", "type": "electric_bike", "fusion_lon": 0.0, "lon": -77.18742366666666, "is_disabled": 0, "lat": 38.893543, "fusion_lat": 0.0, "is_reserved": 0, "rental_uris": {"android": "https://dc.lft.to/lastmile_qr_scan", "ios": "https://dc.lft.to/lastmile_qr_scan"}, "bike_id": "bcc2bdf2df9da15b62de816cb615ae40"}, {"name": "af807763d6ffb7e3e23691eccf2d66a6", "type": "electric_scooter", "fusion_lon": 0.0, "lon": -77.02980633333334, "is_disabled": 0, "lat": 38.927687166666665, "fusion_lat": 0.0, "is_reserved": 0, "rental_uris": {"android": "https://dc.lft.to/lastmile_qr_scan", "ios": "https://dc.lft.to/lastmile_qr_scan"}, "bike_id": "af807763d6ffb7e3e23691eccf2d66a6"}, {"name": "a9861c59afe2f640ece6119388a0efd6", "type": "electric_scooter", "fusion_lon": 0.0, "lon": -77.06299183333333, "is_disabled": 0, "lat": 38.943743, "fusion_lat": 0.0, "is_reserved": 0, "rental_uris": {"android": "https://dc.lft.to/lastmile_qr_scan", "ios": "https://dc.lft.to/lastmile_qr_scan"}, "bike_id": "a9861c59afe2f640ece6119388a0efd6"}, {"name": "21c410de9296bf7d1183da43c31d3759", "type": "electric_scooter", "fusion_lon": 0.0, "lon": -77.02394933333333, "is_disabled": 0, "lat": 38.916814, "fusion_lat": 0.0, "is_reserved": 0, "rental_uris": {"android": "https://dc.lft.to/lastmile_qr_scan", "ios": "https://dc.lft.to/lastmile_qr_scan"}, "bike_id": "21c410de9296bf7d1183da43c31d3759"}, {"name": "f43eada132c9be4f9a3b3fa1ff57703b", "type": "electric_scooter", "fusion_lon": 0.0, "lon": -77.0423695, "is_disabled": 0, "lat": 38.92223633333333, "fusion_lat": 0.0, "is_reserved": 0, "rental_uris": {"android": "https://dc.lft.to/lastmile_qr_scan", "ios": "https://dc.lft.to/lastmile_qr_scan"}, "bike_id": "f43eada132c9be4f9a3b3fa1ff57703b"}, {"name": "6221c9e177ab8f9d4e805ee01cef312d", "type": "electric_scooter", "fusion_lon": 0.0, "lon": -77.04478633333333, "is_disabled": 0, "lat": 38.918696833333335, "fusion_lat": 0.0, "is_reserved": 0, "rental_uris": {"android": "https://dc.lft.to/lastmile_qr_scan", "ios": "https://dc.lft.to/lastmile_qr_scan"}, "bike_id": "6221c9e177ab8f9d4e805ee01cef312d"}, {"name": "281a89dd47586aa26dd619c2d4795231", "type": "electric_scooter", "fusion_lon": 0.0, "lon": -77.02848816666666, "is_disabled": 0, "lat": 38.95617566666667, "fusion_lat": 0.0, "is_reserved": 0, "rental_uris": {"android": "https://dc.lft.to/lastmile_qr_scan", "ios": "https://dc.lft.to/lastmile_qr_scan"}, "bike_id": "281a89dd47586aa26dd619c2d4795231"}, {"name": "ec8f0337c92666cb893b90141faf7b90", "type": "electric_scooter", "fusion_lon": 0.0, "lon": -77.02318983333333, "is_disabled": 0, "lat": 38.92517216666667, "fusion_lat": 0.0, "is_reserved": 0, "rental_uris": {"android": "https://dc.lft.to/lastmile_qr_scan", "ios": "https://dc.lft.to/lastmile_qr_scan"}, "bike_id": "ec8f0337c92666cb893b90141faf7b90"}, {"name": "0423391ec74d606d6fc3cd3a72cfcd5e", "type": "electric_scooter", "fusion_lon": 0.0, "lon": -77.04306333333334, "is_disabled": 0, "lat": 38.9264555, "fusion_lat": 0.0, "is_reserved": 0, "rental_uris": {"android": "https://dc.lft.to/lastmile_qr_scan", "ios": "https://dc.lft.to/lastmile_qr_scan"}, "bike_id": "0423391ec74d606d6fc3cd3a72cfcd5e"}, {"name": "78fd99ac01eb59ca80327b37bb75b802", "type": "electric_scooter", "fusion_lon": 0.0, "lon": -77.038744, "is_disabled": 0, "lat": 38.9117435, "fusion_lat": 0.0, "is_reserved": 0, "rental_uris": {"android": "https://dc.lft.to/lastmile_qr_scan", "ios": "https://dc.lft.to/lastmile_qr_scan"}, "bike_id": "78fd99ac01eb59ca80327b37bb75b802"}, {"name": "58a669a41b816bd04ea7353acdcc3aa5", "type": "electric_scooter", "fusion_lon": 0.0, "lon": -76.99775700000001, "is_disabled": 0, "lat": 38.84438083333333, "fusion_lat": 0.0, "is_reserved": 0, "rental_uris": {"android": "https://dc.lft.to/lastmile_qr_scan", "ios": "https://dc.lft.to/lastmile_qr_scan"}, "bike_id": "58a669a41b816bd04ea7353acdcc3aa5"}, {"name": "807e03c88da93e5241b4a9eda3058bee", "type": "electric_bike", "fusion_lon": 0.0, "lon": -76.95197766666666, "is_disabled": 0, "lat": 39.084464, "fusion_lat": 0.0, "is_reserved": 0, "rental_uris": {"android": "https://dc.lft.to/lastmile_qr_scan", "ios": "https://dc.lft.to/lastmile_qr_scan"}, "bike_id": "807e03c88da93e5241b4a9eda3058bee"}, {"name": "adba8979ea368af9f171dd69a512e136", "type": "electric_scooter", "fusion_lon": 0.0, "lon": -77.01702933333333, "is_disabled": 0, "lat": 38.913860666666665, "fusion_lat": 0.0, "is_reserved": 0, "rental_uris": {"android": "https://dc.lft.to/lastmile_qr_scan", "ios": "https://dc.lft.to/lastmile_qr_scan"}, "bike_id": "adba8979ea368af9f171dd69a512e136"}, {"name": "c75aeb5b3931bdac123d15ab1e835c9c", "type": "electric_scooter", "fusion_lon": 0.0, "lon": -77.05510216666667, "is_disabled": 0, "lat": 38.9294915, "fusion_lat": 0.0, "is_reserved": 0, "rental_uris": {"android": "https://dc.lft.to/lastmile_qr_scan", "ios": "https://dc.lft.to/lastmile_qr_scan"}, "bike_id": "c75aeb5b3931bdac123d15ab1e835c9c"}, {"name": "d0cedc9079a5ddcbf254ae094d1ea182", "type": "electric_scooter", "fusion_lon": 0.0, "lon": -76.98195516666667, "is_disabled": 0, "lat": 38.92066483333333, "fusion_lat": 0.0, "is_reserved": 0, "rental_uris": {"android": "https://dc.lft.to/lastmile_qr_scan", "ios": "https://dc.lft.to/lastmile_qr_scan"}, "bike_id": "d0cedc9079a5ddcbf254ae094d1ea182"}, {"name": "296d2c493fc332aed0d67870784908b6", "type": "electric_scooter", "fusion_lon": 0.0, "lon": -76.98359766666667, "is_disabled": 0, "lat": 38.88746233333333, "fusion_lat": 0.0, "is_reserved": 0, "rental_uris": {"android": "https://dc.lft.to/lastmile_qr_scan", "ios": "https://dc.lft.to/lastmile_qr_scan"}, "bike_id": "296d2c493fc332aed0d67870784908b6"}, {"name": "f3ab7ac486a885d752fdfa6b7d25b5a9", "type": "electric_scooter", "fusion_lon": 0.0, "lon": -77.02208383333334, "is_disabled": 0, "lat": 38.89228966666667, "fusion_lat": 0.0, "is_reserved": 0, "rental_uris": {"android": "https://dc.lft.to/lastmile_qr_scan", "ios": "https://dc.lft.to/lastmile_qr_scan"}, "bike_id": "f3ab7ac486a885d752fdfa6b7d25b5a9"}, {"name": "c78c247fff8e021787fcd2e78000619d", "type": "electric_scooter", "fusion_lon": 0.0, "lon": -77.004325, "is_disabled": 0, "lat": 38.877077666666665, "fusion_lat": 0.0, "is_reserved": 0, "rental_uris": {"android": "https://dc.lft.to/lastmile_qr_scan", "ios": "https://dc.lft.to/lastmile_qr_scan"}, "bike_id": "c78c247fff8e021787fcd2e78000619d"}, {"name": "90846fa9ea0731fe3f00c9b3cd1aa291", "type": "electric_bike", "fusion_lon": 0.0, "lon": -77.036564, "is_disabled": 0, "lat": 38.936299166666664, "fusion_lat": 0.0, "is_reserved": 0, "rental_uris": {"android": "https://dc.lft.to/lastmile_qr_scan", "ios": "https://dc.lft.to/lastmile_qr_scan"}, "bike_id": "90846fa9ea0731fe3f00c9b3cd1aa291"}, {"name": "fc6b830d33448db0d3343f801a965899", "type": "electric_scooter", "fusion_lon": 0.0, "lon": -76.9655245, "is_disabled": 0, "lat": 38.91845466666667, "fusion_lat": 0.0, "is_reserved": 0, "rental_uris": {"android": "https://dc.lft.to/lastmile_qr_scan", "ios": "https://dc.lft.to/lastmile_qr_scan"}, "bike_id": "fc6b830d33448db0d3343f801a965899"}, {"name": "9c876846b8c21f72c591acbd857c40b3", "type": "electric_scooter", "fusion_lon": 0.0, "lon": -77.0439065, "is_disabled": 0, "lat": 38.916612666666666, "fusion_lat": 0.0, "is_reserved": 0, "rental_uris": {"android": "https://dc.lft.to/lastmile_qr_scan", "ios": "https://dc.lft.to/lastmile_qr_scan"}, "bike_id": "9c876846b8c21f72c591acbd857c40b3"}, {"name": "e5c7a55de5d223651e3361a2cd5392e7", "type": "electric_scooter", "fusion_lon": 0.0, "lon": -77.01476316666667, "is_disabled": 0, "lat": 38.97512916666667, "fusion_lat": 0.0, "is_reserved": 0, "rental_uris": {"android": "https://dc.lft.to/lastmile_qr_scan", "ios": "https://dc.lft.to/lastmile_qr_scan"}, "bike_id": "e5c7a55de5d223651e3361a2cd5392e7"}, {"name": "1ea10827226eedd70cfc8df7bface9c4", "type": "electric_scooter", "fusion_lon": 0.0, "lon": -77.03335233333334, "is_disabled": 0, "lat": 38.89853683333333, "fusion_lat": 0.0, "is_reserved": 0, "rental_uris": {"android": "https://dc.lft.to/lastmile_qr_scan", "ios": "https://dc.lft.to/lastmile_qr_scan"}, "bike_id": "1ea10827226eedd70cfc8df7bface9c4"}, {"name": "cd7cfab228bd6fc77202bd5d038cbc55", "type": "electric_scooter", "fusion_lon": 0.0, "lon": -77.0004975, "is_disabled": 0, "lat": 38.89431883333334, "fusion_lat": 0.0, "is_reserved": 0, "rental_uris": {"android": "https://dc.lft.to/lastmile_qr_scan", "ios": "https://dc.lft.to/lastmile_qr_scan"}, "bike_id": "cd7cfab228bd6fc77202bd5d038cbc55"}, {"name": "9d8d7fabba6d2d012a126fb65ea4694c", "type": "electric_scooter", "fusion_lon": 0.0, "lon": -76.98055633333334, "is_disabled": 0, "lat": 38.88532466666667, "fusion_lat": 0.0, "is_reserved": 0, "rental_uris": {"android": "https://dc.lft.to/lastmile_qr_scan", "ios": "https://dc.lft.to/lastmile_qr_scan"}, "bike_id": "9d8d7fabba6d2d012a126fb65ea4694c"}, {"name": "b66d7b2b76eacaa69128950c229c606b", "type": "electric_scooter", "fusion_lon": 0.0, "lon": -77.0358225, "is_disabled": 0, "lat": 38.90762216666667, "fusion_lat": 0.0, "is_reserved": 0, "rental_uris": {"android": "https://dc.lft.to/lastmile_qr_scan", "ios": "https://dc.lft.to/lastmile_qr_scan"}, "bike_id": "b66d7b2b76eacaa69128950c229c606b"}, {"name": "6a3e74992544edc19885b60d34f9e371", "type": "electric_scooter", "fusion_lon": 0.0, "lon": -76.98566766666667, "is_disabled": 0, "lat": 38.86681316666667, "fusion_lat": 0.0, "is_reserved": 0, "rental_uris": {"android": "https://dc.lft.to/lastmile_qr_scan", "ios": "https://dc.lft.to/lastmile_qr_scan"}, "bike_id": "6a3e74992544edc19885b60d34f9e371"}, {"name": "b43097d313cc9ad88a2474dad13487df", "type": "electric_bike", "fusion_lon": 0.0, "lon": -76.99372366666667, "is_disabled": 0, "lat": 38.990983166666666, "fusion_lat": 0.0, "is_reserved": 0, "rental_uris": {"android": "https://dc.lft.to/lastmile_qr_scan", "ios": "https://dc.lft.to/lastmile_qr_scan"}, "bike_id": "b43097d313cc9ad88a2474dad13487df"}, {"name": "108f84a197c23c8507dcc4c3f99ce6ab", "type": "electric_scooter", "fusion_lon": 0.0, "lon": -76.98325783333334, "is_disabled": 0, "lat": 38.90442133333333, "fusion_lat": 0.0, "is_reserved": 0, "rental_uris": {"android": "https://dc.lft.to/lastmile_qr_scan", "ios": "https://dc.lft.to/lastmile_qr_scan"}, "bike_id": "108f84a197c23c8507dcc4c3f99ce6ab"}, {"name": "d19b8820fea32c92e7a7498cc5b12d72", "type": "electric_scooter", "fusion_lon": 0.0, "lon": -77.0247305, "is_disabled": 0, "lat": 38.93850883333333, "fusion_lat": 0.0, "is_reserved": 0, "rental_uris": {"android": "https://dc.lft.to/lastmile_qr_scan", "ios": "https://dc.lft.to/lastmile_qr_scan"}, "bike_id": "d19b8820fea32c92e7a7498cc5b12d72"}, {"name": "58259c3e1ae1159e832b786c378426c8", "type": "electric_scooter", "fusion_lon": 0.0, "lon": -77.077164, "is_disabled": 0, "lat": 38.941159999999996, "fusion_lat": 0.0, "is_reserved": 0, "rental_uris": {"android": "https://dc.lft.to/lastmile_qr_scan", "ios": "https://dc.lft.to/lastmile_qr_scan"}, "bike_id": "58259c3e1ae1159e832b786c378426c8"}, {"name": "f4565c491db9209e4530b97a929b7e36", "type": "electric_scooter", "fusion_lon": 0.0, "lon": -77.00341816666666, "is_disabled": 0, "lat": 38.894631833333335, "fusion_lat": 0.0, "is_reserved": 0, "rental_uris": {"android": "https://dc.lft.to/lastmile_qr_scan", "ios": "https://dc.lft.to/lastmile_qr_scan"}, "bike_id": "f4565c491db9209e4530b97a929b7e36"}, {"name": "8eafe28ba85c1641b80d4d4b961196a4", "type": "electric_scooter", "fusion_lon": 0.0, "lon": -77.00572866666667, "is_disabled": 0, "lat": 38.87679716666667, "fusion_lat": 0.0, "is_reserved": 0, "rental_uris": {"android": "https://dc.lft.to/lastmile_qr_scan", "ios": "https://dc.lft.to/lastmile_qr_scan"}, "bike_id": "8eafe28ba85c1641b80d4d4b961196a4"}, {"name": "0e0afb29d9e7d1373747de20898a5cd4", "type": "electric_scooter", "fusion_lon": 0.0, "lon": -77.02276233333333, "is_disabled": 0, "lat": 38.9141115, "fusion_lat": 0.0, "is_reserved": 0, "rental_uris": {"android": "https://dc.lft.to/lastmile_qr_scan", "ios": "https://dc.lft.to/lastmile_qr_scan"}, "bike_id": "0e0afb29d9e7d1373747de20898a5cd4"}, {"name": "bcd3eb63388c497b0922ffc5f6648d14", "type": "electric_scooter", "fusion_lon": 0.0, "lon": -77.024418, "is_disabled": 0, "lat": 38.9375505, "fusion_lat": 0.0, "is_reserved": 0, "rental_uris": {"android": "https://dc.lft.to/lastmile_qr_scan", "ios": "https://dc.lft.to/lastmile_qr_scan"}, "bike_id": "bcd3eb63388c497b0922ffc5f6648d14"}, {"name": "44ee85ab6fc67e153ef239065a308776", "type": "electric_scooter", "fusion_lon": 0.0, "lon": -77.002131, "is_disabled": 0, "lat": 38.89522183333333, "fusion_lat": 0.0, "is_reserved": 0, "rental_uris": {"android": "https://dc.lft.to/lastmile_qr_scan", "ios": "https://dc.lft.to/lastmile_qr_scan"}, "bike_id": "44ee85ab6fc67e153ef239065a308776"}, {"name": "e5184ddce0d7d50edbb3d922e64777ad", "type": "electric_scooter", "fusion_lon": 0.0, "lon": -77.03483633333333, "is_disabled": 0, "lat": 38.91705566666667, "fusion_lat": 0.0, "is_reserved": 0, "rental_uris": {"android": "https://dc.lft.to/lastmile_qr_scan", "ios": "https://dc.lft.to/lastmile_qr_scan"}, "bike_id": "e5184ddce0d7d50edbb3d922e64777ad"}, {"name": "18e596f749d298e44353af647eae7f20", "type": "electric_scooter", "fusion_lon": 0.0, "lon": -77.024731, "is_disabled": 0, "lat": 38.904068333333335, "fusion_lat": 0.0, "is_reserved": 0, "rental_uris": {"android": "https://dc.lft.to/lastmile_qr_scan", "ios": "https://dc.lft.to/lastmile_qr_scan"}, "bike_id": "18e596f749d298e44353af647eae7f20"}, {"name": "da438b234c18a4db58920ae763484297", "type": "electric_scooter", "fusion_lon": 0.0, "lon": -77.0730535, "is_disabled": 0, "lat": 38.92677166666667, "fusion_lat": 0.0, "is_reserved": 0, "rental_uris": {"android": "https://dc.lft.to/lastmile_qr_scan", "ios": "https://dc.lft.to/lastmile_qr_scan"}, "bike_id": "da438b234c18a4db58920ae763484297"}, {"name": "04a677abd0a3ac0b0470fc9810bb36c9", "type": "electric_scooter", "fusion_lon": 0.0, "lon": -77.05054283333334, "is_disabled": 0, "lat": 38.9007105, "fusion_lat": 0.0, "is_reserved": 0, "rental_uris": {"android": "https://dc.lft.to/lastmile_qr_scan", "ios": "https://dc.lft.to/lastmile_qr_scan"}, "bike_id": "04a677abd0a3ac0b0470fc9810bb36c9"}, {"name": "7c894168abf7cfa441e09d6644d127ea", "type": "electric_scooter", "fusion_lon": 0.0, "lon": -77.0326615, "is_disabled": 0, "lat": 38.939908833333334, "fusion_lat": 0.0, "is_reserved": 0, "rental_uris": {"android": "https://dc.lft.to/lastmile_qr_scan", "ios": "https://dc.lft.to/lastmile_qr_scan"}, "bike_id": "7c894168abf7cfa441e09d6644d127ea"}, {"name": "dc08261cde0158afaf84d58cc7e9b072", "type": "electric_scooter", "fusion_lon": 0.0, "lon": -77.051298, "is_disabled": 0, "lat": 38.925189333333336, "fusion_lat": 0.0, "is_reserved": 0, "rental_uris": {"android": "https://dc.lft.to/lastmile_qr_scan", "ios": "https://dc.lft.to/lastmile_qr_scan"}, "bike_id": "dc08261cde0158afaf84d58cc7e9b072"}, {"name": "c9ecffb96683e351f6a8c18b57ed58f2", "type": "electric_scooter", "fusion_lon": 0.0, "lon": -77.02626116666667, "is_disabled": 0, "lat": 38.8877025, "fusion_lat": 0.0, "is_reserved": 0, "rental_uris": {"android": "https://dc.lft.to/lastmile_qr_scan", "ios": "https://dc.lft.to/lastmile_qr_scan"}, "bike_id": "c9ecffb96683e351f6a8c18b57ed58f2"}, {"name": "8e0c9bf5b8a3a532bd797a705d69f0b6", "type": "electric_scooter", "fusion_lon": 0.0, "lon": -77.04467583333333, "is_disabled": 0, "lat": 38.912662, "fusion_lat": 0.0, "is_reserved": 0, "rental_uris": {"android": "https://dc.lft.to/lastmile_qr_scan", "ios": "https://dc.lft.to/lastmile_qr_scan"}, "bike_id": "8e0c9bf5b8a3a532bd797a705d69f0b6"}, {"name": "981b9ad3196027f4eee0328e4915ac50", "type": "electric_scooter", "fusion_lon": 0.0, "lon": -77.0703675, "is_disabled": 0, "lat": 38.92255466666667, "fusion_lat": 0.0, "is_reserved": 0, "rental_uris": {"android": "https://dc.lft.to/lastmile_qr_scan", "ios": "https://dc.lft.to/lastmile_qr_scan"}, "bike_id": "981b9ad3196027f4eee0328e4915ac50"}, {"name": "638e61611e7cd8f11140bfb6f49564a8", "type": "electric_scooter", "fusion_lon": 0.0, "lon": -77.00943016666666, "is_disabled": 0, "lat": 38.905723333333334, "fusion_lat": 0.0, "is_reserved": 0, "rental_uris": {"android": "https://dc.lft.to/lastmile_qr_scan", "ios": "https://dc.lft.to/lastmile_qr_scan"}, "bike_id": "638e61611e7cd8f11140bfb6f49564a8"}, {"name": "f8c5332a8d4cb31c1390eed118aa6c8f", "type": "electric_scooter", "fusion_lon": 0.0, "lon": -77.01979283333333, "is_disabled": 0, "lat": 38.89904716666667, "fusion_lat": 0.0, "is_reserved": 0, "rental_uris": {"android": "https://dc.lft.to/lastmile_qr_scan", "ios": "https://dc.lft.to/lastmile_qr_scan"}, "bike_id": "f8c5332a8d4cb31c1390eed118aa6c8f"}, {"name": "8a77bd623786559dc7c5b018e1a2d606", "type": "electric_scooter", "fusion_lon": 0.0, "lon": -77.045029, "is_disabled": 0, "lat": 38.91113633333333, "fusion_lat": 0.0, "is_reserved": 0, "rental_uris": {"android": "https://dc.lft.to/lastmile_qr_scan", "ios": "https://dc.lft.to/lastmile_qr_scan"}, "bike_id": "8a77bd623786559dc7c5b018e1a2d606"}, {"name": "b7a413cc6632ebb9b84c594b39d7b87f", "type": "electric_scooter", "fusion_lon": 0.0, "lon": -77.02376633333333, "is_disabled": 0, "lat": 38.907307333333335, "fusion_lat": 0.0, "is_reserved": 0, "rental_uris": {"android": "https://dc.lft.to/lastmile_qr_scan", "ios": "https://dc.lft.to/lastmile_qr_scan"}, "bike_id": "b7a413cc6632ebb9b84c594b39d7b87f"}, {"name": "e46abedea17f3c0b1c4422b812520240", "type": "electric_scooter", "fusion_lon": 0.0, "lon": -77.01900683333334, "is_disabled": 0, "lat": 38.9234375, "fusion_lat": 0.0, "is_reserved": 0, "rental_uris": {"android": "https://dc.lft.to/lastmile_qr_scan", "ios": "https://dc.lft.to/lastmile_qr_scan"}, "bike_id": "e46abedea17f3c0b1c4422b812520240"}, {"name": "be0df6fc9f66911b466a3382f0a585e7", "type": "electric_scooter", "fusion_lon": 0.0, "lon": -77.02532583333333, "is_disabled": 0, "lat": 38.90627466666667, "fusion_lat": 0.0, "is_reserved": 0, "rental_uris": {"android": "https://dc.lft.to/lastmile_qr_scan", "ios": "https://dc.lft.to/lastmile_qr_scan"}, "bike_id": "be0df6fc9f66911b466a3382f0a585e7"}, {"name": "25ec05fd5904235db6631bd6266a9efb", "type": "electric_scooter", "fusion_lon": 0.0, "lon": -77.04181333333334, "is_disabled": 0, "lat": 38.91821566666667, "fusion_lat": 0.0, "is_reserved": 0, "rental_uris": {"android": "https://dc.lft.to/lastmile_qr_scan", "ios": "https://dc.lft.to/lastmile_qr_scan"}, "bike_id": "25ec05fd5904235db6631bd6266a9efb"}, {"name": "152f7dbf3ba82bd6a412b33f80416a1d", "type": "electric_bike", "fusion_lon": 0.0, "lon": -76.98277266666666, "is_disabled": 0, "lat": 38.9085055, "fusion_lat": 0.0, "is_reserved": 0, "rental_uris": {"android": "https://dc.lft.to/lastmile_qr_scan", "ios": "https://dc.lft.to/lastmile_qr_scan"}, "bike_id": "152f7dbf3ba82bd6a412b33f80416a1d"}, {"name": "cfdb6fea11c42a5aef857efe0d39173f", "type": "electric_scooter", "fusion_lon": 0.0, "lon": -77.0465645, "is_disabled": 0, "lat": 38.89226383333333, "fusion_lat": 0.0, "is_reserved": 0, "rental_uris": {"android": "https://dc.lft.to/lastmile_qr_scan", "ios": "https://dc.lft.to/lastmile_qr_scan"}, "bike_id": "cfdb6fea11c42a5aef857efe0d39173f"}, {"name": "fe7497873fc7905581740aa1885e1f84", "type": "electric_scooter", "fusion_lon": 0.0, "lon": -77.02217566666667, "is_disabled": 0, "lat": 38.901669, "fusion_lat": 0.0, "is_reserved": 0, "rental_uris": {"android": "https://dc.lft.to/lastmile_qr_scan", "ios": "https://dc.lft.to/lastmile_qr_scan"}, "bike_id": "fe7497873fc7905581740aa1885e1f84"}, {"name": "bdd465dcdbafab09d3682f3421a6a04d", "type": "electric_scooter", "fusion_lon": 0.0, "lon": -77.02607333333333, "is_disabled": 0, "lat": 38.917214, "fusion_lat": 0.0, "is_reserved": 0, "rental_uris": {"android": "https://dc.lft.to/lastmile_qr_scan", "ios": "https://dc.lft.to/lastmile_qr_scan"}, "bike_id": "bdd465dcdbafab09d3682f3421a6a04d"}, {"name": "9bf6d88bec849d42dd1a2d76717f26e3", "type": "electric_scooter", "fusion_lon": 0.0, "lon": -77.041806, "is_disabled": 0, "lat": 38.917336666666664, "fusion_lat": 0.0, "is_reserved": 0, "rental_uris": {"android": "https://dc.lft.to/lastmile_qr_scan", "ios": "https://dc.lft.to/lastmile_qr_scan"}, "bike_id": "9bf6d88bec849d42dd1a2d76717f26e3"}, {"name": "71d692cafa09593a055db023baa0ee25", "type": "electric_scooter", "fusion_lon": 0.0, "lon": -76.9900535, "is_disabled": 0, "lat": 38.8650805, "fusion_lat": 0.0, "is_reserved": 0, "rental_uris": {"android": "https://dc.lft.to/lastmile_qr_scan", "ios": "https://dc.lft.to/lastmile_qr_scan"}, "bike_id": "71d692cafa09593a055db023baa0ee25"}, {"name": "b05b92fbe162482667d4d63f9ffd93f1", "type": "electric_scooter", "fusion_lon": 0.0, "lon": -77.04504116666666, "is_disabled": 0, "lat": 38.894613166666666, "fusion_lat": 0.0, "is_reserved": 0, "rental_uris": {"android": "https://dc.lft.to/lastmile_qr_scan", "ios": "https://dc.lft.to/lastmile_qr_scan"}, "bike_id": "b05b92fbe162482667d4d63f9ffd93f1"}, {"name": "01903c012b8976226f88b056e348d126", "type": "electric_scooter", "fusion_lon": 0.0, "lon": -77.02720266666667, "is_disabled": 0, "lat": 38.901360833333335, "fusion_lat": 0.0, "is_reserved": 0, "rental_uris": {"android": "https://dc.lft.to/lastmile_qr_scan", "ios": "https://dc.lft.to/lastmile_qr_scan"}, "bike_id": "01903c012b8976226f88b056e348d126"}, {"name": "7ca3514fbbd9bc117a13b3f8b7ff2cba", "type": "electric_bike", "fusion_lon": 0.0, "lon": -77.03313216666666, "is_disabled": 0, "lat": 38.928731666666664, "fusion_lat": 0.0, "is_reserved": 0, "rental_uris": {"android": "https://dc.lft.to/lastmile_qr_scan", "ios": "https://dc.lft.to/lastmile_qr_scan"}, "bike_id": "7ca3514fbbd9bc117a13b3f8b7ff2cba"}, {"name": "8a0efdd384aa70eb3375801322efbb0b", "type": "electric_scooter", "fusion_lon": 0.0, "lon": -77.03378233333333, "is_disabled": 0, "lat": 38.921639, "fusion_lat": 0.0, "is_reserved": 0, "rental_uris": {"android": "https://dc.lft.to/lastmile_qr_scan", "ios": "https://dc.lft.to/lastmile_qr_scan"}, "bike_id": "8a0efdd384aa70eb3375801322efbb0b"}, {"name": "1614e0a4f2fcf30425bc2f0ce291897b", "type": "electric_scooter", "fusion_lon": 0.0, "lon": -76.99165816666667, "is_disabled": 0, "lat": 38.876364833333334, "fusion_lat": 0.0, "is_reserved": 0, "rental_uris": {"android": "https://dc.lft.to/lastmile_qr_scan", "ios": "https://dc.lft.to/lastmile_qr_scan"}, "bike_id": "1614e0a4f2fcf30425bc2f0ce291897b"}, {"name": "9a8faed2ece23a1124f62a3f551fd124", "type": "electric_scooter", "fusion_lon": 0.0, "lon": -77.00406983333333, "is_disabled": 0, "lat": 38.929160833333334, "fusion_lat": 0.0, "is_reserved": 0, "rental_uris": {"android": "https://dc.lft.to/lastmile_qr_scan", "ios": "https://dc.lft.to/lastmile_qr_scan"}, "bike_id": "9a8faed2ece23a1124f62a3f551fd124"}, {"name": "6796e68b2597ffe0d1244d231101d348", "type": "electric_scooter", "fusion_lon": 0.0, "lon": -77.027151, "is_disabled": 0, "lat": 38.915218333333335, "fusion_lat": 0.0, "is_reserved": 0, "rental_uris": {"android": "https://dc.lft.to/lastmile_qr_scan", "ios": "https://dc.lft.to/lastmile_qr_scan"}, "bike_id": "6796e68b2597ffe0d1244d231101d348"}, {"name": "77132cc64c38b84b7107f5b0a1bb7b63", "type": "electric_scooter", "fusion_lon": 0.0, "lon": -77.03611083333334, "is_disabled": 0, "lat": 38.931613666666664, "fusion_lat": 0.0, "is_reserved": 0, "rental_uris": {"android": "https://dc.lft.to/lastmile_qr_scan", "ios": "https://dc.lft.to/lastmile_qr_scan"}, "bike_id": "77132cc64c38b84b7107f5b0a1bb7b63"}, {"name": "ccdcc7e25cdc20c20f034c1419626713", "type": "electric_scooter", "fusion_lon": 0.0, "lon": -77.02154533333334, "is_disabled": 0, "lat": 38.9244915, "fusion_lat": 0.0, "is_reserved": 0, "rental_uris": {"android": "https://dc.lft.to/lastmile_qr_scan", "ios": "https://dc.lft.to/lastmile_qr_scan"}, "bike_id": "ccdcc7e25cdc20c20f034c1419626713"}, {"name": "65358232cc16c74372a77615798852d5", "type": "electric_scooter", "fusion_lon": 0.0, "lon": -77.00665, "is_disabled": 0, "lat": 38.898064166666664, "fusion_lat": 0.0, "is_reserved": 0, "rental_uris": {"android": "https://dc.lft.to/lastmile_qr_scan", "ios": "https://dc.lft.to/lastmile_qr_scan"}, "bike_id": "65358232cc16c74372a77615798852d5"}, {"name": "d97ca41adf6848c6f08751bcebc2a9bc", "type": "electric_bike", "fusion_lon": 0.0, "lon": -76.9386505, "is_disabled": 0, "lat": 38.956434333333334, "fusion_lat": 0.0, "is_reserved": 0, "rental_uris": {"android": "https://dc.lft.to/lastmile_qr_scan", "ios": "https://dc.lft.to/lastmile_qr_scan"}, "bike_id": "d97ca41adf6848c6f08751bcebc2a9bc"}, {"name": "ee31f016c58373c6156455157e4624c6", "type": "electric_scooter", "fusion_lon": 0.0, "lon": -77.02409283333333, "is_disabled": 0, "lat": 38.90326866666667, "fusion_lat": 0.0, "is_reserved": 0, "rental_uris": {"android": "https://dc.lft.to/lastmile_qr_scan", "ios": "https://dc.lft.to/lastmile_qr_scan"}, "bike_id": "ee31f016c58373c6156455157e4624c6"}, {"name": "e04cace98a27c2deb06d7af7a0826135", "type": "electric_scooter", "fusion_lon": 0.0, "lon": -77.03921716666666, "is_disabled": 0, "lat": 38.921851, "fusion_lat": 0.0, "is_reserved": 0, "rental_uris": {"android": "https://dc.lft.to/lastmile_qr_scan", "ios": "https://dc.lft.to/lastmile_qr_scan"}, "bike_id": "e04cace98a27c2deb06d7af7a0826135"}, {"name": "bcd5ba4efd69d3cbbe9f71a50d5372bf", "type": "electric_scooter", "fusion_lon": 0.0, "lon": -77.0299165, "is_disabled": 0, "lat": 38.8975675, "fusion_lat": 0.0, "is_reserved": 0, "rental_uris": {"android": "https://dc.lft.to/lastmile_qr_scan", "ios": "https://dc.lft.to/lastmile_qr_scan"}, "bike_id": "bcd5ba4efd69d3cbbe9f71a50d5372bf"}, {"name": "2fc9983d0488473aca08b6bb335653d2", "type": "electric_scooter", "fusion_lon": 0.0, "lon": -77.03321366666667, "is_disabled": 0, "lat": 38.9287005, "fusion_lat": 0.0, "is_reserved": 0, "rental_uris": {"android": "https://dc.lft.to/lastmile_qr_scan", "ios": "https://dc.lft.to/lastmile_qr_scan"}, "bike_id": "2fc9983d0488473aca08b6bb335653d2"}, {"name": "f2fd055855fb3c74a193d37a01a23f71", "type": "electric_scooter", "fusion_lon": 0.0, "lon": -76.98713266666667, "is_disabled": 0, "lat": 38.86706216666666, "fusion_lat": 0.0, "is_reserved": 0, "rental_uris": {"android": "https://dc.lft.to/lastmile_qr_scan", "ios": "https://dc.lft.to/lastmile_qr_scan"}, "bike_id": "f2fd055855fb3c74a193d37a01a23f71"}, {"name": "c37463a75ea3f4682528fbbebacbb111", "type": "electric_scooter", "fusion_lon": 0.0, "lon": -77.02832166666667, "is_disabled": 0, "lat": 38.887335, "fusion_lat": 0.0, "is_reserved": 0, "rental_uris": {"android": "https://dc.lft.to/lastmile_qr_scan", "ios": "https://dc.lft.to/lastmile_qr_scan"}, "bike_id": "c37463a75ea3f4682528fbbebacbb111"}, {"name": "bfab27ca707382fafb4f1de6bca81e6f", "type": "electric_scooter", "fusion_lon": 0.0, "lon": -77.02385366666667, "is_disabled": 0, "lat": 38.89228466666667, "fusion_lat": 0.0, "is_reserved": 0, "rental_uris": {"android": "https://dc.lft.to/lastmile_qr_scan", "ios": "https://dc.lft.to/lastmile_qr_scan"}, "bike_id": "bfab27ca707382fafb4f1de6bca81e6f"}, {"name": "346136e4e1362cb3034f96db9ca2c43f", "type": "electric_scooter", "fusion_lon": 0.0, "lon": -77.042244, "is_disabled": 0, "lat": 38.924503, "fusion_lat": 0.0, "is_reserved": 0, "rental_uris": {"android": "https://dc.lft.to/lastmile_qr_scan", "ios": "https://dc.lft.to/lastmile_qr_scan"}, "bike_id": "346136e4e1362cb3034f96db9ca2c43f"}, {"name": "75fb13df74ac5d52512d43d091155dfc", "type": "electric_scooter", "fusion_lon": 0.0, "lon": -77.03175466666667, "is_disabled": 0, "lat": 38.911147666666665, "fusion_lat": 0.0, "is_reserved": 0, "rental_uris": {"android": "https://dc.lft.to/lastmile_qr_scan", "ios": "https://dc.lft.to/lastmile_qr_scan"}, "bike_id": "75fb13df74ac5d52512d43d091155dfc"}, {"name": "2fb21381738340ed5df9333fd45f9095", "type": "electric_scooter", "fusion_lon": 0.0, "lon": -77.00200283333334, "is_disabled": 0, "lat": 38.90040166666667, "fusion_lat": 0.0, "is_reserved": 0, "rental_uris": {"android": "https://dc.lft.to/lastmile_qr_scan", "ios": "https://dc.lft.to/lastmile_qr_scan"}, "bike_id": "2fb21381738340ed5df9333fd45f9095"}, {"name": "f532f321841eb826a841da3d05677635", "type": "electric_scooter", "fusion_lon": 0.0, "lon": -77.04338833333334, "is_disabled": 0, "lat": 38.914234666666665, "fusion_lat": 0.0, "is_reserved": 0, "rental_uris": {"android": "https://dc.lft.to/lastmile_qr_scan", "ios": "https://dc.lft.to/lastmile_qr_scan"}, "bike_id": "f532f321841eb826a841da3d05677635"}, {"name": "f255c29ca06a4828cc6cb55eb00441a8", "type": "electric_scooter", "fusion_lon": 0.0, "lon": -77.034074, "is_disabled": 0, "lat": 38.924413, "fusion_lat": 0.0, "is_reserved": 0, "rental_uris": {"android": "https://dc.lft.to/lastmile_qr_scan", "ios": "https://dc.lft.to/lastmile_qr_scan"}, "bike_id": "f255c29ca06a4828cc6cb55eb00441a8"}, {"name": "d5ef62d112a9992e9c42f262b4aaf28a", "type": "electric_bike", "fusion_lon": 0.0, "lon": -77.00008816666667, "is_disabled": 0, "lat": 38.923977, "fusion_lat": 0.0, "is_reserved": 0, "rental_uris": {"android": "https://dc.lft.to/lastmile_qr_scan", "ios": "https://dc.lft.to/lastmile_qr_scan"}, "bike_id": "d5ef62d112a9992e9c42f262b4aaf28a"}, {"name": "3e3957e9a5f50ad1d78b20f5596a08d6", "type": "electric_bike", "fusion_lon": 0.0, "lon": -77.02807283333334, "is_disabled": 0, "lat": 38.96170983333333, "fusion_lat": 0.0, "is_reserved": 0, "rental_uris": {"android": "https://dc.lft.to/lastmile_qr_scan", "ios": "https://dc.lft.to/lastmile_qr_scan"}, "bike_id": "3e3957e9a5f50ad1d78b20f5596a08d6"}, {"name": "eff603be642cc7b6ab605aa9bd28f866", "type": "electric_scooter", "fusion_lon": 0.0, "lon": -77.02831566666667, "is_disabled": 0, "lat": 38.8873475, "fusion_lat": 0.0, "is_reserved": 0, "rental_uris": {"android": "https://dc.lft.to/lastmile_qr_scan", "ios": "https://dc.lft.to/lastmile_qr_scan"}, "bike_id": "eff603be642cc7b6ab605aa9bd28f866"}, {"name": "36f0cd1446c25c0de9ed2fce51c0595f", "type": "electric_scooter", "fusion_lon": 0.0, "lon": -77.016175, "is_disabled": 0, "lat": 38.9009995, "fusion_lat": 0.0, "is_reserved": 0, "rental_uris": {"android": "https://dc.lft.to/lastmile_qr_scan", "ios": "https://dc.lft.to/lastmile_qr_scan"}, "bike_id": "36f0cd1446c25c0de9ed2fce51c0595f"}, {"name": "0910e664317e2fb4217228f680bb41ce", "type": "electric_scooter", "fusion_lon": 0.0, "lon": -77.02798333333334, "is_disabled": 0, "lat": 38.96049566666667, "fusion_lat": 0.0, "is_reserved": 0, "rental_uris": {"android": "https://dc.lft.to/lastmile_qr_scan", "ios": "https://dc.lft.to/lastmile_qr_scan"}, "bike_id": "0910e664317e2fb4217228f680bb41ce"}, {"name": "378a455afdc382981df42618743ee677", "type": "electric_scooter", "fusion_lon": 0.0, "lon": -77.03859816666667, "is_disabled": 0, "lat": 38.911022, "fusion_lat": 0.0, "is_reserved": 0, "rental_uris": {"android": "https://dc.lft.to/lastmile_qr_scan", "ios": "https://dc.lft.to/lastmile_qr_scan"}, "bike_id": "378a455afdc382981df42618743ee677"}, {"name": "bd479c5a382cbd273f0978bafb8664fe", "type": "electric_scooter", "fusion_lon": 0.0, "lon": -77.02164333333333, "is_disabled": 0, "lat": 38.89727633333333, "fusion_lat": 0.0, "is_reserved": 0, "rental_uris": {"android": "https://dc.lft.to/lastmile_qr_scan", "ios": "https://dc.lft.to/lastmile_qr_scan"}, "bike_id": "bd479c5a382cbd273f0978bafb8664fe"}, {"name": "1302b8647124518bde37c03f16c49770", "type": "electric_scooter", "fusion_lon": 0.0, "lon": -77.02699333333334, "is_disabled": 0, "lat": 38.936339333333336, "fusion_lat": 0.0, "is_reserved": 0, "rental_uris": {"android": "https://dc.lft.to/lastmile_qr_scan", "ios": "https://dc.lft.to/lastmile_qr_scan"}, "bike_id": "1302b8647124518bde37c03f16c49770"}, {"name": "33a416bc1e561489a4e3a14d1420b0d4", "type": "electric_scooter", "fusion_lon": 0.0, "lon": -77.0319155, "is_disabled": 0, "lat": 38.910718833333334, "fusion_lat": 0.0, "is_reserved": 0, "rental_uris": {"android": "https://dc.lft.to/lastmile_qr_scan", "ios": "https://dc.lft.to/lastmile_qr_scan"}, "bike_id": "33a416bc1e561489a4e3a14d1420b0d4"}, {"name": "90ad691f6061769dcd3783361fd924c5", "type": "electric_scooter", "fusion_lon": 0.0, "lon": -77.03185066666667, "is_disabled": 0, "lat": 38.91719616666666, "fusion_lat": 0.0, "is_reserved": 0, "rental_uris": {"android": "https://dc.lft.to/lastmile_qr_scan", "ios": "https://dc.lft.to/lastmile_qr_scan"}, "bike_id": "90ad691f6061769dcd3783361fd924c5"}, {"name": "93ce3caa04a6080f10d46f732f833645", "type": "electric_scooter", "fusion_lon": 0.0, "lon": -77.0091845, "is_disabled": 0, "lat": 38.9682075, "fusion_lat": 0.0, "is_reserved": 0, "rental_uris": {"android": "https://dc.lft.to/lastmile_qr_scan", "ios": "https://dc.lft.to/lastmile_qr_scan"}, "bike_id": "93ce3caa04a6080f10d46f732f833645"}, {"name": "6ebe293b07d1692db266b7373945b750", "type": "electric_scooter", "fusion_lon": 0.0, "lon": -77.04327283333333, "is_disabled": 0, "lat": 38.922466166666666, "fusion_lat": 0.0, "is_reserved": 0, "rental_uris": {"android": "https://dc.lft.to/lastmile_qr_scan", "ios": "https://dc.lft.to/lastmile_qr_scan"}, "bike_id": "6ebe293b07d1692db266b7373945b750"}, {"name": "8a9af89fe00d9c804a81332e96ee05cb", "type": "electric_bike", "fusion_lon": 0.0, "lon": -77.20141283333334, "is_disabled": 0, "lat": 38.92221266666667, "fusion_lat": 0.0, "is_reserved": 0, "rental_uris": {"android": "https://dc.lft.to/lastmile_qr_scan", "ios": "https://dc.lft.to/lastmile_qr_scan"}, "bike_id": "8a9af89fe00d9c804a81332e96ee05cb"}, {"name": "bc48b183c6abd6ca9e29f0f5ec3f5390", "type": "electric_scooter", "fusion_lon": 0.0, "lon": -77.02414833333333, "is_disabled": 0, "lat": 38.892271, "fusion_lat": 0.0, "is_reserved": 0, "rental_uris": {"android": "https://dc.lft.to/lastmile_qr_scan", "ios": "https://dc.lft.to/lastmile_qr_scan"}, "bike_id": "bc48b183c6abd6ca9e29f0f5ec3f5390"}, {"name": "e507fab2e82bde8b4d55b24254106f65", "type": "electric_scooter", "fusion_lon": 0.0, "lon": -77.038685, "is_disabled": 0, "lat": 38.901237333333334, "fusion_lat": 0.0, "is_reserved": 0, "rental_uris": {"android": "https://dc.lft.to/lastmile_qr_scan", "ios": "https://dc.lft.to/lastmile_qr_scan"}, "bike_id": "e507fab2e82bde8b4d55b24254106f65"}, {"name": "9a12b3305a24704ebed88e00d462cfca", "type": "electric_scooter", "fusion_lon": 0.0, "lon": -77.0253095, "is_disabled": 0, "lat": 38.91820166666667, "fusion_lat": 0.0, "is_reserved": 0, "rental_uris": {"android": "https://dc.lft.to/lastmile_qr_scan", "ios": "https://dc.lft.to/lastmile_qr_scan"}, "bike_id": "9a12b3305a24704ebed88e00d462cfca"}, {"name": "824d5d93ac299e44fe3a5f2970d184e7", "type": "electric_scooter", "fusion_lon": 0.0, "lon": -77.07701966666667, "is_disabled": 0, "lat": 38.94385466666667, "fusion_lat": 0.0, "is_reserved": 0, "rental_uris": {"android": "https://dc.lft.to/lastmile_qr_scan", "ios": "https://dc.lft.to/lastmile_qr_scan"}, "bike_id": "824d5d93ac299e44fe3a5f2970d184e7"}, {"name": "0f9857b73d334387a9a1920b14286af4", "type": "electric_bike", "fusion_lon": 0.0, "lon": -77.01653083333333, "is_disabled": 0, "lat": 38.920443, "fusion_lat": 0.0, "is_reserved": 0, "rental_uris": {"android": "https://dc.lft.to/lastmile_qr_scan", "ios": "https://dc.lft.to/lastmile_qr_scan"}, "bike_id": "0f9857b73d334387a9a1920b14286af4"}, {"name": "0ab87bb1fed22c045c458ebee7835558", "type": "electric_bike", "fusion_lon": 0.0, "lon": -76.95253, "is_disabled": 0, "lat": 38.906944833333334, "fusion_lat": 0.0, "is_reserved": 0, "rental_uris": {"android": "https://dc.lft.to/lastmile_qr_scan", "ios": "https://dc.lft.to/lastmile_qr_scan"}, "bike_id": "0ab87bb1fed22c045c458ebee7835558"}, {"name": "38b2d9798d017e1c43bca409e0e39568", "type": "electric_scooter", "fusion_lon": 0.0, "lon": -77.05004016666666, "is_disabled": 0, "lat": 38.901228, "fusion_lat": 0.0, "is_reserved": 0, "rental_uris": {"android": "https://dc.lft.to/lastmile_qr_scan", "ios": "https://dc.lft.to/lastmile_qr_scan"}, "bike_id": "38b2d9798d017e1c43bca409e0e39568"}, {"name": "dedd87461fe28b31f8cc0b9967e0f18e", "type": "electric_scooter", "fusion_lon": 0.0, "lon": -77.0461075, "is_disabled": 0, "lat": 38.90666183333333, "fusion_lat": 0.0, "is_reserved": 0, "rental_uris": {"android": "https://dc.lft.to/lastmile_qr_scan", "ios": "https://dc.lft.to/lastmile_qr_scan"}, "bike_id": "dedd87461fe28b31f8cc0b9967e0f18e"}, {"name": "3a844c76ef20042dd44ffb833aa679ef", "type": "electric_scooter", "fusion_lon": 0.0, "lon": -77.03285333333334, "is_disabled": 0, "lat": 38.922694, "fusion_lat": 0.0, "is_reserved": 0, "rental_uris": {"android": "https://dc.lft.to/lastmile_qr_scan", "ios": "https://dc.lft.to/lastmile_qr_scan"}, "bike_id": "3a844c76ef20042dd44ffb833aa679ef"}, {"name": "8ea1c48da95fc5e1b697d39e4376f4b9", "type": "electric_scooter", "fusion_lon": 0.0, "lon": -77.0293655, "is_disabled": 0, "lat": 38.92081533333333, "fusion_lat": 0.0, "is_reserved": 0, "rental_uris": {"android": "https://dc.lft.to/lastmile_qr_scan", "ios": "https://dc.lft.to/lastmile_qr_scan"}, "bike_id": "8ea1c48da95fc5e1b697d39e4376f4b9"}, {"name": "5b97903813f52eb32042a9de04d9eaee", "type": "electric_scooter", "fusion_lon": 0.0, "lon": -77.021338, "is_disabled": 0, "lat": 38.92418883333333, "fusion_lat": 0.0, "is_reserved": 0, "rental_uris": {"android": "https://dc.lft.to/lastmile_qr_scan", "ios": "https://dc.lft.to/lastmile_qr_scan"}, "bike_id": "5b97903813f52eb32042a9de04d9eaee"}, {"name": "8361132ab3b85f0ef2a2d11689675a31", "type": "electric_scooter", "fusion_lon": 0.0, "lon": -77.02693716666667, "is_disabled": 0, "lat": 38.9066205, "fusion_lat": 0.0, "is_reserved": 0, "rental_uris": {"android": "https://dc.lft.to/lastmile_qr_scan", "ios": "https://dc.lft.to/lastmile_qr_scan"}, "bike_id": "8361132ab3b85f0ef2a2d11689675a31"}, {"name": "3acfe71963b3252fc48102e4822adbd8", "type": "electric_scooter", "fusion_lon": 0.0, "lon": -77.01423333333334, "is_disabled": 0, "lat": 38.8922345, "fusion_lat": 0.0, "is_reserved": 0, "rental_uris": {"android": "https://dc.lft.to/lastmile_qr_scan", "ios": "https://dc.lft.to/lastmile_qr_scan"}, "bike_id": "3acfe71963b3252fc48102e4822adbd8"}, {"name": "b7fd0776287d4049a5cde3ba8cac48d1", "type": "electric_scooter", "fusion_lon": 0.0, "lon": -77.06410683333333, "is_disabled": 0, "lat": 38.9441615, "fusion_lat": 0.0, "is_reserved": 0, "rental_uris": {"android": "https://dc.lft.to/lastmile_qr_scan", "ios": "https://dc.lft.to/lastmile_qr_scan"}, "bike_id": "b7fd0776287d4049a5cde3ba8cac48d1"}, {"name": "b65020d18e188667732f79ee9a2ffc8b", "type": "electric_scooter", "fusion_lon": 0.0, "lon": -77.04220983333333, "is_disabled": 0, "lat": 38.920707, "fusion_lat": 0.0, "is_reserved": 0, "rental_uris": {"android": "https://dc.lft.to/lastmile_qr_scan", "ios": "https://dc.lft.to/lastmile_qr_scan"}, "bike_id": "b65020d18e188667732f79ee9a2ffc8b"}, {"name": "e2a0d337cc4b05e0c06d0fea91fadbef", "type": "electric_scooter", "fusion_lon": 0.0, "lon": -77.03476233333333, "is_disabled": 0, "lat": 38.90120833333334, "fusion_lat": 0.0, "is_reserved": 0, "rental_uris": {"android": "https://dc.lft.to/lastmile_qr_scan", "ios": "https://dc.lft.to/lastmile_qr_scan"}, "bike_id": "e2a0d337cc4b05e0c06d0fea91fadbef"}, {"name": "be3bdacfff269bdd0a95b2923a8db499", "type": "electric_scooter", "fusion_lon": 0.0, "lon": -77.02891016666666, "is_disabled": 0, "lat": 38.901466666666664, "fusion_lat": 0.0, "is_reserved": 0, "rental_uris": {"android": "https://dc.lft.to/lastmile_qr_scan", "ios": "https://dc.lft.to/lastmile_qr_scan"}, "bike_id": "be3bdacfff269bdd0a95b2923a8db499"}, {"name": "7989ce577cbc2125b6a8974ccb3a7708", "type": "electric_scooter", "fusion_lon": 0.0, "lon": -77.00614916666666, "is_disabled": 0, "lat": 38.905164166666665, "fusion_lat": 0.0, "is_reserved": 0, "rental_uris": {"android": "https://dc.lft.to/lastmile_qr_scan", "ios": "https://dc.lft.to/lastmile_qr_scan"}, "bike_id": "7989ce577cbc2125b6a8974ccb3a7708"}, {"name": "7c83435c9e44e0c24198907665c8b413", "type": "electric_scooter", "fusion_lon": 0.0, "lon": -77.04862816666666, "is_disabled": 0, "lat": 38.91331116666667, "fusion_lat": 0.0, "is_reserved": 0, "rental_uris": {"android": "https://dc.lft.to/lastmile_qr_scan", "ios": "https://dc.lft.to/lastmile_qr_scan"}, "bike_id": "7c83435c9e44e0c24198907665c8b413"}, {"name": "6577eb43ddd22db2a44387a4f239dc56", "type": "electric_scooter", "fusion_lon": 0.0, "lon": -77.0723245, "is_disabled": 0, "lat": 38.931938833333334, "fusion_lat": 0.0, "is_reserved": 0, "rental_uris": {"android": "https://dc.lft.to/lastmile_qr_scan", "ios": "https://dc.lft.to/lastmile_qr_scan"}, "bike_id": "6577eb43ddd22db2a44387a4f239dc56"}, {"name": "d8126542b64aae2be020bb82c2be7f27", "type": "electric_scooter", "fusion_lon": 0.0, "lon": -77.003309, "is_disabled": 0, "lat": 38.897292166666666, "fusion_lat": 0.0, "is_reserved": 0, "rental_uris": {"android": "https://dc.lft.to/lastmile_qr_scan", "ios": "https://dc.lft.to/lastmile_qr_scan"}, "bike_id": "d8126542b64aae2be020bb82c2be7f27"}, {"name": "c2ddfb961d550f93dc8d2f3b7f00cc3b", "type": "electric_scooter", "fusion_lon": 0.0, "lon": -77.03135583333334, "is_disabled": 0, "lat": 38.917057, "fusion_lat": 0.0, "is_reserved": 0, "rental_uris": {"android": "https://dc.lft.to/lastmile_qr_scan", "ios": "https://dc.lft.to/lastmile_qr_scan"}, "bike_id": "c2ddfb961d550f93dc8d2f3b7f00cc3b"}, {"name": "4bd4ded1ca72b8f371c1ae7433bb2808", "type": "electric_scooter", "fusion_lon": 0.0, "lon": -77.02406416666666, "is_disabled": 0, "lat": 38.908576, "fusion_lat": 0.0, "is_reserved": 0, "rental_uris": {"android": "https://dc.lft.to/lastmile_qr_scan", "ios": "https://dc.lft.to/lastmile_qr_scan"}, "bike_id": "4bd4ded1ca72b8f371c1ae7433bb2808"}, {"name": "8a2e9ac49d49087eb674b7ff7e710ca1", "type": "electric_scooter", "fusion_lon": 0.0, "lon": -77.02024983333334, "is_disabled": 0, "lat": 38.9217255, "fusion_lat": 0.0, "is_reserved": 0, "rental_uris": {"android": "https://dc.lft.to/lastmile_qr_scan", "ios": "https://dc.lft.to/lastmile_qr_scan"}, "bike_id": "8a2e9ac49d49087eb674b7ff7e710ca1"}, {"name": "6e5755e0d9b242c03fea34d49cbc9d86", "type": "electric_scooter", "fusion_lon": 0.0, "lon": -76.98542766666667, "is_disabled": 0, "lat": 38.866879833333336, "fusion_lat": 0.0, "is_reserved": 0, "rental_uris": {"android": "https://dc.lft.to/lastmile_qr_scan", "ios": "https://dc.lft.to/lastmile_qr_scan"}, "bike_id": "6e5755e0d9b242c03fea34d49cbc9d86"}, {"name": "95fffad8bda74b7244d52e836566d14b", "type": "electric_scooter", "fusion_lon": 0.0, "lon": -77.00931716666666, "is_disabled": 0, "lat": 38.89608, "fusion_lat": 0.0, "is_reserved": 0, "rental_uris": {"android": "https://dc.lft.to/lastmile_qr_scan", "ios": "https://dc.lft.to/lastmile_qr_scan"}, "bike_id": "95fffad8bda74b7244d52e836566d14b"}, {"name": "57c726bb7992d80b9fcc59ea6fd8b15e", "type": "electric_scooter", "fusion_lon": 0.0, "lon": -77.02713633333333, "is_disabled": 0, "lat": 38.916896, "fusion_lat": 0.0, "is_reserved": 0, "rental_uris": {"android": "https://dc.lft.to/lastmile_qr_scan", "ios": "https://dc.lft.to/lastmile_qr_scan"}, "bike_id": "57c726bb7992d80b9fcc59ea6fd8b15e"}, {"name": "e6700c3b97c52a838c4daadcfbdd86e4", "type": "electric_scooter", "fusion_lon": 0.0, "lon": -77.02963266666667, "is_disabled": 0, "lat": 38.923293, "fusion_lat": 0.0, "is_reserved": 0, "rental_uris": {"android": "https://dc.lft.to/lastmile_qr_scan", "ios": "https://dc.lft.to/lastmile_qr_scan"}, "bike_id": "e6700c3b97c52a838c4daadcfbdd86e4"}, {"name": "a03c445d0455c20af6410ae4a4137caa", "type": "electric_scooter", "fusion_lon": 0.0, "lon": -77.05466583333333, "is_disabled": 0, "lat": 38.8967025, "fusion_lat": 0.0, "is_reserved": 0, "rental_uris": {"android": "https://dc.lft.to/lastmile_qr_scan", "ios": "https://dc.lft.to/lastmile_qr_scan"}, "bike_id": "a03c445d0455c20af6410ae4a4137caa"}, {"name": "df6e13ffa02c6bc21b2013947ef34c1b", "type": "electric_scooter", "fusion_lon": 0.0, "lon": -77.0219785, "is_disabled": 0, "lat": 38.91981233333333, "fusion_lat": 0.0, "is_reserved": 0, "rental_uris": {"android": "https://dc.lft.to/lastmile_qr_scan", "ios": "https://dc.lft.to/lastmile_qr_scan"}, "bike_id": "df6e13ffa02c6bc21b2013947ef34c1b"}, {"name": "0cea4498f86cfb7f351b0336b639e1c0", "type": "electric_bike", "fusion_lon": 0.0, "lon": -77.01430233333333, "is_disabled": 0, "lat": 38.97225516666666, "fusion_lat": 0.0, "is_reserved": 0, "rental_uris": {"android": "https://dc.lft.to/lastmile_qr_scan", "ios": "https://dc.lft.to/lastmile_qr_scan"}, "bike_id": "0cea4498f86cfb7f351b0336b639e1c0"}, {"name": "b8db2ad6941e3792b40763514feec8fd", "type": "electric_scooter", "fusion_lon": 0.0, "lon": -77.07701216666666, "is_disabled": 0, "lat": 38.94384133333333, "fusion_lat": 0.0, "is_reserved": 0, "rental_uris": {"android": "https://dc.lft.to/lastmile_qr_scan", "ios": "https://dc.lft.to/lastmile_qr_scan"}, "bike_id": "b8db2ad6941e3792b40763514feec8fd"}, {"name": "de54ef91b25d0ccbec187f769769b692", "type": "electric_scooter", "fusion_lon": 0.0, "lon": -76.98381416666666, "is_disabled": 0, "lat": 38.866726166666666, "fusion_lat": 0.0, "is_reserved": 0, "rental_uris": {"android": "https://dc.lft.to/lastmile_qr_scan", "ios": "https://dc.lft.to/lastmile_qr_scan"}, "bike_id": "de54ef91b25d0ccbec187f769769b692"}, {"name": "cc1db5816e5377ab29afed9572cd4507", "type": "electric_bike", "fusion_lon": 0.0, "lon": -76.99248083333333, "is_disabled": 0, "lat": 38.7947125, "fusion_lat": 0.0, "is_reserved": 0, "rental_uris": {"android": "https://dc.lft.to/lastmile_qr_scan", "ios": "https://dc.lft.to/lastmile_qr_scan"}, "bike_id": "cc1db5816e5377ab29afed9572cd4507"}, {"name": "83ccbeb295825836a57a5c7116eec056", "type": "electric_scooter", "fusion_lon": 0.0, "lon": -77.04533016666667, "is_disabled": 0, "lat": 38.89472383333333, "fusion_lat": 0.0, "is_reserved": 0, "rental_uris": {"android": "https://dc.lft.to/lastmile_qr_scan", "ios": "https://dc.lft.to/lastmile_qr_scan"}, "bike_id": "83ccbeb295825836a57a5c7116eec056"}, {"name": "ffc318c864041bfc42751f51a70a5e88", "type": "electric_scooter", "fusion_lon": 0.0, "lon": -77.03680516666667, "is_disabled": 0, "lat": 38.909636166666665, "fusion_lat": 0.0, "is_reserved": 0, "rental_uris": {"android": "https://dc.lft.to/lastmile_qr_scan", "ios": "https://dc.lft.to/lastmile_qr_scan"}, "bike_id": "ffc318c864041bfc42751f51a70a5e88"}, {"name": "26b45a777bcece577bc6e3722803fd89", "type": "electric_scooter", "fusion_lon": 0.0, "lon": -77.03830333333333, "is_disabled": 0, "lat": 38.9032855, "fusion_lat": 0.0, "is_reserved": 0, "rental_uris": {"android": "https://dc.lft.to/lastmile_qr_scan", "ios": "https://dc.lft.to/lastmile_qr_scan"}, "bike_id": "26b45a777bcece577bc6e3722803fd89"}, {"name": "d8cac5fb2ebae6cbe68cf5764a834de8", "type": "electric_scooter", "fusion_lon": 0.0, "lon": -77.0312215, "is_disabled": 0, "lat": 38.91106216666667, "fusion_lat": 0.0, "is_reserved": 0, "rental_uris": {"android": "https://dc.lft.to/lastmile_qr_scan", "ios": "https://dc.lft.to/lastmile_qr_scan"}, "bike_id": "d8cac5fb2ebae6cbe68cf5764a834de8"}, {"name": "17838269e2acb6560def381922f9c766", "type": "electric_scooter", "fusion_lon": 0.0, "lon": -77.0260275, "is_disabled": 0, "lat": 38.91827383333333, "fusion_lat": 0.0, "is_reserved": 0, "rental_uris": {"android": "https://dc.lft.to/lastmile_qr_scan", "ios": "https://dc.lft.to/lastmile_qr_scan"}, "bike_id": "17838269e2acb6560def381922f9c766"}, {"name": "024faa18d45c85f1508cbbac7fe89c14", "type": "electric_scooter", "fusion_lon": 0.0, "lon": -77.034585, "is_disabled": 0, "lat": 38.902564166666664, "fusion_lat": 0.0, "is_reserved": 0, "rental_uris": {"android": "https://dc.lft.to/lastmile_qr_scan", "ios": "https://dc.lft.to/lastmile_qr_scan"}, "bike_id": "024faa18d45c85f1508cbbac7fe89c14"}, {"name": "8ff9806a945bbb796d36cf376c14a7e5", "type": "electric_scooter", "fusion_lon": 0.0, "lon": -77.03591183333333, "is_disabled": 0, "lat": 38.918881999999996, "fusion_lat": 0.0, "is_reserved": 0, "rental_uris": {"android": "https://dc.lft.to/lastmile_qr_scan", "ios": "https://dc.lft.to/lastmile_qr_scan"}, "bike_id": "8ff9806a945bbb796d36cf376c14a7e5"}, {"name": "2a3a229b78dfe2d92b6110b4277df2ba", "type": "electric_scooter", "fusion_lon": 0.0, "lon": -76.96015416666667, "is_disabled": 0, "lat": 38.869336833333335, "fusion_lat": 0.0, "is_reserved": 0, "rental_uris": {"android": "https://dc.lft.to/lastmile_qr_scan", "ios": "https://dc.lft.to/lastmile_qr_scan"}, "bike_id": "2a3a229b78dfe2d92b6110b4277df2ba"}, {"name": "9d21b3be38fff0706cc8af5e5ba0bbf2", "type": "electric_scooter", "fusion_lon": 0.0, "lon": -76.92602016666666, "is_disabled": 0, "lat": 38.89786816666667, "fusion_lat": 0.0, "is_reserved": 0, "rental_uris": {"android": "https://dc.lft.to/lastmile_qr_scan", "ios": "https://dc.lft.to/lastmile_qr_scan"}, "bike_id": "9d21b3be38fff0706cc8af5e5ba0bbf2"}, {"name": "8252bee7588237e62d281d5d175c1bc4", "type": "electric_bike", "fusion_lon": 0.0, "lon": -76.90420566666667, "is_disabled": 0, "lat": 38.94052716666667, "fusion_lat": 0.0, "is_reserved": 0, "rental_uris": {"android": "https://dc.lft.to/lastmile_qr_scan", "ios": "https://dc.lft.to/lastmile_qr_scan"}, "bike_id": "8252bee7588237e62d281d5d175c1bc4"}, {"name": "cdab7e062718d2b7268a60590ab48167", "type": "electric_scooter", "fusion_lon": 0.0, "lon": -77.02287616666666, "is_disabled": 0, "lat": 38.92712, "fusion_lat": 0.0, "is_reserved": 0, "rental_uris": {"android": "https://dc.lft.to/lastmile_qr_scan", "ios": "https://dc.lft.to/lastmile_qr_scan"}, "bike_id": "cdab7e062718d2b7268a60590ab48167"}, {"name": "1c7526452aaf876982c31810ea32c057", "type": "electric_scooter", "fusion_lon": 0.0, "lon": -77.024137, "is_disabled": 0, "lat": 38.89223883333333, "fusion_lat": 0.0, "is_reserved": 0, "rental_uris": {"android": "https://dc.lft.to/lastmile_qr_scan", "ios": "https://dc.lft.to/lastmile_qr_scan"}, "bike_id": "1c7526452aaf876982c31810ea32c057"}, {"name": "64736c1bbb890488dd4345be64e67070", "type": "electric_scooter", "fusion_lon": 0.0, "lon": -77.025091, "is_disabled": 0, "lat": 38.91809833333333, "fusion_lat": 0.0, "is_reserved": 0, "rental_uris": {"android": "https://dc.lft.to/lastmile_qr_scan", "ios": "https://dc.lft.to/lastmile_qr_scan"}, "bike_id": "64736c1bbb890488dd4345be64e67070"}, {"name": "98fb21ee06f06e37757076ec85db6ed6", "type": "electric_scooter", "fusion_lon": 0.0, "lon": -77.04600966666666, "is_disabled": 0, "lat": 38.9214295, "fusion_lat": 0.0, "is_reserved": 0, "rental_uris": {"android": "https://dc.lft.to/lastmile_qr_scan", "ios": "https://dc.lft.to/lastmile_qr_scan"}, "bike_id": "98fb21ee06f06e37757076ec85db6ed6"}, {"name": "bde39d38a57fdbc1f4faf4e5b9bce72c", "type": "electric_scooter", "fusion_lon": 0.0, "lon": -77.03214866666667, "is_disabled": 0, "lat": 38.92280016666667, "fusion_lat": 0.0, "is_reserved": 0, "rental_uris": {"android": "https://dc.lft.to/lastmile_qr_scan", "ios": "https://dc.lft.to/lastmile_qr_scan"}, "bike_id": "bde39d38a57fdbc1f4faf4e5b9bce72c"}, {"name": "de5ddcfa3b053fb6b6fdbbe8d51be8a2", "type": "electric_scooter", "fusion_lon": 0.0, "lon": -77.04081933333333, "is_disabled": 0, "lat": 38.914918166666666, "fusion_lat": 0.0, "is_reserved": 0, "rental_uris": {"android": "https://dc.lft.to/lastmile_qr_scan", "ios": "https://dc.lft.to/lastmile_qr_scan"}, "bike_id": "de5ddcfa3b053fb6b6fdbbe8d51be8a2"}, {"name": "4e734985d4b5c80ba8eab23721a6083c", "type": "electric_scooter", "fusion_lon": 0.0, "lon": -77.026581, "is_disabled": 0, "lat": 38.8972195, "fusion_lat": 0.0, "is_reserved": 0, "rental_uris": {"android": "https://dc.lft.to/lastmile_qr_scan", "ios": "https://dc.lft.to/lastmile_qr_scan"}, "bike_id": "4e734985d4b5c80ba8eab23721a6083c"}, {"name": "9ebf7df404dd531c5c0f14ec5a74af15", "type": "electric_scooter", "fusion_lon": 0.0, "lon": -77.00817183333334, "is_disabled": 0, "lat": 38.83171933333333, "fusion_lat": 0.0, "is_reserved": 0, "rental_uris": {"android": "https://dc.lft.to/lastmile_qr_scan", "ios": "https://dc.lft.to/lastmile_qr_scan"}, "bike_id": "9ebf7df404dd531c5c0f14ec5a74af15"}, {"name": "4cc1e0f00e66f23e93dc0afe13e258a0", "type": "electric_scooter", "fusion_lon": 0.0, "lon": -77.0434475, "is_disabled": 0, "lat": 38.903974, "fusion_lat": 0.0, "is_reserved": 0, "rental_uris": {"android": "https://dc.lft.to/lastmile_qr_scan", "ios": "https://dc.lft.to/lastmile_qr_scan"}, "bike_id": "4cc1e0f00e66f23e93dc0afe13e258a0"}, {"name": "2e42f6df25b47815b9277408b73a3d7a", "type": "electric_scooter", "fusion_lon": 0.0, "lon": -77.0178365, "is_disabled": 0, "lat": 38.874642, "fusion_lat": 0.0, "is_reserved": 0, "rental_uris": {"android": "https://dc.lft.to/lastmile_qr_scan", "ios": "https://dc.lft.to/lastmile_qr_scan"}, "bike_id": "2e42f6df25b47815b9277408b73a3d7a"}, {"name": "7c0e7d52ed3bdf3ba6fae647793e730a", "type": "electric_scooter", "fusion_lon": 0.0, "lon": -77.02711783333334, "is_disabled": 0, "lat": 38.9172195, "fusion_lat": 0.0, "is_reserved": 0, "rental_uris": {"android": "https://dc.lft.to/lastmile_qr_scan", "ios": "https://dc.lft.to/lastmile_qr_scan"}, "bike_id": "7c0e7d52ed3bdf3ba6fae647793e730a"}, {"name": "ca0472347cbd0c3ff4e3abdf0866cc75", "type": "electric_scooter", "fusion_lon": 0.0, "lon": -76.9923425, "is_disabled": 0, "lat": 38.9079295, "fusion_lat": 0.0, "is_reserved": 0, "rental_uris": {"android": "https://dc.lft.to/lastmile_qr_scan", "ios": "https://dc.lft.to/lastmile_qr_scan"}, "bike_id": "ca0472347cbd0c3ff4e3abdf0866cc75"}, {"name": "7efe93a00af64692da89a88fe8678106", "type": "electric_scooter", "fusion_lon": 0.0, "lon": -77.03293533333333, "is_disabled": 0, "lat": 38.898924666666666, "fusion_lat": 0.0, "is_reserved": 0, "rental_uris": {"android": "https://dc.lft.to/lastmile_qr_scan", "ios": "https://dc.lft.to/lastmile_qr_scan"}, "bike_id": "7efe93a00af64692da89a88fe8678106"}, {"name": "abc6a4f8159edd11eeab4af4339dc63a", "type": "electric_scooter", "fusion_lon": 0.0, "lon": -77.04977783333334, "is_disabled": 0, "lat": 38.901307, "fusion_lat": 0.0, "is_reserved": 0, "rental_uris": {"android": "https://dc.lft.to/lastmile_qr_scan", "ios": "https://dc.lft.to/lastmile_qr_scan"}, "bike_id": "abc6a4f8159edd11eeab4af4339dc63a"}, {"name": "316cb71d38193ea234af4dbca5de8b82", "type": "electric_scooter", "fusion_lon": 0.0, "lon": -76.99039683333334, "is_disabled": 0, "lat": 38.863899333333336, "fusion_lat": 0.0, "is_reserved": 0, "rental_uris": {"android": "https://dc.lft.to/lastmile_qr_scan", "ios": "https://dc.lft.to/lastmile_qr_scan"}, "bike_id": "316cb71d38193ea234af4dbca5de8b82"}, {"name": "ee6a0d449e114992cddb1b69659895aa", "type": "electric_scooter", "fusion_lon": 0.0, "lon": -76.990431, "is_disabled": 0, "lat": 38.86390883333333, "fusion_lat": 0.0, "is_reserved": 0, "rental_uris": {"android": "https://dc.lft.to/lastmile_qr_scan", "ios": "https://dc.lft.to/lastmile_qr_scan"}, "bike_id": "ee6a0d449e114992cddb1b69659895aa"}, {"name": "f9c17004ada613f7c05ea886be5c4465", "type": "electric_bike", "fusion_lon": 0.0, "lon": -77.11749466666667, "is_disabled": 0, "lat": 39.0510325, "fusion_lat": 0.0, "is_reserved": 0, "rental_uris": {"android": "https://dc.lft.to/lastmile_qr_scan", "ios": "https://dc.lft.to/lastmile_qr_scan"}, "bike_id": "f9c17004ada613f7c05ea886be5c4465"}, {"name": "99e6b3df81e8a2fe0baff0aa1101b629", "type": "electric_scooter", "fusion_lon": 0.0, "lon": -77.036671, "is_disabled": 0, "lat": 38.92242733333333, "fusion_lat": 0.0, "is_reserved": 0, "rental_uris": {"android": "https://dc.lft.to/lastmile_qr_scan", "ios": "https://dc.lft.to/lastmile_qr_scan"}, "bike_id": "99e6b3df81e8a2fe0baff0aa1101b629"}, {"name": "79b08894a10e5e6f91ad2141ad4e1d5d", "type": "electric_scooter", "fusion_lon": 0.0, "lon": -77.0175895, "is_disabled": 0, "lat": 38.902646833333336, "fusion_lat": 0.0, "is_reserved": 0, "rental_uris": {"android": "https://dc.lft.to/lastmile_qr_scan", "ios": "https://dc.lft.to/lastmile_qr_scan"}, "bike_id": "79b08894a10e5e6f91ad2141ad4e1d5d"}, {"name": "31647c612a105d07de17dfce4b7cf7b7", "type": "electric_bike", "fusion_lon": 0.0, "lon": -76.96059016666666, "is_disabled": 0, "lat": 38.88399916666667, "fusion_lat": 0.0, "is_reserved": 0, "rental_uris": {"android": "https://dc.lft.to/lastmile_qr_scan", "ios": "https://dc.lft.to/lastmile_qr_scan"}, "bike_id": "31647c612a105d07de17dfce4b7cf7b7"}, {"name": "3a53ec1eaecb934f764b22a6e4832c84", "type": "electric_scooter", "fusion_lon": 0.0, "lon": -76.94700266666666, "is_disabled": 0, "lat": 38.897286, "fusion_lat": 0.0, "is_reserved": 0, "rental_uris": {"android": "https://dc.lft.to/lastmile_qr_scan", "ios": "https://dc.lft.to/lastmile_qr_scan"}, "bike_id": "3a53ec1eaecb934f764b22a6e4832c84"}, {"name": "e01c5f92bed89598b340de1ce43a1ae1", "type": "electric_scooter", "fusion_lon": 0.0, "lon": -77.04372833333333, "is_disabled": 0, "lat": 38.9058915, "fusion_lat": 0.0, "is_reserved": 0, "rental_uris": {"android": "https://dc.lft.to/lastmile_qr_scan", "ios": "https://dc.lft.to/lastmile_qr_scan"}, "bike_id": "e01c5f92bed89598b340de1ce43a1ae1"}, {"name": "caf4741bf077235a4079820f3e3baf9e", "type": "electric_scooter", "fusion_lon": 0.0, "lon": -77.03868966666667, "is_disabled": 0, "lat": 38.902922333333336, "fusion_lat": 0.0, "is_reserved": 0, "rental_uris": {"android": "https://dc.lft.to/lastmile_qr_scan", "ios": "https://dc.lft.to/lastmile_qr_scan"}, "bike_id": "caf4741bf077235a4079820f3e3baf9e"}, {"name": "20be998477786a88585514738a658813", "type": "electric_scooter", "fusion_lon": 0.0, "lon": -77.027966, "is_disabled": 0, "lat": 38.90565766666667, "fusion_lat": 0.0, "is_reserved": 0, "rental_uris": {"android": "https://dc.lft.to/lastmile_qr_scan", "ios": "https://dc.lft.to/lastmile_qr_scan"}, "bike_id": "20be998477786a88585514738a658813"}, {"name": "264a2a990483de670eb9ef9e434ad372", "type": "electric_scooter", "fusion_lon": 0.0, "lon": -76.99618883333333, "is_disabled": 0, "lat": 38.950725166666665, "fusion_lat": 0.0, "is_reserved": 0, "rental_uris": {"android": "https://dc.lft.to/lastmile_qr_scan", "ios": "https://dc.lft.to/lastmile_qr_scan"}, "bike_id": "264a2a990483de670eb9ef9e434ad372"}, {"name": "29e014ec40784145dec00dfd4618f1e1", "type": "electric_scooter", "fusion_lon": 0.0, "lon": -77.03380366666667, "is_disabled": 0, "lat": 38.9253675, "fusion_lat": 0.0, "is_reserved": 0, "rental_uris": {"android": "https://dc.lft.to/lastmile_qr_scan", "ios": "https://dc.lft.to/lastmile_qr_scan"}, "bike_id": "29e014ec40784145dec00dfd4618f1e1"}, {"name": "c1b8fb2cf0789b094f0cb4edb168a163", "type": "electric_scooter", "fusion_lon": 0.0, "lon": -77.038395, "is_disabled": 0, "lat": 38.909907, "fusion_lat": 0.0, "is_reserved": 0, "rental_uris": {"android": "https://dc.lft.to/lastmile_qr_scan", "ios": "https://dc.lft.to/lastmile_qr_scan"}, "bike_id": "c1b8fb2cf0789b094f0cb4edb168a163"}, {"name": "b3ff7f0a8bf4df1b79ac5964310e51a2", "type": "electric_scooter", "fusion_lon": 0.0, "lon": -77.03280116666667, "is_disabled": 0, "lat": 38.92274166666667, "fusion_lat": 0.0, "is_reserved": 0, "rental_uris": {"android": "https://dc.lft.to/lastmile_qr_scan", "ios": "https://dc.lft.to/lastmile_qr_scan"}, "bike_id": "b3ff7f0a8bf4df1b79ac5964310e51a2"}, {"name": "d7669741566e8d9836c6bbc6f306ff95", "type": "electric_scooter", "fusion_lon": 0.0, "lon": -77.03241016666666, "is_disabled": 0, "lat": 38.927292333333334, "fusion_lat": 0.0, "is_reserved": 0, "rental_uris": {"android": "https://dc.lft.to/lastmile_qr_scan", "ios": "https://dc.lft.to/lastmile_qr_scan"}, "bike_id": "d7669741566e8d9836c6bbc6f306ff95"}, {"name": "6d52bb94e806433ea343c09b153d8857", "type": "electric_scooter", "fusion_lon": 0.0, "lon": -77.04560816666667, "is_disabled": 0, "lat": 38.90861533333333, "fusion_lat": 0.0, "is_reserved": 0, "rental_uris": {"android": "https://dc.lft.to/lastmile_qr_scan", "ios": "https://dc.lft.to/lastmile_qr_scan"}, "bike_id": "6d52bb94e806433ea343c09b153d8857"}, {"name": "83c0fb29147411d0c3436925b418aa06", "type": "electric_bike", "fusion_lon": 0.0, "lon": -77.05339083333334, "is_disabled": 0, "lat": 39.040874, "fusion_lat": 0.0, "is_reserved": 0, "rental_uris": {"android": "https://dc.lft.to/lastmile_qr_scan", "ios": "https://dc.lft.to/lastmile_qr_scan"}, "bike_id": "83c0fb29147411d0c3436925b418aa06"}, {"name": "c15447bdbf6a77205697bd6dee2ab471", "type": "electric_bike", "fusion_lon": 0.0, "lon": -76.992742, "is_disabled": 0, "lat": 38.97260033333333, "fusion_lat": 0.0, "is_reserved": 0, "rental_uris": {"android": "https://dc.lft.to/lastmile_qr_scan", "ios": "https://dc.lft.to/lastmile_qr_scan"}, "bike_id": "c15447bdbf6a77205697bd6dee2ab471"}, {"name": "dd4efac27dbce601c1738be28d777616", "type": "electric_scooter", "fusion_lon": 0.0, "lon": -77.038517, "is_disabled": 0, "lat": 38.9027725, "fusion_lat": 0.0, "is_reserved": 0, "rental_uris": {"android": "https://dc.lft.to/lastmile_qr_scan", "ios": "https://dc.lft.to/lastmile_qr_scan"}, "bike_id": "dd4efac27dbce601c1738be28d777616"}, {"name": "dc53b0673c0b9af5d16034bd2f3b205a", "type": "electric_scooter", "fusion_lon": 0.0, "lon": -77.05290366666667, "is_disabled": 0, "lat": 38.910208833333336, "fusion_lat": 0.0, "is_reserved": 0, "rental_uris": {"android": "https://dc.lft.to/lastmile_qr_scan", "ios": "https://dc.lft.to/lastmile_qr_scan"}, "bike_id": "dc53b0673c0b9af5d16034bd2f3b205a"}, {"name": "0bacb51828aaa0b2bfde606ff25eb30f", "type": "electric_scooter", "fusion_lon": 0.0, "lon": -77.05186683333334, "is_disabled": 0, "lat": 38.92432383333333, "fusion_lat": 0.0, "is_reserved": 0, "rental_uris": {"android": "https://dc.lft.to/lastmile_qr_scan", "ios": "https://dc.lft.to/lastmile_qr_scan"}, "bike_id": "0bacb51828aaa0b2bfde606ff25eb30f"}, {"name": "3c615e8f4fbb37b7b0c6e9f7b20ee5a3", "type": "electric_scooter", "fusion_lon": 0.0, "lon": -77.03348716666666, "is_disabled": 0, "lat": 38.93584583333333, "fusion_lat": 0.0, "is_reserved": 0, "rental_uris": {"android": "https://dc.lft.to/lastmile_qr_scan", "ios": "https://dc.lft.to/lastmile_qr_scan"}, "bike_id": "3c615e8f4fbb37b7b0c6e9f7b20ee5a3"}, {"name": "acba27c2ff20c7ac42a8d7bd16e19001", "type": "electric_scooter", "fusion_lon": 0.0, "lon": -77.03380716666666, "is_disabled": 0, "lat": 38.917155666666666, "fusion_lat": 0.0, "is_reserved": 0, "rental_uris": {"android": "https://dc.lft.to/lastmile_qr_scan", "ios": "https://dc.lft.to/lastmile_qr_scan"}, "bike_id": "acba27c2ff20c7ac42a8d7bd16e19001"}, {"name": "5c3441c2c1ea9753ccab28a4925a443f", "type": "electric_scooter", "fusion_lon": 0.0, "lon": -77.02345666666666, "is_disabled": 0, "lat": 38.92713583333333, "fusion_lat": 0.0, "is_reserved": 0, "rental_uris": {"android": "https://dc.lft.to/lastmile_qr_scan", "ios": "https://dc.lft.to/lastmile_qr_scan"}, "bike_id": "5c3441c2c1ea9753ccab28a4925a443f"}, {"name": "b67ba810174ebd4aab09c6a67ab17d24", "type": "electric_scooter", "fusion_lon": 0.0, "lon": -77.000323, "is_disabled": 0, "lat": 38.8740365, "fusion_lat": 0.0, "is_reserved": 0, "rental_uris": {"android": "https://dc.lft.to/lastmile_qr_scan", "ios": "https://dc.lft.to/lastmile_qr_scan"}, "bike_id": "b67ba810174ebd4aab09c6a67ab17d24"}, {"name": "10edb5d992dc2bd18c94a224479728cd", "type": "electric_scooter", "fusion_lon": 0.0, "lon": -77.04707066666667, "is_disabled": 0, "lat": 38.9217315, "fusion_lat": 0.0, "is_reserved": 0, "rental_uris": {"android": "https://dc.lft.to/lastmile_qr_scan", "ios": "https://dc.lft.to/lastmile_qr_scan"}, "bike_id": "10edb5d992dc2bd18c94a224479728cd"}, {"name": "b376644a58a1ed8cbf172234a9632646", "type": "electric_scooter", "fusion_lon": 0.0, "lon": -77.01796616666667, "is_disabled": 0, "lat": 38.914022333333335, "fusion_lat": 0.0, "is_reserved": 0, "rental_uris": {"android": "https://dc.lft.to/lastmile_qr_scan", "ios": "https://dc.lft.to/lastmile_qr_scan"}, "bike_id": "b376644a58a1ed8cbf172234a9632646"}, {"name": "c98995758fbe8d9b97c5a665e3c1c947", "type": "electric_scooter", "fusion_lon": 0.0, "lon": -77.00648183333334, "is_disabled": 0, "lat": 38.899868, "fusion_lat": 0.0, "is_reserved": 0, "rental_uris": {"android": "https://dc.lft.to/lastmile_qr_scan", "ios": "https://dc.lft.to/lastmile_qr_scan"}, "bike_id": "c98995758fbe8d9b97c5a665e3c1c947"}, {"name": "bc59a51da0afddead8772e69f3105386", "type": "electric_scooter", "fusion_lon": 0.0, "lon": -77.02002883333333, "is_disabled": 0, "lat": 38.914235833333336, "fusion_lat": 0.0, "is_reserved": 0, "rental_uris": {"android": "https://dc.lft.to/lastmile_qr_scan", "ios": "https://dc.lft.to/lastmile_qr_scan"}, "bike_id": "bc59a51da0afddead8772e69f3105386"}, {"name": "21c85925fe3468a89dff03423878a83e", "type": "electric_scooter", "fusion_lon": 0.0, "lon": -77.02560333333334, "is_disabled": 0, "lat": 38.941708, "fusion_lat": 0.0, "is_reserved": 0, "rental_uris": {"android": "https://dc.lft.to/lastmile_qr_scan", "ios": "https://dc.lft.to/lastmile_qr_scan"}, "bike_id": "21c85925fe3468a89dff03423878a83e"}, {"name": "fc3a5d1d4674987855a7c2dfe6d3b409", "type": "electric_scooter", "fusion_lon": 0.0, "lon": -76.9999585, "is_disabled": 0, "lat": 38.87485183333333, "fusion_lat": 0.0, "is_reserved": 0, "rental_uris": {"android": "https://dc.lft.to/lastmile_qr_scan", "ios": "https://dc.lft.to/lastmile_qr_scan"}, "bike_id": "fc3a5d1d4674987855a7c2dfe6d3b409"}, {"name": "4bbed8d3001df87b647fe6ebf13c6a4e", "type": "electric_scooter", "fusion_lon": 0.0, "lon": -77.019056, "is_disabled": 0, "lat": 38.923457, "fusion_lat": 0.0, "is_reserved": 0, "rental_uris": {"android": "https://dc.lft.to/lastmile_qr_scan", "ios": "https://dc.lft.to/lastmile_qr_scan"}, "bike_id": "4bbed8d3001df87b647fe6ebf13c6a4e"}, {"name": "a65f3c1c35d5f677cb8a81cb569b3a94", "type": "electric_scooter", "fusion_lon": 0.0, "lon": -76.980662, "is_disabled": 0, "lat": 38.901744, "fusion_lat": 0.0, "is_reserved": 0, "rental_uris": {"android": "https://dc.lft.to/lastmile_qr_scan", "ios": "https://dc.lft.to/lastmile_qr_scan"}, "bike_id": "a65f3c1c35d5f677cb8a81cb569b3a94"}, {"name": "5494ddca52620a45aeea06cad462f32f", "type": "electric_scooter", "fusion_lon": 0.0, "lon": -77.04477083333333, "is_disabled": 0, "lat": 38.912809333333335, "fusion_lat": 0.0, "is_reserved": 0, "rental_uris": {"android": "https://dc.lft.to/lastmile_qr_scan", "ios": "https://dc.lft.to/lastmile_qr_scan"}, "bike_id": "5494ddca52620a45aeea06cad462f32f"}, {"name": "e7c546d1db9ce45ef598c4fe765a5d5b", "type": "electric_scooter", "fusion_lon": 0.0, "lon": -76.99040083333334, "is_disabled": 0, "lat": 38.86392583333333, "fusion_lat": 0.0, "is_reserved": 0, "rental_uris": {"android": "https://dc.lft.to/lastmile_qr_scan", "ios": "https://dc.lft.to/lastmile_qr_scan"}, "bike_id": "e7c546d1db9ce45ef598c4fe765a5d5b"}, {"name": "d8642279202aeea66001fe7d5107d7fc", "type": "electric_scooter", "fusion_lon": 0.0, "lon": -76.99486433333334, "is_disabled": 0, "lat": 38.862432166666665, "fusion_lat": 0.0, "is_reserved": 0, "rental_uris": {"android": "https://dc.lft.to/lastmile_qr_scan", "ios": "https://dc.lft.to/lastmile_qr_scan"}, "bike_id": "d8642279202aeea66001fe7d5107d7fc"}, {"name": "65d142fc2bf548bcd9014e971be80225", "type": "electric_scooter", "fusion_lon": 0.0, "lon": -77.0385825, "is_disabled": 0, "lat": 38.90294133333333, "fusion_lat": 0.0, "is_reserved": 0, "rental_uris": {"android": "https://dc.lft.to/lastmile_qr_scan", "ios": "https://dc.lft.to/lastmile_qr_scan"}, "bike_id": "65d142fc2bf548bcd9014e971be80225"}, {"name": "70c7562124c4ec59488d03cb99a79831", "type": "electric_scooter", "fusion_lon": 0.0, "lon": -77.04011966666667, "is_disabled": 0, "lat": 38.896393833333335, "fusion_lat": 0.0, "is_reserved": 0, "rental_uris": {"android": "https://dc.lft.to/lastmile_qr_scan", "ios": "https://dc.lft.to/lastmile_qr_scan"}, "bike_id": "70c7562124c4ec59488d03cb99a79831"}, {"name": "3f7ffd4c612b4333632c208bb309528f", "type": "electric_scooter", "fusion_lon": 0.0, "lon": -76.99601533333333, "is_disabled": 0, "lat": 38.928502, "fusion_lat": 0.0, "is_reserved": 0, "rental_uris": {"android": "https://dc.lft.to/lastmile_qr_scan", "ios": "https://dc.lft.to/lastmile_qr_scan"}, "bike_id": "3f7ffd4c612b4333632c208bb309528f"}, {"name": "fbf603786ad479d38f659d2eafd0f4b9", "type": "electric_scooter", "fusion_lon": 0.0, "lon": -76.99258266666666, "is_disabled": 0, "lat": 38.89810133333334, "fusion_lat": 0.0, "is_reserved": 0, "rental_uris": {"android": "https://dc.lft.to/lastmile_qr_scan", "ios": "https://dc.lft.to/lastmile_qr_scan"}, "bike_id": "fbf603786ad479d38f659d2eafd0f4b9"}, {"name": "7c4b4b7430de959825784e0615312412", "type": "electric_scooter", "fusion_lon": 0.0, "lon": -77.04697316666666, "is_disabled": 0, "lat": 38.902458833333334, "fusion_lat": 0.0, "is_reserved": 0, "rental_uris": {"android": "https://dc.lft.to/lastmile_qr_scan", "ios": "https://dc.lft.to/lastmile_qr_scan"}, "bike_id": "7c4b4b7430de959825784e0615312412"}, {"name": "f6acb3ee0459ff6bbca5bb45a273ef2d", "type": "electric_scooter", "fusion_lon": 0.0, "lon": -77.03486566666666, "is_disabled": 0, "lat": 38.90972466666667, "fusion_lat": 0.0, "is_reserved": 0, "rental_uris": {"android": "https://dc.lft.to/lastmile_qr_scan", "ios": "https://dc.lft.to/lastmile_qr_scan"}, "bike_id": "f6acb3ee0459ff6bbca5bb45a273ef2d"}, {"name": "a531fac9d56231debcc579172af41790", "type": "electric_scooter", "fusion_lon": 0.0, "lon": -77.01915033333333, "is_disabled": 0, "lat": 38.877107333333335, "fusion_lat": 0.0, "is_reserved": 0, "rental_uris": {"android": "https://dc.lft.to/lastmile_qr_scan", "ios": "https://dc.lft.to/lastmile_qr_scan"}, "bike_id": "a531fac9d56231debcc579172af41790"}, {"name": "2f988e7ded3386227f2e660477d3bf7a", "type": "electric_bike", "fusion_lon": 0.0, "lon": -77.06697033333333, "is_disabled": 0, "lat": 38.861039833333336, "fusion_lat": 0.0, "is_reserved": 0, "rental_uris": {"android": "https://dc.lft.to/lastmile_qr_scan", "ios": "https://dc.lft.to/lastmile_qr_scan"}, "bike_id": "2f988e7ded3386227f2e660477d3bf7a"}, {"name": "9018bcd891732a773cabe6edc4794f26", "type": "electric_scooter", "fusion_lon": 0.0, "lon": -77.0330695, "is_disabled": 0, "lat": 38.95636533333333, "fusion_lat": 0.0, "is_reserved": 0, "rental_uris": {"android": "https://dc.lft.to/lastmile_qr_scan", "ios": "https://dc.lft.to/lastmile_qr_scan"}, "bike_id": "9018bcd891732a773cabe6edc4794f26"}, {"name": "4e6db99b956334547c2458c07901e3b7", "type": "electric_scooter", "fusion_lon": 0.0, "lon": -77.032868, "is_disabled": 0, "lat": 38.936423833333336, "fusion_lat": 0.0, "is_reserved": 0, "rental_uris": {"android": "https://dc.lft.to/lastmile_qr_scan", "ios": "https://dc.lft.to/lastmile_qr_scan"}, "bike_id": "4e6db99b956334547c2458c07901e3b7"}, {"name": "a51bec4aca5dff292982d8e871629f20", "type": "electric_bike", "fusion_lon": 0.0, "lon": -76.95668033333334, "is_disabled": 0, "lat": 38.88494883333333, "fusion_lat": 0.0, "is_reserved": 0, "rental_uris": {"android": "https://dc.lft.to/lastmile_qr_scan", "ios": "https://dc.lft.to/lastmile_qr_scan"}, "bike_id": "a51bec4aca5dff292982d8e871629f20"}, {"name": "5a0cfe0d44dcbf2eef4f2f0f2996b8f6", "type": "electric_scooter", "fusion_lon": 0.0, "lon": -77.042114, "is_disabled": 0, "lat": 38.92129966666667, "fusion_lat": 0.0, "is_reserved": 0, "rental_uris": {"android": "https://dc.lft.to/lastmile_qr_scan", "ios": "https://dc.lft.to/lastmile_qr_scan"}, "bike_id": "5a0cfe0d44dcbf2eef4f2f0f2996b8f6"}, {"name": "694b8786dbc087e41d2069adc3ddd29e", "type": "electric_scooter", "fusion_lon": 0.0, "lon": -77.0393595, "is_disabled": 0, "lat": 38.91567966666667, "fusion_lat": 0.0, "is_reserved": 0, "rental_uris": {"android": "https://dc.lft.to/lastmile_qr_scan", "ios": "https://dc.lft.to/lastmile_qr_scan"}, "bike_id": "694b8786dbc087e41d2069adc3ddd29e"}, {"name": "0623cc41de4d9cbb51baea45fd80de0b", "type": "electric_scooter", "fusion_lon": 0.0, "lon": -77.03317816666667, "is_disabled": 0, "lat": 38.92879583333333, "fusion_lat": 0.0, "is_reserved": 0, "rental_uris": {"android": "https://dc.lft.to/lastmile_qr_scan", "ios": "https://dc.lft.to/lastmile_qr_scan"}, "bike_id": "0623cc41de4d9cbb51baea45fd80de0b"}, {"name": "86138d7991bebf1698091e6b3079c667", "type": "electric_scooter", "fusion_lon": 0.0, "lon": -77.0217995, "is_disabled": 0, "lat": 38.8937995, "fusion_lat": 0.0, "is_reserved": 0, "rental_uris": {"android": "https://dc.lft.to/lastmile_qr_scan", "ios": "https://dc.lft.to/lastmile_qr_scan"}, "bike_id": "86138d7991bebf1698091e6b3079c667"}, {"name": "eebf90a8e9198d9165ff004c661152e4", "type": "electric_scooter", "fusion_lon": 0.0, "lon": -77.0442075, "is_disabled": 0, "lat": 38.894059166666665, "fusion_lat": 0.0, "is_reserved": 0, "rental_uris": {"android": "https://dc.lft.to/lastmile_qr_scan", "ios": "https://dc.lft.to/lastmile_qr_scan"}, "bike_id": "eebf90a8e9198d9165ff004c661152e4"}, {"name": "183e1d42d2c478fc7c908246169eaa90", "type": "electric_scooter", "fusion_lon": 0.0, "lon": -77.0246055, "is_disabled": 0, "lat": 38.90959933333333, "fusion_lat": 0.0, "is_reserved": 0, "rental_uris": {"android": "https://dc.lft.to/lastmile_qr_scan", "ios": "https://dc.lft.to/lastmile_qr_scan"}, "bike_id": "183e1d42d2c478fc7c908246169eaa90"}, {"name": "ad818ce00c7ea460ed82c4ff22f917cb", "type": "electric_scooter", "fusion_lon": 0.0, "lon": -77.02517683333333, "is_disabled": 0, "lat": 38.92137833333334, "fusion_lat": 0.0, "is_reserved": 0, "rental_uris": {"android": "https://dc.lft.to/lastmile_qr_scan", "ios": "https://dc.lft.to/lastmile_qr_scan"}, "bike_id": "ad818ce00c7ea460ed82c4ff22f917cb"}, {"name": "bd96f4735ad6b8f8d1f2e52e8d4ff1e8", "type": "electric_scooter", "fusion_lon": 0.0, "lon": -77.01416883333333, "is_disabled": 0, "lat": 38.9140435, "fusion_lat": 0.0, "is_reserved": 0, "rental_uris": {"android": "https://dc.lft.to/lastmile_qr_scan", "ios": "https://dc.lft.to/lastmile_qr_scan"}, "bike_id": "bd96f4735ad6b8f8d1f2e52e8d4ff1e8"}, {"name": "dae73a41a673f32303b1f640abe1ce24", "type": "electric_scooter", "fusion_lon": 0.0, "lon": -76.9729965, "is_disabled": 0, "lat": 38.91989483333333, "fusion_lat": 0.0, "is_reserved": 0, "rental_uris": {"android": "https://dc.lft.to/lastmile_qr_scan", "ios": "https://dc.lft.to/lastmile_qr_scan"}, "bike_id": "dae73a41a673f32303b1f640abe1ce24"}, {"name": "e191979400b75d1f29914c9bbd422a80", "type": "electric_scooter", "fusion_lon": 0.0, "lon": -77.0005885, "is_disabled": 0, "lat": 38.887023, "fusion_lat": 0.0, "is_reserved": 0, "rental_uris": {"android": "https://dc.lft.to/lastmile_qr_scan", "ios": "https://dc.lft.to/lastmile_qr_scan"}, "bike_id": "e191979400b75d1f29914c9bbd422a80"}, {"name": "7de3fa52398147cc871812363e157b98", "type": "electric_scooter", "fusion_lon": 0.0, "lon": -77.01773283333333, "is_disabled": 0, "lat": 38.902690166666666, "fusion_lat": 0.0, "is_reserved": 0, "rental_uris": {"android": "https://dc.lft.to/lastmile_qr_scan", "ios": "https://dc.lft.to/lastmile_qr_scan"}, "bike_id": "7de3fa52398147cc871812363e157b98"}, {"name": "d7c8ebc0c946d5c94b3ecf9f103429b9", "type": "electric_scooter", "fusion_lon": 0.0, "lon": -77.04023733333334, "is_disabled": 0, "lat": 38.92449633333333, "fusion_lat": 0.0, "is_reserved": 0, "rental_uris": {"android": "https://dc.lft.to/lastmile_qr_scan", "ios": "https://dc.lft.to/lastmile_qr_scan"}, "bike_id": "d7c8ebc0c946d5c94b3ecf9f103429b9"}, {"name": "95170560ebee7e0dfa4abd263c686f78", "type": "electric_scooter", "fusion_lon": 0.0, "lon": -77.02004416666666, "is_disabled": 0, "lat": 38.892492, "fusion_lat": 0.0, "is_reserved": 0, "rental_uris": {"android": "https://dc.lft.to/lastmile_qr_scan", "ios": "https://dc.lft.to/lastmile_qr_scan"}, "bike_id": "95170560ebee7e0dfa4abd263c686f78"}, {"name": "260e669b2f67d7a071bed595d0300946", "type": "electric_scooter", "fusion_lon": 0.0, "lon": -77.001127, "is_disabled": 0, "lat": 38.8737315, "fusion_lat": 0.0, "is_reserved": 0, "rental_uris": {"android": "https://dc.lft.to/lastmile_qr_scan", "ios": "https://dc.lft.to/lastmile_qr_scan"}, "bike_id": "260e669b2f67d7a071bed595d0300946"}, {"name": "98f4bae948f973882b79c1115a08791b", "type": "electric_scooter", "fusion_lon": 0.0, "lon": -77.0021455, "is_disabled": 0, "lat": 38.91462166666667, "fusion_lat": 0.0, "is_reserved": 0, "rental_uris": {"android": "https://dc.lft.to/lastmile_qr_scan", "ios": "https://dc.lft.to/lastmile_qr_scan"}, "bike_id": "98f4bae948f973882b79c1115a08791b"}, {"name": "3a82226e714a53334ef3bf4e5b3b3e9b", "type": "electric_scooter", "fusion_lon": 0.0, "lon": -76.98002883333334, "is_disabled": 0, "lat": 38.90682483333333, "fusion_lat": 0.0, "is_reserved": 0, "rental_uris": {"android": "https://dc.lft.to/lastmile_qr_scan", "ios": "https://dc.lft.to/lastmile_qr_scan"}, "bike_id": "3a82226e714a53334ef3bf4e5b3b3e9b"}, {"name": "f91744591125c67bf6f7ed351240d0e9", "type": "electric_scooter", "fusion_lon": 0.0, "lon": -77.028173, "is_disabled": 0, "lat": 38.89922816666667, "fusion_lat": 0.0, "is_reserved": 0, "rental_uris": {"android": "https://dc.lft.to/lastmile_qr_scan", "ios": "https://dc.lft.to/lastmile_qr_scan"}, "bike_id": "f91744591125c67bf6f7ed351240d0e9"}, {"name": "add93b1faed1822ec5044c33c5bdc96a", "type": "electric_scooter", "fusion_lon": 0.0, "lon": -77.02114683333333, "is_disabled": 0, "lat": 38.89978516666667, "fusion_lat": 0.0, "is_reserved": 0, "rental_uris": {"android": "https://dc.lft.to/lastmile_qr_scan", "ios": "https://dc.lft.to/lastmile_qr_scan"}, "bike_id": "add93b1faed1822ec5044c33c5bdc96a"}, {"name": "d4d2413f6869b66605865533cf1e25c1", "type": "electric_scooter", "fusion_lon": 0.0, "lon": -77.03353716666666, "is_disabled": 0, "lat": 38.925405166666664, "fusion_lat": 0.0, "is_reserved": 0, "rental_uris": {"android": "https://dc.lft.to/lastmile_qr_scan", "ios": "https://dc.lft.to/lastmile_qr_scan"}, "bike_id": "d4d2413f6869b66605865533cf1e25c1"}, {"name": "1715e3d78284896cbd89fdfc711abd16", "type": "electric_scooter", "fusion_lon": 0.0, "lon": -77.04360133333333, "is_disabled": 0, "lat": 38.90580666666666, "fusion_lat": 0.0, "is_reserved": 0, "rental_uris": {"android": "https://dc.lft.to/lastmile_qr_scan", "ios": "https://dc.lft.to/lastmile_qr_scan"}, "bike_id": "1715e3d78284896cbd89fdfc711abd16"}, {"name": "79a61aadf9a4cd965eed4c9aed1f70d5", "type": "electric_scooter", "fusion_lon": 0.0, "lon": -76.97329733333333, "is_disabled": 0, "lat": 38.904110833333334, "fusion_lat": 0.0, "is_reserved": 0, "rental_uris": {"android": "https://dc.lft.to/lastmile_qr_scan", "ios": "https://dc.lft.to/lastmile_qr_scan"}, "bike_id": "79a61aadf9a4cd965eed4c9aed1f70d5"}, {"name": "db992d4b37c42583ab236a7e65795f68", "type": "electric_scooter", "fusion_lon": 0.0, "lon": -77.03243966666666, "is_disabled": 0, "lat": 38.92732316666667, "fusion_lat": 0.0, "is_reserved": 0, "rental_uris": {"android": "https://dc.lft.to/lastmile_qr_scan", "ios": "https://dc.lft.to/lastmile_qr_scan"}, "bike_id": "db992d4b37c42583ab236a7e65795f68"}, {"name": "85c34fc941d64f3b7d1802bf473302a3", "type": "electric_scooter", "fusion_lon": 0.0, "lon": -77.02208066666667, "is_disabled": 0, "lat": 38.90172733333333, "fusion_lat": 0.0, "is_reserved": 0, "rental_uris": {"android": "https://dc.lft.to/lastmile_qr_scan", "ios": "https://dc.lft.to/lastmile_qr_scan"}, "bike_id": "85c34fc941d64f3b7d1802bf473302a3"}, {"name": "9a6c2ff83f5c1799a317c205829d8488", "type": "electric_scooter", "fusion_lon": 0.0, "lon": -77.04438533333334, "is_disabled": 0, "lat": 38.905789666666664, "fusion_lat": 0.0, "is_reserved": 0, "rental_uris": {"android": "https://dc.lft.to/lastmile_qr_scan", "ios": "https://dc.lft.to/lastmile_qr_scan"}, "bike_id": "9a6c2ff83f5c1799a317c205829d8488"}, {"name": "b80f661a19a79c58841d7ce1f720600e", "type": "electric_scooter", "fusion_lon": 0.0, "lon": -76.99417516666666, "is_disabled": 0, "lat": 38.87783833333334, "fusion_lat": 0.0, "is_reserved": 0, "rental_uris": {"android": "https://dc.lft.to/lastmile_qr_scan", "ios": "https://dc.lft.to/lastmile_qr_scan"}, "bike_id": "b80f661a19a79c58841d7ce1f720600e"}, {"name": "d870faf2ef6929d2b15843b478c165d7", "type": "electric_scooter", "fusion_lon": 0.0, "lon": -77.03665533333333, "is_disabled": 0, "lat": 38.922451333333335, "fusion_lat": 0.0, "is_reserved": 0, "rental_uris": {"android": "https://dc.lft.to/lastmile_qr_scan", "ios": "https://dc.lft.to/lastmile_qr_scan"}, "bike_id": "d870faf2ef6929d2b15843b478c165d7"}, {"name": "284c9d1f2413ec0833b0a845448c2126", "type": "electric_scooter", "fusion_lon": 0.0, "lon": -77.04813816666666, "is_disabled": 0, "lat": 38.89619233333333, "fusion_lat": 0.0, "is_reserved": 0, "rental_uris": {"android": "https://dc.lft.to/lastmile_qr_scan", "ios": "https://dc.lft.to/lastmile_qr_scan"}, "bike_id": "284c9d1f2413ec0833b0a845448c2126"}, {"name": "d801ad1c0fea31a01a5655ac4a01440c", "type": "electric_scooter", "fusion_lon": 0.0, "lon": -77.0574245, "is_disabled": 0, "lat": 38.933929, "fusion_lat": 0.0, "is_reserved": 0, "rental_uris": {"android": "https://dc.lft.to/lastmile_qr_scan", "ios": "https://dc.lft.to/lastmile_qr_scan"}, "bike_id": "d801ad1c0fea31a01a5655ac4a01440c"}, {"name": "d052cba9bc59717528aa1191e77ef61e", "type": "electric_scooter", "fusion_lon": 0.0, "lon": -77.029022, "is_disabled": 0, "lat": 38.92318733333333, "fusion_lat": 0.0, "is_reserved": 0, "rental_uris": {"android": "https://dc.lft.to/lastmile_qr_scan", "ios": "https://dc.lft.to/lastmile_qr_scan"}, "bike_id": "d052cba9bc59717528aa1191e77ef61e"}, {"name": "8e697e826362caa13b69c320448b525a", "type": "electric_scooter", "fusion_lon": 0.0, "lon": -77.03264166666666, "is_disabled": 0, "lat": 38.9335425, "fusion_lat": 0.0, "is_reserved": 0, "rental_uris": {"android": "https://dc.lft.to/lastmile_qr_scan", "ios": "https://dc.lft.to/lastmile_qr_scan"}, "bike_id": "8e697e826362caa13b69c320448b525a"}, {"name": "82052bf66c4bbd5937d9a111fd25371b", "type": "electric_scooter", "fusion_lon": 0.0, "lon": -77.036313, "is_disabled": 0, "lat": 38.93680466666667, "fusion_lat": 0.0, "is_reserved": 0, "rental_uris": {"android": "https://dc.lft.to/lastmile_qr_scan", "ios": "https://dc.lft.to/lastmile_qr_scan"}, "bike_id": "82052bf66c4bbd5937d9a111fd25371b"}, {"name": "e12d0e8451c3d08ff5ff86d640c106e0", "type": "electric_scooter", "fusion_lon": 0.0, "lon": -76.97443783333334, "is_disabled": 0, "lat": 38.902438833333335, "fusion_lat": 0.0, "is_reserved": 0, "rental_uris": {"android": "https://dc.lft.to/lastmile_qr_scan", "ios": "https://dc.lft.to/lastmile_qr_scan"}, "bike_id": "e12d0e8451c3d08ff5ff86d640c106e0"}, {"name": "411a277775884ae07e6e464b2049e70c", "type": "electric_scooter", "fusion_lon": 0.0, "lon": -77.03404083333334, "is_disabled": 0, "lat": 38.92439666666667, "fusion_lat": 0.0, "is_reserved": 0, "rental_uris": {"android": "https://dc.lft.to/lastmile_qr_scan", "ios": "https://dc.lft.to/lastmile_qr_scan"}, "bike_id": "411a277775884ae07e6e464b2049e70c"}, {"name": "89f4645231f05623d83e11f3074bab8e", "type": "electric_scooter", "fusion_lon": 0.0, "lon": -76.98565566666667, "is_disabled": 0, "lat": 38.866849, "fusion_lat": 0.0, "is_reserved": 0, "rental_uris": {"android": "https://dc.lft.to/lastmile_qr_scan", "ios": "https://dc.lft.to/lastmile_qr_scan"}, "bike_id": "89f4645231f05623d83e11f3074bab8e"}, {"name": "cbc1e252971aed4045cd235c8e4e7de4", "type": "electric_scooter", "fusion_lon": 0.0, "lon": -77.02795, "is_disabled": 0, "lat": 38.930627333333334, "fusion_lat": 0.0, "is_reserved": 0, "rental_uris": {"android": "https://dc.lft.to/lastmile_qr_scan", "ios": "https://dc.lft.to/lastmile_qr_scan"}, "bike_id": "cbc1e252971aed4045cd235c8e4e7de4"}, {"name": "499ce91f33ea422b92c5a1cb846eebc5", "type": "electric_scooter", "fusion_lon": 0.0, "lon": -76.99495283333333, "is_disabled": 0, "lat": 38.8777605, "fusion_lat": 0.0, "is_reserved": 0, "rental_uris": {"android": "https://dc.lft.to/lastmile_qr_scan", "ios": "https://dc.lft.to/lastmile_qr_scan"}, "bike_id": "499ce91f33ea422b92c5a1cb846eebc5"}, {"name": "5a1898828f9c3d421a0797e1bf0ea5fa", "type": "electric_scooter", "fusion_lon": 0.0, "lon": -77.0366595, "is_disabled": 0, "lat": 38.91679233333333, "fusion_lat": 0.0, "is_reserved": 0, "rental_uris": {"android": "https://dc.lft.to/lastmile_qr_scan", "ios": "https://dc.lft.to/lastmile_qr_scan"}, "bike_id": "5a1898828f9c3d421a0797e1bf0ea5fa"}, {"name": "dd78b4aac2ed69ba9e58f06c55335a9e", "type": "electric_scooter", "fusion_lon": 0.0, "lon": -77.017158, "is_disabled": 0, "lat": 38.90258383333333, "fusion_lat": 0.0, "is_reserved": 0, "rental_uris": {"android": "https://dc.lft.to/lastmile_qr_scan", "ios": "https://dc.lft.to/lastmile_qr_scan"}, "bike_id": "dd78b4aac2ed69ba9e58f06c55335a9e"}, {"name": "5bcc7b6a8680fcfde810f6dccc3160d0", "type": "electric_scooter", "fusion_lon": 0.0, "lon": -77.0070235, "is_disabled": 0, "lat": 38.87676616666667, "fusion_lat": 0.0, "is_reserved": 0, "rental_uris": {"android": "https://dc.lft.to/lastmile_qr_scan", "ios": "https://dc.lft.to/lastmile_qr_scan"}, "bike_id": "5bcc7b6a8680fcfde810f6dccc3160d0"}, {"name": "b3dd65f2779870967dcd53c9daae3667", "type": "electric_scooter", "fusion_lon": 0.0, "lon": -76.9791375, "is_disabled": 0, "lat": 38.92456133333334, "fusion_lat": 0.0, "is_reserved": 0, "rental_uris": {"android": "https://dc.lft.to/lastmile_qr_scan", "ios": "https://dc.lft.to/lastmile_qr_scan"}, "bike_id": "b3dd65f2779870967dcd53c9daae3667"}, {"name": "d7eb66a5c00562fd86eabc3ad17f2bbb", "type": "electric_scooter", "fusion_lon": 0.0, "lon": -77.04046183333334, "is_disabled": 0, "lat": 38.92433033333333, "fusion_lat": 0.0, "is_reserved": 0, "rental_uris": {"android": "https://dc.lft.to/lastmile_qr_scan", "ios": "https://dc.lft.to/lastmile_qr_scan"}, "bike_id": "d7eb66a5c00562fd86eabc3ad17f2bbb"}, {"name": "cc1da249272b8ade596df80970ed7e78", "type": "electric_scooter", "fusion_lon": 0.0, "lon": -77.0271065, "is_disabled": 0, "lat": 38.9155405, "fusion_lat": 0.0, "is_reserved": 0, "rental_uris": {"android": "https://dc.lft.to/lastmile_qr_scan", "ios": "https://dc.lft.to/lastmile_qr_scan"}, "bike_id": "cc1da249272b8ade596df80970ed7e78"}, {"name": "fdda94ad59f3a23fa0c47e850ade1909", "type": "electric_scooter", "fusion_lon": 0.0, "lon": -76.97331633333333, "is_disabled": 0, "lat": 38.865190166666665, "fusion_lat": 0.0, "is_reserved": 0, "rental_uris": {"android": "https://dc.lft.to/lastmile_qr_scan", "ios": "https://dc.lft.to/lastmile_qr_scan"}, "bike_id": "fdda94ad59f3a23fa0c47e850ade1909"}, {"name": "cfaa929e84a4b58d17a1a47e07128316", "type": "electric_scooter", "fusion_lon": 0.0, "lon": -77.03906416666666, "is_disabled": 0, "lat": 38.901588, "fusion_lat": 0.0, "is_reserved": 0, "rental_uris": {"android": "https://dc.lft.to/lastmile_qr_scan", "ios": "https://dc.lft.to/lastmile_qr_scan"}, "bike_id": "cfaa929e84a4b58d17a1a47e07128316"}, {"name": "69e466b5c702e482efcb7e90846b5fb8", "type": "electric_scooter", "fusion_lon": 0.0, "lon": -77.021282, "is_disabled": 0, "lat": 38.92317516666667, "fusion_lat": 0.0, "is_reserved": 0, "rental_uris": {"android": "https://dc.lft.to/lastmile_qr_scan", "ios": "https://dc.lft.to/lastmile_qr_scan"}, "bike_id": "69e466b5c702e482efcb7e90846b5fb8"}, {"name": "54c1194992f32d0d05f91f79fc1617cf", "type": "electric_scooter", "fusion_lon": 0.0, "lon": -77.02526966666667, "is_disabled": 0, "lat": 38.920796, "fusion_lat": 0.0, "is_reserved": 0, "rental_uris": {"android": "https://dc.lft.to/lastmile_qr_scan", "ios": "https://dc.lft.to/lastmile_qr_scan"}, "bike_id": "54c1194992f32d0d05f91f79fc1617cf"}, {"name": "072e71b42dba31f494d1603f6808372f", "type": "electric_scooter", "fusion_lon": 0.0, "lon": -76.94638483333334, "is_disabled": 0, "lat": 38.898671666666665, "fusion_lat": 0.0, "is_reserved": 0, "rental_uris": {"android": "https://dc.lft.to/lastmile_qr_scan", "ios": "https://dc.lft.to/lastmile_qr_scan"}, "bike_id": "072e71b42dba31f494d1603f6808372f"}, {"name": "54b2dca4d02e42a69e4e83afef1cf20a", "type": "electric_scooter", "fusion_lon": 0.0, "lon": -77.04374183333333, "is_disabled": 0, "lat": 38.8922005, "fusion_lat": 0.0, "is_reserved": 0, "rental_uris": {"android": "https://dc.lft.to/lastmile_qr_scan", "ios": "https://dc.lft.to/lastmile_qr_scan"}, "bike_id": "54b2dca4d02e42a69e4e83afef1cf20a"}, {"name": "5d66f64b81eb22e2aacd906dcae6a8b3", "type": "electric_scooter", "fusion_lon": 0.0, "lon": -77.051329, "is_disabled": 0, "lat": 38.925235666666666, "fusion_lat": 0.0, "is_reserved": 0, "rental_uris": {"android": "https://dc.lft.to/lastmile_qr_scan", "ios": "https://dc.lft.to/lastmile_qr_scan"}, "bike_id": "5d66f64b81eb22e2aacd906dcae6a8b3"}, {"name": "989c0d92bb152c92942e9405e319342a", "type": "electric_scooter", "fusion_lon": 0.0, "lon": -77.027104, "is_disabled": 0, "lat": 38.907816833333335, "fusion_lat": 0.0, "is_reserved": 0, "rental_uris": {"android": "https://dc.lft.to/lastmile_qr_scan", "ios": "https://dc.lft.to/lastmile_qr_scan"}, "bike_id": "989c0d92bb152c92942e9405e319342a"}, {"name": "796dec5a9f93e1280d5345b6c971d98c", "type": "electric_scooter", "fusion_lon": 0.0, "lon": -77.071698, "is_disabled": 0, "lat": 38.907796166666664, "fusion_lat": 0.0, "is_reserved": 0, "rental_uris": {"android": "https://dc.lft.to/lastmile_qr_scan", "ios": "https://dc.lft.to/lastmile_qr_scan"}, "bike_id": "796dec5a9f93e1280d5345b6c971d98c"}, {"name": "76d75decfd5aab78d98590ec2e75e7af", "type": "electric_scooter", "fusion_lon": 0.0, "lon": -77.00712716666666, "is_disabled": 0, "lat": 38.88490316666667, "fusion_lat": 0.0, "is_reserved": 0, "rental_uris": {"android": "https://dc.lft.to/lastmile_qr_scan", "ios": "https://dc.lft.to/lastmile_qr_scan"}, "bike_id": "76d75decfd5aab78d98590ec2e75e7af"}, {"name": "4f206c447171faec93a04d34cff47c66", "type": "electric_bike", "fusion_lon": 0.0, "lon": -76.98222233333334, "is_disabled": 0, "lat": 38.98511216666667, "fusion_lat": 0.0, "is_reserved": 0, "rental_uris": {"android": "https://dc.lft.to/lastmile_qr_scan", "ios": "https://dc.lft.to/lastmile_qr_scan"}, "bike_id": "4f206c447171faec93a04d34cff47c66"}, {"name": "fb8688876f2b3f8ceb1ca636ec0b1ad6", "type": "electric_scooter", "fusion_lon": 0.0, "lon": -77.02375716666667, "is_disabled": 0, "lat": 38.9068635, "fusion_lat": 0.0, "is_reserved": 0, "rental_uris": {"android": "https://dc.lft.to/lastmile_qr_scan", "ios": "https://dc.lft.to/lastmile_qr_scan"}, "bike_id": "fb8688876f2b3f8ceb1ca636ec0b1ad6"}, {"name": "0b66025ac2b85704d5f09dbc26b8328d", "type": "electric_scooter", "fusion_lon": 0.0, "lon": -77.00453933333333, "is_disabled": 0, "lat": 38.877059833333334, "fusion_lat": 0.0, "is_reserved": 0, "rental_uris": {"android": "https://dc.lft.to/lastmile_qr_scan", "ios": "https://dc.lft.to/lastmile_qr_scan"}, "bike_id": "0b66025ac2b85704d5f09dbc26b8328d"}, {"name": "36ef7cee2133be4aec907b0c36fe9e04", "type": "electric_scooter", "fusion_lon": 0.0, "lon": -77.03195833333334, "is_disabled": 0, "lat": 38.90373316666667, "fusion_lat": 0.0, "is_reserved": 0, "rental_uris": {"android": "https://dc.lft.to/lastmile_qr_scan", "ios": "https://dc.lft.to/lastmile_qr_scan"}, "bike_id": "36ef7cee2133be4aec907b0c36fe9e04"}, {"name": "b25d60762006ebafe8a930c0335520ff", "type": "electric_bike", "fusion_lon": 0.0, "lon": -77.0658175, "is_disabled": 0, "lat": 38.911315, "fusion_lat": 0.0, "is_reserved": 0, "rental_uris": {"android": "https://dc.lft.to/lastmile_qr_scan", "ios": "https://dc.lft.to/lastmile_qr_scan"}, "bike_id": "b25d60762006ebafe8a930c0335520ff"}, {"name": "5bbabe89fef8144113b14b7740d80797", "type": "electric_scooter", "fusion_lon": 0.0, "lon": -77.04892616666666, "is_disabled": 0, "lat": 38.900737, "fusion_lat": 0.0, "is_reserved": 0, "rental_uris": {"android": "https://dc.lft.to/lastmile_qr_scan", "ios": "https://dc.lft.to/lastmile_qr_scan"}, "bike_id": "5bbabe89fef8144113b14b7740d80797"}, {"name": "790167a0be6bd0f06c79d0338037419b", "type": "electric_scooter", "fusion_lon": 0.0, "lon": -77.04155716666666, "is_disabled": 0, "lat": 38.917493, "fusion_lat": 0.0, "is_reserved": 0, "rental_uris": {"android": "https://dc.lft.to/lastmile_qr_scan", "ios": "https://dc.lft.to/lastmile_qr_scan"}, "bike_id": "790167a0be6bd0f06c79d0338037419b"}, {"name": "965e7a222ec88eb613ab1d809232bd30", "type": "electric_scooter", "fusion_lon": 0.0, "lon": -77.01497666666667, "is_disabled": 0, "lat": 38.9177355, "fusion_lat": 0.0, "is_reserved": 0, "rental_uris": {"android": "https://dc.lft.to/lastmile_qr_scan", "ios": "https://dc.lft.to/lastmile_qr_scan"}, "bike_id": "965e7a222ec88eb613ab1d809232bd30"}, {"name": "352ec5d90bc84c848ebd479a712afb06", "type": "electric_scooter", "fusion_lon": 0.0, "lon": -77.036345, "is_disabled": 0, "lat": 38.93644416666667, "fusion_lat": 0.0, "is_reserved": 0, "rental_uris": {"android": "https://dc.lft.to/lastmile_qr_scan", "ios": "https://dc.lft.to/lastmile_qr_scan"}, "bike_id": "352ec5d90bc84c848ebd479a712afb06"}, {"name": "ad9b0c985167f69b395a3d52b8bcebf4", "type": "electric_scooter", "fusion_lon": 0.0, "lon": -77.07366633333334, "is_disabled": 0, "lat": 38.93571266666667, "fusion_lat": 0.0, "is_reserved": 0, "rental_uris": {"android": "https://dc.lft.to/lastmile_qr_scan", "ios": "https://dc.lft.to/lastmile_qr_scan"}, "bike_id": "ad9b0c985167f69b395a3d52b8bcebf4"}, {"name": "a410440b8a7717d14b475b860840d07c", "type": "electric_scooter", "fusion_lon": 0.0, "lon": -77.00375316666667, "is_disabled": 0, "lat": 38.876389, "fusion_lat": 0.0, "is_reserved": 0, "rental_uris": {"android": "https://dc.lft.to/lastmile_qr_scan", "ios": "https://dc.lft.to/lastmile_qr_scan"}, "bike_id": "a410440b8a7717d14b475b860840d07c"}, {"name": "8ff004cc9bc08a1701d3db1b83f93bf8", "type": "electric_scooter", "fusion_lon": 0.0, "lon": -77.03255683333333, "is_disabled": 0, "lat": 38.931363166666664, "fusion_lat": 0.0, "is_reserved": 0, "rental_uris": {"android": "https://dc.lft.to/lastmile_qr_scan", "ios": "https://dc.lft.to/lastmile_qr_scan"}, "bike_id": "8ff004cc9bc08a1701d3db1b83f93bf8"}, {"name": "d12b3c69078ffdfaab8391d5d026d37a", "type": "electric_scooter", "fusion_lon": 0.0, "lon": -76.9671255, "is_disabled": 0, "lat": 38.8603565, "fusion_lat": 0.0, "is_reserved": 0, "rental_uris": {"android": "https://dc.lft.to/lastmile_qr_scan", "ios": "https://dc.lft.to/lastmile_qr_scan"}, "bike_id": "d12b3c69078ffdfaab8391d5d026d37a"}, {"name": "56934018481a36e3cb55a1f526e861f6", "type": "electric_scooter", "fusion_lon": 0.0, "lon": -77.0971465, "is_disabled": 0, "lat": 38.9510085, "fusion_lat": 0.0, "is_reserved": 0, "rental_uris": {"android": "https://dc.lft.to/lastmile_qr_scan", "ios": "https://dc.lft.to/lastmile_qr_scan"}, "bike_id": "56934018481a36e3cb55a1f526e861f6"}, {"name": "673fce9ac3f15646c4eac8ecd9b71252", "type": "electric_scooter", "fusion_lon": 0.0, "lon": -77.02441066666667, "is_disabled": 0, "lat": 38.911573, "fusion_lat": 0.0, "is_reserved": 0, "rental_uris": {"android": "https://dc.lft.to/lastmile_qr_scan", "ios": "https://dc.lft.to/lastmile_qr_scan"}, "bike_id": "673fce9ac3f15646c4eac8ecd9b71252"}, {"name": "923abf8679f92f8e18d1551905b4a1ef", "type": "electric_scooter", "fusion_lon": 0.0, "lon": -77.04196766666666, "is_disabled": 0, "lat": 38.8922305, "fusion_lat": 0.0, "is_reserved": 0, "rental_uris": {"android": "https://dc.lft.to/lastmile_qr_scan", "ios": "https://dc.lft.to/lastmile_qr_scan"}, "bike_id": "923abf8679f92f8e18d1551905b4a1ef"}, {"name": "4b7011d73eb573b50f53c6b63adfeaba", "type": "electric_scooter", "fusion_lon": 0.0, "lon": -77.02743216666667, "is_disabled": 0, "lat": 38.927678, "fusion_lat": 0.0, "is_reserved": 0, "rental_uris": {"android": "https://dc.lft.to/lastmile_qr_scan", "ios": "https://dc.lft.to/lastmile_qr_scan"}, "bike_id": "4b7011d73eb573b50f53c6b63adfeaba"}, {"name": "47cae714e25838580ae1154077c62ace", "type": "electric_scooter", "fusion_lon": 0.0, "lon": -77.02467883333334, "is_disabled": 0, "lat": 38.880358666666666, "fusion_lat": 0.0, "is_reserved": 0, "rental_uris": {"android": "https://dc.lft.to/lastmile_qr_scan", "ios": "https://dc.lft.to/lastmile_qr_scan"}, "bike_id": "47cae714e25838580ae1154077c62ace"}, {"name": "2d29a2d08ff70b9d0e29ff1642373703", "type": "electric_scooter", "fusion_lon": 0.0, "lon": -77.01412083333334, "is_disabled": 0, "lat": 38.92823116666667, "fusion_lat": 0.0, "is_reserved": 0, "rental_uris": {"android": "https://dc.lft.to/lastmile_qr_scan", "ios": "https://dc.lft.to/lastmile_qr_scan"}, "bike_id": "2d29a2d08ff70b9d0e29ff1642373703"},