{"data": {"bikes": [{"type": "electric_scooter", "rental_uris": {"ios": "https://dc.lft.to/lastmile_qr_scan", "android": "https://dc.lft.to/lastmile_qr_scan"}, "lon": -77.0523635, "fusion_lon": 0.0, "is_disabled": 0, "lat": 38.92468516666667, "bike_id": "7838959956ef359bcc63772bcc110d3e", "name": "7838959956ef359bcc63772bcc110d3e", "is_reserved": 0, "fusion_lat": 0.0}, {"type": "electric_scooter", "rental_uris": {"ios": "https://dc.lft.to/lastmile_qr_scan", "android": "https://dc.lft.to/lastmile_qr_scan"}, "lon": -77.05135, "fusion_lon": 0.0, "is_disabled": 0, "lat": 38.9236185, "bike_id": "b6434b77898eb18fd1cb617f14134fd5", "name": "b6434b77898eb18fd1cb617f14134fd5", "is_reserved": 0, "fusion_lat": 0.0}, {"type": "electric_scooter", "rental_uris": {"ios": "https://dc.lft.to/lastmile_qr_scan", "android": "https://dc.lft.to/lastmile_qr_scan"}, "lon": -77.04506133333334, "fusion_lon": 0.0, "is_disabled": 0, "lat": 38.91928733333334, "bike_id": "3e3a80ccc13fcb779bb1de087824cffd", "name": "3e3a80ccc13fcb779bb1de087824cffd", "is_reserved": 0, "fusion_lat": 0.0}, {"type": "electric_scooter", "rental_uris": {"ios": "https://dc.lft.to/lastmile_qr_scan", "android": "https://dc.lft.to/lastmile_qr_scan"}, "lon": -76.96522316666666, "fusion_lon": 0.0, "is_disabled": 0, "lat": 38.87627583333333, "bike_id": "67834334dbf546ef4cc4ceab2ea992ff", "name": "67834334dbf546ef4cc4ceab2ea992ff", "is_reserved": 0, "fusion_lat": 0.0}, {"type": "electric_scooter", "rental_uris": {"ios": "https://dc.lft.to/lastmile_qr_scan", "android": "https://dc.lft.to/lastmile_qr_scan"}, "lon": -77.015043, "fusion_lon": 0.0, "is_disabled": 0, "lat": 38.943289, "bike_id": "d741c5caba0a012b5c5485a0d54592c5", "name": "d741c5caba0a012b5c5485a0d54592c5", "is_reserved": 0, "fusion_lat": 0.0}, {"type": "electric_scooter", "rental_uris": {"ios": "https://dc.lft.to/lastmile_qr_scan", "android": "https://dc.lft.to/lastmile_qr_scan"}, "lon": -77.03216533333334, "fusion_lon": 0.0, "is_disabled": 0, "lat": 38.892286666666664, "bike_id": "95c7db81e6d750027b160c06c70bb0c6", "name": "95c7db81e6d750027b160c06c70bb0c6", "is_reserved": 0, "fusion_lat": 0.0}, {"type": "electric_scooter", "rental_uris": {"ios": "https://dc.lft.to/lastmile_qr_scan", "android": "https://dc.lft.to/lastmile_qr_scan"}, "lon": -77.0216315, "fusion_lon": 0.0, "is_disabled": 0, "lat": 38.89716966666667, "bike_id": "6fb81fc25ff99d72bc29d540b25fdd5b", "name": "6fb81fc25ff99d72bc29d540b25fdd5b", "is_reserved": 0, "fusion_lat": 0.0}, {"type": "electric_scooter", "rental_uris": {"ios": "https://dc.lft.to/lastmile_qr_scan", "android": "https://dc.lft.to/lastmile_qr_scan"}, "lon": -77.0433115, "fusion_lon": 0.0, "is_disabled": 0, "lat": 38.892204666666665, "bike_id": "c3d85130e7dddf0de38e370d0edf3166", "name": "c3d85130e7dddf0de38e370d0edf3166", "is_reserved": 0, "fusion_lat": 0.0}, {"type": "electric_scooter", "rental_uris": {"ios": "https://dc.lft.to/lastmile_qr_scan", "android": "https://dc.lft.to/lastmile_qr_scan"}, "lon": -76.99556883333334, "fusion_lon": 0.0, "is_disabled": 0, "lat": 38.9003085, "bike_id": "1808bbf84e7fc2b663c07b8480a499a0", "name": "1808bbf84e7fc2b663c07b8480a499a0", "is_reserved": 0, "fusion_lat": 0.0}, {"type": "electric_bike", "rental_uris": {"ios": "https://dc.lft.to/lastmile_qr_scan", "android": "https://dc.lft.to/lastmile_qr_scan"}, "lon": -76.98600216666667, "fusion_lon": 0.0, "is_disabled": 0, "lat": 38.906205666666665, "bike_id": "e2e2f474acea2faea53a37be0ddccc74", "name": "e2e2f474acea2faea53a37be0ddccc74", "is_reserved": 0, "fusion_lat": 0.0}, {"type": "electric_scooter", "rental_uris": {"ios": "https://dc.lft.to/lastmile_qr_scan", "android": "https://dc.lft.to/lastmile_qr_scan"}, "lon": -77.02849183333333, "fusion_lon": 0.0, "is_disabled": 0, "lat": 38.927641333333334, "bike_id": "b7eddbf7a04d074814179cb68bb3b363", "name": "b7eddbf7a04d074814179cb68bb3b363", "is_reserved": 0, "fusion_lat": 0.0}, {"type": "electric_bike", "rental_uris": {"ios": "https://dc.lft.to/lastmile_qr_scan", "android": "https://dc.lft.to/lastmile_qr_scan"}, "lon": -76.90975733333333, "fusion_lon": 0.0, "is_disabled": 0, "lat": 38.854327166666664, "bike_id": "74c7085a7aaa06ef7f120ed0d4cf09d0", "name": "74c7085a7aaa06ef7f120ed0d4cf09d0", "is_reserved": 0, "fusion_lat": 0.0}, {"type": "electric_scooter", "rental_uris": {"ios": "https://dc.lft.to/lastmile_qr_scan", "android": "https://dc.lft.to/lastmile_qr_scan"}, "lon": -76.99960416666667, "fusion_lon": 0.0, "is_disabled": 0, "lat": 38.90113133333333, "bike_id": "e456e3f735d8e0514b2956494903cb4e", "name": "e456e3f735d8e0514b2956494903cb4e", "is_reserved": 0, "fusion_lat": 0.0}, {"type": "electric_scooter", "rental_uris": {"ios": "https://dc.lft.to/lastmile_qr_scan", "android": "https://dc.lft.to/lastmile_qr_scan"}, "lon": -77.00598283333333, "fusion_lon": 0.0, "is_disabled": 0, "lat": 38.905644833333334, "bike_id": "cfbddd2bfdede6f1bc5319b4501d342e", "name": "cfbddd2bfdede6f1bc5319b4501d342e", "is_reserved": 0, "fusion_lat": 0.0}, {"type": "electric_scooter", "rental_uris": {"ios": "https://dc.lft.to/lastmile_qr_scan", "android": "https://dc.lft.to/lastmile_qr_scan"}, "lon": -77.05859166666667, "fusion_lon": 0.0, "is_disabled": 0, "lat": 38.93607133333333, "bike_id": "d3d6ebe52265f7df0278252a0de8dddc", "name": "d3d6ebe52265f7df0278252a0de8dddc", "is_reserved": 0, "fusion_lat": 0.0}, {"type": "electric_scooter", "rental_uris": {"ios": "https://dc.lft.to/lastmile_qr_scan", "android": "https://dc.lft.to/lastmile_qr_scan"}, "lon": -77.01759766666666, "fusion_lon": 0.0, "is_disabled": 0, "lat": 38.9027, "bike_id": "b1655e721c5e299b63a3b9c72f245318", "name": "b1655e721c5e299b63a3b9c72f245318", "is_reserved": 0, "fusion_lat": 0.0}, {"type": "electric_scooter", "rental_uris": {"ios": "https://dc.lft.to/lastmile_qr_scan", "android": "https://dc.lft.to/lastmile_qr_scan"}, "lon": -77.0217245, "fusion_lon": 0.0, "is_disabled": 0, "lat": 38.9428835, "bike_id": "1eff1914b87936963e24c140890bcaee", "name": "1eff1914b87936963e24c140890bcaee", "is_reserved": 0, "fusion_lat": 0.0}, {"type": "electric_scooter", "rental_uris": {"ios": "https://dc.lft.to/lastmile_qr_scan", "android": "https://dc.lft.to/lastmile_qr_scan"}, "lon": -76.96532533333334, "fusion_lon": 0.0, "is_disabled": 0, "lat": 38.87630133333333, "bike_id": "38a648f2a6d760e933bebb43880f912b", "name": "38a648f2a6d760e933bebb43880f912b", "is_reserved": 0, "fusion_lat": 0.0}, {"type": "electric_scooter", "rental_uris": {"ios": "https://dc.lft.to/lastmile_qr_scan", "android": "https://dc.lft.to/lastmile_qr_scan"}, "lon": -76.97627133333333, "fusion_lon": 0.0, "is_disabled": 0, "lat": 38.8987655, "bike_id": "1153b28f4c3b19199f48bbebb5a442a2", "name": "1153b28f4c3b19199f48bbebb5a442a2", "is_reserved": 0, "fusion_lat": 0.0}, {"type": "electric_scooter", "rental_uris": {"ios": "https://dc.lft.to/lastmile_qr_scan", "android": "https://dc.lft.to/lastmile_qr_scan"}, "lon": -76.94156783333334, "fusion_lon": 0.0, "is_disabled": 0, "lat": 38.8836295, "bike_id": "d8639f9b436f86042a3a239c712aca55", "name": "d8639f9b436f86042a3a239c712aca55", "is_reserved": 0, "fusion_lat": 0.0}, {"type": "electric_scooter", "rental_uris": {"ios": "https://dc.lft.to/lastmile_qr_scan", "android": "https://dc.lft.to/lastmile_qr_scan"}, "lon": -77.039627, "fusion_lon": 0.0, "is_disabled": 0, "lat": 38.8988485, "bike_id": "802249fc52fb74a1e063845e3f256361", "name": "802249fc52fb74a1e063845e3f256361", "is_reserved": 0, "fusion_lat": 0.0}, {"type": "electric_bike", "rental_uris": {"ios": "https://dc.lft.to/lastmile_qr_scan", "android": "https://dc.lft.to/lastmile_qr_scan"}, "lon": -76.92494883333333, "fusion_lon": 0.0, "is_disabled": 0, "lat": 38.958863666666666, "bike_id": "3d6fab016401c34bec0d815107072e22", "name": "3d6fab016401c34bec0d815107072e22", "is_reserved": 0, "fusion_lat": 0.0}, {"type": "electric_scooter", "rental_uris": {"ios": "https://dc.lft.to/lastmile_qr_scan", "android": "https://dc.lft.to/lastmile_qr_scan"}, "lon": -77.02633016666667, "fusion_lon": 0.0, "is_disabled": 0, "lat": 38.92530083333333, "bike_id": "024070961d2f656cebb6988b2c689d76", "name": "024070961d2f656cebb6988b2c689d76", "is_reserved": 0, "fusion_lat": 0.0}, {"type": "electric_scooter", "rental_uris": {"ios": "https://dc.lft.to/lastmile_qr_scan", "android": "https://dc.lft.to/lastmile_qr_scan"}, "lon": -77.005982, "fusion_lon": 0.0, "is_disabled": 0, "lat": 38.90570016666667, "bike_id": "06ffc454c09c195fc33a76a874873202", "name": "06ffc454c09c195fc33a76a874873202", "is_reserved": 0, "fusion_lat": 0.0}, {"type": "electric_scooter", "rental_uris": {"ios": "https://dc.lft.to/lastmile_qr_scan", "android": "https://dc.lft.to/lastmile_qr_scan"}, "lon": -77.0297985, "fusion_lon": 0.0, "is_disabled": 0, "lat": 38.91694433333333, "bike_id": "46c957b0c70e245111774e4e5c741dff", "name": "46c957b0c70e245111774e4e5c741dff", "is_reserved": 0, "fusion_lat": 0.0}, {"type": "electric_scooter", "rental_uris": {"ios": "https://dc.lft.to/lastmile_qr_scan", "android": "https://dc.lft.to/lastmile_qr_scan"}, "lon": -77.07886966666666, "fusion_lon": 0.0, "is_disabled": 0, "lat": 38.920646, "bike_id": "036948698de761451f8cb0a7a243f66c", "name": "036948698de761451f8cb0a7a243f66c", "is_reserved": 0, "fusion_lat": 0.0}, {"type": "electric_scooter", "rental_uris": {"ios": "https://dc.lft.to/lastmile_qr_scan", "android": "https://dc.lft.to/lastmile_qr_scan"}, "lon": -77.04353033333334, "fusion_lon": 0.0, "is_disabled": 0, "lat": 38.92240566666667, "bike_id": "be8795029fc7d67bb74b3c799be3c47c", "name": "be8795029fc7d67bb74b3c799be3c47c", "is_reserved": 0, "fusion_lat": 0.0}, {"type": "electric_scooter", "rental_uris": {"ios": "https://dc.lft.to/lastmile_qr_scan", "android": "https://dc.lft.to/lastmile_qr_scan"}, "lon": -76.99034433333334, "fusion_lon": 0.0, "is_disabled": 0, "lat": 38.86366266666667, "bike_id": "a16cd139dfe2319188d8b4864fa7149a", "name": "a16cd139dfe2319188d8b4864fa7149a", "is_reserved": 0, "fusion_lat": 0.0}, {"type": "electric_scooter", "rental_uris": {"ios": "https://dc.lft.to/lastmile_qr_scan", "android": "https://dc.lft.to/lastmile_qr_scan"}, "lon": -77.00915066666667, "fusion_lon": 0.0, "is_disabled": 0, "lat": 38.9184875, "bike_id": "51bd37f2caf7cf26aebb24a32b7fc94a", "name": "51bd37f2caf7cf26aebb24a32b7fc94a", "is_reserved": 0, "fusion_lat": 0.0}, {"type": "electric_scooter", "rental_uris": {"ios": "https://dc.lft.to/lastmile_qr_scan", "android": "https://dc.lft.to/lastmile_qr_scan"}, "lon": -77.04031283333333, "fusion_lon": 0.0, "is_disabled": 0, "lat": 38.92443316666667, "bike_id": "6f940c1be5fac75e16d9a824ab44d88f", "name": "6f940c1be5fac75e16d9a824ab44d88f", "is_reserved": 0, "fusion_lat": 0.0}, {"type": "electric_scooter", "rental_uris": {"ios": "https://dc.lft.to/lastmile_qr_scan", "android": "https://dc.lft.to/lastmile_qr_scan"}, "lon": -77.04147566666667, "fusion_lon": 0.0, "is_disabled": 0, "lat": 38.90544, "bike_id": "ee57f268e5c8e360e06f57a1add19eda", "name": "ee57f268e5c8e360e06f57a1add19eda", "is_reserved": 0, "fusion_lat": 0.0}, {"type": "electric_bike", "rental_uris": {"ios": "https://dc.lft.to/lastmile_qr_scan", "android": "https://dc.lft.to/lastmile_qr_scan"}, "lon": -76.9843545, "fusion_lon": 0.0, "is_disabled": 0, "lat": 38.855237833333334, "bike_id": "09661fd9ffaa5971ddba622baef984d8", "name": "09661fd9ffaa5971ddba622baef984d8", "is_reserved": 0, "fusion_lat": 0.0}, {"type": "electric_scooter", "rental_uris": {"ios": "https://dc.lft.to/lastmile_qr_scan", "android": "https://dc.lft.to/lastmile_qr_scan"}, "lon": -77.03441466666666, "fusion_lon": 0.0, "is_disabled": 0, "lat": 38.9026545, "bike_id": "ff0ff4228b17e22d6085975f75937e4c", "name": "ff0ff4228b17e22d6085975f75937e4c", "is_reserved": 0, "fusion_lat": 0.0}, {"type": "electric_scooter", "rental_uris": {"ios": "https://dc.lft.to/lastmile_qr_scan", "android": "https://dc.lft.to/lastmile_qr_scan"}, "lon": -77.01460716666666, "fusion_lon": 0.0, "is_disabled": 0, "lat": 38.877295833333335, "bike_id": "ea7bc3fa96a562e657479f14cb73337e", "name": "ea7bc3fa96a562e657479f14cb73337e", "is_reserved": 0, "fusion_lat": 0.0}, {"type": "electric_scooter", "rental_uris": {"ios": "https://dc.lft.to/lastmile_qr_scan", "android": "https://dc.lft.to/lastmile_qr_scan"}, "lon": -77.00201366666667, "fusion_lon": 0.0, "is_disabled": 0, "lat": 38.90033183333333, "bike_id": "3d4a889e4e93aa457cb2355a12588ea2", "name": "3d4a889e4e93aa457cb2355a12588ea2", "is_reserved": 0, "fusion_lat": 0.0}, {"type": "electric_scooter", "rental_uris": {"ios": "https://dc.lft.to/lastmile_qr_scan", "android": "https://dc.lft.to/lastmile_qr_scan"}, "lon": -76.96983016666667, "fusion_lon": 0.0, "is_disabled": 0, "lat": 38.919495, "bike_id": "fd2b336a5f5376dff300662255736750", "name": "fd2b336a5f5376dff300662255736750", "is_reserved": 0, "fusion_lat": 0.0}, {"type": "electric_scooter", "rental_uris": {"ios": "https://dc.lft.to/lastmile_qr_scan", "android": "https://dc.lft.to/lastmile_qr_scan"}, "lon": -77.02329983333334, "fusion_lon": 0.0, "is_disabled": 0, "lat": 38.930660333333336, "bike_id": "6958bc5ab3d0f2e4eaffd4338520e91f", "name": "6958bc5ab3d0f2e4eaffd4338520e91f", "is_reserved": 0, "fusion_lat": 0.0}, {"type": "electric_bike", "rental_uris": {"ios": "https://dc.lft.to/lastmile_qr_scan", "android": "https://dc.lft.to/lastmile_qr_scan"}, "lon": -76.97523566666666, "fusion_lon": 0.0, "is_disabled": 0, "lat": 38.96702583333333, "bike_id": "c08ae1bf38cd9c86f13bc6ad8bde87be", "name": "c08ae1bf38cd9c86f13bc6ad8bde87be", "is_reserved": 0, "fusion_lat": 0.0}, {"type": "electric_bike", "rental_uris": {"ios": "https://dc.lft.to/lastmile_qr_scan", "android": "https://dc.lft.to/lastmile_qr_scan"}, "lon": -77.07915383333334, "fusion_lon": 0.0, "is_disabled": 0, "lat": 38.802275, "bike_id": "ed5c9df97f7619290111ce0626242e06", "name": "ed5c9df97f7619290111ce0626242e06", "is_reserved": 0, "fusion_lat": 0.0}, {"type": "electric_scooter", "rental_uris": {"ios": "https://dc.lft.to/lastmile_qr_scan", "android": "https://dc.lft.to/lastmile_qr_scan"}, "lon": -77.04327266666667, "fusion_lon": 0.0, "is_disabled": 0, "lat": 38.90240266666667, "bike_id": "2b1d779d466a375397a8ccc2b5a6715f", "name": "2b1d779d466a375397a8ccc2b5a6715f", "is_reserved": 0, "fusion_lat": 0.0}, {"type": "electric_scooter", "rental_uris": {"ios": "https://dc.lft.to/lastmile_qr_scan", "android": "https://dc.lft.to/lastmile_qr_scan"}, "lon": -77.04861433333333, "fusion_lon": 0.0, "is_disabled": 0, "lat": 38.90473683333333, "bike_id": "6839e89e0ee135db609191c75db00ef1", "name": "6839e89e0ee135db609191c75db00ef1", "is_reserved": 0, "fusion_lat": 0.0}, {"type": "electric_scooter", "rental_uris": {"ios": "https://dc.lft.to/lastmile_qr_scan", "android": "https://dc.lft.to/lastmile_qr_scan"}, "lon": -77.03214166666666, "fusion_lon": 0.0, "is_disabled": 0, "lat": 38.909701, "bike_id": "bb08585e262590524d2b6ec312089a03", "name": "bb08585e262590524d2b6ec312089a03", "is_reserved": 0, "fusion_lat": 0.0}, {"type": "electric_scooter", "rental_uris": {"ios": "https://dc.lft.to/lastmile_qr_scan", "android": "https://dc.lft.to/lastmile_qr_scan"}, "lon": -76.93607833333333, "fusion_lon": 0.0, "is_disabled": 0, "lat": 38.89681183333333, "bike_id": "83d4ec97b0ba96abcc69798bd8897d3d", "name": "83d4ec97b0ba96abcc69798bd8897d3d", "is_reserved": 0, "fusion_lat": 0.0}, {"type": "electric_scooter", "rental_uris": {"ios": "https://dc.lft.to/lastmile_qr_scan", "android": "https://dc.lft.to/lastmile_qr_scan"}, "lon": -77.05222733333333, "fusion_lon": 0.0, "is_disabled": 0, "lat": 38.92492766666667, "bike_id": "1771a75bf5fe3fa52594c89b649cdecd", "name": "1771a75bf5fe3fa52594c89b649cdecd", "is_reserved": 0, "fusion_lat": 0.0}, {"type": "electric_scooter", "rental_uris": {"ios": "https://dc.lft.to/lastmile_qr_scan", "android": "https://dc.lft.to/lastmile_qr_scan"}, "lon": -77.03184983333334, "fusion_lon": 0.0, "is_disabled": 0, "lat": 38.91748066666667, "bike_id": "9f9fda65e2c9697f857c27e971618f0e", "name": "9f9fda65e2c9697f857c27e971618f0e", "is_reserved": 0, "fusion_lat": 0.0}, {"type": "electric_scooter", "rental_uris": {"ios": "https://dc.lft.to/lastmile_qr_scan", "android": "https://dc.lft.to/lastmile_qr_scan"}, "lon": -76.99907566666667, "fusion_lon": 0.0, "is_disabled": 0, "lat": 38.94827383333333, "bike_id": "a2a514137e5eea2359e0869f05623881", "name": "a2a514137e5eea2359e0869f05623881", "is_reserved": 0, "fusion_lat": 0.0}, {"type": "electric_scooter", "rental_uris": {"ios": "https://dc.lft.to/lastmile_qr_scan", "android": "https://dc.lft.to/lastmile_qr_scan"}, "lon": -77.02184283333334, "fusion_lon": 0.0, "is_disabled": 0, "lat": 38.91487733333334, "bike_id": "258d2a2edfde81e674cdd32d2f3cb2f3", "name": "258d2a2edfde81e674cdd32d2f3cb2f3", "is_reserved": 0, "fusion_lat": 0.0}, {"type": "electric_scooter", "rental_uris": {"ios": "https://dc.lft.to/lastmile_qr_scan", "android": "https://dc.lft.to/lastmile_qr_scan"}, "lon": -77.021305, "fusion_lon": 0.0, "is_disabled": 0, "lat": 38.8874285, "bike_id": "8fe488a71f802e593ee86af26c0c66b5", "name": "8fe488a71f802e593ee86af26c0c66b5", "is_reserved": 0, "fusion_lat": 0.0}, {"type": "electric_scooter", "rental_uris": {"ios": "https://dc.lft.to/lastmile_qr_scan", "android": "https://dc.lft.to/lastmile_qr_scan"}, "lon": -77.060437, "fusion_lon": 0.0, "is_disabled": 0, "lat": 38.944697166666664, "bike_id": "f5655ac0546ea852a0498055a9beda6e", "name": "f5655ac0546ea852a0498055a9beda6e", "is_reserved": 0, "fusion_lat": 0.0}, {"type": "electric_scooter", "rental_uris": {"ios": "https://dc.lft.to/lastmile_qr_scan", "android": "https://dc.lft.to/lastmile_qr_scan"}, "lon": -77.0434565, "fusion_lon": 0.0, "is_disabled": 0, "lat": 38.908373166666664, "bike_id": "c825b913381e83b14b5950f244a8ec3d", "name": "c825b913381e83b14b5950f244a8ec3d", "is_reserved": 0, "fusion_lat": 0.0}, {"type": "electric_scooter", "rental_uris": {"ios": "https://dc.lft.to/lastmile_qr_scan", "android": "https://dc.lft.to/lastmile_qr_scan"}, "lon": -77.0607055, "fusion_lon": 0.0, "is_disabled": 0, "lat": 38.902435, "bike_id": "e57e4879eb96896f6e2d57a2cd83ab57", "name": "e57e4879eb96896f6e2d57a2cd83ab57", "is_reserved": 0, "fusion_lat": 0.0}, {"type": "electric_scooter", "rental_uris": {"ios": "https://dc.lft.to/lastmile_qr_scan", "android": "https://dc.lft.to/lastmile_qr_scan"}, "lon": -77.04691733333334, "fusion_lon": 0.0, "is_disabled": 0, "lat": 38.8973285, "bike_id": "53241c9df95285ea7e71e5cf77b2b8a0", "name": "53241c9df95285ea7e71e5cf77b2b8a0", "is_reserved": 0, "fusion_lat": 0.0}, {"type": "electric_scooter", "rental_uris": {"ios": "https://dc.lft.to/lastmile_qr_scan", "android": "https://dc.lft.to/lastmile_qr_scan"}, "lon": -77.03234366666666, "fusion_lon": 0.0, "is_disabled": 0, "lat": 38.908713166666665, "bike_id": "d936dc26395c43e3cdc677c42eb01589", "name": "d936dc26395c43e3cdc677c42eb01589", "is_reserved": 0, "fusion_lat": 0.0}, {"type": "electric_scooter", "rental_uris": {"ios": "https://dc.lft.to/lastmile_qr_scan", "android": "https://dc.lft.to/lastmile_qr_scan"}, "lon": -77.03176316666666, "fusion_lon": 0.0, "is_disabled": 0, "lat": 38.914172, "bike_id": "9598af412bc66ce74faed5ff787f7186", "name": "9598af412bc66ce74faed5ff787f7186", "is_reserved": 0, "fusion_lat": 0.0}, {"type": "electric_scooter", "rental_uris": {"ios": "https://dc.lft.to/lastmile_qr_scan", "android": "https://dc.lft.to/lastmile_qr_scan"}, "lon": -77.02709433333334, "fusion_lon": 0.0, "is_disabled": 0, "lat": 38.90132066666666, "bike_id": "a4c555577352a86678a2c06004e1be89", "name": "a4c555577352a86678a2c06004e1be89", "is_reserved": 0, "fusion_lat": 0.0}, {"type": "electric_scooter", "rental_uris": {"ios": "https://dc.lft.to/lastmile_qr_scan", "android": "https://dc.lft.to/lastmile_qr_scan"}, "lon": -76.99504966666666, "fusion_lon": 0.0, "is_disabled": 0, "lat": 38.89487533333333, "bike_id": "5bb93090818cda8aeacfb393cba4152e", "name": "5bb93090818cda8aeacfb393cba4152e", "is_reserved": 0, "fusion_lat": 0.0}, {"type": "electric_scooter", "rental_uris": {"ios": "https://dc.lft.to/lastmile_qr_scan", "android": "https://dc.lft.to/lastmile_qr_scan"}, "lon": -77.04504116666666, "fusion_lon": 0.0, "is_disabled": 0, "lat": 38.8922215, "bike_id": "76718b57c90eab8197789edee75a1061", "name": "76718b57c90eab8197789edee75a1061", "is_reserved": 0, "fusion_lat": 0.0}, {"type": "electric_scooter", "rental_uris": {"ios": "https://dc.lft.to/lastmile_qr_scan", "android": "https://dc.lft.to/lastmile_qr_scan"}, "lon": -77.03358533333333, "fusion_lon": 0.0, "is_disabled": 0, "lat": 38.887550166666664, "bike_id": "7d69f326aed2c89e4a8c5b2afa60cead", "name": "7d69f326aed2c89e4a8c5b2afa60cead", "is_reserved": 0, "fusion_lat": 0.0}, {"type": "electric_scooter", "rental_uris": {"ios": "https://dc.lft.to/lastmile_qr_scan", "android": "https://dc.lft.to/lastmile_qr_scan"}, "lon": -77.0379815, "fusion_lon": 0.0, "is_disabled": 0, "lat": 38.92634616666667, "bike_id": "f946290b213fb20eeb65dad99ba19d32", "name": "f946290b213fb20eeb65dad99ba19d32", "is_reserved": 0, "fusion_lat": 0.0}, {"type": "electric_scooter", "rental_uris": {"ios": "https://dc.lft.to/lastmile_qr_scan", "android": "https://dc.lft.to/lastmile_qr_scan"}, "lon": -76.96603716666667, "fusion_lon": 0.0, "is_disabled": 0, "lat": 38.87388416666667, "bike_id": "43a7bf7a17320efce7c0929cd882bc16", "name": "43a7bf7a17320efce7c0929cd882bc16", "is_reserved": 0, "fusion_lat": 0.0}, {"type": "electric_scooter", "rental_uris": {"ios": "https://dc.lft.to/lastmile_qr_scan", "android": "https://dc.lft.to/lastmile_qr_scan"}, "lon": -77.02776566666667, "fusion_lon": 0.0, "is_disabled": 0, "lat": 38.892232666666665, "bike_id": "06aa83fa99cf4fbff7e081b83a8144a0", "name": "06aa83fa99cf4fbff7e081b83a8144a0", "is_reserved": 0, "fusion_lat": 0.0}, {"type": "electric_scooter", "rental_uris": {"ios": "https://dc.lft.to/lastmile_qr_scan", "android": "https://dc.lft.to/lastmile_qr_scan"}, "lon": -77.04376366666666, "fusion_lon": 0.0, "is_disabled": 0, "lat": 38.9211815, "bike_id": "fe4ffe8a049b875e47c9cb3f1e72e4b2", "name": "fe4ffe8a049b875e47c9cb3f1e72e4b2", "is_reserved": 0, "fusion_lat": 0.0}, {"type": "electric_scooter", "rental_uris": {"ios": "https://dc.lft.to/lastmile_qr_scan", "android": "https://dc.lft.to/lastmile_qr_scan"}, "lon": -77.0385365, "fusion_lon": 0.0, "is_disabled": 0, "lat": 38.932558666666665, "bike_id": "5cd2dc3bdfb80e4f5c8cdda11d5d713f", "name": "5cd2dc3bdfb80e4f5c8cdda11d5d713f", "is_reserved": 0, "fusion_lat": 0.0}, {"type": "electric_scooter", "rental_uris": {"ios": "https://dc.lft.to/lastmile_qr_scan", "android": "https://dc.lft.to/lastmile_qr_scan"}, "lon": -77.03184466666667, "fusion_lon": 0.0, "is_disabled": 0, "lat": 38.90789633333333, "bike_id": "0b51b5ef09eb030fd2f50bcef5794d8c", "name": "0b51b5ef09eb030fd2f50bcef5794d8c", "is_reserved": 0, "fusion_lat": 0.0}, {"type": "electric_scooter", "rental_uris": {"ios": "https://dc.lft.to/lastmile_qr_scan", "android": "https://dc.lft.to/lastmile_qr_scan"}, "lon": -77.02970666666667, "fusion_lon": 0.0, "is_disabled": 0, "lat": 38.91687483333333, "bike_id": "f8f4e2546727a3fff917fd9a31423ea3", "name": "f8f4e2546727a3fff917fd9a31423ea3", "is_reserved": 0, "fusion_lat": 0.0}, {"type": "electric_bike", "rental_uris": {"ios": "https://dc.lft.to/lastmile_qr_scan", "android": "https://dc.lft.to/lastmile_qr_scan"}, "lon": -76.93650366666667, "fusion_lon": 0.0, "is_disabled": 0, "lat": 38.87153433333334, "bike_id": "b6d57be43125a7410cee252a146a6e76", "name": "b6d57be43125a7410cee252a146a6e76", "is_reserved": 0, "fusion_lat": 0.0}, {"type": "electric_scooter", "rental_uris": {"ios": "https://dc.lft.to/lastmile_qr_scan", "android": "https://dc.lft.to/lastmile_qr_scan"}, "lon": -76.9741875, "fusion_lon": 0.0, "is_disabled": 0, "lat": 38.864259833333335, "bike_id": "ffd809c26f9564b8c41c0d3158f878fb", "name": "ffd809c26f9564b8c41c0d3158f878fb", "is_reserved": 0, "fusion_lat": 0.0}, {"type": "electric_scooter", "rental_uris": {"ios": "https://dc.lft.to/lastmile_qr_scan", "android": "https://dc.lft.to/lastmile_qr_scan"}, "lon": -77.026535, "fusion_lon": 0.0, "is_disabled": 0, "lat": 38.89220183333333, "bike_id": "de065fda7c77361f844d0274434eb5cb", "name": "de065fda7c77361f844d0274434eb5cb", "is_reserved": 0, "fusion_lat": 0.0}, {"type": "electric_scooter", "rental_uris": {"ios": "https://dc.lft.to/lastmile_qr_scan", "android": "https://dc.lft.to/lastmile_qr_scan"}, "lon": -77.03437966666667, "fusion_lon": 0.0, "is_disabled": 0, "lat": 38.90422483333333, "bike_id": "320e35a194b8c1f6939b5c517038c0a1", "name": "320e35a194b8c1f6939b5c517038c0a1", "is_reserved": 0, "fusion_lat": 0.0}, {"type": "electric_scooter", "rental_uris": {"ios": "https://dc.lft.to/lastmile_qr_scan", "android": "https://dc.lft.to/lastmile_qr_scan"}, "lon": -76.926224, "fusion_lon": 0.0, "is_disabled": 0, "lat": 38.88458116666666, "bike_id": "c91dfa00c0755a0176df9b57fe54d329", "name": "c91dfa00c0755a0176df9b57fe54d329", "is_reserved": 0, "fusion_lat": 0.0}, {"type": "electric_scooter", "rental_uris": {"ios": "https://dc.lft.to/lastmile_qr_scan", "android": "https://dc.lft.to/lastmile_qr_scan"}, "lon": -77.02098, "fusion_lon": 0.0, "is_disabled": 0, "lat": 38.9311585, "bike_id": "df57aa8a12441667b937ed3c9d5551ba", "name": "df57aa8a12441667b937ed3c9d5551ba", "is_reserved": 0, "fusion_lat": 0.0}, {"type": "electric_scooter", "rental_uris": {"ios": "https://dc.lft.to/lastmile_qr_scan", "android": "https://dc.lft.to/lastmile_qr_scan"}, "lon": -77.04665533333333, "fusion_lon": 0.0, "is_disabled": 0, "lat": 38.89242216666667, "bike_id": "5de5cb6586838941ef36c5123aa0acc9", "name": "5de5cb6586838941ef36c5123aa0acc9", "is_reserved": 0, "fusion_lat": 0.0}, {"type": "electric_scooter", "rental_uris": {"ios": "https://dc.lft.to/lastmile_qr_scan", "android": "https://dc.lft.to/lastmile_qr_scan"}, "lon": -77.02334683333333, "fusion_lon": 0.0, "is_disabled": 0, "lat": 38.916751, "bike_id": "12c58c35e3b61beaf423324ee4550b41", "name": "12c58c35e3b61beaf423324ee4550b41", "is_reserved": 0, "fusion_lat": 0.0}, {"type": "electric_scooter", "rental_uris": {"ios": "https://dc.lft.to/lastmile_qr_scan", "android": "https://dc.lft.to/lastmile_qr_scan"}, "lon": -77.0452135, "fusion_lon": 0.0, "is_disabled": 0, "lat": 38.9181805, "bike_id": "dbae319915eec731df0e25173f603783", "name": "dbae319915eec731df0e25173f603783", "is_reserved": 0, "fusion_lat": 0.0}, {"type": "electric_scooter", "rental_uris": {"ios": "https://dc.lft.to/lastmile_qr_scan", "android": "https://dc.lft.to/lastmile_qr_scan"}, "lon": -77.0401835, "fusion_lon": 0.0, "is_disabled": 0, "lat": 38.92165766666667, "bike_id": "3de53759c4bda49ebd01df03b2653458", "name": "3de53759c4bda49ebd01df03b2653458", "is_reserved": 0, "fusion_lat": 0.0}, {"type": "electric_scooter", "rental_uris": {"ios": "https://dc.lft.to/lastmile_qr_scan", "android": "https://dc.lft.to/lastmile_qr_scan"}, "lon": -76.96869116666667, "fusion_lon": 0.0, "is_disabled": 0, "lat": 38.87092666666667, "bike_id": "af404c2166c05928b3a3a4ac9654e7c4", "name": "af404c2166c05928b3a3a4ac9654e7c4", "is_reserved": 0, "fusion_lat": 0.0}, {"type": "electric_scooter", "rental_uris": {"ios": "https://dc.lft.to/lastmile_qr_scan", "android": "https://dc.lft.to/lastmile_qr_scan"}, "lon": -77.04689466666666, "fusion_lon": 0.0, "is_disabled": 0, "lat": 38.89223716666667, "bike_id": "f18ef438aa0ea0934b2c749f4acfb281", "name": "f18ef438aa0ea0934b2c749f4acfb281", "is_reserved": 0, "fusion_lat": 0.0}, {"type": "electric_scooter", "rental_uris": {"ios": "https://dc.lft.to/lastmile_qr_scan", "android": "https://dc.lft.to/lastmile_qr_scan"}, "lon": -77.04139883333333, "fusion_lon": 0.0, "is_disabled": 0, "lat": 38.8935235, "bike_id": "b79a6ff22bd9ba392f8252736c26ddc0", "name": "b79a6ff22bd9ba392f8252736c26ddc0", "is_reserved": 0, "fusion_lat": 0.0}, {"type": "electric_scooter", "rental_uris": {"ios": "https://dc.lft.to/lastmile_qr_scan", "android": "https://dc.lft.to/lastmile_qr_scan"}, "lon": -77.048399, "fusion_lon": 0.0, "is_disabled": 0, "lat": 38.910439833333335, "bike_id": "a36d8dd5f492de505ac11a859d7a0d99", "name": "a36d8dd5f492de505ac11a859d7a0d99", "is_reserved": 0, "fusion_lat": 0.0}, {"type": "electric_scooter", "rental_uris": {"ios": "https://dc.lft.to/lastmile_qr_scan", "android": "https://dc.lft.to/lastmile_qr_scan"}, "lon": -77.0419395, "fusion_lon": 0.0, "is_disabled": 0, "lat": 38.91866433333333, "bike_id": "8f0820223e8d0e8c4384ff57cdfdba6e", "name": "8f0820223e8d0e8c4384ff57cdfdba6e", "is_reserved": 0, "fusion_lat": 0.0}, {"type": "electric_scooter", "rental_uris": {"ios": "https://dc.lft.to/lastmile_qr_scan", "android": "https://dc.lft.to/lastmile_qr_scan"}, "lon": -76.99709033333333, "fusion_lon": 0.0, "is_disabled": 0, "lat": 38.8443525, "bike_id": "12471274f81104b0ba3ddbdf2b88d378", "name": "12471274f81104b0ba3ddbdf2b88d378", "is_reserved": 0, "fusion_lat": 0.0}, {"type": "electric_scooter", "rental_uris": {"ios": "https://dc.lft.to/lastmile_qr_scan", "android": "https://dc.lft.to/lastmile_qr_scan"}, "lon": -77.0320285, "fusion_lon": 0.0, "is_disabled": 0, "lat": 38.90949416666667, "bike_id": "1c8db564920b43c78b017e185c3708d8", "name": "1c8db564920b43c78b017e185c3708d8", "is_reserved": 0, "fusion_lat": 0.0}, {"type": "electric_scooter", "rental_uris": {"ios": "https://dc.lft.to/lastmile_qr_scan", "android": "https://dc.lft.to/lastmile_qr_scan"}, "lon": -77.032829, "fusion_lon": 0.0, "is_disabled": 0, "lat": 38.9325265, "bike_id": "b3aa8b00331eaf7d178c5cc68c7606e5", "name": "b3aa8b00331eaf7d178c5cc68c7606e5", "is_reserved": 0, "fusion_lat": 0.0}, {"type": "electric_scooter", "rental_uris": {"ios": "https://dc.lft.to/lastmile_qr_scan", "android": "https://dc.lft.to/lastmile_qr_scan"}, "lon": -77.043303, "fusion_lon": 0.0, "is_disabled": 0, "lat": 38.89220616666667, "bike_id": "3235370bd61a19e67e8ac3f61c9dc225", "name": "3235370bd61a19e67e8ac3f61c9dc225", "is_reserved": 0, "fusion_lat": 0.0}, {"type": "electric_scooter", "rental_uris": {"ios": "https://dc.lft.to/lastmile_qr_scan", "android": "https://dc.lft.to/lastmile_qr_scan"}, "lon": -77.03261183333333, "fusion_lon": 0.0, "is_disabled": 0, "lat": 38.937759, "bike_id": "f279f16e0bc2ac5437ebddfdd247bbe9", "name": "f279f16e0bc2ac5437ebddfdd247bbe9", "is_reserved": 0, "fusion_lat": 0.0}, {"type": "electric_scooter", "rental_uris": {"ios": "https://dc.lft.to/lastmile_qr_scan", "android": "https://dc.lft.to/lastmile_qr_scan"}, "lon": -77.0249875, "fusion_lon": 0.0, "is_disabled": 0, "lat": 38.91807133333333, "bike_id": "6124578512ce4d76b5e62b800cbd92a5", "name": "6124578512ce4d76b5e62b800cbd92a5", "is_reserved": 0, "fusion_lat": 0.0}, {"type": "electric_scooter", "rental_uris": {"ios": "https://dc.lft.to/lastmile_qr_scan", "android": "https://dc.lft.to/lastmile_qr_scan"}, "lon": -77.04425716666667, "fusion_lon": 0.0, "is_disabled": 0, "lat": 38.9253505, "bike_id": "2d6ed0a1b25106f36b143e5427748686", "name": "2d6ed0a1b25106f36b143e5427748686", "is_reserved": 0, "fusion_lat": 0.0}, {"type": "electric_scooter", "rental_uris": {"ios": "https://dc.lft.to/lastmile_qr_scan", "android": "https://dc.lft.to/lastmile_qr_scan"}, "lon": -77.03637966666666, "fusion_lon": 0.0, "is_disabled": 0, "lat": 38.9371175, "bike_id": "475023137b1712b8e63c9c1d870908bb", "name": "475023137b1712b8e63c9c1d870908bb", "is_reserved": 0, "fusion_lat": 0.0}, {"type": "electric_scooter", "rental_uris": {"ios": "https://dc.lft.to/lastmile_qr_scan", "android": "https://dc.lft.to/lastmile_qr_scan"}, "lon": -76.99389616666667, "fusion_lon": 0.0, "is_disabled": 0, "lat": 38.90039766666666, "bike_id": "40e858c9f72a81bf025dcf90da595435", "name": "40e858c9f72a81bf025dcf90da595435", "is_reserved": 0, "fusion_lat": 0.0}, {"type": "electric_scooter", "rental_uris": {"ios": "https://dc.lft.to/lastmile_qr_scan", "android": "https://dc.lft.to/lastmile_qr_scan"}, "lon": -77.0326565, "fusion_lon": 0.0, "is_disabled": 0, "lat": 38.9351255, "bike_id": "216b4a47b8603106eeed9cd08d98e921", "name": "216b4a47b8603106eeed9cd08d98e921", "is_reserved": 0, "fusion_lat": 0.0}, {"type": "electric_scooter", "rental_uris": {"ios": "https://dc.lft.to/lastmile_qr_scan", "android": "https://dc.lft.to/lastmile_qr_scan"}, "lon": -77.02313116666667, "fusion_lon": 0.0, "is_disabled": 0, "lat": 38.917881666666666, "bike_id": "ab4cd40aff503e71cdfaf5430e01413a", "name": "ab4cd40aff503e71cdfaf5430e01413a", "is_reserved": 0, "fusion_lat": 0.0}, {"type": "electric_scooter", "rental_uris": {"ios": "https://dc.lft.to/lastmile_qr_scan", "android": "https://dc.lft.to/lastmile_qr_scan"}, "lon": -77.0201135, "fusion_lon": 0.0, "is_disabled": 0, "lat": 38.911185333333336, "bike_id": "431422c4d97c53a599fa8ebb736a0c81", "name": "431422c4d97c53a599fa8ebb736a0c81", "is_reserved": 0, "fusion_lat": 0.0}, {"type": "electric_scooter", "rental_uris": {"ios": "https://dc.lft.to/lastmile_qr_scan", "android": "https://dc.lft.to/lastmile_qr_scan"}, "lon": -77.02801616666666, "fusion_lon": 0.0, "is_disabled": 0, "lat": 38.8923395, "bike_id": "39c919c0af08f982b9ffb9a529eb0bc3", "name": "39c919c0af08f982b9ffb9a529eb0bc3", "is_reserved": 0, "fusion_lat": 0.0}, {"type": "electric_scooter", "rental_uris": {"ios": "https://dc.lft.to/lastmile_qr_scan", "android": "https://dc.lft.to/lastmile_qr_scan"}, "lon": -77.03170216666666, "fusion_lon": 0.0, "is_disabled": 0, "lat": 38.9182245, "bike_id": "7c5dc76f790a3ba501ff5bfd268b708b", "name": "7c5dc76f790a3ba501ff5bfd268b708b", "is_reserved": 0, "fusion_lat": 0.0}, {"type": "electric_scooter", "rental_uris": {"ios": "https://dc.lft.to/lastmile_qr_scan", "android": "https://dc.lft.to/lastmile_qr_scan"}, "lon": -77.07270066666666, "fusion_lon": 0.0, "is_disabled": 0, "lat": 38.934821166666666, "bike_id": "4680db8a440141d170065506e8e7de4c", "name": "4680db8a440141d170065506e8e7de4c", "is_reserved": 0, "fusion_lat": 0.0}, {"type": "electric_scooter", "rental_uris": {"ios": "https://dc.lft.to/lastmile_qr_scan", "android": "https://dc.lft.to/lastmile_qr_scan"}, "lon": -77.02140966666667, "fusion_lon": 0.0, "is_disabled": 0, "lat": 38.925902, "bike_id": "06821a6a0182497fada680e51b683ed1", "name": "06821a6a0182497fada680e51b683ed1", "is_reserved": 0, "fusion_lat": 0.0}, {"type": "electric_scooter", "rental_uris": {"ios": "https://dc.lft.to/lastmile_qr_scan", "android": "https://dc.lft.to/lastmile_qr_scan"}, "lon": -77.03294783333334, "fusion_lon": 0.0, "is_disabled": 0, "lat": 38.9471505, "bike_id": "5b2c83ff6826e1e67ab5d331dca61706", "name": "5b2c83ff6826e1e67ab5d331dca61706", "is_reserved": 0, "fusion_lat": 0.0}, {"type": "electric_scooter", "rental_uris": {"ios": "https://dc.lft.to/lastmile_qr_scan", "android": "https://dc.lft.to/lastmile_qr_scan"}, "lon": -76.997695, "fusion_lon": 0.0, "is_disabled": 0, "lat": 38.900424, "bike_id": "57f3c87ce3eec7edd46c0f0986e60443", "name": "57f3c87ce3eec7edd46c0f0986e60443", "is_reserved": 0, "fusion_lat": 0.0}, {"type": "electric_bike", "rental_uris": {"ios": "https://dc.lft.to/lastmile_qr_scan", "android": "https://dc.lft.to/lastmile_qr_scan"}, "lon": -77.03213633333333, "fusion_lon": 0.0, "is_disabled": 0, "lat": 38.915587, "bike_id": "dced965feaae80a6ffb572c5151a5c26", "name": "dced965feaae80a6ffb572c5151a5c26", "is_reserved": 0, "fusion_lat": 0.0}, {"type": "electric_bike", "rental_uris": {"ios": "https://dc.lft.to/lastmile_qr_scan", "android": "https://dc.lft.to/lastmile_qr_scan"}, "lon": -77.04494816666667, "fusion_lon": 0.0, "is_disabled": 0, "lat": 38.842922333333334, "bike_id": "b16af4af3233598f7569b8135731ea0d", "name": "b16af4af3233598f7569b8135731ea0d", "is_reserved": 0, "fusion_lat": 0.0}, {"type": "electric_scooter", "rental_uris": {"ios": "https://dc.lft.to/lastmile_qr_scan", "android": "https://dc.lft.to/lastmile_qr_scan"}, "lon": -77.02465066666667, "fusion_lon": 0.0, "is_disabled": 0, "lat": 38.932979833333334, "bike_id": "48c68a58b6d418943556dfef762ae8cc", "name": "48c68a58b6d418943556dfef762ae8cc", "is_reserved": 0, "fusion_lat": 0.0}, {"type": "electric_scooter", "rental_uris": {"ios": "https://dc.lft.to/lastmile_qr_scan", "android": "https://dc.lft.to/lastmile_qr_scan"}, "lon": -77.043346, "fusion_lon": 0.0, "is_disabled": 0, "lat": 38.90842033333333, "bike_id": "0639976432f0fa5c96b973aa4201ca7f", "name": "0639976432f0fa5c96b973aa4201ca7f", "is_reserved": 0, "fusion_lat": 0.0}, {"type": "electric_scooter", "rental_uris": {"ios": "https://dc.lft.to/lastmile_qr_scan", "android": "https://dc.lft.to/lastmile_qr_scan"}, "lon": -77.0385635, "fusion_lon": 0.0, "is_disabled": 0, "lat": 38.915501666666664, "bike_id": "06b9e6e729b12409ece5614abb2dfc31", "name": "06b9e6e729b12409ece5614abb2dfc31", "is_reserved": 0, "fusion_lat": 0.0}, {"type": "electric_bike", "rental_uris": {"ios": "https://dc.lft.to/lastmile_qr_scan", "android": "https://dc.lft.to/lastmile_qr_scan"}, "lon": -77.02821516666667, "fusion_lon": 0.0, "is_disabled": 0, "lat": 38.9650205, "bike_id": "11daf05ebdd8a874dd630375f68ada2a", "name": "11daf05ebdd8a874dd630375f68ada2a", "is_reserved": 0, "fusion_lat": 0.0}, {"type": "electric_scooter", "rental_uris": {"ios": "https://dc.lft.to/lastmile_qr_scan", "android": "https://dc.lft.to/lastmile_qr_scan"}, "lon": -77.04439983333333, "fusion_lon": 0.0, "is_disabled": 0, "lat": 38.912628833333336, "bike_id": "9ca90355568653a52a25c89009da6fdc", "name": "9ca90355568653a52a25c89009da6fdc", "is_reserved": 0, "fusion_lat": 0.0}, {"type": "electric_scooter", "rental_uris": {"ios": "https://dc.lft.to/lastmile_qr_scan", "android": "https://dc.lft.to/lastmile_qr_scan"}, "lon": -77.00595166666666, "fusion_lon": 0.0, "is_disabled": 0, "lat": 38.905728333333336, "bike_id": "1625944741f0116225734989e335b841", "name": "1625944741f0116225734989e335b841", "is_reserved": 0, "fusion_lat": 0.0}, {"type": "electric_scooter", "rental_uris": {"ios": "https://dc.lft.to/lastmile_qr_scan", "android": "https://dc.lft.to/lastmile_qr_scan"}, "lon": -77.04011633333333, "fusion_lon": 0.0, "is_disabled": 0, "lat": 38.9099895, "bike_id": "d2b95e78eb5046573889df317b0d7875", "name": "d2b95e78eb5046573889df317b0d7875", "is_reserved": 0, "fusion_lat": 0.0}, {"type": "electric_scooter", "rental_uris": {"ios": "https://dc.lft.to/lastmile_qr_scan", "android": "https://dc.lft.to/lastmile_qr_scan"}, "lon": -77.04119533333333, "fusion_lon": 0.0, "is_disabled": 0, "lat": 38.9339705, "bike_id": "cc5e125fedcaeb97fdf71eff0958f936", "name": "cc5e125fedcaeb97fdf71eff0958f936", "is_reserved": 0, "fusion_lat": 0.0}, {"type": "electric_scooter", "rental_uris": {"ios": "https://dc.lft.to/lastmile_qr_scan", "android": "https://dc.lft.to/lastmile_qr_scan"}, "lon": -77.03951933333333, "fusion_lon": 0.0, "is_disabled": 0, "lat": 38.8989075, "bike_id": "99cd1bbd5ca1aa49f1d854cafd42ab44", "name": "99cd1bbd5ca1aa49f1d854cafd42ab44", "is_reserved": 0, "fusion_lat": 0.0}, {"type": "electric_scooter", "rental_uris": {"ios": "https://dc.lft.to/lastmile_qr_scan", "android": "https://dc.lft.to/lastmile_qr_scan"}, "lon": -77.02222883333333, "fusion_lon": 0.0, "is_disabled": 0, "lat": 38.892229, "bike_id": "cdbad1a8b087318f4c2a2ae57343140d", "name": "cdbad1a8b087318f4c2a2ae57343140d", "is_reserved": 0, "fusion_lat": 0.0}, {"type": "electric_bike", "rental_uris": {"ios": "https://dc.lft.to/lastmile_qr_scan", "android": "https://dc.lft.to/lastmile_qr_scan"}, "lon": -76.9853415, "fusion_lon": 0.0, "is_disabled": 0, "lat": 38.8808215, "bike_id": "70925d6ca0bda8ce9c58cad4bc1205f9", "name": "70925d6ca0bda8ce9c58cad4bc1205f9", "is_reserved": 0, "fusion_lat": 0.0}, {"type": "electric_scooter", "rental_uris": {"ios": "https://dc.lft.to/lastmile_qr_scan", "android": "https://dc.lft.to/lastmile_qr_scan"}, "lon": -77.02624983333334, "fusion_lon": 0.0, "is_disabled": 0, "lat": 38.88744716666667, "bike_id": "6ff9fe7170498a06a4044ea83d3e8985", "name": "6ff9fe7170498a06a4044ea83d3e8985", "is_reserved": 0, "fusion_lat": 0.0}, {"type": "electric_scooter", "rental_uris": {"ios": "https://dc.lft.to/lastmile_qr_scan", "android": "https://dc.lft.to/lastmile_qr_scan"}, "lon": -77.024936, "fusion_lon": 0.0, "is_disabled": 0, "lat": 38.94184666666666, "bike_id": "54d520c542899cf93fcdebad45c84d9e", "name": "54d520c542899cf93fcdebad45c84d9e", "is_reserved": 0, "fusion_lat": 0.0}, {"type": "electric_scooter", "rental_uris": {"ios": "https://dc.lft.to/lastmile_qr_scan", "android": "https://dc.lft.to/lastmile_qr_scan"}, "lon": -77.02689533333333, "fusion_lon": 0.0, "is_disabled": 0, "lat": 38.906793, "bike_id": "2d62625c7da46647b619836e63254108", "name": "2d62625c7da46647b619836e63254108", "is_reserved": 0, "fusion_lat": 0.0}, {"type": "electric_scooter", "rental_uris": {"ios": "https://dc.lft.to/lastmile_qr_scan", "android": "https://dc.lft.to/lastmile_qr_scan"}, "lon": -76.98709066666666, "fusion_lon": 0.0, "is_disabled": 0, "lat": 38.86537116666667, "bike_id": "6cb764c16fd779cdbb4a8e608b00ef98", "name": "6cb764c16fd779cdbb4a8e608b00ef98", "is_reserved": 0, "fusion_lat": 0.0}, {"type": "electric_bike", "rental_uris": {"ios": "https://dc.lft.to/lastmile_qr_scan", "android": "https://dc.lft.to/lastmile_qr_scan"}, "lon": -76.97183416666667, "fusion_lon": 0.0, "is_disabled": 0, "lat": 38.91791033333333, "bike_id": "a9cb3b21db1c6efeae28f42d752ed7cc", "name": "a9cb3b21db1c6efeae28f42d752ed7cc", "is_reserved": 0, "fusion_lat": 0.0}, {"type": "electric_scooter", "rental_uris": {"ios": "https://dc.lft.to/lastmile_qr_scan", "android": "https://dc.lft.to/lastmile_qr_scan"}, "lon": -77.02973066666667, "fusion_lon": 0.0, "is_disabled": 0, "lat": 38.93472, "bike_id": "f0c6068c6827204397960554d50345a1", "name": "f0c6068c6827204397960554d50345a1", "is_reserved": 0, "fusion_lat": 0.0}, {"type": "electric_scooter", "rental_uris": {"ios": "https://dc.lft.to/lastmile_qr_scan", "android": "https://dc.lft.to/lastmile_qr_scan"}, "lon": -77.03505333333334, "fusion_lon": 0.0, "is_disabled": 0, "lat": 38.92152566666667, "bike_id": "74dd56c9805043ce75786fd5f7ff2489", "name": "74dd56c9805043ce75786fd5f7ff2489", "is_reserved": 0, "fusion_lat": 0.0}, {"type": "electric_scooter", "rental_uris": {"ios": "https://dc.lft.to/lastmile_qr_scan", "android": "https://dc.lft.to/lastmile_qr_scan"}, "lon": -77.01134716666667, "fusion_lon": 0.0, "is_disabled": 0, "lat": 38.885262, "bike_id": "d85a25ff70b7c0279a2847b85af3af5b", "name": "d85a25ff70b7c0279a2847b85af3af5b", "is_reserved": 0, "fusion_lat": 0.0}, {"type": "electric_scooter", "rental_uris": {"ios": "https://dc.lft.to/lastmile_qr_scan", "android": "https://dc.lft.to/lastmile_qr_scan"}, "lon": -77.0415865, "fusion_lon": 0.0, "is_disabled": 0, "lat": 38.91620133333333, "bike_id": "299192a27cffc57882557a317cc2e8a5", "name": "299192a27cffc57882557a317cc2e8a5", "is_reserved": 0, "fusion_lat": 0.0}, {"type": "electric_bike", "rental_uris": {"ios": "https://dc.lft.to/lastmile_qr_scan", "android": "https://dc.lft.to/lastmile_qr_scan"}, "lon": -77.027799, "fusion_lon": 0.0, "is_disabled": 0, "lat": 38.929315333333335, "bike_id": "70be0d8f12ac9fc24cb3fa8e09f1f4c4", "name": "70be0d8f12ac9fc24cb3fa8e09f1f4c4", "is_reserved": 0, "fusion_lat": 0.0}, {"type": "electric_scooter", "rental_uris": {"ios": "https://dc.lft.to/lastmile_qr_scan", "android": "https://dc.lft.to/lastmile_qr_scan"}, "lon": -77.01775183333334, "fusion_lon": 0.0, "is_disabled": 0, "lat": 38.9056085, "bike_id": "39c83391381bbdd2fb069880ee436815", "name": "39c83391381bbdd2fb069880ee436815", "is_reserved": 0, "fusion_lat": 0.0}, {"type": "electric_scooter", "rental_uris": {"ios": "https://dc.lft.to/lastmile_qr_scan", "android": "https://dc.lft.to/lastmile_qr_scan"}, "lon": -77.02412383333333, "fusion_lon": 0.0, "is_disabled": 0, "lat": 38.8920005, "bike_id": "8d7bac29a5139c7415465216fdfdd881", "name": "8d7bac29a5139c7415465216fdfdd881", "is_reserved": 0, "fusion_lat": 0.0}, {"type": "electric_scooter", "rental_uris": {"ios": "https://dc.lft.to/lastmile_qr_scan", "android": "https://dc.lft.to/lastmile_qr_scan"}, "lon": -77.03173633333333, "fusion_lon": 0.0, "is_disabled": 0, "lat": 38.91423, "bike_id": "c549cea49256bece9544edd2ac6e0412", "name": "c549cea49256bece9544edd2ac6e0412", "is_reserved": 0, "fusion_lat": 0.0}, {"type": "electric_scooter", "rental_uris": {"ios": "https://dc.lft.to/lastmile_qr_scan", "android": "https://dc.lft.to/lastmile_qr_scan"}, "lon": -77.054991, "fusion_lon": 0.0, "is_disabled": 0, "lat": 38.936578833333336, "bike_id": "76e6c7a49e32b09a0b22baa8086c2d74", "name": "76e6c7a49e32b09a0b22baa8086c2d74", "is_reserved": 0, "fusion_lat": 0.0}, {"type": "electric_bike", "rental_uris": {"ios": "https://dc.lft.to/lastmile_qr_scan", "android": "https://dc.lft.to/lastmile_qr_scan"}, "lon": -77.13142933333333, "fusion_lon": 0.0, "is_disabled": 0, "lat": 38.86171733333333, "bike_id": "9b3d5cb99cbdd395734994ee0ba8fa4a", "name": "9b3d5cb99cbdd395734994ee0ba8fa4a", "is_reserved": 0, "fusion_lat": 0.0}, {"type": "electric_scooter", "rental_uris": {"ios": "https://dc.lft.to/lastmile_qr_scan", "android": "https://dc.lft.to/lastmile_qr_scan"}, "lon": -77.0555455, "fusion_lon": 0.0, "is_disabled": 0, "lat": 38.93427916666667, "bike_id": "14324ab63b71d08c6d3d6da856c46e9f", "name": "14324ab63b71d08c6d3d6da856c46e9f", "is_reserved": 0, "fusion_lat": 0.0}, {"type": "electric_bike", "rental_uris": {"ios": "https://dc.lft.to/lastmile_qr_scan", "android": "https://dc.lft.to/lastmile_qr_scan"}, "lon": -77.04929433333334, "fusion_lon": 0.0, "is_disabled": 0, "lat": 38.8134665, "bike_id": "2ea75219e5784552a4de9e818a7e64e0", "name": "2ea75219e5784552a4de9e818a7e64e0", "is_reserved": 0, "fusion_lat": 0.0}, {"type": "electric_scooter", "rental_uris": {"ios": "https://dc.lft.to/lastmile_qr_scan", "android": "https://dc.lft.to/lastmile_qr_scan"}, "lon": -77.05237266666667, "fusion_lon": 0.0, "is_disabled": 0, "lat": 38.92472633333333, "bike_id": "51d371c82b6800683fc41f5d1d3db6c1", "name": "51d371c82b6800683fc41f5d1d3db6c1", "is_reserved": 0, "fusion_lat": 0.0}, {"type": "electric_bike", "rental_uris": {"ios": "https://dc.lft.to/lastmile_qr_scan", "android": "https://dc.lft.to/lastmile_qr_scan"}, "lon": -76.98749383333333, "fusion_lon": 0.0, "is_disabled": 0, "lat": 38.857992833333334, "bike_id": "aa8b2f50eb233556bcb5094a2952ebb4", "name": "aa8b2f50eb233556bcb5094a2952ebb4", "is_reserved": 0, "fusion_lat": 0.0}, {"type": "electric_scooter", "rental_uris": {"ios": "https://dc.lft.to/lastmile_qr_scan", "android": "https://dc.lft.to/lastmile_qr_scan"}, "lon": -77.0348925, "fusion_lon": 0.0, "is_disabled": 0, "lat": 38.919277666666666, "bike_id": "54897b5ceb56e092fe132385d4a25656", "name": "54897b5ceb56e092fe132385d4a25656", "is_reserved": 0, "fusion_lat": 0.0}, {"type": "electric_scooter", "rental_uris": {"ios": "https://dc.lft.to/lastmile_qr_scan", "android": "https://dc.lft.to/lastmile_qr_scan"}, "lon": -77.03167633333334, "fusion_lon": 0.0, "is_disabled": 0, "lat": 38.915625166666665, "bike_id": "68808c046e2d92abfc2d350974a08fe1", "name": "68808c046e2d92abfc2d350974a08fe1", "is_reserved": 0, "fusion_lat": 0.0}, {"type": "electric_scooter", "rental_uris": {"ios": "https://dc.lft.to/lastmile_qr_scan", "android": "https://dc.lft.to/lastmile_qr_scan"}, "lon": -77.05728633333334, "fusion_lon": 0.0, "is_disabled": 0, "lat": 38.93358683333334, "bike_id": "4c2c3e766e176da7ac7c642dcecc0fbf", "name": "4c2c3e766e176da7ac7c642dcecc0fbf", "is_reserved": 0, "fusion_lat": 0.0}, {"type": "electric_scooter", "rental_uris": {"ios": "https://dc.lft.to/lastmile_qr_scan", "android": "https://dc.lft.to/lastmile_qr_scan"}, "lon": -77.02691683333333, "fusion_lon": 0.0, "is_disabled": 0, "lat": 38.9112275, "bike_id": "f7f68c10d3f30b2e768a9bc9cad1396d", "name": "f7f68c10d3f30b2e768a9bc9cad1396d", "is_reserved": 0, "fusion_lat": 0.0}, {"type": "electric_scooter", "rental_uris": {"ios": "https://dc.lft.to/lastmile_qr_scan", "android": "https://dc.lft.to/lastmile_qr_scan"}, "lon": -77.036801, "fusion_lon": 0.0, "is_disabled": 0, "lat": 38.918097333333336, "bike_id": "8250219510c356fe43fdab4d53e0c313", "name": "8250219510c356fe43fdab4d53e0c313", "is_reserved": 0, "fusion_lat": 0.0}, {"type": "electric_scooter", "rental_uris": {"ios": "https://dc.lft.to/lastmile_qr_scan", "android": "https://dc.lft.to/lastmile_qr_scan"}, "lon": -77.00193283333333, "fusion_lon": 0.0, "is_disabled": 0, "lat": 38.90042566666666, "bike_id": "6878cc5d246b7a6e76d42cc5f607f0b1", "name": "6878cc5d246b7a6e76d42cc5f607f0b1", "is_reserved": 0, "fusion_lat": 0.0}, {"type": "electric_scooter", "rental_uris": {"ios": "https://dc.lft.to/lastmile_qr_scan", "android": "https://dc.lft.to/lastmile_qr_scan"}, "lon": -77.0276335, "fusion_lon": 0.0, "is_disabled": 0, "lat": 38.907278833333336, "bike_id": "c5a2ee9aa53d227d929d105ce72b1290", "name": "c5a2ee9aa53d227d929d105ce72b1290", "is_reserved": 0, "fusion_lat": 0.0}, {"type": "electric_scooter", "rental_uris": {"ios": "https://dc.lft.to/lastmile_qr_scan", "android": "https://dc.lft.to/lastmile_qr_scan"}, "lon": -77.0318755, "fusion_lon": 0.0, "is_disabled": 0, "lat": 38.91687616666667, "bike_id": "dbf6886ac3210c28fdaf9c89e3bdaf8c", "name": "dbf6886ac3210c28fdaf9c89e3bdaf8c", "is_reserved": 0, "fusion_lat": 0.0}, {"type": "electric_scooter", "rental_uris": {"ios": "https://dc.lft.to/lastmile_qr_scan", "android": "https://dc.lft.to/lastmile_qr_scan"}, "lon": -77.06313633333333, "fusion_lon": 0.0, "is_disabled": 0, "lat": 38.903481, "bike_id": "e230b60d4c2d5a83d1d7d89099d7738f", "name": "e230b60d4c2d5a83d1d7d89099d7738f", "is_reserved": 0, "fusion_lat": 0.0}, {"type": "electric_scooter", "rental_uris": {"ios": "https://dc.lft.to/lastmile_qr_scan", "android": "https://dc.lft.to/lastmile_qr_scan"}, "lon": -77.00470533333333, "fusion_lon": 0.0, "is_disabled": 0, "lat": 38.91146666666667, "bike_id": "3538ee67fd85652ac42a8eff4461a8f8", "name": "3538ee67fd85652ac42a8eff4461a8f8", "is_reserved": 0, "fusion_lat": 0.0}, {"type": "electric_scooter", "rental_uris": {"ios": "https://dc.lft.to/lastmile_qr_scan", "android": "https://dc.lft.to/lastmile_qr_scan"}, "lon": -77.0366705, "fusion_lon": 0.0, "is_disabled": 0, "lat": 38.92295166666667, "bike_id": "a55846ec4867be947426e7caf39f26e4", "name": "a55846ec4867be947426e7caf39f26e4", "is_reserved": 0, "fusion_lat": 0.0}, {"type": "electric_bike", "rental_uris": {"ios": "https://dc.lft.to/lastmile_qr_scan", "android": "https://dc.lft.to/lastmile_qr_scan"}, "lon": -76.94583916666667, "fusion_lon": 0.0, "is_disabled": 0, "lat": 38.95332583333333, "bike_id": "9332b35d3953ce1d8b4766902bf241ed", "name": "9332b35d3953ce1d8b4766902bf241ed", "is_reserved": 0, "fusion_lat": 0.0}, {"type": "electric_scooter", "rental_uris": {"ios": "https://dc.lft.to/lastmile_qr_scan", "android": "https://dc.lft.to/lastmile_qr_scan"}, "lon": -77.04644166666667, "fusion_lon": 0.0, "is_disabled": 0, "lat": 38.89222816666667, "bike_id": "36e6ffd80dafde005fa2042123276c7a", "name": "36e6ffd80dafde005fa2042123276c7a", "is_reserved": 0, "fusion_lat": 0.0}, {"type": "electric_scooter", "rental_uris": {"ios": "https://dc.lft.to/lastmile_qr_scan", "android": "https://dc.lft.to/lastmile_qr_scan"}, "lon": -77.0328265, "fusion_lon": 0.0, "is_disabled": 0, "lat": 38.92748533333334, "bike_id": "61002723e958bd78d7b538a4c43e004f", "name": "61002723e958bd78d7b538a4c43e004f", "is_reserved": 0, "fusion_lat": 0.0}, {"type": "electric_scooter", "rental_uris": {"ios": "https://dc.lft.to/lastmile_qr_scan", "android": "https://dc.lft.to/lastmile_qr_scan"}, "lon": -76.95142166666666, "fusion_lon": 0.0, "is_disabled": 0, "lat": 38.89038983333333, "bike_id": "93e2af9f4fd87a0631a8b8de8d808476", "name": "93e2af9f4fd87a0631a8b8de8d808476", "is_reserved": 0, "fusion_lat": 0.0}, {"type": "electric_scooter", "rental_uris": {"ios": "https://dc.lft.to/lastmile_qr_scan", "android": "https://dc.lft.to/lastmile_qr_scan"}, "lon": -77.031735, "fusion_lon": 0.0, "is_disabled": 0, "lat": 38.9209815, "bike_id": "6114b313c0e052cad55d81ab6015911d", "name": "6114b313c0e052cad55d81ab6015911d", "is_reserved": 0, "fusion_lat": 0.0}, {"type": "electric_bike", "rental_uris": {"ios": "https://dc.lft.to/lastmile_qr_scan", "android": "https://dc.lft.to/lastmile_qr_scan"}, "lon": -76.99005283333334, "fusion_lon": 0.0, "is_disabled": 0, "lat": 38.9548725, "bike_id": "62432a12de595f41ae0e5882d77d4397", "name": "62432a12de595f41ae0e5882d77d4397", "is_reserved": 0, "fusion_lat": 0.0}, {"type": "electric_scooter", "rental_uris": {"ios": "https://dc.lft.to/lastmile_qr_scan", "android": "https://dc.lft.to/lastmile_qr_scan"}, "lon": -76.9304275, "fusion_lon": 0.0, "is_disabled": 0, "lat": 38.895678333333336, "bike_id": "1dfc9d3374cdcc71efed3c07587c1de2", "name": "1dfc9d3374cdcc71efed3c07587c1de2", "is_reserved": 0, "fusion_lat": 0.0}, {"type": "electric_scooter", "rental_uris": {"ios": "https://dc.lft.to/lastmile_qr_scan", "android": "https://dc.lft.to/lastmile_qr_scan"}, "lon": -77.03197116666666, "fusion_lon": 0.0, "is_disabled": 0, "lat": 38.89764666666667, "bike_id": "36cd2660d90aa18359cbaacadb6e88e1", "name": "36cd2660d90aa18359cbaacadb6e88e1", "is_reserved": 0, "fusion_lat": 0.0}, {"type": "electric_scooter", "rental_uris": {"ios": "https://dc.lft.to/lastmile_qr_scan", "android": "https://dc.lft.to/lastmile_qr_scan"}, "lon": -77.0317985, "fusion_lon": 0.0, "is_disabled": 0, "lat": 38.9210835, "bike_id": "5b25ec8c885694aa0ed3db8ea9918fbe", "name": "5b25ec8c885694aa0ed3db8ea9918fbe", "is_reserved": 0, "fusion_lat": 0.0}, {"type": "electric_scooter", "rental_uris": {"ios": "https://dc.lft.to/lastmile_qr_scan", "android": "https://dc.lft.to/lastmile_qr_scan"}, "lon": -77.02188866666667, "fusion_lon": 0.0, "is_disabled": 0, "lat": 38.90981266666667, "bike_id": "336e38caf08ec2e8d039fb69d806904f", "name": "336e38caf08ec2e8d039fb69d806904f", "is_reserved": 0, "fusion_lat": 0.0}, {"type": "electric_scooter", "rental_uris": {"ios": "https://dc.lft.to/lastmile_qr_scan", "android": "https://dc.lft.to/lastmile_qr_scan"}, "lon": -76.9317765, "fusion_lon": 0.0, "is_disabled": 0, "lat": 38.898852, "bike_id": "0c1ff8d4eaa13596a1c2dedd19821985", "name": "0c1ff8d4eaa13596a1c2dedd19821985", "is_reserved": 0, "fusion_lat": 0.0}, {"type": "electric_bike", "rental_uris": {"ios": "https://dc.lft.to/lastmile_qr_scan", "android": "https://dc.lft.to/lastmile_qr_scan"}, "lon": -77.02629533333334, "fusion_lon": 0.0, "is_disabled": 0, "lat": 38.96222383333333, "bike_id": "9d2974842649d0f4fc6302f8211ad589", "name": "9d2974842649d0f4fc6302f8211ad589", "is_reserved": 0, "fusion_lat": 0.0}, {"type": "electric_scooter", "rental_uris": {"ios": "https://dc.lft.to/lastmile_qr_scan", "android": "https://dc.lft.to/lastmile_qr_scan"}, "lon": -77.03701116666667, "fusion_lon": 0.0, "is_disabled": 0, "lat": 38.926389, "bike_id": "62ee1d919dce1f33ef21e89c4b17d7d0", "name": "62ee1d919dce1f33ef21e89c4b17d7d0", "is_reserved": 0, "fusion_lat": 0.0}, {"type": "electric_scooter", "rental_uris": {"ios": "https://dc.lft.to/lastmile_qr_scan", "android": "https://dc.lft.to/lastmile_qr_scan"}, "lon": -77.05718533333334, "fusion_lon": 0.0, "is_disabled": 0, "lat": 38.933682166666664, "bike_id": "e0a480abfd08f36d24dec3efd4f0b754", "name": "e0a480abfd08f36d24dec3efd4f0b754", "is_reserved": 0, "fusion_lat": 0.0}, {"type": "electric_scooter", "rental_uris": {"ios": "https://dc.lft.to/lastmile_qr_scan", "android": "https://dc.lft.to/lastmile_qr_scan"}, "lon": -77.037693, "fusion_lon": 0.0, "is_disabled": 0, "lat": 38.929743333333334, "bike_id": "eda2397bbe8da6cec03c2cc2088f12ec", "name": "eda2397bbe8da6cec03c2cc2088f12ec", "is_reserved": 0, "fusion_lat": 0.0}, {"type": "electric_scooter", "rental_uris": {"ios": "https://dc.lft.to/lastmile_qr_scan", "android": "https://dc.lft.to/lastmile_qr_scan"}, "lon": -77.02963333333334, "fusion_lon": 0.0, "is_disabled": 0, "lat": 38.907726, "bike_id": "899189abde8eb1e6bb99e1180b6b118d", "name": "899189abde8eb1e6bb99e1180b6b118d", "is_reserved": 0, "fusion_lat": 0.0}, {"type": "electric_bike", "rental_uris": {"ios": "https://dc.lft.to/lastmile_qr_scan", "android": "https://dc.lft.to/lastmile_qr_scan"}, "lon": -77.073802, "fusion_lon": 0.0, "is_disabled": 0, "lat": 38.961881166666664, "bike_id": "d5dc6227d2cbe50851c97a59508ac162", "name": "d5dc6227d2cbe50851c97a59508ac162", "is_reserved": 0, "fusion_lat": 0.0}, {"type": "electric_bike", "rental_uris": {"ios": "https://dc.lft.to/lastmile_qr_scan", "android": "https://dc.lft.to/lastmile_qr_scan"}, "lon": -76.883747, "fusion_lon": 0.0, "is_disabled": 0, "lat": 38.99816033333333, "bike_id": "5882959028328dcde9746abc083755c7", "name": "5882959028328dcde9746abc083755c7", "is_reserved": 0, "fusion_lat": 0.0}, {"type": "electric_bike", "rental_uris": {"ios": "https://dc.lft.to/lastmile_qr_scan", "android": "https://dc.lft.to/lastmile_qr_scan"}, "lon": -77.36094283333334, "fusion_lon": 0.0, "is_disabled": 0, "lat": 38.939567, "bike_id": "0d678d7964b88f6ef4b6232c670ed708", "name": "0d678d7964b88f6ef4b6232c670ed708", "is_reserved": 0, "fusion_lat": 0.0}, {"type": "electric_scooter", "rental_uris": {"ios": "https://dc.lft.to/lastmile_qr_scan", "android": "https://dc.lft.to/lastmile_qr_scan"}, "lon": -77.049247, "fusion_lon": 0.0, "is_disabled": 0, "lat": 38.90093516666666, "bike_id": "9378b264ea05548dcc76850ff4b29c1f", "name": "9378b264ea05548dcc76850ff4b29c1f", "is_reserved": 0, "fusion_lat": 0.0}, {"type": "electric_bike", "rental_uris": {"ios": "https://dc.lft.to/lastmile_qr_scan", "android": "https://dc.lft.to/lastmile_qr_scan"}, "lon": -77.22308916666667, "fusion_lon": 0.0, "is_disabled": 0, "lat": 38.91805333333333, "bike_id": "e5a3f915b4951e5787907a32e5bfb10a", "name": "e5a3f915b4951e5787907a32e5bfb10a", "is_reserved": 0, "fusion_lat": 0.0}, {"type": "electric_scooter", "rental_uris": {"ios": "https://dc.lft.to/lastmile_qr_scan", "android": "https://dc.lft.to/lastmile_qr_scan"}, "lon": -77.03870616666667, "fusion_lon": 0.0, "is_disabled": 0, "lat": 38.91559483333333, "bike_id": "4ca8493ad0ed28521d24a38a0e6f65c8", "name": "4ca8493ad0ed28521d24a38a0e6f65c8", "is_reserved": 0, "fusion_lat": 0.0}, {"type": "electric_scooter", "rental_uris": {"ios": "https://dc.lft.to/lastmile_qr_scan", "android": "https://dc.lft.to/lastmile_qr_scan"}, "lon": -77.01120916666666, "fusion_lon": 0.0, "is_disabled": 0, "lat": 38.92030466666667, "bike_id": "947846978bf3ee03e817839bbf3a95fd", "name": "947846978bf3ee03e817839bbf3a95fd", "is_reserved": 0, "fusion_lat": 0.0}, {"type": "electric_scooter", "rental_uris": {"ios": "https://dc.lft.to/lastmile_qr_scan", "android": "https://dc.lft.to/lastmile_qr_scan"}, "lon": -77.02663383333334, "fusion_lon": 0.0, "is_disabled": 0, "lat": 38.9169975, "bike_id": "4e9292174d8222ef57ea0a4794b7cde8", "name": "4e9292174d8222ef57ea0a4794b7cde8", "is_reserved": 0, "fusion_lat": 0.0}, {"type": "electric_scooter", "rental_uris": {"ios": "https://dc.lft.to/lastmile_qr_scan", "android": "https://dc.lft.to/lastmile_qr_scan"}, "lon": -76.93611416666667, "fusion_lon": 0.0, "is_disabled": 0, "lat": 38.8867185, "bike_id": "f2f860dab665a3853b3665ff73639186", "name": "f2f860dab665a3853b3665ff73639186", "is_reserved": 0, "fusion_lat": 0.0}, {"type": "electric_scooter", "rental_uris": {"ios": "https://dc.lft.to/lastmile_qr_scan", "android": "https://dc.lft.to/lastmile_qr_scan"}, "lon": -77.05139733333333, "fusion_lon": 0.0, "is_disabled": 0, "lat": 38.90053, "bike_id": "23f069b126f4d7549dafc22526a248dc", "name": "23f069b126f4d7549dafc22526a248dc", "is_reserved": 0, "fusion_lat": 0.0}, {"type": "electric_scooter", "rental_uris": {"ios": "https://dc.lft.to/lastmile_qr_scan", "android": "https://dc.lft.to/lastmile_qr_scan"}, "lon": -77.033429, "fusion_lon": 0.0, "is_disabled": 0, "lat": 38.92890216666667, "bike_id": "6c1ed958bfe2c2151751cbc398126c7c", "name": "6c1ed958bfe2c2151751cbc398126c7c", "is_reserved": 0, "fusion_lat": 0.0}, {"type": "electric_scooter", "rental_uris": {"ios": "https://dc.lft.to/lastmile_qr_scan", "android": "https://dc.lft.to/lastmile_qr_scan"}, "lon": -77.02914316666667, "fusion_lon": 0.0, "is_disabled": 0, "lat": 38.90267016666667, "bike_id": "cc3cc77a9f813d21d2c52d94295d4610", "name": "cc3cc77a9f813d21d2c52d94295d4610", "is_reserved": 0, "fusion_lat": 0.0}, {"type": "electric_scooter", "rental_uris": {"ios": "https://dc.lft.to/lastmile_qr_scan", "android": "https://dc.lft.to/lastmile_qr_scan"}, "lon": -77.03194033333334, "fusion_lon": 0.0, "is_disabled": 0, "lat": 38.9211865, "bike_id": "ea2dcd5706bc18f5aad4c0fb94c67582", "name": "ea2dcd5706bc18f5aad4c0fb94c67582", "is_reserved": 0, "fusion_lat": 0.0}, {"type": "electric_scooter", "rental_uris": {"ios": "https://dc.lft.to/lastmile_qr_scan", "android": "https://dc.lft.to/lastmile_qr_scan"}, "lon": -77.0323395, "fusion_lon": 0.0, "is_disabled": 0, "lat": 38.92808183333333, "bike_id": "5e387b3673feb15e6c582a69ad52f829", "name": "5e387b3673feb15e6c582a69ad52f829", "is_reserved": 0, "fusion_lat": 0.0}, {"type": "electric_scooter", "rental_uris": {"ios": "https://dc.lft.to/lastmile_qr_scan", "android": "https://dc.lft.to/lastmile_qr_scan"}, "lon": -77.0298605, "fusion_lon": 0.0, "is_disabled": 0, "lat": 38.91690333333333, "bike_id": "5773e0becfaf39aa1b8967285d2779a3", "name": "5773e0becfaf39aa1b8967285d2779a3", "is_reserved": 0, "fusion_lat": 0.0}, {"type": "electric_scooter", "rental_uris": {"ios": "https://dc.lft.to/lastmile_qr_scan", "android": "https://dc.lft.to/lastmile_qr_scan"}, "lon": -77.0353105, "fusion_lon": 0.0, "is_disabled": 0, "lat": 38.91825466666667, "bike_id": "249d39a82f963b7f8770cfdd7bf4244d", "name": "249d39a82f963b7f8770cfdd7bf4244d", "is_reserved": 0, "fusion_lat": 0.0}, {"type": "electric_scooter", "rental_uris": {"ios": "https://dc.lft.to/lastmile_qr_scan", "android": "https://dc.lft.to/lastmile_qr_scan"}, "lon": -77.0321325, "fusion_lon": 0.0, "is_disabled": 0, "lat": 38.892226666666666, "bike_id": "21436d35e76bb788f12b8d43835454a1", "name": "21436d35e76bb788f12b8d43835454a1", "is_reserved": 0, "fusion_lat": 0.0}, {"type": "electric_scooter", "rental_uris": {"ios": "https://dc.lft.to/lastmile_qr_scan", "android": "https://dc.lft.to/lastmile_qr_scan"}, "lon": -77.03142583333333, "fusion_lon": 0.0, "is_disabled": 0, "lat": 38.9170265, "bike_id": "89b67f3a61430bb201f23d6a934806bd", "name": "89b67f3a61430bb201f23d6a934806bd", "is_reserved": 0, "fusion_lat": 0.0}, {"type": "electric_scooter", "rental_uris": {"ios": "https://dc.lft.to/lastmile_qr_scan", "android": "https://dc.lft.to/lastmile_qr_scan"}, "lon": -77.04160333333333, "fusion_lon": 0.0, "is_disabled": 0, "lat": 38.9141995, "bike_id": "ff1162685ee122c0a32bc68a8a2e35b2", "name": "ff1162685ee122c0a32bc68a8a2e35b2", "is_reserved": 0, "fusion_lat": 0.0}, {"type": "electric_scooter", "rental_uris": {"ios": "https://dc.lft.to/lastmile_qr_scan", "android": "https://dc.lft.to/lastmile_qr_scan"}, "lon": -77.022374, "fusion_lon": 0.0, "is_disabled": 0, "lat": 38.922337666666664, "bike_id": "a0a4c71ed07ffb1bef1b01f985dd19e8", "name": "a0a4c71ed07ffb1bef1b01f985dd19e8", "is_reserved": 0, "fusion_lat": 0.0}, {"type": "electric_scooter", "rental_uris": {"ios": "https://dc.lft.to/lastmile_qr_scan", "android": "https://dc.lft.to/lastmile_qr_scan"}, "lon": -77.03454566666667, "fusion_lon": 0.0, "is_disabled": 0, "lat": 38.91876716666667, "bike_id": "4b14778f1cb5a7e4f3fdc8538c762b69", "name": "4b14778f1cb5a7e4f3fdc8538c762b69", "is_reserved": 0, "fusion_lat": 0.0}, {"type": "electric_scooter", "rental_uris": {"ios": "https://dc.lft.to/lastmile_qr_scan", "android": "https://dc.lft.to/lastmile_qr_scan"}, "lon": -77.00048366666667, "fusion_lon": 0.0, "is_disabled": 0, "lat": 38.87394583333333, "bike_id": "fd4a0cac7dc510f97fabe446eab90bcd", "name": "fd4a0cac7dc510f97fabe446eab90bcd", "is_reserved": 0, "fusion_lat": 0.0}, {"type": "electric_scooter", "rental_uris": {"ios": "https://dc.lft.to/lastmile_qr_scan", "android": "https://dc.lft.to/lastmile_qr_scan"}, "lon": -77.02956116666667, "fusion_lon": 0.0, "is_disabled": 0, "lat": 38.92254416666667, "bike_id": "fa5e2b68c3d50c0421e8b1430e8af599", "name": "fa5e2b68c3d50c0421e8b1430e8af599", "is_reserved": 0, "fusion_lat": 0.0}, {"type": "electric_scooter", "rental_uris": {"ios": "https://dc.lft.to/lastmile_qr_scan", "android": "https://dc.lft.to/lastmile_qr_scan"}, "lon": -77.03458083333334, "fusion_lon": 0.0, "is_disabled": 0, "lat": 38.9375215, "bike_id": "b174b30c867eaa2b3e0e323e5d568d5f", "name": "b174b30c867eaa2b3e0e323e5d568d5f", "is_reserved": 0, "fusion_lat": 0.0}, {"type": "electric_scooter", "rental_uris": {"ios": "https://dc.lft.to/lastmile_qr_scan", "android": "https://dc.lft.to/lastmile_qr_scan"}, "lon": -77.03424966666667, "fusion_lon": 0.0, "is_disabled": 0, "lat": 38.9098125, "bike_id": "82bb86703782571f8a940a85904cfdf6", "name": "82bb86703782571f8a940a85904cfdf6", "is_reserved": 0, "fusion_lat": 0.0}, {"type": "electric_scooter", "rental_uris": {"ios": "https://dc.lft.to/lastmile_qr_scan", "android": "https://dc.lft.to/lastmile_qr_scan"}, "lon": -77.03926, "fusion_lon": 0.0, "is_disabled": 0, "lat": 38.91712666666667, "bike_id": "f8c24097efe7ef68a472b260f4f8588d", "name": "f8c24097efe7ef68a472b260f4f8588d", "is_reserved": 0, "fusion_lat": 0.0}, {"type": "electric_scooter", "rental_uris": {"ios": "https://dc.lft.to/lastmile_qr_scan", "android": "https://dc.lft.to/lastmile_qr_scan"}, "lon": -77.014162, "fusion_lon": 0.0, "is_disabled": 0, "lat": 38.881224333333336, "bike_id": "aeb7be8cd508ee0b049449287a2df452", "name": "aeb7be8cd508ee0b049449287a2df452", "is_reserved": 0, "fusion_lat": 0.0}, {"type": "electric_scooter", "rental_uris": {"ios": "https://dc.lft.to/lastmile_qr_scan", "android": "https://dc.lft.to/lastmile_qr_scan"}, "lon": -77.02426633333333, "fusion_lon": 0.0, "is_disabled": 0, "lat": 38.9185485, "bike_id": "3a10d27e4f2961d67c090702cf57b2be", "name": "3a10d27e4f2961d67c090702cf57b2be", "is_reserved": 0, "fusion_lat": 0.0}, {"type": "electric_scooter", "rental_uris": {"ios": "https://dc.lft.to/lastmile_qr_scan", "android": "https://dc.lft.to/lastmile_qr_scan"}, "lon": -77.02967883333334, "fusion_lon": 0.0, "is_disabled": 0, "lat": 38.923206, "bike_id": "873260e443d107fa2f056d6f3c427980", "name": "873260e443d107fa2f056d6f3c427980", "is_reserved": 0, "fusion_lat": 0.0}, {"type": "electric_scooter", "rental_uris": {"ios": "https://dc.lft.to/lastmile_qr_scan", "android": "https://dc.lft.to/lastmile_qr_scan"}, "lon": -77.0435735, "fusion_lon": 0.0, "is_disabled": 0, "lat": 38.92063316666667, "bike_id": "127ec705b7027cbcda5b1d9e43c9376f", "name": "127ec705b7027cbcda5b1d9e43c9376f", "is_reserved": 0, "fusion_lat": 0.0}, {"type": "electric_scooter", "rental_uris": {"ios": "https://dc.lft.to/lastmile_qr_scan", "android": "https://dc.lft.to/lastmile_qr_scan"}, "lon": -77.031648, "fusion_lon": 0.0, "is_disabled": 0, "lat": 38.91571733333333, "bike_id": "a552a38b4d5a35de35539eab51de6674", "name": "a552a38b4d5a35de35539eab51de6674", "is_reserved": 0, "fusion_lat": 0.0}, {"type": "electric_scooter", "rental_uris": {"ios": "https://dc.lft.to/lastmile_qr_scan", "android": "https://dc.lft.to/lastmile_qr_scan"}, "lon": -77.03486183333334, "fusion_lon": 0.0, "is_disabled": 0, "lat": 38.92479733333333, "bike_id": "2e515c2da66abf3da496b08e81482e5f", "name": "2e515c2da66abf3da496b08e81482e5f", "is_reserved": 0, "fusion_lat": 0.0}, {"type": "electric_scooter", "rental_uris": {"ios": "https://dc.lft.to/lastmile_qr_scan", "android": "https://dc.lft.to/lastmile_qr_scan"}, "lon": -76.98526916666667, "fusion_lon": 0.0, "is_disabled": 0, "lat": 38.866878, "bike_id": "fcea84d37cbe84b52c2999c081e3a3af", "name": "fcea84d37cbe84b52c2999c081e3a3af", "is_reserved": 0, "fusion_lat": 0.0}, {"type": "electric_bike", "rental_uris": {"ios": "https://dc.lft.to/lastmile_qr_scan", "android": "https://dc.lft.to/lastmile_qr_scan"}, "lon": -77.06860566666667, "fusion_lon": 0.0, "is_disabled": 0, "lat": 38.805756833333334, "bike_id": "68a03102d70474000cf75a5a15611070", "name": "68a03102d70474000cf75a5a15611070", "is_reserved": 0, "fusion_lat": 0.0}, {"type": "electric_scooter", "rental_uris": {"ios": "https://dc.lft.to/lastmile_qr_scan", "android": "https://dc.lft.to/lastmile_qr_scan"}, "lon": -77.03116966666667, "fusion_lon": 0.0, "is_disabled": 0, "lat": 38.959295166666664, "bike_id": "9c33ad452fdec080a60eb0d6e6645944", "name": "9c33ad452fdec080a60eb0d6e6645944", "is_reserved": 0, "fusion_lat": 0.0}, {"type": "electric_scooter", "rental_uris": {"ios": "https://dc.lft.to/lastmile_qr_scan", "android": "https://dc.lft.to/lastmile_qr_scan"}, "lon": -77.02295316666667, "fusion_lon": 0.0, "is_disabled": 0, "lat": 38.91665233333333, "bike_id": "8f462db4cb31ca777fa70128bab1d7f5", "name": "8f462db4cb31ca777fa70128bab1d7f5", "is_reserved": 0, "fusion_lat": 0.0}, {"type": "electric_bike", "rental_uris": {"ios": "https://dc.lft.to/lastmile_qr_scan", "android": "https://dc.lft.to/lastmile_qr_scan"}, "lon": -77.0103415, "fusion_lon": 0.0, "is_disabled": 0, "lat": 38.95882133333333, "bike_id": "e84d0a6c90d9a5042116d1163472c995", "name": "e84d0a6c90d9a5042116d1163472c995", "is_reserved": 0, "fusion_lat": 0.0}, {"type": "electric_scooter", "rental_uris": {"ios": "https://dc.lft.to/lastmile_qr_scan", "android": "https://dc.lft.to/lastmile_qr_scan"}, "lon": -77.05002483333334, "fusion_lon": 0.0, "is_disabled": 0, "lat": 38.8923105, "bike_id": "7d6781d88d0917e8944396ab9773e390", "name": "7d6781d88d0917e8944396ab9773e390", "is_reserved": 0, "fusion_lat": 0.0}, {"type": "electric_scooter", "rental_uris": {"ios": "https://dc.lft.to/lastmile_qr_scan", "android": "https://dc.lft.to/lastmile_qr_scan"}, "lon": -77.0252955, "fusion_lon": 0.0, "is_disabled": 0, "lat": 38.91983283333333, "bike_id": "87c790afd1bd4da617003c748b76f5f1", "name": "87c790afd1bd4da617003c748b76f5f1", "is_reserved": 0, "fusion_lat": 0.0}, {"type": "electric_bike", "rental_uris": {"ios": "https://dc.lft.to/lastmile_qr_scan", "android": "https://dc.lft.to/lastmile_qr_scan"}, "lon": -77.0177575, "fusion_lon": 0.0, "is_disabled": 0, "lat": 38.982738, "bike_id": "dc613db61bccd6e64b0f95d2a1733f4c", "name": "dc613db61bccd6e64b0f95d2a1733f4c", "is_reserved": 0, "fusion_lat": 0.0}, {"type": "electric_scooter", "rental_uris": {"ios": "https://dc.lft.to/lastmile_qr_scan", "android": "https://dc.lft.to/lastmile_qr_scan"}, "lon": -77.03265366666666, "fusion_lon": 0.0, "is_disabled": 0, "lat": 38.91915783333334, "bike_id": "aa3238120d53804c1c57859c1232a4ea", "name": "aa3238120d53804c1c57859c1232a4ea", "is_reserved": 0, "fusion_lat": 0.0}, {"type": "electric_scooter", "rental_uris": {"ios": "https://dc.lft.to/lastmile_qr_scan", "android": "https://dc.lft.to/lastmile_qr_scan"}, "lon": -77.03219733333333, "fusion_lon": 0.0, "is_disabled": 0, "lat": 38.90976166666667, "bike_id": "efdd59d0eeee3898c87aec869fffb2d9", "name": "efdd59d0eeee3898c87aec869fffb2d9", "is_reserved": 0, "fusion_lat": 0.0}, {"type": "electric_scooter", "rental_uris": {"ios": "https://dc.lft.to/lastmile_qr_scan", "android": "https://dc.lft.to/lastmile_qr_scan"}, "lon": -77.02756183333334, "fusion_lon": 0.0, "is_disabled": 0, "lat": 38.92778666666667, "bike_id": "c0f20a09cd9162e9eda2a353b600c389", "name": "c0f20a09cd9162e9eda2a353b600c389", "is_reserved": 0, "fusion_lat": 0.0}, {"type": "electric_scooter", "rental_uris": {"ios": "https://dc.lft.to/lastmile_qr_scan", "android": "https://dc.lft.to/lastmile_qr_scan"}, "lon": -77.03211433333334, "fusion_lon": 0.0, "is_disabled": 0, "lat": 38.9171685, "bike_id": "c4495d3474785e16ae2449945613a84e", "name": "c4495d3474785e16ae2449945613a84e", "is_reserved": 0, "fusion_lat": 0.0}, {"type": "electric_scooter", "rental_uris": {"ios": "https://dc.lft.to/lastmile_qr_scan", "android": "https://dc.lft.to/lastmile_qr_scan"}, "lon": -77.021824, "fusion_lon": 0.0, "is_disabled": 0, "lat": 38.89301533333333, "bike_id": "782c20561d8435416bc16ddb81639070", "name": "782c20561d8435416bc16ddb81639070", "is_reserved": 0, "fusion_lat": 0.0}, {"type": "electric_scooter", "rental_uris": {"ios": "https://dc.lft.to/lastmile_qr_scan", "android": "https://dc.lft.to/lastmile_qr_scan"}, "lon": -76.97809766666667, "fusion_lon": 0.0, "is_disabled": 0, "lat": 38.894532, "bike_id": "edc476efead3726699911497fb03d61e", "name": "edc476efead3726699911497fb03d61e", "is_reserved": 0, "fusion_lat": 0.0}, {"type": "electric_scooter", "rental_uris": {"ios": "https://dc.lft.to/lastmile_qr_scan", "android": "https://dc.lft.to/lastmile_qr_scan"}, "lon": -77.02103366666667, "fusion_lon": 0.0, "is_disabled": 0, "lat": 38.94577483333333, "bike_id": "58be100f97141d45f147c5e6cb6f99fd", "name": "58be100f97141d45f147c5e6cb6f99fd", "is_reserved": 0, "fusion_lat": 0.0}, {"type": "electric_bike", "rental_uris": {"ios": "https://dc.lft.to/lastmile_qr_scan", "android": "https://dc.lft.to/lastmile_qr_scan"}, "lon": -77.07902266666666, "fusion_lon": 0.0, "is_disabled": 0, "lat": 38.839310166666664, "bike_id": "bc2f84e2d2e01b6f6f4a270f76e1d5a3", "name": "bc2f84e2d2e01b6f6f4a270f76e1d5a3", "is_reserved": 0, "fusion_lat": 0.0}, {"type": "electric_scooter", "rental_uris": {"ios": "https://dc.lft.to/lastmile_qr_scan", "android": "https://dc.lft.to/lastmile_qr_scan"}, "lon": -77.03213433333333, "fusion_lon": 0.0, "is_disabled": 0, "lat": 38.91621333333333, "bike_id": "a1f7faf179306a803d2ba7e0b96d5b6e", "name": "a1f7faf179306a803d2ba7e0b96d5b6e", "is_reserved": 0, "fusion_lat": 0.0}, {"type": "electric_bike", "rental_uris": {"ios": "https://dc.lft.to/lastmile_qr_scan", "android": "https://dc.lft.to/lastmile_qr_scan"}, "lon": -76.98219733333333, "fusion_lon": 0.0, "is_disabled": 0, "lat": 38.98509966666667, "bike_id": "caf51b0a9c002353d52438ce2b840667", "name": "caf51b0a9c002353d52438ce2b840667", "is_reserved": 0, "fusion_lat": 0.0}, {"type": "electric_scooter", "rental_uris": {"ios": "https://dc.lft.to/lastmile_qr_scan", "android": "https://dc.lft.to/lastmile_qr_scan"}, "lon": -77.01359966666666, "fusion_lon": 0.0, "is_disabled": 0, "lat": 38.864213, "bike_id": "1dc372487ebbbb26df0f26042d0b5a09", "name": "1dc372487ebbbb26df0f26042d0b5a09", "is_reserved": 0, "fusion_lat": 0.0}, {"type": "electric_scooter", "rental_uris": {"ios": "https://dc.lft.to/lastmile_qr_scan", "android": "https://dc.lft.to/lastmile_qr_scan"}, "lon": -77.00614466666667, "fusion_lon": 0.0, "is_disabled": 0, "lat": 38.87181566666667, "bike_id": "861a27a9f22eb3840b66f4dc28f2b56b", "name": "861a27a9f22eb3840b66f4dc28f2b56b", "is_reserved": 0, "fusion_lat": 0.0}, {"type": "electric_scooter", "rental_uris": {"ios": "https://dc.lft.to/lastmile_qr_scan", "android": "https://dc.lft.to/lastmile_qr_scan"}, "lon": -77.04158433333333, "fusion_lon": 0.0, "is_disabled": 0, "lat": 38.91606316666667, "bike_id": "77f80b2f281919c3ab57ee35d4cb7d12", "name": "77f80b2f281919c3ab57ee35d4cb7d12", "is_reserved": 0, "fusion_lat": 0.0}, {"type": "electric_scooter", "rental_uris": {"ios": "https://dc.lft.to/lastmile_qr_scan", "android": "https://dc.lft.to/lastmile_qr_scan"}, "lon": -77.03596016666667, "fusion_lon": 0.0, "is_disabled": 0, "lat": 38.93749066666667, "bike_id": "986c5f21c9688098f36d2ec0a7bce048", "name": "986c5f21c9688098f36d2ec0a7bce048", "is_reserved": 0, "fusion_lat": 0.0}, {"type": "electric_scooter", "rental_uris": {"ios": "https://dc.lft.to/lastmile_qr_scan", "android": "https://dc.lft.to/lastmile_qr_scan"}, "lon": -77.02157, "fusion_lon": 0.0, "is_disabled": 0, "lat": 38.93970016666667, "bike_id": "74cc739fe5f3c2b96ed95f5eab2dc44d", "name": "74cc739fe5f3c2b96ed95f5eab2dc44d", "is_reserved": 0, "fusion_lat": 0.0}, {"type": "electric_scooter", "rental_uris": {"ios": "https://dc.lft.to/lastmile_qr_scan", "android": "https://dc.lft.to/lastmile_qr_scan"}, "lon": -77.02185, "fusion_lon": 0.0, "is_disabled": 0, "lat": 38.89875983333334, "bike_id": "e3cfd9dd40d95f7d45f2fa38f0c049cd", "name": "e3cfd9dd40d95f7d45f2fa38f0c049cd", "is_reserved": 0, "fusion_lat": 0.0}, {"type": "electric_scooter", "rental_uris": {"ios": "https://dc.lft.to/lastmile_qr_scan", "android": "https://dc.lft.to/lastmile_qr_scan"}, "lon": -77.02891216666667, "fusion_lon": 0.0, "is_disabled": 0, "lat": 38.907297166666666, "bike_id": "05c56bbc57144bacbfead242d7d37384", "name": "05c56bbc57144bacbfead242d7d37384", "is_reserved": 0, "fusion_lat": 0.0}, {"type": "electric_scooter", "rental_uris": {"ios": "https://dc.lft.to/lastmile_qr_scan", "android": "https://dc.lft.to/lastmile_qr_scan"}, "lon": -77.02098233333334, "fusion_lon": 0.0, "is_disabled": 0, "lat": 38.91078, "bike_id": "bcf905e67b9b64f8ac21195dc287e796", "name": "bcf905e67b9b64f8ac21195dc287e796", "is_reserved": 0, "fusion_lat": 0.0}, {"type": "electric_scooter", "rental_uris": {"ios": "https://dc.lft.to/lastmile_qr_scan", "android": "https://dc.lft.to/lastmile_qr_scan"}, "lon": -77.028587, "fusion_lon": 0.0, "is_disabled": 0, "lat": 38.92577083333333, "bike_id": "dce2ee2b760bb69908be83e8976eb49b", "name": "dce2ee2b760bb69908be83e8976eb49b", "is_reserved": 0, "fusion_lat": 0.0}, {"type": "electric_scooter", "rental_uris": {"ios": "https://dc.lft.to/lastmile_qr_scan", "android": "https://dc.lft.to/lastmile_qr_scan"}, "lon": -77.03222416666667, "fusion_lon": 0.0, "is_disabled": 0, "lat": 38.89219683333334, "bike_id": "b383c7a55c31264cdb4540bee2828439", "name": "b383c7a55c31264cdb4540bee2828439", "is_reserved": 0, "fusion_lat": 0.0}, {"type": "electric_scooter", "rental_uris": {"ios": "https://dc.lft.to/lastmile_qr_scan", "android": "https://dc.lft.to/lastmile_qr_scan"}, "lon": -77.0469175, "fusion_lon": 0.0, "is_disabled": 0, "lat": 38.89732016666667, "bike_id": "e694acef828d71f46c8d574448240d35", "name": "e694acef828d71f46c8d574448240d35", "is_reserved": 0, "fusion_lat": 0.0}, {"type": "electric_scooter", "rental_uris": {"ios": "https://dc.lft.to/lastmile_qr_scan", "android": "https://dc.lft.to/lastmile_qr_scan"}, "lon": -77.00308733333334, "fusion_lon": 0.0, "is_disabled": 0, "lat": 38.9247285, "bike_id": "66a34dc3f108ca8ea2135a59bb886e6d", "name": "66a34dc3f108ca8ea2135a59bb886e6d", "is_reserved": 0, "fusion_lat": 0.0}, {"type": "electric_scooter", "rental_uris": {"ios": "https://dc.lft.to/lastmile_qr_scan", "android": "https://dc.lft.to/lastmile_qr_scan"}, "lon": -76.95338316666667, "fusion_lon": 0.0, "is_disabled": 0, "lat": 38.89236266666666, "bike_id": "8e3a5f1e11f343b81e515096a5bc1d2c", "name": "8e3a5f1e11f343b81e515096a5bc1d2c", "is_reserved": 0, "fusion_lat": 0.0}, {"type": "electric_scooter", "rental_uris": {"ios": "https://dc.lft.to/lastmile_qr_scan", "android": "https://dc.lft.to/lastmile_qr_scan"}, "lon": -76.986098, "fusion_lon": 0.0, "is_disabled": 0, "lat": 38.88001883333333, "bike_id": "ee5d3e79b3d7fd9132cc09b571d5f2f4", "name": "ee5d3e79b3d7fd9132cc09b571d5f2f4", "is_reserved": 0, "fusion_lat": 0.0}, {"type": "electric_scooter", "rental_uris": {"ios": "https://dc.lft.to/lastmile_qr_scan", "android": "https://dc.lft.to/lastmile_qr_scan"}, "lon": -77.04178016666667, "fusion_lon": 0.0, "is_disabled": 0, "lat": 38.917344166666666, "bike_id": "16933760bbda90a1e72b9a5b23386384", "name": "16933760bbda90a1e72b9a5b23386384", "is_reserved": 0, "fusion_lat": 0.0}, {"type": "electric_scooter", "rental_uris": {"ios": "https://dc.lft.to/lastmile_qr_scan", "android": "https://dc.lft.to/lastmile_qr_scan"}, "lon": -77.03645133333333, "fusion_lon": 0.0, "is_disabled": 0, "lat": 38.923511, "bike_id": "4220ca569a69ad588976e48d881e9294", "name": "4220ca569a69ad588976e48d881e9294", "is_reserved": 0, "fusion_lat": 0.0}, {"type": "electric_scooter", "rental_uris": {"ios": "https://dc.lft.to/lastmile_qr_scan", "android": "https://dc.lft.to/lastmile_qr_scan"}, "lon": -77.02796616666667, "fusion_lon": 0.0, "is_disabled": 0, "lat": 38.95403183333333, "bike_id": "af53158a270a4e63f67fc7b7520d4881", "name": "af53158a270a4e63f67fc7b7520d4881", "is_reserved": 0, "fusion_lat": 0.0}, {"type": "electric_scooter", "rental_uris": {"ios": "https://dc.lft.to/lastmile_qr_scan", "android": "https://dc.lft.to/lastmile_qr_scan"}, "lon": -77.02752116666667, "fusion_lon": 0.0, "is_disabled": 0, "lat": 38.957805, "bike_id": "6f7e6e6091916a2e8e91fa11ced87b49", "name": "6f7e6e6091916a2e8e91fa11ced87b49", "is_reserved": 0, "fusion_lat": 0.0}, {"type": "electric_scooter", "rental_uris": {"ios": "https://dc.lft.to/lastmile_qr_scan", "android": "https://dc.lft.to/lastmile_qr_scan"}, "lon": -77.04148083333334, "fusion_lon": 0.0, "is_disabled": 0, "lat": 38.905092833333335, "bike_id": "265e4df1c5a01dd3db90c6fe4bf4edc0", "name": "265e4df1c5a01dd3db90c6fe4bf4edc0", "is_reserved": 0, "fusion_lat": 0.0}, {"type": "electric_scooter", "rental_uris": {"ios": "https://dc.lft.to/lastmile_qr_scan", "android": "https://dc.lft.to/lastmile_qr_scan"}, "lon": -77.04151183333333, "fusion_lon": 0.0, "is_disabled": 0, "lat": 38.8922375, "bike_id": "d5af63b68fc719635b3946579e254b7e", "name": "d5af63b68fc719635b3946579e254b7e", "is_reserved": 0, "fusion_lat": 0.0}, {"type": "electric_scooter", "rental_uris": {"ios": "https://dc.lft.to/lastmile_qr_scan", "android": "https://dc.lft.to/lastmile_qr_scan"}, "lon": -77.041759, "fusion_lon": 0.0, "is_disabled": 0, "lat": 38.920074166666666, "bike_id": "15249406f9f72691012375054359034b", "name": "15249406f9f72691012375054359034b", "is_reserved": 0, "fusion_lat": 0.0}, {"type": "electric_scooter", "rental_uris": {"ios": "https://dc.lft.to/lastmile_qr_scan", "android": "https://dc.lft.to/lastmile_qr_scan"}, "lon": -77.0010535, "fusion_lon": 0.0, "is_disabled": 0, "lat": 38.907536, "bike_id": "64526b0fac5a7adc8eebeb1ddf10a5fe", "name": "64526b0fac5a7adc8eebeb1ddf10a5fe", "is_reserved": 0, "fusion_lat": 0.0}, {"type": "electric_scooter", "rental_uris": {"ios": "https://dc.lft.to/lastmile_qr_scan", "android": "https://dc.lft.to/lastmile_qr_scan"}, "lon": -77.03103633333333, "fusion_lon": 0.0, "is_disabled": 0, "lat": 38.9285945, "bike_id": "caddfc2556cc1af1f6ccf46b39240eca", "name": "caddfc2556cc1af1f6ccf46b39240eca", "is_reserved": 0, "fusion_lat": 0.0}, {"type": "electric_scooter", "rental_uris": {"ios": "https://dc.lft.to/lastmile_qr_scan", "android": "https://dc.lft.to/lastmile_qr_scan"}, "lon": -77.0272105, "fusion_lon": 0.0, "is_disabled": 0, "lat": 38.917152333333334, "bike_id": "6a399002a52e7d591a4efd335ee39e21", "name": "6a399002a52e7d591a4efd335ee39e21", "is_reserved": 0, "fusion_lat": 0.0}, {"type": "electric_scooter", "rental_uris": {"ios": "https://dc.lft.to/lastmile_qr_scan", "android": "https://dc.lft.to/lastmile_qr_scan"}, "lon": -77.035762, "fusion_lon": 0.0, "is_disabled": 0, "lat": 38.91870133333333, "bike_id": "d35d65ee6c1597148f1dd4200eeb966e", "name": "d35d65ee6c1597148f1dd4200eeb966e", "is_reserved": 0, "fusion_lat": 0.0}, {"type": "electric_scooter", "rental_uris": {"ios": "https://dc.lft.to/lastmile_qr_scan", "android": "https://dc.lft.to/lastmile_qr_scan"}, "lon": -77.04064466666667, "fusion_lon": 0.0, "is_disabled": 0, "lat": 38.9127445, "bike_id": "6733d8bad9f0156fee0ea284d92a3297", "name": "6733d8bad9f0156fee0ea284d92a3297", "is_reserved": 0, "fusion_lat": 0.0}, {"type": "electric_scooter", "rental_uris": {"ios": "https://dc.lft.to/lastmile_qr_scan", "android": "https://dc.lft.to/lastmile_qr_scan"}, "lon": -76.93174516666667, "fusion_lon": 0.0, "is_disabled": 0, "lat": 38.8988215, "bike_id": "44dbced750f8f56d582b9661cecbbbb1", "name": "44dbced750f8f56d582b9661cecbbbb1", "is_reserved": 0, "fusion_lat": 0.0}, {"type": "electric_scooter", "rental_uris": {"ios": "https://dc.lft.to/lastmile_qr_scan", "android": "https://dc.lft.to/lastmile_qr_scan"}, "lon": -76.998805, "fusion_lon": 0.0, "is_disabled": 0, "lat": 38.90751983333333, "bike_id": "768a84bef94f73c7798c036ad3bf5f75", "name": "768a84bef94f73c7798c036ad3bf5f75", "is_reserved": 0, "fusion_lat": 0.0}, {"type": "electric_scooter", "rental_uris": {"ios": "https://dc.lft.to/lastmile_qr_scan", "android": "https://dc.lft.to/lastmile_qr_scan"}, "lon": -77.02171916666667, "fusion_lon": 0.0, "is_disabled": 0, "lat": 38.897282, "bike_id": "0b3056edde0b0acce17c34ffdc656c16", "name": "0b3056edde0b0acce17c34ffdc656c16", "is_reserved": 0, "fusion_lat": 0.0}, {"type": "electric_scooter", "rental_uris": {"ios": "https://dc.lft.to/lastmile_qr_scan", "android": "https://dc.lft.to/lastmile_qr_scan"}, "lon": -76.98539283333334, "fusion_lon": 0.0, "is_disabled": 0, "lat": 38.866772833333336, "bike_id": "5e41053795fc25d54a399764a38c819d", "name": "5e41053795fc25d54a399764a38c819d", "is_reserved": 0, "fusion_lat": 0.0}, {"type": "electric_scooter", "rental_uris": {"ios": "https://dc.lft.to/lastmile_qr_scan", "android": "https://dc.lft.to/lastmile_qr_scan"}, "lon": -77.050067, "fusion_lon": 0.0, "is_disabled": 0, "lat": 38.892283166666665, "bike_id": "a11f3d458dd5420a86d01fa07f3904e8", "name": "a11f3d458dd5420a86d01fa07f3904e8", "is_reserved": 0, "fusion_lat": 0.0}, {"type": "electric_bike", "rental_uris": {"ios": "https://dc.lft.to/lastmile_qr_scan", "android": "https://dc.lft.to/lastmile_qr_scan"}, "lon": -76.99783066666667, "fusion_lon": 0.0, "is_disabled": 0, "lat": 38.862118833333334, "bike_id": "d13a9d5c1ff7bf1eef492b1dfe93e66a", "name": "d13a9d5c1ff7bf1eef492b1dfe93e66a", "is_reserved": 0, "fusion_lat": 0.0}, {"type": "electric_scooter", "rental_uris": {"ios": "https://dc.lft.to/lastmile_qr_scan", "android": "https://dc.lft.to/lastmile_qr_scan"}, "lon": -77.02880083333334, "fusion_lon": 0.0, "is_disabled": 0, "lat": 38.92818316666666, "bike_id": "676302ca73fba4ff03ebda3b2781aa86", "name": "676302ca73fba4ff03ebda3b2781aa86", "is_reserved": 0, "fusion_lat": 0.0}, {"type": "electric_bike", "rental_uris": {"ios": "https://dc.lft.to/lastmile_qr_scan", "android": "https://dc.lft.to/lastmile_qr_scan"}, "lon": -77.00663283333333, "fusion_lon": 0.0, "is_disabled": 0, "lat": 38.9083335, "bike_id": "ca711f52d8381e33127630b0584ffdab", "name": "ca711f52d8381e33127630b0584ffdab", "is_reserved": 0, "fusion_lat": 0.0}, {"type": "electric_scooter", "rental_uris": {"ios": "https://dc.lft.to/lastmile_qr_scan", "android": "https://dc.lft.to/lastmile_qr_scan"}, "lon": -76.97927916666667, "fusion_lon": 0.0, "is_disabled": 0, "lat": 38.9050165, "bike_id": "8ec3d19e0963ce3422ce393dcd81448f", "name": "8ec3d19e0963ce3422ce393dcd81448f", "is_reserved": 0, "fusion_lat": 0.0}, {"type": "electric_scooter", "rental_uris": {"ios": "https://dc.lft.to/lastmile_qr_scan", "android": "https://dc.lft.to/lastmile_qr_scan"}, "lon": -77.03179816666666, "fusion_lon": 0.0, "is_disabled": 0, "lat": 38.918675666666665, "bike_id": "583cec7065c83da09a81445c3614bbdc", "name": "583cec7065c83da09a81445c3614bbdc", "is_reserved": 0, "fusion_lat": 0.0}, {"type": "electric_scooter", "rental_uris": {"ios": "https://dc.lft.to/lastmile_qr_scan", "android": "https://dc.lft.to/lastmile_qr_scan"}, "lon": -77.032205, "fusion_lon": 0.0, "is_disabled": 0, "lat": 38.892208, "bike_id": "e77c3f20734e2374797322fd565f8dba", "name": "e77c3f20734e2374797322fd565f8dba", "is_reserved": 0, "fusion_lat": 0.0}, {"type": "electric_scooter", "rental_uris": {"ios": "https://dc.lft.to/lastmile_qr_scan", "android": "https://dc.lft.to/lastmile_qr_scan"}, "lon": -77.03181583333334, "fusion_lon": 0.0, "is_disabled": 0, "lat": 38.921225666666665, "bike_id": "c3b3ad24ef4acefa2f2671da30660bdc", "name": "c3b3ad24ef4acefa2f2671da30660bdc", "is_reserved": 0, "fusion_lat": 0.0}, {"type": "electric_scooter", "rental_uris": {"ios": "https://dc.lft.to/lastmile_qr_scan", "android": "https://dc.lft.to/lastmile_qr_scan"}, "lon": -77.038303, "fusion_lon": 0.0, "is_disabled": 0, "lat": 38.91122883333333, "bike_id": "b8fcbf6ee00211e8da8118ed02d1d1c5", "name": "b8fcbf6ee00211e8da8118ed02d1d1c5", "is_reserved": 0, "fusion_lat": 0.0}, {"type": "electric_scooter", "rental_uris": {"ios": "https://dc.lft.to/lastmile_qr_scan", "android": "https://dc.lft.to/lastmile_qr_scan"}, "lon": -77.03221483333333, "fusion_lon": 0.0, "is_disabled": 0, "lat": 38.892209333333334, "bike_id": "23a3e7872e64a961b9aa63aa27fd2525", "name": "23a3e7872e64a961b9aa63aa27fd2525", "is_reserved": 0, "fusion_lat": 0.0}, {"type": "electric_scooter", "rental_uris": {"ios": "https://dc.lft.to/lastmile_qr_scan", "android": "https://dc.lft.to/lastmile_qr_scan"}, "lon": -77.044795, "fusion_lon": 0.0, "is_disabled": 0, "lat": 38.9079115, "bike_id": "22554750cf6c2d4d1441b89e8c1f2f6d", "name": "22554750cf6c2d4d1441b89e8c1f2f6d", "is_reserved": 0, "fusion_lat": 0.0}, {"type": "electric_scooter", "rental_uris": {"ios": "https://dc.lft.to/lastmile_qr_scan", "android": "https://dc.lft.to/lastmile_qr_scan"}, "lon": -77.0341445, "fusion_lon": 0.0, "is_disabled": 0, "lat": 38.927384333333336, "bike_id": "0159786275ba902e6bad211a6de6638e", "name": "0159786275ba902e6bad211a6de6638e", "is_reserved": 0, "fusion_lat": 0.0}, {"type": "electric_scooter", "rental_uris": {"ios": "https://dc.lft.to/lastmile_qr_scan", "android": "https://dc.lft.to/lastmile_qr_scan"}, "lon": -77.03164516666666, "fusion_lon": 0.0, "is_disabled": 0, "lat": 38.892263666666665, "bike_id": "08e4ec6286b04a79535b5cf6feb17605", "name": "08e4ec6286b04a79535b5cf6feb17605", "is_reserved": 0, "fusion_lat": 0.0}, {"type": "electric_scooter", "rental_uris": {"ios": "https://dc.lft.to/lastmile_qr_scan", "android": "https://dc.lft.to/lastmile_qr_scan"}, "lon": -76.993648, "fusion_lon": 0.0, "is_disabled": 0, "lat": 38.92839816666667, "bike_id": "9ba3201e027b033d2b7241fe95cb45bf", "name": "9ba3201e027b033d2b7241fe95cb45bf", "is_reserved": 0, "fusion_lat": 0.0}, {"type": "electric_scooter", "rental_uris": {"ios": "https://dc.lft.to/lastmile_qr_scan", "android": "https://dc.lft.to/lastmile_qr_scan"}, "lon": -77.04273483333333, "fusion_lon": 0.0, "is_disabled": 0, "lat": 38.9134175, "bike_id": "8cdc4ee1c1955b11537ee6760e3f4b5b", "name": "8cdc4ee1c1955b11537ee6760e3f4b5b", "is_reserved": 0, "fusion_lat": 0.0}, {"type": "electric_scooter", "rental_uris": {"ios": "https://dc.lft.to/lastmile_qr_scan", "android": "https://dc.lft.to/lastmile_qr_scan"}, "lon": -77.04669716666666, "fusion_lon": 0.0, "is_disabled": 0, "lat": 38.90941733333333, "bike_id": "0a6743e00a820d88ef47cbf072a69530", "name": "0a6743e00a820d88ef47cbf072a69530", "is_reserved": 0, "fusion_lat": 0.0}, {"type": "electric_scooter", "rental_uris": {"ios": "https://dc.lft.to/lastmile_qr_scan", "android": "https://dc.lft.to/lastmile_qr_scan"}, "lon": -77.03242616666667, "fusion_lon": 0.0, "is_disabled": 0, "lat": 38.898824833333336, "bike_id": "1afa44ac8b26410c3d99c9e977eafc9f", "name": "1afa44ac8b26410c3d99c9e977eafc9f", "is_reserved": 0, "fusion_lat": 0.0}, {"type": "electric_bike", "rental_uris": {"ios": "https://dc.lft.to/lastmile_qr_scan", "android": "https://dc.lft.to/lastmile_qr_scan"}, "lon": -77.04019183333334, "fusion_lon": 0.0, "is_disabled": 0, "lat": 38.79327133333334, "bike_id": "5089d86963c95ff53ca15b329349018f", "name": "5089d86963c95ff53ca15b329349018f", "is_reserved": 0, "fusion_lat": 0.0}, {"type": "electric_scooter", "rental_uris": {"ios": "https://dc.lft.to/lastmile_qr_scan", "android": "https://dc.lft.to/lastmile_qr_scan"}, "lon": -77.0317845, "fusion_lon": 0.0, "is_disabled": 0, "lat": 38.91324933333333, "bike_id": "69259fcceb1872d2b6e9a8d79e67b49e", "name": "69259fcceb1872d2b6e9a8d79e67b49e", "is_reserved": 0, "fusion_lat": 0.0}, {"type": "electric_scooter", "rental_uris": {"ios": "https://dc.lft.to/lastmile_qr_scan", "android": "https://dc.lft.to/lastmile_qr_scan"}, "lon": -77.02839983333334, "fusion_lon": 0.0, "is_disabled": 0, "lat": 38.93194316666667, "bike_id": "0bf10b3adf62cdc7ffe9dbed88d6d556", "name": "0bf10b3adf62cdc7ffe9dbed88d6d556", "is_reserved": 0, "fusion_lat": 0.0}, {"type": "electric_bike", "rental_uris": {"ios": "https://dc.lft.to/lastmile_qr_scan", "android": "https://dc.lft.to/lastmile_qr_scan"}, "lon": -77.11805933333333, "fusion_lon": 0.0, "is_disabled": 0, "lat": 38.873710333333335, "bike_id": "8bb377039a92c75cd8ccb987ee6845b1", "name": "8bb377039a92c75cd8ccb987ee6845b1", "is_reserved": 0, "fusion_lat": 0.0}, {"type": "electric_scooter", "rental_uris": {"ios": "https://dc.lft.to/lastmile_qr_scan", "android": "https://dc.lft.to/lastmile_qr_scan"}, "lon": -77.0319295, "fusion_lon": 0.0, "is_disabled": 0, "lat": 38.91776766666667, "bike_id": "da5628074c16ed46beedbce0b62ff60b", "name": "da5628074c16ed46beedbce0b62ff60b", "is_reserved": 0, "fusion_lat": 0.0}, {"type": "electric_scooter", "rental_uris": {"ios": "https://dc.lft.to/lastmile_qr_scan", "android": "https://dc.lft.to/lastmile_qr_scan"}, "lon": -77.034728, "fusion_lon": 0.0, "is_disabled": 0, "lat": 38.92915133333333, "bike_id": "56a6677d4471413784f86fb69e9269d9", "name": "56a6677d4471413784f86fb69e9269d9", "is_reserved": 0, "fusion_lat": 0.0}, {"type": "electric_scooter", "rental_uris": {"ios": "https://dc.lft.to/lastmile_qr_scan", "android": "https://dc.lft.to/lastmile_qr_scan"}, "lon": -77.00937616666667, "fusion_lon": 0.0, "is_disabled": 0, "lat": 38.883348166666664, "bike_id": "b666524db5d59423235ca387d7db0099", "name": "b666524db5d59423235ca387d7db0099", "is_reserved": 0, "fusion_lat": 0.0}, {"type": "electric_scooter", "rental_uris": {"ios": "https://dc.lft.to/lastmile_qr_scan", "android": "https://dc.lft.to/lastmile_qr_scan"}, "lon": -77.0269755, "fusion_lon": 0.0, "is_disabled": 0, "lat": 38.906866666666666, "bike_id": "6cf802b6419a96fdba23d6e6bd2374c1", "name": "6cf802b6419a96fdba23d6e6bd2374c1", "is_reserved": 0, "fusion_lat": 0.0}, {"type": "electric_scooter", "rental_uris": {"ios": "https://dc.lft.to/lastmile_qr_scan", "android": "https://dc.lft.to/lastmile_qr_scan"}, "lon": -77.0318545, "fusion_lon": 0.0, "is_disabled": 0, "lat": 38.914288166666665, "bike_id": "4fa98cc12e742ab2268978fe06d26033", "name": "4fa98cc12e742ab2268978fe06d26033", "is_reserved": 0, "fusion_lat": 0.0}, {"type": "electric_bike", "rental_uris": {"ios": "https://dc.lft.to/lastmile_qr_scan", "android": "https://dc.lft.to/lastmile_qr_scan"}, "lon": -77.03694633333333, "fusion_lon": 0.0, "is_disabled": 0, "lat": 38.93022533333333, "bike_id": "575acc21681c249303f336249d879f65", "name": "575acc21681c249303f336249d879f65", "is_reserved": 0, "fusion_lat": 0.0}, {"type": "electric_scooter", "rental_uris": {"ios": "https://dc.lft.to/lastmile_qr_scan", "android": "https://dc.lft.to/lastmile_qr_scan"}, "lon": -77.026251, "fusion_lon": 0.0, "is_disabled": 0, "lat": 38.89221716666667, "bike_id": "9a1980f07fd212d1e3fa2a256df7393f", "name": "9a1980f07fd212d1e3fa2a256df7393f", "is_reserved": 0, "fusion_lat": 0.0}, {"type": "electric_scooter", "rental_uris": {"ios": "https://dc.lft.to/lastmile_qr_scan", "android": "https://dc.lft.to/lastmile_qr_scan"}, "lon": -77.02105583333334, "fusion_lon": 0.0, "is_disabled": 0, "lat": 38.94100366666667, "bike_id": "1e4cb1601dcaed0487011dbe12e5cbe9", "name": "1e4cb1601dcaed0487011dbe12e5cbe9", "is_reserved": 0, "fusion_lat": 0.0}, {"type": "electric_scooter", "rental_uris": {"ios": "https://dc.lft.to/lastmile_qr_scan", "android": "https://dc.lft.to/lastmile_qr_scan"}, "lon": -76.99516916666667, "fusion_lon": 0.0, "is_disabled": 0, "lat": 38.89730216666667, "bike_id": "0b00d660607af01048ce22c627614600", "name": "0b00d660607af01048ce22c627614600", "is_reserved": 0, "fusion_lat": 0.0}, {"type": "electric_bike", "rental_uris": {"ios": "https://dc.lft.to/lastmile_qr_scan", "android": "https://dc.lft.to/lastmile_qr_scan"}, "lon": -76.9724045, "fusion_lon": 0.0, "is_disabled": 0, "lat": 38.949064666666665, "bike_id": "70d70e041b68ccbb5b5d3e9bbcfa3a81", "name": "70d70e041b68ccbb5b5d3e9bbcfa3a81", "is_reserved": 0, "fusion_lat": 0.0}, {"type": "electric_bike", "rental_uris": {"ios": "https://dc.lft.to/lastmile_qr_scan", "android": "https://dc.lft.to/lastmile_qr_scan"}, "lon": -76.97585433333333, "fusion_lon": 0.0, "is_disabled": 0, "lat": 38.84028283333333, "bike_id": "bf61a06c33e92612cf84a6d49a0ad60a", "name": "bf61a06c33e92612cf84a6d49a0ad60a", "is_reserved": 0, "fusion_lat": 0.0}, {"type": "electric_scooter", "rental_uris": {"ios": "https://dc.lft.to/lastmile_qr_scan", "android": "https://dc.lft.to/lastmile_qr_scan"}, "lon": -77.0325575, "fusion_lon": 0.0, "is_disabled": 0, "lat": 38.904590166666665, "bike_id": "a1e64bc7b2bfdc35750d1da7d50e1d96", "name": "a1e64bc7b2bfdc35750d1da7d50e1d96", "is_reserved": 0, "fusion_lat": 0.0}, {"type": "electric_bike", "rental_uris": {"ios": "https://dc.lft.to/lastmile_qr_scan", "android": "https://dc.lft.to/lastmile_qr_scan"}, "lon": -76.99565933333334, "fusion_lon": 0.0, "is_disabled": 0, "lat": 38.88484183333333, "bike_id": "31024859fbd4bcb7c583f43c15b1e7f3", "name": "31024859fbd4bcb7c583f43c15b1e7f3", "is_reserved": 0, "fusion_lat": 0.0}, {"type": "electric_scooter", "rental_uris": {"ios": "https://dc.lft.to/lastmile_qr_scan", "android": "https://dc.lft.to/lastmile_qr_scan"}, "lon": -76.9896285, "fusion_lon": 0.0, "is_disabled": 0, "lat": 38.9094385, "bike_id": "65a2121ace352d4cf99688319959c1a6", "name": "65a2121ace352d4cf99688319959c1a6", "is_reserved": 0, "fusion_lat": 0.0}, {"type": "electric_scooter", "rental_uris": {"ios": "https://dc.lft.to/lastmile_qr_scan", "android": "https://dc.lft.to/lastmile_qr_scan"}, "lon": -77.0114275, "fusion_lon": 0.0, "is_disabled": 0, "lat": 38.90643933333333, "bike_id": "c4433708307c09e449c4b097837d660d", "name": "c4433708307c09e449c4b097837d660d", "is_reserved": 0, "fusion_lat": 0.0}, {"type": "electric_scooter", "rental_uris": {"ios": "https://dc.lft.to/lastmile_qr_scan", "android": "https://dc.lft.to/lastmile_qr_scan"}, "lon": -77.072981, "fusion_lon": 0.0, "is_disabled": 0, "lat": 38.93529816666667, "bike_id": "6de900e9c176e24e5b872c2cdd6a877b", "name": "6de900e9c176e24e5b872c2cdd6a877b", "is_reserved": 0, "fusion_lat": 0.0}, {"type": "electric_scooter", "rental_uris": {"ios": "https://dc.lft.to/lastmile_qr_scan", "android": "https://dc.lft.to/lastmile_qr_scan"}, "lon": -77.02718183333333, "fusion_lon": 0.0, "is_disabled": 0, "lat": 38.900723166666666, "bike_id": "e285036a73d3cbec501f62ef3ff4fbd6", "name": "e285036a73d3cbec501f62ef3ff4fbd6", "is_reserved": 0, "fusion_lat": 0.0}, {"type": "electric_scooter", "rental_uris": {"ios": "https://dc.lft.to/lastmile_qr_scan", "android": "https://dc.lft.to/lastmile_qr_scan"}, "lon": -76.93761483333333, "fusion_lon": 0.0, "is_disabled": 0, "lat": 38.89043, "bike_id": "9fab9e0b36c07a8e9b062388aefe56aa", "name": "9fab9e0b36c07a8e9b062388aefe56aa", "is_reserved": 0, "fusion_lat": 0.0}, {"type": "electric_scooter", "rental_uris": {"ios": "https://dc.lft.to/lastmile_qr_scan", "android": "https://dc.lft.to/lastmile_qr_scan"}, "lon": -77.01120383333334, "fusion_lon": 0.0, "is_disabled": 0, "lat": 38.90356283333333, "bike_id": "d9324945fd5349d178d5570a0386429c", "name": "d9324945fd5349d178d5570a0386429c", "is_reserved": 0, "fusion_lat": 0.0}, {"type": "electric_scooter", "rental_uris": {"ios": "https://dc.lft.to/lastmile_qr_scan", "android": "https://dc.lft.to/lastmile_qr_scan"}, "lon": -77.0344775, "fusion_lon": 0.0, "is_disabled": 0, "lat": 38.907373, "bike_id": "ecf02cfbab21f86de929108e0b22b6e7", "name": "ecf02cfbab21f86de929108e0b22b6e7", "is_reserved": 0, "fusion_lat": 0.0}, {"type": "electric_scooter", "rental_uris": {"ios": "https://dc.lft.to/lastmile_qr_scan", "android": "https://dc.lft.to/lastmile_qr_scan"}, "lon": -77.025624, "fusion_lon": 0.0, "is_disabled": 0, "lat": 38.9237925, "bike_id": "7bf1eb61b8e1ee026ed6f6b5d21548fa", "name": "7bf1eb61b8e1ee026ed6f6b5d21548fa", "is_reserved": 0, "fusion_lat": 0.0}, {"type": "electric_scooter", "rental_uris": {"ios": "https://dc.lft.to/lastmile_qr_scan", "android": "https://dc.lft.to/lastmile_qr_scan"}, "lon": -76.98358166666667, "fusion_lon": 0.0, "is_disabled": 0, "lat": 38.88745266666667, "bike_id": "c31e4d9018984d8e4862fac57c94dda8", "name": "c31e4d9018984d8e4862fac57c94dda8", "is_reserved": 0, "fusion_lat": 0.0}, {"type": "electric_scooter", "rental_uris": {"ios": "https://dc.lft.to/lastmile_qr_scan", "android": "https://dc.lft.to/lastmile_qr_scan"}, "lon": -77.05826083333334, "fusion_lon": 0.0, "is_disabled": 0, "lat": 38.902911833333334, "bike_id": "319251ca3225b48302ebc27817349765", "name": "319251ca3225b48302ebc27817349765", "is_reserved": 0, "fusion_lat": 0.0}, {"type": "electric_scooter", "rental_uris": {"ios": "https://dc.lft.to/lastmile_qr_scan", "android": "https://dc.lft.to/lastmile_qr_scan"}, "lon": -77.04029683333333, "fusion_lon": 0.0, "is_disabled": 0, "lat": 38.924426, "bike_id": "55d6926fece96962a06b6cee49cf3856", "name": "55d6926fece96962a06b6cee49cf3856", "is_reserved": 0, "fusion_lat": 0.0}, {"type": "electric_scooter", "rental_uris": {"ios": "https://dc.lft.to/lastmile_qr_scan", "android": "https://dc.lft.to/lastmile_qr_scan"},