{"data": {"bikes": [{"rental_uris": {"ios": "https://dc.lft.to/lastmile_qr_scan", "android": "https://dc.lft.to/lastmile_qr_scan"}, "type": "electric_bike", "name": "f426db65c128a4d167a43d109359ffd5", "is_reserved": 0, "lon": -77.00385016666667, "is_disabled": 0, "fusion_lat": 0.0, "lat": 38.83606283333334, "bike_id": "f426db65c128a4d167a43d109359ffd5", "fusion_lon": 0.0}, {"rental_uris": {"ios": "https://dc.lft.to/lastmile_qr_scan", "android": "https://dc.lft.to/lastmile_qr_scan"}, "type": "electric_scooter", "name": "0f113cfd150e17c3891e6437dcf3c883", "is_reserved": 0, "lon": -77.046501, "is_disabled": 0, "fusion_lat": 0.0, "lat": 38.919730333333334, "bike_id": "0f113cfd150e17c3891e6437dcf3c883", "fusion_lon": 0.0}, {"rental_uris": {"ios": "https://dc.lft.to/lastmile_qr_scan", "android": "https://dc.lft.to/lastmile_qr_scan"}, "type": "electric_scooter", "name": "fe08232572ed1769e5db6e25fe032fea", "is_reserved": 0, "lon": -77.0193175, "is_disabled": 0, "fusion_lat": 0.0, "lat": 38.92877983333333, "bike_id": "fe08232572ed1769e5db6e25fe032fea", "fusion_lon": 0.0}, {"rental_uris": {"ios": "https://dc.lft.to/lastmile_qr_scan", "android": "https://dc.lft.to/lastmile_qr_scan"}, "type": "electric_scooter", "name": "fdd8ea1d8432c25694e4bbb509caea67", "is_reserved": 0, "lon": -77.0175545, "is_disabled": 0, "fusion_lat": 0.0, "lat": 38.92103916666667, "bike_id": "fdd8ea1d8432c25694e4bbb509caea67", "fusion_lon": 0.0}, {"rental_uris": {"ios": "https://dc.lft.to/lastmile_qr_scan", "android": "https://dc.lft.to/lastmile_qr_scan"}, "type": "electric_scooter", "name": "436c68d6ccd240634c3bbc72a3aee889", "is_reserved": 0, "lon": -77.01220183333334, "is_disabled": 0, "fusion_lat": 0.0, "lat": 38.92036866666667, "bike_id": "436c68d6ccd240634c3bbc72a3aee889", "fusion_lon": 0.0}, {"rental_uris": {"ios": "https://dc.lft.to/lastmile_qr_scan", "android": "https://dc.lft.to/lastmile_qr_scan"}, "type": "electric_scooter", "name": "21a4f2df2d62b2dfdde7a0dd618b3474", "is_reserved": 0, "lon": -77.00922, "is_disabled": 0, "fusion_lat": 0.0, "lat": 38.881755166666665, "bike_id": "21a4f2df2d62b2dfdde7a0dd618b3474", "fusion_lon": 0.0}, {"rental_uris": {"ios": "https://dc.lft.to/lastmile_qr_scan", "android": "https://dc.lft.to/lastmile_qr_scan"}, "type": "electric_scooter", "name": "17c5d95871bc2f4d812bda6143492949", "is_reserved": 0, "lon": -77.025925, "is_disabled": 0, "fusion_lat": 0.0, "lat": 38.919603333333335, "bike_id": "17c5d95871bc2f4d812bda6143492949", "fusion_lon": 0.0}, {"rental_uris": {"ios": "https://dc.lft.to/lastmile_qr_scan", "android": "https://dc.lft.to/lastmile_qr_scan"}, "type": "electric_scooter", "name": "80d3274d91c6ad2c8234e51b3da45185", "is_reserved": 0, "lon": -77.031936, "is_disabled": 0, "fusion_lat": 0.0, "lat": 38.907873, "bike_id": "80d3274d91c6ad2c8234e51b3da45185", "fusion_lon": 0.0}, {"rental_uris": {"ios": "https://dc.lft.to/lastmile_qr_scan", "android": "https://dc.lft.to/lastmile_qr_scan"}, "type": "electric_scooter", "name": "8a86a5f706513aea6643434165073841", "is_reserved": 0, "lon": -77.02712583333333, "is_disabled": 0, "fusion_lat": 0.0, "lat": 38.92400633333333, "bike_id": "8a86a5f706513aea6643434165073841", "fusion_lon": 0.0}, {"rental_uris": {"ios": "https://dc.lft.to/lastmile_qr_scan", "android": "https://dc.lft.to/lastmile_qr_scan"}, "type": "electric_scooter", "name": "9325b7c2b8b9e93e16e201306d4f57e5", "is_reserved": 0, "lon": -77.0475485, "is_disabled": 0, "fusion_lat": 0.0, "lat": 38.9053055, "bike_id": "9325b7c2b8b9e93e16e201306d4f57e5", "fusion_lon": 0.0}, {"rental_uris": {"ios": "https://dc.lft.to/lastmile_qr_scan", "android": "https://dc.lft.to/lastmile_qr_scan"}, "type": "electric_bike", "name": "04647a96807e30a54e8344c8afbcbbcc", "is_reserved": 0, "lon": -76.995535, "is_disabled": 0, "fusion_lat": 0.0, "lat": 38.908144, "bike_id": "04647a96807e30a54e8344c8afbcbbcc", "fusion_lon": 0.0}, {"rental_uris": {"ios": "https://dc.lft.to/lastmile_qr_scan", "android": "https://dc.lft.to/lastmile_qr_scan"}, "type": "electric_bike", "name": "a10f3bf81fd382d8ec7867d76184c061", "is_reserved": 0, "lon": -76.979705, "is_disabled": 0, "fusion_lat": 0.0, "lat": 38.92045866666667, "bike_id": "a10f3bf81fd382d8ec7867d76184c061", "fusion_lon": 0.0}, {"rental_uris": {"ios": "https://dc.lft.to/lastmile_qr_scan", "android": "https://dc.lft.to/lastmile_qr_scan"}, "type": "electric_bike", "name": "b0c892e66f99c55b787f1949b054fe46", "is_reserved": 0, "lon": -76.996975, "is_disabled": 0, "fusion_lat": 0.0, "lat": 38.83862233333333, "bike_id": "b0c892e66f99c55b787f1949b054fe46", "fusion_lon": 0.0}, {"rental_uris": {"ios": "https://dc.lft.to/lastmile_qr_scan", "android": "https://dc.lft.to/lastmile_qr_scan"}, "type": "electric_bike", "name": "67e55790ffb40beee79820657f9e2d33", "is_reserved": 0, "lon": -76.99278033333333, "is_disabled": 0, "fusion_lat": 0.0, "lat": 38.97259016666667, "bike_id": "67e55790ffb40beee79820657f9e2d33", "fusion_lon": 0.0}, {"rental_uris": {"ios": "https://dc.lft.to/lastmile_qr_scan", "android": "https://dc.lft.to/lastmile_qr_scan"}, "type": "electric_scooter", "name": "5b9b235a0a5be048eac62b50b1161f11", "is_reserved": 0, "lon": -77.01848516666666, "is_disabled": 0, "fusion_lat": 0.0, "lat": 38.9007625, "bike_id": "5b9b235a0a5be048eac62b50b1161f11", "fusion_lon": 0.0}, {"rental_uris": {"ios": "https://dc.lft.to/lastmile_qr_scan", "android": "https://dc.lft.to/lastmile_qr_scan"}, "type": "electric_scooter", "name": "08fe44b0c5897869b4ca4701e89830fe", "is_reserved": 0, "lon": -77.04047683333333, "is_disabled": 0, "fusion_lat": 0.0, "lat": 38.904751, "bike_id": "08fe44b0c5897869b4ca4701e89830fe", "fusion_lon": 0.0}, {"rental_uris": {"ios": "https://dc.lft.to/lastmile_qr_scan", "android": "https://dc.lft.to/lastmile_qr_scan"}, "type": "electric_scooter", "name": "ff534e20073dbc5b0c39dfc17727ba33", "is_reserved": 0, "lon": -77.03824033333333, "is_disabled": 0, "fusion_lat": 0.0, "lat": 38.91267, "bike_id": "ff534e20073dbc5b0c39dfc17727ba33", "fusion_lon": 0.0}, {"rental_uris": {"ios": "https://dc.lft.to/lastmile_qr_scan", "android": "https://dc.lft.to/lastmile_qr_scan"}, "type": "electric_scooter", "name": "4bdfb2a81e6d0bb21b2e836681d5ea88", "is_reserved": 0, "lon": -77.01559066666667, "is_disabled": 0, "fusion_lat": 0.0, "lat": 38.902364666666664, "bike_id": "4bdfb2a81e6d0bb21b2e836681d5ea88", "fusion_lon": 0.0}, {"rental_uris": {"ios": "https://dc.lft.to/lastmile_qr_scan", "android": "https://dc.lft.to/lastmile_qr_scan"}, "type": "electric_scooter", "name": "db70e57d30d030046353518017777088", "is_reserved": 0, "lon": -77.04833766666667, "is_disabled": 0, "fusion_lat": 0.0, "lat": 38.8983965, "bike_id": "db70e57d30d030046353518017777088", "fusion_lon": 0.0}, {"rental_uris": {"ios": "https://dc.lft.to/lastmile_qr_scan", "android": "https://dc.lft.to/lastmile_qr_scan"}, "type": "electric_scooter", "name": "b4645c6c4e5b1c43474e3e759673b7a4", "is_reserved": 0, "lon": -77.0260745, "is_disabled": 0, "fusion_lat": 0.0, "lat": 38.89622933333333, "bike_id": "b4645c6c4e5b1c43474e3e759673b7a4", "fusion_lon": 0.0}, {"rental_uris": {"ios": "https://dc.lft.to/lastmile_qr_scan", "android": "https://dc.lft.to/lastmile_qr_scan"}, "type": "electric_scooter", "name": "ac1456cde383efb759a311219f10a8c1", "is_reserved": 0, "lon": -77.03185883333333, "is_disabled": 0, "fusion_lat": 0.0, "lat": 38.8871565, "bike_id": "ac1456cde383efb759a311219f10a8c1", "fusion_lon": 0.0}, {"rental_uris": {"ios": "https://dc.lft.to/lastmile_qr_scan", "android": "https://dc.lft.to/lastmile_qr_scan"}, "type": "electric_scooter", "name": "ddc79bced938b342bc8b502e243ffd6e", "is_reserved": 0, "lon": -77.03285616666666, "is_disabled": 0, "fusion_lat": 0.0, "lat": 38.938861, "bike_id": "ddc79bced938b342bc8b502e243ffd6e", "fusion_lon": 0.0}, {"rental_uris": {"ios": "https://dc.lft.to/lastmile_qr_scan", "android": "https://dc.lft.to/lastmile_qr_scan"}, "type": "electric_scooter", "name": "869c285c1bb24d54d27a3cf314e2241f", "is_reserved": 0, "lon": -77.04327433333333, "is_disabled": 0, "fusion_lat": 0.0, "lat": 38.908488, "bike_id": "869c285c1bb24d54d27a3cf314e2241f", "fusion_lon": 0.0}, {"rental_uris": {"ios": "https://dc.lft.to/lastmile_qr_scan", "android": "https://dc.lft.to/lastmile_qr_scan"}, "type": "electric_scooter", "name": "7c1e74a03b3ceeda8904bb829c167f18", "is_reserved": 0, "lon": -77.05806483333333, "is_disabled": 0, "fusion_lat": 0.0, "lat": 38.905938666666664, "bike_id": "7c1e74a03b3ceeda8904bb829c167f18", "fusion_lon": 0.0}, {"rental_uris": {"ios": "https://dc.lft.to/lastmile_qr_scan", "android": "https://dc.lft.to/lastmile_qr_scan"}, "type": "electric_scooter", "name": "7842b07f20383c56e36e57aae2d1814c", "is_reserved": 0, "lon": -77.02390866666667, "is_disabled": 0, "fusion_lat": 0.0, "lat": 38.92193266666666, "bike_id": "7842b07f20383c56e36e57aae2d1814c", "fusion_lon": 0.0}, {"rental_uris": {"ios": "https://dc.lft.to/lastmile_qr_scan", "android": "https://dc.lft.to/lastmile_qr_scan"}, "type": "electric_scooter", "name": "764ce0d556296f077b8522860ced585a", "is_reserved": 0, "lon": -77.04338483333333, "is_disabled": 0, "fusion_lat": 0.0, "lat": 38.896937333333334, "bike_id": "764ce0d556296f077b8522860ced585a", "fusion_lon": 0.0}, {"rental_uris": {"ios": "https://dc.lft.to/lastmile_qr_scan", "android": "https://dc.lft.to/lastmile_qr_scan"}, "type": "electric_scooter", "name": "69f7f98f7e7b215c03ddb625732d5d07", "is_reserved": 0, "lon": -77.04793983333333, "is_disabled": 0, "fusion_lat": 0.0, "lat": 38.90986933333333, "bike_id": "69f7f98f7e7b215c03ddb625732d5d07", "fusion_lon": 0.0}, {"rental_uris": {"ios": "https://dc.lft.to/lastmile_qr_scan", "android": "https://dc.lft.to/lastmile_qr_scan"}, "type": "electric_scooter", "name": "2fb17639ab5c2af3ed67e38b64cce91d", "is_reserved": 0, "lon": -77.04011816666667, "is_disabled": 0, "fusion_lat": 0.0, "lat": 38.92579116666667, "bike_id": "2fb17639ab5c2af3ed67e38b64cce91d", "fusion_lon": 0.0}, {"rental_uris": {"ios": "https://dc.lft.to/lastmile_qr_scan", "android": "https://dc.lft.to/lastmile_qr_scan"}, "type": "electric_bike", "name": "3d87006f4459877b62ca284838bc7124", "is_reserved": 0, "lon": -76.96886133333334, "is_disabled": 0, "fusion_lat": 0.0, "lat": 38.86986816666667, "bike_id": "3d87006f4459877b62ca284838bc7124", "fusion_lon": 0.0}, {"rental_uris": {"ios": "https://dc.lft.to/lastmile_qr_scan", "android": "https://dc.lft.to/lastmile_qr_scan"}, "type": "electric_scooter", "name": "8cb9a20ca98007c3a23cd47abb1a8c1f", "is_reserved": 0, "lon": -76.985603, "is_disabled": 0, "fusion_lat": 0.0, "lat": 38.859961166666665, "bike_id": "8cb9a20ca98007c3a23cd47abb1a8c1f", "fusion_lon": 0.0}, {"rental_uris": {"ios": "https://dc.lft.to/lastmile_qr_scan", "android": "https://dc.lft.to/lastmile_qr_scan"}, "type": "electric_scooter", "name": "45ceb4591cc73e19b41f730716ea9e2c", "is_reserved": 0, "lon": -77.03662566666667, "is_disabled": 0, "fusion_lat": 0.0, "lat": 38.913891666666665, "bike_id": "45ceb4591cc73e19b41f730716ea9e2c", "fusion_lon": 0.0}, {"rental_uris": {"ios": "https://dc.lft.to/lastmile_qr_scan", "android": "https://dc.lft.to/lastmile_qr_scan"}, "type": "electric_bike", "name": "bdd3152f026c4dbcf5ea3206fbd35a97", "is_reserved": 0, "lon": -77.018967, "is_disabled": 0, "fusion_lat": 0.0, "lat": 38.89558566666667, "bike_id": "bdd3152f026c4dbcf5ea3206fbd35a97", "fusion_lon": 0.0}, {"rental_uris": {"ios": "https://dc.lft.to/lastmile_qr_scan", "android": "https://dc.lft.to/lastmile_qr_scan"}, "type": "electric_scooter", "name": "fc45d7e2ec24f8ccf17d421c4bd16ecb", "is_reserved": 0, "lon": -77.05599583333333, "is_disabled": 0, "fusion_lat": 0.0, "lat": 38.936995833333334, "bike_id": "fc45d7e2ec24f8ccf17d421c4bd16ecb", "fusion_lon": 0.0}, {"rental_uris": {"ios": "https://dc.lft.to/lastmile_qr_scan", "android": "https://dc.lft.to/lastmile_qr_scan"}, "type": "electric_bike", "name": "a8ee6884dca6bc1487ab15904da9bdc5", "is_reserved": 0, "lon": -76.973428, "is_disabled": 0, "fusion_lat": 0.0, "lat": 38.89723583333333, "bike_id": "a8ee6884dca6bc1487ab15904da9bdc5", "fusion_lon": 0.0}, {"rental_uris": {"ios": "https://dc.lft.to/lastmile_qr_scan", "android": "https://dc.lft.to/lastmile_qr_scan"}, "type": "electric_scooter", "name": "51faffc67df3925d8855c8aad1d64a4c", "is_reserved": 0, "lon": -77.0076155, "is_disabled": 0, "fusion_lat": 0.0, "lat": 38.92675633333333, "bike_id": "51faffc67df3925d8855c8aad1d64a4c", "fusion_lon": 0.0}, {"rental_uris": {"ios": "https://dc.lft.to/lastmile_qr_scan", "android": "https://dc.lft.to/lastmile_qr_scan"}, "type": "electric_scooter", "name": "81ed9ffa2a0111b3ddcc80c20e46a0b4", "is_reserved": 0, "lon": -77.03654533333334, "is_disabled": 0, "fusion_lat": 0.0, "lat": 38.91760216666667, "bike_id": "81ed9ffa2a0111b3ddcc80c20e46a0b4", "fusion_lon": 0.0}, {"rental_uris": {"ios": "https://dc.lft.to/lastmile_qr_scan", "android": "https://dc.lft.to/lastmile_qr_scan"}, "type": "electric_scooter", "name": "f3b39a7021e1b19812fdfa12f65f461f", "is_reserved": 0, "lon": -77.00460483333333, "is_disabled": 0, "fusion_lat": 0.0, "lat": 38.92077416666667, "bike_id": "f3b39a7021e1b19812fdfa12f65f461f", "fusion_lon": 0.0}, {"rental_uris": {"ios": "https://dc.lft.to/lastmile_qr_scan", "android": "https://dc.lft.to/lastmile_qr_scan"}, "type": "electric_scooter", "name": "0ca8481066f986eb5c4f6f477a3b9f15", "is_reserved": 0, "lon": -77.04504133333333, "is_disabled": 0, "fusion_lat": 0.0, "lat": 38.892541666666666, "bike_id": "0ca8481066f986eb5c4f6f477a3b9f15", "fusion_lon": 0.0}, {"rental_uris": {"ios": "https://dc.lft.to/lastmile_qr_scan", "android": "https://dc.lft.to/lastmile_qr_scan"}, "type": "electric_scooter", "name": "f489dcf8a55e4ba731277f9b170d9027", "is_reserved": 0, "lon": -77.03552666666667, "is_disabled": 0, "fusion_lat": 0.0, "lat": 38.9046785, "bike_id": "f489dcf8a55e4ba731277f9b170d9027", "fusion_lon": 0.0}, {"rental_uris": {"ios": "https://dc.lft.to/lastmile_qr_scan", "android": "https://dc.lft.to/lastmile_qr_scan"}, "type": "electric_scooter", "name": "1eeacdba66391016b8b6e185f7df6c62", "is_reserved": 0, "lon": -77.0383505, "is_disabled": 0, "fusion_lat": 0.0, "lat": 38.91079216666667, "bike_id": "1eeacdba66391016b8b6e185f7df6c62", "fusion_lon": 0.0}, {"rental_uris": {"ios": "https://dc.lft.to/lastmile_qr_scan", "android": "https://dc.lft.to/lastmile_qr_scan"}, "type": "electric_scooter", "name": "c5f65f0b88deb186759bb632899db6a2", "is_reserved": 0, "lon": -77.01772783333334, "is_disabled": 0, "fusion_lat": 0.0, "lat": 38.883169333333335, "bike_id": "c5f65f0b88deb186759bb632899db6a2", "fusion_lon": 0.0}, {"rental_uris": {"ios": "https://dc.lft.to/lastmile_qr_scan", "android": "https://dc.lft.to/lastmile_qr_scan"}, "type": "electric_scooter", "name": "10a30d62a362b0e558cb0419ec7a0a5f", "is_reserved": 0, "lon": -77.05924516666667, "is_disabled": 0, "fusion_lat": 0.0, "lat": 38.943098166666665, "bike_id": "10a30d62a362b0e558cb0419ec7a0a5f", "fusion_lon": 0.0}, {"rental_uris": {"ios": "https://dc.lft.to/lastmile_qr_scan", "android": "https://dc.lft.to/lastmile_qr_scan"}, "type": "electric_scooter", "name": "6f43d447bfc2a72fad3aa5fba64c2627", "is_reserved": 0, "lon": -77.00710283333333, "is_disabled": 0, "fusion_lat": 0.0, "lat": 38.884903, "bike_id": "6f43d447bfc2a72fad3aa5fba64c2627", "fusion_lon": 0.0}, {"rental_uris": {"ios": "https://dc.lft.to/lastmile_qr_scan", "android": "https://dc.lft.to/lastmile_qr_scan"}, "type": "electric_bike", "name": "fc840f4cf305b63eed93a862d52b68d6", "is_reserved": 0, "lon": -77.0228355, "is_disabled": 0, "fusion_lat": 0.0, "lat": 38.926978, "bike_id": "fc840f4cf305b63eed93a862d52b68d6", "fusion_lon": 0.0}, {"rental_uris": {"ios": "https://dc.lft.to/lastmile_qr_scan", "android": "https://dc.lft.to/lastmile_qr_scan"}, "type": "electric_scooter", "name": "4d947d66559da16642e64aa4ce188d0e", "is_reserved": 0, "lon": -77.03881566666666, "is_disabled": 0, "fusion_lat": 0.0, "lat": 38.933675, "bike_id": "4d947d66559da16642e64aa4ce188d0e", "fusion_lon": 0.0}, {"rental_uris": {"ios": "https://dc.lft.to/lastmile_qr_scan", "android": "https://dc.lft.to/lastmile_qr_scan"}, "type": "electric_scooter", "name": "3a9995f0ac8f58dc7622bdfed4d7554c", "is_reserved": 0, "lon": -77.01080516666667, "is_disabled": 0, "fusion_lat": 0.0, "lat": 38.903361, "bike_id": "3a9995f0ac8f58dc7622bdfed4d7554c", "fusion_lon": 0.0}, {"rental_uris": {"ios": "https://dc.lft.to/lastmile_qr_scan", "android": "https://dc.lft.to/lastmile_qr_scan"}, "type": "electric_bike", "name": "29b603dae9842c9466a9d8ca9c4b4fb4", "is_reserved": 0, "lon": -76.99798116666666, "is_disabled": 0, "fusion_lat": 0.0, "lat": 38.881226, "bike_id": "29b603dae9842c9466a9d8ca9c4b4fb4", "fusion_lon": 0.0}, {"rental_uris": {"ios": "https://dc.lft.to/lastmile_qr_scan", "android": "https://dc.lft.to/lastmile_qr_scan"}, "type": "electric_scooter", "name": "741de2a3e3c7b5d7231944a8d54db16b", "is_reserved": 0, "lon": -77.02257616666667, "is_disabled": 0, "fusion_lat": 0.0, "lat": 38.928258166666666, "bike_id": "741de2a3e3c7b5d7231944a8d54db16b", "fusion_lon": 0.0}, {"rental_uris": {"ios": "https://dc.lft.to/lastmile_qr_scan", "android": "https://dc.lft.to/lastmile_qr_scan"}, "type": "electric_scooter", "name": "6ce7c4f0f65fb48d072c5e389998bb5a", "is_reserved": 0, "lon": -77.029707, "is_disabled": 0, "fusion_lat": 0.0, "lat": 38.91725316666667, "bike_id": "6ce7c4f0f65fb48d072c5e389998bb5a", "fusion_lon": 0.0}, {"rental_uris": {"ios": "https://dc.lft.to/lastmile_qr_scan", "android": "https://dc.lft.to/lastmile_qr_scan"}, "type": "electric_scooter", "name": "43c1465db5df5f0d4751322a0c6986e6", "is_reserved": 0, "lon": -77.03470283333333, "is_disabled": 0, "fusion_lat": 0.0, "lat": 38.912623333333336, "bike_id": "43c1465db5df5f0d4751322a0c6986e6", "fusion_lon": 0.0}, {"rental_uris": {"ios": "https://dc.lft.to/lastmile_qr_scan", "android": "https://dc.lft.to/lastmile_qr_scan"}, "type": "electric_scooter", "name": "f918a0ada1f03b8e176fd87be163f7c6", "is_reserved": 0, "lon": -77.01121983333333, "is_disabled": 0, "fusion_lat": 0.0, "lat": 38.916127333333336, "bike_id": "f918a0ada1f03b8e176fd87be163f7c6", "fusion_lon": 0.0}, {"rental_uris": {"ios": "https://dc.lft.to/lastmile_qr_scan", "android": "https://dc.lft.to/lastmile_qr_scan"}, "type": "electric_scooter", "name": "043bac79a0f642fc97d4024ebba748eb", "is_reserved": 0, "lon": -77.02183716666667, "is_disabled": 0, "fusion_lat": 0.0, "lat": 38.9147545, "bike_id": "043bac79a0f642fc97d4024ebba748eb", "fusion_lon": 0.0}, {"rental_uris": {"ios": "https://dc.lft.to/lastmile_qr_scan", "android": "https://dc.lft.to/lastmile_qr_scan"}, "type": "electric_scooter", "name": "58315da9685b279eceae1c1cd9a3ac86", "is_reserved": 0, "lon": -77.0270385, "is_disabled": 0, "fusion_lat": 0.0, "lat": 38.90572133333333, "bike_id": "58315da9685b279eceae1c1cd9a3ac86", "fusion_lon": 0.0}, {"rental_uris": {"ios": "https://dc.lft.to/lastmile_qr_scan", "android": "https://dc.lft.to/lastmile_qr_scan"}, "type": "electric_scooter", "name": "d5cf1fa80b3060e300c65b21e18d9db7", "is_reserved": 0, "lon": -77.05472916666666, "is_disabled": 0, "fusion_lat": 0.0, "lat": 38.89731616666667, "bike_id": "d5cf1fa80b3060e300c65b21e18d9db7", "fusion_lon": 0.0}, {"rental_uris": {"ios": "https://dc.lft.to/lastmile_qr_scan", "android": "https://dc.lft.to/lastmile_qr_scan"}, "type": "electric_scooter", "name": "61a73e417b9bd5331472cfcc52edea36", "is_reserved": 0, "lon": -77.00948783333334, "is_disabled": 0, "fusion_lat": 0.0, "lat": 38.89497316666667, "bike_id": "61a73e417b9bd5331472cfcc52edea36", "fusion_lon": 0.0}, {"rental_uris": {"ios": "https://dc.lft.to/lastmile_qr_scan", "android": "https://dc.lft.to/lastmile_qr_scan"}, "type": "electric_scooter", "name": "78c98098bdcdaa02a98aa1ff8dca3335", "is_reserved": 0, "lon": -77.04336816666667, "is_disabled": 0, "fusion_lat": 0.0, "lat": 38.89221583333333, "bike_id": "78c98098bdcdaa02a98aa1ff8dca3335", "fusion_lon": 0.0}, {"rental_uris": {"ios": "https://dc.lft.to/lastmile_qr_scan", "android": "https://dc.lft.to/lastmile_qr_scan"}, "type": "electric_scooter", "name": "ed4373d78000c831f0aaf834f0987ee9", "is_reserved": 0, "lon": -77.02432833333333, "is_disabled": 0, "fusion_lat": 0.0, "lat": 38.92332116666667, "bike_id": "ed4373d78000c831f0aaf834f0987ee9", "fusion_lon": 0.0}, {"rental_uris": {"ios": "https://dc.lft.to/lastmile_qr_scan", "android": "https://dc.lft.to/lastmile_qr_scan"}, "type": "electric_scooter", "name": "e36098266d609c9b5e85702c0c829ef2", "is_reserved": 0, "lon": -76.9798445, "is_disabled": 0, "fusion_lat": 0.0, "lat": 38.897352, "bike_id": "e36098266d609c9b5e85702c0c829ef2", "fusion_lon": 0.0}, {"rental_uris": {"ios": "https://dc.lft.to/lastmile_qr_scan", "android": "https://dc.lft.to/lastmile_qr_scan"}, "type": "electric_bike", "name": "74593b0139fc39ed750890b72590331b", "is_reserved": 0, "lon": -76.90742166666666, "is_disabled": 0, "fusion_lat": 0.0, "lat": 38.89619283333333, "bike_id": "74593b0139fc39ed750890b72590331b", "fusion_lon": 0.0}, {"rental_uris": {"ios": "https://dc.lft.to/lastmile_qr_scan", "android": "https://dc.lft.to/lastmile_qr_scan"}, "type": "electric_scooter", "name": "ed21a03450ebcfc2c2df131de3e1dc31", "is_reserved": 0, "lon": -77.03655483333333, "is_disabled": 0, "fusion_lat": 0.0, "lat": 38.91322, "bike_id": "ed21a03450ebcfc2c2df131de3e1dc31", "fusion_lon": 0.0}, {"rental_uris": {"ios": "https://dc.lft.to/lastmile_qr_scan", "android": "https://dc.lft.to/lastmile_qr_scan"}, "type": "electric_scooter", "name": "79c1b3d2b38c728817278d4e1d188391", "is_reserved": 0, "lon": -77.0318035, "is_disabled": 0, "fusion_lat": 0.0, "lat": 38.909485333333336, "bike_id": "79c1b3d2b38c728817278d4e1d188391", "fusion_lon": 0.0}, {"rental_uris": {"ios": "https://dc.lft.to/lastmile_qr_scan", "android": "https://dc.lft.to/lastmile_qr_scan"}, "type": "electric_scooter", "name": "b88dd7dbd51767bc37a0eb4b4b1a0ec2", "is_reserved": 0, "lon": -77.0456485, "is_disabled": 0, "fusion_lat": 0.0, "lat": 38.91408533333333, "bike_id": "b88dd7dbd51767bc37a0eb4b4b1a0ec2", "fusion_lon": 0.0}, {"rental_uris": {"ios": "https://dc.lft.to/lastmile_qr_scan", "android": "https://dc.lft.to/lastmile_qr_scan"}, "type": "electric_scooter", "name": "2173814d04d4a68e60e11472cba3959a", "is_reserved": 0, "lon": -77.0322695, "is_disabled": 0, "fusion_lat": 0.0, "lat": 38.89926366666667, "bike_id": "2173814d04d4a68e60e11472cba3959a", "fusion_lon": 0.0}, {"rental_uris": {"ios": "https://dc.lft.to/lastmile_qr_scan", "android": "https://dc.lft.to/lastmile_qr_scan"}, "type": "electric_bike", "name": "16fd903ab35ebe2546793d07ab589463", "is_reserved": 0, "lon": -76.99499933333334, "is_disabled": 0, "fusion_lat": 0.0, "lat": 38.862179166666664, "bike_id": "16fd903ab35ebe2546793d07ab589463", "fusion_lon": 0.0}, {"rental_uris": {"ios": "https://dc.lft.to/lastmile_qr_scan", "android": "https://dc.lft.to/lastmile_qr_scan"}, "type": "electric_scooter", "name": "fb1dfe67f6eb0667225e0f3c60788b22", "is_reserved": 0, "lon": -77.05792833333334, "is_disabled": 0, "fusion_lat": 0.0, "lat": 38.9347945, "bike_id": "fb1dfe67f6eb0667225e0f3c60788b22", "fusion_lon": 0.0}, {"rental_uris": {"ios": "https://dc.lft.to/lastmile_qr_scan", "android": "https://dc.lft.to/lastmile_qr_scan"}, "type": "electric_scooter", "name": "1132809f6acc436340c5b7f004db5a47", "is_reserved": 0, "lon": -77.02703816666667, "is_disabled": 0, "fusion_lat": 0.0, "lat": 38.93575083333333, "bike_id": "1132809f6acc436340c5b7f004db5a47", "fusion_lon": 0.0}, {"rental_uris": {"ios": "https://dc.lft.to/lastmile_qr_scan", "android": "https://dc.lft.to/lastmile_qr_scan"}, "type": "electric_scooter", "name": "70a00690f034984e10c4d10fa8f472fe", "is_reserved": 0, "lon": -77.01625066666666, "is_disabled": 0, "fusion_lat": 0.0, "lat": 38.90659866666667, "bike_id": "70a00690f034984e10c4d10fa8f472fe", "fusion_lon": 0.0}, {"rental_uris": {"ios": "https://dc.lft.to/lastmile_qr_scan", "android": "https://dc.lft.to/lastmile_qr_scan"}, "type": "electric_scooter", "name": "7fdc5764f79b56916283c18159e411b8", "is_reserved": 0, "lon": -77.01815466666666, "is_disabled": 0, "fusion_lat": 0.0, "lat": 38.9222145, "bike_id": "7fdc5764f79b56916283c18159e411b8", "fusion_lon": 0.0}, {"rental_uris": {"ios": "https://dc.lft.to/lastmile_qr_scan", "android": "https://dc.lft.to/lastmile_qr_scan"}, "type": "electric_scooter", "name": "4019cab3fdb174b1ce34a50cae9ed1a6", "is_reserved": 0, "lon": -77.02274683333333, "is_disabled": 0, "fusion_lat": 0.0, "lat": 38.924200166666665, "bike_id": "4019cab3fdb174b1ce34a50cae9ed1a6", "fusion_lon": 0.0}, {"rental_uris": {"ios": "https://dc.lft.to/lastmile_qr_scan", "android": "https://dc.lft.to/lastmile_qr_scan"}, "type": "electric_scooter", "name": "7419e94029ddde333e2f02136510edd9", "is_reserved": 0, "lon": -77.00748116666666, "is_disabled": 0, "fusion_lat": 0.0, "lat": 38.91120316666667, "bike_id": "7419e94029ddde333e2f02136510edd9", "fusion_lon": 0.0}, {"rental_uris": {"ios": "https://dc.lft.to/lastmile_qr_scan", "android": "https://dc.lft.to/lastmile_qr_scan"}, "type": "electric_bike", "name": "b9bc168863516dd188ae8e3d867d9d4b", "is_reserved": 0, "lon": -77.005202, "is_disabled": 0, "fusion_lat": 0.0, "lat": 38.879297666666666, "bike_id": "b9bc168863516dd188ae8e3d867d9d4b", "fusion_lon": 0.0}, {"rental_uris": {"ios": "https://dc.lft.to/lastmile_qr_scan", "android": "https://dc.lft.to/lastmile_qr_scan"}, "type": "electric_scooter", "name": "03747bbe97cea4a2de2dcdcc9c7aa95e", "is_reserved": 0, "lon": -76.98851416666666, "is_disabled": 0, "fusion_lat": 0.0, "lat": 38.9069975, "bike_id": "03747bbe97cea4a2de2dcdcc9c7aa95e", "fusion_lon": 0.0}, {"rental_uris": {"ios": "https://dc.lft.to/lastmile_qr_scan", "android": "https://dc.lft.to/lastmile_qr_scan"}, "type": "electric_scooter", "name": "db84b44ab9dc8877d79eb9bf6950758e", "is_reserved": 0, "lon": -77.03621266666667, "is_disabled": 0, "fusion_lat": 0.0, "lat": 38.94288433333333, "bike_id": "db84b44ab9dc8877d79eb9bf6950758e", "fusion_lon": 0.0}, {"rental_uris": {"ios": "https://dc.lft.to/lastmile_qr_scan", "android": "https://dc.lft.to/lastmile_qr_scan"}, "type": "electric_bike", "name": "441526031b7b4abb361ef18add3dff0d", "is_reserved": 0, "lon": -77.01912816666666, "is_disabled": 0, "fusion_lat": 0.0, "lat": 38.97654216666667, "bike_id": "441526031b7b4abb361ef18add3dff0d", "fusion_lon": 0.0}, {"rental_uris": {"ios": "https://dc.lft.to/lastmile_qr_scan", "android": "https://dc.lft.to/lastmile_qr_scan"}, "type": "electric_scooter", "name": "aa34de9407edd773320fc189fd6a937d", "is_reserved": 0, "lon": -77.02606516666667, "is_disabled": 0, "fusion_lat": 0.0, "lat": 38.9062875, "bike_id": "aa34de9407edd773320fc189fd6a937d", "fusion_lon": 0.0}, {"rental_uris": {"ios": "https://dc.lft.to/lastmile_qr_scan", "android": "https://dc.lft.to/lastmile_qr_scan"}, "type": "electric_scooter", "name": "6a84c380dbda7d205978ec35a2f0c8ef", "is_reserved": 0, "lon": -77.02106033333334, "is_disabled": 0, "fusion_lat": 0.0, "lat": 38.966772666666664, "bike_id": "6a84c380dbda7d205978ec35a2f0c8ef", "fusion_lon": 0.0}, {"rental_uris": {"ios": "https://dc.lft.to/lastmile_qr_scan", "android": "https://dc.lft.to/lastmile_qr_scan"}, "type": "electric_scooter", "name": "d0024358ec424e740745bd1fbd61e4e8", "is_reserved": 0, "lon": -77.00861283333333, "is_disabled": 0, "fusion_lat": 0.0, "lat": 38.8784485, "bike_id": "d0024358ec424e740745bd1fbd61e4e8", "fusion_lon": 0.0}, {"rental_uris": {"ios": "https://dc.lft.to/lastmile_qr_scan", "android": "https://dc.lft.to/lastmile_qr_scan"}, "type": "electric_scooter", "name": "9053efb6ec716e318b9419753104c11a", "is_reserved": 0, "lon": -76.98525, "is_disabled": 0, "fusion_lat": 0.0, "lat": 38.9145425, "bike_id": "9053efb6ec716e318b9419753104c11a", "fusion_lon": 0.0}, {"rental_uris": {"ios": "https://dc.lft.to/lastmile_qr_scan", "android": "https://dc.lft.to/lastmile_qr_scan"}, "type": "electric_bike", "name": "e35bf9ad3686cad875e28e4cd757a8a8", "is_reserved": 0, "lon": -77.03138516666667, "is_disabled": 0, "fusion_lat": 0.0, "lat": 38.920108, "bike_id": "e35bf9ad3686cad875e28e4cd757a8a8", "fusion_lon": 0.0}, {"rental_uris": {"ios": "https://dc.lft.to/lastmile_qr_scan", "android": "https://dc.lft.to/lastmile_qr_scan"}, "type": "electric_scooter", "name": "4675af34118f3191fba0a35624fc3709", "is_reserved": 0, "lon": -77.04145333333334, "is_disabled": 0, "fusion_lat": 0.0, "lat": 38.91710033333333, "bike_id": "4675af34118f3191fba0a35624fc3709", "fusion_lon": 0.0}, {"rental_uris": {"ios": "https://dc.lft.to/lastmile_qr_scan", "android": "https://dc.lft.to/lastmile_qr_scan"}, "type": "electric_scooter", "name": "9ccf1f690211686db23105c1c6540634", "is_reserved": 0, "lon": -76.99033983333334, "is_disabled": 0, "fusion_lat": 0.0, "lat": 38.8887865, "bike_id": "9ccf1f690211686db23105c1c6540634", "fusion_lon": 0.0}, {"rental_uris": {"ios": "https://dc.lft.to/lastmile_qr_scan", "android": "https://dc.lft.to/lastmile_qr_scan"}, "type": "electric_scooter", "name": "7eb75ba01e9ed9806bbae2d773642de5", "is_reserved": 0, "lon": -77.02691016666667, "is_disabled": 0, "fusion_lat": 0.0, "lat": 38.9498005, "bike_id": "7eb75ba01e9ed9806bbae2d773642de5", "fusion_lon": 0.0}, {"rental_uris": {"ios": "https://dc.lft.to/lastmile_qr_scan", "android": "https://dc.lft.to/lastmile_qr_scan"}, "type": "electric_scooter", "name": "13b333352a88657a9d7a55b47706a405", "is_reserved": 0, "lon": -77.01304666666667, "is_disabled": 0, "fusion_lat": 0.0, "lat": 38.901884, "bike_id": "13b333352a88657a9d7a55b47706a405", "fusion_lon": 0.0}, {"rental_uris": {"ios": "https://dc.lft.to/lastmile_qr_scan", "android": "https://dc.lft.to/lastmile_qr_scan"}, "type": "electric_scooter", "name": "5903fba0a385a4b8829f5d87ececd167", "is_reserved": 0, "lon": -77.01781083333333, "is_disabled": 0, "fusion_lat": 0.0, "lat": 38.91985233333333, "bike_id": "5903fba0a385a4b8829f5d87ececd167", "fusion_lon": 0.0}, {"rental_uris": {"ios": "https://dc.lft.to/lastmile_qr_scan", "android": "https://dc.lft.to/lastmile_qr_scan"}, "type": "electric_bike", "name": "1527322747516c5483e7733eabd3d261", "is_reserved": 0, "lon": -76.986918, "is_disabled": 0, "fusion_lat": 0.0, "lat": 38.94474016666667, "bike_id": "1527322747516c5483e7733eabd3d261", "fusion_lon": 0.0}, {"rental_uris": {"ios": "https://dc.lft.to/lastmile_qr_scan", "android": "https://dc.lft.to/lastmile_qr_scan"}, "type": "electric_scooter", "name": "bc7666de03256cc31b1e307bcfe79dc8", "is_reserved": 0, "lon": -77.03794366666666, "is_disabled": 0, "fusion_lat": 0.0, "lat": 38.915402666666665, "bike_id": "bc7666de03256cc31b1e307bcfe79dc8", "fusion_lon": 0.0}, {"rental_uris": {"ios": "https://dc.lft.to/lastmile_qr_scan", "android": "https://dc.lft.to/lastmile_qr_scan"}, "type": "electric_scooter", "name": "12a91e0092d51b18ced1ac1a52d64c8d", "is_reserved": 0, "lon": -77.03221766666667, "is_disabled": 0, "fusion_lat": 0.0, "lat": 38.89627933333333, "bike_id": "12a91e0092d51b18ced1ac1a52d64c8d", "fusion_lon": 0.0}, {"rental_uris": {"ios": "https://dc.lft.to/lastmile_qr_scan", "android": "https://dc.lft.to/lastmile_qr_scan"}, "type": "electric_scooter", "name": "531c1f13e360e9a4ffaea82b4a9949bc", "is_reserved": 0, "lon": -77.03047083333334, "is_disabled": 0, "fusion_lat": 0.0, "lat": 38.88430816666666, "bike_id": "531c1f13e360e9a4ffaea82b4a9949bc", "fusion_lon": 0.0}, {"rental_uris": {"ios": "https://dc.lft.to/lastmile_qr_scan", "android": "https://dc.lft.to/lastmile_qr_scan"}, "type": "electric_scooter", "name": "d72b108639e4cccb96961c2e19f9e96a", "is_reserved": 0, "lon": -77.03955683333334, "is_disabled": 0, "fusion_lat": 0.0, "lat": 38.8924795, "bike_id": "d72b108639e4cccb96961c2e19f9e96a", "fusion_lon": 0.0}, {"rental_uris": {"ios": "https://dc.lft.to/lastmile_qr_scan", "android": "https://dc.lft.to/lastmile_qr_scan"}, "type": "electric_scooter", "name": "458d2a6e736d02ae7a35d265b629659b", "is_reserved": 0, "lon": -76.9849455, "is_disabled": 0, "fusion_lat": 0.0, "lat": 38.92003833333333, "bike_id": "458d2a6e736d02ae7a35d265b629659b", "fusion_lon": 0.0}, {"rental_uris": {"ios": "https://dc.lft.to/lastmile_qr_scan", "android": "https://dc.lft.to/lastmile_qr_scan"}, "type": "electric_scooter", "name": "8c5c876f3a847fd8999ba35122b5bfda", "is_reserved": 0, "lon": -77.02063616666666, "is_disabled": 0, "fusion_lat": 0.0, "lat": 38.92409816666667, "bike_id": "8c5c876f3a847fd8999ba35122b5bfda", "fusion_lon": 0.0}, {"rental_uris": {"ios": "https://dc.lft.to/lastmile_qr_scan", "android": "https://dc.lft.to/lastmile_qr_scan"}, "type": "electric_scooter", "name": "e701b551db26dfbe10d9e4b9a13a4863", "is_reserved": 0, "lon": -77.03063783333333, "is_disabled": 0, "fusion_lat": 0.0, "lat": 38.92251916666667, "bike_id": "e701b551db26dfbe10d9e4b9a13a4863", "fusion_lon": 0.0}, {"rental_uris": {"ios": "https://dc.lft.to/lastmile_qr_scan", "android": "https://dc.lft.to/lastmile_qr_scan"}, "type": "electric_scooter", "name": "1b848b508accb70eed91878b62ead338", "is_reserved": 0, "lon": -77.07595316666666, "is_disabled": 0, "fusion_lat": 0.0, "lat": 38.93756283333333, "bike_id": "1b848b508accb70eed91878b62ead338", "fusion_lon": 0.0}, {"rental_uris": {"ios": "https://dc.lft.to/lastmile_qr_scan", "android": "https://dc.lft.to/lastmile_qr_scan"}, "type": "electric_scooter", "name": "1148a768e6d73521e3eb8106711cd467", "is_reserved": 0, "lon": -76.9293725, "is_disabled": 0, "fusion_lat": 0.0, "lat": 38.9033415, "bike_id": "1148a768e6d73521e3eb8106711cd467", "fusion_lon": 0.0}, {"rental_uris": {"ios": "https://dc.lft.to/lastmile_qr_scan", "android": "https://dc.lft.to/lastmile_qr_scan"}, "type": "electric_scooter", "name": "699938146d78c137bf163c7e9695fe88", "is_reserved": 0, "lon": -76.98782866666667, "is_disabled": 0, "fusion_lat": 0.0, "lat": 38.8798685, "bike_id": "699938146d78c137bf163c7e9695fe88", "fusion_lon": 0.0}, {"rental_uris": {"ios": "https://dc.lft.to/lastmile_qr_scan", "android": "https://dc.lft.to/lastmile_qr_scan"}, "type": "electric_scooter", "name": "f73544c0602e3c02ed9cd84c20b42802", "is_reserved": 0, "lon": -77.01591316666666, "is_disabled": 0, "fusion_lat": 0.0, "lat": 38.87221666666667, "bike_id": "f73544c0602e3c02ed9cd84c20b42802", "fusion_lon": 0.0}, {"rental_uris": {"ios": "https://dc.lft.to/lastmile_qr_scan", "android": "https://dc.lft.to/lastmile_qr_scan"}, "type": "electric_scooter", "name": "82595425cda5d9046fa2f978925c5e50", "is_reserved": 0, "lon": -77.02337316666667, "is_disabled": 0, "fusion_lat": 0.0, "lat": 38.91116433333333, "bike_id": "82595425cda5d9046fa2f978925c5e50", "fusion_lon": 0.0}, {"rental_uris": {"ios": "https://dc.lft.to/lastmile_qr_scan", "android": "https://dc.lft.to/lastmile_qr_scan"}, "type": "electric_scooter", "name": "03993254958a3e2320c1ab70202c90ce", "is_reserved": 0, "lon": -77.01059133333334, "is_disabled": 0, "fusion_lat": 0.0, "lat": 38.913397, "bike_id": "03993254958a3e2320c1ab70202c90ce", "fusion_lon": 0.0}, {"rental_uris": {"ios": "https://dc.lft.to/lastmile_qr_scan", "android": "https://dc.lft.to/lastmile_qr_scan"}, "type": "electric_scooter", "name": "5d751ec81169ca00340c27473d7ed0bc", "is_reserved": 0, "lon": -77.040216, "is_disabled": 0, "fusion_lat": 0.0, "lat": 38.922530333333334, "bike_id": "5d751ec81169ca00340c27473d7ed0bc", "fusion_lon": 0.0}, {"rental_uris": {"ios": "https://dc.lft.to/lastmile_qr_scan", "android": "https://dc.lft.to/lastmile_qr_scan"}, "type": "electric_scooter", "name": "79a724fe2a0bea53a17ef832c8e25865", "is_reserved": 0, "lon": -77.0449385, "is_disabled": 0, "fusion_lat": 0.0, "lat": 38.90378166666667, "bike_id": "79a724fe2a0bea53a17ef832c8e25865", "fusion_lon": 0.0}, {"rental_uris": {"ios": "https://dc.lft.to/lastmile_qr_scan", "android": "https://dc.lft.to/lastmile_qr_scan"}, "type": "electric_bike", "name": "5e78d514ed71d81ca0486d79a58052e0", "is_reserved": 0, "lon": -76.98687983333333, "is_disabled": 0, "fusion_lat": 0.0, "lat": 38.94473983333334, "bike_id": "5e78d514ed71d81ca0486d79a58052e0", "fusion_lon": 0.0}, {"rental_uris": {"ios": "https://dc.lft.to/lastmile_qr_scan", "android": "https://dc.lft.to/lastmile_qr_scan"}, "type": "electric_bike", "name": "c9ff54873ee307a63d83a4fe1f4a11f2", "is_reserved": 0, "lon": -76.93669066666666, "is_disabled": 0, "fusion_lat": 0.0, "lat": 38.8945665, "bike_id": "c9ff54873ee307a63d83a4fe1f4a11f2", "fusion_lon": 0.0}, {"rental_uris": {"ios": "https://dc.lft.to/lastmile_qr_scan", "android": "https://dc.lft.to/lastmile_qr_scan"}, "type": "electric_scooter", "name": "f13c03b4a601761c323c3c1a29995d69", "is_reserved": 0, "lon": -77.046036, "is_disabled": 0, "fusion_lat": 0.0, "lat": 38.90228066666667, "bike_id": "f13c03b4a601761c323c3c1a29995d69", "fusion_lon": 0.0}, {"rental_uris": {"ios": "https://dc.lft.to/lastmile_qr_scan", "android": "https://dc.lft.to/lastmile_qr_scan"}, "type": "electric_scooter", "name": "43a3a1472309fe61972a627308b1f5e3", "is_reserved": 0, "lon": -77.02782283333333, "is_disabled": 0, "fusion_lat": 0.0, "lat": 38.96241966666667, "bike_id": "43a3a1472309fe61972a627308b1f5e3", "fusion_lon": 0.0}, {"rental_uris": {"ios": "https://dc.lft.to/lastmile_qr_scan", "android": "https://dc.lft.to/lastmile_qr_scan"}, "type": "electric_scooter", "name": "9110b4a8c2706c4d5abacdcee4c496a7", "is_reserved": 0, "lon": -77.01206966666666, "is_disabled": 0, "fusion_lat": 0.0, "lat": 38.911945833333334, "bike_id": "9110b4a8c2706c4d5abacdcee4c496a7", "fusion_lon": 0.0}, {"rental_uris": {"ios": "https://dc.lft.to/lastmile_qr_scan", "android": "https://dc.lft.to/lastmile_qr_scan"}, "type": "electric_scooter", "name": "c82bb91396881906c5d2c651aa524ead", "is_reserved": 0, "lon": -77.015772, "is_disabled": 0, "fusion_lat": 0.0, "lat": 38.91683316666666, "bike_id": "c82bb91396881906c5d2c651aa524ead", "fusion_lon": 0.0}, {"rental_uris": {"ios": "https://dc.lft.to/lastmile_qr_scan", "android": "https://dc.lft.to/lastmile_qr_scan"}, "type": "electric_scooter", "name": "3af90c18e7f0d0f3222fb75eccc0e298", "is_reserved": 0, "lon": -76.970023, "is_disabled": 0, "fusion_lat": 0.0, "lat": 38.860280333333336, "bike_id": "3af90c18e7f0d0f3222fb75eccc0e298", "fusion_lon": 0.0}, {"rental_uris": {"ios": "https://dc.lft.to/lastmile_qr_scan", "android": "https://dc.lft.to/lastmile_qr_scan"}, "type": "electric_bike", "name": "75e53aeb37a503048411dcd3f251ba90", "is_reserved": 0, "lon": -76.96265083333333, "is_disabled": 0, "fusion_lat": 0.0, "lat": 38.9678465, "bike_id": "75e53aeb37a503048411dcd3f251ba90", "fusion_lon": 0.0}, {"rental_uris": {"ios": "https://dc.lft.to/lastmile_qr_scan", "android": "https://dc.lft.to/lastmile_qr_scan"}, "type": "electric_scooter", "name": "10f23b316b411dfb0db2e8331f3b81f2", "is_reserved": 0, "lon": -77.01212783333334, "is_disabled": 0, "fusion_lat": 0.0, "lat": 38.921171666666666, "bike_id": "10f23b316b411dfb0db2e8331f3b81f2", "fusion_lon": 0.0}, {"rental_uris": {"ios": "https://dc.lft.to/lastmile_qr_scan", "android": "https://dc.lft.to/lastmile_qr_scan"}, "type": "electric_scooter", "name": "1d0b6fdcb1a2a831067bc38216cc1354", "is_reserved": 0, "lon": -77.03982816666667, "is_disabled": 0, "fusion_lat": 0.0, "lat": 38.9246675, "bike_id": "1d0b6fdcb1a2a831067bc38216cc1354", "fusion_lon": 0.0}, {"rental_uris": {"ios": "https://dc.lft.to/lastmile_qr_scan", "android": "https://dc.lft.to/lastmile_qr_scan"}, "type": "electric_bike", "name": "545d2bb940e0221456db2627e121dd3f", "is_reserved": 0, "lon": -77.23409933333333, "is_disabled": 0, "fusion_lat": 0.0, "lat": 38.87578366666666, "bike_id": "545d2bb940e0221456db2627e121dd3f", "fusion_lon": 0.0}, {"rental_uris": {"ios": "https://dc.lft.to/lastmile_qr_scan", "android": "https://dc.lft.to/lastmile_qr_scan"}, "type": "electric_scooter", "name": "46cb9759779b6cbdcddb07997e9dea5d", "is_reserved": 0, "lon": -77.04648966666667, "is_disabled": 0, "fusion_lat": 0.0, "lat": 38.89731666666667, "bike_id": "46cb9759779b6cbdcddb07997e9dea5d", "fusion_lon": 0.0}, {"rental_uris": {"ios": "https://dc.lft.to/lastmile_qr_scan", "android": "https://dc.lft.to/lastmile_qr_scan"}, "type": "electric_scooter", "name": "d4eb2b61db0e670d2345c47b227c024f", "is_reserved": 0, "lon": -77.02381366666667, "is_disabled": 0, "fusion_lat": 0.0, "lat": 38.916185, "bike_id": "d4eb2b61db0e670d2345c47b227c024f", "fusion_lon": 0.0}, {"rental_uris": {"ios": "https://dc.lft.to/lastmile_qr_scan", "android": "https://dc.lft.to/lastmile_qr_scan"}, "type": "electric_scooter", "name": "6e325cea39ca1c1678f25df2ead96aa5", "is_reserved": 0, "lon": -77.00063083333333, "is_disabled": 0, "fusion_lat": 0.0, "lat": 38.96131466666667, "bike_id": "6e325cea39ca1c1678f25df2ead96aa5", "fusion_lon": 0.0}, {"rental_uris": {"ios": "https://dc.lft.to/lastmile_qr_scan", "android": "https://dc.lft.to/lastmile_qr_scan"}, "type": "electric_scooter", "name": "b8a393d8c7c2a8a702fc49f22a948ab7", "is_reserved": 0, "lon": -76.97626716666667, "is_disabled": 0, "fusion_lat": 0.0, "lat": 38.905729666666666, "bike_id": "b8a393d8c7c2a8a702fc49f22a948ab7", "fusion_lon": 0.0}, {"rental_uris": {"ios": "https://dc.lft.to/lastmile_qr_scan", "android": "https://dc.lft.to/lastmile_qr_scan"}, "type": "electric_scooter", "name": "0ffb4ee320c7aabbdbbf95457e08c9ea", "is_reserved": 0, "lon": -77.03489916666666, "is_disabled": 0, "fusion_lat": 0.0, "lat": 38.93271566666667, "bike_id": "0ffb4ee320c7aabbdbbf95457e08c9ea", "fusion_lon": 0.0}, {"rental_uris": {"ios": "https://dc.lft.to/lastmile_qr_scan", "android": "https://dc.lft.to/lastmile_qr_scan"}, "type": "electric_scooter", "name": "523a719084a59979012ccaa68698701c", "is_reserved": 0, "lon": -77.05522733333333, "is_disabled": 0, "fusion_lat": 0.0, "lat": 38.89728816666667, "bike_id": "523a719084a59979012ccaa68698701c", "fusion_lon": 0.0}, {"rental_uris": {"ios": "https://dc.lft.to/lastmile_qr_scan", "android": "https://dc.lft.to/lastmile_qr_scan"}, "type": "electric_scooter", "name": "d3358a0fee974ea2d57a6e04baca1471", "is_reserved": 0, "lon": -77.02956616666667, "is_disabled": 0, "fusion_lat": 0.0, "lat": 38.922664166666664, "bike_id": "d3358a0fee974ea2d57a6e04baca1471", "fusion_lon": 0.0}, {"rental_uris": {"ios": "https://dc.lft.to/lastmile_qr_scan", "android": "https://dc.lft.to/lastmile_qr_scan"}, "type": "electric_scooter", "name": "96c559bbdc7f53bff2a51fccd5255189", "is_reserved": 0, "lon": -76.98941783333333, "is_disabled": 0, "fusion_lat": 0.0, "lat": 38.90396533333333, "bike_id": "96c559bbdc7f53bff2a51fccd5255189", "fusion_lon": 0.0}, {"rental_uris": {"ios": "https://dc.lft.to/lastmile_qr_scan", "android": "https://dc.lft.to/lastmile_qr_scan"}, "type": "electric_scooter", "name": "0bda8377af9be74850afc2e69236888e", "is_reserved": 0, "lon": -77.041258, "is_disabled": 0, "fusion_lat": 0.0, "lat": 38.903637333333336, "bike_id": "0bda8377af9be74850afc2e69236888e", "fusion_lon": 0.0}, {"rental_uris": {"ios": "https://dc.lft.to/lastmile_qr_scan", "android": "https://dc.lft.to/lastmile_qr_scan"}, "type": "electric_scooter", "name": "3f244233475734d1bd015ec7456598a0", "is_reserved": 0, "lon": -77.0487655, "is_disabled": 0, "fusion_lat": 0.0, "lat": 38.90482216666667, "bike_id": "3f244233475734d1bd015ec7456598a0", "fusion_lon": 0.0}, {"rental_uris": {"ios": "https://dc.lft.to/lastmile_qr_scan", "android": "https://dc.lft.to/lastmile_qr_scan"}, "type": "electric_scooter", "name": "4fffe2816fb5ac89591ba5ec6d15fa76", "is_reserved": 0, "lon": -77.04945866666667, "is_disabled": 0, "fusion_lat": 0.0, "lat": 38.92021033333333, "bike_id": "4fffe2816fb5ac89591ba5ec6d15fa76", "fusion_lon": 0.0}, {"rental_uris": {"ios": "https://dc.lft.to/lastmile_qr_scan", "android": "https://dc.lft.to/lastmile_qr_scan"}, "type": "electric_scooter", "name": "b00e028f424432e9db57b37f55798404", "is_reserved": 0, "lon": -77.03031033333333, "is_disabled": 0, "fusion_lat": 0.0, "lat": 38.922471333333334, "bike_id": "b00e028f424432e9db57b37f55798404", "fusion_lon": 0.0}, {"rental_uris": {"ios": "https://dc.lft.to/lastmile_qr_scan", "android": "https://dc.lft.to/lastmile_qr_scan"}, "type": "electric_scooter", "name": "48486c3d11bf354f08a5334b7ef1eac5", "is_reserved": 0, "lon": -77.03262766666667, "is_disabled": 0, "fusion_lat": 0.0, "lat": 38.93267266666667, "bike_id": "48486c3d11bf354f08a5334b7ef1eac5", "fusion_lon": 0.0}, {"rental_uris": {"ios": "https://dc.lft.to/lastmile_qr_scan", "android": "https://dc.lft.to/lastmile_qr_scan"}, "type": "electric_scooter", "name": "51e8d42ce3648b2105e1dbaeca7207ba", "is_reserved": 0, "lon": -76.98377833333333, "is_disabled": 0, "fusion_lat": 0.0, "lat": 38.86694633333333, "bike_id": "51e8d42ce3648b2105e1dbaeca7207ba", "fusion_lon": 0.0}, {"rental_uris": {"ios": "https://dc.lft.to/lastmile_qr_scan", "android": "https://dc.lft.to/lastmile_qr_scan"}, "type": "electric_scooter", "name": "add07b984602f90d50b61acf0c1b26bd", "is_reserved": 0, "lon": -77.00687666666667, "is_disabled": 0, "fusion_lat": 0.0, "lat": 38.906428, "bike_id": "add07b984602f90d50b61acf0c1b26bd", "fusion_lon": 0.0}, {"rental_uris": {"ios": "https://dc.lft.to/lastmile_qr_scan", "android": "https://dc.lft.to/lastmile_qr_scan"}, "type": "electric_scooter", "name": "d41d45ddd6e199337a1e863dbd8c7445", "is_reserved": 0, "lon": -77.02718583333333, "is_disabled": 0, "fusion_lat": 0.0, "lat": 38.91217833333333, "bike_id": "d41d45ddd6e199337a1e863dbd8c7445", "fusion_lon": 0.0}, {"rental_uris": {"ios": "https://dc.lft.to/lastmile_qr_scan", "android": "https://dc.lft.to/lastmile_qr_scan"}, "type": "electric_scooter", "name": "1a06cf8dc7a46b17b92547c5b1439db8", "is_reserved": 0, "lon": -77.02590166666667, "is_disabled": 0, "fusion_lat": 0.0, "lat": 38.90503233333333, "bike_id": "1a06cf8dc7a46b17b92547c5b1439db8", "fusion_lon": 0.0}, {"rental_uris": {"ios": "https://dc.lft.to/lastmile_qr_scan", "android": "https://dc.lft.to/lastmile_qr_scan"}, "type": "electric_scooter", "name": "8d44ce1f2388b7822f30c109ea2efec3", "is_reserved": 0, "lon": -77.02120033333334, "is_disabled": 0, "fusion_lat": 0.0, "lat": 38.89399483333333, "bike_id": "8d44ce1f2388b7822f30c109ea2efec3", "fusion_lon": 0.0}, {"rental_uris": {"ios": "https://dc.lft.to/lastmile_qr_scan", "android": "https://dc.lft.to/lastmile_qr_scan"}, "type": "electric_scooter", "name": "9e85b28e20c60291c995661e5af8d50a", "is_reserved": 0, "lon": -77.03403616666667, "is_disabled": 0, "fusion_lat": 0.0, "lat": 38.91970083333333, "bike_id": "9e85b28e20c60291c995661e5af8d50a", "fusion_lon": 0.0}, {"rental_uris": {"ios": "https://dc.lft.to/lastmile_qr_scan", "android": "https://dc.lft.to/lastmile_qr_scan"}, "type": "electric_scooter", "name": "a0e8498d0f7dc6b5edf8a92475b6cd2e", "is_reserved": 0, "lon": -77.04135766666667, "is_disabled": 0, "fusion_lat": 0.0, "lat": 38.93460833333334, "bike_id": "a0e8498d0f7dc6b5edf8a92475b6cd2e", "fusion_lon": 0.0}, {"rental_uris": {"ios": "https://dc.lft.to/lastmile_qr_scan", "android": "https://dc.lft.to/lastmile_qr_scan"}, "type": "electric_scooter", "name": "f67919704ed6d04ac3bda81de7d53376", "is_reserved": 0, "lon": -77.031671, "is_disabled": 0, "fusion_lat": 0.0, "lat": 38.92005566666667, "bike_id": "f67919704ed6d04ac3bda81de7d53376", "fusion_lon": 0.0}, {"rental_uris": {"ios": "https://dc.lft.to/lastmile_qr_scan", "android": "https://dc.lft.to/lastmile_qr_scan"}, "type": "electric_bike", "name": "5077224c085e7ece3f84a6bc723c5520", "is_reserved": 0, "lon": -77.02816066666666, "is_disabled": 0, "fusion_lat": 0.0, "lat": 38.965294166666666, "bike_id": "5077224c085e7ece3f84a6bc723c5520", "fusion_lon": 0.0}, {"rental_uris": {"ios": "https://dc.lft.to/lastmile_qr_scan", "android": "https://dc.lft.to/lastmile_qr_scan"}, "type": "electric_scooter", "name": "630aed973127eb88bbf65b786d8f8d12", "is_reserved": 0, "lon": -77.02306716666666, "is_disabled": 0, "fusion_lat": 0.0, "lat": 38.9612715, "bike_id": "630aed973127eb88bbf65b786d8f8d12", "fusion_lon": 0.0}, {"rental_uris": {"ios": "https://dc.lft.to/lastmile_qr_scan", "android": "https://dc.lft.to/lastmile_qr_scan"}, "type": "electric_scooter", "name": "2c2ccfe30909e0a434ec8214ea938fcb", "is_reserved": 0, "lon": -77.04207033333333, "is_disabled": 0, "fusion_lat": 0.0, "lat": 38.92104233333333, "bike_id": "2c2ccfe30909e0a434ec8214ea938fcb", "fusion_lon": 0.0}, {"rental_uris": {"ios": "https://dc.lft.to/lastmile_qr_scan", "android": "https://dc.lft.to/lastmile_qr_scan"}, "type": "electric_scooter", "name": "b5f59a1ec805dc54e70cb1c488398b1e", "is_reserved": 0, "lon": -77.03898266666667, "is_disabled": 0, "fusion_lat": 0.0, "lat": 38.92241933333333, "bike_id": "b5f59a1ec805dc54e70cb1c488398b1e", "fusion_lon": 0.0}, {"rental_uris": {"ios": "https://dc.lft.to/lastmile_qr_scan", "android": "https://dc.lft.to/lastmile_qr_scan"}, "type": "electric_scooter", "name": "5343cba493bd5741d4e628f23091b40f", "is_reserved": 0, "lon": -77.0134905, "is_disabled": 0, "fusion_lat": 0.0, "lat": 38.91935733333333, "bike_id": "5343cba493bd5741d4e628f23091b40f", "fusion_lon": 0.0}, {"rental_uris": {"ios": "https://dc.lft.to/lastmile_qr_scan", "android": "https://dc.lft.to/lastmile_qr_scan"}, "type": "electric_scooter", "name": "9c3dc463159404dff9dea3cb40569eea", "is_reserved": 0, "lon": -77.0383515, "is_disabled": 0, "fusion_lat": 0.0, "lat": 38.909705833333334, "bike_id": "9c3dc463159404dff9dea3cb40569eea", "fusion_lon": 0.0}, {"rental_uris": {"ios": "https://dc.lft.to/lastmile_qr_scan", "android": "https://dc.lft.to/lastmile_qr_scan"}, "type": "electric_scooter", "name": "bad550b3dbb1e7dbc422e96feeca4c06", "is_reserved": 0, "lon": -77.03697283333334, "is_disabled": 0, "fusion_lat": 0.0, "lat": 38.932837166666665, "bike_id": "bad550b3dbb1e7dbc422e96feeca4c06", "fusion_lon": 0.0}, {"rental_uris": {"ios": "https://dc.lft.to/lastmile_qr_scan", "android": "https://dc.lft.to/lastmile_qr_scan"}, "type": "electric_scooter", "name": "a35b3e89499a421afd10a59b8428678f", "is_reserved": 0, "lon": -77.02354766666667, "is_disabled": 0, "fusion_lat": 0.0, "lat": 38.93535166666667, "bike_id": "a35b3e89499a421afd10a59b8428678f", "fusion_lon": 0.0}, {"rental_uris": {"ios": "https://dc.lft.to/lastmile_qr_scan", "android": "https://dc.lft.to/lastmile_qr_scan"}, "type": "electric_scooter", "name": "95c27ad8e9bc44922621fc30bf4b93c1", "is_reserved": 0, "lon": -77.031917, "is_disabled": 0, "fusion_lat": 0.0, "lat": 38.908777666666666, "bike_id": "95c27ad8e9bc44922621fc30bf4b93c1", "fusion_lon": 0.0}, {"rental_uris": {"ios": "https://dc.lft.to/lastmile_qr_scan", "android": "https://dc.lft.to/lastmile_qr_scan"}, "type": "electric_scooter", "name": "fe9ff51b3a535e7c8a66220f2322009e", "is_reserved": 0, "lon": -77.0227385, "is_disabled": 0, "fusion_lat": 0.0, "lat": 38.924173833333334, "bike_id": "fe9ff51b3a535e7c8a66220f2322009e", "fusion_lon": 0.0}, {"rental_uris": {"ios": "https://dc.lft.to/lastmile_qr_scan", "android": "https://dc.lft.to/lastmile_qr_scan"}, "type": "electric_scooter", "name": "5e235d96ee4136562c4f16b297836af2", "is_reserved": 0, "lon": -77.065193, "is_disabled": 0, "fusion_lat": 0.0, "lat": 38.90587583333333, "bike_id": "5e235d96ee4136562c4f16b297836af2", "fusion_lon": 0.0}, {"rental_uris": {"ios": "https://dc.lft.to/lastmile_qr_scan", "android": "https://dc.lft.to/lastmile_qr_scan"}, "type": "electric_scooter", "name": "3c2f3e5839202e60647e65fb1ab463c7", "is_reserved": 0, "lon": -77.0423945, "is_disabled": 0, "fusion_lat": 0.0, "lat": 38.922060333333334, "bike_id": "3c2f3e5839202e60647e65fb1ab463c7", "fusion_lon": 0.0}, {"rental_uris": {"ios": "https://dc.lft.to/lastmile_qr_scan", "android": "https://dc.lft.to/lastmile_qr_scan"}, "type": "electric_scooter", "name": "b59b91279302b2d06eb0dd3abff1b7c2", "is_reserved": 0, "lon": -77.02120783333334, "is_disabled": 0, "fusion_lat": 0.0, "lat": 38.913337166666665, "bike_id": "b59b91279302b2d06eb0dd3abff1b7c2", "fusion_lon": 0.0}, {"rental_uris": {"ios": "https://dc.lft.to/lastmile_qr_scan", "android": "https://dc.lft.to/lastmile_qr_scan"}, "type": "electric_scooter", "name": "5e639e2bfa587facc1962e393f149f58", "is_reserved": 0, "lon": -77.03134783333333, "is_disabled": 0, "fusion_lat": 0.0, "lat": 38.923811666666666, "bike_id": "5e639e2bfa587facc1962e393f149f58", "fusion_lon": 0.0}, {"rental_uris": {"ios": "https://dc.lft.to/lastmile_qr_scan", "android": "https://dc.lft.to/lastmile_qr_scan"}, "type": "electric_scooter", "name": "1679d8e1a4503538db1836c6f627d5b5", "is_reserved": 0, "lon": -77.044806, "is_disabled": 0, "fusion_lat": 0.0, "lat": 38.915184333333336, "bike_id": "1679d8e1a4503538db1836c6f627d5b5", "fusion_lon": 0.0}, {"rental_uris": {"ios": "https://dc.lft.to/lastmile_qr_scan", "android": "https://dc.lft.to/lastmile_qr_scan"}, "type": "electric_scooter", "name": "d1b693028c63cf3589cac1e1673ff9e3", "is_reserved": 0, "lon": -77.0329225, "is_disabled": 0, "fusion_lat": 0.0, "lat": 38.9245855, "bike_id": "d1b693028c63cf3589cac1e1673ff9e3", "fusion_lon": 0.0}, {"rental_uris": {"ios": "https://dc.lft.to/lastmile_qr_scan", "android": "https://dc.lft.to/lastmile_qr_scan"}, "type": "electric_scooter", "name": "ae6729e658f0ec4aad8402af7013d7dd", "is_reserved": 0, "lon": -77.03660266666667, "is_disabled": 0, "fusion_lat": 0.0, "lat": 38.910094666666666, "bike_id": "ae6729e658f0ec4aad8402af7013d7dd", "fusion_lon": 0.0}, {"rental_uris": {"ios": "https://dc.lft.to/lastmile_qr_scan", "android": "https://dc.lft.to/lastmile_qr_scan"}, "type": "electric_scooter", "name": "809c11440816c23a9f681af22cb5b009", "is_reserved": 0, "lon": -77.00319433333334, "is_disabled": 0, "fusion_lat": 0.0, "lat": 38.9189795, "bike_id": "809c11440816c23a9f681af22cb5b009", "fusion_lon": 0.0}, {"rental_uris": {"ios": "https://dc.lft.to/lastmile_qr_scan", "android": "https://dc.lft.to/lastmile_qr_scan"}, "type": "electric_scooter", "name": "6cd2dd4e2f100aa2bd1544786b30012b", "is_reserved": 0, "lon": -77.04967583333334, "is_disabled": 0, "fusion_lat": 0.0, "lat": 38.91330416666667, "bike_id": "6cd2dd4e2f100aa2bd1544786b30012b", "fusion_lon": 0.0}, {"rental_uris": {"ios": "https://dc.lft.to/lastmile_qr_scan", "android": "https://dc.lft.to/lastmile_qr_scan"}, "type": "electric_scooter", "name": "78c0a17639bdfa90066ac927accef2b7", "is_reserved": 0, "lon": -77.03959, "is_disabled": 0, "fusion_lat": 0.0, "lat": 38.89249066666667, "bike_id": "78c0a17639bdfa90066ac927accef2b7", "fusion_lon": 0.0}, {"rental_uris": {"ios": "https://dc.lft.to/lastmile_qr_scan", "android": "https://dc.lft.to/lastmile_qr_scan"}, "type": "electric_scooter", "name": "3cbcbf12b8996527f82b617e360f7a65", "is_reserved": 0, "lon": -77.04113066666666, "is_disabled": 0, "fusion_lat": 0.0, "lat": 38.93468216666667, "bike_id": "3cbcbf12b8996527f82b617e360f7a65", "fusion_lon": 0.0}, {"rental_uris": {"ios": "https://dc.lft.to/lastmile_qr_scan", "android": "https://dc.lft.to/lastmile_qr_scan"}, "type": "electric_scooter", "name": "083f18cf411878644d8403fe6ec44d85", "is_reserved": 0, "lon": -77.01607383333334, "is_disabled": 0, "fusion_lat": 0.0, "lat": 38.899631, "bike_id": "083f18cf411878644d8403fe6ec44d85", "fusion_lon": 0.0}, {"rental_uris": {"ios": "https://dc.lft.to/lastmile_qr_scan", "android": "https://dc.lft.to/lastmile_qr_scan"}, "type": "electric_scooter", "name": "5c6d1da436a01f99442f77b331e84115", "is_reserved": 0, "lon": -77.02442616666667, "is_disabled": 0, "fusion_lat": 0.0, "lat": 38.901082833333334, "bike_id": "5c6d1da436a01f99442f77b331e84115", "fusion_lon": 0.0}, {"rental_uris": {"ios": "https://dc.lft.to/lastmile_qr_scan", "android": "https://dc.lft.to/lastmile_qr_scan"}, "type": "electric_bike", "name": "b495a1654abd1aa6020d74155efc2309", "is_reserved": 0, "lon": -76.94162283333333, "is_disabled": 0, "fusion_lat": 0.0, "lat": 38.8655325, "bike_id": "b495a1654abd1aa6020d74155efc2309", "fusion_lon": 0.0}, {"rental_uris": {"ios": "https://dc.lft.to/lastmile_qr_scan", "android": "https://dc.lft.to/lastmile_qr_scan"}, "type": "electric_scooter", "name": "376d2f86123bcad2cee4162242de6239", "is_reserved": 0, "lon": -77.04870616666666, "is_disabled": 0, "fusion_lat": 0.0, "lat": 38.913394333333336, "bike_id": "376d2f86123bcad2cee4162242de6239", "fusion_lon": 0.0}, {"rental_uris": {"ios": "https://dc.lft.to/lastmile_qr_scan", "android": "https://dc.lft.to/lastmile_qr_scan"}, "type": "electric_scooter", "name": "889f5ca4bed768e53649e033c0626eca", "is_reserved": 0, "lon": -77.0460585, "is_disabled": 0, "fusion_lat": 0.0, "lat": 38.91495233333333, "bike_id": "889f5ca4bed768e53649e033c0626eca", "fusion_lon": 0.0}, {"rental_uris": {"ios": "https://dc.lft.to/lastmile_qr_scan", "android": "https://dc.lft.to/lastmile_qr_scan"}, "type": "electric_scooter", "name": "d01bd33f586206e2bdedf32fe04919b5", "is_reserved": 0, "lon": -76.9802875, "is_disabled": 0, "fusion_lat": 0.0, "lat": 38.91678683333333, "bike_id": "d01bd33f586206e2bdedf32fe04919b5", "fusion_lon": 0.0}, {"rental_uris": {"ios": "https://dc.lft.to/lastmile_qr_scan", "android": "https://dc.lft.to/lastmile_qr_scan"}, "type": "electric_scooter", "name": "dd0be745a981351f90de66b346f0d40d", "is_reserved": 0, "lon": -77.036615, "is_disabled": 0, "fusion_lat": 0.0, "lat": 38.913873333333335, "bike_id": "dd0be745a981351f90de66b346f0d40d", "fusion_lon": 0.0}, {"rental_uris": {"ios": "https://dc.lft.to/lastmile_qr_scan", "android": "https://dc.lft.to/lastmile_qr_scan"}, "type": "electric_scooter", "name": "9c59b9375c9f88124212bfa739c95610", "is_reserved": 0, "lon": -77.02973066666667, "is_disabled": 0, "fusion_lat": 0.0, "lat": 38.917292, "bike_id": "9c59b9375c9f88124212bfa739c95610", "fusion_lon": 0.0}, {"rental_uris": {"ios": "https://dc.lft.to/lastmile_qr_scan", "android": "https://dc.lft.to/lastmile_qr_scan"}, "type": "electric_scooter", "name": "923dc1e349338053d214f702bde92f30", "is_reserved": 0, "lon": -77.04191066666667, "is_disabled": 0, "fusion_lat": 0.0, "lat": 38.9220595, "bike_id": "923dc1e349338053d214f702bde92f30", "fusion_lon": 0.0}, {"rental_uris": {"ios": "https://dc.lft.to/lastmile_qr_scan", "android": "https://dc.lft.to/lastmile_qr_scan"}, "type": "electric_scooter", "name": "6b7fdbad8f743c2720a5ffc903642d4f", "is_reserved": 0, "lon": -77.05869416666667, "is_disabled": 0, "fusion_lat": 0.0, "lat": 38.942437, "bike_id": "6b7fdbad8f743c2720a5ffc903642d4f", "fusion_lon": 0.0}, {"rental_uris": {"ios": "https://dc.lft.to/lastmile_qr_scan", "android": "https://dc.lft.to/lastmile_qr_scan"}, "type": "electric_scooter", "name": "ffbfa62061a9d714009cf8c42513dbe3", "is_reserved": 0, "lon": -77.0295955, "is_disabled": 0, "fusion_lat": 0.0, "lat": 38.907059, "bike_id": "ffbfa62061a9d714009cf8c42513dbe3", "fusion_lon": 0.0}, {"rental_uris": {"ios": "https://dc.lft.to/lastmile_qr_scan", "android": "https://dc.lft.to/lastmile_qr_scan"}, "type": "electric_scooter", "name": "66dd7ea36af2e0f1f15e2b387c7033c4", "is_reserved": 0, "lon": -77.06775683333333, "is_disabled": 0, "fusion_lat": 0.0, "lat": 38.904122, "bike_id": "66dd7ea36af2e0f1f15e2b387c7033c4", "fusion_lon": 0.0}, {"rental_uris": {"ios": "https://dc.lft.to/lastmile_qr_scan", "android": "https://dc.lft.to/lastmile_qr_scan"}, "type": "electric_scooter", "name": "378b7a1fa59a1c11d0b065d561c60f98", "is_reserved": 0, "lon": -77.01819466666667, "is_disabled": 0, "fusion_lat": 0.0, "lat": 38.920412166666665, "bike_id": "378b7a1fa59a1c11d0b065d561c60f98", "fusion_lon": 0.0}, {"rental_uris": {"ios": "https://dc.lft.to/lastmile_qr_scan", "android": "https://dc.lft.to/lastmile_qr_scan"}, "type": "electric_scooter", "name": "4a7cf527ff5376c86cf167750d73c684", "is_reserved": 0, "lon": -76.99553133333333, "is_disabled": 0, "fusion_lat": 0.0, "lat": 38.9267585, "bike_id": "4a7cf527ff5376c86cf167750d73c684", "fusion_lon": 0.0}, {"rental_uris": {"ios": "https://dc.lft.to/lastmile_qr_scan", "android": "https://dc.lft.to/lastmile_qr_scan"}, "type": "electric_scooter", "name": "cf7cfb68f44c40f616fc8fb772dc41f9", "is_reserved": 0, "lon": -77.03892, "is_disabled": 0, "fusion_lat": 0.0, "lat": 38.92441316666667, "bike_id": "cf7cfb68f44c40f616fc8fb772dc41f9", "fusion_lon": 0.0}, {"rental_uris": {"ios": "https://dc.lft.to/lastmile_qr_scan", "android": "https://dc.lft.to/lastmile_qr_scan"}, "type": "electric_scooter", "name": "901fea7e35983f3374673d30101999fe", "is_reserved": 0, "lon": -76.92605683333333, "is_disabled": 0, "fusion_lat": 0.0, "lat": 38.8854895, "bike_id": "901fea7e35983f3374673d30101999fe", "fusion_lon": 0.0}, {"rental_uris": {"ios": "https://dc.lft.to/lastmile_qr_scan", "android": "https://dc.lft.to/lastmile_qr_scan"}, "type": "electric_scooter", "name": "d93954f5466aab32f5edcebc633aaec0", "is_reserved": 0, "lon": -77.036626, "is_disabled": 0, "fusion_lat": 0.0, "lat": 38.936305833333336, "bike_id": "d93954f5466aab32f5edcebc633aaec0", "fusion_lon": 0.0}, {"rental_uris": {"ios": "https://dc.lft.to/lastmile_qr_scan", "android": "https://dc.lft.to/lastmile_qr_scan"}, "type": "electric_scooter", "name": "ed9bf0c6b2096875a8ee5e09c075426e", "is_reserved": 0, "lon": -76.970418, "is_disabled": 0, "fusion_lat": 0.0, "lat": 38.863339, "bike_id": "ed9bf0c6b2096875a8ee5e09c075426e", "fusion_lon": 0.0}, {"rental_uris": {"ios": "https://dc.lft.to/lastmile_qr_scan", "android": "https://dc.lft.to/lastmile_qr_scan"}, "type": "electric_scooter", "name": "695bda5ad69d73891a86db926b00ca7f", "is_reserved": 0, "lon": -77.0325425, "is_disabled": 0, "fusion_lat": 0.0, "lat": 38.928803, "bike_id": "695bda5ad69d73891a86db926b00ca7f", "fusion_lon": 0.0}, {"rental_uris": {"ios": "https://dc.lft.to/lastmile_qr_scan", "android": "https://dc.lft.to/lastmile_qr_scan"}, "type": "electric_scooter", "name": "97597bb14bef55c0291d2440e4a9528d", "is_reserved": 0, "lon": -76.998394, "is_disabled": 0, "fusion_lat": 0.0, "lat": 38.89189733333333, "bike_id": "97597bb14bef55c0291d2440e4a9528d", "fusion_lon": 0.0}, {"rental_uris": {"ios": "https://dc.lft.to/lastmile_qr_scan", "android": "https://dc.lft.to/lastmile_qr_scan"}, "type": "electric_scooter", "name": "b55df2b84fd4b90b01b06adebc0bc44e", "is_reserved": 0, "lon": -77.0349895, "is_disabled": 0, "fusion_lat": 0.0, "lat": 38.934610666666664, "bike_id": "b55df2b84fd4b90b01b06adebc0bc44e", "fusion_lon": 0.0}, {"rental_uris": {"ios": "https://dc.lft.to/lastmile_qr_scan", "android": "https://dc.lft.to/lastmile_qr_scan"}, "type": "electric_scooter", "name": "2ac2364693bbf7216ab18d595f627cdd", "is_reserved": 0, "lon": -77.0395645, "is_disabled": 0, "fusion_lat": 0.0, "lat": 38.892414, "bike_id": "2ac2364693bbf7216ab18d595f627cdd", "fusion_lon": 0.0}, {"rental_uris": {"ios": "https://dc.lft.to/lastmile_qr_scan", "android": "https://dc.lft.to/lastmile_qr_scan"}, "type": "electric_scooter", "name": "66656b186b130b933aa6b023d8e95975", "is_reserved": 0, "lon": -76.9923375, "is_disabled": 0, "fusion_lat": 0.0, "lat": 38.887518166666666, "bike_id": "66656b186b130b933aa6b023d8e95975", "fusion_lon": 0.0}, {"rental_uris": {"ios": "https://dc.lft.to/lastmile_qr_scan", "android": "https://dc.lft.to/lastmile_qr_scan"}, "type": "electric_scooter", "name": "26feb3f6c2516e72f68fafebd2098e52", "is_reserved": 0, "lon": -77.02210583333333, "is_disabled": 0, "fusion_lat": 0.0, "lat": 38.9101, "bike_id": "26feb3f6c2516e72f68fafebd2098e52", "fusion_lon": 0.0}, {"rental_uris": {"ios": "https://dc.lft.to/lastmile_qr_scan", "android": "https://dc.lft.to/lastmile_qr_scan"}, "type": "electric_scooter", "name": "3232914d446aa38d509efd39dfd29e22", "is_reserved": 0, "lon": -77.03358483333334, "is_disabled": 0, "fusion_lat": 0.0, "lat": 38.92883633333334, "bike_id": "3232914d446aa38d509efd39dfd29e22", "fusion_lon": 0.0}, {"rental_uris": {"ios": "https://dc.lft.to/lastmile_qr_scan", "android": "https://dc.lft.to/lastmile_qr_scan"}, "type": "electric_scooter", "name": "a1dc2b0ebdec0075d24ebf268ce333d7", "is_reserved": 0, "lon": -77.04137233333333, "is_disabled": 0, "fusion_lat": 0.0, "lat": 38.906054, "bike_id": "a1dc2b0ebdec0075d24ebf268ce333d7", "fusion_lon": 0.0}, {"rental_uris": {"ios": "https://dc.lft.to/lastmile_qr_scan", "android": "https://dc.lft.to/lastmile_qr_scan"}, "type": "electric_scooter", "name": "7ea9eaf43efe2cdeeccaec7d728ef179", "is_reserved": 0, "lon": -77.01328, "is_disabled": 0, "fusion_lat": 0.0, "lat": 38.91255966666667, "bike_id": "7ea9eaf43efe2cdeeccaec7d728ef179", "fusion_lon": 0.0}, {"rental_uris": {"ios": "https://dc.lft.to/lastmile_qr_scan", "android": "https://dc.lft.to/lastmile_qr_scan"}, "type": "electric_scooter", "name": "1f52bd0875d7f88b2ce8b262f54cc1be", "is_reserved": 0, "lon": -77.03173266666667, "is_disabled": 0, "fusion_lat": 0.0, "lat": 38.88732616666667, "bike_id": "1f52bd0875d7f88b2ce8b262f54cc1be", "fusion_lon": 0.0}, {"rental_uris": {"ios": "https://dc.lft.to/lastmile_qr_scan", "android": "https://dc.lft.to/lastmile_qr_scan"}, "type": "electric_scooter", "name": "666d4b77194ac8762942abc780645834", "is_reserved": 0, "lon": -77.02482666666667, "is_disabled": 0, "fusion_lat": 0.0, "lat": 38.93959183333333, "bike_id": "666d4b77194ac8762942abc780645834", "fusion_lon": 0.0}, {"rental_uris": {"ios": "https://dc.lft.to/lastmile_qr_scan", "android": "https://dc.lft.to/lastmile_qr_scan"}, "type": "electric_scooter", "name": "5ee83048c76b6950af710b565fb224cc", "is_reserved": 0, "lon": -77.00759783333334, "is_disabled": 0, "fusion_lat": 0.0, "lat": 38.9072675, "bike_id": "5ee83048c76b6950af710b565fb224cc", "fusion_lon": 0.0}, {"rental_uris": {"ios": "https://dc.lft.to/lastmile_qr_scan", "android": "https://dc.lft.to/lastmile_qr_scan"}, "type": "electric_scooter", "name": "eeaa93dbbd77fb178814012cca9b17c6", "is_reserved": 0, "lon": -76.9795605, "is_disabled": 0, "fusion_lat": 0.0, "lat": 38.89617066666667, "bike_id": "eeaa93dbbd77fb178814012cca9b17c6", "fusion_lon": 0.0}, {"rental_uris": {"ios": "https://dc.lft.to/lastmile_qr_scan", "android": "https://dc.lft.to/lastmile_qr_scan"}, "type": "electric_bike", "name": "d654d54ff9d4a8d71d3431fa14c6c586", "is_reserved": 0, "lon": -76.90735866666667, "is_disabled": 0, "fusion_lat": 0.0, "lat": 38.896153, "bike_id": "d654d54ff9d4a8d71d3431fa14c6c586", "fusion_lon": 0.0}, {"rental_uris": {"ios": "https://dc.lft.to/lastmile_qr_scan", "android": "https://dc.lft.to/lastmile_qr_scan"}, "type": "electric_scooter", "name": "6c78072099368d69fe6f4ba477c478f6", "is_reserved": 0, "lon": -77.05620933333333, "is_disabled": 0, "fusion_lat": 0.0, "lat": 38.90686516666667, "bike_id": "6c78072099368d69fe6f4ba477c478f6", "fusion_lon": 0.0}, {"rental_uris": {"ios": "https://dc.lft.to/lastmile_qr_scan", "android": "https://dc.lft.to/lastmile_qr_scan"}, "type": "electric_scooter", "name": "579455537ef3fd7a1558863586f37300", "is_reserved": 0, "lon": -77.021313, "is_disabled": 0, "fusion_lat": 0.0, "lat": 38.926949, "bike_id": "579455537ef3fd7a1558863586f37300", "fusion_lon": 0.0}, {"rental_uris": {"ios": "https://dc.lft.to/lastmile_qr_scan", "android": "https://dc.lft.to/lastmile_qr_scan"}, "type": "electric_scooter", "name": "ac643c1d233943674b7723ecae5a94e3", "is_reserved": 0, "lon": -77.032612, "is_disabled": 0, "fusion_lat": 0.0, "lat": 38.927388, "bike_id": "ac643c1d233943674b7723ecae5a94e3", "fusion_lon": 0.0}, {"rental_uris": {"ios": "https://dc.lft.to/lastmile_qr_scan", "android": "https://dc.lft.to/lastmile_qr_scan"}, "type": "electric_scooter", "name": "3d8c25191ec54aecd654f1e53054c1bc", "is_reserved": 0, "lon": -77.02375983333333, "is_disabled": 0, "fusion_lat": 0.0, "lat": 38.909593666666666, "bike_id": "3d8c25191ec54aecd654f1e53054c1bc", "fusion_lon": 0.0}, {"rental_uris": {"ios": "https://dc.lft.to/lastmile_qr_scan", "android": "https://dc.lft.to/lastmile_qr_scan"}, "type": "electric_scooter", "name": "3b0a524ba051b96aa03ec017edb522fe", "is_reserved": 0, "lon": -77.03043916666667, "is_disabled": 0, "fusion_lat": 0.0, "lat": 38.924799666666665, "bike_id": "3b0a524ba051b96aa03ec017edb522fe", "fusion_lon": 0.0}, {"rental_uris": {"ios": "https://dc.lft.to/lastmile_qr_scan", "android": "https://dc.lft.to/lastmile_qr_scan"}, "type": "electric_scooter", "name": "a17379cf6129261e5d31e2d917039f85", "is_reserved": 0, "lon": -77.04339783333333, "is_disabled": 0, "fusion_lat": 0.0, "lat": 38.90850233333333, "bike_id": "a17379cf6129261e5d31e2d917039f85", "fusion_lon": 0.0}, {"rental_uris": {"ios": "https://dc.lft.to/lastmile_qr_scan", "android": "https://dc.lft.to/lastmile_qr_scan"}, "type": "electric_scooter", "name": "aed6131eca1b927d301f3bfd888cf535", "is_reserved": 0, "lon": -77.02398633333334, "is_disabled": 0, "fusion_lat": 0.0, "lat": 38.9196315, "bike_id": "aed6131eca1b927d301f3bfd888cf535", "fusion_lon": 0.0}, {"rental_uris": {"ios": "https://dc.lft.to/lastmile_qr_scan", "android": "https://dc.lft.to/lastmile_qr_scan"}, "type": "electric_bike", "name": "86d52a89260dbc9bfdc67807357c663c", "is_reserved": 0, "lon": -76.988401, "is_disabled": 0, "fusion_lat": 0.0, "lat": 38.84275, "bike_id": "86d52a89260dbc9bfdc67807357c663c", "fusion_lon": 0.0}, {"rental_uris": {"ios": "https://dc.lft.to/lastmile_qr_scan", "android": "https://dc.lft.to/lastmile_qr_scan"}, "type": "electric_scooter", "name": "15479835376296366d496508c17fdc42", "is_reserved": 0, "lon": -77.03233733333333, "is_disabled": 0, "fusion_lat": 0.0, "lat": 38.9072725, "bike_id": "15479835376296366d496508c17fdc42", "fusion_lon": 0.0}, {"rental_uris": {"ios": "https://dc.lft.to/lastmile_qr_scan", "android": "https://dc.lft.to/lastmile_qr_scan"}, "type": "electric_scooter", "name": "c112c8c1e318a43f8a261cc225e215c1", "is_reserved": 0, "lon": -77.03577366666667, "is_disabled": 0, "fusion_lat": 0.0, "lat": 38.927944333333336, "bike_id": "c112c8c1e318a43f8a261cc225e215c1", "fusion_lon": 0.0}, {"rental_uris": {"ios": "https://dc.lft.to/lastmile_qr_scan", "android": "https://dc.lft.to/lastmile_qr_scan"}, "type": "electric_scooter", "name": "956583e34663c39a02bab679901bc9c1", "is_reserved": 0, "lon": -77.02449633333333, "is_disabled": 0, "fusion_lat": 0.0, "lat": 38.899910166666665, "bike_id": "956583e34663c39a02bab679901bc9c1", "fusion_lon": 0.0}, {"rental_uris": {"ios": "https://dc.lft.to/lastmile_qr_scan", "android": "https://dc.lft.to/lastmile_qr_scan"}, "type": "electric_scooter", "name": "eaed7a7ab54d292113c747351c8f9df3", "is_reserved": 0, "lon": -77.0400655, "is_disabled": 0, "fusion_lat": 0.0, "lat": 38.911905833333336, "bike_id": "eaed7a7ab54d292113c747351c8f9df3", "fusion_lon": 0.0}, {"rental_uris": {"ios": "https://dc.lft.to/lastmile_qr_scan", "android": "https://dc.lft.to/lastmile_qr_scan"}, "type": "electric_scooter", "name": "176c8976ff55f76eb6af3758b0454bc0", "is_reserved": 0, "lon": -77.0472185, "is_disabled": 0, "fusion_lat": 0.0, "lat": 38.905909333333334, "bike_id": "176c8976ff55f76eb6af3758b0454bc0", "fusion_lon": 0.0}, {"rental_uris": {"ios": "https://dc.lft.to/lastmile_qr_scan", "android": "https://dc.lft.to/lastmile_qr_scan"}, "type": "electric_scooter", "name": "15d7a50f74abbbc8506114bacc92de28", "is_reserved": 0, "lon": -77.0226685, "is_disabled": 0, "fusion_lat": 0.0, "lat": 38.927410333333334, "bike_id": "15d7a50f74abbbc8506114bacc92de28", "fusion_lon": 0.0}, {"rental_uris": {"ios": "https://dc.lft.to/lastmile_qr_scan", "android": "https://dc.lft.to/lastmile_qr_scan"}, "type": "electric_bike", "name": "cfdb584b960b2938eddfd7bfb67af485", "is_reserved": 0, "lon": -76.97528966666667, "is_disabled": 0, "fusion_lat": 0.0, "lat": 38.90329933333334, "bike_id": "cfdb584b960b2938eddfd7bfb67af485", "fusion_lon": 0.0}, {"rental_uris": {"ios": "https://dc.lft.to/lastmile_qr_scan", "android": "https://dc.lft.to/lastmile_qr_scan"}, "type": "electric_scooter", "name": "143ce4945c449f3c31218c53c85acd8d", "is_reserved": 0, "lon": -77.03248883333333, "is_disabled": 0, "fusion_lat": 0.0, "lat": 38.91713266666667, "bike_id": "143ce4945c449f3c31218c53c85acd8d", "fusion_lon": 0.0}, {"rental_uris": {"ios": "https://dc.lft.to/lastmile_qr_scan", "android": "https://dc.lft.to/lastmile_qr_scan"}, "type": "electric_scooter", "name": "ced35634bdc7305e5350384be9bee00e", "is_reserved": 0, "lon": -77.03083466666666, "is_disabled": 0, "fusion_lat": 0.0, "lat": 38.938777, "bike_id": "ced35634bdc7305e5350384be9bee00e", "fusion_lon": 0.0}, {"rental_uris": {"ios": "https://dc.lft.to/lastmile_qr_scan", "android": "https://dc.lft.to/lastmile_qr_scan"}, "type": "electric_scooter", "name": "61cb1c5bf979027738306186c7de433b", "is_reserved": 0, "lon": -77.02209233333333, "is_disabled": 0, "fusion_lat": 0.0, "lat": 38.887395, "bike_id": "61cb1c5bf979027738306186c7de433b", "fusion_lon": 0.0}, {"rental_uris": {"ios": "https://dc.lft.to/lastmile_qr_scan", "android": "https://dc.lft.to/lastmile_qr_scan"}, "type": "electric_scooter", "name": "8bb9442e561686f76472439e56271461", "is_reserved": 0, "lon": -77.0486635, "is_disabled": 0, "fusion_lat": 0.0, "lat": 38.89901616666667, "bike_id": "8bb9442e561686f76472439e56271461", "fusion_lon": 0.0}, {"rental_uris": {"ios": "https://dc.lft.to/lastmile_qr_scan", "android": "https://dc.lft.to/lastmile_qr_scan"}, "type": "electric_scooter", "name": "d7b3f015be9855a35703cbc7a9c71498", "is_reserved": 0, "lon": -77.0221205, "is_disabled": 0, "fusion_lat": 0.0, "lat": 38.9127005, "bike_id": "d7b3f015be9855a35703cbc7a9c71498", "fusion_lon": 0.0}, {"rental_uris": {"ios": "https://dc.lft.to/lastmile_qr_scan", "android": "https://dc.lft.to/lastmile_qr_scan"}, "type": "electric_scooter", "name": "0533062ec63e59f84197f273b6737f8f", "is_reserved": 0, "lon": -77.01817633333333, "is_disabled": 0, "fusion_lat": 0.0, "lat": 38.91107016666667, "bike_id": "0533062ec63e59f84197f273b6737f8f", "fusion_lon": 0.0}, {"rental_uris": {"ios": "https://dc.lft.to/lastmile_qr_scan", "android": "https://dc.lft.to/lastmile_qr_scan"}, "type": "electric_bike", "name": "da71319614e585f93cab07fdbfd26d52", "is_reserved": 0, "lon": -76.97427033333334, "is_disabled": 0, "fusion_lat": 0.0, "lat": 38.932326833333335, "bike_id": "da71319614e585f93cab07fdbfd26d52", "fusion_lon": 0.0}, {"rental_uris": {"ios": "https://dc.lft.to/lastmile_qr_scan", "android": "https://dc.lft.to/lastmile_qr_scan"}, "type": "electric_scooter", "name": "22257470d47ad5050a24a31294f65fc7", "is_reserved": 0, "lon": -77.0343975, "is_disabled": 0, "fusion_lat": 0.0, "lat": 38.9343195, "bike_id": "22257470d47ad5050a24a31294f65fc7", "fusion_lon": 0.0}, {"rental_uris": {"ios": "https://dc.lft.to/lastmile_qr_scan", "android": "https://dc.lft.to/lastmile_qr_scan"}, "type": "electric_scooter", "name": "6ae6170e394faac2e33ba47f841d271f", "is_reserved": 0, "lon": -77.05688116666667, "is_disabled": 0, "fusion_lat": 0.0, "lat": 38.93388233333334, "bike_id": "6ae6170e394faac2e33ba47f841d271f", "fusion_lon": 0.0}, {"rental_uris": {"ios": "https://dc.lft.to/lastmile_qr_scan", "android": "https://dc.lft.to/lastmile_qr_scan"}, "type": "electric_scooter", "name": "2a65b6995c92f81277e1db5311f4dda2", "is_reserved": 0, "lon": -76.99387616666667, "is_disabled": 0, "fusion_lat": 0.0, "lat": 38.91014933333334, "bike_id": "2a65b6995c92f81277e1db5311f4dda2", "fusion_lon": 0.0}, {"rental_uris": {"ios": "https://dc.lft.to/lastmile_qr_scan", "android": "https://dc.lft.to/lastmile_qr_scan"}, "type": "electric_scooter", "name": "e681691560bfa5c39b28cf5b08d31802", "is_reserved": 0, "lon": -77.038366, "is_disabled": 0, "fusion_lat": 0.0, "lat": 38.9039335, "bike_id": "e681691560bfa5c39b28cf5b08d31802", "fusion_lon": 0.0}, {"rental_uris": {"ios": "https://dc.lft.to/lastmile_qr_scan", "android": "https://dc.lft.to/lastmile_qr_scan"}, "type": "electric_scooter", "name": "21ee2ac79a2cd67473e92c07d0af5eba", "is_reserved": 0, "lon": -77.0262645, "is_disabled": 0, "fusion_lat": 0.0, "lat": 38.89220316666667, "bike_id": "21ee2ac79a2cd67473e92c07d0af5eba", "fusion_lon": 0.0}, {"rental_uris": {"ios": "https://dc.lft.to/lastmile_qr_scan", "android": "https://dc.lft.to/lastmile_qr_scan"}, "type": "electric_scooter", "name": "10dd9897f2e5af86b0630cec3ca7b94f", "is_reserved": 0, "lon": -77.02095583333333, "is_disabled": 0, "fusion_lat": 0.0, "lat": 38.92319766666667, "bike_id": "10dd9897f2e5af86b0630cec3ca7b94f", "fusion_lon": 0.0}, {"rental_uris": {"ios": "https://dc.lft.to/lastmile_qr_scan", "android": "https://dc.lft.to/lastmile_qr_scan"}, "type": "electric_scooter", "name": "36dc659b792d313b6f07eb94ee97f592", "is_reserved": 0, "lon": -77.045646, "is_disabled": 0, "fusion_lat": 0.0, "lat": 38.91407433333333, "bike_id": "36dc659b792d313b6f07eb94ee97f592", "fusion_lon": 0.0}, {"rental_uris": {"ios": "https://dc.lft.to/lastmile_qr_scan", "android": "https://dc.lft.to/lastmile_qr_scan"}, "type": "electric_scooter", "name": "42aeda32f7116c6e13b0161a148e614a", "is_reserved": 0, "lon": -77.03173583333333, "is_disabled": 0, "fusion_lat": 0.0, "lat": 38.9202255, "bike_id": "42aeda32f7116c6e13b0161a148e614a", "fusion_lon": 0.0}, {"rental_uris": {"ios": "https://dc.lft.to/lastmile_qr_scan", "android": "https://dc.lft.to/lastmile_qr_scan"}, "type": "electric_scooter", "name": "e1528f1df426b6590d87dada7891696c", "is_reserved": 0, "lon": -77.0052895, "is_disabled": 0, "fusion_lat": 0.0, "lat": 38.8792775, "bike_id": "e1528f1df426b6590d87dada7891696c", "fusion_lon": 0.0}, {"rental_uris": {"ios": "https://dc.lft.to/lastmile_qr_scan", "android": "https://dc.lft.to/lastmile_qr_scan"}, "type": "electric_bike", "name": "12d50551c9aecd70e8e3ad29727c1a2b", "is_reserved": 0, "lon": -77.00677883333333, "is_disabled": 0, "fusion_lat": 0.0, "lat": 38.945146, "bike_id": "12d50551c9aecd70e8e3ad29727c1a2b", "fusion_lon": 0.0}, {"rental_uris": {"ios": "https://dc.lft.to/lastmile_qr_scan", "android": "https://dc.lft.to/lastmile_qr_scan"}, "type": "electric_scooter", "name": "bf8a8577402af3224845fd16ce57ed33", "is_reserved": 0, "lon": -77.0386095, "is_disabled": 0, "fusion_lat": 0.0, "lat": 38.911743333333334, "bike_id": "bf8a8577402af3224845fd16ce57ed33", "fusion_lon": 0.0}, {"rental_uris": {"ios": "https://dc.lft.to/lastmile_qr_scan", "android": "https://dc.lft.to/lastmile_qr_scan"}, "type": "electric_scooter", "name": "0539d73b7e80bad5726d87a029c2601f", "is_reserved": 0, "lon": -77.00742833333334, "is_disabled": 0, "fusion_lat": 0.0, "lat": 38.87668716666667, "bike_id": "0539d73b7e80bad5726d87a029c2601f", "fusion_lon": 0.0}, {"rental_uris": {"ios": "https://dc.lft.to/lastmile_qr_scan", "android": "https://dc.lft.to/lastmile_qr_scan"}, "type": "electric_scooter", "name": "9bb83ed935e1c4ffa73cfebff48abca3", "is_reserved": 0, "lon": -77.03280966666667, "is_disabled": 0, "fusion_lat": 0.0, "lat": 38.898867, "bike_id": "9bb83ed935e1c4ffa73cfebff48abca3", "fusion_lon": 0.0}, {"rental_uris": {"ios": "https://dc.lft.to/lastmile_qr_scan", "android": "https://dc.lft.to/lastmile_qr_scan"}, "type": "electric_scooter", "name": "b55807924c58e4635711887bc7498c17", "is_reserved": 0, "lon": -77.02978616666667, "is_disabled": 0, "fusion_lat": 0.0, "lat": 38.904649, "bike_id": "b55807924c58e4635711887bc7498c17", "fusion_lon": 0.0}, {"rental_uris": {"ios": "https://dc.lft.to/lastmile_qr_scan", "android": "https://dc.lft.to/lastmile_qr_scan"}, "type": "electric_scooter", "name": "708a887b372a1995d19ada98aa675a9f", "is_reserved": 0, "lon": -77.02379116666667, "is_disabled": 0, "fusion_lat": 0.0, "lat": 38.93376216666667, "bike_id": "708a887b372a1995d19ada98aa675a9f", "fusion_lon": 0.0}, {"rental_uris": {"ios": "https://dc.lft.to/lastmile_qr_scan", "android": "https://dc.lft.to/lastmile_qr_scan"}, "type": "electric_scooter", "name": "e19c0995e74bc8761d2275d71741a94a", "is_reserved": 0, "lon": -77.037867, "is_disabled": 0, "fusion_lat": 0.0, "lat": 38.939703333333334, "bike_id": "e19c0995e74bc8761d2275d71741a94a", "fusion_lon": 0.0}, {"rental_uris": {"ios": "https://dc.lft.to/lastmile_qr_scan", "android": "https://dc.lft.to/lastmile_qr_scan"}, "type": "electric_bike", "name": "5030c0d9cb5f4bd67494856acd6e51bc", "is_reserved": 0, "lon": -76.9576185, "is_disabled": 0, "fusion_lat": 0.0, "lat": 38.884879166666664, "bike_id": "5030c0d9cb5f4bd67494856acd6e51bc", "fusion_lon": 0.0}, {"rental_uris": {"ios": "https://dc.lft.to/lastmile_qr_scan", "android": "https://dc.lft.to/lastmile_qr_scan"}, "type": "electric_scooter", "name": "1a9b9bb6a5d40fb5a74f1558a8f9b67f", "is_reserved": 0, "lon": -77.02207433333334, "is_disabled": 0, "fusion_lat": 0.0, "lat": 38.887151833333334, "bike_id": "1a9b9bb6a5d40fb5a74f1558a8f9b67f", "fusion_lon": 0.0}, {"rental_uris": {"ios": "https://dc.lft.to/lastmile_qr_scan", "android": "https://dc.lft.to/lastmile_qr_scan"}, "type": "electric_scooter", "name": "f7962c1d045dfb613edbbd41e2612bb4", "is_reserved": 0, "lon": -77.04695783333334, "is_disabled": 0, "fusion_lat": 0.0, "lat": 38.92167216666667, "bike_id": "f7962c1d045dfb613edbbd41e2612bb4", "fusion_lon": 0.0}, {"rental_uris": {"ios": "https://dc.lft.to/lastmile_qr_scan", "android": "https://dc.lft.to/lastmile_qr_scan"}, "type": "electric_bike", "name": "31c951e1572569e6ea10a1143f432e9d", "is_reserved": 0, "lon": -76.98470566666667, "is_disabled": 0, "fusion_lat": 0.0, "lat": 38.90970866666667, "bike_id": "31c951e1572569e6ea10a1143f432e9d", "fusion_lon": 0.0}, {"rental_uris": {"ios": "https://dc.lft.to/lastmile_qr_scan", "android": "https://dc.lft.to/lastmile_qr_scan"}, "type": "electric_scooter", "name": "96a4f759fd19825ccfadb5e5fc0a8d26", "is_reserved": 0, "lon": -77.0260425, "is_disabled": 0, "fusion_lat": 0.0, "lat": 38.92891633333333, "bike_id": "96a4f759fd19825ccfadb5e5fc0a8d26", "fusion_lon": 0.0}, {"rental_uris": {"ios": "https://dc.lft.to/lastmile_qr_scan", "android": "https://dc.lft.to/lastmile_qr_scan"}, "type": "electric_scooter", "name": "096d8e03048a304b349c7a2e971297b3", "is_reserved": 0, "lon": -77.02520083333333, "is_disabled": 0, "fusion_lat": 0.0, "lat": 38.9400715, "bike_id": "096d8e03048a304b349c7a2e971297b3", "fusion_lon": 0.0}, {"rental_uris": {"ios": "https://dc.lft.to/lastmile_qr_scan", "android": "https://dc.lft.to/lastmile_qr_scan"}, "type": "electric_scooter", "name": "446e50724ae8574333702db7bdd43a50", "is_reserved": 0, "lon": -77.04141, "is_disabled": 0, "fusion_lat": 0.0, "lat": 38.9229475, "bike_id": "446e50724ae8574333702db7bdd43a50", "fusion_lon": 0.0}, {"rental_uris": {"ios": "https://dc.lft.to/lastmile_qr_scan", "android": "https://dc.lft.to/lastmile_qr_scan"}, "type": "electric_scooter", "name": "72a9327fd933d14262c6bd907abf9544", "is_reserved": 0, "lon": -77.02843716666666, "is_disabled": 0, "fusion_lat": 0.0, "lat": 38.9256905, "bike_id": "72a9327fd933d14262c6bd907abf9544", "fusion_lon": 0.0}, {"rental_uris": {"ios": "https://dc.lft.to/lastmile_qr_scan", "android": "https://dc.lft.to/lastmile_qr_scan"}, "type": "electric_scooter", "name": "7a1a52717104b1cc1b81ed499064dde0", "is_reserved": 0, "lon": -77.003634, "is_disabled": 0, "fusion_lat": 0.0, "lat": 38.89905533333334, "bike_id": "7a1a52717104b1cc1b81ed499064dde0", "fusion_lon": 0.0}, {"rental_uris": {"ios": "https://dc.lft.to/lastmile_qr_scan", "android": "https://dc.lft.to/lastmile_qr_scan"}, "type": "electric_scooter", "name": "66c95769d99149e16c64fc13c5b6aee1", "is_reserved": 0, "lon": -77.04440033333333, "is_disabled": 0, "fusion_lat": 0.0, "lat": 38.901298833333335, "bike_id": "66c95769d99149e16c64fc13c5b6aee1", "fusion_lon": 0.0}, {"rental_uris": {"ios": "https://dc.lft.to/lastmile_qr_scan", "android": "https://dc.lft.to/lastmile_qr_scan"}, "type": "electric_scooter", "name": "6a03252c067b91f0b426e3e995c339bd", "is_reserved": 0, "lon": -77.019117, "is_disabled": 0, "fusion_lat": 0.0, "lat": 38.90243383333333, "bike_id": "6a03252c067b91f0b426e3e995c339bd", "fusion_lon": 0.0}, {"rental_uris": {"ios": "https://dc.lft.to/lastmile_qr_scan", "android": "https://dc.lft.to/lastmile_qr_scan"}, "type": "electric_scooter", "name": "42c4c27cc254707a08c150390faabce7", "is_reserved": 0, "lon": -77.01296183333334, "is_disabled": 0, "fusion_lat": 0.0, "lat": 38.900591666666664, "bike_id": "42c4c27cc254707a08c150390faabce7", "fusion_lon": 0.0}, {"rental_uris": {"ios": "https://dc.lft.to/lastmile_qr_scan", "android": "https://dc.lft.to/lastmile_qr_scan"}, "type": "electric_scooter", "name": "ad02856e1a9cd7e49f4c66100bd8e1d1", "is_reserved": 0, "lon": -77.02307283333333, "is_disabled": 0, "fusion_lat": 0.0, "lat": 38.928648833333334, "bike_id": "ad02856e1a9cd7e49f4c66100bd8e1d1", "fusion_lon": 0.0}, {"rental_uris": {"ios": "https://dc.lft.to/lastmile_qr_scan", "android": "https://dc.lft.to/lastmile_qr_scan"}, "type": "electric_scooter", "name": "3f1bcc035f2fcbd4a780f7d67b0e6a87", "is_reserved": 0, "lon": -77.07555516666666, "is_disabled": 0, "fusion_lat": 0.0, "lat": 38.92091883333333, "bike_id": "3f1bcc035f2fcbd4a780f7d67b0e6a87", "fusion_lon": 0.0}, {"rental_uris": {"ios": "https://dc.lft.to/lastmile_qr_scan", "android": "https://dc.lft.to/lastmile_qr_scan"}, "type": "electric_scooter", "name": "139e5e8ac5dc45ae08dc4d7e474e57c6", "is_reserved": 0, "lon": -76.9419505, "is_disabled": 0, "fusion_lat": 0.0, "lat": 38.902266166666664, "bike_id": "139e5e8ac5dc45ae08dc4d7e474e57c6", "fusion_lon": 0.0}, {"rental_uris": {"ios": "https://dc.lft.to/lastmile_qr_scan", "android": "https://dc.lft.to/lastmile_qr_scan"}, "type": "electric_scooter", "name": "15bee359aa683e0bfa2bb686ed9274a7", "is_reserved": 0, "lon": -77.03755616666666, "is_disabled": 0, "fusion_lat": 0.0, "lat": 38.931945666666664, "bike_id": "15bee359aa683e0bfa2bb686ed9274a7", "fusion_lon": 0.0}, {"rental_uris": {"ios": "https://dc.lft.to/lastmile_qr_scan", "android": "https://dc.lft.to/lastmile_qr_scan"}, "type": "electric_scooter", "name": "eb8bdedb557d2ed28b61e65902069c93", "is_reserved": 0, "lon": -77.038598, "is_disabled": 0, "fusion_lat": 0.0, "lat": 38.9164845, "bike_id": "eb8bdedb557d2ed28b61e65902069c93", "fusion_lon": 0.0}, {"rental_uris": {"ios": "https://dc.lft.to/lastmile_qr_scan", "android": "https://dc.lft.to/lastmile_qr_scan"}, "type": "electric_scooter", "name": "f17b0271e2a34a4b22504563bdd9c514", "is_reserved": 0, "lon": -77.02146916666666, "is_disabled": 0, "fusion_lat": 0.0, "lat": 38.920046166666665, "bike_id": "f17b0271e2a34a4b22504563bdd9c514", "fusion_lon": 0.0}, {"rental_uris": {"ios": "https://dc.lft.to/lastmile_qr_scan", "android": "https://dc.lft.to/lastmile_qr_scan"}, "type": "electric_scooter", "name": "b9aee22f839eacca725beaa929cd9e8a", "is_reserved": 0, "lon": -76.99472833333333, "is_disabled": 0, "fusion_lat": 0.0, "lat": 38.90556083333333, "bike_id": "b9aee22f839eacca725beaa929cd9e8a", "fusion_lon": 0.0}, {"rental_uris": {"ios": "https://dc.lft.to/lastmile_qr_scan", "android": "https://dc.lft.to/lastmile_qr_scan"}, "type": "electric_scooter", "name": "88a12e60c707372ffd15aabb87461739", "is_reserved": 0, "lon": -77.01766083333334, "is_disabled": 0, "fusion_lat": 0.0, "lat": 38.900826333333335, "bike_id": "88a12e60c707372ffd15aabb87461739", "fusion_lon": 0.0}, {"rental_uris": {"ios": "https://dc.lft.to/lastmile_qr_scan", "android": "https://dc.lft.to/lastmile_qr_scan"}, "type": "electric_scooter", "name": "41e8167c8861807ab06e2b73fd1c4506", "is_reserved": 0, "lon": -77.00393383333333, "is_disabled": 0, "fusion_lat": 0.0, "lat": 38.9056075, "bike_id": "41e8167c8861807ab06e2b73fd1c4506", "fusion_lon": 0.0}, {"rental_uris": {"ios": "https://dc.lft.to/lastmile_qr_scan", "android": "https://dc.lft.to/lastmile_qr_scan"}, "type": "electric_scooter", "name": "5b8ebd72b7c34d917dd9c27a43bf8e04", "is_reserved": 0, "lon": -76.96533716666667, "is_disabled": 0, "fusion_lat": 0.0, "lat": 38.918485833333335, "bike_id": "5b8ebd72b7c34d917dd9c27a43bf8e04", "fusion_lon": 0.0}, {"rental_uris": {"ios": "https://dc.lft.to/lastmile_qr_scan", "android": "https://dc.lft.to/lastmile_qr_scan"}, "type": "electric_scooter", "name": "234d499464d8baca13a2c954769243cb", "is_reserved": 0, "lon": -77.0087655, "is_disabled": 0, "fusion_lat": 0.0, "lat": 38.922459833333335, "bike_id": "234d499464d8baca13a2c954769243cb", "fusion_lon": 0.0}, {"rental_uris": {"ios": "https://dc.lft.to/lastmile_qr_scan", "android": "https://dc.lft.to/lastmile_qr_scan"}, "type": "electric_scooter", "name": "40e6318b3466bf148a90e5d5863fdaf2", "is_reserved": 0, "lon": -77.03837933333334, "is_disabled": 0, "fusion_lat": 0.0, "lat": 38.91038366666667, "bike_id": "40e6318b3466bf148a90e5d5863fdaf2", "fusion_lon": 0.0}, {"rental_uris": {"ios": "https://dc.lft.to/lastmile_qr_scan", "android": "https://dc.lft.to/lastmile_qr_scan"}, "type": "electric_scooter", "name": "9a13d473773698f3cbaa2ef9359b42a7", "is_reserved": 0, "lon": -77.047531, "is_disabled": 0, "fusion_lat": 0.0, "lat": 38.90531383333333, "bike_id": "9a13d473773698f3cbaa2ef9359b42a7", "fusion_lon": 0.0}, {"rental_uris": {"ios": "https://dc.lft.to/lastmile_qr_scan", "android": "https://dc.lft.to/lastmile_qr_scan"}, "type": "electric_scooter", "name": "7413a7d67396de5eee508dbda0c8b8f1", "is_reserved": 0, "lon": -77.00916433333333, "is_disabled": 0, "fusion_lat": 0.0, "lat": 38.881812833333335, "bike_id": "7413a7d67396de5eee508dbda0c8b8f1", "fusion_lon": 0.0}, {"rental_uris": {"ios": "https://dc.lft.to/lastmile_qr_scan", "android": "https://dc.lft.to/lastmile_qr_scan"}, "type": "electric_scooter", "name": "d0304cef08278870c3fd4c95009f921b", "is_reserved": 0, "lon": -77.0247515, "is_disabled": 0, "fusion_lat": 0.0, "lat": 38.9385675, "bike_id": "d0304cef08278870c3fd4c95009f921b", "fusion_lon": 0.0}, {"rental_uris": {"ios": "https://dc.lft.to/lastmile_qr_scan", "android": "https://dc.lft.to/lastmile_qr_scan"}, "type": "electric_scooter", "name": "8edb5784c2dd1c102b4375bcb6814aa2", "is_reserved": 0, "lon": -77.019046, "is_disabled": 0, "fusion_lat": 0.0, "lat": 38.9234085, "bike_id": "8edb5784c2dd1c102b4375bcb6814aa2", "fusion_lon": 0.0}, {"rental_uris": {"ios": "https://dc.lft.to/lastmile_qr_scan", "android": "https://dc.lft.to/lastmile_qr_scan"}, "type": "electric_bike", "name": "40e6ae7adcc4bcf927f79ee8bcea60a7", "is_reserved": 0, "lon": -76.97321483333333, "is_disabled": 0, "fusion_lat": 0.0, "lat": 38.85780616666667, "bike_id": "40e6ae7adcc4bcf927f79ee8bcea60a7", "fusion_lon": 0.0}, {"rental_uris": {"ios": "https://dc.lft.to/lastmile_qr_scan", "android": "https://dc.lft.to/lastmile_qr_scan"}, "type": "electric_scooter", "name": "1c6205c5506959e735d157d2c632ff89", "is_reserved": 0, "lon": -77.03169266666667, "is_disabled": 0, "fusion_lat": 0.0, "lat": 38.9199665, "bike_id": "1c6205c5506959e735d157d2c632ff89", "fusion_lon": 0.0}, {"rental_uris": {"ios": "https://dc.lft.to/lastmile_qr_scan", "android": "https://dc.lft.to/lastmile_qr_scan"}, "type": "electric_scooter", "name": "df3ea878a92d230d916b548d17ff2fdf", "is_reserved": 0, "lon": -77.02597666666666, "is_disabled": 0, "fusion_lat": 0.0, "lat": 38.905821, "bike_id": "df3ea878a92d230d916b548d17ff2fdf", "fusion_lon": 0.0}, {"rental_uris": {"ios": "https://dc.lft.to/lastmile_qr_scan", "android": "https://dc.lft.to/lastmile_qr_scan"}, "type": "electric_scooter", "name": "553dcb011315f2a882431b81aaa2c204", "is_reserved": 0, "lon": -77.036588, "is_disabled": 0, "fusion_lat": 0.0, "lat": 38.917212166666665, "bike_id": "553dcb011315f2a882431b81aaa2c204", "fusion_lon": 0.0}, {"rental_uris": {"ios": "https://dc.lft.to/lastmile_qr_scan", "android": "https://dc.lft.to/lastmile_qr_scan"}, "type": "electric_scooter", "name": "0c74ae8fb32f8c27009294e9c3fdb3fc", "is_reserved": 0, "lon": -77.02388116666667, "is_disabled": 0, "fusion_lat": 0.0, "lat": 38.927003, "bike_id": "0c74ae8fb32f8c27009294e9c3fdb3fc", "fusion_lon": 0.0}, {"rental_uris": {"ios": "https://dc.lft.to/lastmile_qr_scan", "android": "https://dc.lft.to/lastmile_qr_scan"}, "type": "electric_scooter", "name": "fddf8bf06d69c4b41e7d158ec4de4c72", "is_reserved": 0, "lon": -77.0213115, "is_disabled": 0, "fusion_lat": 0.0, "lat": 38.932227833333336, "bike_id": "fddf8bf06d69c4b41e7d158ec4de4c72", "fusion_lon": 0.0}, {"rental_uris": {"ios": "https://dc.lft.to/lastmile_qr_scan", "android": "https://dc.lft.to/lastmile_qr_scan"}, "type": "electric_scooter", "name": "6320110eec4bda149f7030f506f8bb97", "is_reserved": 0, "lon": -77.00329883333333, "is_disabled": 0, "fusion_lat": 0.0, "lat": 38.89729066666666, "bike_id": "6320110eec4bda149f7030f506f8bb97", "fusion_lon": 0.0}, {"rental_uris": {"ios": "https://dc.lft.to/lastmile_qr_scan", "android": "https://dc.lft.to/lastmile_qr_scan"}, "type": "electric_scooter", "name": "977d705945b5d7dcc231481e8b79c901", "is_reserved": 0, "lon": -77.0158245, "is_disabled": 0, "fusion_lat": 0.0, "lat": 38.91674966666667, "bike_id": "977d705945b5d7dcc231481e8b79c901", "fusion_lon": 0.0}, {"rental_uris": {"ios": "https://dc.lft.to/lastmile_qr_scan", "android": "https://dc.lft.to/lastmile_qr_scan"}, "type": "electric_scooter", "name": "d292913780640fd76661a47f37ab5802", "is_reserved": 0, "lon": -77.02274383333334, "is_disabled": 0, "fusion_lat": 0.0, "lat": 38.9096055, "bike_id": "d292913780640fd76661a47f37ab5802", "fusion_lon": 0.0}, {"rental_uris": {"ios": "https://dc.lft.to/lastmile_qr_scan", "android": "https://dc.lft.to/lastmile_qr_scan"}, "type": "electric_scooter", "name": "95340804db799ae328e04b2d7682421f", "is_reserved": 0, "lon": -77.03387216666667, "is_disabled": 0, "fusion_lat": 0.0, "lat": 38.9026885, "bike_id": "95340804db799ae328e04b2d7682421f", "fusion_lon": 0.0}, {"rental_uris": {"ios": "https://dc.lft.to/lastmile_qr_scan", "android": "https://dc.lft.to/lastmile_qr_scan"}, "type": "electric_scooter", "name": "2849059ebab2c07ac3934cbdb7d1a9f9", "is_reserved": 0, "lon": -76.98000483333334, "is_disabled": 0, "fusion_lat": 0.0, "lat": 38.906777166666664, "bike_id": "2849059ebab2c07ac3934cbdb7d1a9f9", "fusion_lon": 0.0}, {"rental_uris": {"ios": "https://dc.lft.to/lastmile_qr_scan", "android": "https://dc.lft.to/lastmile_qr_scan"}, "type": "electric_scooter", "name": "2f77fb62e22aa4ed595dbf0ca653afa8", "is_reserved": 0, "lon": -76.99175033333333, "is_disabled": 0, "fusion_lat": 0.0, "lat": 38.889284, "bike_id": "2f77fb62e22aa4ed595dbf0ca653afa8", "fusion_lon": 0.0}, {"rental_uris": {"ios": "https://dc.lft.to/lastmile_qr_scan", "android": "https://dc.lft.to/lastmile_qr_scan"}, "type": "electric_bike", "name": "b2bfc8e9251e25637eb8dd5959ca9bdd", "is_reserved": 0, "lon": -77.09963816666667, "is_disabled": 0, "fusion_lat": 0.0, "lat": 38.85791316666667, "bike_id": "b2bfc8e9251e25637eb8dd5959ca9bdd", "fusion_lon": 0.0}, {"rental_uris": {"ios": "https://dc.lft.to/lastmile_qr_scan", "android": "https://dc.lft.to/lastmile_qr_scan"}, "type": "electric_scooter", "name": "d54df25de3926382f43edea29426f9cd", "is_reserved": 0, "lon": -76.9876165, "is_disabled": 0, "fusion_lat": 0.0, "lat": 38.91192133333333, "bike_id": "d54df25de3926382f43edea29426f9cd", "fusion_lon": 0.0}, {"rental_uris": {"ios": "https://dc.lft.to/lastmile_qr_scan", "android": "https://dc.lft.to/lastmile_qr_scan"}, "type": "electric_scooter", "name": "f46a6c1289fabdc408cd3c8aaa2cadcc", "is_reserved": 0, "lon": -77.011571, "is_disabled": 0, "fusion_lat": 0.0, "lat": 38.91417, "bike_id": "f46a6c1289fabdc408cd3c8aaa2cadcc", "fusion_lon": 0.0}, {"rental_uris": {"ios": "https://dc.lft.to/lastmile_qr_scan", "android": "https://dc.lft.to/lastmile_qr_scan"}, "type": "electric_scooter", "name": "b25f641ec7e069d3442c3c04ea6591eb", "is_reserved": 0, "lon": -77.035081, "is_disabled": 0, "fusion_lat": 0.0, "lat": 38.92213683333333, "bike_id": "b25f641ec7e069d3442c3c04ea6591eb", "fusion_lon": 0.0}, {"rental_uris": {"ios": "https://dc.lft.to/lastmile_qr_scan", "android": "https://dc.lft.to/lastmile_qr_scan"}, "type": "electric_scooter", "name": "5fea565bb0e372be1183892179628a3a", "is_reserved": 0, "lon": -77.02429083333334, "is_disabled": 0, "fusion_lat": 0.0, "lat": 38.903120666666666, "bike_id": "5fea565bb0e372be1183892179628a3a", "fusion_lon": 0.0}, {"rental_uris": {"ios": "https://dc.lft.to/lastmile_qr_scan", "android": "https://dc.lft.to/lastmile_qr_scan"}, "type": "electric_scooter", "name": "47fadaff069413a53ace43be5776add9", "is_reserved": 0, "lon": -76.97330983333333, "is_disabled": 0, "fusion_lat": 0.0, "lat": 38.90409433333333, "bike_id": "47fadaff069413a53ace43be5776add9", "fusion_lon": 0.0}, {"rental_uris": {"ios": "https://dc.lft.to/lastmile_qr_scan", "android": "https://dc.lft.to/lastmile_qr_scan"}, "type": "electric_scooter", "name": "58e5b03c5432d1188f15614a3b4f864c", "is_reserved": 0, "lon": -77.0228405, "is_disabled": 0, "fusion_lat": 0.0, "lat": 38.8787655, "bike_id": "58e5b03c5432d1188f15614a3b4f864c", "fusion_lon": 0.0}, {"rental_uris": {"ios": "https://dc.lft.to/lastmile_qr_scan", "android": "https://dc.lft.to/lastmile_qr_scan"}, "type": "electric_scooter", "name": "572703db7e3f630efe52ac583893da96", "is_reserved": 0, "lon": -77.0111065, "is_disabled": 0, "fusion_lat": 0.0, "lat": 38.895086666666664, "bike_id": "572703db7e3f630efe52ac583893da96", "fusion_lon": 0.0}, {"rental_uris": {"ios": "https://dc.lft.to/lastmile_qr_scan", "android": "https://dc.lft.to/lastmile_qr_scan"}, "type": "electric_scooter", "name": "5c0208de5dabef4870848fad99b43bce", "is_reserved": 0, "lon": -77.005714, "is_disabled": 0, "fusion_lat": 0.0, "lat": 38.874539666666664, "bike_id": "5c0208de5dabef4870848fad99b43bce", "fusion_lon": 0.0}, {"rental_uris": {"ios": "https://dc.lft.to/lastmile_qr_scan", "android": "https://dc.lft.to/lastmile_qr_scan"}, "type": "electric_scooter", "name": "118d2b18a6bd8ef89f21cdebaaa1be2f", "is_reserved": 0, "lon": -77.02459516666667, "is_disabled": 0, "fusion_lat": 0.0, "lat": 38.9184815, "bike_id": "118d2b18a6bd8ef89f21cdebaaa1be2f", "fusion_lon": 0.0}, {"rental_uris": {"ios": "https://dc.lft.to/lastmile_qr_scan", "android": "https://dc.lft.to/lastmile_qr_scan"}, "type": "electric_bike", "name": "8cbce3db15ab9087f0f5282d867e6c3b", "is_reserved": 0, "lon": -77.09017766666666, "is_disabled": 0, "fusion_lat": 0.0, "lat": 38.926592166666666, "bike_id": "8cbce3db15ab9087f0f5282d867e6c3b", "fusion_lon": 0.0}, {"rental_uris": {"ios": "https://dc.lft.to/lastmile_qr_scan", "android": "https://dc.lft.to/lastmile_qr_scan"}, "type": "electric_scooter", "name": "fc6c801319aa65b4b28c2cde7704a25f", "is_reserved": 0, "lon": -77.02419716666667, "is_disabled": 0, "fusion_lat": 0.0, "lat": 38.92661116666667, "bike_id": "fc6c801319aa65b4b28c2cde7704a25f", "fusion_lon": 0.0}, {"rental_uris": {"ios": "https://dc.lft.to/lastmile_qr_scan", "android": "https://dc.lft.to/lastmile_qr_scan"}, "type": "electric_scooter", "name": "35af8000355f8485ac3c65c73a69407b", "is_reserved": 0, "lon": -77.021567, "is_disabled": 0, "fusion_lat": 0.0, "lat": 38.92605666666667, "bike_id": "35af8000355f8485ac3c65c73a69407b", "fusion_lon": 0.0}, {"rental_uris": {"ios": "https://dc.lft.to/lastmile_qr_scan", "android": "https://dc.lft.to/lastmile_qr_scan"}, "type": "electric_scooter", "name": "4d0ee8b082c241d1a0850157e9f101c5", "is_reserved": 0, "lon": -77.0075515, "is_disabled": 0, "fusion_lat": 0.0, "lat": 38.92526216666667, "bike_id": "4d0ee8b082c241d1a0850157e9f101c5", "fusion_lon": 0.0}, {"rental_uris": {"ios": "https://dc.lft.to/lastmile_qr_scan", "android": "https://dc.lft.to/lastmile_qr_scan"}, "type": "electric_bike", "name": "1c536165f0c6d9200e22b51ca2491c29", "is_reserved": 0, "lon": -77.00756283333334, "is_disabled": 0, "fusion_lat": 0.0, "lat": 38.981044833333335, "bike_id": "1c536165f0c6d9200e22b51ca2491c29", "fusion_lon": 0.0}, {"rental_uris": {"ios": "https://dc.lft.to/lastmile_qr_scan", "android": "https://dc.lft.to/lastmile_qr_scan"}, "type": "electric_scooter", "name": "00d3bcd191f25a2a1f86fe172d94f4aa", "is_reserved": 0, "lon": -77.02297683333333, "is_disabled": 0, "fusion_lat": 0.0, "lat": 38.91355983333333, "bike_id": "00d3bcd191f25a2a1f86fe172d94f4aa", "fusion_lon": 0.0}, {"rental_uris": {"ios": "https://dc.lft.to/lastmile_qr_scan", "android": "https://dc.lft.to/lastmile_qr_scan"}, "type": "electric_scooter", "name": "0da448d5c18c1c158a5982e32ee402ae", "is_reserved": 0, "lon": -77.0019035, "is_disabled": 0, "fusion_lat": 0.0, "lat": 38.903775333333336, "bike_id": "0da448d5c18c1c158a5982e32ee402ae", "fusion_lon": 0.0}, {"rental_uris": {"ios": "https://dc.lft.to/lastmile_qr_scan", "android": "https://dc.lft.to/lastmile_qr_scan"}, "type": "electric_scooter", "name": "93ce68de050f7d5c4427d0b5ac7d5364", "is_reserved": 0, "lon": -76.9858495, "is_disabled": 0, "fusion_lat": 0.0, "lat": 38.861868666666666, "bike_id": "93ce68de050f7d5c4427d0b5ac7d5364", "fusion_lon": 0.0}, {"rental_uris": {"ios": "https://dc.lft.to/lastmile_qr_scan", "android": "https://dc.lft.to/lastmile_qr_scan"}, "type": "electric_scooter", "name": "ed1e769882c9b1617c9809e873c46ed1", "is_reserved": 0, "lon": -77.0202455, "is_disabled": 0, "fusion_lat": 0.0, "lat": 38.89962416666667, "bike_id": "ed1e769882c9b1617c9809e873c46ed1", "fusion_lon": 0.0}, {"rental_uris": {"ios": "https://dc.lft.to/lastmile_qr_scan", "android": "https://dc.lft.to/lastmile_qr_scan"},