{"data": {"bikes": [{"rental_uris": {"ios": "https://dc.lft.to/lastmile_qr_scan", "android": "https://dc.lft.to/lastmile_qr_scan"}, "lat": 38.914046166666665, "lon": -77.02377933333334, "fusion_lat": 0.0, "name": "2c49d4b8ee12630ad0ff92faf95f0e53", "is_disabled": 0, "is_reserved": 0, "bike_id": "2c49d4b8ee12630ad0ff92faf95f0e53", "fusion_lon": 0.0, "type": "electric_scooter"}, {"rental_uris": {"ios": "https://dc.lft.to/lastmile_qr_scan", "android": "https://dc.lft.to/lastmile_qr_scan"}, "lat": 38.87423116666667, "lon": -77.0004605, "fusion_lat": 0.0, "name": "3ac561eb31f1e61c36ba283abbfcaa06", "is_disabled": 0, "is_reserved": 0, "bike_id": "3ac561eb31f1e61c36ba283abbfcaa06", "fusion_lon": 0.0, "type": "electric_scooter"}, {"rental_uris": {"ios": "https://dc.lft.to/lastmile_qr_scan", "android": "https://dc.lft.to/lastmile_qr_scan"}, "lat": 38.91114966666667, "lon": -77.04363, "fusion_lat": 0.0, "name": "8fae368fc90c4448336ef64a2bd18f68", "is_disabled": 0, "is_reserved": 0, "bike_id": "8fae368fc90c4448336ef64a2bd18f68", "fusion_lon": 0.0, "type": "electric_scooter"}, {"rental_uris": {"ios": "https://dc.lft.to/lastmile_qr_scan", "android": "https://dc.lft.to/lastmile_qr_scan"}, "lat": 38.92303883333334, "lon": -77.04461716666667, "fusion_lat": 0.0, "name": "d8e5a865e50536c610480455ece0e850", "is_disabled": 0, "is_reserved": 0, "bike_id": "d8e5a865e50536c610480455ece0e850", "fusion_lon": 0.0, "type": "electric_scooter"}, {"rental_uris": {"ios": "https://dc.lft.to/lastmile_qr_scan", "android": "https://dc.lft.to/lastmile_qr_scan"}, "lat": 38.940180166666664, "lon": -76.992056, "fusion_lat": 0.0, "name": "72dcc7d657b8f326dec9c7fbb46b4fe9", "is_disabled": 0, "is_reserved": 0, "bike_id": "72dcc7d657b8f326dec9c7fbb46b4fe9", "fusion_lon": 0.0, "type": "electric_bike"}, {"rental_uris": {"ios": "https://dc.lft.to/lastmile_qr_scan", "android": "https://dc.lft.to/lastmile_qr_scan"}, "lat": 38.896054666666664, "lon": -77.02642016666667, "fusion_lat": 0.0, "name": "dab97b718ed1c349d047fc6743cbd2d4", "is_disabled": 0, "is_reserved": 0, "bike_id": "dab97b718ed1c349d047fc6743cbd2d4", "fusion_lon": 0.0, "type": "electric_scooter"}, {"rental_uris": {"ios": "https://dc.lft.to/lastmile_qr_scan", "android": "https://dc.lft.to/lastmile_qr_scan"}, "lat": 38.912418333333335, "lon": -77.03658566666667, "fusion_lat": 0.0, "name": "93d5f598869b17e2ebf5c3466ab4aa9a", "is_disabled": 0, "is_reserved": 0, "bike_id": "93d5f598869b17e2ebf5c3466ab4aa9a", "fusion_lon": 0.0, "type": "electric_scooter"}, {"rental_uris": {"ios": "https://dc.lft.to/lastmile_qr_scan", "android": "https://dc.lft.to/lastmile_qr_scan"}, "lat": 38.89484366666667, "lon": -77.010915, "fusion_lat": 0.0, "name": "8d3eb749cdcd2f8ee223829bcb468cae", "is_disabled": 0, "is_reserved": 0, "bike_id": "8d3eb749cdcd2f8ee223829bcb468cae", "fusion_lon": 0.0, "type": "electric_scooter"}, {"rental_uris": {"ios": "https://dc.lft.to/lastmile_qr_scan", "android": "https://dc.lft.to/lastmile_qr_scan"}, "lat": 38.8741875, "lon": -77.0856975, "fusion_lat": 0.0, "name": "ce8aeb5cb1f919255a68171f240540b7", "is_disabled": 0, "is_reserved": 0, "bike_id": "ce8aeb5cb1f919255a68171f240540b7", "fusion_lon": 0.0, "type": "electric_bike"}, {"rental_uris": {"ios": "https://dc.lft.to/lastmile_qr_scan", "android": "https://dc.lft.to/lastmile_qr_scan"}, "lat": 38.929302666666665, "lon": -77.0297615, "fusion_lat": 0.0, "name": "b66f87a9c3b209651dfb66c343360e38", "is_disabled": 0, "is_reserved": 0, "bike_id": "b66f87a9c3b209651dfb66c343360e38", "fusion_lon": 0.0, "type": "electric_scooter"}, {"rental_uris": {"ios": "https://dc.lft.to/lastmile_qr_scan", "android": "https://dc.lft.to/lastmile_qr_scan"}, "lat": 38.896634166666665, "lon": -76.98835883333334, "fusion_lat": 0.0, "name": "62f5410b6769bcb53ed786efd5494a13", "is_disabled": 0, "is_reserved": 0, "bike_id": "62f5410b6769bcb53ed786efd5494a13", "fusion_lon": 0.0, "type": "electric_scooter"}, {"rental_uris": {"ios": "https://dc.lft.to/lastmile_qr_scan", "android": "https://dc.lft.to/lastmile_qr_scan"}, "lat": 38.898499, "lon": -77.04438716666667, "fusion_lat": 0.0, "name": "62e2fc7e9ee69343fec649a4584addb3", "is_disabled": 0, "is_reserved": 0, "bike_id": "62e2fc7e9ee69343fec649a4584addb3", "fusion_lon": 0.0, "type": "electric_scooter"}, {"rental_uris": {"ios": "https://dc.lft.to/lastmile_qr_scan", "android": "https://dc.lft.to/lastmile_qr_scan"}, "lat": 38.887143333333334, "lon": -76.9962795, "fusion_lat": 0.0, "name": "0ab8214ebfb599790bf95a9f1b3dbc14", "is_disabled": 0, "is_reserved": 0, "bike_id": "0ab8214ebfb599790bf95a9f1b3dbc14", "fusion_lon": 0.0, "type": "electric_scooter"}, {"rental_uris": {"ios": "https://dc.lft.to/lastmile_qr_scan", "android": "https://dc.lft.to/lastmile_qr_scan"}, "lat": 38.9428985, "lon": -77.02165983333333, "fusion_lat": 0.0, "name": "dd0b0701af5be2224c5810c6f67b2e39", "is_disabled": 0, "is_reserved": 0, "bike_id": "dd0b0701af5be2224c5810c6f67b2e39", "fusion_lon": 0.0, "type": "electric_scooter"}, {"rental_uris": {"ios": "https://dc.lft.to/lastmile_qr_scan", "android": "https://dc.lft.to/lastmile_qr_scan"}, "lat": 38.912685, "lon": -77.03146783333334, "fusion_lat": 0.0, "name": "6939afd62036ae914313a3feae0a3ec5", "is_disabled": 0, "is_reserved": 0, "bike_id": "6939afd62036ae914313a3feae0a3ec5", "fusion_lon": 0.0, "type": "electric_scooter"}, {"rental_uris": {"ios": "https://dc.lft.to/lastmile_qr_scan", "android": "https://dc.lft.to/lastmile_qr_scan"}, "lat": 38.92624583333333, "lon": -77.04217016666666, "fusion_lat": 0.0, "name": "29fbb75f4a8793252d275316b1299c2f", "is_disabled": 0, "is_reserved": 0, "bike_id": "29fbb75f4a8793252d275316b1299c2f", "fusion_lon": 0.0, "type": "electric_scooter"}, {"rental_uris": {"ios": "https://dc.lft.to/lastmile_qr_scan", "android": "https://dc.lft.to/lastmile_qr_scan"}, "lat": 38.887141666666665, "lon": -77.017766, "fusion_lat": 0.0, "name": "34841492721b754d77c0faa44626fd99", "is_disabled": 0, "is_reserved": 0, "bike_id": "34841492721b754d77c0faa44626fd99", "fusion_lon": 0.0, "type": "electric_scooter"}, {"rental_uris": {"ios": "https://dc.lft.to/lastmile_qr_scan", "android": "https://dc.lft.to/lastmile_qr_scan"}, "lat": 38.897067166666666, "lon": -77.02449983333334, "fusion_lat": 0.0, "name": "b8fef8d6a65aaafaa0a7421b152e434a", "is_disabled": 0, "is_reserved": 0, "bike_id": "b8fef8d6a65aaafaa0a7421b152e434a", "fusion_lon": 0.0, "type": "electric_scooter"}, {"rental_uris": {"ios": "https://dc.lft.to/lastmile_qr_scan", "android": "https://dc.lft.to/lastmile_qr_scan"}, "lat": 38.90501233333333, "lon": -77.06884883333333, "fusion_lat": 0.0, "name": "759a73d8b5c660ad984b5cb30e6a53a4", "is_disabled": 0, "is_reserved": 0, "bike_id": "759a73d8b5c660ad984b5cb30e6a53a4", "fusion_lon": 0.0, "type": "electric_scooter"}, {"rental_uris": {"ios": "https://dc.lft.to/lastmile_qr_scan", "android": "https://dc.lft.to/lastmile_qr_scan"}, "lat": 38.914805333333334, "lon": -77.03816133333333, "fusion_lat": 0.0, "name": "5a048e77da45ac7da77c80b8dabc6b53", "is_disabled": 0, "is_reserved": 0, "bike_id": "5a048e77da45ac7da77c80b8dabc6b53", "fusion_lon": 0.0, "type": "electric_scooter"}, {"rental_uris": {"ios": "https://dc.lft.to/lastmile_qr_scan", "android": "https://dc.lft.to/lastmile_qr_scan"}, "lat": 38.91782033333333, "lon": -77.04352333333334, "fusion_lat": 0.0, "name": "2531176091409630082722348458d2fe", "is_disabled": 0, "is_reserved": 0, "bike_id": "2531176091409630082722348458d2fe", "fusion_lon": 0.0, "type": "electric_scooter"}, {"rental_uris": {"ios": "https://dc.lft.to/lastmile_qr_scan", "android": "https://dc.lft.to/lastmile_qr_scan"}, "lat": 38.93701566666667, "lon": -77.05609683333333, "fusion_lat": 0.0, "name": "da6e6e74eece61f0216278e5922ac197", "is_disabled": 0, "is_reserved": 0, "bike_id": "da6e6e74eece61f0216278e5922ac197", "fusion_lon": 0.0, "type": "electric_bike"}, {"rental_uris": {"ios": "https://dc.lft.to/lastmile_qr_scan", "android": "https://dc.lft.to/lastmile_qr_scan"}, "lat": 38.931491, "lon": -77.0236545, "fusion_lat": 0.0, "name": "fbfd397175a796b4954bb49b3c59bf12", "is_disabled": 0, "is_reserved": 0, "bike_id": "fbfd397175a796b4954bb49b3c59bf12", "fusion_lon": 0.0, "type": "electric_scooter"}, {"rental_uris": {"ios": "https://dc.lft.to/lastmile_qr_scan", "android": "https://dc.lft.to/lastmile_qr_scan"}, "lat": 38.900852, "lon": -76.98336316666666, "fusion_lat": 0.0, "name": "8082a3e8ed72856dd424448be83c3628", "is_disabled": 0, "is_reserved": 0, "bike_id": "8082a3e8ed72856dd424448be83c3628", "fusion_lon": 0.0, "type": "electric_scooter"}, {"rental_uris": {"ios": "https://dc.lft.to/lastmile_qr_scan", "android": "https://dc.lft.to/lastmile_qr_scan"}, "lat": 38.933104166666666, "lon": -77.07251566666666, "fusion_lat": 0.0, "name": "450bfc4884f545bb91b8093ba728701a", "is_disabled": 0, "is_reserved": 0, "bike_id": "450bfc4884f545bb91b8093ba728701a", "fusion_lon": 0.0, "type": "electric_scooter"}, {"rental_uris": {"ios": "https://dc.lft.to/lastmile_qr_scan", "android": "https://dc.lft.to/lastmile_qr_scan"}, "lat": 38.8775865, "lon": -77.01762916666667, "fusion_lat": 0.0, "name": "b666a0903b27b898eeb44e1c47b59c68", "is_disabled": 0, "is_reserved": 0, "bike_id": "b666a0903b27b898eeb44e1c47b59c68", "fusion_lon": 0.0, "type": "electric_scooter"}, {"rental_uris": {"ios": "https://dc.lft.to/lastmile_qr_scan", "android": "https://dc.lft.to/lastmile_qr_scan"}, "lat": 38.922179, "lon": -77.043349, "fusion_lat": 0.0, "name": "d1ca5042b6ff608c94119fe033319882", "is_disabled": 0, "is_reserved": 0, "bike_id": "d1ca5042b6ff608c94119fe033319882", "fusion_lon": 0.0, "type": "electric_scooter"}, {"rental_uris": {"ios": "https://dc.lft.to/lastmile_qr_scan", "android": "https://dc.lft.to/lastmile_qr_scan"}, "lat": 38.90441583333333, "lon": -77.04850316666666, "fusion_lat": 0.0, "name": "09a0588d0a33f3f80c23b1010a7eb1a7", "is_disabled": 0, "is_reserved": 0, "bike_id": "09a0588d0a33f3f80c23b1010a7eb1a7", "fusion_lon": 0.0, "type": "electric_scooter"}, {"rental_uris": {"ios": "https://dc.lft.to/lastmile_qr_scan", "android": "https://dc.lft.to/lastmile_qr_scan"}, "lat": 39.0243195, "lon": -77.130962, "fusion_lat": 0.0, "name": "0e9c33ded52b8906602fe650907a958a", "is_disabled": 0, "is_reserved": 0, "bike_id": "0e9c33ded52b8906602fe650907a958a", "fusion_lon": 0.0, "type": "electric_bike"}, {"rental_uris": {"ios": "https://dc.lft.to/lastmile_qr_scan", "android": "https://dc.lft.to/lastmile_qr_scan"}, "lat": 38.9345745, "lon": -76.96440466666667, "fusion_lat": 0.0, "name": "8e3afc991eb2d0a29477e3b6b947cf60", "is_disabled": 0, "is_reserved": 0, "bike_id": "8e3afc991eb2d0a29477e3b6b947cf60", "fusion_lon": 0.0, "type": "electric_scooter"}, {"rental_uris": {"ios": "https://dc.lft.to/lastmile_qr_scan", "android": "https://dc.lft.to/lastmile_qr_scan"}, "lat": 38.92031383333333, "lon": -77.04089083333334, "fusion_lat": 0.0, "name": "ff8359975b771d4f98a1b92cdf093bd5", "is_disabled": 0, "is_reserved": 0, "bike_id": "ff8359975b771d4f98a1b92cdf093bd5", "fusion_lon": 0.0, "type": "electric_scooter"}, {"rental_uris": {"ios": "https://dc.lft.to/lastmile_qr_scan", "android": "https://dc.lft.to/lastmile_qr_scan"}, "lat": 38.9021135, "lon": -77.019741, "fusion_lat": 0.0, "name": "b842ea70bc22a4f85dff9cd9586858d6", "is_disabled": 0, "is_reserved": 0, "bike_id": "b842ea70bc22a4f85dff9cd9586858d6", "fusion_lon": 0.0, "type": "electric_scooter"}, {"rental_uris": {"ios": "https://dc.lft.to/lastmile_qr_scan", "android": "https://dc.lft.to/lastmile_qr_scan"}, "lat": 38.9205315, "lon": -77.0421895, "fusion_lat": 0.0, "name": "aea947ec2127626c4cdb1afeb39bb879", "is_disabled": 0, "is_reserved": 0, "bike_id": "aea947ec2127626c4cdb1afeb39bb879", "fusion_lon": 0.0, "type": "electric_scooter"}, {"rental_uris": {"ios": "https://dc.lft.to/lastmile_qr_scan", "android": "https://dc.lft.to/lastmile_qr_scan"}, "lat": 38.91688083333333, "lon": -77.0286535, "fusion_lat": 0.0, "name": "8690fc012e8a106a6605f8ab4a25882c", "is_disabled": 0, "is_reserved": 0, "bike_id": "8690fc012e8a106a6605f8ab4a25882c", "fusion_lon": 0.0, "type": "electric_scooter"}, {"rental_uris": {"ios": "https://dc.lft.to/lastmile_qr_scan", "android": "https://dc.lft.to/lastmile_qr_scan"}, "lat": 38.91792216666666, "lon": -77.02309916666667, "fusion_lat": 0.0, "name": "5afe3deec18c6acd0be2e5c68666219f", "is_disabled": 0, "is_reserved": 0, "bike_id": "5afe3deec18c6acd0be2e5c68666219f", "fusion_lon": 0.0, "type": "electric_scooter"}, {"rental_uris": {"ios": "https://dc.lft.to/lastmile_qr_scan", "android": "https://dc.lft.to/lastmile_qr_scan"}, "lat": 38.91503866666667, "lon": -77.04553783333333, "fusion_lat": 0.0, "name": "909d7d378536dcb16348a4793d34b873", "is_disabled": 0, "is_reserved": 0, "bike_id": "909d7d378536dcb16348a4793d34b873", "fusion_lon": 0.0, "type": "electric_scooter"}, {"rental_uris": {"ios": "https://dc.lft.to/lastmile_qr_scan", "android": "https://dc.lft.to/lastmile_qr_scan"}, "lat": 38.86700716666667, "lon": -76.98709, "fusion_lat": 0.0, "name": "5ccdbc61bda91a7d1d6800e92376be81", "is_disabled": 0, "is_reserved": 0, "bike_id": "5ccdbc61bda91a7d1d6800e92376be81", "fusion_lon": 0.0, "type": "electric_scooter"}, {"rental_uris": {"ios": "https://dc.lft.to/lastmile_qr_scan", "android": "https://dc.lft.to/lastmile_qr_scan"}, "lat": 38.9084955, "lon": -76.99965516666667, "fusion_lat": 0.0, "name": "88390845bcfec2a10c54dabcba3b4e72", "is_disabled": 0, "is_reserved": 0, "bike_id": "88390845bcfec2a10c54dabcba3b4e72", "fusion_lon": 0.0, "type": "electric_scooter"}, {"rental_uris": {"ios": "https://dc.lft.to/lastmile_qr_scan", "android": "https://dc.lft.to/lastmile_qr_scan"}, "lat": 38.931407166666666, "lon": -77.04243583333333, "fusion_lat": 0.0, "name": "5ff4335a8defd446b821102be5b95215", "is_disabled": 0, "is_reserved": 0, "bike_id": "5ff4335a8defd446b821102be5b95215", "fusion_lon": 0.0, "type": "electric_scooter"}, {"rental_uris": {"ios": "https://dc.lft.to/lastmile_qr_scan", "android": "https://dc.lft.to/lastmile_qr_scan"}, "lat": 38.89617483333333, "lon": -77.04453583333333, "fusion_lat": 0.0, "name": "d5100e24c2c16a3f7b28934e3b4fb3ec", "is_disabled": 0, "is_reserved": 0, "bike_id": "d5100e24c2c16a3f7b28934e3b4fb3ec", "fusion_lon": 0.0, "type": "electric_scooter"}, {"rental_uris": {"ios": "https://dc.lft.to/lastmile_qr_scan", "android": "https://dc.lft.to/lastmile_qr_scan"}, "lat": 38.9176595, "lon": -77.047691, "fusion_lat": 0.0, "name": "e4eb7381ceed7b1ff4348cd1b4f7aede", "is_disabled": 0, "is_reserved": 0, "bike_id": "e4eb7381ceed7b1ff4348cd1b4f7aede", "fusion_lon": 0.0, "type": "electric_scooter"}, {"rental_uris": {"ios": "https://dc.lft.to/lastmile_qr_scan", "android": "https://dc.lft.to/lastmile_qr_scan"}, "lat": 38.9046115, "lon": -77.0193525, "fusion_lat": 0.0, "name": "1b4f01bc1384a38f62e8188bc0883b34", "is_disabled": 0, "is_reserved": 0, "bike_id": "1b4f01bc1384a38f62e8188bc0883b34", "fusion_lon": 0.0, "type": "electric_scooter"}, {"rental_uris": {"ios": "https://dc.lft.to/lastmile_qr_scan", "android": "https://dc.lft.to/lastmile_qr_scan"}, "lat": 38.9081705, "lon": -76.99708966666667, "fusion_lat": 0.0, "name": "ec0b0ad994ef2633ce3247208b9a5e65", "is_disabled": 0, "is_reserved": 0, "bike_id": "ec0b0ad994ef2633ce3247208b9a5e65", "fusion_lon": 0.0, "type": "electric_scooter"}, {"rental_uris": {"ios": "https://dc.lft.to/lastmile_qr_scan", "android": "https://dc.lft.to/lastmile_qr_scan"}, "lat": 38.905311, "lon": -77.047481, "fusion_lat": 0.0, "name": "74450b5ceaf215fba1b24c65a21e55a4", "is_disabled": 0, "is_reserved": 0, "bike_id": "74450b5ceaf215fba1b24c65a21e55a4", "fusion_lon": 0.0, "type": "electric_scooter"}, {"rental_uris": {"ios": "https://dc.lft.to/lastmile_qr_scan", "android": "https://dc.lft.to/lastmile_qr_scan"}, "lat": 38.9286995, "lon": -76.99031083333334, "fusion_lat": 0.0, "name": "59695590fa154a481b2ef5977b6218b8", "is_disabled": 0, "is_reserved": 0, "bike_id": "59695590fa154a481b2ef5977b6218b8", "fusion_lon": 0.0, "type": "electric_scooter"}, {"rental_uris": {"ios": "https://dc.lft.to/lastmile_qr_scan", "android": "https://dc.lft.to/lastmile_qr_scan"}, "lat": 38.911069, "lon": -77.02172683333333, "fusion_lat": 0.0, "name": "683b19e4654a46636792b6f7ef4d0341", "is_disabled": 0, "is_reserved": 0, "bike_id": "683b19e4654a46636792b6f7ef4d0341", "fusion_lon": 0.0, "type": "electric_scooter"}, {"rental_uris": {"ios": "https://dc.lft.to/lastmile_qr_scan", "android": "https://dc.lft.to/lastmile_qr_scan"}, "lat": 38.914203, "lon": -77.019868, "fusion_lat": 0.0, "name": "9dfcafee31deb31487855454be1e7fa6", "is_disabled": 0, "is_reserved": 0, "bike_id": "9dfcafee31deb31487855454be1e7fa6", "fusion_lon": 0.0, "type": "electric_scooter"}, {"rental_uris": {"ios": "https://dc.lft.to/lastmile_qr_scan", "android": "https://dc.lft.to/lastmile_qr_scan"}, "lat": 38.917698666666666, "lon": -77.029484, "fusion_lat": 0.0, "name": "acced4570a8fba1b2e9478e918071e06", "is_disabled": 0, "is_reserved": 0, "bike_id": "acced4570a8fba1b2e9478e918071e06", "fusion_lon": 0.0, "type": "electric_scooter"}, {"rental_uris": {"ios": "https://dc.lft.to/lastmile_qr_scan", "android": "https://dc.lft.to/lastmile_qr_scan"}, "lat": 38.9151195, "lon": -77.04173533333334, "fusion_lat": 0.0, "name": "89abe6993533746f0afb2f33582aaa36", "is_disabled": 0, "is_reserved": 0, "bike_id": "89abe6993533746f0afb2f33582aaa36", "fusion_lon": 0.0, "type": "electric_scooter"}, {"rental_uris": {"ios": "https://dc.lft.to/lastmile_qr_scan", "android": "https://dc.lft.to/lastmile_qr_scan"}, "lat": 38.9170475, "lon": -77.02408616666666, "fusion_lat": 0.0, "name": "3dd3453945649e808700090c1ca5225c", "is_disabled": 0, "is_reserved": 0, "bike_id": "3dd3453945649e808700090c1ca5225c", "fusion_lon": 0.0, "type": "electric_scooter"}, {"rental_uris": {"ios": "https://dc.lft.to/lastmile_qr_scan", "android": "https://dc.lft.to/lastmile_qr_scan"}, "lat": 38.9304235, "lon": -77.03257233333333, "fusion_lat": 0.0, "name": "81b3289065befcb3306f08cb00ee2d3a", "is_disabled": 0, "is_reserved": 0, "bike_id": "81b3289065befcb3306f08cb00ee2d3a", "fusion_lon": 0.0, "type": "electric_scooter"}, {"rental_uris": {"ios": "https://dc.lft.to/lastmile_qr_scan", "android": "https://dc.lft.to/lastmile_qr_scan"}, "lat": 38.88539633333333, "lon": -77.00575566666667, "fusion_lat": 0.0, "name": "066068404150736e04a5392c4a14ddee", "is_disabled": 0, "is_reserved": 0, "bike_id": "066068404150736e04a5392c4a14ddee", "fusion_lon": 0.0, "type": "electric_scooter"}, {"rental_uris": {"ios": "https://dc.lft.to/lastmile_qr_scan", "android": "https://dc.lft.to/lastmile_qr_scan"}, "lat": 38.887115666666666, "lon": -77.0177755, "fusion_lat": 0.0, "name": "0e5d51782c1402ab05948e505088045a", "is_disabled": 0, "is_reserved": 0, "bike_id": "0e5d51782c1402ab05948e505088045a", "fusion_lon": 0.0, "type": "electric_scooter"}, {"rental_uris": {"ios": "https://dc.lft.to/lastmile_qr_scan", "android": "https://dc.lft.to/lastmile_qr_scan"}, "lat": 38.91701716666667, "lon": -77.02407366666667, "fusion_lat": 0.0, "name": "3bf582d8c473f8106650168311732575", "is_disabled": 0, "is_reserved": 0, "bike_id": "3bf582d8c473f8106650168311732575", "fusion_lon": 0.0, "type": "electric_scooter"}, {"rental_uris": {"ios": "https://dc.lft.to/lastmile_qr_scan", "android": "https://dc.lft.to/lastmile_qr_scan"}, "lat": 39.01368683333333, "lon": -76.92130783333333, "fusion_lat": 0.0, "name": "63ad6b05cb85d0057ab6bcd5c2408205", "is_disabled": 0, "is_reserved": 0, "bike_id": "63ad6b05cb85d0057ab6bcd5c2408205", "fusion_lon": 0.0, "type": "electric_bike"}, {"rental_uris": {"ios": "https://dc.lft.to/lastmile_qr_scan", "android": "https://dc.lft.to/lastmile_qr_scan"}, "lat": 38.9030155, "lon": -77.048497, "fusion_lat": 0.0, "name": "fb18dd83248d07855fba0acfe3dcb119", "is_disabled": 0, "is_reserved": 0, "bike_id": "fb18dd83248d07855fba0acfe3dcb119", "fusion_lon": 0.0, "type": "electric_scooter"}, {"rental_uris": {"ios": "https://dc.lft.to/lastmile_qr_scan", "android": "https://dc.lft.to/lastmile_qr_scan"}, "lat": 38.929124333333334, "lon": -77.02381366666667, "fusion_lat": 0.0, "name": "38585a50b22a12a4795ac361ea1dd4f6", "is_disabled": 0, "is_reserved": 0, "bike_id": "38585a50b22a12a4795ac361ea1dd4f6", "fusion_lon": 0.0, "type": "electric_bike"}, {"rental_uris": {"ios": "https://dc.lft.to/lastmile_qr_scan", "android": "https://dc.lft.to/lastmile_qr_scan"}, "lat": 38.921613666666666, "lon": -77.02024516666667, "fusion_lat": 0.0, "name": "e3ab59e0c38f0629acffdca9f5907912", "is_disabled": 0, "is_reserved": 0, "bike_id": "e3ab59e0c38f0629acffdca9f5907912", "fusion_lon": 0.0, "type": "electric_scooter"}, {"rental_uris": {"ios": "https://dc.lft.to/lastmile_qr_scan", "android": "https://dc.lft.to/lastmile_qr_scan"}, "lat": 38.9221675, "lon": -77.03457, "fusion_lat": 0.0, "name": "2549b529a87d60e6ce7dc292fdc990d3", "is_disabled": 0, "is_reserved": 0, "bike_id": "2549b529a87d60e6ce7dc292fdc990d3", "fusion_lon": 0.0, "type": "electric_scooter"}, {"rental_uris": {"ios": "https://dc.lft.to/lastmile_qr_scan", "android": "https://dc.lft.to/lastmile_qr_scan"}, "lat": 39.039870666666665, "lon": -76.99920366666667, "fusion_lat": 0.0, "name": "b37eddf0e8d6b92a5dcfd984a1bb3f1d", "is_disabled": 0, "is_reserved": 0, "bike_id": "b37eddf0e8d6b92a5dcfd984a1bb3f1d", "fusion_lon": 0.0, "type": "electric_bike"}, {"rental_uris": {"ios": "https://dc.lft.to/lastmile_qr_scan", "android": "https://dc.lft.to/lastmile_qr_scan"}, "lat": 38.917361, "lon": -77.03176966666666, "fusion_lat": 0.0, "name": "e20f29bca1352b12967b5016045308b5", "is_disabled": 0, "is_reserved": 0, "bike_id": "e20f29bca1352b12967b5016045308b5", "fusion_lon": 0.0, "type": "electric_scooter"}, {"rental_uris": {"ios": "https://dc.lft.to/lastmile_qr_scan", "android": "https://dc.lft.to/lastmile_qr_scan"}, "lat": 38.9322005, "lon": -76.99691666666666, "fusion_lat": 0.0, "name": "ade38fd416b145cd9ef18b05404de9f9", "is_disabled": 0, "is_reserved": 0, "bike_id": "ade38fd416b145cd9ef18b05404de9f9", "fusion_lon": 0.0, "type": "electric_scooter"}, {"rental_uris": {"ios": "https://dc.lft.to/lastmile_qr_scan", "android": "https://dc.lft.to/lastmile_qr_scan"}, "lat": 38.88813733333333, "lon": -76.93008116666667, "fusion_lat": 0.0, "name": "9e185e3f4d962613239f6890b430423d", "is_disabled": 0, "is_reserved": 0, "bike_id": "9e185e3f4d962613239f6890b430423d", "fusion_lon": 0.0, "type": "electric_scooter"}, {"rental_uris": {"ios": "https://dc.lft.to/lastmile_qr_scan", "android": "https://dc.lft.to/lastmile_qr_scan"}, "lat": 38.91925833333333, "lon": -77.03192733333333, "fusion_lat": 0.0, "name": "bcfde426fa4145fe81104380162a3781", "is_disabled": 0, "is_reserved": 0, "bike_id": "bcfde426fa4145fe81104380162a3781", "fusion_lon": 0.0, "type": "electric_scooter"}, {"rental_uris": {"ios": "https://dc.lft.to/lastmile_qr_scan", "android": "https://dc.lft.to/lastmile_qr_scan"}, "lat": 38.9205025, "lon": -77.042224, "fusion_lat": 0.0, "name": "d7df01032810c077a992ab1f1a9d7d33", "is_disabled": 0, "is_reserved": 0, "bike_id": "d7df01032810c077a992ab1f1a9d7d33", "fusion_lon": 0.0, "type": "electric_scooter"}, {"rental_uris": {"ios": "https://dc.lft.to/lastmile_qr_scan", "android": "https://dc.lft.to/lastmile_qr_scan"}, "lat": 38.916151666666664, "lon": -77.04834266666667, "fusion_lat": 0.0, "name": "1e312218e7730b429c948922ff9107b8", "is_disabled": 0, "is_reserved": 0, "bike_id": "1e312218e7730b429c948922ff9107b8", "fusion_lon": 0.0, "type": "electric_scooter"}, {"rental_uris": {"ios": "https://dc.lft.to/lastmile_qr_scan", "android": "https://dc.lft.to/lastmile_qr_scan"}, "lat": 38.901178333333334, "lon": -77.0435735, "fusion_lat": 0.0, "name": "5e0161125dafa8dd12c402039b18f229", "is_disabled": 0, "is_reserved": 0, "bike_id": "5e0161125dafa8dd12c402039b18f229", "fusion_lon": 0.0, "type": "electric_scooter"}, {"rental_uris": {"ios": "https://dc.lft.to/lastmile_qr_scan", "android": "https://dc.lft.to/lastmile_qr_scan"}, "lat": 38.8843785, "lon": -77.003487, "fusion_lat": 0.0, "name": "06bd171d34ffd17ef476ff72bd41ebe8", "is_disabled": 0, "is_reserved": 0, "bike_id": "06bd171d34ffd17ef476ff72bd41ebe8", "fusion_lon": 0.0, "type": "electric_scooter"}, {"rental_uris": {"ios": "https://dc.lft.to/lastmile_qr_scan", "android": "https://dc.lft.to/lastmile_qr_scan"}, "lat": 38.91818883333333, "lon": -77.0319545, "fusion_lat": 0.0, "name": "bbf59c2dc46dc8c8849acc6d9415e16d", "is_disabled": 0, "is_reserved": 0, "bike_id": "bbf59c2dc46dc8c8849acc6d9415e16d", "fusion_lon": 0.0, "type": "electric_scooter"}, {"rental_uris": {"ios": "https://dc.lft.to/lastmile_qr_scan", "android": "https://dc.lft.to/lastmile_qr_scan"}, "lat": 38.90318583333333, "lon": -77.01623433333333, "fusion_lat": 0.0, "name": "c757395916b92a8f2bf43b37e287fd5b", "is_disabled": 0, "is_reserved": 0, "bike_id": "c757395916b92a8f2bf43b37e287fd5b", "fusion_lon": 0.0, "type": "electric_scooter"}, {"rental_uris": {"ios": "https://dc.lft.to/lastmile_qr_scan", "android": "https://dc.lft.to/lastmile_qr_scan"}, "lat": 38.8989925, "lon": -77.02385183333334, "fusion_lat": 0.0, "name": "5b03a3efe98978b9c9d0e8166ef30af1", "is_disabled": 0, "is_reserved": 0, "bike_id": "5b03a3efe98978b9c9d0e8166ef30af1", "fusion_lon": 0.0, "type": "electric_scooter"}, {"rental_uris": {"ios": "https://dc.lft.to/lastmile_qr_scan", "android": "https://dc.lft.to/lastmile_qr_scan"}, "lat": 38.902301333333334, "lon": -77.05988833333333, "fusion_lat": 0.0, "name": "b8f6fa75a30c83af30bbb2c942a0291b", "is_disabled": 0, "is_reserved": 0, "bike_id": "b8f6fa75a30c83af30bbb2c942a0291b", "fusion_lon": 0.0, "type": "electric_scooter"}, {"rental_uris": {"ios": "https://dc.lft.to/lastmile_qr_scan", "android": "https://dc.lft.to/lastmile_qr_scan"}, "lat": 38.917084333333335, "lon": -77.02612166666667, "fusion_lat": 0.0, "name": "dc0dbcd71b81c2d1186ed9e647d31b1f", "is_disabled": 0, "is_reserved": 0, "bike_id": "dc0dbcd71b81c2d1186ed9e647d31b1f", "fusion_lon": 0.0, "type": "electric_scooter"}, {"rental_uris": {"ios": "https://dc.lft.to/lastmile_qr_scan", "android": "https://dc.lft.to/lastmile_qr_scan"}, "lat": 38.8647395, "lon": -76.9822835, "fusion_lat": 0.0, "name": "478e8794f3a22ef49a0f4a2fcc7e0809", "is_disabled": 0, "is_reserved": 0, "bike_id": "478e8794f3a22ef49a0f4a2fcc7e0809", "fusion_lon": 0.0, "type": "electric_scooter"}, {"rental_uris": {"ios": "https://dc.lft.to/lastmile_qr_scan", "android": "https://dc.lft.to/lastmile_qr_scan"}, "lat": 38.929150166666666, "lon": -77.03258966666667, "fusion_lat": 0.0, "name": "9e976ae2e5d750b534e2c3ba535bcfd3", "is_disabled": 0, "is_reserved": 0, "bike_id": "9e976ae2e5d750b534e2c3ba535bcfd3", "fusion_lon": 0.0, "type": "electric_scooter"}, {"rental_uris": {"ios": "https://dc.lft.to/lastmile_qr_scan", "android": "https://dc.lft.to/lastmile_qr_scan"}, "lat": 38.8770535, "lon": -77.00329283333333, "fusion_lat": 0.0, "name": "0ff98d54688f08b7753ba34a34c85ea0", "is_disabled": 0, "is_reserved": 0, "bike_id": "0ff98d54688f08b7753ba34a34c85ea0", "fusion_lon": 0.0, "type": "electric_scooter"}, {"rental_uris": {"ios": "https://dc.lft.to/lastmile_qr_scan", "android": "https://dc.lft.to/lastmile_qr_scan"}, "lat": 38.915693833333336, "lon": -77.031901, "fusion_lat": 0.0, "name": "55c101e229f9997775071a4f4a564a10", "is_disabled": 0, "is_reserved": 0, "bike_id": "55c101e229f9997775071a4f4a564a10", "fusion_lon": 0.0, "type": "electric_scooter"}, {"rental_uris": {"ios": "https://dc.lft.to/lastmile_qr_scan", "android": "https://dc.lft.to/lastmile_qr_scan"}, "lat": 38.862482166666666, "lon": -76.99551116666666, "fusion_lat": 0.0, "name": "f61d49fd9837568311ce3519c01b92f9", "is_disabled": 0, "is_reserved": 0, "bike_id": "f61d49fd9837568311ce3519c01b92f9", "fusion_lon": 0.0, "type": "electric_scooter"}, {"rental_uris": {"ios": "https://dc.lft.to/lastmile_qr_scan", "android": "https://dc.lft.to/lastmile_qr_scan"}, "lat": 38.86506, "lon": -76.9899925, "fusion_lat": 0.0, "name": "3569c3be5102aeaf759e1d121f1b3d60", "is_disabled": 0, "is_reserved": 0, "bike_id": "3569c3be5102aeaf759e1d121f1b3d60", "fusion_lon": 0.0, "type": "electric_scooter"}, {"rental_uris": {"ios": "https://dc.lft.to/lastmile_qr_scan", "android": "https://dc.lft.to/lastmile_qr_scan"}, "lat": 38.909564833333334, "lon": -77.02451033333334, "fusion_lat": 0.0, "name": "2617defaa2b485fa35f6d83594e3b624", "is_disabled": 0, "is_reserved": 0, "bike_id": "2617defaa2b485fa35f6d83594e3b624", "fusion_lon": 0.0, "type": "electric_scooter"}, {"rental_uris": {"ios": "https://dc.lft.to/lastmile_qr_scan", "android": "https://dc.lft.to/lastmile_qr_scan"}, "lat": 38.92185216666667, "lon": -77.0297605, "fusion_lat": 0.0, "name": "6621e77cd9265de517df54f1d5732f17", "is_disabled": 0, "is_reserved": 0, "bike_id": "6621e77cd9265de517df54f1d5732f17", "fusion_lon": 0.0, "type": "electric_scooter"}, {"rental_uris": {"ios": "https://dc.lft.to/lastmile_qr_scan", "android": "https://dc.lft.to/lastmile_qr_scan"}, "lat": 38.93910533333333, "lon": -77.0604325, "fusion_lat": 0.0, "name": "d1605af0ed78ba03672ff468d3dcdb5e", "is_disabled": 0, "is_reserved": 0, "bike_id": "d1605af0ed78ba03672ff468d3dcdb5e", "fusion_lon": 0.0, "type": "electric_scooter"}, {"rental_uris": {"ios": "https://dc.lft.to/lastmile_qr_scan", "android": "https://dc.lft.to/lastmile_qr_scan"}, "lat": 38.90987783333333, "lon": -77.021928, "fusion_lat": 0.0, "name": "a216ccb1d9f85d0d5df6a201c8b0a665", "is_disabled": 0, "is_reserved": 0, "bike_id": "a216ccb1d9f85d0d5df6a201c8b0a665", "fusion_lon": 0.0, "type": "electric_scooter"}, {"rental_uris": {"ios": "https://dc.lft.to/lastmile_qr_scan", "android": "https://dc.lft.to/lastmile_qr_scan"}, "lat": 38.903780833333336, "lon": -77.04023916666667, "fusion_lat": 0.0, "name": "ec5702fc7542fc3fca94321158e63221", "is_disabled": 0, "is_reserved": 0, "bike_id": "ec5702fc7542fc3fca94321158e63221", "fusion_lon": 0.0, "type": "electric_scooter"}, {"rental_uris": {"ios": "https://dc.lft.to/lastmile_qr_scan", "android": "https://dc.lft.to/lastmile_qr_scan"}, "lat": 38.86247483333333, "lon": -76.99255266666667, "fusion_lat": 0.0, "name": "544626fa207a42454e5676c3d385bcb5", "is_disabled": 0, "is_reserved": 0, "bike_id": "544626fa207a42454e5676c3d385bcb5", "fusion_lon": 0.0, "type": "electric_scooter"}, {"rental_uris": {"ios": "https://dc.lft.to/lastmile_qr_scan", "android": "https://dc.lft.to/lastmile_qr_scan"}, "lat": 38.935284, "lon": -77.02352983333333, "fusion_lat": 0.0, "name": "8ac7d1aacdc9852c53234477e465bccf", "is_disabled": 0, "is_reserved": 0, "bike_id": "8ac7d1aacdc9852c53234477e465bccf", "fusion_lon": 0.0, "type": "electric_scooter"}, {"rental_uris": {"ios": "https://dc.lft.to/lastmile_qr_scan", "android": "https://dc.lft.to/lastmile_qr_scan"}, "lat": 38.887471833333336, "lon": -76.90096616666666, "fusion_lat": 0.0, "name": "e0348f249436d8e09c2c2d16d1c782c1", "is_disabled": 0, "is_reserved": 0, "bike_id": "e0348f249436d8e09c2c2d16d1c782c1", "fusion_lon": 0.0, "type": "electric_bike"}, {"rental_uris": {"ios": "https://dc.lft.to/lastmile_qr_scan", "android": "https://dc.lft.to/lastmile_qr_scan"}, "lat": 38.918159833333334, "lon": -77.0257455, "fusion_lat": 0.0, "name": "78f64e50087b9784d94f256e1f132749", "is_disabled": 0, "is_reserved": 0, "bike_id": "78f64e50087b9784d94f256e1f132749", "fusion_lon": 0.0, "type": "electric_scooter"}, {"rental_uris": {"ios": "https://dc.lft.to/lastmile_qr_scan", "android": "https://dc.lft.to/lastmile_qr_scan"}, "lat": 38.92153833333333, "lon": -77.03331866666667, "fusion_lat": 0.0, "name": "c901e0b58571a4b1bf15a83fedddd4e7", "is_disabled": 0, "is_reserved": 0, "bike_id": "c901e0b58571a4b1bf15a83fedddd4e7", "fusion_lon": 0.0, "type": "electric_scooter"}, {"rental_uris": {"ios": "https://dc.lft.to/lastmile_qr_scan", "android": "https://dc.lft.to/lastmile_qr_scan"}, "lat": 38.88702633333333, "lon": -77.01368216666667, "fusion_lat": 0.0, "name": "f311e36e6c11c6ac0ac0f77617a1b15d", "is_disabled": 0, "is_reserved": 0, "bike_id": "f311e36e6c11c6ac0ac0f77617a1b15d", "fusion_lon": 0.0, "type": "electric_scooter"}, {"rental_uris": {"ios": "https://dc.lft.to/lastmile_qr_scan", "android": "https://dc.lft.to/lastmile_qr_scan"}, "lat": 38.897283333333334, "lon": -77.02163416666667, "fusion_lat": 0.0, "name": "90ad65ac41ca9b88ffa38ea478b5dbff", "is_disabled": 0, "is_reserved": 0, "bike_id": "90ad65ac41ca9b88ffa38ea478b5dbff", "fusion_lon": 0.0, "type": "electric_scooter"}, {"rental_uris": {"ios": "https://dc.lft.to/lastmile_qr_scan", "android": "https://dc.lft.to/lastmile_qr_scan"}, "lat": 38.92243066666666, "lon": -77.0401045, "fusion_lat": 0.0, "name": "42a1b854bc1d41555e4d7dce86cc1260", "is_disabled": 0, "is_reserved": 0, "bike_id": "42a1b854bc1d41555e4d7dce86cc1260", "fusion_lon": 0.0, "type": "electric_scooter"}, {"rental_uris": {"ios": "https://dc.lft.to/lastmile_qr_scan", "android": "https://dc.lft.to/lastmile_qr_scan"}, "lat": 38.92312666666667, "lon": -77.0462005, "fusion_lat": 0.0, "name": "ebe395ccd8106dcef29331d3e5766245", "is_disabled": 0, "is_reserved": 0, "bike_id": "ebe395ccd8106dcef29331d3e5766245", "fusion_lon": 0.0, "type": "electric_scooter"}, {"rental_uris": {"ios": "https://dc.lft.to/lastmile_qr_scan", "android": "https://dc.lft.to/lastmile_qr_scan"}, "lat": 38.93984716666667, "lon": -77.01887, "fusion_lat": 0.0, "name": "bb71ea1ceb47cfdf30ea404e48331a01", "is_disabled": 0, "is_reserved": 0, "bike_id": "bb71ea1ceb47cfdf30ea404e48331a01", "fusion_lon": 0.0, "type": "electric_scooter"}, {"rental_uris": {"ios": "https://dc.lft.to/lastmile_qr_scan", "android": "https://dc.lft.to/lastmile_qr_scan"}, "lat": 38.913962166666664, "lon": -77.02410066666667, "fusion_lat": 0.0, "name": "9a0adb0fccb5519862d9768107f65205", "is_disabled": 0, "is_reserved": 0, "bike_id": "9a0adb0fccb5519862d9768107f65205", "fusion_lon": 0.0, "type": "electric_scooter"}, {"rental_uris": {"ios": "https://dc.lft.to/lastmile_qr_scan", "android": "https://dc.lft.to/lastmile_qr_scan"}, "lat": 38.8765635, "lon": -77.015721, "fusion_lat": 0.0, "name": "154ead080bd0ef4d7c7dd2a67b25a9c8", "is_disabled": 0, "is_reserved": 0, "bike_id": "154ead080bd0ef4d7c7dd2a67b25a9c8", "fusion_lon": 0.0, "type": "electric_scooter"}, {"rental_uris": {"ios": "https://dc.lft.to/lastmile_qr_scan", "android": "https://dc.lft.to/lastmile_qr_scan"}, "lat": 38.90648366666667, "lon": -77.0427965, "fusion_lat": 0.0, "name": "6a7de50fa44b32ce9545b05cea6e1962", "is_disabled": 0, "is_reserved": 0, "bike_id": "6a7de50fa44b32ce9545b05cea6e1962", "fusion_lon": 0.0, "type": "electric_scooter"}, {"rental_uris": {"ios": "https://dc.lft.to/lastmile_qr_scan", "android": "https://dc.lft.to/lastmile_qr_scan"}, "lat": 38.913630833333336, "lon": -77.04558116666666, "fusion_lat": 0.0, "name": "1abf597ac1845cd1572c34b8fa36a6ee", "is_disabled": 0, "is_reserved": 0, "bike_id": "1abf597ac1845cd1572c34b8fa36a6ee", "fusion_lon": 0.0, "type": "electric_scooter"}, {"rental_uris": {"ios": "https://dc.lft.to/lastmile_qr_scan", "android": "https://dc.lft.to/lastmile_qr_scan"}, "lat": 38.911403666666665, "lon": -77.0238715, "fusion_lat": 0.0, "name": "e69e9343eed6b721a916acd779287cde", "is_disabled": 0, "is_reserved": 0, "bike_id": "e69e9343eed6b721a916acd779287cde", "fusion_lon": 0.0, "type": "electric_scooter"}, {"rental_uris": {"ios": "https://dc.lft.to/lastmile_qr_scan", "android": "https://dc.lft.to/lastmile_qr_scan"}, "lat": 38.903799, "lon": -77.00745716666667, "fusion_lat": 0.0, "name": "9006e6835f9bef42a20020bd5675e795", "is_disabled": 0, "is_reserved": 0, "bike_id": "9006e6835f9bef42a20020bd5675e795", "fusion_lon": 0.0, "type": "electric_scooter"}, {"rental_uris": {"ios": "https://dc.lft.to/lastmile_qr_scan", "android": "https://dc.lft.to/lastmile_qr_scan"}, "lat": 38.89133366666667, "lon": -76.95185016666667, "fusion_lat": 0.0, "name": "f66bffcfe06204a24f543f08593c8d87", "is_disabled": 0, "is_reserved": 0, "bike_id": "f66bffcfe06204a24f543f08593c8d87", "fusion_lon": 0.0, "type": "electric_scooter"}, {"rental_uris": {"ios": "https://dc.lft.to/lastmile_qr_scan", "android": "https://dc.lft.to/lastmile_qr_scan"}, "lat": 38.908893666666664, "lon": -76.98231816666667, "fusion_lat": 0.0, "name": "dc8b15113cb9577acfde692de0913cc5", "is_disabled": 0, "is_reserved": 0, "bike_id": "dc8b15113cb9577acfde692de0913cc5", "fusion_lon": 0.0, "type": "electric_scooter"}, {"rental_uris": {"ios": "https://dc.lft.to/lastmile_qr_scan", "android": "https://dc.lft.to/lastmile_qr_scan"}, "lat": 38.9197445, "lon": -77.04222216666666, "fusion_lat": 0.0, "name": "d74a96131c4353ab1781d3a221b99ff9", "is_disabled": 0, "is_reserved": 0, "bike_id": "d74a96131c4353ab1781d3a221b99ff9", "fusion_lon": 0.0, "type": "electric_scooter"}, {"rental_uris": {"ios": "https://dc.lft.to/lastmile_qr_scan", "android": "https://dc.lft.to/lastmile_qr_scan"}, "lat": 38.92758216666667, "lon": -77.056409, "fusion_lat": 0.0, "name": "c6abe19290106b96e03258b558c345b4", "is_disabled": 0, "is_reserved": 0, "bike_id": "c6abe19290106b96e03258b558c345b4", "fusion_lon": 0.0, "type": "electric_scooter"}, {"rental_uris": {"ios": "https://dc.lft.to/lastmile_qr_scan", "android": "https://dc.lft.to/lastmile_qr_scan"}, "lat": 38.91226916666667, "lon": -77.012375, "fusion_lat": 0.0, "name": "3831d056852e66d43d836d5d1d790923", "is_disabled": 0, "is_reserved": 0, "bike_id": "3831d056852e66d43d836d5d1d790923", "fusion_lon": 0.0, "type": "electric_scooter"}, {"rental_uris": {"ios": "https://dc.lft.to/lastmile_qr_scan", "android": "https://dc.lft.to/lastmile_qr_scan"}, "lat": 38.897263333333335, "lon": -77.044506, "fusion_lat": 0.0, "name": "3371c214179837449fbc6d5f26e750b7", "is_disabled": 0, "is_reserved": 0, "bike_id": "3371c214179837449fbc6d5f26e750b7", "fusion_lon": 0.0, "type": "electric_scooter"}, {"rental_uris": {"ios": "https://dc.lft.to/lastmile_qr_scan", "android": "https://dc.lft.to/lastmile_qr_scan"}, "lat": 38.92052416666667, "lon": -77.04388516666667, "fusion_lat": 0.0, "name": "907ab90b98b1006cfd119eacabd7ccaf", "is_disabled": 0, "is_reserved": 0, "bike_id": "907ab90b98b1006cfd119eacabd7ccaf", "fusion_lon": 0.0, "type": "electric_scooter"}, {"rental_uris": {"ios": "https://dc.lft.to/lastmile_qr_scan", "android": "https://dc.lft.to/lastmile_qr_scan"}, "lat": 38.87173533333333, "lon": -77.00624283333333, "fusion_lat": 0.0, "name": "33226f2548717607064ccd37108e7870", "is_disabled": 0, "is_reserved": 0, "bike_id": "33226f2548717607064ccd37108e7870", "fusion_lon": 0.0, "type": "electric_scooter"}, {"rental_uris": {"ios": "https://dc.lft.to/lastmile_qr_scan", "android": "https://dc.lft.to/lastmile_qr_scan"}, "lat": 38.900322833333334, "lon": -76.99850433333333, "fusion_lat": 0.0, "name": "739dc8e5482b9ae5885c6031abe48c4d", "is_disabled": 0, "is_reserved": 0, "bike_id": "739dc8e5482b9ae5885c6031abe48c4d", "fusion_lon": 0.0, "type": "electric_scooter"}, {"rental_uris": {"ios": "https://dc.lft.to/lastmile_qr_scan", "android": "https://dc.lft.to/lastmile_qr_scan"}, "lat": 38.905563, "lon": -77.03008566666666, "fusion_lat": 0.0, "name": "99072115456ddd455ff26f98fa21f953", "is_disabled": 0, "is_reserved": 0, "bike_id": "99072115456ddd455ff26f98fa21f953", "fusion_lon": 0.0, "type": "electric_scooter"}, {"rental_uris": {"ios": "https://dc.lft.to/lastmile_qr_scan", "android": "https://dc.lft.to/lastmile_qr_scan"}, "lat": 38.9362205, "lon": -76.97966716666667, "fusion_lat": 0.0, "name": "9a538f1af75d8369aead8ea5721b49cd", "is_disabled": 0, "is_reserved": 0, "bike_id": "9a538f1af75d8369aead8ea5721b49cd", "fusion_lon": 0.0, "type": "electric_scooter"}, {"rental_uris": {"ios": "https://dc.lft.to/lastmile_qr_scan", "android": "https://dc.lft.to/lastmile_qr_scan"}, "lat": 38.92152883333333, "lon": -77.03381366666666, "fusion_lat": 0.0, "name": "f2e38b84a16b1ba07897907622be1bfc", "is_disabled": 0, "is_reserved": 0, "bike_id": "f2e38b84a16b1ba07897907622be1bfc", "fusion_lon": 0.0, "type": "electric_scooter"}, {"rental_uris": {"ios": "https://dc.lft.to/lastmile_qr_scan", "android": "https://dc.lft.to/lastmile_qr_scan"}, "lat": 38.895033, "lon": -77.04328633333333, "fusion_lat": 0.0, "name": "f9052141f2bd13f103c03c3000b9606e", "is_disabled": 0, "is_reserved": 0, "bike_id": "f9052141f2bd13f103c03c3000b9606e", "fusion_lon": 0.0, "type": "electric_scooter"}, {"rental_uris": {"ios": "https://dc.lft.to/lastmile_qr_scan", "android": "https://dc.lft.to/lastmile_qr_scan"}, "lat": 38.90793683333333, "lon": -77.02689216666667, "fusion_lat": 0.0, "name": "a576457cd749a84840cc52cee7a25f02", "is_disabled": 0, "is_reserved": 0, "bike_id": "a576457cd749a84840cc52cee7a25f02", "fusion_lon": 0.0, "type": "electric_scooter"}, {"rental_uris": {"ios": "https://dc.lft.to/lastmile_qr_scan", "android": "https://dc.lft.to/lastmile_qr_scan"}, "lat": 38.89240083333333, "lon": -77.0334585, "fusion_lat": 0.0, "name": "602db15d4f582dfeb119d32225cbce75", "is_disabled": 0, "is_reserved": 0, "bike_id": "602db15d4f582dfeb119d32225cbce75", "fusion_lon": 0.0, "type": "electric_scooter"}, {"rental_uris": {"ios": "https://dc.lft.to/lastmile_qr_scan", "android": "https://dc.lft.to/lastmile_qr_scan"}, "lat": 38.883978666666664, "lon": -76.96053466666666, "fusion_lat": 0.0, "name": "e75fe96533232b9cbc799b6d989cd403", "is_disabled": 0, "is_reserved": 0, "bike_id": "e75fe96533232b9cbc799b6d989cd403", "fusion_lon": 0.0, "type": "electric_bike"}, {"rental_uris": {"ios": "https://dc.lft.to/lastmile_qr_scan", "android": "https://dc.lft.to/lastmile_qr_scan"}, "lat": 38.91560833333333, "lon": -77.03046383333333, "fusion_lat": 0.0, "name": "3c09df197850de77319c1cafedafaf12", "is_disabled": 0, "is_reserved": 0, "bike_id": "3c09df197850de77319c1cafedafaf12", "fusion_lon": 0.0, "type": "electric_scooter"}, {"rental_uris": {"ios": "https://dc.lft.to/lastmile_qr_scan", "android": "https://dc.lft.to/lastmile_qr_scan"}, "lat": 38.908544666666664, "lon": -77.000775, "fusion_lat": 0.0, "name": "7125c31ecd4ea34fcbb32d03cc07b350", "is_disabled": 0, "is_reserved": 0, "bike_id": "7125c31ecd4ea34fcbb32d03cc07b350", "fusion_lon": 0.0, "type": "electric_scooter"}, {"rental_uris": {"ios": "https://dc.lft.to/lastmile_qr_scan", "android": "https://dc.lft.to/lastmile_qr_scan"}, "lat": 39.050951, "lon": -77.11741716666667, "fusion_lat": 0.0, "name": "fdfa7ab9182822e3a49ee112f254af38", "is_disabled": 0, "is_reserved": 0, "bike_id": "fdfa7ab9182822e3a49ee112f254af38", "fusion_lon": 0.0, "type": "electric_bike"}, {"rental_uris": {"ios": "https://dc.lft.to/lastmile_qr_scan", "android": "https://dc.lft.to/lastmile_qr_scan"}, "lat": 38.91259483333333, "lon": -77.03235316666667, "fusion_lat": 0.0, "name": "58d2f3b0c3253890162a379f134af274", "is_disabled": 0, "is_reserved": 0, "bike_id": "58d2f3b0c3253890162a379f134af274", "fusion_lon": 0.0, "type": "electric_scooter"}, {"rental_uris": {"ios": "https://dc.lft.to/lastmile_qr_scan", "android": "https://dc.lft.to/lastmile_qr_scan"}, "lat": 38.928738833333334, "lon": -77.03321333333334, "fusion_lat": 0.0, "name": "e820c9dbbbdd84f6b6f69a79d1583a8d", "is_disabled": 0, "is_reserved": 0, "bike_id": "e820c9dbbbdd84f6b6f69a79d1583a8d", "fusion_lon": 0.0, "type": "electric_scooter"}, {"rental_uris": {"ios": "https://dc.lft.to/lastmile_qr_scan", "android": "https://dc.lft.to/lastmile_qr_scan"}, "lat": 38.92153166666667, "lon": -77.03871516666666, "fusion_lat": 0.0, "name": "e3b6e3dbf96f643ed08ef0ef47e251fb", "is_disabled": 0, "is_reserved": 0, "bike_id": "e3b6e3dbf96f643ed08ef0ef47e251fb", "fusion_lon": 0.0, "type": "electric_scooter"}, {"rental_uris": {"ios": "https://dc.lft.to/lastmile_qr_scan", "android": "https://dc.lft.to/lastmile_qr_scan"}, "lat": 38.90064516666666, "lon": -77.04499783333333, "fusion_lat": 0.0, "name": "f082181ee8514897410cfd203d9cd6b1", "is_disabled": 0, "is_reserved": 0, "bike_id": "f082181ee8514897410cfd203d9cd6b1", "fusion_lon": 0.0, "type": "electric_scooter"}, {"rental_uris": {"ios": "https://dc.lft.to/lastmile_qr_scan", "android": "https://dc.lft.to/lastmile_qr_scan"}, "lat": 38.8934355, "lon": -77.01222333333334, "fusion_lat": 0.0, "name": "0dc5c9bb0114342f46dd2ee40db330cd", "is_disabled": 0, "is_reserved": 0, "bike_id": "0dc5c9bb0114342f46dd2ee40db330cd", "fusion_lon": 0.0, "type": "electric_scooter"}, {"rental_uris": {"ios": "https://dc.lft.to/lastmile_qr_scan", "android": "https://dc.lft.to/lastmile_qr_scan"}, "lat": 38.956359666666664, "lon": -77.03629183333334, "fusion_lat": 0.0, "name": "44c4a865fc239078a275d6540ea0d993", "is_disabled": 0, "is_reserved": 0, "bike_id": "44c4a865fc239078a275d6540ea0d993", "fusion_lon": 0.0, "type": "electric_scooter"}, {"rental_uris": {"ios": "https://dc.lft.to/lastmile_qr_scan", "android": "https://dc.lft.to/lastmile_qr_scan"}, "lat": 38.89103433333333, "lon": -77.001963, "fusion_lat": 0.0, "name": "6233b04af12a6189282d6c1d6accc872", "is_disabled": 0, "is_reserved": 0, "bike_id": "6233b04af12a6189282d6c1d6accc872", "fusion_lon": 0.0, "type": "electric_scooter"}, {"rental_uris": {"ios": "https://dc.lft.to/lastmile_qr_scan", "android": "https://dc.lft.to/lastmile_qr_scan"}, "lat": 38.94196483333333, "lon": -77.03657066666666, "fusion_lat": 0.0, "name": "e7e72a63bc2cac315698c6e57a4566e1", "is_disabled": 0, "is_reserved": 0, "bike_id": "e7e72a63bc2cac315698c6e57a4566e1", "fusion_lon": 0.0, "type": "electric_scooter"}, {"rental_uris": {"ios": "https://dc.lft.to/lastmile_qr_scan", "android": "https://dc.lft.to/lastmile_qr_scan"}, "lat": 38.91571833333333, "lon": -77.0124485, "fusion_lat": 0.0, "name": "c1c7e43b46bac9fb7a58f3440991754f", "is_disabled": 0, "is_reserved": 0, "bike_id": "c1c7e43b46bac9fb7a58f3440991754f", "fusion_lon": 0.0, "type": "electric_scooter"}, {"rental_uris": {"ios": "https://dc.lft.to/lastmile_qr_scan", "android": "https://dc.lft.to/lastmile_qr_scan"}, "lat": 38.89831216666666, "lon": -77.03336683333333, "fusion_lat": 0.0, "name": "5589608656af27a3eb035d6ff613f2d8", "is_disabled": 0, "is_reserved": 0, "bike_id": "5589608656af27a3eb035d6ff613f2d8", "fusion_lon": 0.0, "type": "electric_scooter"}, {"rental_uris": {"ios": "https://dc.lft.to/lastmile_qr_scan", "android": "https://dc.lft.to/lastmile_qr_scan"}, "lat": 38.900376666666666, "lon": -77.03813216666667, "fusion_lat": 0.0, "name": "51ec71c46c05fc17a1cbc903aca7ddb7", "is_disabled": 0, "is_reserved": 0, "bike_id": "51ec71c46c05fc17a1cbc903aca7ddb7", "fusion_lon": 0.0, "type": "electric_scooter"}, {"rental_uris": {"ios": "https://dc.lft.to/lastmile_qr_scan", "android": "https://dc.lft.to/lastmile_qr_scan"}, "lat": 38.92593333333333, "lon": -77.025123, "fusion_lat": 0.0, "name": "994b0aec964d3a03f8e4929ec80a51e6", "is_disabled": 0, "is_reserved": 0, "bike_id": "994b0aec964d3a03f8e4929ec80a51e6", "fusion_lon": 0.0, "type": "electric_scooter"}, {"rental_uris": {"ios": "https://dc.lft.to/lastmile_qr_scan", "android": "https://dc.lft.to/lastmile_qr_scan"}, "lat": 38.93574916666667, "lon": -77.032654, "fusion_lat": 0.0, "name": "936443c38d6d663839a28686d69d491f", "is_disabled": 0, "is_reserved": 0, "bike_id": "936443c38d6d663839a28686d69d491f", "fusion_lon": 0.0, "type": "electric_scooter"}, {"rental_uris": {"ios": "https://dc.lft.to/lastmile_qr_scan", "android": "https://dc.lft.to/lastmile_qr_scan"}, "lat": 38.898263, "lon": -77.00733783333334, "fusion_lat": 0.0, "name": "436b2aeee65e785045de721b5dbe3c88", "is_disabled": 0, "is_reserved": 0, "bike_id": "436b2aeee65e785045de721b5dbe3c88", "fusion_lon": 0.0, "type": "electric_scooter"}, {"rental_uris": {"ios": "https://dc.lft.to/lastmile_qr_scan", "android": "https://dc.lft.to/lastmile_qr_scan"}, "lat": 38.94798383333333, "lon": -76.955385, "fusion_lat": 0.0, "name": "e7024c9832cae697cca1974d536362ff", "is_disabled": 0, "is_reserved": 0, "bike_id": "e7024c9832cae697cca1974d536362ff", "fusion_lon": 0.0, "type": "electric_bike"}, {"rental_uris": {"ios": "https://dc.lft.to/lastmile_qr_scan", "android": "https://dc.lft.to/lastmile_qr_scan"}, "lat": 38.923544166666666, "lon": -77.0415055, "fusion_lat": 0.0, "name": "782835fca84a335f57b52dc1af86d098", "is_disabled": 0, "is_reserved": 0, "bike_id": "782835fca84a335f57b52dc1af86d098", "fusion_lon": 0.0, "type": "electric_scooter"}, {"rental_uris": {"ios": "https://dc.lft.to/lastmile_qr_scan", "android": "https://dc.lft.to/lastmile_qr_scan"}, "lat": 38.8513675, "lon": -76.971183, "fusion_lat": 0.0, "name": "c4f5f3a874012aa8c1d846b99d898de4", "is_disabled": 0, "is_reserved": 0, "bike_id": "c4f5f3a874012aa8c1d846b99d898de4", "fusion_lon": 0.0, "type": "electric_scooter"}, {"rental_uris": {"ios": "https://dc.lft.to/lastmile_qr_scan", "android": "https://dc.lft.to/lastmile_qr_scan"}, "lat": 38.899514333333336, "lon": -77.04534433333333, "fusion_lat": 0.0, "name": "52185976037a99e065f8ab86a9770bc7", "is_disabled": 0, "is_reserved": 0, "bike_id": "52185976037a99e065f8ab86a9770bc7", "fusion_lon": 0.0, "type": "electric_scooter"}, {"rental_uris": {"ios": "https://dc.lft.to/lastmile_qr_scan", "android": "https://dc.lft.to/lastmile_qr_scan"}, "lat": 38.988593333333334, "lon": -77.09547866666666, "fusion_lat": 0.0, "name": "861148bea642fadbfe177f601d279615", "is_disabled": 0, "is_reserved": 0, "bike_id": "861148bea642fadbfe177f601d279615", "fusion_lon": 0.0, "type": "electric_bike"}, {"rental_uris": {"ios": "https://dc.lft.to/lastmile_qr_scan", "android": "https://dc.lft.to/lastmile_qr_scan"}, "lat": 38.90271933333333, "lon": -77.01367933333333, "fusion_lat": 0.0, "name": "5442e8e3807f8a6fede5828b3a6d2cdc", "is_disabled": 0, "is_reserved": 0, "bike_id": "5442e8e3807f8a6fede5828b3a6d2cdc", "fusion_lon": 0.0, "type": "electric_scooter"}, {"rental_uris": {"ios": "https://dc.lft.to/lastmile_qr_scan", "android": "https://dc.lft.to/lastmile_qr_scan"}, "lat": 38.898657666666665, "lon": -77.046641, "fusion_lat": 0.0, "name": "65499eb16179e6a0725f50336c721418", "is_disabled": 0, "is_reserved": 0, "bike_id": "65499eb16179e6a0725f50336c721418", "fusion_lon": 0.0, "type": "electric_scooter"}, {"rental_uris": {"ios": "https://dc.lft.to/lastmile_qr_scan", "android": "https://dc.lft.to/lastmile_qr_scan"}, "lat": 38.89715483333333, "lon": -77.02720833333333, "fusion_lat": 0.0, "name": "7c8239826109db372f8d2c3b80526c2f", "is_disabled": 0, "is_reserved": 0, "bike_id": "7c8239826109db372f8d2c3b80526c2f", "fusion_lon": 0.0, "type": "electric_scooter"}, {"rental_uris": {"ios": "https://dc.lft.to/lastmile_qr_scan", "android": "https://dc.lft.to/lastmile_qr_scan"}, "lat": 38.89885916666667, "lon": -76.931748, "fusion_lat": 0.0, "name": "c229052179718586ceacacf242992e58", "is_disabled": 0, "is_reserved": 0, "bike_id": "c229052179718586ceacacf242992e58", "fusion_lon": 0.0, "type": "electric_scooter"}, {"rental_uris": {"ios": "https://dc.lft.to/lastmile_qr_scan", "android": "https://dc.lft.to/lastmile_qr_scan"}, "lat": 38.92116016666667, "lon": -77.01751566666667, "fusion_lat": 0.0, "name": "bfac588db9b93f380af38f9cfb316e2e", "is_disabled": 0, "is_reserved": 0, "bike_id": "bfac588db9b93f380af38f9cfb316e2e", "fusion_lon": 0.0, "type": "electric_scooter"}, {"rental_uris": {"ios": "https://dc.lft.to/lastmile_qr_scan", "android": "https://dc.lft.to/lastmile_qr_scan"}, "lat": 38.90954833333333, "lon": -77.03345133333333, "fusion_lat": 0.0, "name": "16df55891f0072f2da1892f3f9069810", "is_disabled": 0, "is_reserved": 0, "bike_id": "16df55891f0072f2da1892f3f9069810", "fusion_lon": 0.0, "type": "electric_scooter"}, {"rental_uris": {"ios": "https://dc.lft.to/lastmile_qr_scan", "android": "https://dc.lft.to/lastmile_qr_scan"}, "lat": 38.887791166666666, "lon": -77.08937683333333, "fusion_lat": 0.0, "name": "28aa5409e6d18e0f2bf43963eb8c3b65", "is_disabled": 0, "is_reserved": 0, "bike_id": "28aa5409e6d18e0f2bf43963eb8c3b65", "fusion_lon": 0.0, "type": "electric_bike"}, {"rental_uris": {"ios": "https://dc.lft.to/lastmile_qr_scan", "android": "https://dc.lft.to/lastmile_qr_scan"}, "lat": 38.92876283333333, "lon": -77.04038983333334, "fusion_lat": 0.0, "name": "4da0eeb7af374e0e8f91fc4a0f7058ca", "is_disabled": 0, "is_reserved": 0, "bike_id": "4da0eeb7af374e0e8f91fc4a0f7058ca", "fusion_lon": 0.0, "type": "electric_scooter"}, {"rental_uris": {"ios": "https://dc.lft.to/lastmile_qr_scan", "android": "https://dc.lft.to/lastmile_qr_scan"}, "lat": 38.887784833333335, "lon": -76.95527733333333, "fusion_lat": 0.0, "name": "8e21a6be6bcb4f15e279225ca54ac964", "is_disabled": 0, "is_reserved": 0, "bike_id": "8e21a6be6bcb4f15e279225ca54ac964", "fusion_lon": 0.0, "type": "electric_scooter"}, {"rental_uris": {"ios": "https://dc.lft.to/lastmile_qr_scan", "android": "https://dc.lft.to/lastmile_qr_scan"}, "lat": 38.923701, "lon": -77.0312955, "fusion_lat": 0.0, "name": "6a3aaef67c3036ab712ea4e48d03bac9", "is_disabled": 0, "is_reserved": 0, "bike_id": "6a3aaef67c3036ab712ea4e48d03bac9", "fusion_lon": 0.0, "type": "electric_scooter"}, {"rental_uris": {"ios": "https://dc.lft.to/lastmile_qr_scan", "android": "https://dc.lft.to/lastmile_qr_scan"}, "lat": 38.90279916666667, "lon": -77.018783, "fusion_lat": 0.0, "name": "29cc8212069cd51be9766e6f0d092a2d", "is_disabled": 0, "is_reserved": 0, "bike_id": "29cc8212069cd51be9766e6f0d092a2d", "fusion_lon": 0.0, "type": "electric_scooter"}, {"rental_uris": {"ios": "https://dc.lft.to/lastmile_qr_scan", "android": "https://dc.lft.to/lastmile_qr_scan"}, "lat": 38.866263333333336, "lon": -76.98716133333333, "fusion_lat": 0.0, "name": "28b39e873620481f31bf4424ff5b0f97", "is_disabled": 0, "is_reserved": 0, "bike_id": "28b39e873620481f31bf4424ff5b0f97", "fusion_lon": 0.0, "type": "electric_scooter"}, {"rental_uris": {"ios": "https://dc.lft.to/lastmile_qr_scan", "android": "https://dc.lft.to/lastmile_qr_scan"}, "lat": 38.894713, "lon": -77.02310016666667, "fusion_lat": 0.0, "name": "8484bf08d125ebd76eab1bc0d4220bb0", "is_disabled": 0, "is_reserved": 0, "bike_id": "8484bf08d125ebd76eab1bc0d4220bb0", "fusion_lon": 0.0, "type": "electric_bike"}, {"rental_uris": {"ios": "https://dc.lft.to/lastmile_qr_scan", "android": "https://dc.lft.to/lastmile_qr_scan"}, "lat": 38.92877583333333, "lon": -77.03921016666666, "fusion_lat": 0.0, "name": "858c5745fe16f7f2df8ac621480d2766", "is_disabled": 0, "is_reserved": 0, "bike_id": "858c5745fe16f7f2df8ac621480d2766", "fusion_lon": 0.0, "type": "electric_scooter"}, {"rental_uris": {"ios": "https://dc.lft.to/lastmile_qr_scan", "android": "https://dc.lft.to/lastmile_qr_scan"}, "lat": 38.908476666666665, "lon": -77.000715, "fusion_lat": 0.0, "name": "24a1cf93dd26f91ea818749c95a99b0d", "is_disabled": 0, "is_reserved": 0, "bike_id": "24a1cf93dd26f91ea818749c95a99b0d", "fusion_lon": 0.0, "type": "electric_scooter"}, {"rental_uris": {"ios": "https://dc.lft.to/lastmile_qr_scan", "android": "https://dc.lft.to/lastmile_qr_scan"}, "lat": 38.92195733333333, "lon": -77.018286, "fusion_lat": 0.0, "name": "e1b52daa0467a7fbaa69247fb596b62b", "is_disabled": 0, "is_reserved": 0, "bike_id": "e1b52daa0467a7fbaa69247fb596b62b", "fusion_lon": 0.0, "type": "electric_scooter"}, {"rental_uris": {"ios": "https://dc.lft.to/lastmile_qr_scan", "android": "https://dc.lft.to/lastmile_qr_scan"}, "lat": 38.896487, "lon": -77.07047833333333, "fusion_lat": 0.0, "name": "85856c99a06b2c3360d8bdfcb1b0b423", "is_disabled": 0, "is_reserved": 0, "bike_id": "85856c99a06b2c3360d8bdfcb1b0b423", "fusion_lon": 0.0, "type": "electric_scooter"}, {"rental_uris": {"ios": "https://dc.lft.to/lastmile_qr_scan", "android": "https://dc.lft.to/lastmile_qr_scan"}, "lat": 38.909584, "lon": -77.02742783333333, "fusion_lat": 0.0, "name": "e7a14f4634c7993950ebab7701e96519", "is_disabled": 0, "is_reserved": 0, "bike_id": "e7a14f4634c7993950ebab7701e96519", "fusion_lon": 0.0, "type": "electric_scooter"}, {"rental_uris": {"ios": "https://dc.lft.to/lastmile_qr_scan", "android": "https://dc.lft.to/lastmile_qr_scan"}, "lat": 38.9297305, "lon": -77.01297233333334, "fusion_lat": 0.0, "name": "6c137ec49d9b8f8104beec05f22c288a", "is_disabled": 0, "is_reserved": 0, "bike_id": "6c137ec49d9b8f8104beec05f22c288a", "fusion_lon": 0.0, "type": "electric_scooter"}, {"rental_uris": {"ios": "https://dc.lft.to/lastmile_qr_scan", "android": "https://dc.lft.to/lastmile_qr_scan"}, "lat": 38.9289265, "lon": -77.023086, "fusion_lat": 0.0, "name": "bb179013f69bff9db0a4d9e7d0db6608", "is_disabled": 0, "is_reserved": 0, "bike_id": "bb179013f69bff9db0a4d9e7d0db6608", "fusion_lon": 0.0, "type": "electric_scooter"}, {"rental_uris": {"ios": "https://dc.lft.to/lastmile_qr_scan", "android": "https://dc.lft.to/lastmile_qr_scan"}, "lat": 38.906740166666665, "lon": -77.018773, "fusion_lat": 0.0, "name": "653795459a0d6d6ec9d636eb5020d986", "is_disabled": 0, "is_reserved": 0, "bike_id": "653795459a0d6d6ec9d636eb5020d986", "fusion_lon": 0.0, "type": "electric_scooter"}, {"rental_uris": {"ios": "https://dc.lft.to/lastmile_qr_scan", "android": "https://dc.lft.to/lastmile_qr_scan"}, "lat": 38.893608, "lon": -77.031978, "fusion_lat": 0.0, "name": "98898a7b68fbed8fda638c437083c7eb", "is_disabled": 0, "is_reserved": 0, "bike_id": "98898a7b68fbed8fda638c437083c7eb", "fusion_lon": 0.0, "type": "electric_scooter"}, {"rental_uris": {"ios": "https://dc.lft.to/lastmile_qr_scan", "android": "https://dc.lft.to/lastmile_qr_scan"}, "lat": 38.908382, "lon": -76.99972516666666, "fusion_lat": 0.0, "name": "51118943007fa977ffda35e3fe4ca5ec", "is_disabled": 0, "is_reserved": 0, "bike_id": "51118943007fa977ffda35e3fe4ca5ec", "fusion_lon": 0.0, "type": "electric_scooter"}, {"rental_uris": {"ios": "https://dc.lft.to/lastmile_qr_scan", "android": "https://dc.lft.to/lastmile_qr_scan"}, "lat": 38.897376, "lon": -76.94725066666666, "fusion_lat": 0.0, "name": "9f15db41fdb3ad243a8f8087f885df68", "is_disabled": 0, "is_reserved": 0, "bike_id": "9f15db41fdb3ad243a8f8087f885df68", "fusion_lon": 0.0, "type": "electric_scooter"}, {"rental_uris": {"ios": "https://dc.lft.to/lastmile_qr_scan", "android": "https://dc.lft.to/lastmile_qr_scan"}, "lat": 38.918674, "lon": -77.01471883333333, "fusion_lat": 0.0, "name": "0cab2143e7caf4fddbc7cc9f84d3f8a0", "is_disabled": 0, "is_reserved": 0, "bike_id": "0cab2143e7caf4fddbc7cc9f84d3f8a0", "fusion_lon": 0.0, "type": "electric_scooter"}, {"rental_uris": {"ios": "https://dc.lft.to/lastmile_qr_scan", "android": "https://dc.lft.to/lastmile_qr_scan"}, "lat": 38.932173166666665, "lon": -77.032529, "fusion_lat": 0.0, "name": "b46ceb6af29374c5cb59c030d2064ecc", "is_disabled": 0, "is_reserved": 0, "bike_id": "b46ceb6af29374c5cb59c030d2064ecc", "fusion_lon": 0.0, "type": "electric_scooter"}, {"rental_uris": {"ios": "https://dc.lft.to/lastmile_qr_scan", "android": "https://dc.lft.to/lastmile_qr_scan"}, "lat": 38.9181195, "lon": -77.02474583333333, "fusion_lat": 0.0, "name": "28928584bda4f1ca868729bde00a7f1b", "is_disabled": 0, "is_reserved": 0, "bike_id": "28928584bda4f1ca868729bde00a7f1b", "fusion_lon": 0.0, "type": "electric_scooter"}, {"rental_uris": {"ios": "https://dc.lft.to/lastmile_qr_scan", "android": "https://dc.lft.to/lastmile_qr_scan"}, "lat": 38.91878716666667, "lon": -77.02456483333333, "fusion_lat": 0.0, "name": "72c2de39d58653d4e36839e4ac2627e4", "is_disabled": 0, "is_reserved": 0, "bike_id": "72c2de39d58653d4e36839e4ac2627e4", "fusion_lon": 0.0, "type": "electric_scooter"}, {"rental_uris": {"ios": "https://dc.lft.to/lastmile_qr_scan", "android": "https://dc.lft.to/lastmile_qr_scan"}, "lat": 38.91953733333333, "lon": -77.00316666666667, "fusion_lat": 0.0, "name": "ba99e3ce389359a777d8846b319aaf64", "is_disabled": 0, "is_reserved": 0, "bike_id": "ba99e3ce389359a777d8846b319aaf64", "fusion_lon": 0.0, "type": "electric_scooter"}, {"rental_uris": {"ios": "https://dc.lft.to/lastmile_qr_scan", "android": "https://dc.lft.to/lastmile_qr_scan"}, "lat": 38.88049983333333, "lon": -77.02490633333333, "fusion_lat": 0.0, "name": "dac5ee972b6b81bdabdb511afe504b0f", "is_disabled": 0, "is_reserved": 0, "bike_id": "dac5ee972b6b81bdabdb511afe504b0f", "fusion_lon": 0.0, "type": "electric_scooter"}, {"rental_uris": {"ios": "https://dc.lft.to/lastmile_qr_scan", "android": "https://dc.lft.to/lastmile_qr_scan"}, "lat": 38.9156115, "lon": -77.01195, "fusion_lat": 0.0, "name": "0e6f77b1ac192a7003258ec14777a45e", "is_disabled": 0, "is_reserved": 0, "bike_id": "0e6f77b1ac192a7003258ec14777a45e", "fusion_lon": 0.0, "type": "electric_scooter"}, {"rental_uris": {"ios": "https://dc.lft.to/lastmile_qr_scan", "android": "https://dc.lft.to/lastmile_qr_scan"}, "lat": 38.866823333333336, "lon": -76.98572383333334, "fusion_lat": 0.0, "name": "e7a091e2f83df5076d4f3aef51ecb731", "is_disabled": 0, "is_reserved": 0, "bike_id": "e7a091e2f83df5076d4f3aef51ecb731", "fusion_lon": 0.0, "type": "electric_scooter"}, {"rental_uris": {"ios": "https://dc.lft.to/lastmile_qr_scan", "android": "https://dc.lft.to/lastmile_qr_scan"}, "lat": 38.85314, "lon": -76.98012366666667, "fusion_lat": 0.0, "name": "461f7afbe550ec349fa84ae11fe0ec70", "is_disabled": 0, "is_reserved": 0, "bike_id": "461f7afbe550ec349fa84ae11fe0ec70", "fusion_lon": 0.0, "type": "electric_scooter"}, {"rental_uris": {"ios": "https://dc.lft.to/lastmile_qr_scan", "android": "https://dc.lft.to/lastmile_qr_scan"}, "lat": 38.888446333333334, "lon": -76.92678316666667, "fusion_lat": 0.0, "name": "f2ab5eadb9bcf153ce37a632d56149db", "is_disabled": 0, "is_reserved": 0, "bike_id": "f2ab5eadb9bcf153ce37a632d56149db", "fusion_lon": 0.0, "type": "electric_scooter"}, {"rental_uris": {"ios": "https://dc.lft.to/lastmile_qr_scan", "android": "https://dc.lft.to/lastmile_qr_scan"}, "lat": 38.87860883333333, "lon": -76.96981433333333, "fusion_lat": 0.0, "name": "0fed515389da25dbc5748ac21779dbfb", "is_disabled": 0, "is_reserved": 0, "bike_id": "0fed515389da25dbc5748ac21779dbfb", "fusion_lon": 0.0, "type": "electric_scooter"}, {"rental_uris": {"ios": "https://dc.lft.to/lastmile_qr_scan", "android": "https://dc.lft.to/lastmile_qr_scan"}, "lat": 38.8741935, "lon": -76.96903383333333, "fusion_lat": 0.0, "name": "3019086d6afb056b18c7753ca21ae0d5", "is_disabled": 0, "is_reserved": 0, "bike_id": "3019086d6afb056b18c7753ca21ae0d5", "fusion_lon": 0.0, "type": "electric_scooter"}, {"rental_uris": {"ios": "https://dc.lft.to/lastmile_qr_scan", "android": "https://dc.lft.to/lastmile_qr_scan"}, "lat": 38.92364583333333, "lon": -77.05044316666667, "fusion_lat": 0.0, "name": "602ef6025698c17f8f75b904979b44f7", "is_disabled": 0, "is_reserved": 0, "bike_id": "602ef6025698c17f8f75b904979b44f7", "fusion_lon": 0.0, "type": "electric_scooter"}, {"rental_uris": {"ios": "https://dc.lft.to/lastmile_qr_scan", "android": "https://dc.lft.to/lastmile_qr_scan"}, "lat": 38.880287833333334, "lon": -77.0250445, "fusion_lat": 0.0, "name": "1ca37a3cb32e2b76ab28c309b8e59ce3", "is_disabled": 0, "is_reserved": 0, "bike_id": "1ca37a3cb32e2b76ab28c309b8e59ce3", "fusion_lon": 0.0, "type": "electric_scooter"}, {"rental_uris": {"ios": "https://dc.lft.to/lastmile_qr_scan", "android": "https://dc.lft.to/lastmile_qr_scan"}, "lat": 38.926858833333334, "lon": -77.0229455, "fusion_lat": 0.0, "name": "ea46daaa211bf6daeb50bce8a031cdbe", "is_disabled": 0, "is_reserved": 0, "bike_id": "ea46daaa211bf6daeb50bce8a031cdbe", "fusion_lon": 0.0, "type": "electric_scooter"}, {"rental_uris": {"ios": "https://dc.lft.to/lastmile_qr_scan", "android": "https://dc.lft.to/lastmile_qr_scan"}, "lat": 38.90723416666667, "lon": -77.02372333333334, "fusion_lat": 0.0, "name": "55b4b87c3c6169b752dafafe3dc1585c", "is_disabled": 0, "is_reserved": 0, "bike_id": "55b4b87c3c6169b752dafafe3dc1585c", "fusion_lon": 0.0, "type": "electric_scooter"}, {"rental_uris": {"ios": "https://dc.lft.to/lastmile_qr_scan", "android": "https://dc.lft.to/lastmile_qr_scan"}, "lat": 38.911814666666665, "lon": -77.03176316666666, "fusion_lat": 0.0, "name": "ce349e42569a5ab0ec2026ba27ac8dbc", "is_disabled": 0, "is_reserved": 0, "bike_id": "ce349e42569a5ab0ec2026ba27ac8dbc", "fusion_lon": 0.0, "type": "electric_scooter"}, {"rental_uris": {"ios": "https://dc.lft.to/lastmile_qr_scan", "android": "https://dc.lft.to/lastmile_qr_scan"}, "lat": 38.944872, "lon": -77.094431, "fusion_lat": 0.0, "name": "4164f3ece4db6d9b0cf24e12eb607d5b", "is_disabled": 0, "is_reserved": 0, "bike_id": "4164f3ece4db6d9b0cf24e12eb607d5b", "fusion_lon": 0.0, "type": "electric_scooter"}, {"rental_uris": {"ios": "https://dc.lft.to/lastmile_qr_scan", "android": "https://dc.lft.to/lastmile_qr_scan"}, "lat": 38.8622905, "lon": -76.95281266666667, "fusion_lat": 0.0, "name": "06cc08a1745b458f550808e289cf4df2", "is_disabled": 0, "is_reserved": 0, "bike_id": "06cc08a1745b458f550808e289cf4df2", "fusion_lon": 0.0, "type": "electric_bike"}, {"rental_uris": {"ios": "https://dc.lft.to/lastmile_qr_scan", "android": "https://dc.lft.to/lastmile_qr_scan"}, "lat": 38.89928183333333, "lon": -76.93156616666667, "fusion_lat": 0.0, "name": "7e3b14266657758c39df194839bd498f", "is_disabled": 0, "is_reserved": 0, "bike_id": "7e3b14266657758c39df194839bd498f", "fusion_lon": 0.0, "type": "electric_scooter"}, {"rental_uris": {"ios": "https://dc.lft.to/lastmile_qr_scan", "android": "https://dc.lft.to/lastmile_qr_scan"}, "lat": 38.90531, "lon": -77.07030183333333, "fusion_lat": 0.0, "name": "f1975732404ecd07fb9e5e975b7855db", "is_disabled": 0, "is_reserved": 0, "bike_id": "f1975732404ecd07fb9e5e975b7855db", "fusion_lon": 0.0, "type": "electric_scooter"}, {"rental_uris": {"ios": "https://dc.lft.to/lastmile_qr_scan", "android": "https://dc.lft.to/lastmile_qr_scan"}, "lat": 38.963184166666665, "lon": -76.97369133333333, "fusion_lat": 0.0, "name": "efadf254b13133052861ad9e671e88b6", "is_disabled": 0, "is_reserved": 0, "bike_id": "efadf254b13133052861ad9e671e88b6", "fusion_lon": 0.0, "type": "electric_bike"}, {"rental_uris": {"ios": "https://dc.lft.to/lastmile_qr_scan", "android": "https://dc.lft.to/lastmile_qr_scan"}, "lat": 38.90959733333333, "lon": -77.0107185, "fusion_lat": 0.0, "name": "eca4dff32353da03b78b0fe3d5039596", "is_disabled": 0, "is_reserved": 0, "bike_id": "eca4dff32353da03b78b0fe3d5039596", "fusion_lon": 0.0, "type": "electric_scooter"}, {"rental_uris": {"ios": "https://dc.lft.to/lastmile_qr_scan", "android": "https://dc.lft.to/lastmile_qr_scan"}, "lat": 38.9170285, "lon": -77.03458266666667, "fusion_lat": 0.0, "name": "eeedf28b045efb48161904dfefa4d7e0", "is_disabled": 0, "is_reserved": 0, "bike_id": "eeedf28b045efb48161904dfefa4d7e0", "fusion_lon": 0.0, "type": "electric_scooter"}, {"rental_uris": {"ios": "https://dc.lft.to/lastmile_qr_scan", "android": "https://dc.lft.to/lastmile_qr_scan"}, "lat": 38.957438333333336, "lon": -76.97253133333334, "fusion_lat": 0.0, "name": "ba0766183d722ffb365859e83f773bdd", "is_disabled": 0, "is_reserved": 0, "bike_id": "ba0766183d722ffb365859e83f773bdd", "fusion_lon": 0.0, "type": "electric_bike"}, {"rental_uris": {"ios": "https://dc.lft.to/lastmile_qr_scan", "android": "https://dc.lft.to/lastmile_qr_scan"}, "lat": 38.878891833333334, "lon": -77.02244333333333, "fusion_lat": 0.0, "name": "5111836592f6930be64420ceaee30dba", "is_disabled": 0, "is_reserved": 0, "bike_id": "5111836592f6930be64420ceaee30dba", "fusion_lon": 0.0, "type": "electric_scooter"}, {"rental_uris": {"ios": "https://dc.lft.to/lastmile_qr_scan", "android": "https://dc.lft.to/lastmile_qr_scan"}, "lat": 38.920519, "lon": -77.03290783333334, "fusion_lat": 0.0, "name": "d3c172ab3808e5991a529b9f7bd2386b", "is_disabled": 0, "is_reserved": 0, "bike_id": "d3c172ab3808e5991a529b9f7bd2386b", "fusion_lon": 0.0, "type": "electric_scooter"}, {"rental_uris": {"ios": "https://dc.lft.to/lastmile_qr_scan", "android": "https://dc.lft.to/lastmile_qr_scan"}, "lat": 38.892232666666665, "lon": -77.003438, "fusion_lat": 0.0, "name": "5b7058fc08e099b4ee2285fafea3d0b4", "is_disabled": 0, "is_reserved": 0, "bike_id": "5b7058fc08e099b4ee2285fafea3d0b4", "fusion_lon": 0.0, "type": "electric_scooter"}, {"rental_uris": {"ios": "https://dc.lft.to/lastmile_qr_scan", "android": "https://dc.lft.to/lastmile_qr_scan"}, "lat": 38.873053, "lon": -77.00144333333333, "fusion_lat": 0.0, "name": "d449b6e5377ccb74858300c62f4e0a48", "is_disabled": 0, "is_reserved": 0, "bike_id": "d449b6e5377ccb74858300c62f4e0a48", "fusion_lon": 0.0, "type": "electric_scooter"}, {"rental_uris": {"ios": "https://dc.lft.to/lastmile_qr_scan", "android": "https://dc.lft.to/lastmile_qr_scan"}, "lat": 38.9552725, "lon": -77.02312233333333, "fusion_lat": 0.0, "name": "04bc369d6cbe3856a03ad656b9b70e17", "is_disabled": 0, "is_reserved": 0, "bike_id": "04bc369d6cbe3856a03ad656b9b70e17", "fusion_lon": 0.0, "type": "electric_scooter"}, {"rental_uris": {"ios": "https://dc.lft.to/lastmile_qr_scan", "android": "https://dc.lft.to/lastmile_qr_scan"}, "lat": 38.91635433333333, "lon": -77.03176183333333, "fusion_lat": 0.0, "name": "3b661cd61d161dba551b0fd5c7d9aa6d", "is_disabled": 0, "is_reserved": 0, "bike_id": "3b661cd61d161dba551b0fd5c7d9aa6d", "fusion_lon": 0.0, "type": "electric_scooter"}, {"rental_uris": {"ios": "https://dc.lft.to/lastmile_qr_scan", "android": "https://dc.lft.to/lastmile_qr_scan"}, "lat": 38.9218335, "lon": -77.0392835, "fusion_lat": 0.0, "name": "46bec79a2850df9d29baef5202df6782", "is_disabled": 0, "is_reserved": 0, "bike_id": "46bec79a2850df9d29baef5202df6782", "fusion_lon": 0.0, "type": "electric_scooter"}, {"rental_uris": {"ios": "https://dc.lft.to/lastmile_qr_scan", "android": "https://dc.lft.to/lastmile_qr_scan"}, "lat": 38.89910483333333, "lon": -77.02817866666666, "fusion_lat": 0.0, "name": "423730ca23b66dec4f211ef731f71a13", "is_disabled": 0, "is_reserved": 0, "bike_id": "423730ca23b66dec4f211ef731f71a13", "fusion_lon": 0.0, "type": "electric_scooter"}, {"rental_uris": {"ios": "https://dc.lft.to/lastmile_qr_scan", "android": "https://dc.lft.to/lastmile_qr_scan"}, "lat": 38.895496, "lon": -77.0468475, "fusion_lat": 0.0, "name": "5228ef80a7139ba4196b8c316e5ffcf4", "is_disabled": 0, "is_reserved": 0, "bike_id": "5228ef80a7139ba4196b8c316e5ffcf4", "fusion_lon": 0.0, "type": "electric_scooter"}, {"rental_uris": {"ios": "https://dc.lft.to/lastmile_qr_scan", "android": "https://dc.lft.to/lastmile_qr_scan"}, "lat": 38.904882, "lon": -77.04331683333334, "fusion_lat": 0.0, "name": "aeebf624e01e8547e72b20af00a2a76d", "is_disabled": 0, "is_reserved": 0, "bike_id": "aeebf624e01e8547e72b20af00a2a76d", "fusion_lon": 0.0, "type": "electric_scooter"}, {"rental_uris": {"ios": "https://dc.lft.to/lastmile_qr_scan", "android": "https://dc.lft.to/lastmile_qr_scan"}, "lat": 38.9039195, "lon": -77.0629545, "fusion_lat": 0.0, "name": "1264782941d49512c00e231fe102bedd", "is_disabled": 0, "is_reserved": 0, "bike_id": "1264782941d49512c00e231fe102bedd", "fusion_lon": 0.0, "type": "electric_scooter"}, {"rental_uris": {"ios": "https://dc.lft.to/lastmile_qr_scan", "android": "https://dc.lft.to/lastmile_qr_scan"}, "lat": 38.932507, "lon": -77.03878666666667, "fusion_lat": 0.0, "name": "5f86bb08ee008d4342f4ff0c5f64777b", "is_disabled": 0, "is_reserved": 0, "bike_id": "5f86bb08ee008d4342f4ff0c5f64777b", "fusion_lon": 0.0, "type": "electric_scooter"}, {"rental_uris": {"ios": "https://dc.lft.to/lastmile_qr_scan", "android": "https://dc.lft.to/lastmile_qr_scan"}, "lat": 38.91816633333333, "lon": -77.04004683333334, "fusion_lat": 0.0, "name": "e88db685c237e569a0671814e3ec2c06", "is_disabled": 0, "is_reserved": 0, "bike_id": "e88db685c237e569a0671814e3ec2c06", "fusion_lon": 0.0, "type": "electric_scooter"}, {"rental_uris": {"ios": "https://dc.lft.to/lastmile_qr_scan", "android": "https://dc.lft.to/lastmile_qr_scan"}, "lat": 38.907456, "lon": -77.00270733333333, "fusion_lat": 0.0, "name": "f92110e8178d92adbb13a0fc785583d8", "is_disabled": 0, "is_reserved": 0, "bike_id": "f92110e8178d92adbb13a0fc785583d8", "fusion_lon": 0.0, "type": "electric_scooter"}, {"rental_uris": {"ios": "https://dc.lft.to/lastmile_qr_scan", "android": "https://dc.lft.to/lastmile_qr_scan"}, "lat": 38.91708, "lon": -77.03914916666666, "fusion_lat": 0.0, "name": "d4226e2688b68d9e16e70fbda165be0c", "is_disabled": 0, "is_reserved": 0, "bike_id": "d4226e2688b68d9e16e70fbda165be0c", "fusion_lon": 0.0, "type": "electric_scooter"}, {"rental_uris": {"ios": "https://dc.lft.to/lastmile_qr_scan", "android": "https://dc.lft.to/lastmile_qr_scan"}, "lat": 38.90378883333333, "lon": -77.04850233333333, "fusion_lat": 0.0, "name": "4e47b9c5a2ba5863cdb5ddb7903480fa", "is_disabled": 0, "is_reserved": 0, "bike_id": "4e47b9c5a2ba5863cdb5ddb7903480fa", "fusion_lon": 0.0, "type": "electric_scooter"}, {"rental_uris": {"ios": "https://dc.lft.to/lastmile_qr_scan", "android": "https://dc.lft.to/lastmile_qr_scan"}, "lat": 38.96402116666667, "lon": -76.999883, "fusion_lat": 0.0, "name": "c638acbc9ed4cb5945741faa94b700c7", "is_disabled": 0, "is_reserved": 0, "bike_id": "c638acbc9ed4cb5945741faa94b700c7", "fusion_lon": 0.0, "type": "electric_bike"}, {"rental_uris": {"ios": "https://dc.lft.to/lastmile_qr_scan", "android": "https://dc.lft.to/lastmile_qr_scan"}, "lat": 38.91911266666666, "lon": -77.03177333333333, "fusion_lat": 0.0, "name": "02d936a6abbe8a0bd8439501b7b53ee7", "is_disabled": 0, "is_reserved": 0, "bike_id": "02d936a6abbe8a0bd8439501b7b53ee7", "fusion_lon": 0.0, "type": "electric_scooter"}, {"rental_uris": {"ios": "https://dc.lft.to/lastmile_qr_scan", "android": "https://dc.lft.to/lastmile_qr_scan"}, "lat": 38.917379833333335, "lon": -77.0318985, "fusion_lat": 0.0, "name": "42dad10288e0a41661d0bab85d1ba432", "is_disabled": 0, "is_reserved": 0, "bike_id": "42dad10288e0a41661d0bab85d1ba432", "fusion_lon": 0.0, "type": "electric_scooter"}, {"rental_uris": {"ios": "https://dc.lft.to/lastmile_qr_scan", "android": "https://dc.lft.to/lastmile_qr_scan"}, "lat": 38.905468666666664, "lon": -77.0465695, "fusion_lat": 0.0, "name": "2106ea5d6ef25581b8a7677f311ef7d8", "is_disabled": 0, "is_reserved": 0, "bike_id": "2106ea5d6ef25581b8a7677f311ef7d8", "fusion_lon": 0.0, "type": "electric_scooter"}, {"rental_uris": {"ios": "https://dc.lft.to/lastmile_qr_scan", "android": "https://dc.lft.to/lastmile_qr_scan"}, "lat": 38.92202066666667, "lon": -77.033956, "fusion_lat": 0.0, "name": "e73d01ba8f7984363b91ca21834430a9", "is_disabled": 0, "is_reserved": 0, "bike_id": "e73d01ba8f7984363b91ca21834430a9", "fusion_lon": 0.0, "type": "electric_scooter"}, {"rental_uris": {"ios": "https://dc.lft.to/lastmile_qr_scan", "android": "https://dc.lft.to/lastmile_qr_scan"}, "lat": 38.90346016666667, "lon": -77.007405, "fusion_lat": 0.0, "name": "0ecaa3a1c995136b6cefc38e788a7506", "is_disabled": 0, "is_reserved": 0, "bike_id": "0ecaa3a1c995136b6cefc38e788a7506", "fusion_lon": 0.0, "type": "electric_scooter"}, {"rental_uris": {"ios": "https://dc.lft.to/lastmile_qr_scan", "android": "https://dc.lft.to/lastmile_qr_scan"}, "lat": 38.91619933333333, "lon": -77.0304015, "fusion_lat": 0.0, "name": "13dc44417272b7328b4a5396dfcc4c31", "is_disabled": 0, "is_reserved": 0, "bike_id": "13dc44417272b7328b4a5396dfcc4c31", "fusion_lon": 0.0, "type": "electric_scooter"}, {"rental_uris": {"ios": "https://dc.lft.to/lastmile_qr_scan", "android": "https://dc.lft.to/lastmile_qr_scan"}, "lat": 38.90234983333333, "lon": -77.06059466666666, "fusion_lat": 0.0, "name": "fadd6d923d9abae1c797ad08cb8aa167", "is_disabled": 0, "is_reserved": 0, "bike_id": "fadd6d923d9abae1c797ad08cb8aa167", "fusion_lon": 0.0, "type": "electric_scooter"}, {"rental_uris": {"ios": "https://dc.lft.to/lastmile_qr_scan", "android": "https://dc.lft.to/lastmile_qr_scan"}, "lat": 38.87376016666666, "lon": -77.00070683333334, "fusion_lat": 0.0, "name": "821ac23c1492ac802099d32b117b8861", "is_disabled": 0, "is_reserved": 0, "bike_id": "821ac23c1492ac802099d32b117b8861", "fusion_lon": 0.0, "type": "electric_scooter"}, {"rental_uris": {"ios": "https://dc.lft.to/lastmile_qr_scan", "android": "https://dc.lft.to/lastmile_qr_scan"}, "lat": 38.8923885, "lon": -77.03346583333334, "fusion_lat": 0.0, "name": "ced120f3254fbfeeb43a1f3d640e2f89", "is_disabled": 0, "is_reserved": 0, "bike_id": "ced120f3254fbfeeb43a1f3d640e2f89", "fusion_lon": 0.0, "type": "electric_scooter"}, {"rental_uris": {"ios": "https://dc.lft.to/lastmile_qr_scan", "android": "https://dc.lft.to/lastmile_qr_scan"}, "lat": 38.915664, "lon": -77.02201433333333, "fusion_lat": 0.0, "name": "c61bb8202bd28d796dd84db73d5bc869", "is_disabled": 0, "is_reserved": 0, "bike_id": "c61bb8202bd28d796dd84db73d5bc869", "fusion_lon": 0.0, "type": "electric_scooter"}, {"rental_uris": {"ios": "https://dc.lft.to/lastmile_qr_scan", "android": "https://dc.lft.to/lastmile_qr_scan"}, "lat": 38.90644266666666, "lon": -77.01633266666667, "fusion_lat": 0.0, "name": "4cc2f875e435233434d5905614501ba5", "is_disabled": 0, "is_reserved": 0, "bike_id": "4cc2f875e435233434d5905614501ba5", "fusion_lon": 0.0, "type": "electric_scooter"}, {"rental_uris": {"ios": "https://dc.lft.to/lastmile_qr_scan", "android": "https://dc.lft.to/lastmile_qr_scan"}, "lat": 38.853513, "lon": -77.13468116666667, "fusion_lat": 0.0, "name": "c80aadbc54b1b04410ba86ed807abf32", "is_disabled": 0, "is_reserved": 0, "bike_id": "c80aadbc54b1b04410ba86ed807abf32", "fusion_lon": 0.0, "type": "electric_bike"}, {"rental_uris": {"ios": "https://dc.lft.to/lastmile_qr_scan", "android": "https://dc.lft.to/lastmile_qr_scan"}, "lat": 38.9163125, "lon": -77.0480625, "fusion_lat": 0.0, "name": "62840b9be8156e2302b00922085c9621", "is_disabled": 0, "is_reserved": 0, "bike_id": "62840b9be8156e2302b00922085c9621", "fusion_lon": 0.0, "type": "electric_scooter"}, {"rental_uris": {"ios": "https://dc.lft.to/lastmile_qr_scan", "android": "https://dc.lft.to/lastmile_qr_scan"}, "lat": 38.89880383333333, "lon": -77.0216335, "fusion_lat": 0.0, "name": "68e8b788e29efc38086275c7875895d5", "is_disabled": 0, "is_reserved": 0, "bike_id": "68e8b788e29efc38086275c7875895d5", "fusion_lon": 0.0, "type": "electric_scooter"}, {"rental_uris": {"ios": "https://dc.lft.to/lastmile_qr_scan", "android": "https://dc.lft.to/lastmile_qr_scan"}, "lat": 38.924927333333336, "lon": -77.05110116666667, "fusion_lat": 0.0, "name": "0f5749409de523f63793fd67bd89815b", "is_disabled": 0, "is_reserved": 0, "bike_id": "0f5749409de523f63793fd67bd89815b", "fusion_lon": 0.0, "type": "electric_scooter"}, {"rental_uris": {"ios": "https://dc.lft.to/lastmile_qr_scan", "android": "https://dc.lft.to/lastmile_qr_scan"}, "lat": 38.91050533333333, "lon": -77.030866, "fusion_lat": 0.0, "name": "aa0fc1339abee3baa21bd0da26851d9f", "is_disabled": 0, "is_reserved": 0, "bike_id": "aa0fc1339abee3baa21bd0da26851d9f", "fusion_lon": 0.0, "type": "electric_scooter"}, {"rental_uris": {"ios": "https://dc.lft.to/lastmile_qr_scan", "android": "https://dc.lft.to/lastmile_qr_scan"}, "lat": 38.9037405, "lon": -76.98593283333334, "fusion_lat": 0.0, "name": "84852d4548a8a26466efe3977529c467", "is_disabled": 0, "is_reserved": 0, "bike_id": "84852d4548a8a26466efe3977529c467", "fusion_lon": 0.0, "type": "electric_scooter"}, {"rental_uris": {"ios": "https://dc.lft.to/lastmile_qr_scan", "android": "https://dc.lft.to/lastmile_qr_scan"}, "lat": 38.9235575, "lon": -77.05274983333334, "fusion_lat": 0.0, "name": "a0ee696096d2119a437c03b6c054afda", "is_disabled": 0, "is_reserved": 0, "bike_id": "a0ee696096d2119a437c03b6c054afda", "fusion_lon": 0.0, "type": "electric_scooter"}, {"rental_uris": {"ios": "https://dc.lft.to/lastmile_qr_scan", "android": "https://dc.lft.to/lastmile_qr_scan"}, "lat": 38.91552033333333, "lon": -77.0212885, "fusion_lat": 0.0, "name": "bc6c638269b030d8f0b21eac29f89762", "is_disabled": 0, "is_reserved": 0, "bike_id": "bc6c638269b030d8f0b21eac29f89762", "fusion_lon": 0.0, "type": "electric_scooter"}, {"rental_uris": {"ios": "https://dc.lft.to/lastmile_qr_scan", "android": "https://dc.lft.to/lastmile_qr_scan"}, "lat": 38.9060735, "lon": -77.02683983333333, "fusion_lat": 0.0, "name": "c658cb1fc3ca84209fc1776bcc432d67", "is_disabled": 0, "is_reserved": 0, "bike_id": "c658cb1fc3ca84209fc1776bcc432d67", "fusion_lon": 0.0, "type": "electric_scooter"}, {"rental_uris": {"ios": "https://dc.lft.to/lastmile_qr_scan", "android": "https://dc.lft.to/lastmile_qr_scan"}, "lat": 38.91838033333333, "lon": -77.0401855, "fusion_lat": 0.0, "name": "2d217abd5de3ebb252b0f7f6ce5b0b57", "is_disabled": 0, "is_reserved": 0, "bike_id": "2d217abd5de3ebb252b0f7f6ce5b0b57", "fusion_lon": 0.0, "type": "electric_scooter"}, {"rental_uris": {"ios": "https://dc.lft.to/lastmile_qr_scan", "android": "https://dc.lft.to/lastmile_qr_scan"}, "lat": 38.958767, "lon": -77.028021, "fusion_lat": 0.0, "name": "9051875120e7567cc74b121d963b54ce", "is_disabled": 0, "is_reserved": 0, "bike_id": "9051875120e7567cc74b121d963b54ce", "fusion_lon": 0.0, "type": "electric_scooter"}, {"rental_uris": {"ios": "https://dc.lft.to/lastmile_qr_scan", "android": "https://dc.lft.to/lastmile_qr_scan"}, "lat": 38.90859566666666, "lon": -77.04527016666667, "fusion_lat": 0.0, "name": "0be5882765a0879e9eddbabf25ae6858", "is_disabled": 0, "is_reserved": 0, "bike_id": "0be5882765a0879e9eddbabf25ae6858", "fusion_lon": 0.0, "type": "electric_scooter"}, {"rental_uris": {"ios": "https://dc.lft.to/lastmile_qr_scan", "android": "https://dc.lft.to/lastmile_qr_scan"}, "lat": 38.866835333333334, "lon": -76.98568466666667, "fusion_lat": 0.0, "name": "3c6586049aff10e44d6775086a22b99c", "is_disabled": 0, "is_reserved": 0, "bike_id": "3c6586049aff10e44d6775086a22b99c", "fusion_lon": 0.0, "type": "electric_scooter"}, {"rental_uris": {"ios": "https://dc.lft.to/lastmile_qr_scan", "android": "https://dc.lft.to/lastmile_qr_scan"}, "lat": 38.936523333333334, "lon": -77.036518, "fusion_lat": 0.0, "name": "859861fae03e6051c64387495cff7f01", "is_disabled": 0, "is_reserved": 0, "bike_id": "859861fae03e6051c64387495cff7f01", "fusion_lon": 0.0, "type": "electric_scooter"}, {"rental_uris": {"ios": "https://dc.lft.to/lastmile_qr_scan", "android": "https://dc.lft.to/lastmile_qr_scan"}, "lat": 38.9070455, "lon": -77.03197466666667, "fusion_lat": 0.0, "name": "d3fb6019fc6ad8725c5ba4c352915b46", "is_disabled": 0, "is_reserved": 0, "bike_id": "d3fb6019fc6ad8725c5ba4c352915b46", "fusion_lon": 0.0, "type": "electric_scooter"}, {"rental_uris": {"ios": "https://dc.lft.to/lastmile_qr_scan", "android": "https://dc.lft.to/lastmile_qr_scan"}, "lat": 38.94288983333333, "lon": -77.02162233333334, "fusion_lat": 0.0, "name": "c0fcf28b2e2891672cb6223bac3045ea", "is_disabled": 0, "is_reserved": 0, "bike_id": "c0fcf28b2e2891672cb6223bac3045ea", "fusion_lon": 0.0, "type": "electric_scooter"}, {"rental_uris": {"ios": "https://dc.lft.to/lastmile_qr_scan", "android": "https://dc.lft.to/lastmile_qr_scan"}, "lat": 38.926332333333335, "lon": -77.03392483333333, "fusion_lat": 0.0, "name": "9da71477ac9bc39f489494841b2dc028", "is_disabled": 0, "is_reserved": 0, "bike_id": "9da71477ac9bc39f489494841b2dc028", "fusion_lon": 0.0, "type": "electric_scooter"}, {"rental_uris": {"ios": "https://dc.lft.to/lastmile_qr_scan", "android": "https://dc.lft.to/lastmile_qr_scan"}, "lat": 38.89739566666667, "lon": -76.97967683333333, "fusion_lat": 0.0, "name": "7620c4c7cb695428849c3d79c448af2e", "is_disabled": 0, "is_reserved": 0, "bike_id": "7620c4c7cb695428849c3d79c448af2e", "fusion_lon": 0.0, "type": "electric_scooter"}, {"rental_uris": {"ios": "https://dc.lft.to/lastmile_qr_scan", "android": "https://dc.lft.to/lastmile_qr_scan"}, "lat": 38.917808, "lon": -77.02425066666666, "fusion_lat": 0.0, "name": "fd0b85dca8ba386812dbf9ec2b793774", "is_disabled": 0, "is_reserved": 0, "bike_id": "fd0b85dca8ba386812dbf9ec2b793774", "fusion_lon": 0.0, "type": "electric_scooter"}, {"rental_uris": {"ios": "https://dc.lft.to/lastmile_qr_scan", "android": "https://dc.lft.to/lastmile_qr_scan"}, "lat": 38.90557033333333, "lon": -77.0417925, "fusion_lat": 0.0, "name": "dd4c5680e2a41e037a37fea11fc45d2c", "is_disabled": 0, "is_reserved": 0, "bike_id": "dd4c5680e2a41e037a37fea11fc45d2c", "fusion_lon": 0.0, "type": "electric_scooter"}, {"rental_uris": {"ios": "https://dc.lft.to/lastmile_qr_scan", "android": "https://dc.lft.to/lastmile_qr_scan"}, "lat": 38.933966, "lon": -77.05741183333333, "fusion_lat": 0.0, "name": "452b15bee44a4b33f6294b850e084484", "is_disabled": 0, "is_reserved": 0, "bike_id": "452b15bee44a4b33f6294b850e084484", "fusion_lon": 0.0, "type": "electric_scooter"}, {"rental_uris": {"ios": "https://dc.lft.to/lastmile_qr_scan", "android": "https://dc.lft.to/lastmile_qr_scan"}, "lat": 38.83095216666667, "lon": -77.04291783333333, "fusion_lat": 0.0, "name": "2ee3f1e20e20795d923c53ce25658fc7", "is_disabled": 0, "is_reserved": 0, "bike_id": "2ee3f1e20e20795d923c53ce25658fc7", "fusion_lon": 0.0, "type": "electric_bike"}, {"rental_uris": {"ios": "https://dc.lft.to/lastmile_qr_scan", "android": "https://dc.lft.to/lastmile_qr_scan"}, "lat": 38.914883, "lon": -77.02182866666666, "fusion_lat": 0.0, "name": "b403bfbca64b56d2b2dd614283ea89bc", "is_disabled": 0, "is_reserved": 0, "bike_id": "b403bfbca64b56d2b2dd614283ea89bc", "fusion_lon": 0.0, "type": "electric_scooter"}, {"rental_uris": {"ios": "https://dc.lft.to/lastmile_qr_scan", "android": "https://dc.lft.to/lastmile_qr_scan"}, "lat": 38.896390833333335, "lon": -77.0264325, "fusion_lat": 0.0, "name": "681d417710bf7fab5530362d9a92c80b", "is_disabled": 0, "is_reserved": 0, "bike_id": "681d417710bf7fab5530362d9a92c80b", "fusion_lon": 0.0, "type": "electric_scooter"}, {"rental_uris": {"ios": "https://dc.lft.to/lastmile_qr_scan", "android": "https://dc.lft.to/lastmile_qr_scan"}, "lat": 38.897421333333334, "lon": -77.029765, "fusion_lat": 0.0, "name": "845be064166196acbb4baa5398ae485e", "is_disabled": 0, "is_reserved": 0, "bike_id": "845be064166196acbb4baa5398ae485e", "fusion_lon": 0.0, "type": "electric_scooter"}, {"rental_uris": {"ios": "https://dc.lft.to/lastmile_qr_scan", "android": "https://dc.lft.to/lastmile_qr_scan"}, "lat": 38.92418166666667, "lon": -77.01944833333333, "fusion_lat": 0.0, "name": "98cf3d6a04b3f0a8160e506d88f2547f", "is_disabled": 0, "is_reserved": 0, "bike_id": "98cf3d6a04b3f0a8160e506d88f2547f", "fusion_lon": 0.0, "type": "electric_scooter"}, {"rental_uris": {"ios": "https://dc.lft.to/lastmile_qr_scan", "android": "https://dc.lft.to/lastmile_qr_scan"}, "lat": 38.92459933333333, "lon": -77.021431, "fusion_lat": 0.0, "name": "62fc9c3d1a5b365b67c0fbfb5421af18", "is_disabled": 0, "is_reserved": 0, "bike_id": "62fc9c3d1a5b365b67c0fbfb5421af18", "fusion_lon": 0.0, "type": "electric_scooter"}, {"rental_uris": {"ios": "https://dc.lft.to/lastmile_qr_scan", "android": "https://dc.lft.to/lastmile_qr_scan"}, "lat": 38.884094166666664, "lon": -76.94819233333334, "fusion_lat": 0.0, "name": "df7e07530814bdf34cbfe179c1aed26a", "is_disabled": 0, "is_reserved": 0, "bike_id": "df7e07530814bdf34cbfe179c1aed26a", "fusion_lon": 0.0, "type": "electric_scooter"}, {"rental_uris": {"ios": "https://dc.lft.to/lastmile_qr_scan", "android": "https://dc.lft.to/lastmile_qr_scan"}, "lat": 38.8983255, "lon": -77.044984, "fusion_lat": 0.0, "name": "bc874e41be73c75dcdc946598be4f9c8", "is_disabled": 0, "is_reserved": 0, "bike_id": "bc874e41be73c75dcdc946598be4f9c8", "fusion_lon": 0.0, "type": "electric_scooter"}, {"rental_uris": {"ios": "https://dc.lft.to/lastmile_qr_scan", "android": "https://dc.lft.to/lastmile_qr_scan"}, "lat": 38.908593833333335, "lon": -77.02457466666667, "fusion_lat": 0.0, "name": "172703e7477bb80a1886e20b7dfcaee4", "is_disabled": 0, "is_reserved": 0, "bike_id": "172703e7477bb80a1886e20b7dfcaee4", "fusion_lon": 0.0, "type": "electric_scooter"}, {"rental_uris": {"ios": "https://dc.lft.to/lastmile_qr_scan", "android": "https://dc.lft.to/lastmile_qr_scan"}, "lat": 38.892307333333335, "lon": -77.03167133333334, "fusion_lat": 0.0, "name": "2002f9f4e7e49dca28f58a825034abce", "is_disabled": 0, "is_reserved": 0, "bike_id": "2002f9f4e7e49dca28f58a825034abce", "fusion_lon": 0.0, "type": "electric_scooter"}, {"rental_uris": {"ios": "https://dc.lft.to/lastmile_qr_scan", "android": "https://dc.lft.to/lastmile_qr_scan"}, "lat": 39.0563105, "lon": -77.125222, "fusion_lat": 0.0, "name": "513ead9298a43fbeb7016e449a6b8668", "is_disabled": 0, "is_reserved": 0, "bike_id": "513ead9298a43fbeb7016e449a6b8668", "fusion_lon": 0.0, "type": "electric_bike"}, {"rental_uris": {"ios": "https://dc.lft.to/lastmile_qr_scan", "android": "https://dc.lft.to/lastmile_qr_scan"}, "lat": 38.932739166666664, "lon": -77.03492733333333, "fusion_lat": 0.0, "name": "d176c46fc1b07369421437ee52c782ff", "is_disabled": 0, "is_reserved": 0, "bike_id": "d176c46fc1b07369421437ee52c782ff", "fusion_lon": 0.0, "type": "electric_scooter"}, {"rental_uris": {"ios": "https://dc.lft.to/lastmile_qr_scan", "android": "https://dc.lft.to/lastmile_qr_scan"}, "lat": 38.94451983333333, "lon": -77.060207, "fusion_lat": 0.0, "name": "b55bb7e73ac59507af2c561f20da3cee", "is_disabled": 0, "is_reserved": 0, "bike_id": "b55bb7e73ac59507af2c561f20da3cee", "fusion_lon": 0.0, "type": "electric_scooter"}, {"rental_uris": {"ios": "https://dc.lft.to/lastmile_qr_scan", "android": "https://dc.lft.to/lastmile_qr_scan"}, "lat": 38.93823716666667, "lon": -77.07162883333334, "fusion_lat": 0.0, "name": "79c5ab8840915b4d8d92fcbd65f586e0", "is_disabled": 0, "is_reserved": 0, "bike_id": "79c5ab8840915b4d8d92fcbd65f586e0", "fusion_lon": 0.0, "type": "electric_scooter"}, {"rental_uris": {"ios": "https://dc.lft.to/lastmile_qr_scan", "android": "https://dc.lft.to/lastmile_qr_scan"}, "lat": 38.90952566666667, "lon": -77.02356166666667, "fusion_lat": 0.0, "name": "81d74d65544f3c4320e200c3dc4f1a75", "is_disabled": 0, "is_reserved": 0, "bike_id": "81d74d65544f3c4320e200c3dc4f1a75", "fusion_lon": 0.0, "type": "electric_scooter"}, {"rental_uris": {"ios": "https://dc.lft.to/lastmile_qr_scan", "android": "https://dc.lft.to/lastmile_qr_scan"}, "lat": 38.902147666666664, "lon": -77.0198265, "fusion_lat": 0.0, "name": "dc1af7de1edbef0cddd288a4d2f92cea", "is_disabled": 0, "is_reserved": 0, "bike_id": "dc1af7de1edbef0cddd288a4d2f92cea", "fusion_lon": 0.0, "type": "electric_scooter"}, {"rental_uris": {"ios": "https://dc.lft.to/lastmile_qr_scan", "android": "https://dc.lft.to/lastmile_qr_scan"}, "lat": 38.9039125, "lon": -77.0650535, "fusion_lat": 0.0, "name": "43ef275e8fdcf6f2542769ee335c3648", "is_disabled": 0, "is_reserved": 0, "bike_id": "43ef275e8fdcf6f2542769ee335c3648", "fusion_lon": 0.0, "type": "electric_scooter"}, {"rental_uris": {"ios": "https://dc.lft.to/lastmile_qr_scan", "android": "https://dc.lft.to/lastmile_qr_scan"}, "lat": 38.911809, "lon": -77.03859133333333, "fusion_lat": 0.0, "name": "11808d777b34a9ce6829c29cba768c4e", "is_disabled": 0, "is_reserved": 0, "bike_id": "11808d777b34a9ce6829c29cba768c4e", "fusion_lon": 0.0, "type": "electric_scooter"}, {"rental_uris": {"ios": "https://dc.lft.to/lastmile_qr_scan", "android": "https://dc.lft.to/lastmile_qr_scan"}, "lat": 38.91770833333333, "lon": -77.04100316666667, "fusion_lat": 0.0, "name": "1769ecfa7de9f5c82f2dabbf4b21d70e", "is_disabled": 0, "is_reserved": 0, "bike_id": "1769ecfa7de9f5c82f2dabbf4b21d70e", "fusion_lon": 0.0, "type": "electric_scooter"}, {"rental_uris": {"ios": "https://dc.lft.to/lastmile_qr_scan", "android": "https://dc.lft.to/lastmile_qr_scan"}, "lat": 38.92364283333333, "lon": -77.05043666666667, "fusion_lat": 0.0, "name": "1df85b2165713c2efee66895e098443d", "is_disabled": 0, "is_reserved": 0, "bike_id": "1df85b2165713c2efee66895e098443d", "fusion_lon": 0.0, "type": "electric_scooter"}, {"rental_uris": {"ios": "https://dc.lft.to/lastmile_qr_scan", "android": "https://dc.lft.to/lastmile_qr_scan"}, "lat": 38.893294166666664, "lon": -76.95055033333334, "fusion_lat": 0.0, "name": "d9078f3a2a5a4fecd6fd62ae72a7428c", "is_disabled": 0, "is_reserved": 0, "bike_id": "d9078f3a2a5a4fecd6fd62ae72a7428c", "fusion_lon": 0.0, "type": "electric_scooter"}, {"rental_uris": {"ios": "https://dc.lft.to/lastmile_qr_scan", "android": "https://dc.lft.to/lastmile_qr_scan"}, "lat": 38.8738175, "lon": -77.043376, "fusion_lat": 0.0, "name": "8e75661da9a5d7db57bedf3235690dae", "is_disabled": 0, "is_reserved": 0, "bike_id": "8e75661da9a5d7db57bedf3235690dae", "fusion_lon": 0.0, "type": "electric_scooter"}, {"rental_uris": {"ios": "https://dc.lft.to/lastmile_qr_scan", "android": "https://dc.lft.to/lastmile_qr_scan"}, "lat": 38.894133333333336, "lon": -77.02090233333334, "fusion_lat": 0.0, "name": "87c1bed7297caaf9c7787c0783f2d580", "is_disabled": 0, "is_reserved": 0, "bike_id": "87c1bed7297caaf9c7787c0783f2d580", "fusion_lon": 0.0, "type": "electric_scooter"}, {"rental_uris": {"ios": "https://dc.lft.to/lastmile_qr_scan", "android": "https://dc.lft.to/lastmile_qr_scan"}, "lat": 38.8807145, "lon": -77.0258335, "fusion_lat": 0.0, "name": "e7f2a270e75b69399ead86821587f42c", "is_disabled": 0, "is_reserved": 0, "bike_id": "e7f2a270e75b69399ead86821587f42c", "fusion_lon": 0.0, "type": "electric_scooter"}, {"rental_uris": {"ios": "https://dc.lft.to/lastmile_qr_scan", "android": "https://dc.lft.to/lastmile_qr_scan"}, "lat": 38.8770165, "lon": -77.00325933333333, "fusion_lat": 0.0, "name": "40fbc1e68b1579bf56d9350ec3884993", "is_disabled": 0, "is_reserved": 0, "bike_id": "40fbc1e68b1579bf56d9350ec3884993", "fusion_lon": 0.0, "type": "electric_scooter"}, {"rental_uris": {"ios": "https://dc.lft.to/lastmile_qr_scan", "android": "https://dc.lft.to/lastmile_qr_scan"}, "lat": 38.914749, "lon": -77.04345066666667, "fusion_lat": 0.0, "name": "2f93884377654d5deeb6803eb5d194ea", "is_disabled": 0, "is_reserved": 0, "bike_id": "2f93884377654d5deeb6803eb5d194ea", "fusion_lon": 0.0, "type": "electric_scooter"}, {"rental_uris": {"ios": "https://dc.lft.to/lastmile_qr_scan", "android": "https://dc.lft.to/lastmile_qr_scan"}, "lat": 38.916174833333336, "lon": -77.0320125, "fusion_lat": 0.0, "name": "da4c3ef62251998f80e3352b0238c634", "is_disabled": 0, "is_reserved": 0, "bike_id": "da4c3ef62251998f80e3352b0238c634", "fusion_lon": 0.0, "type": "electric_scooter"}, {"rental_uris": {"ios": "https://dc.lft.to/lastmile_qr_scan", "android": "https://dc.lft.to/lastmile_qr_scan"}, "lat": 38.8771235, "lon": -77.00526216666667, "fusion_lat": 0.0, "name": "a315210756d1e7d5356d9e0d0d3c70b0", "is_disabled": 0, "is_reserved": 0, "bike_id": "a315210756d1e7d5356d9e0d0d3c70b0", "fusion_lon": 0.0, "type": "electric_scooter"}, {"rental_uris": {"ios": "https://dc.lft.to/lastmile_qr_scan", "android": "https://dc.lft.to/lastmile_qr_scan"}, "lat": 38.9252805, "lon": -77.07713183333334, "fusion_lat": 0.0, "name": "528c2015e6ef0a587416147c516d9e3a", "is_disabled": 0, "is_reserved": 0, "bike_id": "528c2015e6ef0a587416147c516d9e3a", "fusion_lon": 0.0, "type": "electric_scooter"}, {"rental_uris": {"ios": "https://dc.lft.to/lastmile_qr_scan", "android": "https://dc.lft.to/lastmile_qr_scan"}, "lat": 38.89481116666666, "lon": -76.94860716666666, "fusion_lat": 0.0, "name": "5c54a3996c67df9050f9c7d6bdab7fc0", "is_disabled": 0, "is_reserved": 0, "bike_id": "5c54a3996c67df9050f9c7d6bdab7fc0", "fusion_lon": 0.0, "type": "electric_scooter"}, {"rental_uris": {"ios": "https://dc.lft.to/lastmile_qr_scan", "android": "https://dc.lft.to/lastmile_qr_scan"}, "lat": 38.940203, "lon": -76.97605916666667, "fusion_lat": 0.0, "name": "f16b7d65f6896f07986944ec5c90d8b1", "is_disabled": 0, "is_reserved": 0, "bike_id": "f16b7d65f6896f07986944ec5c90d8b1", "fusion_lon": 0.0, "type": "electric_scooter"}, {"rental_uris": {"ios": "https://dc.lft.to/lastmile_qr_scan", "android": "https://dc.lft.to/lastmile_qr_scan"}, "lat": 38.917280833333336, "lon": -77.03658316666667, "fusion_lat": 0.0, "name": "3b4a2752a61db7ee2ba23f3780e593c7", "is_disabled": 0, "is_reserved": 0, "bike_id": "3b4a2752a61db7ee2ba23f3780e593c7", "fusion_lon": 0.0, "type": "electric_scooter"}, {"rental_uris": {"ios": "https://dc.lft.to/lastmile_qr_scan", "android": "https://dc.lft.to/lastmile_qr_scan"}, "lat": 38.8923685, "lon": -77.03347533333333, "fusion_lat": 0.0, "name": "d76cd78dbddb6a29dcfd8f5c16629340", "is_disabled": 0, "is_reserved": 0, "bike_id": "d76cd78dbddb6a29dcfd8f5c16629340", "fusion_lon": 0.0, "type": "electric_scooter"}, {"rental_uris": {"ios": "https://dc.lft.to/lastmile_qr_scan", "android": "https://dc.lft.to/lastmile_qr_scan"}, "lat": 38.89665516666667, "lon": -77.03355466666666, "fusion_lat": 0.0, "name": "94fc8b7d810597250851ba98574599f1", "is_disabled": 0, "is_reserved": 0, "bike_id": "94fc8b7d810597250851ba98574599f1", "fusion_lon": 0.0, "type": "electric_scooter"}, {"rental_uris": {"ios": "https://dc.lft.to/lastmile_qr_scan", "android": "https://dc.lft.to/lastmile_qr_scan"}, "lat": 38.9170805, "lon": -77.04123683333333, "fusion_lat": 0.0, "name": "6a9e2f39dac02e40b37e82724161374b", "is_disabled": 0, "is_reserved": 0, "bike_id": "6a9e2f39dac02e40b37e82724161374b", "fusion_lon": 0.0, "type": "electric_scooter"}, {"rental_uris": {"ios": "https://dc.lft.to/lastmile_qr_scan", "android": "https://dc.lft.to/lastmile_qr_scan"}, "lat": 38.89409233333333, "lon": -77.01082166666667, "fusion_lat": 0.0, "name": "5a4b970722dcfeeb4c2d3605537c0b69", "is_disabled": 0, "is_reserved": 0, "bike_id": "5a4b970722dcfeeb4c2d3605537c0b69", "fusion_lon": 0.0, "type": "electric_scooter"}, {"rental_uris": {"ios": "https://dc.lft.to/lastmile_qr_scan", "android": "https://dc.lft.to/lastmile_qr_scan"}, "lat": 38.90971716666667, "lon": -77.0217905, "fusion_lat": 0.0, "name": "1d1f8056b1f7cc0fe293931095c2112b", "is_disabled": 0, "is_reserved": 0, "bike_id": "1d1f8056b1f7cc0fe293931095c2112b", "fusion_lon": 0.0, "type": "electric_scooter"}, {"rental_uris": {"ios": "https://dc.lft.to/lastmile_qr_scan", "android": "https://dc.lft.to/lastmile_qr_scan"}, "lat": 38.92243916666666, "lon": -77.019421, "fusion_lat": 0.0, "name": "b222263a8c86d16914955695e6646b4f", "is_disabled": 0, "is_reserved": 0, "bike_id": "b222263a8c86d16914955695e6646b4f", "fusion_lon": 0.0, "type": "electric_scooter"}, {"rental_uris": {"ios": "https://dc.lft.to/lastmile_qr_scan", "android": "https://dc.lft.to/lastmile_qr_scan"}, "lat": 38.906468333333336, "lon": -77.0487315, "fusion_lat": 0.0, "name": "0249ee1ad631efe62603003471966e28", "is_disabled": 0, "is_reserved": 0, "bike_id": "0249ee1ad631efe62603003471966e28", "fusion_lon": 0.0, "type": "electric_scooter"}, {"rental_uris": {"ios": "https://dc.lft.to/lastmile_qr_scan", "android": "https://dc.lft.to/lastmile_qr_scan"}, "lat": 38.931597, "lon": -77.001098, "fusion_lat": 0.0, "name": "76eda287f418a791329b5203e6ea3e1a", "is_disabled": 0, "is_reserved": 0, "bike_id": "76eda287f418a791329b5203e6ea3e1a", "fusion_lon": 0.0, "type": "electric_bike"}, {"rental_uris": {"ios": "https://dc.lft.to/lastmile_qr_scan", "android": "https://dc.lft.to/lastmile_qr_scan"}, "lat": 38.89832233333333, "lon": -77.04830383333334, "fusion_lat": 0.0, "name": "dafc86d35d4102980cd47ddbf506303b", "is_disabled": 0, "is_reserved": 0, "bike_id": "dafc86d35d4102980cd47ddbf506303b", "fusion_lon": 0.0, "type": "electric_scooter"}, {"rental_uris": {"ios": "https://dc.lft.to/lastmile_qr_scan", "android": "https://dc.lft.to/lastmile_qr_scan"}, "lat": 38.871718666666666, "lon": -77.006177, "fusion_lat": 0.0, "name": "79d192c1a55180580e0c475ce3a60803", "is_disabled": 0, "is_reserved": 0, "bike_id": "79d192c1a55180580e0c475ce3a60803", "fusion_lon": 0.0, "type": "electric_scooter"}, {"rental_uris": {"ios": "https://dc.lft.to/lastmile_qr_scan", "android": "https://dc.lft.to/lastmile_qr_scan"}, "lat": 38.911385833333334, "lon": -76.99009616666666, "fusion_lat": 0.0, "name": "350b63c9717c1f44896c199f2a1914bf", "is_disabled": 0, "is_reserved": 0, "bike_id": "350b63c9717c1f44896c199f2a1914bf", "fusion_lon": 0.0, "type": "electric_scooter"}, {"rental_uris": {"ios": "https://dc.lft.to/lastmile_qr_scan", "android": "https://dc.lft.to/lastmile_qr_scan"}, "lat": 38.9180035, "lon": -77.02947616666667, "fusion_lat": 0.0, "name": "1501612dd07deacc0ed3108027b4edd8", "is_disabled": 0, "is_reserved": 0, "bike_id": "1501612dd07deacc0ed3108027b4edd8", "fusion_lon": 0.0, "type": "electric_scooter"}, {"rental_uris": {"ios": "https://dc.lft.to/lastmile_qr_scan", "android": "https://dc.lft.to/lastmile_qr_scan"}, "lat": 38.89215933333333, "lon": -77.02545283333333, "fusion_lat": 0.0, "name": "05bf26e32c16b9a234c5911b7fedc55d", "is_disabled": 0, "is_reserved": 0, "bike_id": "05bf26e32c16b9a234c5911b7fedc55d", "fusion_lon": 0.0, "type": "electric_scooter"}, {"rental_uris": {"ios": "https://dc.lft.to/lastmile_qr_scan", "android": "https://dc.lft.to/lastmile_qr_scan"}, "lat": 38.924373, "lon": -77.03399783333333, "fusion_lat": 0.0, "name": "0e522d5f64d1c3680cb6ebdc54ac1dcd", "is_disabled": 0, "is_reserved": 0, "bike_id": "0e522d5f64d1c3680cb6ebdc54ac1dcd", "fusion_lon": 0.0, "type": "electric_scooter"}, {"rental_uris": {"ios": "https://dc.lft.to/lastmile_qr_scan", "android": "https://dc.lft.to/lastmile_qr_scan"},