{"data": {"bikes": [{"rental_uris": {"ios": "https://dc.lft.to/lastmile_qr_scan", "android": "https://dc.lft.to/lastmile_qr_scan"}, "lon": -77.05117516666667, "type": "electric_bike", "fusion_lat": 0.0, "lat": 38.99966583333333, "name": "c932f8fb70b91b32d2dbf0a1202222ef", "fusion_lon": 0.0, "bike_id": "c932f8fb70b91b32d2dbf0a1202222ef", "is_disabled": 0, "is_reserved": 0}, {"rental_uris": {"ios": "https://dc.lft.to/lastmile_qr_scan", "android": "https://dc.lft.to/lastmile_qr_scan"}, "lon": -77.01636916666666, "type": "electric_scooter", "fusion_lat": 0.0, "lat": 38.90342283333333, "name": "dcfa024142245f85a305776707a662d9", "fusion_lon": 0.0, "bike_id": "dcfa024142245f85a305776707a662d9", "is_disabled": 0, "is_reserved": 0}, {"rental_uris": {"ios": "https://dc.lft.to/lastmile_qr_scan", "android": "https://dc.lft.to/lastmile_qr_scan"}, "lon": -76.986044, "type": "electric_bike", "fusion_lat": 0.0, "lat": 38.906288, "name": "fa8e0d823e952e5e76c11b07c7aca319", "fusion_lon": 0.0, "bike_id": "fa8e0d823e952e5e76c11b07c7aca319", "is_disabled": 0, "is_reserved": 0}, {"rental_uris": {"ios": "https://dc.lft.to/lastmile_qr_scan", "android": "https://dc.lft.to/lastmile_qr_scan"}, "lon": -77.0242135, "type": "electric_scooter", "fusion_lat": 0.0, "lat": 38.918245166666665, "name": "c5d1fd0d5ff642049e55214a45588c74", "fusion_lon": 0.0, "bike_id": "c5d1fd0d5ff642049e55214a45588c74", "is_disabled": 0, "is_reserved": 0}, {"rental_uris": {"ios": "https://dc.lft.to/lastmile_qr_scan", "android": "https://dc.lft.to/lastmile_qr_scan"}, "lon": -76.98883416666666, "type": "electric_scooter", "fusion_lat": 0.0, "lat": 38.8665665, "name": "bdd176924d80b5202748b8186b9c8f79", "fusion_lon": 0.0, "bike_id": "bdd176924d80b5202748b8186b9c8f79", "is_disabled": 0, "is_reserved": 0}, {"rental_uris": {"ios": "https://dc.lft.to/lastmile_qr_scan", "android": "https://dc.lft.to/lastmile_qr_scan"}, "lon": -77.02421233333334, "type": "electric_scooter", "fusion_lat": 0.0, "lat": 38.9186265, "name": "a0494461952666163ebf9dd311735107", "fusion_lon": 0.0, "bike_id": "a0494461952666163ebf9dd311735107", "is_disabled": 0, "is_reserved": 0}, {"rental_uris": {"ios": "https://dc.lft.to/lastmile_qr_scan", "android": "https://dc.lft.to/lastmile_qr_scan"}, "lon": -77.0882895, "type": "electric_bike", "fusion_lat": 0.0, "lat": 38.90978366666667, "name": "1a21a13a6efab81bdea1fd2892e7ac31", "fusion_lon": 0.0, "bike_id": "1a21a13a6efab81bdea1fd2892e7ac31", "is_disabled": 0, "is_reserved": 0}, {"rental_uris": {"ios": "https://dc.lft.to/lastmile_qr_scan", "android": "https://dc.lft.to/lastmile_qr_scan"}, "lon": -77.04385216666667, "type": "electric_scooter", "fusion_lat": 0.0, "lat": 38.92946583333333, "name": "b1300e897d4d49d912da01a54e706e29", "fusion_lon": 0.0, "bike_id": "b1300e897d4d49d912da01a54e706e29", "is_disabled": 0, "is_reserved": 0}, {"rental_uris": {"ios": "https://dc.lft.to/lastmile_qr_scan", "android": "https://dc.lft.to/lastmile_qr_scan"}, "lon": -77.12497416666666, "type": "electric_bike", "fusion_lat": 0.0, "lat": 39.02417616666666, "name": "d56be3de5830a4c2a1c2dee96bfc0576", "fusion_lon": 0.0, "bike_id": "d56be3de5830a4c2a1c2dee96bfc0576", "is_disabled": 0, "is_reserved": 0}, {"rental_uris": {"ios": "https://dc.lft.to/lastmile_qr_scan", "android": "https://dc.lft.to/lastmile_qr_scan"}, "lon": -77.03079516666666, "type": "electric_scooter", "fusion_lat": 0.0, "lat": 38.92236066666667, "name": "e9099e40fa7a441c7719d1d50f506485", "fusion_lon": 0.0, "bike_id": "e9099e40fa7a441c7719d1d50f506485", "is_disabled": 0, "is_reserved": 0}, {"rental_uris": {"ios": "https://dc.lft.to/lastmile_qr_scan", "android": "https://dc.lft.to/lastmile_qr_scan"}, "lon": -77.03005983333334, "type": "electric_scooter", "fusion_lat": 0.0, "lat": 38.919336666666666, "name": "0baba367740d30abe3d83c823a2fc01e", "fusion_lon": 0.0, "bike_id": "0baba367740d30abe3d83c823a2fc01e", "is_disabled": 0, "is_reserved": 0}, {"rental_uris": {"ios": "https://dc.lft.to/lastmile_qr_scan", "android": "https://dc.lft.to/lastmile_qr_scan"}, "lon": -77.222114, "type": "electric_bike", "fusion_lat": 0.0, "lat": 38.920783, "name": "73434d33cf8b95af998bd0b36082e4bd", "fusion_lon": 0.0, "bike_id": "73434d33cf8b95af998bd0b36082e4bd", "is_disabled": 0, "is_reserved": 0}, {"rental_uris": {"ios": "https://dc.lft.to/lastmile_qr_scan", "android": "https://dc.lft.to/lastmile_qr_scan"}, "lon": -77.02288733333333, "type": "electric_scooter", "fusion_lat": 0.0, "lat": 38.915705333333335, "name": "bb3a63a8b113c1cdad200d196fec1455", "fusion_lon": 0.0, "bike_id": "bb3a63a8b113c1cdad200d196fec1455", "is_disabled": 0, "is_reserved": 0}, {"rental_uris": {"ios": "https://dc.lft.to/lastmile_qr_scan", "android": "https://dc.lft.to/lastmile_qr_scan"}, "lon": -77.006936, "type": "electric_scooter", "fusion_lat": 0.0, "lat": 38.90592066666667, "name": "73aa28f8db39c31be48e613e6edcbaa8", "fusion_lon": 0.0, "bike_id": "73aa28f8db39c31be48e613e6edcbaa8", "is_disabled": 0, "is_reserved": 0}, {"rental_uris": {"ios": "https://dc.lft.to/lastmile_qr_scan", "android": "https://dc.lft.to/lastmile_qr_scan"}, "lon": -77.03896033333334, "type": "electric_scooter", "fusion_lat": 0.0, "lat": 38.92333816666667, "name": "17c3871f6bddd5c67be9c368eb68d09c", "fusion_lon": 0.0, "bike_id": "17c3871f6bddd5c67be9c368eb68d09c", "is_disabled": 0, "is_reserved": 0}, {"rental_uris": {"ios": "https://dc.lft.to/lastmile_qr_scan", "android": "https://dc.lft.to/lastmile_qr_scan"}, "lon": -77.023411, "type": "electric_scooter", "fusion_lat": 0.0, "lat": 38.962073, "name": "7b5c2fb53405a8d70ae81827500f3e65", "fusion_lon": 0.0, "bike_id": "7b5c2fb53405a8d70ae81827500f3e65", "is_disabled": 0, "is_reserved": 0}, {"rental_uris": {"ios": "https://dc.lft.to/lastmile_qr_scan", "android": "https://dc.lft.to/lastmile_qr_scan"}, "lon": -77.029633, "type": "electric_scooter", "fusion_lat": 0.0, "lat": 38.9078275, "name": "26b23bb87d663c01399fe077ab11b6d7", "fusion_lon": 0.0, "bike_id": "26b23bb87d663c01399fe077ab11b6d7", "is_disabled": 0, "is_reserved": 0}, {"rental_uris": {"ios": "https://dc.lft.to/lastmile_qr_scan", "android": "https://dc.lft.to/lastmile_qr_scan"}, "lon": -77.00589016666666, "type": "electric_scooter", "fusion_lat": 0.0, "lat": 38.9156305, "name": "f8b12c1f471c75d294c311781304aee5", "fusion_lon": 0.0, "bike_id": "f8b12c1f471c75d294c311781304aee5", "is_disabled": 0, "is_reserved": 0}, {"rental_uris": {"ios": "https://dc.lft.to/lastmile_qr_scan", "android": "https://dc.lft.to/lastmile_qr_scan"}, "lon": -77.02845933333333, "type": "electric_scooter", "fusion_lat": 0.0, "lat": 38.93074516666667, "name": "50179d28b5fa20668a44e72c3d9c43bd", "fusion_lon": 0.0, "bike_id": "50179d28b5fa20668a44e72c3d9c43bd", "is_disabled": 0, "is_reserved": 0}, {"rental_uris": {"ios": "https://dc.lft.to/lastmile_qr_scan", "android": "https://dc.lft.to/lastmile_qr_scan"}, "lon": -77.04240233333333, "type": "electric_scooter", "fusion_lat": 0.0, "lat": 38.907508666666665, "name": "a402bb1e7b8cb3342ee333c722a4583e", "fusion_lon": 0.0, "bike_id": "a402bb1e7b8cb3342ee333c722a4583e", "is_disabled": 0, "is_reserved": 0}, {"rental_uris": {"ios": "https://dc.lft.to/lastmile_qr_scan", "android": "https://dc.lft.to/lastmile_qr_scan"}, "lon": -77.02088316666666, "type": "electric_scooter", "fusion_lat": 0.0, "lat": 38.931194, "name": "37bc62a4084cde5a40c06ddf1576540f", "fusion_lon": 0.0, "bike_id": "37bc62a4084cde5a40c06ddf1576540f", "is_disabled": 0, "is_reserved": 0}, {"rental_uris": {"ios": "https://dc.lft.to/lastmile_qr_scan", "android": "https://dc.lft.to/lastmile_qr_scan"}, "lon": -76.97935883333334, "type": "electric_scooter", "fusion_lat": 0.0, "lat": 38.866125833333335, "name": "dcb613538be4776ab9f6bcf54bb93b62", "fusion_lon": 0.0, "bike_id": "dcb613538be4776ab9f6bcf54bb93b62", "is_disabled": 0, "is_reserved": 0}, {"rental_uris": {"ios": "https://dc.lft.to/lastmile_qr_scan", "android": "https://dc.lft.to/lastmile_qr_scan"}, "lon": -76.979459, "type": "electric_scooter", "fusion_lat": 0.0, "lat": 38.90242033333333, "name": "b9518dd443b77881719e8960066d05ed", "fusion_lon": 0.0, "bike_id": "b9518dd443b77881719e8960066d05ed", "is_disabled": 0, "is_reserved": 0}, {"rental_uris": {"ios": "https://dc.lft.to/lastmile_qr_scan", "android": "https://dc.lft.to/lastmile_qr_scan"}, "lon": -77.02784583333333, "type": "electric_scooter", "fusion_lat": 0.0, "lat": 38.923708500000004, "name": "032c4f2390d456dfc67bb83502309b96", "fusion_lon": 0.0, "bike_id": "032c4f2390d456dfc67bb83502309b96", "is_disabled": 0, "is_reserved": 0}, {"rental_uris": {"ios": "https://dc.lft.to/lastmile_qr_scan", "android": "https://dc.lft.to/lastmile_qr_scan"}, "lon": -77.02935016666666, "type": "electric_scooter", "fusion_lat": 0.0, "lat": 38.91111333333333, "name": "2b716137969fc6068ad0c0491a7584eb", "fusion_lon": 0.0, "bike_id": "2b716137969fc6068ad0c0491a7584eb", "is_disabled": 0, "is_reserved": 0}, {"rental_uris": {"ios": "https://dc.lft.to/lastmile_qr_scan", "android": "https://dc.lft.to/lastmile_qr_scan"}, "lon": -77.00334666666667, "type": "electric_scooter", "fusion_lat": 0.0, "lat": 38.893541666666664, "name": "237d4ae19ffa60f850eec40e427cc185", "fusion_lon": 0.0, "bike_id": "237d4ae19ffa60f850eec40e427cc185", "is_disabled": 0, "is_reserved": 0}, {"rental_uris": {"ios": "https://dc.lft.to/lastmile_qr_scan", "android": "https://dc.lft.to/lastmile_qr_scan"}, "lon": -77.0178975, "type": "electric_scooter", "fusion_lat": 0.0, "lat": 38.90569, "name": "46ab3cb25e2a388bc431eb4cc0091ce1", "fusion_lon": 0.0, "bike_id": "46ab3cb25e2a388bc431eb4cc0091ce1", "is_disabled": 0, "is_reserved": 0}, {"rental_uris": {"ios": "https://dc.lft.to/lastmile_qr_scan", "android": "https://dc.lft.to/lastmile_qr_scan"}, "lon": -77.02068066666666, "type": "electric_scooter", "fusion_lat": 0.0, "lat": 38.89966483333333, "name": "98915cf9c6e4a6efa64d20c3eee2782b", "fusion_lon": 0.0, "bike_id": "98915cf9c6e4a6efa64d20c3eee2782b", "is_disabled": 0, "is_reserved": 0}, {"rental_uris": {"ios": "https://dc.lft.to/lastmile_qr_scan", "android": "https://dc.lft.to/lastmile_qr_scan"}, "lon": -76.98564533333334, "type": "electric_scooter", "fusion_lat": 0.0, "lat": 38.89955916666667, "name": "e94d465c6b4316b3ecc00503463a92ff", "fusion_lon": 0.0, "bike_id": "e94d465c6b4316b3ecc00503463a92ff", "is_disabled": 0, "is_reserved": 0}, {"rental_uris": {"ios": "https://dc.lft.to/lastmile_qr_scan", "android": "https://dc.lft.to/lastmile_qr_scan"}, "lon": -76.9888755, "type": "electric_scooter", "fusion_lat": 0.0, "lat": 38.866570833333334, "name": "eeb33d4719f823f2d9c7c22ff1b154a2", "fusion_lon": 0.0, "bike_id": "eeb33d4719f823f2d9c7c22ff1b154a2", "is_disabled": 0, "is_reserved": 0}, {"rental_uris": {"ios": "https://dc.lft.to/lastmile_qr_scan", "android": "https://dc.lft.to/lastmile_qr_scan"}, "lon": -77.02653316666667, "type": "electric_scooter", "fusion_lat": 0.0, "lat": 38.910558, "name": "c374dbca885d76d9976d69b78e74e31d", "fusion_lon": 0.0, "bike_id": "c374dbca885d76d9976d69b78e74e31d", "is_disabled": 0, "is_reserved": 0}, {"rental_uris": {"ios": "https://dc.lft.to/lastmile_qr_scan", "android": "https://dc.lft.to/lastmile_qr_scan"}, "lon": -77.045827, "type": "electric_scooter", "fusion_lat": 0.0, "lat": 38.92128366666667, "name": "2ecb8a33cf4fd40939b365043257e394", "fusion_lon": 0.0, "bike_id": "2ecb8a33cf4fd40939b365043257e394", "is_disabled": 0, "is_reserved": 0}, {"rental_uris": {"ios": "https://dc.lft.to/lastmile_qr_scan", "android": "https://dc.lft.to/lastmile_qr_scan"}, "lon": -76.94719683333334, "type": "electric_scooter", "fusion_lat": 0.0, "lat": 38.897422666666664, "name": "5a08378aca0b5c3cafc1368dc673b322", "fusion_lon": 0.0, "bike_id": "5a08378aca0b5c3cafc1368dc673b322", "is_disabled": 0, "is_reserved": 0}, {"rental_uris": {"ios": "https://dc.lft.to/lastmile_qr_scan", "android": "https://dc.lft.to/lastmile_qr_scan"}, "lon": -76.937331, "type": "electric_scooter", "fusion_lat": 0.0, "lat": 38.8901485, "name": "28af9dd0d23af43f6be747918356fac2", "fusion_lon": 0.0, "bike_id": "28af9dd0d23af43f6be747918356fac2", "is_disabled": 0, "is_reserved": 0}, {"rental_uris": {"ios": "https://dc.lft.to/lastmile_qr_scan", "android": "https://dc.lft.to/lastmile_qr_scan"}, "lon": -77.0141195, "type": "electric_scooter", "fusion_lat": 0.0, "lat": 38.92857166666667, "name": "0afdb45c53b4c2a16e658a276b117ac8", "fusion_lon": 0.0, "bike_id": "0afdb45c53b4c2a16e658a276b117ac8", "is_disabled": 0, "is_reserved": 0}, {"rental_uris": {"ios": "https://dc.lft.to/lastmile_qr_scan", "android": "https://dc.lft.to/lastmile_qr_scan"}, "lon": -77.03797583333333, "type": "electric_scooter", "fusion_lat": 0.0, "lat": 38.930054, "name": "3c809994f3d29a06b6b6bc9307ebdf57", "fusion_lon": 0.0, "bike_id": "3c809994f3d29a06b6b6bc9307ebdf57", "is_disabled": 0, "is_reserved": 0}, {"rental_uris": {"ios": "https://dc.lft.to/lastmile_qr_scan", "android": "https://dc.lft.to/lastmile_qr_scan"}, "lon": -77.0201645, "type": "electric_scooter", "fusion_lat": 0.0, "lat": 38.9497655, "name": "ce0cdf55a40180e49ae96f5c6956d017", "fusion_lon": 0.0, "bike_id": "ce0cdf55a40180e49ae96f5c6956d017", "is_disabled": 0, "is_reserved": 0}, {"rental_uris": {"ios": "https://dc.lft.to/lastmile_qr_scan", "android": "https://dc.lft.to/lastmile_qr_scan"}, "lon": -76.98711183333333, "type": "electric_scooter", "fusion_lat": 0.0, "lat": 38.862654166666665, "name": "e3887d46f716c286bee378c6a76b8d79", "fusion_lon": 0.0, "bike_id": "e3887d46f716c286bee378c6a76b8d79", "is_disabled": 0, "is_reserved": 0}, {"rental_uris": {"ios": "https://dc.lft.to/lastmile_qr_scan", "android": "https://dc.lft.to/lastmile_qr_scan"}, "lon": -77.02765066666667, "type": "electric_scooter", "fusion_lat": 0.0, "lat": 38.894820833333334, "name": "ba3a2802cd13f1bd3095c349460f68d4", "fusion_lon": 0.0, "bike_id": "ba3a2802cd13f1bd3095c349460f68d4", "is_disabled": 0, "is_reserved": 0}, {"rental_uris": {"ios": "https://dc.lft.to/lastmile_qr_scan", "android": "https://dc.lft.to/lastmile_qr_scan"}, "lon": -77.011814, "type": "electric_scooter", "fusion_lat": 0.0, "lat": 38.9155595, "name": "7db75842cfa29b2a76042b48b8b0dcea", "fusion_lon": 0.0, "bike_id": "7db75842cfa29b2a76042b48b8b0dcea", "is_disabled": 0, "is_reserved": 0}, {"rental_uris": {"ios": "https://dc.lft.to/lastmile_qr_scan", "android": "https://dc.lft.to/lastmile_qr_scan"}, "lon": -77.0460565, "type": "electric_scooter", "fusion_lat": 0.0, "lat": 38.92229733333333, "name": "db5bfea5a74579f83c7d8ddf08e568e7", "fusion_lon": 0.0, "bike_id": "db5bfea5a74579f83c7d8ddf08e568e7", "is_disabled": 0, "is_reserved": 0}, {"rental_uris": {"ios": "https://dc.lft.to/lastmile_qr_scan", "android": "https://dc.lft.to/lastmile_qr_scan"}, "lon": -77.0584635, "type": "electric_scooter", "fusion_lat": 0.0, "lat": 38.93424233333333, "name": "4bea17ab87d01154b1e2e7941d3f5c03", "fusion_lon": 0.0, "bike_id": "4bea17ab87d01154b1e2e7941d3f5c03", "is_disabled": 0, "is_reserved": 0}, {"rental_uris": {"ios": "https://dc.lft.to/lastmile_qr_scan", "android": "https://dc.lft.to/lastmile_qr_scan"}, "lon": -77.059326, "type": "electric_scooter", "fusion_lat": 0.0, "lat": 38.90956083333333, "name": "c5fffdebe0ad448285dbe5d07d833f43", "fusion_lon": 0.0, "bike_id": "c5fffdebe0ad448285dbe5d07d833f43", "is_disabled": 0, "is_reserved": 0}, {"rental_uris": {"ios": "https://dc.lft.to/lastmile_qr_scan", "android": "https://dc.lft.to/lastmile_qr_scan"}, "lon": -77.03211066666667, "type": "electric_scooter", "fusion_lat": 0.0, "lat": 38.907327, "name": "40b48ab9dc31bc67c251874ed4ddd921", "fusion_lon": 0.0, "bike_id": "40b48ab9dc31bc67c251874ed4ddd921", "is_disabled": 0, "is_reserved": 0}, {"rental_uris": {"ios": "https://dc.lft.to/lastmile_qr_scan", "android": "https://dc.lft.to/lastmile_qr_scan"}, "lon": -77.02174783333334, "type": "electric_scooter", "fusion_lat": 0.0, "lat": 38.899216833333334, "name": "914e19179442f8fc5da496dbd7f7443a", "fusion_lon": 0.0, "bike_id": "914e19179442f8fc5da496dbd7f7443a", "is_disabled": 0, "is_reserved": 0}, {"rental_uris": {"ios": "https://dc.lft.to/lastmile_qr_scan", "android": "https://dc.lft.to/lastmile_qr_scan"}, "lon": -76.99461366666667, "type": "electric_bike", "fusion_lat": 0.0, "lat": 38.940667, "name": "93fe8c0fd1c18afb145faedd81e3d085", "fusion_lon": 0.0, "bike_id": "93fe8c0fd1c18afb145faedd81e3d085", "is_disabled": 0, "is_reserved": 0}, {"rental_uris": {"ios": "https://dc.lft.to/lastmile_qr_scan", "android": "https://dc.lft.to/lastmile_qr_scan"}, "lon": -77.12019783333334, "type": "electric_bike", "fusion_lat": 0.0, "lat": 38.8552005, "name": "75d6f2881124586e275267872658ad00", "fusion_lon": 0.0, "bike_id": "75d6f2881124586e275267872658ad00", "is_disabled": 0, "is_reserved": 0}, {"rental_uris": {"ios": "https://dc.lft.to/lastmile_qr_scan", "android": "https://dc.lft.to/lastmile_qr_scan"}, "lon": -76.9317425, "type": "electric_scooter", "fusion_lat": 0.0, "lat": 38.89885866666667, "name": "7430af93527daa54ff8ed561370a23a5", "fusion_lon": 0.0, "bike_id": "7430af93527daa54ff8ed561370a23a5", "is_disabled": 0, "is_reserved": 0}, {"rental_uris": {"ios": "https://dc.lft.to/lastmile_qr_scan", "android": "https://dc.lft.to/lastmile_qr_scan"}, "lon": -76.94969483333334, "type": "electric_scooter", "fusion_lat": 0.0, "lat": 38.8937725, "name": "a57ae5e109e5e1314813fea4b1f192da", "fusion_lon": 0.0, "bike_id": "a57ae5e109e5e1314813fea4b1f192da", "is_disabled": 0, "is_reserved": 0}, {"rental_uris": {"ios": "https://dc.lft.to/lastmile_qr_scan", "android": "https://dc.lft.to/lastmile_qr_scan"}, "lon": -77.01856833333333, "type": "electric_scooter", "fusion_lat": 0.0, "lat": 38.9008275, "name": "3b26a41c9ccc39de4f80ad79267b21fb", "fusion_lon": 0.0, "bike_id": "3b26a41c9ccc39de4f80ad79267b21fb", "is_disabled": 0, "is_reserved": 0}, {"rental_uris": {"ios": "https://dc.lft.to/lastmile_qr_scan", "android": "https://dc.lft.to/lastmile_qr_scan"}, "lon": -77.03176666666667, "type": "electric_scooter", "fusion_lat": 0.0, "lat": 38.88631483333333, "name": "ee23503ef6e3040d255d806f4ba41776", "fusion_lon": 0.0, "bike_id": "ee23503ef6e3040d255d806f4ba41776", "is_disabled": 0, "is_reserved": 0}, {"rental_uris": {"ios": "https://dc.lft.to/lastmile_qr_scan", "android": "https://dc.lft.to/lastmile_qr_scan"}, "lon": -77.00210666666666, "type": "electric_scooter", "fusion_lat": 0.0, "lat": 38.902223, "name": "deab8acb72d2292a9af44170ffcd860e", "fusion_lon": 0.0, "bike_id": "deab8acb72d2292a9af44170ffcd860e", "is_disabled": 0, "is_reserved": 0}, {"rental_uris": {"ios": "https://dc.lft.to/lastmile_qr_scan", "android": "https://dc.lft.to/lastmile_qr_scan"}, "lon": -77.0515655, "type": "electric_scooter", "fusion_lat": 0.0, "lat": 38.897728666666666, "name": "0b5fd8227221bce4fdc2d6780b22e308", "fusion_lon": 0.0, "bike_id": "0b5fd8227221bce4fdc2d6780b22e308", "is_disabled": 0, "is_reserved": 0}, {"rental_uris": {"ios": "https://dc.lft.to/lastmile_qr_scan", "android": "https://dc.lft.to/lastmile_qr_scan"}, "lon": -77.04655216666667, "type": "electric_scooter", "fusion_lat": 0.0, "lat": 38.893368, "name": "178c88a9fbc390488276a6907994c64e", "fusion_lon": 0.0, "bike_id": "178c88a9fbc390488276a6907994c64e", "is_disabled": 0, "is_reserved": 0}, {"rental_uris": {"ios": "https://dc.lft.to/lastmile_qr_scan", "android": "https://dc.lft.to/lastmile_qr_scan"}, "lon": -77.06644066666667, "type": "electric_scooter", "fusion_lat": 0.0, "lat": 38.913764, "name": "870f7b069070aa95b4237b92e82b40d5", "fusion_lon": 0.0, "bike_id": "870f7b069070aa95b4237b92e82b40d5", "is_disabled": 0, "is_reserved": 0}, {"rental_uris": {"ios": "https://dc.lft.to/lastmile_qr_scan", "android": "https://dc.lft.to/lastmile_qr_scan"}, "lon": -77.03190716666667, "type": "electric_scooter", "fusion_lat": 0.0, "lat": 38.908484333333334, "name": "31fd5133a2338229a1bd4bf2cd837da0", "fusion_lon": 0.0, "bike_id": "31fd5133a2338229a1bd4bf2cd837da0", "is_disabled": 0, "is_reserved": 0}, {"rental_uris": {"ios": "https://dc.lft.to/lastmile_qr_scan", "android": "https://dc.lft.to/lastmile_qr_scan"}, "lon": -77.02978166666666, "type": "electric_bike", "fusion_lat": 0.0, "lat": 38.9369995, "name": "18d3b4b206a770ff1968f7fcb51b3571", "fusion_lon": 0.0, "bike_id": "18d3b4b206a770ff1968f7fcb51b3571", "is_disabled": 0, "is_reserved": 0}, {"rental_uris": {"ios": "https://dc.lft.to/lastmile_qr_scan", "android": "https://dc.lft.to/lastmile_qr_scan"}, "lon": -76.9652865, "type": "electric_scooter", "fusion_lat": 0.0, "lat": 38.87629366666667, "name": "7cb0fd3caf53cc9f730129b38a35ffaa", "fusion_lon": 0.0, "bike_id": "7cb0fd3caf53cc9f730129b38a35ffaa", "is_disabled": 0, "is_reserved": 0}, {"rental_uris": {"ios": "https://dc.lft.to/lastmile_qr_scan", "android": "https://dc.lft.to/lastmile_qr_scan"}, "lon": -77.04614283333333, "type": "electric_scooter", "fusion_lat": 0.0, "lat": 38.90276983333333, "name": "b5dc5823f3e8d18795368904d9b114be", "fusion_lon": 0.0, "bike_id": "b5dc5823f3e8d18795368904d9b114be", "is_disabled": 0, "is_reserved": 0}, {"rental_uris": {"ios": "https://dc.lft.to/lastmile_qr_scan", "android": "https://dc.lft.to/lastmile_qr_scan"}, "lon": -77.01511183333334, "type": "electric_scooter", "fusion_lat": 0.0, "lat": 38.91611666666667, "name": "8d82e97fec10a6a4cf3906494e8f366e", "fusion_lon": 0.0, "bike_id": "8d82e97fec10a6a4cf3906494e8f366e", "is_disabled": 0, "is_reserved": 0}, {"rental_uris": {"ios": "https://dc.lft.to/lastmile_qr_scan", "android": "https://dc.lft.to/lastmile_qr_scan"}, "lon": -76.99334833333333, "type": "electric_bike", "fusion_lat": 0.0, "lat": 38.96195516666667, "name": "d5be27e7560b840122d2a91703ed5a13", "fusion_lon": 0.0, "bike_id": "d5be27e7560b840122d2a91703ed5a13", "is_disabled": 0, "is_reserved": 0}, {"rental_uris": {"ios": "https://dc.lft.to/lastmile_qr_scan", "android": "https://dc.lft.to/lastmile_qr_scan"}, "lon": -77.02625866666666, "type": "electric_scooter", "fusion_lat": 0.0, "lat": 38.92791183333333, "name": "393bbee1a5ce95f57dc8608f2232c5c7", "fusion_lon": 0.0, "bike_id": "393bbee1a5ce95f57dc8608f2232c5c7", "is_disabled": 0, "is_reserved": 0}, {"rental_uris": {"ios": "https://dc.lft.to/lastmile_qr_scan", "android": "https://dc.lft.to/lastmile_qr_scan"}, "lon": -77.02929633333333, "type": "electric_scooter", "fusion_lat": 0.0, "lat": 38.882197166666664, "name": "ed4af90f84617dcb1e45488ac2e4466b", "fusion_lon": 0.0, "bike_id": "ed4af90f84617dcb1e45488ac2e4466b", "is_disabled": 0, "is_reserved": 0}, {"rental_uris": {"ios": "https://dc.lft.to/lastmile_qr_scan", "android": "https://dc.lft.to/lastmile_qr_scan"}, "lon": -77.073597, "type": "electric_scooter", "fusion_lat": 0.0, "lat": 38.9373565, "name": "2efa74756975bd3dafb42b1757bc305f", "fusion_lon": 0.0, "bike_id": "2efa74756975bd3dafb42b1757bc305f", "is_disabled": 0, "is_reserved": 0}, {"rental_uris": {"ios": "https://dc.lft.to/lastmile_qr_scan", "android": "https://dc.lft.to/lastmile_qr_scan"}, "lon": -77.01865783333334, "type": "electric_scooter", "fusion_lat": 0.0, "lat": 38.94894733333334, "name": "0996d209759a99445e20c57953d73241", "fusion_lon": 0.0, "bike_id": "0996d209759a99445e20c57953d73241", "is_disabled": 0, "is_reserved": 0}, {"rental_uris": {"ios": "https://dc.lft.to/lastmile_qr_scan", "android": "https://dc.lft.to/lastmile_qr_scan"}, "lon": -76.97629516666667, "type": "electric_scooter", "fusion_lat": 0.0, "lat": 38.90573633333333, "name": "a0f07656cb29483480b02bc2312fdfbb", "fusion_lon": 0.0, "bike_id": "a0f07656cb29483480b02bc2312fdfbb", "is_disabled": 0, "is_reserved": 0}, {"rental_uris": {"ios": "https://dc.lft.to/lastmile_qr_scan", "android": "https://dc.lft.to/lastmile_qr_scan"}, "lon": -77.05573716666666, "type": "electric_scooter", "fusion_lat": 0.0, "lat": 38.899729, "name": "f1d6b14177a2a0731762d8b010fc70f9", "fusion_lon": 0.0, "bike_id": "f1d6b14177a2a0731762d8b010fc70f9", "is_disabled": 0, "is_reserved": 0}, {"rental_uris": {"ios": "https://dc.lft.to/lastmile_qr_scan", "android": "https://dc.lft.to/lastmile_qr_scan"}, "lon": -77.04803083333333, "type": "electric_scooter", "fusion_lat": 0.0, "lat": 38.897395, "name": "adb82c357b434ee56aaff7815a18aa22", "fusion_lon": 0.0, "bike_id": "adb82c357b434ee56aaff7815a18aa22", "is_disabled": 0, "is_reserved": 0}, {"rental_uris": {"ios": "https://dc.lft.to/lastmile_qr_scan", "android": "https://dc.lft.to/lastmile_qr_scan"}, "lon": -77.03718666666667, "type": "electric_scooter", "fusion_lat": 0.0, "lat": 38.90695683333333, "name": "e97856b2f4d8a34c3c0e9919e1745507", "fusion_lon": 0.0, "bike_id": "e97856b2f4d8a34c3c0e9919e1745507", "is_disabled": 0, "is_reserved": 0}, {"rental_uris": {"ios": "https://dc.lft.to/lastmile_qr_scan", "android": "https://dc.lft.to/lastmile_qr_scan"}, "lon": -77.0121325, "type": "electric_bike", "fusion_lat": 0.0, "lat": 38.87100816666667, "name": "7c51e7de4c84f4608daebcf93e195d72", "fusion_lon": 0.0, "bike_id": "7c51e7de4c84f4608daebcf93e195d72", "is_disabled": 0, "is_reserved": 0}, {"rental_uris": {"ios": "https://dc.lft.to/lastmile_qr_scan", "android": "https://dc.lft.to/lastmile_qr_scan"}, "lon": -77.0383575, "type": "electric_scooter", "fusion_lat": 0.0, "lat": 38.90752766666667, "name": "9e247b999fec76005c5cb512d3f3a5b2", "fusion_lon": 0.0, "bike_id": "9e247b999fec76005c5cb512d3f3a5b2", "is_disabled": 0, "is_reserved": 0}, {"rental_uris": {"ios": "https://dc.lft.to/lastmile_qr_scan", "android": "https://dc.lft.to/lastmile_qr_scan"}, "lon": -77.0277165, "type": "electric_scooter", "fusion_lat": 0.0, "lat": 38.9538205, "name": "64b1d0b5a3ef87d7f2791ef24e82d675", "fusion_lon": 0.0, "bike_id": "64b1d0b5a3ef87d7f2791ef24e82d675", "is_disabled": 0, "is_reserved": 0}, {"rental_uris": {"ios": "https://dc.lft.to/lastmile_qr_scan", "android": "https://dc.lft.to/lastmile_qr_scan"}, "lon": -77.07721283333333, "type": "electric_scooter", "fusion_lat": 0.0, "lat": 38.94707316666667, "name": "8c469f1d9bc38da6a14ef5ae2c0936c4", "fusion_lon": 0.0, "bike_id": "8c469f1d9bc38da6a14ef5ae2c0936c4", "is_disabled": 0, "is_reserved": 0}, {"rental_uris": {"ios": "https://dc.lft.to/lastmile_qr_scan", "android": "https://dc.lft.to/lastmile_qr_scan"}, "lon": -77.0253975, "type": "electric_scooter", "fusion_lat": 0.0, "lat": 38.924062166666666, "name": "55bf6fc58eeb8fcae7bd1485e4f5c46d", "fusion_lon": 0.0, "bike_id": "55bf6fc58eeb8fcae7bd1485e4f5c46d", "is_disabled": 0, "is_reserved": 0}, {"rental_uris": {"ios": "https://dc.lft.to/lastmile_qr_scan", "android": "https://dc.lft.to/lastmile_qr_scan"}, "lon": -76.97301416666667, "type": "electric_scooter", "fusion_lat": 0.0, "lat": 38.9198865, "name": "a59902fff3cf03488316641383281792", "fusion_lon": 0.0, "bike_id": "a59902fff3cf03488316641383281792", "is_disabled": 0, "is_reserved": 0}, {"rental_uris": {"ios": "https://dc.lft.to/lastmile_qr_scan", "android": "https://dc.lft.to/lastmile_qr_scan"}, "lon": -77.0346705, "type": "electric_scooter", "fusion_lat": 0.0, "lat": 38.92350166666667, "name": "0bac6179f598f97fe96441746e840e5d", "fusion_lon": 0.0, "bike_id": "0bac6179f598f97fe96441746e840e5d", "is_disabled": 0, "is_reserved": 0}, {"rental_uris": {"ios": "https://dc.lft.to/lastmile_qr_scan", "android": "https://dc.lft.to/lastmile_qr_scan"}, "lon": -77.04794666666666, "type": "electric_scooter", "fusion_lat": 0.0, "lat": 38.89949216666667, "name": "22f4ac3fb0c2da2d5e13b58b3cc89f31", "fusion_lon": 0.0, "bike_id": "22f4ac3fb0c2da2d5e13b58b3cc89f31", "is_disabled": 0, "is_reserved": 0}, {"rental_uris": {"ios": "https://dc.lft.to/lastmile_qr_scan", "android": "https://dc.lft.to/lastmile_qr_scan"}, "lon": -77.03360483333333, "type": "electric_scooter", "fusion_lat": 0.0, "lat": 38.932243, "name": "9f8cbdbb9f0bacbb255edec984209453", "fusion_lon": 0.0, "bike_id": "9f8cbdbb9f0bacbb255edec984209453", "is_disabled": 0, "is_reserved": 0}, {"rental_uris": {"ios": "https://dc.lft.to/lastmile_qr_scan", "android": "https://dc.lft.to/lastmile_qr_scan"}, "lon": -77.07103483333333, "type": "electric_bike", "fusion_lat": 0.0, "lat": 38.914484, "name": "0a90d5910258cfc9279db0cbbd66c638", "fusion_lon": 0.0, "bike_id": "0a90d5910258cfc9279db0cbbd66c638", "is_disabled": 0, "is_reserved": 0}, {"rental_uris": {"ios": "https://dc.lft.to/lastmile_qr_scan", "android": "https://dc.lft.to/lastmile_qr_scan"}, "lon": -77.00601466666667, "type": "electric_scooter", "fusion_lat": 0.0, "lat": 38.88489883333333, "name": "fd3c16dcc880a3ef0fbf652e1949fd62", "fusion_lon": 0.0, "bike_id": "fd3c16dcc880a3ef0fbf652e1949fd62", "is_disabled": 0, "is_reserved": 0}, {"rental_uris": {"ios": "https://dc.lft.to/lastmile_qr_scan", "android": "https://dc.lft.to/lastmile_qr_scan"}, "lon": -77.0219705, "type": "electric_scooter", "fusion_lat": 0.0, "lat": 38.8803185, "name": "9d9f122f11bea78c4d54c82f3fa31607", "fusion_lon": 0.0, "bike_id": "9d9f122f11bea78c4d54c82f3fa31607", "is_disabled": 0, "is_reserved": 0}, {"rental_uris": {"ios": "https://dc.lft.to/lastmile_qr_scan", "android": "https://dc.lft.to/lastmile_qr_scan"}, "lon": -77.036647, "type": "electric_scooter", "fusion_lat": 0.0, "lat": 38.918195, "name": "ab1872bd22ef0bacf06291d5a2c2edd2", "fusion_lon": 0.0, "bike_id": "ab1872bd22ef0bacf06291d5a2c2edd2", "is_disabled": 0, "is_reserved": 0}, {"rental_uris": {"ios": "https://dc.lft.to/lastmile_qr_scan", "android": "https://dc.lft.to/lastmile_qr_scan"}, "lon": -76.9809145, "type": "electric_bike", "fusion_lat": 0.0, "lat": 38.881365333333335, "name": "a369e27e9d81eae9bcd4b64da62c7cf5", "fusion_lon": 0.0, "bike_id": "a369e27e9d81eae9bcd4b64da62c7cf5", "is_disabled": 0, "is_reserved": 0}, {"rental_uris": {"ios": "https://dc.lft.to/lastmile_qr_scan", "android": "https://dc.lft.to/lastmile_qr_scan"}, "lon": -77.03016066666666, "type": "electric_scooter", "fusion_lat": 0.0, "lat": 38.91009533333333, "name": "5b12440cfbe03ab611241b57e9a00e3b", "fusion_lon": 0.0, "bike_id": "5b12440cfbe03ab611241b57e9a00e3b", "is_disabled": 0, "is_reserved": 0}, {"rental_uris": {"ios": "https://dc.lft.to/lastmile_qr_scan", "android": "https://dc.lft.to/lastmile_qr_scan"}, "lon": -76.94889683333334, "type": "electric_scooter", "fusion_lat": 0.0, "lat": 38.89529116666667, "name": "ff98df61926f5d09fe630f69bc273924", "fusion_lon": 0.0, "bike_id": "ff98df61926f5d09fe630f69bc273924", "is_disabled": 0, "is_reserved": 0}, {"rental_uris": {"ios": "https://dc.lft.to/lastmile_qr_scan", "android": "https://dc.lft.to/lastmile_qr_scan"}, "lon": -76.90961366666667, "type": "electric_bike", "fusion_lat": 0.0, "lat": 38.854218833333334, "name": "dee0ee95e485bbcf7ffb7bf848657f3d", "fusion_lon": 0.0, "bike_id": "dee0ee95e485bbcf7ffb7bf848657f3d", "is_disabled": 0, "is_reserved": 0}, {"rental_uris": {"ios": "https://dc.lft.to/lastmile_qr_scan", "android": "https://dc.lft.to/lastmile_qr_scan"}, "lon": -77.03172466666666, "type": "electric_scooter", "fusion_lat": 0.0, "lat": 38.9132215, "name": "2836cb65f7cb0c6d0374d65926e27a3a", "fusion_lon": 0.0, "bike_id": "2836cb65f7cb0c6d0374d65926e27a3a", "is_disabled": 0, "is_reserved": 0}, {"rental_uris": {"ios": "https://dc.lft.to/lastmile_qr_scan", "android": "https://dc.lft.to/lastmile_qr_scan"}, "lon": -77.04002966666667, "type": "electric_scooter", "fusion_lat": 0.0, "lat": 38.88887116666667, "name": "fa3a12b8781b7405529dac5509f64fd6", "fusion_lon": 0.0, "bike_id": "fa3a12b8781b7405529dac5509f64fd6", "is_disabled": 0, "is_reserved": 0}, {"rental_uris": {"ios": "https://dc.lft.to/lastmile_qr_scan", "android": "https://dc.lft.to/lastmile_qr_scan"}, "lon": -76.981792, "type": "electric_scooter", "fusion_lat": 0.0, "lat": 38.895829666666664, "name": "6a08bfc934fc119b7219b870baa41a37", "fusion_lon": 0.0, "bike_id": "6a08bfc934fc119b7219b870baa41a37", "is_disabled": 0, "is_reserved": 0}, {"rental_uris": {"ios": "https://dc.lft.to/lastmile_qr_scan", "android": "https://dc.lft.to/lastmile_qr_scan"}, "lon": -77.03286116666666, "type": "electric_scooter", "fusion_lat": 0.0, "lat": 38.928115166666664, "name": "9b51ff6426a1ba5fe432034e491235b7", "fusion_lon": 0.0, "bike_id": "9b51ff6426a1ba5fe432034e491235b7", "is_disabled": 0, "is_reserved": 0}, {"rental_uris": {"ios": "https://dc.lft.to/lastmile_qr_scan", "android": "https://dc.lft.to/lastmile_qr_scan"}, "lon": -76.98256566666667, "type": "electric_scooter", "fusion_lat": 0.0, "lat": 38.908686, "name": "3e9f735e43a65afb043724a1b9fd6d5f", "fusion_lon": 0.0, "bike_id": "3e9f735e43a65afb043724a1b9fd6d5f", "is_disabled": 0, "is_reserved": 0}, {"rental_uris": {"ios": "https://dc.lft.to/lastmile_qr_scan", "android": "https://dc.lft.to/lastmile_qr_scan"}, "lon": -77.01936, "type": "electric_scooter", "fusion_lat": 0.0, "lat": 38.902529666666666, "name": "33921387e537a60244093253adf6eb1d", "fusion_lon": 0.0, "bike_id": "33921387e537a60244093253adf6eb1d", "is_disabled": 0, "is_reserved": 0}, {"rental_uris": {"ios": "https://dc.lft.to/lastmile_qr_scan", "android": "https://dc.lft.to/lastmile_qr_scan"}, "lon": -77.04188133333334, "type": "electric_scooter", "fusion_lat": 0.0, "lat": 38.920104, "name": "36d360fbb49cc11559bc1b36f890bcb2", "fusion_lon": 0.0, "bike_id": "36d360fbb49cc11559bc1b36f890bcb2", "is_disabled": 0, "is_reserved": 0}, {"rental_uris": {"ios": "https://dc.lft.to/lastmile_qr_scan", "android": "https://dc.lft.to/lastmile_qr_scan"}, "lon": -77.00974066666667, "type": "electric_scooter", "fusion_lat": 0.0, "lat": 38.91921466666667, "name": "ac9f334fed30818f6bba9d9d38799a89", "fusion_lon": 0.0, "bike_id": "ac9f334fed30818f6bba9d9d38799a89", "is_disabled": 0, "is_reserved": 0}, {"rental_uris": {"ios": "https://dc.lft.to/lastmile_qr_scan", "android": "https://dc.lft.to/lastmile_qr_scan"}, "lon": -77.01867816666666, "type": "electric_scooter", "fusion_lat": 0.0, "lat": 38.887427833333334, "name": "85644f2aa4d5461f5c112b221d65954a", "fusion_lon": 0.0, "bike_id": "85644f2aa4d5461f5c112b221d65954a", "is_disabled": 0, "is_reserved": 0}, {"rental_uris": {"ios": "https://dc.lft.to/lastmile_qr_scan", "android": "https://dc.lft.to/lastmile_qr_scan"}, "lon": -77.0218205, "type": "electric_scooter", "fusion_lat": 0.0, "lat": 38.93947333333333, "name": "61c4407f056d1ec9393509ad3ed950c9", "fusion_lon": 0.0, "bike_id": "61c4407f056d1ec9393509ad3ed950c9", "is_disabled": 0, "is_reserved": 0}, {"rental_uris": {"ios": "https://dc.lft.to/lastmile_qr_scan", "android": "https://dc.lft.to/lastmile_qr_scan"}, "lon": -77.045448, "type": "electric_scooter", "fusion_lat": 0.0, "lat": 38.933945, "name": "7e3a304d37bd5cb0c37d196aa434a35f", "fusion_lon": 0.0, "bike_id": "7e3a304d37bd5cb0c37d196aa434a35f", "is_disabled": 0, "is_reserved": 0}, {"rental_uris": {"ios": "https://dc.lft.to/lastmile_qr_scan", "android": "https://dc.lft.to/lastmile_qr_scan"}, "lon": -77.025519, "type": "electric_scooter", "fusion_lat": 0.0, "lat": 38.92472733333334, "name": "b2de59dbe5bbc585b0d6d8258bb12350", "fusion_lon": 0.0, "bike_id": "b2de59dbe5bbc585b0d6d8258bb12350", "is_disabled": 0, "is_reserved": 0}, {"rental_uris": {"ios": "https://dc.lft.to/lastmile_qr_scan", "android": "https://dc.lft.to/lastmile_qr_scan"}, "lon": -77.01332866666667, "type": "electric_scooter", "fusion_lat": 0.0, "lat": 38.966113166666666, "name": "6c47618277f76bc7e65d3bed9f9c843e", "fusion_lon": 0.0, "bike_id": "6c47618277f76bc7e65d3bed9f9c843e", "is_disabled": 0, "is_reserved": 0}, {"rental_uris": {"ios": "https://dc.lft.to/lastmile_qr_scan", "android": "https://dc.lft.to/lastmile_qr_scan"}, "lon": -77.09159783333334, "type": "electric_bike", "fusion_lat": 0.0, "lat": 38.967590333333334, "name": "54822b87b1df2f978e3f27c18b3dd934", "fusion_lon": 0.0, "bike_id": "54822b87b1df2f978e3f27c18b3dd934", "is_disabled": 0, "is_reserved": 0}, {"rental_uris": {"ios": "https://dc.lft.to/lastmile_qr_scan", "android": "https://dc.lft.to/lastmile_qr_scan"}, "lon": -77.0311985, "type": "electric_scooter", "fusion_lat": 0.0, "lat": 38.97379183333334, "name": "11a005236f632bbbe5d99cf419236264", "fusion_lon": 0.0, "bike_id": "11a005236f632bbbe5d99cf419236264", "is_disabled": 0, "is_reserved": 0}, {"rental_uris": {"ios": "https://dc.lft.to/lastmile_qr_scan", "android": "https://dc.lft.to/lastmile_qr_scan"}, "lon": -77.03771366666666, "type": "electric_scooter", "fusion_lat": 0.0, "lat": 38.9360765, "name": "f9d0ec21580f94a366c9259f33cadb91", "fusion_lon": 0.0, "bike_id": "f9d0ec21580f94a366c9259f33cadb91", "is_disabled": 0, "is_reserved": 0}, {"rental_uris": {"ios": "https://dc.lft.to/lastmile_qr_scan", "android": "https://dc.lft.to/lastmile_qr_scan"}, "lon": -77.0440855, "type": "electric_scooter", "fusion_lat": 0.0, "lat": 38.87430633333334, "name": "6a3d964b330c34f7acf4fce82c9f7865", "fusion_lon": 0.0, "bike_id": "6a3d964b330c34f7acf4fce82c9f7865", "is_disabled": 0, "is_reserved": 0}, {"rental_uris": {"ios": "https://dc.lft.to/lastmile_qr_scan", "android": "https://dc.lft.to/lastmile_qr_scan"}, "lon": -77.02319366666667, "type": "electric_scooter", "fusion_lat": 0.0, "lat": 38.883532833333334, "name": "28b58742fceda699ba5c36fd51579869", "fusion_lon": 0.0, "bike_id": "28b58742fceda699ba5c36fd51579869", "is_disabled": 0, "is_reserved": 0}, {"rental_uris": {"ios": "https://dc.lft.to/lastmile_qr_scan", "android": "https://dc.lft.to/lastmile_qr_scan"}, "lon": -77.03970233333334, "type": "electric_scooter", "fusion_lat": 0.0, "lat": 38.902670666666666, "name": "5c6f5031af3df2b5955544fe59e25386", "fusion_lon": 0.0, "bike_id": "5c6f5031af3df2b5955544fe59e25386", "is_disabled": 0, "is_reserved": 0}, {"rental_uris": {"ios": "https://dc.lft.to/lastmile_qr_scan", "android": "https://dc.lft.to/lastmile_qr_scan"}, "lon": -77.03461366666667, "type": "electric_scooter", "fusion_lat": 0.0, "lat": 38.9214565, "name": "cb60a12fd125da96fd9c5b020abf4b23", "fusion_lon": 0.0, "bike_id": "cb60a12fd125da96fd9c5b020abf4b23", "is_disabled": 0, "is_reserved": 0}, {"rental_uris": {"ios": "https://dc.lft.to/lastmile_qr_scan", "android": "https://dc.lft.to/lastmile_qr_scan"}, "lon": -77.03928216666667, "type": "electric_scooter", "fusion_lat": 0.0, "lat": 38.91755833333333, "name": "74a0c3bd314830a6c9c0360e6963fe64", "fusion_lon": 0.0, "bike_id": "74a0c3bd314830a6c9c0360e6963fe64", "is_disabled": 0, "is_reserved": 0}, {"rental_uris": {"ios": "https://dc.lft.to/lastmile_qr_scan", "android": "https://dc.lft.to/lastmile_qr_scan"}, "lon": -77.04175283333333, "type": "electric_scooter", "fusion_lat": 0.0, "lat": 38.918595833333335, "name": "1657217119c8c55153e5d143981c7f94", "fusion_lon": 0.0, "bike_id": "1657217119c8c55153e5d143981c7f94", "is_disabled": 0, "is_reserved": 0}, {"rental_uris": {"ios": "https://dc.lft.to/lastmile_qr_scan", "android": "https://dc.lft.to/lastmile_qr_scan"}, "lon": -77.04698733333333, "type": "electric_scooter", "fusion_lat": 0.0, "lat": 38.921054833333336, "name": "c040a50020cb894b386431d386e52afe", "fusion_lon": 0.0, "bike_id": "c040a50020cb894b386431d386e52afe", "is_disabled": 0, "is_reserved": 0}, {"rental_uris": {"ios": "https://dc.lft.to/lastmile_qr_scan", "android": "https://dc.lft.to/lastmile_qr_scan"}, "lon": -77.0559385, "type": "electric_scooter", "fusion_lat": 0.0, "lat": 38.93698466666667, "name": "3c1172ffd2a908012531a0222db32204", "fusion_lon": 0.0, "bike_id": "3c1172ffd2a908012531a0222db32204", "is_disabled": 0, "is_reserved": 0}, {"rental_uris": {"ios": "https://dc.lft.to/lastmile_qr_scan", "android": "https://dc.lft.to/lastmile_qr_scan"}, "lon": -77.03234366666666, "type": "electric_scooter", "fusion_lat": 0.0, "lat": 38.89629466666667, "name": "c4984bd5def6718144e153caedaffb50", "fusion_lon": 0.0, "bike_id": "c4984bd5def6718144e153caedaffb50", "is_disabled": 0, "is_reserved": 0}, {"rental_uris": {"ios": "https://dc.lft.to/lastmile_qr_scan", "android": "https://dc.lft.to/lastmile_qr_scan"}, "lon": -76.9617455, "type": "electric_bike", "fusion_lat": 0.0, "lat": 38.918651833333335, "name": "b06f73c0e774acf05762da54cd61ea3a", "fusion_lon": 0.0, "bike_id": "b06f73c0e774acf05762da54cd61ea3a", "is_disabled": 0, "is_reserved": 0}, {"rental_uris": {"ios": "https://dc.lft.to/lastmile_qr_scan", "android": "https://dc.lft.to/lastmile_qr_scan"}, "lon": -77.02875683333333, "type": "electric_scooter", "fusion_lat": 0.0, "lat": 38.90464583333333, "name": "8ded658823cec1569246313e8a836156", "fusion_lon": 0.0, "bike_id": "8ded658823cec1569246313e8a836156", "is_disabled": 0, "is_reserved": 0}, {"rental_uris": {"ios": "https://dc.lft.to/lastmile_qr_scan", "android": "https://dc.lft.to/lastmile_qr_scan"}, "lon": -76.97292, "type": "electric_scooter", "fusion_lat": 0.0, "lat": 38.9033965, "name": "3e0556de5fd713b9c213e833b143e6f7", "fusion_lon": 0.0, "bike_id": "3e0556de5fd713b9c213e833b143e6f7", "is_disabled": 0, "is_reserved": 0}, {"rental_uris": {"ios": "https://dc.lft.to/lastmile_qr_scan", "android": "https://dc.lft.to/lastmile_qr_scan"}, "lon": -76.94213216666667, "type": "electric_scooter", "fusion_lat": 0.0, "lat": 38.89674633333333, "name": "60fd6be192dc0aef5b6f0ed2a2f3068a", "fusion_lon": 0.0, "bike_id": "60fd6be192dc0aef5b6f0ed2a2f3068a", "is_disabled": 0, "is_reserved": 0}, {"rental_uris": {"ios": "https://dc.lft.to/lastmile_qr_scan", "android": "https://dc.lft.to/lastmile_qr_scan"}, "lon": -77.04856933333333, "type": "electric_scooter", "fusion_lat": 0.0, "lat": 38.9066625, "name": "0020f320e288aa71323c12f615a39cef", "fusion_lon": 0.0, "bike_id": "0020f320e288aa71323c12f615a39cef", "is_disabled": 0, "is_reserved": 0}, {"rental_uris": {"ios": "https://dc.lft.to/lastmile_qr_scan", "android": "https://dc.lft.to/lastmile_qr_scan"}, "lon": -77.09204383333334, "type": "electric_scooter", "fusion_lat": 0.0, "lat": 38.941338333333334, "name": "a91fac8cb466f24ae7dd763cf01cb8fe", "fusion_lon": 0.0, "bike_id": "a91fac8cb466f24ae7dd763cf01cb8fe", "is_disabled": 0, "is_reserved": 0}, {"rental_uris": {"ios": "https://dc.lft.to/lastmile_qr_scan", "android": "https://dc.lft.to/lastmile_qr_scan"}, "lon": -77.054741, "type": "electric_scooter", "fusion_lat": 0.0, "lat": 38.893898166666666, "name": "2a4ad3f4ccd8dcc952137cb46bfb4526", "fusion_lon": 0.0, "bike_id": "2a4ad3f4ccd8dcc952137cb46bfb4526", "is_disabled": 0, "is_reserved": 0}, {"rental_uris": {"ios": "https://dc.lft.to/lastmile_qr_scan", "android": "https://dc.lft.to/lastmile_qr_scan"}, "lon": -77.1295785, "type": "electric_bike", "fusion_lat": 0.0, "lat": 38.852190666666665, "name": "79f047e404c60a44605b810cfdf043c0", "fusion_lon": 0.0, "bike_id": "79f047e404c60a44605b810cfdf043c0", "is_disabled": 0, "is_reserved": 0}, {"rental_uris": {"ios": "https://dc.lft.to/lastmile_qr_scan", "android": "https://dc.lft.to/lastmile_qr_scan"}, "lon": -76.932252, "type": "electric_bike", "fusion_lat": 0.0, "lat": 38.86596083333333, "name": "6abbed09b004c549fb82e562db2d16c5", "fusion_lon": 0.0, "bike_id": "6abbed09b004c549fb82e562db2d16c5", "is_disabled": 0, "is_reserved": 0}, {"rental_uris": {"ios": "https://dc.lft.to/lastmile_qr_scan", "android": "https://dc.lft.to/lastmile_qr_scan"}, "lon": -77.00727366666666, "type": "electric_scooter", "fusion_lat": 0.0, "lat": 38.87926233333334, "name": "eecd5cba9c578cf1c1f54afd2473788e", "fusion_lon": 0.0, "bike_id": "eecd5cba9c578cf1c1f54afd2473788e", "is_disabled": 0, "is_reserved": 0}, {"rental_uris": {"ios": "https://dc.lft.to/lastmile_qr_scan", "android": "https://dc.lft.to/lastmile_qr_scan"}, "lon": -76.995132, "type": "electric_scooter", "fusion_lat": 0.0, "lat": 38.89485483333333, "name": "b9e835933e10eca568674907cfd23887", "fusion_lon": 0.0, "bike_id": "b9e835933e10eca568674907cfd23887", "is_disabled": 0, "is_reserved": 0}, {"rental_uris": {"ios": "https://dc.lft.to/lastmile_qr_scan", "android": "https://dc.lft.to/lastmile_qr_scan"}, "lon": -77.00334133333334, "type": "electric_scooter", "fusion_lat": 0.0, "lat": 38.89356033333333, "name": "e605c46a507d2b350261a4c85933f289", "fusion_lon": 0.0, "bike_id": "e605c46a507d2b350261a4c85933f289", "is_disabled": 0, "is_reserved": 0}, {"rental_uris": {"ios": "https://dc.lft.to/lastmile_qr_scan", "android": "https://dc.lft.to/lastmile_qr_scan"}, "lon": -76.99696616666667, "type": "electric_scooter", "fusion_lat": 0.0, "lat": 38.90087833333333, "name": "1f0ca24f7231c8357cd6642c8738e00b", "fusion_lon": 0.0, "bike_id": "1f0ca24f7231c8357cd6642c8738e00b", "is_disabled": 0, "is_reserved": 0}, {"rental_uris": {"ios": "https://dc.lft.to/lastmile_qr_scan", "android": "https://dc.lft.to/lastmile_qr_scan"}, "lon": -77.04634166666666, "type": "electric_scooter", "fusion_lat": 0.0, "lat": 38.89222566666667, "name": "f337c7d6f852f345e1b869a7b93e9812", "fusion_lon": 0.0, "bike_id": "f337c7d6f852f345e1b869a7b93e9812", "is_disabled": 0, "is_reserved": 0}, {"rental_uris": {"ios": "https://dc.lft.to/lastmile_qr_scan", "android": "https://dc.lft.to/lastmile_qr_scan"}, "lon": -77.353093, "type": "electric_bike", "fusion_lat": 0.0, "lat": 38.95005116666667, "name": "bda323cf0b09bfa90516b217db0b19ca", "fusion_lon": 0.0, "bike_id": "bda323cf0b09bfa90516b217db0b19ca", "is_disabled": 0, "is_reserved": 0}, {"rental_uris": {"ios": "https://dc.lft.to/lastmile_qr_scan", "android": "https://dc.lft.to/lastmile_qr_scan"}, "lon": -77.028403, "type": "electric_scooter", "fusion_lat": 0.0, "lat": 38.942629833333335, "name": "a00ea81a6ee7029c197925e11ef1504f", "fusion_lon": 0.0, "bike_id": "a00ea81a6ee7029c197925e11ef1504f", "is_disabled": 0, "is_reserved": 0}, {"rental_uris": {"ios": "https://dc.lft.to/lastmile_qr_scan", "android": "https://dc.lft.to/lastmile_qr_scan"}, "lon": -77.0474425, "type": "electric_scooter", "fusion_lat": 0.0, "lat": 38.91779016666667, "name": "9086c9420c4f9926e9b003e51719e49a", "fusion_lon": 0.0, "bike_id": "9086c9420c4f9926e9b003e51719e49a", "is_disabled": 0, "is_reserved": 0}, {"rental_uris": {"ios": "https://dc.lft.to/lastmile_qr_scan", "android": "https://dc.lft.to/lastmile_qr_scan"}, "lon": -77.00725983333334, "type": "electric_scooter", "fusion_lat": 0.0, "lat": 38.8849135, "name": "36513c78fcaeebc81326c456d8a92ebb", "fusion_lon": 0.0, "bike_id": "36513c78fcaeebc81326c456d8a92ebb", "is_disabled": 0, "is_reserved": 0}, {"rental_uris": {"ios": "https://dc.lft.to/lastmile_qr_scan", "android": "https://dc.lft.to/lastmile_qr_scan"}, "lon": -77.03317616666666, "type": "electric_scooter", "fusion_lat": 0.0, "lat": 38.90151933333333, "name": "1302d2c8c643b57f672702dc053851c9", "fusion_lon": 0.0, "bike_id": "1302d2c8c643b57f672702dc053851c9", "is_disabled": 0, "is_reserved": 0}, {"rental_uris": {"ios": "https://dc.lft.to/lastmile_qr_scan", "android": "https://dc.lft.to/lastmile_qr_scan"}, "lon": -76.99485833333334, "type": "electric_scooter", "fusion_lat": 0.0, "lat": 38.862362833333336, "name": "2695373d7a3ddb74bcd719b65bbf5e5e", "fusion_lon": 0.0, "bike_id": "2695373d7a3ddb74bcd719b65bbf5e5e", "is_disabled": 0, "is_reserved": 0}, {"rental_uris": {"ios": "https://dc.lft.to/lastmile_qr_scan", "android": "https://dc.lft.to/lastmile_qr_scan"}, "lon": -76.99816, "type": "electric_scooter", "fusion_lat": 0.0, "lat": 38.899967833333335, "name": "9506278922c816a7a277b5336c9eb934", "fusion_lon": 0.0, "bike_id": "9506278922c816a7a277b5336c9eb934", "is_disabled": 0, "is_reserved": 0}, {"rental_uris": {"ios": "https://dc.lft.to/lastmile_qr_scan", "android": "https://dc.lft.to/lastmile_qr_scan"}, "lon": -76.93175416666666, "type": "electric_scooter", "fusion_lat": 0.0, "lat": 38.89885366666667, "name": "9944218b81c8d8bdd173b7123301a2cc", "fusion_lon": 0.0, "bike_id": "9944218b81c8d8bdd173b7123301a2cc", "is_disabled": 0, "is_reserved": 0}, {"rental_uris": {"ios": "https://dc.lft.to/lastmile_qr_scan", "android": "https://dc.lft.to/lastmile_qr_scan"}, "lon": -76.97566133333333, "type": "electric_bike", "fusion_lat": 0.0, "lat": 38.9250395, "name": "8fa1f00f549a8459328c36fd9625c9d8", "fusion_lon": 0.0, "bike_id": "8fa1f00f549a8459328c36fd9625c9d8", "is_disabled": 0, "is_reserved": 0}, {"rental_uris": {"ios": "https://dc.lft.to/lastmile_qr_scan", "android": "https://dc.lft.to/lastmile_qr_scan"}, "lon": -76.99575833333333, "type": "electric_scooter", "fusion_lat": 0.0, "lat": 38.90031283333333, "name": "a77b5e76e4154a0c38231c431672b8d4", "fusion_lon": 0.0, "bike_id": "a77b5e76e4154a0c38231c431672b8d4", "is_disabled": 0, "is_reserved": 0}, {"rental_uris": {"ios": "https://dc.lft.to/lastmile_qr_scan", "android": "https://dc.lft.to/lastmile_qr_scan"}, "lon": -77.04495683333333, "type": "electric_scooter", "fusion_lat": 0.0, "lat": 38.91109383333333, "name": "90f3cb5240b69d1ad6cd8e170324affb", "fusion_lon": 0.0, "bike_id": "90f3cb5240b69d1ad6cd8e170324affb", "is_disabled": 0, "is_reserved": 0}, {"rental_uris": {"ios": "https://dc.lft.to/lastmile_qr_scan", "android": "https://dc.lft.to/lastmile_qr_scan"}, "lon": -77.07376583333334, "type": "electric_bike", "fusion_lat": 0.0, "lat": 38.9618665, "name": "2aa960b6a13ca180917a93910fd7336e", "fusion_lon": 0.0, "bike_id": "2aa960b6a13ca180917a93910fd7336e", "is_disabled": 0, "is_reserved": 0}, {"rental_uris": {"ios": "https://dc.lft.to/lastmile_qr_scan", "android": "https://dc.lft.to/lastmile_qr_scan"}, "lon": -77.04176683333333, "type": "electric_scooter", "fusion_lat": 0.0, "lat": 38.911783666666665, "name": "bda68b46af1434d9b32bc4920cfc0d60", "fusion_lon": 0.0, "bike_id": "bda68b46af1434d9b32bc4920cfc0d60", "is_disabled": 0, "is_reserved": 0}, {"rental_uris": {"ios": "https://dc.lft.to/lastmile_qr_scan", "android": "https://dc.lft.to/lastmile_qr_scan"}, "lon": -77.043607, "type": "electric_scooter", "fusion_lat": 0.0, "lat": 38.921463833333334, "name": "1572ed765a404beb394cac9cbad52d89", "fusion_lon": 0.0, "bike_id": "1572ed765a404beb394cac9cbad52d89", "is_disabled": 0, "is_reserved": 0}, {"rental_uris": {"ios": "https://dc.lft.to/lastmile_qr_scan", "android": "https://dc.lft.to/lastmile_qr_scan"}, "lon": -77.02763316666666, "type": "electric_scooter", "fusion_lat": 0.0, "lat": 38.9134385, "name": "611ce1febffd38205956e99ed61794e1", "fusion_lon": 0.0, "bike_id": "611ce1febffd38205956e99ed61794e1", "is_disabled": 0, "is_reserved": 0}, {"rental_uris": {"ios": "https://dc.lft.to/lastmile_qr_scan", "android": "https://dc.lft.to/lastmile_qr_scan"}, "lon": -76.93177883333334, "type": "electric_scooter", "fusion_lat": 0.0, "lat": 38.89885866666667, "name": "bafe82f41600a3ea71902d5327c9a611", "fusion_lon": 0.0, "bike_id": "bafe82f41600a3ea71902d5327c9a611", "is_disabled": 0, "is_reserved": 0}, {"rental_uris": {"ios": "https://dc.lft.to/lastmile_qr_scan", "android": "https://dc.lft.to/lastmile_qr_scan"}, "lon": -77.02442133333334, "type": "electric_scooter", "fusion_lat": 0.0, "lat": 38.920298833333334, "name": "82f6d354c45b0866a978e528a761a265", "fusion_lon": 0.0, "bike_id": "82f6d354c45b0866a978e528a761a265", "is_disabled": 0, "is_reserved": 0}, {"rental_uris": {"ios": "https://dc.lft.to/lastmile_qr_scan", "android": "https://dc.lft.to/lastmile_qr_scan"}, "lon": -77.03825066666667, "type": "electric_scooter", "fusion_lat": 0.0, "lat": 38.920716, "name": "8f85f8a449c32c3539df9099742cb7ca", "fusion_lon": 0.0, "bike_id": "8f85f8a449c32c3539df9099742cb7ca", "is_disabled": 0, "is_reserved": 0}, {"rental_uris": {"ios": "https://dc.lft.to/lastmile_qr_scan", "android": "https://dc.lft.to/lastmile_qr_scan"}, "lon": -77.002437, "type": "electric_scooter", "fusion_lat": 0.0, "lat": 38.911805333333334, "name": "9b21da75d21d399a54a9779e640e7517", "fusion_lon": 0.0, "bike_id": "9b21da75d21d399a54a9779e640e7517", "is_disabled": 0, "is_reserved": 0}, {"rental_uris": {"ios": "https://dc.lft.to/lastmile_qr_scan", "android": "https://dc.lft.to/lastmile_qr_scan"}, "lon": -77.03041616666667, "type": "electric_scooter", "fusion_lat": 0.0, "lat": 38.883975166666666, "name": "e4f038bd905ea435950bb13f703712ef", "fusion_lon": 0.0, "bike_id": "e4f038bd905ea435950bb13f703712ef", "is_disabled": 0, "is_reserved": 0}, {"rental_uris": {"ios": "https://dc.lft.to/lastmile_qr_scan", "android": "https://dc.lft.to/lastmile_qr_scan"}, "lon": -77.04793683333334, "type": "electric_scooter", "fusion_lat": 0.0, "lat": 38.893698666666666, "name": "3917b5a2e3a51ca2766df4c0bb84cd50", "fusion_lon": 0.0, "bike_id": "3917b5a2e3a51ca2766df4c0bb84cd50", "is_disabled": 0, "is_reserved": 0}, {"rental_uris": {"ios": "https://dc.lft.to/lastmile_qr_scan", "android": "https://dc.lft.to/lastmile_qr_scan"}, "lon": -77.041966, "type": "electric_scooter", "fusion_lat": 0.0, "lat": 38.91871583333333, "name": "85e923338bf8d49585f9725bbbc33216", "fusion_lon": 0.0, "bike_id": "85e923338bf8d49585f9725bbbc33216", "is_disabled": 0, "is_reserved": 0}, {"rental_uris": {"ios": "https://dc.lft.to/lastmile_qr_scan", "android": "https://dc.lft.to/lastmile_qr_scan"}, "lon": -77.02362466666666, "type": "electric_scooter", "fusion_lat": 0.0, "lat": 38.920587166666664, "name": "959a36fdbf91774bee25b9ce64b8869e", "fusion_lon": 0.0, "bike_id": "959a36fdbf91774bee25b9ce64b8869e", "is_disabled": 0, "is_reserved": 0}, {"rental_uris": {"ios": "https://dc.lft.to/lastmile_qr_scan", "android": "https://dc.lft.to/lastmile_qr_scan"}, "lon": -77.01631433333333, "type": "electric_scooter", "fusion_lat": 0.0, "lat": 38.903654, "name": "29ca11aea67f0868e9919cc14fb177be", "fusion_lon": 0.0, "bike_id": "29ca11aea67f0868e9919cc14fb177be", "is_disabled": 0, "is_reserved": 0}, {"rental_uris": {"ios": "https://dc.lft.to/lastmile_qr_scan", "android": "https://dc.lft.to/lastmile_qr_scan"}, "lon": -77.0447155, "type": "electric_scooter", "fusion_lat": 0.0, "lat": 38.9034255, "name": "4b546bf6f388769434f0578c5c39b31a", "fusion_lon": 0.0, "bike_id": "4b546bf6f388769434f0578c5c39b31a", "is_disabled": 0, "is_reserved": 0}, {"rental_uris": {"ios": "https://dc.lft.to/lastmile_qr_scan", "android": "https://dc.lft.to/lastmile_qr_scan"}, "lon": -77.09871083333333, "type": "electric_bike", "fusion_lat": 0.0, "lat": 38.947981166666665, "name": "6016b9f9e1cd13f1e961429a5c5f50ef", "fusion_lon": 0.0, "bike_id": "6016b9f9e1cd13f1e961429a5c5f50ef", "is_disabled": 0, "is_reserved": 0}, {"rental_uris": {"ios": "https://dc.lft.to/lastmile_qr_scan", "android": "https://dc.lft.to/lastmile_qr_scan"}, "lon": -76.92368933333333, "type": "electric_bike", "fusion_lat": 0.0, "lat": 38.88373966666666, "name": "1b9d553bcc0eb1c5abdde03149c78faf", "fusion_lon": 0.0, "bike_id": "1b9d553bcc0eb1c5abdde03149c78faf", "is_disabled": 0, "is_reserved": 0}, {"rental_uris": {"ios": "https://dc.lft.to/lastmile_qr_scan", "android": "https://dc.lft.to/lastmile_qr_scan"}, "lon": -77.00813716666667, "type": "electric_scooter", "fusion_lat": 0.0, "lat": 38.90563816666667, "name": "b096c44a2d14b4c8ea3eff206a16b3c3", "fusion_lon": 0.0, "bike_id": "b096c44a2d14b4c8ea3eff206a16b3c3", "is_disabled": 0, "is_reserved": 0}, {"rental_uris": {"ios": "https://dc.lft.to/lastmile_qr_scan", "android": "https://dc.lft.to/lastmile_qr_scan"}, "lon": -77.043048, "type": "electric_scooter", "fusion_lat": 0.0, "lat": 38.9087555, "name": "d260a0d66a0b7049169be174973b0398", "fusion_lon": 0.0, "bike_id": "d260a0d66a0b7049169be174973b0398", "is_disabled": 0, "is_reserved": 0}, {"rental_uris": {"ios": "https://dc.lft.to/lastmile_qr_scan", "android": "https://dc.lft.to/lastmile_qr_scan"}, "lon": -76.99580033333334, "type": "electric_scooter", "fusion_lat": 0.0, "lat": 38.95504066666667, "name": "6868fa2ced1677f371b1a19060b184ba", "fusion_lon": 0.0, "bike_id": "6868fa2ced1677f371b1a19060b184ba", "is_disabled": 0, "is_reserved": 0}, {"rental_uris": {"ios": "https://dc.lft.to/lastmile_qr_scan", "android": "https://dc.lft.to/lastmile_qr_scan"}, "lon": -76.9475355, "type": "electric_scooter", "fusion_lat": 0.0, "lat": 38.900498166666665, "name": "05f672cea07d9427ead39dd5052669a2", "fusion_lon": 0.0, "bike_id": "05f672cea07d9427ead39dd5052669a2", "is_disabled": 0, "is_reserved": 0}, {"rental_uris": {"ios": "https://dc.lft.to/lastmile_qr_scan", "android": "https://dc.lft.to/lastmile_qr_scan"}, "lon": -77.03305866666666, "type": "electric_scooter", "fusion_lat": 0.0, "lat": 38.92653166666667, "name": "6acdbfcc6addeebb517ff55a09c57a6e", "fusion_lon": 0.0, "bike_id": "6acdbfcc6addeebb517ff55a09c57a6e", "is_disabled": 0, "is_reserved": 0}, {"rental_uris": {"ios": "https://dc.lft.to/lastmile_qr_scan", "android": "https://dc.lft.to/lastmile_qr_scan"}, "lon": -77.0213605, "type": "electric_scooter", "fusion_lat": 0.0, "lat": 38.93761816666667, "name": "31e8c27bbfd391c27b5e73b8ac4c188a", "fusion_lon": 0.0, "bike_id": "31e8c27bbfd391c27b5e73b8ac4c188a", "is_disabled": 0, "is_reserved": 0}, {"rental_uris": {"ios": "https://dc.lft.to/lastmile_qr_scan", "android": "https://dc.lft.to/lastmile_qr_scan"}, "lon": -77.04508, "type": "electric_scooter", "fusion_lat": 0.0, "lat": 38.90769383333333, "name": "fadc43afabdaad04c81d9bfaf50544aa", "fusion_lon": 0.0, "bike_id": "fadc43afabdaad04c81d9bfaf50544aa", "is_disabled": 0, "is_reserved": 0}, {"rental_uris": {"ios": "https://dc.lft.to/lastmile_qr_scan", "android": "https://dc.lft.to/lastmile_qr_scan"}, "lon": -76.97673316666666, "type": "electric_scooter", "fusion_lat": 0.0, "lat": 38.8988645, "name": "97c181258967f3e4b36dc637e1e5f1da", "fusion_lon": 0.0, "bike_id": "97c181258967f3e4b36dc637e1e5f1da", "is_disabled": 0, "is_reserved": 0}, {"rental_uris": {"ios": "https://dc.lft.to/lastmile_qr_scan", "android": "https://dc.lft.to/lastmile_qr_scan"}, "lon": -77.0237815, "type": "electric_scooter", "fusion_lat": 0.0, "lat": 38.9524485, "name": "d29bd069a43b9af2ac449e0e857c7cdf", "fusion_lon": 0.0, "bike_id": "d29bd069a43b9af2ac449e0e857c7cdf", "is_disabled": 0, "is_reserved": 0}, {"rental_uris": {"ios": "https://dc.lft.to/lastmile_qr_scan", "android": "https://dc.lft.to/lastmile_qr_scan"}, "lon": -76.99631, "type": "electric_scooter", "fusion_lat": 0.0, "lat": 38.846217333333335, "name": "6931b2b7793723f046bd71cc5072d92f", "fusion_lon": 0.0, "bike_id": "6931b2b7793723f046bd71cc5072d92f", "is_disabled": 0, "is_reserved": 0}, {"rental_uris": {"ios": "https://dc.lft.to/lastmile_qr_scan", "android": "https://dc.lft.to/lastmile_qr_scan"}, "lon": -76.99013733333334, "type": "electric_scooter", "fusion_lat": 0.0, "lat": 38.8610495, "name": "7ea1c62f0abe7e0868236e0338f3ac6c", "fusion_lon": 0.0, "bike_id": "7ea1c62f0abe7e0868236e0338f3ac6c", "is_disabled": 0, "is_reserved": 0}, {"rental_uris": {"ios": "https://dc.lft.to/lastmile_qr_scan", "android": "https://dc.lft.to/lastmile_qr_scan"}, "lon": -76.997407, "type": "electric_scooter", "fusion_lat": 0.0, "lat": 38.900312, "name": "81fa42b43e77c952962e859605e7ba1e", "fusion_lon": 0.0, "bike_id": "81fa42b43e77c952962e859605e7ba1e", "is_disabled": 0, "is_reserved": 0}, {"rental_uris": {"ios": "https://dc.lft.to/lastmile_qr_scan", "android": "https://dc.lft.to/lastmile_qr_scan"}, "lon": -77.03078133333334, "type": "electric_scooter", "fusion_lat": 0.0, "lat": 38.90559183333333, "name": "bea095721b9f6b475f72a0752c07cf58", "fusion_lon": 0.0, "bike_id": "bea095721b9f6b475f72a0752c07cf58", "is_disabled": 0, "is_reserved": 0}, {"rental_uris": {"ios": "https://dc.lft.to/lastmile_qr_scan", "android": "https://dc.lft.to/lastmile_qr_scan"}, "lon": -76.98002316666667, "type": "electric_bike", "fusion_lat": 0.0, "lat": 38.9024025, "name": "770ddee17b015562c78db593f37859de", "fusion_lon": 0.0, "bike_id": "770ddee17b015562c78db593f37859de", "is_disabled": 0, "is_reserved": 0}, {"rental_uris": {"ios": "https://dc.lft.to/lastmile_qr_scan", "android": "https://dc.lft.to/lastmile_qr_scan"}, "lon": -77.02781216666666, "type": "electric_scooter", "fusion_lat": 0.0, "lat": 38.926808333333334, "name": "1930d16236ac5af48d4232db673f1288", "fusion_lon": 0.0, "bike_id": "1930d16236ac5af48d4232db673f1288", "is_disabled": 0, "is_reserved": 0}, {"rental_uris": {"ios": "https://dc.lft.to/lastmile_qr_scan", "android": "https://dc.lft.to/lastmile_qr_scan"}, "lon": -77.038166, "type": "electric_scooter", "fusion_lat": 0.0, "lat": 38.90965216666667, "name": "f372cfecb646eac3d4e4133d52a6d0e5", "fusion_lon": 0.0, "bike_id": "f372cfecb646eac3d4e4133d52a6d0e5", "is_disabled": 0, "is_reserved": 0}, {"rental_uris": {"ios": "https://dc.lft.to/lastmile_qr_scan", "android": "https://dc.lft.to/lastmile_qr_scan"}, "lon": -77.054377, "type": "electric_scooter", "fusion_lat": 0.0, "lat": 38.89608533333333, "name": "5795c2970c8bd6eb6436ae30ff1d87a2", "fusion_lon": 0.0, "bike_id": "5795c2970c8bd6eb6436ae30ff1d87a2", "is_disabled": 0, "is_reserved": 0}, {"rental_uris": {"ios": "https://dc.lft.to/lastmile_qr_scan", "android": "https://dc.lft.to/lastmile_qr_scan"}, "lon": -77.00260833333333, "type": "electric_scooter", "fusion_lat": 0.0, "lat": 38.877515333333335, "name": "f5fa15c2eab954603bde7cf65852b573", "fusion_lon": 0.0, "bike_id": "f5fa15c2eab954603bde7cf65852b573", "is_disabled": 0, "is_reserved": 0}, {"rental_uris": {"ios": "https://dc.lft.to/lastmile_qr_scan", "android": "https://dc.lft.to/lastmile_qr_scan"}, "lon": -77.047934, "type": "electric_scooter", "fusion_lat": 0.0, "lat": 38.89362083333333, "name": "fca9d527d469f442ec3e8e5f065767f5", "fusion_lon": 0.0, "bike_id": "fca9d527d469f442ec3e8e5f065767f5", "is_disabled": 0, "is_reserved": 0}, {"rental_uris": {"ios": "https://dc.lft.to/lastmile_qr_scan", "android": "https://dc.lft.to/lastmile_qr_scan"}, "lon": -77.0442105, "type": "electric_scooter", "fusion_lat": 0.0, "lat": 38.90563316666667, "name": "56ab58fbdd4717594926c61a25e8d348", "fusion_lon": 0.0, "bike_id": "56ab58fbdd4717594926c61a25e8d348", "is_disabled": 0, "is_reserved": 0}, {"rental_uris": {"ios": "https://dc.lft.to/lastmile_qr_scan", "android": "https://dc.lft.to/lastmile_qr_scan"}, "lon": -77.02131316666667, "type": "electric_scooter", "fusion_lat": 0.0, "lat": 38.909739333333334, "name": "7bdd52a7747dde02d84568392646a1f4", "fusion_lon": 0.0, "bike_id": "7bdd52a7747dde02d84568392646a1f4", "is_disabled": 0, "is_reserved": 0}, {"rental_uris": {"ios": "https://dc.lft.to/lastmile_qr_scan", "android": "https://dc.lft.to/lastmile_qr_scan"}, "lon": -76.98553883333334, "type": "electric_bike", "fusion_lat": 0.0, "lat": 38.89211516666667, "name": "405fb574a891cb1d880b6c9e76de53b9", "fusion_lon": 0.0, "bike_id": "405fb574a891cb1d880b6c9e76de53b9", "is_disabled": 0, "is_reserved": 0}, {"rental_uris": {"ios": "https://dc.lft.to/lastmile_qr_scan", "android": "https://dc.lft.to/lastmile_qr_scan"}, "lon": -77.01836583333333, "type": "electric_scooter", "fusion_lat": 0.0, "lat": 38.90883216666667, "name": "b0b8343976a697a7335c398f1b9a861b", "fusion_lon": 0.0, "bike_id": "b0b8343976a697a7335c398f1b9a861b", "is_disabled": 0, "is_reserved": 0}, {"rental_uris": {"ios": "https://dc.lft.to/lastmile_qr_scan", "android": "https://dc.lft.to/lastmile_qr_scan"}, "lon": -77.0338795, "type": "electric_scooter", "fusion_lat": 0.0, "lat": 38.93851683333333, "name": "dc01dc5ebbd84337c4501d4288f51e8a", "fusion_lon": 0.0, "bike_id": "dc01dc5ebbd84337c4501d4288f51e8a", "is_disabled": 0, "is_reserved": 0}, {"rental_uris": {"ios": "https://dc.lft.to/lastmile_qr_scan", "android": "https://dc.lft.to/lastmile_qr_scan"}, "lon": -76.98264383333333, "type": "electric_scooter", "fusion_lat": 0.0, "lat": 38.863524, "name": "17e0c9daa9fda26b287c95ba241064d4", "fusion_lon": 0.0, "bike_id": "17e0c9daa9fda26b287c95ba241064d4", "is_disabled": 0, "is_reserved": 0}, {"rental_uris": {"ios": "https://dc.lft.to/lastmile_qr_scan", "android": "https://dc.lft.to/lastmile_qr_scan"}, "lon": -77.01111033333333, "type": "electric_scooter", "fusion_lat": 0.0, "lat": 38.90012766666667, "name": "eab5e545196eeb0c40e00cf20d21b23d", "fusion_lon": 0.0, "bike_id": "eab5e545196eeb0c40e00cf20d21b23d", "is_disabled": 0, "is_reserved": 0}, {"rental_uris": {"ios": "https://dc.lft.to/lastmile_qr_scan", "android": "https://dc.lft.to/lastmile_qr_scan"}, "lon": -77.00516416666666, "type": "electric_scooter", "fusion_lat": 0.0, "lat": 38.928976, "name": "af5590786ed70877ba38bfebbad00db7", "fusion_lon": 0.0, "bike_id": "af5590786ed70877ba38bfebbad00db7", "is_disabled": 0, "is_reserved": 0}, {"rental_uris": {"ios": "https://dc.lft.to/lastmile_qr_scan", "android": "https://dc.lft.to/lastmile_qr_scan"}, "lon": -77.016514, "type": "electric_scooter", "fusion_lat": 0.0, "lat": 38.95326766666667, "name": "7b970aeb11c4c6b52b2c5efb6e2216bc", "fusion_lon": 0.0, "bike_id": "7b970aeb11c4c6b52b2c5efb6e2216bc", "is_disabled": 0, "is_reserved": 0}, {"rental_uris": {"ios": "https://dc.lft.to/lastmile_qr_scan", "android": "https://dc.lft.to/lastmile_qr_scan"}, "lon": -77.04821216666667, "type": "electric_scooter", "fusion_lat": 0.0, "lat": 38.920363, "name": "80e18ab94b1188a85b13deb00de17d91", "fusion_lon": 0.0, "bike_id": "80e18ab94b1188a85b13deb00de17d91", "is_disabled": 0, "is_reserved": 0}, {"rental_uris": {"ios": "https://dc.lft.to/lastmile_qr_scan", "android": "https://dc.lft.to/lastmile_qr_scan"}, "lon": -77.01187083333333, "type": "electric_scooter", "fusion_lat": 0.0, "lat": 38.915551, "name": "943e1199ec2f864a569aaba1d96ef87b", "fusion_lon": 0.0, "bike_id": "943e1199ec2f864a569aaba1d96ef87b", "is_disabled": 0, "is_reserved": 0}, {"rental_uris": {"ios": "https://dc.lft.to/lastmile_qr_scan", "android": "https://dc.lft.to/lastmile_qr_scan"}, "lon": -76.94664433333334, "type": "electric_scooter", "fusion_lat": 0.0, "lat": 38.898723333333336, "name": "325e5faece52add9cff56c244b45bfbe", "fusion_lon": 0.0, "bike_id": "325e5faece52add9cff56c244b45bfbe", "is_disabled": 0, "is_reserved": 0}, {"rental_uris": {"ios": "https://dc.lft.to/lastmile_qr_scan", "android": "https://dc.lft.to/lastmile_qr_scan"}, "lon": -76.998272, "type": "electric_bike", "fusion_lat": 0.0, "lat": 38.84448916666667, "name": "56b17c77ab5eec1ca088f6db6a1b86f4", "fusion_lon": 0.0, "bike_id": "56b17c77ab5eec1ca088f6db6a1b86f4", "is_disabled": 0, "is_reserved": 0}, {"rental_uris": {"ios": "https://dc.lft.to/lastmile_qr_scan", "android": "https://dc.lft.to/lastmile_qr_scan"}, "lon": -77.0006835, "type": "electric_scooter", "fusion_lat": 0.0, "lat": 38.92552533333333, "name": "73cedcb1a5de65839b2da726fa6511b8", "fusion_lon": 0.0, "bike_id": "73cedcb1a5de65839b2da726fa6511b8", "is_disabled": 0, "is_reserved": 0}, {"rental_uris": {"ios": "https://dc.lft.to/lastmile_qr_scan", "android": "https://dc.lft.to/lastmile_qr_scan"}, "lon": -77.04057, "type": "electric_scooter", "fusion_lat": 0.0, "lat": 38.92708783333333, "name": "2564b14761bbe30d9a96f93a798a7c77", "fusion_lon": 0.0, "bike_id": "2564b14761bbe30d9a96f93a798a7c77", "is_disabled": 0, "is_reserved": 0}, {"rental_uris": {"ios": "https://dc.lft.to/lastmile_qr_scan", "android": "https://dc.lft.to/lastmile_qr_scan"}, "lon": -77.01204883333334, "type": "electric_scooter", "fusion_lat": 0.0, "lat": 38.91976833333333, "name": "98eb2410f33266aee9f623c8b333489a", "fusion_lon": 0.0, "bike_id": "98eb2410f33266aee9f623c8b333489a", "is_disabled": 0, "is_reserved": 0}, {"rental_uris": {"ios": "https://dc.lft.to/lastmile_qr_scan", "android": "https://dc.lft.to/lastmile_qr_scan"}, "lon": -76.98732616666666, "type": "electric_scooter", "fusion_lat": 0.0, "lat": 38.86716466666667, "name": "b6fb16e7b97f691de5af8beb46590437", "fusion_lon": 0.0, "bike_id": "b6fb16e7b97f691de5af8beb46590437", "is_disabled": 0, "is_reserved": 0}, {"rental_uris": {"ios": "https://dc.lft.to/lastmile_qr_scan", "android": "https://dc.lft.to/lastmile_qr_scan"}, "lon": -77.09966033333333, "type": "electric_bike", "fusion_lat": 0.0, "lat": 38.857923, "name": "5e0ba56dcdcaf43c38c4124512cfe523", "fusion_lon": 0.0, "bike_id": "5e0ba56dcdcaf43c38c4124512cfe523", "is_disabled": 0, "is_reserved": 0}, {"rental_uris": {"ios": "https://dc.lft.to/lastmile_qr_scan", "android": "https://dc.lft.to/lastmile_qr_scan"}, "lon": -77.0397205, "type": "electric_scooter", "fusion_lat": 0.0, "lat": 38.901272166666665, "name": "8c62bc5d844857fec2c7f187334ea989", "fusion_lon": 0.0, "bike_id": "8c62bc5d844857fec2c7f187334ea989", "is_disabled": 0, "is_reserved": 0}, {"rental_uris": {"ios": "https://dc.lft.to/lastmile_qr_scan", "android": "https://dc.lft.to/lastmile_qr_scan"}, "lon": -77.08085166666666, "type": "electric_bike", "fusion_lat": 0.0, "lat": 38.906936, "name": "29bb1663b4dc78b3ab4f70597d48899c", "fusion_lon": 0.0, "bike_id": "29bb1663b4dc78b3ab4f70597d48899c", "is_disabled": 0, "is_reserved": 0}, {"rental_uris": {"ios": "https://dc.lft.to/lastmile_qr_scan", "android": "https://dc.lft.to/lastmile_qr_scan"}, "lon": -76.94739383333334, "type": "electric_scooter", "fusion_lat": 0.0, "lat": 38.896751, "name": "58006acc47990a055b7c4cc68633a0f2", "fusion_lon": 0.0, "bike_id": "58006acc47990a055b7c4cc68633a0f2", "is_disabled": 0, "is_reserved": 0}, {"rental_uris": {"ios": "https://dc.lft.to/lastmile_qr_scan", "android": "https://dc.lft.to/lastmile_qr_scan"}, "lon": -77.0367425, "type": "electric_scooter", "fusion_lat": 0.0, "lat": 38.9068495, "name": "b62ba9e3e2df4b892724f5550c8b7ec7", "fusion_lon": 0.0, "bike_id": "b62ba9e3e2df4b892724f5550c8b7ec7", "is_disabled": 0, "is_reserved": 0}, {"rental_uris": {"ios": "https://dc.lft.to/lastmile_qr_scan", "android": "https://dc.lft.to/lastmile_qr_scan"}, "lon": -77.02437566666667, "type": "electric_scooter", "fusion_lat": 0.0, "lat": 38.91908766666667, "name": "47695c050fcd087e40a7ff17198a5331", "fusion_lon": 0.0, "bike_id": "47695c050fcd087e40a7ff17198a5331", "is_disabled": 0, "is_reserved": 0}, {"rental_uris": {"ios": "https://dc.lft.to/lastmile_qr_scan", "android": "https://dc.lft.to/lastmile_qr_scan"}, "lon": -77.01508133333333, "type": "electric_scooter", "fusion_lat": 0.0, "lat": 38.910528166666666, "name": "06c2e33996381ea26993ed9b717cf1c4", "fusion_lon": 0.0, "bike_id": "06c2e33996381ea26993ed9b717cf1c4", "is_disabled": 0, "is_reserved": 0}, {"rental_uris": {"ios": "https://dc.lft.to/lastmile_qr_scan", "android": "https://dc.lft.to/lastmile_qr_scan"}, "lon": -77.08819483333333, "type": "electric_bike", "fusion_lat": 0.0, "lat": 38.90976633333333, "name": "35fc0a5957a1d03e01855a75b38fca83", "fusion_lon": 0.0, "bike_id": "35fc0a5957a1d03e01855a75b38fca83", "is_disabled": 0, "is_reserved": 0}, {"rental_uris": {"ios": "https://dc.lft.to/lastmile_qr_scan", "android": "https://dc.lft.to/lastmile_qr_scan"}, "lon": -77.02201066666667, "type": "electric_scooter", "fusion_lat": 0.0, "lat": 38.91538333333333, "name": "fbb9d668fa3faac3af261861a301a784", "fusion_lon": 0.0, "bike_id": "fbb9d668fa3faac3af261861a301a784", "is_disabled": 0, "is_reserved": 0}, {"rental_uris": {"ios": "https://dc.lft.to/lastmile_qr_scan", "android": "https://dc.lft.to/lastmile_qr_scan"}, "lon": -76.9726065, "type": "electric_bike", "fusion_lat": 0.0, "lat": 38.91918533333333, "name": "3b7015e9df1334919069d2960b2661bb", "fusion_lon": 0.0, "bike_id": "3b7015e9df1334919069d2960b2661bb", "is_disabled": 0, "is_reserved": 0}, {"rental_uris": {"ios": "https://dc.lft.to/lastmile_qr_scan", "android": "https://dc.lft.to/lastmile_qr_scan"}, "lon": -77.02349183333334, "type": "electric_scooter", "fusion_lat": 0.0, "lat": 38.93134083333333, "name": "9275b4389bf075b52e1524508bba7bc9", "fusion_lon": 0.0, "bike_id": "9275b4389bf075b52e1524508bba7bc9", "is_disabled": 0, "is_reserved": 0}, {"rental_uris": {"ios": "https://dc.lft.to/lastmile_qr_scan", "android": "https://dc.lft.to/lastmile_qr_scan"}, "lon": -77.0122395, "type": "electric_scooter", "fusion_lat": 0.0, "lat": 38.91323516666667, "name": "8db39a93eedb073cb7ec03ec1d632836", "fusion_lon": 0.0, "bike_id": "8db39a93eedb073cb7ec03ec1d632836", "is_disabled": 0, "is_reserved": 0}, {"rental_uris": {"ios": "https://dc.lft.to/lastmile_qr_scan", "android": "https://dc.lft.to/lastmile_qr_scan"}, "lon": -77.05086766666666, "type": "electric_bike", "fusion_lat": 0.0, "lat": 38.813338333333334, "name": "32ea3481e8e0cd3a8198e1c93da27035", "fusion_lon": 0.0, "bike_id": "32ea3481e8e0cd3a8198e1c93da27035", "is_disabled": 0, "is_reserved": 0}, {"rental_uris": {"ios": "https://dc.lft.to/lastmile_qr_scan", "android": "https://dc.lft.to/lastmile_qr_scan"}, "lon": -77.02968783333333, "type": "electric_scooter", "fusion_lat": 0.0, "lat": 38.89568533333333, "name": "696e1cd033ef6afc092669019981fff8", "fusion_lon": 0.0, "bike_id": "696e1cd033ef6afc092669019981fff8", "is_disabled": 0, "is_reserved": 0}, {"rental_uris": {"ios": "https://dc.lft.to/lastmile_qr_scan", "android": "https://dc.lft.to/lastmile_qr_scan"}, "lon": -77.07903316666666, "type": "electric_bike", "fusion_lat": 0.0, "lat": 38.83942283333333, "name": "fc6d4a4abd96334fe04f51a8e31aeb9e", "fusion_lon": 0.0, "bike_id": "fc6d4a4abd96334fe04f51a8e31aeb9e", "is_disabled": 0, "is_reserved": 0}, {"rental_uris": {"ios": "https://dc.lft.to/lastmile_qr_scan", "android": "https://dc.lft.to/lastmile_qr_scan"}, "lon": -77.01537116666667, "type": "electric_scooter", "fusion_lat": 0.0, "lat": 38.88734766666666, "name": "a3e710cd9dd560cea42c80efb4201b28", "fusion_lon": 0.0, "bike_id": "a3e710cd9dd560cea42c80efb4201b28", "is_disabled": 0, "is_reserved": 0}, {"rental_uris": {"ios": "https://dc.lft.to/lastmile_qr_scan", "android": "https://dc.lft.to/lastmile_qr_scan"}, "lon": -77.027117, "type": "electric_scooter", "fusion_lat": 0.0, "lat": 38.88136383333333, "name": "5699a547b2c9e92a219d6a533a9d8526", "fusion_lon": 0.0, "bike_id": "5699a547b2c9e92a219d6a533a9d8526", "is_disabled": 0, "is_reserved": 0}, {"rental_uris": {"ios": "https://dc.lft.to/lastmile_qr_scan", "android": "https://dc.lft.to/lastmile_qr_scan"}, "lon": -77.11420816666667, "type": "electric_bike", "fusion_lat": 0.0, "lat": 38.8431415, "name": "9a8452f001811e4e776e8c047b9a8be8", "fusion_lon": 0.0, "bike_id": "9a8452f001811e4e776e8c047b9a8be8", "is_disabled": 0, "is_reserved": 0}, {"rental_uris": {"ios": "https://dc.lft.to/lastmile_qr_scan", "android": "https://dc.lft.to/lastmile_qr_scan"}, "lon": -77.00777083333334, "type": "electric_scooter", "fusion_lat": 0.0, "lat": 38.870884333333336, "name": "ca677b55b2a02d8edf0d5f5bee9ac523", "fusion_lon": 0.0, "bike_id": "ca677b55b2a02d8edf0d5f5bee9ac523", "is_disabled": 0, "is_reserved": 0}, {"rental_uris": {"ios": "https://dc.lft.to/lastmile_qr_scan", "android": "https://dc.lft.to/lastmile_qr_scan"}, "lon": -77.0234635, "type": "electric_scooter", "fusion_lat": 0.0, "lat": 38.9338495, "name": "27ee27a47f3a13abefc84866d2fed0b9", "fusion_lon": 0.0, "bike_id": "27ee27a47f3a13abefc84866d2fed0b9", "is_disabled": 0, "is_reserved": 0}, {"rental_uris": {"ios": "https://dc.lft.to/lastmile_qr_scan", "android": "https://dc.lft.to/lastmile_qr_scan"}, "lon": -77.01505533333334, "type": "electric_scooter", "fusion_lat": 0.0, "lat": 38.9072035, "name": "f3b73df8480e9ae38252555c77440e7b", "fusion_lon": 0.0, "bike_id": "f3b73df8480e9ae38252555c77440e7b", "is_disabled": 0, "is_reserved": 0}, {"rental_uris": {"ios": "https://dc.lft.to/lastmile_qr_scan", "android": "https://dc.lft.to/lastmile_qr_scan"}, "lon": -76.9951465, "type": "electric_scooter", "fusion_lat": 0.0, "lat": 38.894827666666664, "name": "32a1a7c5ff84bd7bdac15e79a84bf5d3", "fusion_lon": 0.0, "bike_id": "32a1a7c5ff84bd7bdac15e79a84bf5d3", "is_disabled": 0, "is_reserved": 0}, {"rental_uris": {"ios": "https://dc.lft.to/lastmile_qr_scan", "android": "https://dc.lft.to/lastmile_qr_scan"}, "lon": -77.03700883333333, "type": "electric_bike", "fusion_lat": 0.0, "lat": 38.935661, "name": "117cb85d3fb36180357cf21233515fa1", "fusion_lon": 0.0, "bike_id": "117cb85d3fb36180357cf21233515fa1", "is_disabled": 0, "is_reserved": 0}, {"rental_uris": {"ios": "https://dc.lft.to/lastmile_qr_scan", "android": "https://dc.lft.to/lastmile_qr_scan"}, "lon": -77.03643666666666, "type": "electric_scooter", "fusion_lat": 0.0, "lat": 38.908014333333334, "name": "0d9044170eaf7655c0224939f043320e", "fusion_lon": 0.0, "bike_id": "0d9044170eaf7655c0224939f043320e", "is_disabled": 0, "is_reserved": 0}, {"rental_uris": {"ios": "https://dc.lft.to/lastmile_qr_scan", "android": "https://dc.lft.to/lastmile_qr_scan"}, "lon": -76.94839033333334, "type": "electric_scooter", "fusion_lat": 0.0, "lat": 38.89488516666667, "name": "7a6aeea272fa06b9872bc91ede4620e9", "fusion_lon": 0.0, "bike_id": "7a6aeea272fa06b9872bc91ede4620e9", "is_disabled": 0, "is_reserved": 0}, {"rental_uris": {"ios": "https://dc.lft.to/lastmile_qr_scan", "android": "https://dc.lft.to/lastmile_qr_scan"}, "lon": -76.93175283333333, "type": "electric_scooter", "fusion_lat": 0.0, "lat": 38.898859333333334, "name": "ed8e144c4efc5aa728b061a532781623", "fusion_lon": 0.0, "bike_id": "ed8e144c4efc5aa728b061a532781623", "is_disabled": 0, "is_reserved": 0}, {"rental_uris": {"ios": "https://dc.lft.to/lastmile_qr_scan", "android": "https://dc.lft.to/lastmile_qr_scan"}, "lon": -76.94853783333333, "type": "electric_scooter", "fusion_lat": 0.0, "lat": 38.883002, "name": "6d5a6239da2f9278a4fb592a9c404d6d", "fusion_lon": 0.0, "bike_id": "6d5a6239da2f9278a4fb592a9c404d6d", "is_disabled": 0, "is_reserved": 0}, {"rental_uris": {"ios": "https://dc.lft.to/lastmile_qr_scan", "android": "https://dc.lft.to/lastmile_qr_scan"}, "lon": -77.02830433333334, "type": "electric_scooter", "fusion_lat": 0.0, "lat": 38.9125705, "name": "2e6c95cfb02bd8d8f6737c226f6cd4a7", "fusion_lon": 0.0, "bike_id": "2e6c95cfb02bd8d8f6737c226f6cd4a7", "is_disabled": 0, "is_reserved": 0}, {"rental_uris": {"ios": "https://dc.lft.to/lastmile_qr_scan", "android": "https://dc.lft.to/lastmile_qr_scan"}, "lon": -77.04074033333333, "type": "electric_scooter", "fusion_lat": 0.0, "lat": 38.905218166666664, "name": "1a0747ee15fd86c0eaa80721a530a323", "fusion_lon": 0.0, "bike_id": "1a0747ee15fd86c0eaa80721a530a323", "is_disabled": 0, "is_reserved": 0}, {"rental_uris": {"ios": "https://dc.lft.to/lastmile_qr_scan", "android": "https://dc.lft.to/lastmile_qr_scan"}, "lon": -77.10738216666667, "type": "electric_bike", "fusion_lat": 0.0, "lat": 38.85560566666667, "name": "020f64354787398900349a679c8373fb", "fusion_lon": 0.0, "bike_id": "020f64354787398900349a679c8373fb", "is_disabled": 0, "is_reserved": 0}, {"rental_uris": {"ios": "https://dc.lft.to/lastmile_qr_scan", "android": "https://dc.lft.to/lastmile_qr_scan"}, "lon": -77.033495, "type": "electric_scooter", "fusion_lat": 0.0, "lat": 38.88506666666667, "name": "1aad2e2331dcf05cf0955c9c346995f0", "fusion_lon": 0.0, "bike_id": "1aad2e2331dcf05cf0955c9c346995f0", "is_disabled": 0, "is_reserved": 0}, {"rental_uris": {"ios": "https://dc.lft.to/lastmile_qr_scan", "android": "https://dc.lft.to/lastmile_qr_scan"}, "lon": -77.0320465, "type": "electric_scooter", "fusion_lat": 0.0, "lat": 38.9115785, "name": "79765c4d5039cc84597f36821c0df9a4", "fusion_lon": 0.0, "bike_id": "79765c4d5039cc84597f36821c0df9a4", "is_disabled": 0, "is_reserved": 0}, {"rental_uris": {"ios": "https://dc.lft.to/lastmile_qr_scan", "android": "https://dc.lft.to/lastmile_qr_scan"}, "lon": -76.99270433333334, "type": "electric_scooter", "fusion_lat": 0.0, "lat": 38.89690983333333, "name": "4e3165fcca1c39e77801984787c4de7b", "fusion_lon": 0.0, "bike_id": "4e3165fcca1c39e77801984787c4de7b", "is_disabled": 0, "is_reserved": 0}, {"rental_uris": {"ios": "https://dc.lft.to/lastmile_qr_scan", "android": "https://dc.lft.to/lastmile_qr_scan"}, "lon": -77.02333433333334, "type": "electric_scooter", "fusion_lat": 0.0, "lat": 38.92893333333333, "name": "9bb754618220f0d23f8ff2f255fa0a9d", "fusion_lon": 0.0, "bike_id": "9bb754618220f0d23f8ff2f255fa0a9d", "is_disabled": 0, "is_reserved": 0}, {"rental_uris": {"ios": "https://dc.lft.to/lastmile_qr_scan", "android": "https://dc.lft.to/lastmile_qr_scan"}, "lon": -77.0653035, "type": "electric_scooter", "fusion_lat": 0.0, "lat": 38.911264, "name": "822a6538814b925b0213192e3ad853c1", "fusion_lon": 0.0, "bike_id": "822a6538814b925b0213192e3ad853c1", "is_disabled": 0, "is_reserved": 0}, {"rental_uris": {"ios": "https://dc.lft.to/lastmile_qr_scan", "android": "https://dc.lft.to/lastmile_qr_scan"}, "lon": -77.02836833333333, "type": "electric_scooter", "fusion_lat": 0.0, "lat": 38.88769933333333, "name": "768640c73b9b3a47b49e058fc884b589", "fusion_lon": 0.0, "bike_id": "768640c73b9b3a47b49e058fc884b589", "is_disabled": 0, "is_reserved": 0}, {"rental_uris": {"ios": "https://dc.lft.to/lastmile_qr_scan", "android": "https://dc.lft.to/lastmile_qr_scan"}, "lon": -77.040397, "type": "electric_scooter", "fusion_lat": 0.0, "lat": 38.9256575, "name": "646097bc540ef64f9eecdc9995e7684f", "fusion_lon": 0.0, "bike_id": "646097bc540ef64f9eecdc9995e7684f", "is_disabled": 0, "is_reserved": 0}, {"rental_uris": {"ios": "https://dc.lft.to/lastmile_qr_scan", "android": "https://dc.lft.to/lastmile_qr_scan"}, "lon": -77.032577, "type": "electric_scooter", "fusion_lat": 0.0, "lat": 38.91404266666667, "name": "3a9f53d00fcf8041aea3d0dba2a8dff3", "fusion_lon": 0.0, "bike_id": "3a9f53d00fcf8041aea3d0dba2a8dff3", "is_disabled": 0, "is_reserved": 0}, {"rental_uris": {"ios": "https://dc.lft.to/lastmile_qr_scan", "android": "https://dc.lft.to/lastmile_qr_scan"}, "lon": -77.03166733333333, "type": "electric_scooter", "fusion_lat": 0.0, "lat": 38.89606216666667, "name": "b4e460ed55242f420ed82916c3b5ab91", "fusion_lon": 0.0, "bike_id": "b4e460ed55242f420ed82916c3b5ab91", "is_disabled": 0, "is_reserved": 0}, {"rental_uris": {"ios": "https://dc.lft.to/lastmile_qr_scan", "android": "https://dc.lft.to/lastmile_qr_scan"}, "lon": -77.0239175, "type": "electric_scooter", "fusion_lat": 0.0, "lat": 38.88733966666667, "name": "71d4894de74f0ab97a68ad9a8bc62185", "fusion_lon": 0.0, "bike_id": "71d4894de74f0ab97a68ad9a8bc62185", "is_disabled": 0, "is_reserved": 0}, {"rental_uris": {"ios": "https://dc.lft.to/lastmile_qr_scan", "android": "https://dc.lft.to/lastmile_qr_scan"}, "lon": -77.06162266666666, "type": "electric_scooter", "fusion_lat": 0.0, "lat": 38.94216316666667, "name": "335e00afaf9fda91ab97e2c2467a8223", "fusion_lon": 0.0, "bike_id": "335e00afaf9fda91ab97e2c2467a8223", "is_disabled": 0, "is_reserved": 0}, {"rental_uris": {"ios": "https://dc.lft.to/lastmile_qr_scan", "android": "https://dc.lft.to/lastmile_qr_scan"}, "lon": -77.02991, "type": "electric_scooter", "fusion_lat": 0.0, "lat": 38.9312245, "name": "24b2efba3e8a551e4dc167d752bb66f3", "fusion_lon": 0.0, "bike_id": "24b2efba3e8a551e4dc167d752bb66f3", "is_disabled": 0, "is_reserved": 0}, {"rental_uris": {"ios": "https://dc.lft.to/lastmile_qr_scan", "android": "https://dc.lft.to/lastmile_qr_scan"}, "lon": -77.12737916666667, "type": "electric_bike", "fusion_lat": 0.0, "lat": 38.8882585, "name": "2d76667a36b80375b8ea2ad2466c9a5a", "fusion_lon": 0.0, "bike_id": "2d76667a36b80375b8ea2ad2466c9a5a", "is_disabled": 0, "is_reserved": 0}, {"rental_uris": {"ios": "https://dc.lft.to/lastmile_qr_scan", "android": "https://dc.lft.to/lastmile_qr_scan"}, "lon": -76.97885666666667, "type": "electric_scooter", "fusion_lat": 0.0, "lat": 38.916714166666665, "name": "a50f11eb88b0ea4ec13aeb9bc5db93bf", "fusion_lon": 0.0, "bike_id": "a50f11eb88b0ea4ec13aeb9bc5db93bf", "is_disabled": 0, "is_reserved": 0}, {"rental_uris": {"ios": "https://dc.lft.to/lastmile_qr_scan", "android": "https://dc.lft.to/lastmile_qr_scan"}, "lon": -77.02320866666666, "type": "electric_scooter", "fusion_lat": 0.0, "lat": 38.927649333333335, "name": "4f5baa33843db3f1914f10757e9f7d56", "fusion_lon": 0.0, "bike_id": "4f5baa33843db3f1914f10757e9f7d56", "is_disabled": 0, "is_reserved": 0}, {"rental_uris": {"ios": "https://dc.lft.to/lastmile_qr_scan", "android": "https://dc.lft.to/lastmile_qr_scan"}, "lon": -77.04657683333333, "type": "electric_scooter", "fusion_lat": 0.0, "lat": 38.9055515, "name": "c341d3bd5b0c735dbae77c87b9e4023c", "fusion_lon": 0.0, "bike_id": "c341d3bd5b0c735dbae77c87b9e4023c", "is_disabled": 0, "is_reserved": 0}, {"rental_uris": {"ios": "https://dc.lft.to/lastmile_qr_scan", "android": "https://dc.lft.to/lastmile_qr_scan"}, "lon": -77.04972183333334, "type": "electric_scooter", "fusion_lat": 0.0, "lat": 38.896383166666666, "name": "c3fed4557c62f640826520dd708de74c", "fusion_lon": 0.0, "bike_id": "c3fed4557c62f640826520dd708de74c", "is_disabled": 0, "is_reserved": 0}, {"rental_uris": {"ios": "https://dc.lft.to/lastmile_qr_scan", "android": "https://dc.lft.to/lastmile_qr_scan"}, "lon": -76.931575, "type": "electric_scooter", "fusion_lat": 0.0, "lat": 38.898779166666664, "name": "11f23f258d970be9cf572cf954ef6f74", "fusion_lon": 0.0, "bike_id": "11f23f258d970be9cf572cf954ef6f74", "is_disabled": 0, "is_reserved": 0}, {"rental_uris": {"ios": "https://dc.lft.to/lastmile_qr_scan", "android": "https://dc.lft.to/lastmile_qr_scan"}, "lon": -76.987714, "type": "electric_scooter", "fusion_lat": 0.0, "lat": 38.91173883333333, "name": "fb7af800f469e7611414564f7beb4537", "fusion_lon": 0.0, "bike_id": "fb7af800f469e7611414564f7beb4537", "is_disabled": 0, "is_reserved": 0}, {"rental_uris": {"ios": "https://dc.lft.to/lastmile_qr_scan", "android": "https://dc.lft.to/lastmile_qr_scan"}, "lon": -76.93521833333334, "type": "electric_scooter", "fusion_lat": 0.0, "lat": 38.9087065, "name": "55c3813f32038dfb1009cd9d2e85421f", "fusion_lon": 0.0, "bike_id": "55c3813f32038dfb1009cd9d2e85421f", "is_disabled": 0, "is_reserved": 0}, {"rental_uris": {"ios": "https://dc.lft.to/lastmile_qr_scan", "android": "https://dc.lft.to/lastmile_qr_scan"}, "lon": -76.9381025, "type": "electric_scooter", "fusion_lat": 0.0, "lat": 38.9131015, "name": "f0f649f92b905e5186a19334919449eb", "fusion_lon": 0.0, "bike_id": "f0f649f92b905e5186a19334919449eb", "is_disabled": 0, "is_reserved": 0}, {"rental_uris": {"ios": "https://dc.lft.to/lastmile_qr_scan", "android": "https://dc.lft.to/lastmile_qr_scan"}, "lon": -77.02949916666667, "type": "electric_scooter", "fusion_lat": 0.0, "lat": 38.90786, "name": "e3964183371461d62e755fa737e8ae96", "fusion_lon": 0.0, "bike_id": "e3964183371461d62e755fa737e8ae96", "is_disabled": 0, "is_reserved": 0}, {"rental_uris": {"ios": "https://dc.lft.to/lastmile_qr_scan", "android": "https://dc.lft.to/lastmile_qr_scan"}, "lon": -77.006551, "type": "electric_scooter", "fusion_lat": 0.0, "lat": 38.9086465, "name": "dcee23145260e35aa4c9f2baab4f0f23", "fusion_lon": 0.0, "bike_id": "dcee23145260e35aa4c9f2baab4f0f23", "is_disabled": 0, "is_reserved": 0}, {"rental_uris": {"ios": "https://dc.lft.to/lastmile_qr_scan", "android": "https://dc.lft.to/lastmile_qr_scan"}, "lon": -77.199083, "type": "electric_bike", "fusion_lat": 0.0, "lat": 38.87529766666667, "name": "28dbe3cc339bc6a1df600052cdf09076", "fusion_lon": 0.0, "bike_id": "28dbe3cc339bc6a1df600052cdf09076", "is_disabled": 0, "is_reserved": 0}, {"rental_uris": {"ios": "https://dc.lft.to/lastmile_qr_scan", "android": "https://dc.lft.to/lastmile_qr_scan"}, "lon": -77.00355083333334, "type": "electric_scooter", "fusion_lat": 0.0, "lat": 38.891540666666664, "name": "c829a766be475a10eb72d441ad06d742", "fusion_lon": 0.0, "bike_id": "c829a766be475a10eb72d441ad06d742", "is_disabled": 0, "is_reserved": 0}, {"rental_uris": {"ios": "https://dc.lft.to/lastmile_qr_scan", "android": "https://dc.lft.to/lastmile_qr_scan"}, "lon": -77.02216133333333, "type": "electric_scooter", "fusion_lat": 0.0, "lat": 38.912706666666665, "name": "59eb43a6eafd9bcbe7cfa648078f50cc", "fusion_lon": 0.0, "bike_id": "59eb43a6eafd9bcbe7cfa648078f50cc", "is_disabled": 0, "is_reserved": 0}, {"rental_uris": {"ios": "https://dc.lft.to/lastmile_qr_scan", "android": "https://dc.lft.to/lastmile_qr_scan"}, "lon": -77.02475266666667, "type": "electric_scooter", "fusion_lat": 0.0, "lat": 38.93353533333333, "name": "11a892d1e90b152bf29625cda72881cb", "fusion_lon": 0.0, "bike_id": "11a892d1e90b152bf29625cda72881cb", "is_disabled": 0, "is_reserved": 0}, {"rental_uris": {"ios": "https://dc.lft.to/lastmile_qr_scan", "android": "https://dc.lft.to/lastmile_qr_scan"}, "lon": -77.02478116666667, "type": "electric_scooter", "fusion_lat": 0.0, "lat": 38.9310215, "name": "d70dcc5053c256673f5ab2139d8e19fe", "fusion_lon": 0.0, "bike_id": "d70dcc5053c256673f5ab2139d8e19fe", "is_disabled": 0, "is_reserved": 0}, {"rental_uris": {"ios": "https://dc.lft.to/lastmile_qr_scan", "android": "https://dc.lft.to/lastmile_qr_scan"}, "lon": -77.0294155, "type": "electric_scooter", "fusion_lat": 0.0, "lat": 38.9038785, "name": "b39b2da101bdb52eacf7ada62582f819", "fusion_lon": 0.0, "bike_id": "b39b2da101bdb52eacf7ada62582f819", "is_disabled": 0, "is_reserved": 0}, {"rental_uris": {"ios": "https://dc.lft.to/lastmile_qr_scan", "android": "https://dc.lft.to/lastmile_qr_scan"}, "lon": -77.1498605, "type": "electric_bike", "fusion_lat": 0.0, "lat": 39.09460633333333, "name": "d4a2b7951c48f84579a205d9f54b017a", "fusion_lon": 0.0, "bike_id": "d4a2b7951c48f84579a205d9f54b017a", "is_disabled": 0, "is_reserved": 0}, {"rental_uris": {"ios": "https://dc.lft.to/lastmile_qr_scan", "android": "https://dc.lft.to/lastmile_qr_scan"}, "lon": -77.04988433333334, "type": "electric_scooter", "fusion_lat": 0.0, "lat": 38.89903616666667, "name": "6b1f61d0bf3c125b55fd5cd79362b889", "fusion_lon": 0.0, "bike_id": "6b1f61d0bf3c125b55fd5cd79362b889", "is_disabled": 0, "is_reserved": 0}, {"rental_uris": {"ios": "https://dc.lft.to/lastmile_qr_scan", "android": "https://dc.lft.to/lastmile_qr_scan"}, "lon": -77.0768435, "type": "electric_bike", "fusion_lat": 0.0, "lat": 38.83197166666667, "name": "cbddbc5f097a9cb10039737d07f8d46b", "fusion_lon": 0.0, "bike_id": "cbddbc5f097a9cb10039737d07f8d46b", "is_disabled": 0, "is_reserved": 0}, {"rental_uris": {"ios": "https://dc.lft.to/lastmile_qr_scan", "android": "https://dc.lft.to/lastmile_qr_scan"}, "lon": -77.04743116666667, "type": "electric_scooter", "fusion_lat": 0.0, "lat": 38.90235333333333, "name": "699a7b18bb73352b3a9bd08e9fee5799", "fusion_lon": 0.0, "bike_id": "699a7b18bb73352b3a9bd08e9fee5799", "is_disabled": 0, "is_reserved": 0}, {"rental_uris": {"ios": "https://dc.lft.to/lastmile_qr_scan", "android": "https://dc.lft.to/lastmile_qr_scan"}, "lon": -77.04152716666667, "type": "electric_scooter", "fusion_lat": 0.0, "lat": 38.919322, "name": "361e0a2d447ae2817c4b686467a96970", "fusion_lon": 0.0, "bike_id": "361e0a2d447ae2817c4b686467a96970", "is_disabled": 0, "is_reserved": 0}, {"rental_uris": {"ios": "https://dc.lft.to/lastmile_qr_scan", "android": "https://dc.lft.to/lastmile_qr_scan"}, "lon": -77.03355733333333, "type": "electric_scooter", "fusion_lat": 0.0, "lat": 38.924501166666666, "name": "a1ca90a822eeb3ce6d3d6096ad81b9ac", "fusion_lon": 0.0, "bike_id": "a1ca90a822eeb3ce6d3d6096ad81b9ac", "is_disabled": 0, "is_reserved": 0}, {"rental_uris": {"ios": "https://dc.lft.to/lastmile_qr_scan", "android": "https://dc.lft.to/lastmile_qr_scan"}, "lon": -77.1226205, "type": "electric_bike", "fusion_lat": 0.0, "lat": 38.89187416666667, "name": "3226fa489ddf1159ad1bab1c9e3fbd47", "fusion_lon": 0.0, "bike_id": "3226fa489ddf1159ad1bab1c9e3fbd47", "is_disabled": 0, "is_reserved": 0}, {"rental_uris": {"ios": "https://dc.lft.to/lastmile_qr_scan", "android": "https://dc.lft.to/lastmile_qr_scan"}, "lon": -77.11226483333333, "type": "electric_bike", "fusion_lat": 0.0, "lat": 38.828725, "name": "29c68889e137bdf58b2e5f965ea565f4", "fusion_lon": 0.0, "bike_id": "29c68889e137bdf58b2e5f965ea565f4", "is_disabled": 0, "is_reserved": 0}, {"rental_uris": {"ios": "https://dc.lft.to/lastmile_qr_scan", "android": "https://dc.lft.to/lastmile_qr_scan"}, "lon": -77.02391316666667, "type": "electric_scooter", "fusion_lat": 0.0, "lat": 38.916056166666664, "name": "db20f93189a4225ffd03b597497585ad", "fusion_lon": 0.0, "bike_id": "db20f93189a4225ffd03b597497585ad", "is_disabled": 0, "is_reserved": 0}, {"rental_uris": {"ios": "https://dc.lft.to/lastmile_qr_scan", "android": "https://dc.lft.to/lastmile_qr_scan"}, "lon": -76.93527166666667, "type": "electric_bike", "fusion_lat": 0.0, "lat": 38.955409833333334, "name": "14e14da7ffac66e5ba38e00c45ac0281", "fusion_lon": 0.0, "bike_id": "14e14da7ffac66e5ba38e00c45ac0281", "is_disabled": 0, "is_reserved": 0}, {"rental_uris": {"ios": "https://dc.lft.to/lastmile_qr_scan", "android": "https://dc.lft.to/lastmile_qr_scan"}, "lon": -77.0069285, "type": "electric_scooter", "fusion_lat": 0.0, "lat": 38.9059805, "name": "c10a4240b9a39ba2e9a64b98025362a8", "fusion_lon": 0.0, "bike_id": "c10a4240b9a39ba2e9a64b98025362a8", "is_disabled": 0, "is_reserved": 0}, {"rental_uris": {"ios": "https://dc.lft.to/lastmile_qr_scan", "android": "https://dc.lft.to/lastmile_qr_scan"}, "lon": -77.04797333333333, "type": "electric_scooter", "fusion_lat": 0.0, "lat": 38.916377, "name": "9ebae011eec519938f0ae03322020ec4", "fusion_lon": 0.0, "bike_id": "9ebae011eec519938f0ae03322020ec4", "is_disabled": 0, "is_reserved": 0}, {"rental_uris": {"ios": "https://dc.lft.to/lastmile_qr_scan", "android": "https://dc.lft.to/lastmile_qr_scan"}, "lon": -77.038245, "type": "electric_scooter", "fusion_lat": 0.0, "lat": 38.921690166666664, "name": "f192fed2df3c9aed99728ab702f5d2f1", "fusion_lon": 0.0, "bike_id": "f192fed2df3c9aed99728ab702f5d2f1", "is_disabled": 0, "is_reserved": 0}, {"rental_uris": {"ios": "https://dc.lft.to/lastmile_qr_scan", "android": "https://dc.lft.to/lastmile_qr_scan"}, "lon": -77.018821, "type": "electric_scooter", "fusion_lat": 0.0, "lat": 38.90615016666667, "name": "d4e127ca13615f571fc1b4616b6f9a0a", "fusion_lon": 0.0, "bike_id": "d4e127ca13615f571fc1b4616b6f9a0a", "is_disabled": 0, "is_reserved": 0}, {"rental_uris": {"ios": "https://dc.lft.to/lastmile_qr_scan", "android": "https://dc.lft.to/lastmile_qr_scan"}, "lon": -77.0429205, "type": "electric_scooter", "fusion_lat": 0.0, "lat": 38.907205, "name": "e371e7ad927156b6eb721ec509af4f1b", "fusion_lon": 0.0, "bike_id": "e371e7ad927156b6eb721ec509af4f1b", "is_disabled": 0, "is_reserved": 0}, {"rental_uris": {"ios": "https://dc.lft.to/lastmile_qr_scan", "android": "https://dc.lft.to/lastmile_qr_scan"}, "lon": -77.04032033333333, "type": "electric_scooter", "fusion_lat": 0.0, "lat": 38.924329166666666, "name": "e0bb9a0650e6efe6411ab36b3b72d3ac", "fusion_lon": 0.0, "bike_id": "e0bb9a0650e6efe6411ab36b3b72d3ac", "is_disabled": 0, "is_reserved": 0}, {"rental_uris": {"ios": "https://dc.lft.to/lastmile_qr_scan", "android": "https://dc.lft.to/lastmile_qr_scan"}, "lon": -77.0136005, "type": "electric_scooter", "fusion_lat": 0.0, "lat": 38.919841, "name": "c89e204fd6483680403051523b4bc1d1", "fusion_lon": 0.0, "bike_id": "c89e204fd6483680403051523b4bc1d1", "is_disabled": 0, "is_reserved": 0}, {"rental_uris": {"ios": "https://dc.lft.to/lastmile_qr_scan", "android": "https://dc.lft.to/lastmile_qr_scan"}, "lon": -77.01684966666667, "type": "electric_scooter", "fusion_lat": 0.0, "lat": 38.9026525, "name": "a24bfcfda9b3752576cf66d94b0f130e", "fusion_lon": 0.0, "bike_id": "a24bfcfda9b3752576cf66d94b0f130e", "is_disabled": 0, "is_reserved": 0}, {"rental_uris": {"ios": "https://dc.lft.to/lastmile_qr_scan", "android": "https://dc.lft.to/lastmile_qr_scan"}, "lon": -77.030686, "type": "electric_scooter", "fusion_lat": 0.0, "lat": 38.880483166666664, "name": "85c5a385373f7edaf9779e629c6e503f", "fusion_lon": 0.0, "bike_id": "85c5a385373f7edaf9779e629c6e503f", "is_disabled": 0, "is_reserved": 0}, {"rental_uris": {"ios": "https://dc.lft.to/lastmile_qr_scan", "android": "https://dc.lft.to/lastmile_qr_scan"}, "lon": -77.033308, "type": "electric_scooter", "fusion_lat": 0.0, "lat": 38.9034345, "name": "d67aa3a6f03610668e021bd2ea31428f", "fusion_lon": 0.0, "bike_id": "d67aa3a6f03610668e021bd2ea31428f", "is_disabled": 0, "is_reserved": 0}, {"rental_uris": {"ios": "https://dc.lft.to/lastmile_qr_scan", "android": "https://dc.lft.to/lastmile_qr_scan"}, "lon": -77.039361, "type": "electric_scooter", "fusion_lat": 0.0, "lat": 38.93150966666666, "name": "f7648cb85ed86ffcaab920463698d111", "fusion_lon": 0.0, "bike_id": "f7648cb85ed86ffcaab920463698d111", "is_disabled": 0, "is_reserved": 0}, {"rental_uris": {"ios": "https://dc.lft.to/lastmile_qr_scan", "android": "https://dc.lft.to/lastmile_qr_scan"}, "lon": -76.94945866666667, "type": "electric_scooter", "fusion_lat": 0.0, "lat": 38.88380333333333, "name": "1a071ce13fd35b2aa52470a360766786", "fusion_lon": 0.0, "bike_id": "1a071ce13fd35b2aa52470a360766786", "is_disabled": 0, "is_reserved": 0}, {"rental_uris": {"ios": "https://dc.lft.to/lastmile_qr_scan", "android": "https://dc.lft.to/lastmile_qr_scan"}, "lon": -77.046852, "type": "electric_scooter", "fusion_lat": 0.0, "lat": 38.90865266666667, "name": "cccba686d830591c1aabad076d72464d", "fusion_lon": 0.0, "bike_id": "cccba686d830591c1aabad076d72464d", "is_disabled": 0, "is_reserved": 0}, {"rental_uris": {"ios": "https://dc.lft.to/lastmile_qr_scan", "android": "https://dc.lft.to/lastmile_qr_scan"}, "lon": -76.977293, "type": "electric_scooter", "fusion_lat": 0.0, "lat": 38.872884, "name": "88ea10783e41939364be0adebb6b07cf", "fusion_lon": 0.0, "bike_id": "88ea10783e41939364be0adebb6b07cf", "is_disabled": 0, "is_reserved": 0}, {"rental_uris": {"ios": "https://dc.lft.to/lastmile_qr_scan", "android": "https://dc.lft.to/lastmile_qr_scan"}, "lon": -77.02986283333334, "type": "electric_bike", "fusion_lat": 0.0, "lat": 38.9003125, "name": "aca1dc7d6c01ecfbd6dbe3df2c75fe6c", "fusion_lon": 0.0, "bike_id": "aca1dc7d6c01ecfbd6dbe3df2c75fe6c", "is_disabled": 0, "is_reserved": 0}, {"rental_uris": {"ios": "https://dc.lft.to/lastmile_qr_scan", "android": "https://dc.lft.to/lastmile_qr_scan"}, "lon": -76.95735583333334, "type": "electric_scooter", "fusion_lat": 0.0, "lat": 38.89223833333333, "name": "ab445d2697cca39daa753484899b99e3", "fusion_lon": 0.0, "bike_id": "ab445d2697cca39daa753484899b99e3", "is_disabled": 0, "is_reserved": 0}, {"rental_uris": {"ios": "https://dc.lft.to/lastmile_qr_scan", "android": "https://dc.lft.to/lastmile_qr_scan"}, "lon": -77.1318085, "type": "electric_bike", "fusion_lat": 0.0, "lat": 38.86906333333334, "name": "e3ffdea652e32233633c8295a6dcf9e7", "fusion_lon": 0.0, "bike_id": "e3ffdea652e32233633c8295a6dcf9e7", "is_disabled": 0, "is_reserved": 0}, {"rental_uris": {"ios": "https://dc.lft.to/lastmile_qr_scan", "android": "https://dc.lft.to/lastmile_qr_scan"}, "lon": -77.0379165, "type": "electric_bike", "fusion_lat": 0.0, "lat": 38.996799833333334, "name": "5cb8d07ffa09e3b429f818d7141d3ae1", "fusion_lon": 0.0, "bike_id": "5cb8d07ffa09e3b429f818d7141d3ae1", "is_disabled": 0, "is_reserved": 0}, {"rental_uris": {"ios": "https://dc.lft.to/lastmile_qr_scan", "android": "https://dc.lft.to/lastmile_qr_scan"}, "lon": -77.01702166666666, "type": "electric_scooter", "fusion_lat": 0.0, "lat": 38.879247, "name": "f049d517fba47bb582cf68b62cf48c92", "fusion_lon": 0.0, "bike_id": "f049d517fba47bb582cf68b62cf48c92", "is_disabled": 0, "is_reserved": 0}, {"rental_uris": {"ios": "https://dc.lft.to/lastmile_qr_scan", "android": "https://dc.lft.to/lastmile_qr_scan"}, "lon": -77.03841016666667, "type": "electric_scooter", "fusion_lat": 0.0, "lat": 38.9109175, "name": "74f135bea305233ddedeb74f1c34601e", "fusion_lon": 0.0, "bike_id": "74f135bea305233ddedeb74f1c34601e", "is_disabled": 0, "is_reserved": 0}, {"rental_uris": {"ios": "https://dc.lft.to/lastmile_qr_scan", "android": "https://dc.lft.to/lastmile_qr_scan"}, "lon": -77.000588, "type": "electric_scooter", "fusion_lat": 0.0, "lat": 38.88898966666667, "name": "5d3b59ec9eb441ea111d6ab1cae5cbe0", "fusion_lon": 0.0, "bike_id": "5d3b59ec9eb441ea111d6ab1cae5cbe0", "is_disabled": 0, "is_reserved": 0}, {"rental_uris": {"ios": "https://dc.lft.to/lastmile_qr_scan", "android": "https://dc.lft.to/lastmile_qr_scan"}, "lon": -77.03695716666667, "type": "electric_bike", "fusion_lat": 0.0, "lat": 38.935623, "name": "2b5e7d325937cd615ab09bf0a5c14380", "fusion_lon": 0.0, "bike_id": "2b5e7d325937cd615ab09bf0a5c14380", "is_disabled": 0, "is_reserved": 0}, {"rental_uris": {"ios": "https://dc.lft.to/lastmile_qr_scan", "android": "https://dc.lft.to/lastmile_qr_scan"}, "lon": -77.07554683333333, "type": "electric_bike", "fusion_lat": 0.0, "lat": 38.910431, "name": "04c18fe99db7a01077272c84856e02fb", "fusion_lon": 0.0, "bike_id": "04c18fe99db7a01077272c84856e02fb", "is_disabled": 0, "is_reserved": 0}, {"rental_uris": {"ios": "https://dc.lft.to/lastmile_qr_scan", "android": "https://dc.lft.to/lastmile_qr_scan"}, "lon": -77.0884745, "type": "electric_bike", "fusion_lat": 0.0, "lat": 38.840826166666666, "name": "73ea477560bf60214fac5b090e4ce303", "fusion_lon": 0.0, "bike_id": "73ea477560bf60214fac5b090e4ce303", "is_disabled": 0, "is_reserved": 0}, {"rental_uris": {"ios": "https://dc.lft.to/lastmile_qr_scan", "android": "https://dc.lft.to/lastmile_qr_scan"}, "lon": -77.02549883333333, "type": "electric_scooter", "fusion_lat": 0.0, "lat": 38.89225666666667, "name": "4ff8804c935518c9314d0bd37fd61ee9", "fusion_lon": 0.0, "bike_id": "4ff8804c935518c9314d0bd37fd61ee9", "is_disabled": 0, "is_reserved": 0}, {"rental_uris": {"ios": "https://dc.lft.to/lastmile_qr_scan", "android": "https://dc.lft.to/lastmile_qr_scan"},