{"data": {"bikes": [{"lon": -77.02169766666667, "rental_uris": {"android": "https://dc.lft.to/lastmile_qr_scan", "ios": "https://dc.lft.to/lastmile_qr_scan"}, "fusion_lon": 0.0, "is_reserved": 0, "is_disabled": 0, "fusion_lat": 0.0, "type": "electric_scooter", "name": "3e06a6d6534dbae0082262e944ea79b4", "lat": 38.8861055, "bike_id": "3e06a6d6534dbae0082262e944ea79b4"}, {"lon": -76.9947475, "rental_uris": {"android": "https://dc.lft.to/lastmile_qr_scan", "ios": "https://dc.lft.to/lastmile_qr_scan"}, "fusion_lon": 0.0, "is_reserved": 0, "is_disabled": 0, "fusion_lat": 0.0, "type": "electric_scooter", "name": "9a6c55cdf532460bd3b66e3e29dfb73d", "lat": 38.90538516666667, "bike_id": "9a6c55cdf532460bd3b66e3e29dfb73d"}, {"lon": -77.000589, "rental_uris": {"android": "https://dc.lft.to/lastmile_qr_scan", "ios": "https://dc.lft.to/lastmile_qr_scan"}, "fusion_lon": 0.0, "is_reserved": 0, "is_disabled": 0, "fusion_lat": 0.0, "type": "electric_scooter", "name": "c70400133285ca75a49d033114fe2609", "lat": 38.875983166666664, "bike_id": "c70400133285ca75a49d033114fe2609"}, {"lon": -77.02402733333334, "rental_uris": {"android": "https://dc.lft.to/lastmile_qr_scan", "ios": "https://dc.lft.to/lastmile_qr_scan"}, "fusion_lon": 0.0, "is_reserved": 0, "is_disabled": 0, "fusion_lat": 0.0, "type": "electric_scooter", "name": "14551846848ddfb8ed0adeea026b9a9d", "lat": 38.9018795, "bike_id": "14551846848ddfb8ed0adeea026b9a9d"}, {"lon": -77.02658983333333, "rental_uris": {"android": "https://dc.lft.to/lastmile_qr_scan", "ios": "https://dc.lft.to/lastmile_qr_scan"}, "fusion_lon": 0.0, "is_reserved": 0, "is_disabled": 0, "fusion_lat": 0.0, "type": "electric_scooter", "name": "85e4e6c34077a84010887397a69a6dfd", "lat": 38.892155833333334, "bike_id": "85e4e6c34077a84010887397a69a6dfd"}, {"lon": -77.07552983333333, "rental_uris": {"android": "https://dc.lft.to/lastmile_qr_scan", "ios": "https://dc.lft.to/lastmile_qr_scan"}, "fusion_lon": 0.0, "is_reserved": 0, "is_disabled": 0, "fusion_lat": 0.0, "type": "electric_scooter", "name": "37bda13654249b91681445e32270edad", "lat": 38.920839, "bike_id": "37bda13654249b91681445e32270edad"}, {"lon": -76.980598, "rental_uris": {"android": "https://dc.lft.to/lastmile_qr_scan", "ios": "https://dc.lft.to/lastmile_qr_scan"}, "fusion_lon": 0.0, "is_reserved": 0, "is_disabled": 0, "fusion_lat": 0.0, "type": "electric_scooter", "name": "86531562581b1a2b994b837d15e64ff5", "lat": 38.8849105, "bike_id": "86531562581b1a2b994b837d15e64ff5"}, {"lon": -76.94196466666666, "rental_uris": {"android": "https://dc.lft.to/lastmile_qr_scan", "ios": "https://dc.lft.to/lastmile_qr_scan"}, "fusion_lon": 0.0, "is_reserved": 0, "is_disabled": 0, "fusion_lat": 0.0, "type": "electric_scooter", "name": "a333da5e0281dd7907e04d53aa49f908", "lat": 38.902270333333334, "bike_id": "a333da5e0281dd7907e04d53aa49f908"}, {"lon": -77.03949883333334, "rental_uris": {"android": "https://dc.lft.to/lastmile_qr_scan", "ios": "https://dc.lft.to/lastmile_qr_scan"}, "fusion_lon": 0.0, "is_reserved": 0, "is_disabled": 0, "fusion_lat": 0.0, "type": "electric_scooter", "name": "41f5a7663e896a0618cd7c755abe0288", "lat": 38.90814066666667, "bike_id": "41f5a7663e896a0618cd7c755abe0288"}, {"lon": -77.0457965, "rental_uris": {"android": "https://dc.lft.to/lastmile_qr_scan", "ios": "https://dc.lft.to/lastmile_qr_scan"}, "fusion_lon": 0.0, "is_reserved": 0, "is_disabled": 0, "fusion_lat": 0.0, "type": "electric_scooter", "name": "13100689f2198c92d29c61710b316ee6", "lat": 38.902618, "bike_id": "13100689f2198c92d29c61710b316ee6"}, {"lon": -77.03159533333333, "rental_uris": {"android": "https://dc.lft.to/lastmile_qr_scan", "ios": "https://dc.lft.to/lastmile_qr_scan"}, "fusion_lon": 0.0, "is_reserved": 0, "is_disabled": 0, "fusion_lat": 0.0, "type": "electric_scooter", "name": "0e7caa5eb740901e4846d552a281ad02", "lat": 38.915550833333334, "bike_id": "0e7caa5eb740901e4846d552a281ad02"}, {"lon": -77.00717483333334, "rental_uris": {"android": "https://dc.lft.to/lastmile_qr_scan", "ios": "https://dc.lft.to/lastmile_qr_scan"}, "fusion_lon": 0.0, "is_reserved": 0, "is_disabled": 0, "fusion_lat": 0.0, "type": "electric_scooter", "name": "f09da19e01f38414b649c41d75641541", "lat": 38.955273, "bike_id": "f09da19e01f38414b649c41d75641541"}, {"lon": -76.93382683333333, "rental_uris": {"android": "https://dc.lft.to/lastmile_qr_scan", "ios": "https://dc.lft.to/lastmile_qr_scan"}, "fusion_lon": 0.0, "is_reserved": 0, "is_disabled": 0, "fusion_lat": 0.0, "type": "electric_scooter", "name": "0ba656e61a9d867916cd9e92ddec2d20", "lat": 38.8991315, "bike_id": "0ba656e61a9d867916cd9e92ddec2d20"}, {"lon": -77.01615783333334, "rental_uris": {"android": "https://dc.lft.to/lastmile_qr_scan", "ios": "https://dc.lft.to/lastmile_qr_scan"}, "fusion_lon": 0.0, "is_reserved": 0, "is_disabled": 0, "fusion_lat": 0.0, "type": "electric_scooter", "name": "9680f99783155ea6cc9e2c9bae7bc649", "lat": 38.94740083333333, "bike_id": "9680f99783155ea6cc9e2c9bae7bc649"}, {"lon": -77.02446666666667, "rental_uris": {"android": "https://dc.lft.to/lastmile_qr_scan", "ios": "https://dc.lft.to/lastmile_qr_scan"}, "fusion_lon": 0.0, "is_reserved": 0, "is_disabled": 0, "fusion_lat": 0.0, "type": "electric_scooter", "name": "fe5953bd26952bdc2ed2316a3d6ebfec", "lat": 38.926511, "bike_id": "fe5953bd26952bdc2ed2316a3d6ebfec"}, {"lon": -77.04234733333334, "rental_uris": {"android": "https://dc.lft.to/lastmile_qr_scan", "ios": "https://dc.lft.to/lastmile_qr_scan"}, "fusion_lon": 0.0, "is_reserved": 0, "is_disabled": 0, "fusion_lat": 0.0, "type": "electric_scooter", "name": "504011da2d65cb3044b09633dc423dbf", "lat": 38.899499166666665, "bike_id": "504011da2d65cb3044b09633dc423dbf"}, {"lon": -77.0280955, "rental_uris": {"android": "https://dc.lft.to/lastmile_qr_scan", "ios": "https://dc.lft.to/lastmile_qr_scan"}, "fusion_lon": 0.0, "is_reserved": 0, "is_disabled": 0, "fusion_lat": 0.0, "type": "electric_scooter", "name": "ee57afc5a08f1e8d28b2b7225751df16", "lat": 38.89522216666667, "bike_id": "ee57afc5a08f1e8d28b2b7225751df16"}, {"lon": -77.02201583333333, "rental_uris": {"android": "https://dc.lft.to/lastmile_qr_scan", "ios": "https://dc.lft.to/lastmile_qr_scan"}, "fusion_lon": 0.0, "is_reserved": 0, "is_disabled": 0, "fusion_lat": 0.0, "type": "electric_scooter", "name": "6591076ef82007fd4949b704b3297e90", "lat": 38.914512333333334, "bike_id": "6591076ef82007fd4949b704b3297e90"}, {"lon": -77.066698, "rental_uris": {"android": "https://dc.lft.to/lastmile_qr_scan", "ios": "https://dc.lft.to/lastmile_qr_scan"}, "fusion_lon": 0.0, "is_reserved": 0, "is_disabled": 0, "fusion_lat": 0.0, "type": "electric_scooter", "name": "1bbd65780db911b5adde69532f6f2634", "lat": 38.9037725, "bike_id": "1bbd65780db911b5adde69532f6f2634"}, {"lon": -77.02708833333334, "rental_uris": {"android": "https://dc.lft.to/lastmile_qr_scan", "ios": "https://dc.lft.to/lastmile_qr_scan"}, "fusion_lon": 0.0, "is_reserved": 0, "is_disabled": 0, "fusion_lat": 0.0, "type": "electric_scooter", "name": "b4d8a3fdf08adc0ce0c66774ff873864", "lat": 38.900729, "bike_id": "b4d8a3fdf08adc0ce0c66774ff873864"}, {"lon": -76.9957175, "rental_uris": {"android": "https://dc.lft.to/lastmile_qr_scan", "ios": "https://dc.lft.to/lastmile_qr_scan"}, "fusion_lon": 0.0, "is_reserved": 0, "is_disabled": 0, "fusion_lat": 0.0, "type": "electric_scooter", "name": "38276ad12bf0558b869040edbc500585", "lat": 38.86269016666667, "bike_id": "38276ad12bf0558b869040edbc500585"}, {"lon": -77.02978, "rental_uris": {"android": "https://dc.lft.to/lastmile_qr_scan", "ios": "https://dc.lft.to/lastmile_qr_scan"}, "fusion_lon": 0.0, "is_reserved": 0, "is_disabled": 0, "fusion_lat": 0.0, "type": "electric_scooter", "name": "7748b4fa3aa48345febb77772f384d00", "lat": 38.931855, "bike_id": "7748b4fa3aa48345febb77772f384d00"}, {"lon": -77.01830383333333, "rental_uris": {"android": "https://dc.lft.to/lastmile_qr_scan", "ios": "https://dc.lft.to/lastmile_qr_scan"}, "fusion_lon": 0.0, "is_reserved": 0, "is_disabled": 0, "fusion_lat": 0.0, "type": "electric_scooter", "name": "188bf280f63031eb46c88125f3a33c7b", "lat": 38.92149333333333, "bike_id": "188bf280f63031eb46c88125f3a33c7b"}, {"lon": -77.05545383333333, "rental_uris": {"android": "https://dc.lft.to/lastmile_qr_scan", "ios": "https://dc.lft.to/lastmile_qr_scan"}, "fusion_lon": 0.0, "is_reserved": 0, "is_disabled": 0, "fusion_lat": 0.0, "type": "electric_bike", "name": "3a026ef6cb6021625ec9404a9a60a3e4", "lat": 39.03603566666666, "bike_id": "3a026ef6cb6021625ec9404a9a60a3e4"}, {"lon": -77.09450083333333, "rental_uris": {"android": "https://dc.lft.to/lastmile_qr_scan", "ios": "https://dc.lft.to/lastmile_qr_scan"}, "fusion_lon": 0.0, "is_reserved": 0, "is_disabled": 0, "fusion_lat": 0.0, "type": "electric_bike", "name": "383be32ebb128d190dd5c976e1d56661", "lat": 38.807505, "bike_id": "383be32ebb128d190dd5c976e1d56661"}, {"lon": -77.01530583333333, "rental_uris": {"android": "https://dc.lft.to/lastmile_qr_scan", "ios": "https://dc.lft.to/lastmile_qr_scan"}, "fusion_lon": 0.0, "is_reserved": 0, "is_disabled": 0, "fusion_lat": 0.0, "type": "electric_scooter", "name": "d49acaccb44957ce6cf2186e5491dd1b", "lat": 38.88733633333333, "bike_id": "d49acaccb44957ce6cf2186e5491dd1b"}, {"lon": -77.020929, "rental_uris": {"android": "https://dc.lft.to/lastmile_qr_scan", "ios": "https://dc.lft.to/lastmile_qr_scan"}, "fusion_lon": 0.0, "is_reserved": 0, "is_disabled": 0, "fusion_lat": 0.0, "type": "electric_scooter", "name": "d4b8dcf7e67d643493b797770b471ba5", "lat": 38.921210333333335, "bike_id": "d4b8dcf7e67d643493b797770b471ba5"}, {"lon": -77.07236083333333, "rental_uris": {"android": "https://dc.lft.to/lastmile_qr_scan", "ios": "https://dc.lft.to/lastmile_qr_scan"}, "fusion_lon": 0.0, "is_reserved": 0, "is_disabled": 0, "fusion_lat": 0.0, "type": "electric_scooter", "name": "29b2ed743d30d9c6948b634f380b239a", "lat": 38.9343415, "bike_id": "29b2ed743d30d9c6948b634f380b239a"}, {"lon": -77.0551955, "rental_uris": {"android": "https://dc.lft.to/lastmile_qr_scan", "ios": "https://dc.lft.to/lastmile_qr_scan"}, "fusion_lon": 0.0, "is_reserved": 0, "is_disabled": 0, "fusion_lat": 0.0, "type": "electric_scooter", "name": "e3d81d2a7bda18614e683ca5e7ad1027", "lat": 38.9251255, "bike_id": "e3d81d2a7bda18614e683ca5e7ad1027"}, {"lon": -77.03278, "rental_uris": {"android": "https://dc.lft.to/lastmile_qr_scan", "ios": "https://dc.lft.to/lastmile_qr_scan"}, "fusion_lon": 0.0, "is_reserved": 0, "is_disabled": 0, "fusion_lat": 0.0, "type": "electric_scooter", "name": "3bd9ffabcedbc33b381d31ef44996916", "lat": 38.9395895, "bike_id": "3bd9ffabcedbc33b381d31ef44996916"}, {"lon": -77.00272666666666, "rental_uris": {"android": "https://dc.lft.to/lastmile_qr_scan", "ios": "https://dc.lft.to/lastmile_qr_scan"}, "fusion_lon": 0.0, "is_reserved": 0, "is_disabled": 0, "fusion_lat": 0.0, "type": "electric_scooter", "name": "26d649274cf76a0e0ca9e1cf06a1b87a", "lat": 38.911935666666665, "bike_id": "26d649274cf76a0e0ca9e1cf06a1b87a"}, {"lon": -77.03214616666666, "rental_uris": {"android": "https://dc.lft.to/lastmile_qr_scan", "ios": "https://dc.lft.to/lastmile_qr_scan"}, "fusion_lon": 0.0, "is_reserved": 0, "is_disabled": 0, "fusion_lat": 0.0, "type": "electric_scooter", "name": "29d23b324040b7309f17766af7d9c7d6", "lat": 38.91547816666667, "bike_id": "29d23b324040b7309f17766af7d9c7d6"}, {"lon": -77.020564, "rental_uris": {"android": "https://dc.lft.to/lastmile_qr_scan", "ios": "https://dc.lft.to/lastmile_qr_scan"}, "fusion_lon": 0.0, "is_reserved": 0, "is_disabled": 0, "fusion_lat": 0.0, "type": "electric_scooter", "name": "941c25f0861762a7b362837dc1cba950", "lat": 38.92762183333333, "bike_id": "941c25f0861762a7b362837dc1cba950"}, {"lon": -77.0459965, "rental_uris": {"android": "https://dc.lft.to/lastmile_qr_scan", "ios": "https://dc.lft.to/lastmile_qr_scan"}, "fusion_lon": 0.0, "is_reserved": 0, "is_disabled": 0, "fusion_lat": 0.0, "type": "electric_scooter", "name": "4ef48a85f8326f5a886d952f739f1c61", "lat": 38.90277016666667, "bike_id": "4ef48a85f8326f5a886d952f739f1c61"}, {"lon": -77.03167233333333, "rental_uris": {"android": "https://dc.lft.to/lastmile_qr_scan", "ios": "https://dc.lft.to/lastmile_qr_scan"}, "fusion_lon": 0.0, "is_reserved": 0, "is_disabled": 0, "fusion_lat": 0.0, "type": "electric_scooter", "name": "ee94f83c98230a522af362e084cb16a9", "lat": 38.8921595, "bike_id": "ee94f83c98230a522af362e084cb16a9"}, {"lon": -77.0651105, "rental_uris": {"android": "https://dc.lft.to/lastmile_qr_scan", "ios": "https://dc.lft.to/lastmile_qr_scan"}, "fusion_lon": 0.0, "is_reserved": 0, "is_disabled": 0, "fusion_lat": 0.0, "type": "electric_scooter", "name": "20ea2145217a93783696dfc4a4a12749", "lat": 38.905259666666666, "bike_id": "20ea2145217a93783696dfc4a4a12749"}, {"lon": -77.000658, "rental_uris": {"android": "https://dc.lft.to/lastmile_qr_scan", "ios": "https://dc.lft.to/lastmile_qr_scan"}, "fusion_lon": 0.0, "is_reserved": 0, "is_disabled": 0, "fusion_lat": 0.0, "type": "electric_scooter", "name": "f015501744b73f039d8904c577610b96", "lat": 38.873774, "bike_id": "f015501744b73f039d8904c577610b96"}, {"lon": -77.0412255, "rental_uris": {"android": "https://dc.lft.to/lastmile_qr_scan", "ios": "https://dc.lft.to/lastmile_qr_scan"}, "fusion_lon": 0.0, "is_reserved": 0, "is_disabled": 0, "fusion_lat": 0.0, "type": "electric_scooter", "name": "3fa36f5795974a054fa794f3334e07f7", "lat": 38.90237183333333, "bike_id": "3fa36f5795974a054fa794f3334e07f7"}, {"lon": -77.02160766666667, "rental_uris": {"android": "https://dc.lft.to/lastmile_qr_scan", "ios": "https://dc.lft.to/lastmile_qr_scan"}, "fusion_lon": 0.0, "is_reserved": 0, "is_disabled": 0, "fusion_lat": 0.0, "type": "electric_scooter", "name": "9253e92f3273f6e60160e214f454cad8", "lat": 38.926101, "bike_id": "9253e92f3273f6e60160e214f454cad8"}, {"lon": -77.0211575, "rental_uris": {"android": "https://dc.lft.to/lastmile_qr_scan", "ios": "https://dc.lft.to/lastmile_qr_scan"}, "fusion_lon": 0.0, "is_reserved": 0, "is_disabled": 0, "fusion_lat": 0.0, "type": "electric_scooter", "name": "d899dcddc0ddd161b713ed2e97829ec0", "lat": 38.91548266666667, "bike_id": "d899dcddc0ddd161b713ed2e97829ec0"}, {"lon": -77.03444366666666, "rental_uris": {"android": "https://dc.lft.to/lastmile_qr_scan", "ios": "https://dc.lft.to/lastmile_qr_scan"}, "fusion_lon": 0.0, "is_reserved": 0, "is_disabled": 0, "fusion_lat": 0.0, "type": "electric_scooter", "name": "f5fd604dc009c0cfa36a6da6afe8de1a", "lat": 38.903799166666666, "bike_id": "f5fd604dc009c0cfa36a6da6afe8de1a"}, {"lon": -77.00291333333334, "rental_uris": {"android": "https://dc.lft.to/lastmile_qr_scan", "ios": "https://dc.lft.to/lastmile_qr_scan"}, "fusion_lon": 0.0, "is_reserved": 0, "is_disabled": 0, "fusion_lat": 0.0, "type": "electric_scooter", "name": "fd7bfaee8b8f18e1495c967fa81a3185", "lat": 38.89199283333333, "bike_id": "fd7bfaee8b8f18e1495c967fa81a3185"}, {"lon": -77.04358366666666, "rental_uris": {"android": "https://dc.lft.to/lastmile_qr_scan", "ios": "https://dc.lft.to/lastmile_qr_scan"}, "fusion_lon": 0.0, "is_reserved": 0, "is_disabled": 0, "fusion_lat": 0.0, "type": "electric_scooter", "name": "0c5c2680b59af562078d3836cf285af8", "lat": 38.902727, "bike_id": "0c5c2680b59af562078d3836cf285af8"}, {"lon": -77.01130116666667, "rental_uris": {"android": "https://dc.lft.to/lastmile_qr_scan", "ios": "https://dc.lft.to/lastmile_qr_scan"}, "fusion_lon": 0.0, "is_reserved": 0, "is_disabled": 0, "fusion_lat": 0.0, "type": "electric_scooter", "name": "f910b26120b5eb5926a78953022455de", "lat": 38.895380333333335, "bike_id": "f910b26120b5eb5926a78953022455de"}, {"lon": -77.044632, "rental_uris": {"android": "https://dc.lft.to/lastmile_qr_scan", "ios": "https://dc.lft.to/lastmile_qr_scan"}, "fusion_lon": 0.0, "is_reserved": 0, "is_disabled": 0, "fusion_lat": 0.0, "type": "electric_scooter", "name": "8ae13c2fff4ffbacfc22d77250ba01b2", "lat": 38.892244166666664, "bike_id": "8ae13c2fff4ffbacfc22d77250ba01b2"}, {"lon": -77.00327766666666, "rental_uris": {"android": "https://dc.lft.to/lastmile_qr_scan", "ios": "https://dc.lft.to/lastmile_qr_scan"}, "fusion_lon": 0.0, "is_reserved": 0, "is_disabled": 0, "fusion_lat": 0.0, "type": "electric_scooter", "name": "f6d0ce1e307f5a7c811d17c75cf4158a", "lat": 38.9026225, "bike_id": "f6d0ce1e307f5a7c811d17c75cf4158a"}, {"lon": -76.97807933333333, "rental_uris": {"android": "https://dc.lft.to/lastmile_qr_scan", "ios": "https://dc.lft.to/lastmile_qr_scan"}, "fusion_lon": 0.0, "is_reserved": 0, "is_disabled": 0, "fusion_lat": 0.0, "type": "electric_scooter", "name": "c9ea53fcfe3e67d50e98a15459793e7d", "lat": 38.903052333333335, "bike_id": "c9ea53fcfe3e67d50e98a15459793e7d"}, {"lon": -77.04912766666666, "rental_uris": {"android": "https://dc.lft.to/lastmile_qr_scan", "ios": "https://dc.lft.to/lastmile_qr_scan"}, "fusion_lon": 0.0, "is_reserved": 0, "is_disabled": 0, "fusion_lat": 0.0, "type": "electric_scooter", "name": "7195868fecdf611845b0e044e35d9f4d", "lat": 38.8982645, "bike_id": "7195868fecdf611845b0e044e35d9f4d"}, {"lon": -77.04179883333333, "rental_uris": {"android": "https://dc.lft.to/lastmile_qr_scan", "ios": "https://dc.lft.to/lastmile_qr_scan"}, "fusion_lon": 0.0, "is_reserved": 0, "is_disabled": 0, "fusion_lat": 0.0, "type": "electric_scooter", "name": "78aec0fdf4d9ca097201a37b5dec1b5f", "lat": 38.899474, "bike_id": "78aec0fdf4d9ca097201a37b5dec1b5f"}, {"lon": -77.003197, "rental_uris": {"android": "https://dc.lft.to/lastmile_qr_scan", "ios": "https://dc.lft.to/lastmile_qr_scan"}, "fusion_lon": 0.0, "is_reserved": 0, "is_disabled": 0, "fusion_lat": 0.0, "type": "electric_scooter", "name": "5f43b6a4f8f58fb046d9575dac651361", "lat": 38.908489, "bike_id": "5f43b6a4f8f58fb046d9575dac651361"}, {"lon": -77.07362883333333, "rental_uris": {"android": "https://dc.lft.to/lastmile_qr_scan", "ios": "https://dc.lft.to/lastmile_qr_scan"}, "fusion_lon": 0.0, "is_reserved": 0, "is_disabled": 0, "fusion_lat": 0.0, "type": "electric_scooter", "name": "062d8081b32e11ab690075131574a07e", "lat": 38.96146, "bike_id": "062d8081b32e11ab690075131574a07e"}, {"lon": -77.03275433333333, "rental_uris": {"android": "https://dc.lft.to/lastmile_qr_scan", "ios": "https://dc.lft.to/lastmile_qr_scan"}, "fusion_lon": 0.0, "is_reserved": 0, "is_disabled": 0, "fusion_lat": 0.0, "type": "electric_scooter", "name": "5b1c69474c675ce93bf056e976349513", "lat": 38.932557333333335, "bike_id": "5b1c69474c675ce93bf056e976349513"}, {"lon": -77.04864866666667, "rental_uris": {"android": "https://dc.lft.to/lastmile_qr_scan", "ios": "https://dc.lft.to/lastmile_qr_scan"}, "fusion_lon": 0.0, "is_reserved": 0, "is_disabled": 0, "fusion_lat": 0.0, "type": "electric_scooter", "name": "55baaa32143bfd34ee7edc1e9788e212", "lat": 38.91523266666667, "bike_id": "55baaa32143bfd34ee7edc1e9788e212"}, {"lon": -77.04820283333333, "rental_uris": {"android": "https://dc.lft.to/lastmile_qr_scan", "ios": "https://dc.lft.to/lastmile_qr_scan"}, "fusion_lon": 0.0, "is_reserved": 0, "is_disabled": 0, "fusion_lat": 0.0, "type": "electric_scooter", "name": "2d386d4a769d7bcc0d2c5319053d0d78", "lat": 38.90507783333334, "bike_id": "2d386d4a769d7bcc0d2c5319053d0d78"}, {"lon": -77.09057916666667, "rental_uris": {"android": "https://dc.lft.to/lastmile_qr_scan", "ios": "https://dc.lft.to/lastmile_qr_scan"}, "fusion_lon": 0.0, "is_reserved": 0, "is_disabled": 0, "fusion_lat": 0.0, "type": "electric_scooter", "name": "12bc3b6dacd50916b876cfaa4383ac8c", "lat": 38.93444066666667, "bike_id": "12bc3b6dacd50916b876cfaa4383ac8c"}, {"lon": -77.00334616666666, "rental_uris": {"android": "https://dc.lft.to/lastmile_qr_scan", "ios": "https://dc.lft.to/lastmile_qr_scan"}, "fusion_lon": 0.0, "is_reserved": 0, "is_disabled": 0, "fusion_lat": 0.0, "type": "electric_scooter", "name": "ab4aa6665ee3e20c2e982a2f89dc40ae", "lat": 38.89722966666667, "bike_id": "ab4aa6665ee3e20c2e982a2f89dc40ae"}, {"lon": -77.05058016666666, "rental_uris": {"android": "https://dc.lft.to/lastmile_qr_scan", "ios": "https://dc.lft.to/lastmile_qr_scan"}, "fusion_lon": 0.0, "is_reserved": 0, "is_disabled": 0, "fusion_lat": 0.0, "type": "electric_scooter", "name": "64eea469ded847729d1ea16c8fc4bf58", "lat": 38.90067333333333, "bike_id": "64eea469ded847729d1ea16c8fc4bf58"}, {"lon": -77.23414216666667, "rental_uris": {"android": "https://dc.lft.to/lastmile_qr_scan", "ios": "https://dc.lft.to/lastmile_qr_scan"}, "fusion_lon": 0.0, "is_reserved": 0, "is_disabled": 0, "fusion_lat": 0.0, "type": "electric_bike", "name": "ef860444fc5caa5b367ac95dd8acc71a", "lat": 38.87576633333333, "bike_id": "ef860444fc5caa5b367ac95dd8acc71a"}, {"lon": -77.00314133333333, "rental_uris": {"android": "https://dc.lft.to/lastmile_qr_scan", "ios": "https://dc.lft.to/lastmile_qr_scan"}, "fusion_lon": 0.0, "is_reserved": 0, "is_disabled": 0, "fusion_lat": 0.0, "type": "electric_scooter", "name": "c98097e7147034166b578254211f7170", "lat": 38.92352966666667, "bike_id": "c98097e7147034166b578254211f7170"}, {"lon": -77.04623183333334, "rental_uris": {"android": "https://dc.lft.to/lastmile_qr_scan", "ios": "https://dc.lft.to/lastmile_qr_scan"}, "fusion_lon": 0.0, "is_reserved": 0, "is_disabled": 0, "fusion_lat": 0.0, "type": "electric_scooter", "name": "6a01c06fa09927d7104a1f98607b00e6", "lat": 38.902278, "bike_id": "6a01c06fa09927d7104a1f98607b00e6"}, {"lon": -77.05519116666666, "rental_uris": {"android": "https://dc.lft.to/lastmile_qr_scan", "ios": "https://dc.lft.to/lastmile_qr_scan"}, "fusion_lon": 0.0, "is_reserved": 0, "is_disabled": 0, "fusion_lat": 0.0, "type": "electric_scooter", "name": "fe75bd35cf041dc7878b3300819d4543", "lat": 38.89732933333333, "bike_id": "fe75bd35cf041dc7878b3300819d4543"}, {"lon": -77.02593416666667, "rental_uris": {"android": "https://dc.lft.to/lastmile_qr_scan", "ios": "https://dc.lft.to/lastmile_qr_scan"}, "fusion_lon": 0.0, "is_reserved": 0, "is_disabled": 0, "fusion_lat": 0.0, "type": "electric_scooter", "name": "4f7c0a348e6237c819d7b60c7f161430", "lat": 38.917229666666664, "bike_id": "4f7c0a348e6237c819d7b60c7f161430"}, {"lon": -77.02175566666666, "rental_uris": {"android": "https://dc.lft.to/lastmile_qr_scan", "ios": "https://dc.lft.to/lastmile_qr_scan"}, "fusion_lon": 0.0, "is_reserved": 0, "is_disabled": 0, "fusion_lat": 0.0, "type": "electric_scooter", "name": "2249e7ad4dc635fcb0dcbabeb585a795", "lat": 38.88735466666667, "bike_id": "2249e7ad4dc635fcb0dcbabeb585a795"}, {"lon": -76.98244866666667, "rental_uris": {"android": "https://dc.lft.to/lastmile_qr_scan", "ios": "https://dc.lft.to/lastmile_qr_scan"}, "fusion_lon": 0.0, "is_reserved": 0, "is_disabled": 0, "fusion_lat": 0.0, "type": "electric_bike", "name": "6fac11846a53393f76a54520e2e6deb6", "lat": 38.953237, "bike_id": "6fac11846a53393f76a54520e2e6deb6"}, {"lon": -76.93430066666667, "rental_uris": {"android": "https://dc.lft.to/lastmile_qr_scan", "ios": "https://dc.lft.to/lastmile_qr_scan"}, "fusion_lon": 0.0, "is_reserved": 0, "is_disabled": 0, "fusion_lat": 0.0, "type": "electric_scooter", "name": "328714cff6b03ff28e85fc4c4e5c3d67", "lat": 38.893472333333335, "bike_id": "328714cff6b03ff28e85fc4c4e5c3d67"}, {"lon": -77.024969, "rental_uris": {"android": "https://dc.lft.to/lastmile_qr_scan", "ios": "https://dc.lft.to/lastmile_qr_scan"}, "fusion_lon": 0.0, "is_reserved": 0, "is_disabled": 0, "fusion_lat": 0.0, "type": "electric_scooter", "name": "b0c1a446504c6edd758fdff909410ad1", "lat": 38.930404, "bike_id": "b0c1a446504c6edd758fdff909410ad1"}, {"lon": -77.03756433333334, "rental_uris": {"android": "https://dc.lft.to/lastmile_qr_scan", "ios": "https://dc.lft.to/lastmile_qr_scan"}, "fusion_lon": 0.0, "is_reserved": 0, "is_disabled": 0, "fusion_lat": 0.0, "type": "electric_scooter", "name": "2513b79c89863bf616c016248462d26d", "lat": 38.9358765, "bike_id": "2513b79c89863bf616c016248462d26d"}, {"lon": -77.03191233333334, "rental_uris": {"android": "https://dc.lft.to/lastmile_qr_scan", "ios": "https://dc.lft.to/lastmile_qr_scan"}, "fusion_lon": 0.0, "is_reserved": 0, "is_disabled": 0, "fusion_lat": 0.0, "type": "electric_scooter", "name": "6e1da64a2f1f35ab14631e52f0707543", "lat": 38.883996333333336, "bike_id": "6e1da64a2f1f35ab14631e52f0707543"}, {"lon": -77.04390483333333, "rental_uris": {"android": "https://dc.lft.to/lastmile_qr_scan", "ios": "https://dc.lft.to/lastmile_qr_scan"}, "fusion_lon": 0.0, "is_reserved": 0, "is_disabled": 0, "fusion_lat": 0.0, "type": "electric_scooter", "name": "8a8b8dd4a41b3222b6e3a5d0945331a4", "lat": 38.897304166666665, "bike_id": "8a8b8dd4a41b3222b6e3a5d0945331a4"}, {"lon": -77.03054566666667, "rental_uris": {"android": "https://dc.lft.to/lastmile_qr_scan", "ios": "https://dc.lft.to/lastmile_qr_scan"}, "fusion_lon": 0.0, "is_reserved": 0, "is_disabled": 0, "fusion_lat": 0.0, "type": "electric_bike", "name": "a836131c8340dddd53fa67b07f85c8a1", "lat": 38.959586, "bike_id": "a836131c8340dddd53fa67b07f85c8a1"}, {"lon": -76.98339133333333, "rental_uris": {"android": "https://dc.lft.to/lastmile_qr_scan", "ios": "https://dc.lft.to/lastmile_qr_scan"}, "fusion_lon": 0.0, "is_reserved": 0, "is_disabled": 0, "fusion_lat": 0.0, "type": "electric_scooter", "name": "78964547f94c25b3e8f6337e32087e2b", "lat": 38.8954575, "bike_id": "78964547f94c25b3e8f6337e32087e2b"}, {"lon": -76.95757966666666, "rental_uris": {"android": "https://dc.lft.to/lastmile_qr_scan", "ios": "https://dc.lft.to/lastmile_qr_scan"}, "fusion_lon": 0.0, "is_reserved": 0, "is_disabled": 0, "fusion_lat": 0.0, "type": "electric_scooter", "name": "c489206a14efd557c8086ca6e299a1e5", "lat": 38.8842825, "bike_id": "c489206a14efd557c8086ca6e299a1e5"}, {"lon": -77.04813766666666, "rental_uris": {"android": "https://dc.lft.to/lastmile_qr_scan", "ios": "https://dc.lft.to/lastmile_qr_scan"}, "fusion_lon": 0.0, "is_reserved": 0, "is_disabled": 0, "fusion_lat": 0.0, "type": "electric_scooter", "name": "50996150dd91bae4ed05fb39cc8958ba", "lat": 38.905001166666665, "bike_id": "50996150dd91bae4ed05fb39cc8958ba"}, {"lon": -77.024241, "rental_uris": {"android": "https://dc.lft.to/lastmile_qr_scan", "ios": "https://dc.lft.to/lastmile_qr_scan"}, "fusion_lon": 0.0, "is_reserved": 0, "is_disabled": 0, "fusion_lat": 0.0, "type": "electric_scooter", "name": "87460b509f4a1f3684e7328adc869638", "lat": 38.967965166666666, "bike_id": "87460b509f4a1f3684e7328adc869638"}, {"lon": -76.99653466666666, "rental_uris": {"android": "https://dc.lft.to/lastmile_qr_scan", "ios": "https://dc.lft.to/lastmile_qr_scan"}, "fusion_lon": 0.0, "is_reserved": 0, "is_disabled": 0, "fusion_lat": 0.0, "type": "electric_bike", "name": "d20dfc3d8aacbeacb2d873c187b7d650", "lat": 38.838337, "bike_id": "d20dfc3d8aacbeacb2d873c187b7d650"}, {"lon": -77.03349016666667, "rental_uris": {"android": "https://dc.lft.to/lastmile_qr_scan", "ios": "https://dc.lft.to/lastmile_qr_scan"}, "fusion_lon": 0.0, "is_reserved": 0, "is_disabled": 0, "fusion_lat": 0.0, "type": "electric_scooter", "name": "0ee8005fdfb24a9a1b4392bc2e432c0e", "lat": 38.892157833333336, "bike_id": "0ee8005fdfb24a9a1b4392bc2e432c0e"}, {"lon": -76.9856745, "rental_uris": {"android": "https://dc.lft.to/lastmile_qr_scan", "ios": "https://dc.lft.to/lastmile_qr_scan"}, "fusion_lon": 0.0, "is_reserved": 0, "is_disabled": 0, "fusion_lat": 0.0, "type": "electric_bike", "name": "6b1a7edc70cdbe900901567e711c5498", "lat": 38.914739, "bike_id": "6b1a7edc70cdbe900901567e711c5498"}, {"lon": -77.030488, "rental_uris": {"android": "https://dc.lft.to/lastmile_qr_scan", "ios": "https://dc.lft.to/lastmile_qr_scan"}, "fusion_lon": 0.0, "is_reserved": 0, "is_disabled": 0, "fusion_lat": 0.0, "type": "electric_scooter", "name": "439b21e1b7f6e3b3a83e35e215466818", "lat": 38.913306666666664, "bike_id": "439b21e1b7f6e3b3a83e35e215466818"}, {"lon": -77.02825183333333, "rental_uris": {"android": "https://dc.lft.to/lastmile_qr_scan", "ios": "https://dc.lft.to/lastmile_qr_scan"}, "fusion_lon": 0.0, "is_reserved": 0, "is_disabled": 0, "fusion_lat": 0.0, "type": "electric_scooter", "name": "d3ac67d9d8a0459d74fa62e1576b3694", "lat": 38.887306, "bike_id": "d3ac67d9d8a0459d74fa62e1576b3694"}, {"lon": -77.0211505, "rental_uris": {"android": "https://dc.lft.to/lastmile_qr_scan", "ios": "https://dc.lft.to/lastmile_qr_scan"}, "fusion_lon": 0.0, "is_reserved": 0, "is_disabled": 0, "fusion_lat": 0.0, "type": "electric_scooter", "name": "62c55e5b72d3cb9066183603f37c75a9", "lat": 38.922368, "bike_id": "62c55e5b72d3cb9066183603f37c75a9"}, {"lon": -77.02794033333333, "rental_uris": {"android": "https://dc.lft.to/lastmile_qr_scan", "ios": "https://dc.lft.to/lastmile_qr_scan"}, "fusion_lon": 0.0, "is_reserved": 0, "is_disabled": 0, "fusion_lat": 0.0, "type": "electric_scooter", "name": "5757b7cee31b9cc6158ec19a23382c9f", "lat": 38.941796, "bike_id": "5757b7cee31b9cc6158ec19a23382c9f"}, {"lon": -77.032425, "rental_uris": {"android": "https://dc.lft.to/lastmile_qr_scan", "ios": "https://dc.lft.to/lastmile_qr_scan"}, "fusion_lon": 0.0, "is_reserved": 0, "is_disabled": 0, "fusion_lat": 0.0, "type": "electric_scooter", "name": "7c24afaa3a1988f4369bcfee4ad6b6fb", "lat": 38.929019333333336, "bike_id": "7c24afaa3a1988f4369bcfee4ad6b6fb"}, {"lon": -77.044775, "rental_uris": {"android": "https://dc.lft.to/lastmile_qr_scan", "ios": "https://dc.lft.to/lastmile_qr_scan"}, "fusion_lon": 0.0, "is_reserved": 0, "is_disabled": 0, "fusion_lat": 0.0, "type": "electric_scooter", "name": "449deb9df9f16393d01815ebb64f5726", "lat": 38.9056775, "bike_id": "449deb9df9f16393d01815ebb64f5726"}, {"lon": -77.040746, "rental_uris": {"android": "https://dc.lft.to/lastmile_qr_scan", "ios": "https://dc.lft.to/lastmile_qr_scan"}, "fusion_lon": 0.0, "is_reserved": 0, "is_disabled": 0, "fusion_lat": 0.0, "type": "electric_scooter", "name": "b531852ca81a0bc3d4276f5fff385f42", "lat": 38.90382683333333, "bike_id": "b531852ca81a0bc3d4276f5fff385f42"}, {"lon": -77.02759983333333, "rental_uris": {"android": "https://dc.lft.to/lastmile_qr_scan", "ios": "https://dc.lft.to/lastmile_qr_scan"}, "fusion_lon": 0.0, "is_reserved": 0, "is_disabled": 0, "fusion_lat": 0.0, "type": "electric_scooter", "name": "01c626c7b3a736aea1d95ed385b0cec4", "lat": 38.95615083333333, "bike_id": "01c626c7b3a736aea1d95ed385b0cec4"}, {"lon": -77.048695, "rental_uris": {"android": "https://dc.lft.to/lastmile_qr_scan", "ios": "https://dc.lft.to/lastmile_qr_scan"}, "fusion_lon": 0.0, "is_reserved": 0, "is_disabled": 0, "fusion_lat": 0.0, "type": "electric_scooter", "name": "6a4d5056dc5b6a37555aabcdbf55b35e", "lat": 38.898333666666666, "bike_id": "6a4d5056dc5b6a37555aabcdbf55b35e"}, {"lon": -77.07396833333334, "rental_uris": {"android": "https://dc.lft.to/lastmile_qr_scan", "ios": "https://dc.lft.to/lastmile_qr_scan"}, "fusion_lon": 0.0, "is_reserved": 0, "is_disabled": 0, "fusion_lat": 0.0, "type": "electric_scooter", "name": "0a184b714f9fa8bb88f52df33637c2cb", "lat": 38.91020116666667, "bike_id": "0a184b714f9fa8bb88f52df33637c2cb"}, {"lon": -77.04674416666667, "rental_uris": {"android": "https://dc.lft.to/lastmile_qr_scan", "ios": "https://dc.lft.to/lastmile_qr_scan"}, "fusion_lon": 0.0, "is_reserved": 0, "is_disabled": 0, "fusion_lat": 0.0, "type": "electric_scooter", "name": "1992dea97b68c75c2a02bbd90eb532aa", "lat": 38.897263333333335, "bike_id": "1992dea97b68c75c2a02bbd90eb532aa"}, {"lon": -77.01143816666666, "rental_uris": {"android": "https://dc.lft.to/lastmile_qr_scan", "ios": "https://dc.lft.to/lastmile_qr_scan"}, "fusion_lon": 0.0, "is_reserved": 0, "is_disabled": 0, "fusion_lat": 0.0, "type": "electric_scooter", "name": "75b2e14bc2ed0e5aa29b1fcb76ec043b", "lat": 38.883309, "bike_id": "75b2e14bc2ed0e5aa29b1fcb76ec043b"}, {"lon": -77.07966133333333, "rental_uris": {"android": "https://dc.lft.to/lastmile_qr_scan", "ios": "https://dc.lft.to/lastmile_qr_scan"}, "fusion_lon": 0.0, "is_reserved": 0, "is_disabled": 0, "fusion_lat": 0.0, "type": "electric_bike", "name": "c475ef9614384562116bee2939330702", "lat": 38.947568, "bike_id": "c475ef9614384562116bee2939330702"}, {"lon": -77.040205, "rental_uris": {"android": "https://dc.lft.to/lastmile_qr_scan", "ios": "https://dc.lft.to/lastmile_qr_scan"}, "fusion_lon": 0.0, "is_reserved": 0, "is_disabled": 0, "fusion_lat": 0.0, "type": "electric_scooter", "name": "8d1e85916a55f40e4b4d62fe73c168ed", "lat": 38.899237166666666, "bike_id": "8d1e85916a55f40e4b4d62fe73c168ed"}, {"lon": -77.039088, "rental_uris": {"android": "https://dc.lft.to/lastmile_qr_scan", "ios": "https://dc.lft.to/lastmile_qr_scan"}, "fusion_lon": 0.0, "is_reserved": 0, "is_disabled": 0, "fusion_lat": 0.0, "type": "electric_scooter", "name": "f905e2f3c9b12b5addf70e78dfafc70f", "lat": 38.91689, "bike_id": "f905e2f3c9b12b5addf70e78dfafc70f"}, {"lon": -77.03677633333334, "rental_uris": {"android": "https://dc.lft.to/lastmile_qr_scan", "ios": "https://dc.lft.to/lastmile_qr_scan"}, "fusion_lon": 0.0, "is_reserved": 0, "is_disabled": 0, "fusion_lat": 0.0, "type": "electric_scooter", "name": "8b38631af9c9d80b0ff3c99fda896fbc", "lat": 38.902689333333335, "bike_id": "8b38631af9c9d80b0ff3c99fda896fbc"}, {"lon": -77.04493766666667, "rental_uris": {"android": "https://dc.lft.to/lastmile_qr_scan", "ios": "https://dc.lft.to/lastmile_qr_scan"}, "fusion_lon": 0.0, "is_reserved": 0, "is_disabled": 0, "fusion_lat": 0.0, "type": "electric_bike", "name": "dcf28f6df9bd08eb6e75f8a2090dc029", "lat": 39.014107, "bike_id": "dcf28f6df9bd08eb6e75f8a2090dc029"}, {"lon": -77.04279933333333, "rental_uris": {"android": "https://dc.lft.to/lastmile_qr_scan", "ios": "https://dc.lft.to/lastmile_qr_scan"}, "fusion_lon": 0.0, "is_reserved": 0, "is_disabled": 0, "fusion_lat": 0.0, "type": "electric_scooter", "name": "78063ffa7d7f4b68995b32e6b460bde2", "lat": 38.93420616666667, "bike_id": "78063ffa7d7f4b68995b32e6b460bde2"}, {"lon": -77.04166766666667, "rental_uris": {"android": "https://dc.lft.to/lastmile_qr_scan", "ios": "https://dc.lft.to/lastmile_qr_scan"}, "fusion_lon": 0.0, "is_reserved": 0, "is_disabled": 0, "fusion_lat": 0.0, "type": "electric_scooter", "name": "046eb64353d8444b3f22116c71d383bf", "lat": 38.9079645, "bike_id": "046eb64353d8444b3f22116c71d383bf"}, {"lon": -77.0006415, "rental_uris": {"android": "https://dc.lft.to/lastmile_qr_scan", "ios": "https://dc.lft.to/lastmile_qr_scan"}, "fusion_lon": 0.0, "is_reserved": 0, "is_disabled": 0, "fusion_lat": 0.0, "type": "electric_scooter", "name": "cef585ad4c54b427bd6c7f5ad6c29d97", "lat": 38.9239465, "bike_id": "cef585ad4c54b427bd6c7f5ad6c29d97"}, {"lon": -77.05392883333333, "rental_uris": {"android": "https://dc.lft.to/lastmile_qr_scan", "ios": "https://dc.lft.to/lastmile_qr_scan"}, "fusion_lon": 0.0, "is_reserved": 0, "is_disabled": 0, "fusion_lat": 0.0, "type": "electric_scooter", "name": "32fce6d9e5259d890156db94272f2f8e", "lat": 38.90381716666667, "bike_id": "32fce6d9e5259d890156db94272f2f8e"}, {"lon": -77.0327845, "rental_uris": {"android": "https://dc.lft.to/lastmile_qr_scan", "ios": "https://dc.lft.to/lastmile_qr_scan"}, "fusion_lon": 0.0, "is_reserved": 0, "is_disabled": 0, "fusion_lat": 0.0, "type": "electric_scooter", "name": "f79f4042cfd943c837c095cf2134abd5", "lat": 38.93797333333333, "bike_id": "f79f4042cfd943c837c095cf2134abd5"}, {"lon": -77.00357383333333, "rental_uris": {"android": "https://dc.lft.to/lastmile_qr_scan", "ios": "https://dc.lft.to/lastmile_qr_scan"}, "fusion_lon": 0.0, "is_reserved": 0, "is_disabled": 0, "fusion_lat": 0.0, "type": "electric_scooter", "name": "984f2a42f42a3d627b1ece2ba6b180fc", "lat": 38.89632983333333, "bike_id": "984f2a42f42a3d627b1ece2ba6b180fc"}, {"lon": -77.03507466666667, "rental_uris": {"android": "https://dc.lft.to/lastmile_qr_scan", "ios": "https://dc.lft.to/lastmile_qr_scan"}, "fusion_lon": 0.0, "is_reserved": 0, "is_disabled": 0, "fusion_lat": 0.0, "type": "electric_scooter", "name": "8d629306898df142e1b4da7572cec40e", "lat": 38.9233785, "bike_id": "8d629306898df142e1b4da7572cec40e"}, {"lon": -77.01367483333334, "rental_uris": {"android": "https://dc.lft.to/lastmile_qr_scan", "ios": "https://dc.lft.to/lastmile_qr_scan"}, "fusion_lon": 0.0, "is_reserved": 0, "is_disabled": 0, "fusion_lat": 0.0, "type": "electric_scooter", "name": "08747a6d0151a5bf21e026445e324c74", "lat": 38.928854, "bike_id": "08747a6d0151a5bf21e026445e324c74"}, {"lon": -77.03940966666667, "rental_uris": {"android": "https://dc.lft.to/lastmile_qr_scan", "ios": "https://dc.lft.to/lastmile_qr_scan"}, "fusion_lon": 0.0, "is_reserved": 0, "is_disabled": 0, "fusion_lat": 0.0, "type": "electric_scooter", "name": "ecea602bc876bf7ec7fa60fd179a4656", "lat": 38.90163966666667, "bike_id": "ecea602bc876bf7ec7fa60fd179a4656"}, {"lon": -77.02725683333334, "rental_uris": {"android": "https://dc.lft.to/lastmile_qr_scan", "ios": "https://dc.lft.to/lastmile_qr_scan"}, "fusion_lon": 0.0, "is_reserved": 0, "is_disabled": 0, "fusion_lat": 0.0, "type": "electric_scooter", "name": "3dc97de6b5fc355365909fd5d4d604a2", "lat": 38.940882, "bike_id": "3dc97de6b5fc355365909fd5d4d604a2"}, {"lon": -77.04100783333334, "rental_uris": {"android": "https://dc.lft.to/lastmile_qr_scan", "ios": "https://dc.lft.to/lastmile_qr_scan"}, "fusion_lon": 0.0, "is_reserved": 0, "is_disabled": 0, "fusion_lat": 0.0, "type": "electric_scooter", "name": "bf3018f5611c49d0b90f0aa7042ab3cf", "lat": 38.9012945, "bike_id": "bf3018f5611c49d0b90f0aa7042ab3cf"}, {"lon": -77.04155766666666, "rental_uris": {"android": "https://dc.lft.to/lastmile_qr_scan", "ios": "https://dc.lft.to/lastmile_qr_scan"}, "fusion_lon": 0.0, "is_reserved": 0, "is_disabled": 0, "fusion_lat": 0.0, "type": "electric_scooter", "name": "784c8eacf3f6278a0eb9d85f283650df", "lat": 38.907094666666666, "bike_id": "784c8eacf3f6278a0eb9d85f283650df"}, {"lon": -76.96979883333333, "rental_uris": {"android": "https://dc.lft.to/lastmile_qr_scan", "ios": "https://dc.lft.to/lastmile_qr_scan"}, "fusion_lon": 0.0, "is_reserved": 0, "is_disabled": 0, "fusion_lat": 0.0, "type": "electric_scooter", "name": "c6befc67bdf575150bac82e5eda3c3c8", "lat": 38.8738495, "bike_id": "c6befc67bdf575150bac82e5eda3c3c8"}, {"lon": -77.0806535, "rental_uris": {"android": "https://dc.lft.to/lastmile_qr_scan", "ios": "https://dc.lft.to/lastmile_qr_scan"}, "fusion_lon": 0.0, "is_reserved": 0, "is_disabled": 0, "fusion_lat": 0.0, "type": "electric_scooter", "name": "5cad7590db2218f5accd3935ac275ff8", "lat": 38.95600066666667, "bike_id": "5cad7590db2218f5accd3935ac275ff8"}, {"lon": -77.027921, "rental_uris": {"android": "https://dc.lft.to/lastmile_qr_scan", "ios": "https://dc.lft.to/lastmile_qr_scan"}, "fusion_lon": 0.0, "is_reserved": 0, "is_disabled": 0, "fusion_lat": 0.0, "type": "electric_scooter", "name": "2d2244f962ccb124cd4608ffe797c66d", "lat": 38.953959166666664, "bike_id": "2d2244f962ccb124cd4608ffe797c66d"}, {"lon": -77.03175966666667, "rental_uris": {"android": "https://dc.lft.to/lastmile_qr_scan", "ios": "https://dc.lft.to/lastmile_qr_scan"}, "fusion_lon": 0.0, "is_reserved": 0, "is_disabled": 0, "fusion_lat": 0.0, "type": "electric_bike", "name": "3531e5a8ded1320a00fb673681116fc6", "lat": 38.91650933333333, "bike_id": "3531e5a8ded1320a00fb673681116fc6"}, {"lon": -76.95752766666666, "rental_uris": {"android": "https://dc.lft.to/lastmile_qr_scan", "ios": "https://dc.lft.to/lastmile_qr_scan"}, "fusion_lon": 0.0, "is_reserved": 0, "is_disabled": 0, "fusion_lat": 0.0, "type": "electric_scooter", "name": "5b4fc2ab0cb6854ea7de89fbf18605b2", "lat": 38.884239, "bike_id": "5b4fc2ab0cb6854ea7de89fbf18605b2"}, {"lon": -77.04349416666666, "rental_uris": {"android": "https://dc.lft.to/lastmile_qr_scan", "ios": "https://dc.lft.to/lastmile_qr_scan"}, "fusion_lon": 0.0, "is_reserved": 0, "is_disabled": 0, "fusion_lat": 0.0, "type": "electric_scooter", "name": "888374597e77913bc80ccf38468af5ad", "lat": 38.910472, "bike_id": "888374597e77913bc80ccf38468af5ad"}, {"lon": -77.05065766666667, "rental_uris": {"android": "https://dc.lft.to/lastmile_qr_scan", "ios": "https://dc.lft.to/lastmile_qr_scan"}, "fusion_lon": 0.0, "is_reserved": 0, "is_disabled": 0, "fusion_lat": 0.0, "type": "electric_scooter", "name": "307efc1bb579b639d687cdd6a9e9562c", "lat": 38.91629116666667, "bike_id": "307efc1bb579b639d687cdd6a9e9562c"}, {"lon": -77.021644, "rental_uris": {"android": "https://dc.lft.to/lastmile_qr_scan", "ios": "https://dc.lft.to/lastmile_qr_scan"}, "fusion_lon": 0.0, "is_reserved": 0, "is_disabled": 0, "fusion_lat": 0.0, "type": "electric_scooter", "name": "79d41f7942cf2a4e0171e344fc27e055", "lat": 38.896964, "bike_id": "79d41f7942cf2a4e0171e344fc27e055"}, {"lon": -76.9773655, "rental_uris": {"android": "https://dc.lft.to/lastmile_qr_scan", "ios": "https://dc.lft.to/lastmile_qr_scan"}, "fusion_lon": 0.0, "is_reserved": 0, "is_disabled": 0, "fusion_lat": 0.0, "type": "electric_bike", "name": "116ac74cbb421411d0bb805e4d5f5eb3", "lat": 38.86512366666667, "bike_id": "116ac74cbb421411d0bb805e4d5f5eb3"}, {"lon": -77.01368416666666, "rental_uris": {"android": "https://dc.lft.to/lastmile_qr_scan", "ios": "https://dc.lft.to/lastmile_qr_scan"}, "fusion_lon": 0.0, "is_reserved": 0, "is_disabled": 0, "fusion_lat": 0.0, "type": "electric_scooter", "name": "a012a3673546cc43a5b33a63a3f90609", "lat": 38.928691, "bike_id": "a012a3673546cc43a5b33a63a3f90609"}, {"lon": -77.044786, "rental_uris": {"android": "https://dc.lft.to/lastmile_qr_scan", "ios": "https://dc.lft.to/lastmile_qr_scan"}, "fusion_lon": 0.0, "is_reserved": 0, "is_disabled": 0, "fusion_lat": 0.0, "type": "electric_scooter", "name": "b0d04bb4db462e58eb021b9ca466b873", "lat": 38.89906083333333, "bike_id": "b0d04bb4db462e58eb021b9ca466b873"}, {"lon": -77.0296315, "rental_uris": {"android": "https://dc.lft.to/lastmile_qr_scan", "ios": "https://dc.lft.to/lastmile_qr_scan"}, "fusion_lon": 0.0, "is_reserved": 0, "is_disabled": 0, "fusion_lat": 0.0, "type": "electric_scooter", "name": "7416c4905103e3305e07cecf2e123b01", "lat": 38.911672333333335, "bike_id": "7416c4905103e3305e07cecf2e123b01"}, {"lon": -77.02594866666666, "rental_uris": {"android": "https://dc.lft.to/lastmile_qr_scan", "ios": "https://dc.lft.to/lastmile_qr_scan"}, "fusion_lon": 0.0, "is_reserved": 0, "is_disabled": 0, "fusion_lat": 0.0, "type": "electric_scooter", "name": "ce88d1d3dc71e7ffc4e1ff3f3d28ae9c", "lat": 38.8985685, "bike_id": "ce88d1d3dc71e7ffc4e1ff3f3d28ae9c"}, {"lon": -77.0610005, "rental_uris": {"android": "https://dc.lft.to/lastmile_qr_scan", "ios": "https://dc.lft.to/lastmile_qr_scan"}, "fusion_lon": 0.0, "is_reserved": 0, "is_disabled": 0, "fusion_lat": 0.0, "type": "electric_scooter", "name": "85f56516a8f472b82fccd086c3056ffc", "lat": 38.90235783333333, "bike_id": "85f56516a8f472b82fccd086c3056ffc"}, {"lon": -77.02189966666667, "rental_uris": {"android": "https://dc.lft.to/lastmile_qr_scan", "ios": "https://dc.lft.to/lastmile_qr_scan"}, "fusion_lon": 0.0, "is_reserved": 0, "is_disabled": 0, "fusion_lat": 0.0, "type": "electric_scooter", "name": "426d203776f69e7a009a7390e8be25a5", "lat": 38.919532833333335, "bike_id": "426d203776f69e7a009a7390e8be25a5"}, {"lon": -76.95820966666666, "rental_uris": {"android": "https://dc.lft.to/lastmile_qr_scan", "ios": "https://dc.lft.to/lastmile_qr_scan"}, "fusion_lon": 0.0, "is_reserved": 0, "is_disabled": 0, "fusion_lat": 0.0, "type": "electric_bike", "name": "6d2d178131095616af16a24e010d97c7", "lat": 38.91998616666667, "bike_id": "6d2d178131095616af16a24e010d97c7"}, {"lon": -77.03170466666667, "rental_uris": {"android": "https://dc.lft.to/lastmile_qr_scan", "ios": "https://dc.lft.to/lastmile_qr_scan"}, "fusion_lon": 0.0, "is_reserved": 0, "is_disabled": 0, "fusion_lat": 0.0, "type": "electric_scooter", "name": "f8b75f1e4549373ee5f1bcb571056c7e", "lat": 38.905003666666666, "bike_id": "f8b75f1e4549373ee5f1bcb571056c7e"}, {"lon": -76.99310666666666, "rental_uris": {"android": "https://dc.lft.to/lastmile_qr_scan", "ios": "https://dc.lft.to/lastmile_qr_scan"}, "fusion_lon": 0.0, "is_reserved": 0, "is_disabled": 0, "fusion_lat": 0.0, "type": "electric_bike", "name": "c46cbe091cf98c761ae202f375173018", "lat": 38.94631116666667, "bike_id": "c46cbe091cf98c761ae202f375173018"}, {"lon": -77.02303066666667, "rental_uris": {"android": "https://dc.lft.to/lastmile_qr_scan", "ios": "https://dc.lft.to/lastmile_qr_scan"}, "fusion_lon": 0.0, "is_reserved": 0, "is_disabled": 0, "fusion_lat": 0.0, "type": "electric_scooter", "name": "7dc308e6fbbed11b28d695078e6fb9f3", "lat": 38.91839783333333, "bike_id": "7dc308e6fbbed11b28d695078e6fb9f3"}, {"lon": -77.00335833333334, "rental_uris": {"android": "https://dc.lft.to/lastmile_qr_scan", "ios": "https://dc.lft.to/lastmile_qr_scan"}, "fusion_lon": 0.0, "is_reserved": 0, "is_disabled": 0, "fusion_lat": 0.0, "type": "electric_scooter", "name": "1ffde9a36b90c80a31c59b6a59b12ad0", "lat": 38.876563166666664, "bike_id": "1ffde9a36b90c80a31c59b6a59b12ad0"}, {"lon": -76.97984433333333, "rental_uris": {"android": "https://dc.lft.to/lastmile_qr_scan", "ios": "https://dc.lft.to/lastmile_qr_scan"}, "fusion_lon": 0.0, "is_reserved": 0, "is_disabled": 0, "fusion_lat": 0.0, "type": "electric_scooter", "name": "7a67a7482b70999debd1c41af7696497", "lat": 38.90732466666667, "bike_id": "7a67a7482b70999debd1c41af7696497"}, {"lon": -77.03240833333334, "rental_uris": {"android": "https://dc.lft.to/lastmile_qr_scan", "ios": "https://dc.lft.to/lastmile_qr_scan"}, "fusion_lon": 0.0, "is_reserved": 0, "is_disabled": 0, "fusion_lat": 0.0, "type": "electric_scooter", "name": "dc0f29de306344b6891b07afa52afa44", "lat": 38.9287235, "bike_id": "dc0f29de306344b6891b07afa52afa44"}, {"lon": -77.02722583333333, "rental_uris": {"android": "https://dc.lft.to/lastmile_qr_scan", "ios": "https://dc.lft.to/lastmile_qr_scan"}, "fusion_lon": 0.0, "is_reserved": 0, "is_disabled": 0, "fusion_lat": 0.0, "type": "electric_scooter", "name": "3e6e19191f75e5d9840dd1f2a9c52936", "lat": 38.89824016666667, "bike_id": "3e6e19191f75e5d9840dd1f2a9c52936"}, {"lon": -77.023075, "rental_uris": {"android": "https://dc.lft.to/lastmile_qr_scan", "ios": "https://dc.lft.to/lastmile_qr_scan"}, "fusion_lon": 0.0, "is_reserved": 0, "is_disabled": 0, "fusion_lat": 0.0, "type": "electric_scooter", "name": "ecf02bb75e83df2cb4d7efa3a26635fe", "lat": 38.917782333333335, "bike_id": "ecf02bb75e83df2cb4d7efa3a26635fe"}, {"lon": -77.02463983333334, "rental_uris": {"android": "https://dc.lft.to/lastmile_qr_scan", "ios": "https://dc.lft.to/lastmile_qr_scan"}, "fusion_lon": 0.0, "is_reserved": 0, "is_disabled": 0, "fusion_lat": 0.0, "type": "electric_bike", "name": "a2caa8e8968ed778bf2ebf7bcee66f6a", "lat": 38.89849533333334, "bike_id": "a2caa8e8968ed778bf2ebf7bcee66f6a"}, {"lon": -77.031498, "rental_uris": {"android": "https://dc.lft.to/lastmile_qr_scan", "ios": "https://dc.lft.to/lastmile_qr_scan"}, "fusion_lon": 0.0, "is_reserved": 0, "is_disabled": 0, "fusion_lat": 0.0, "type": "electric_scooter", "name": "b57bbfe2fc220005fe315f9d3f2d99c6", "lat": 38.899636, "bike_id": "b57bbfe2fc220005fe315f9d3f2d99c6"}, {"lon": -77.003653, "rental_uris": {"android": "https://dc.lft.to/lastmile_qr_scan", "ios": "https://dc.lft.to/lastmile_qr_scan"}, "fusion_lon": 0.0, "is_reserved": 0, "is_disabled": 0, "fusion_lat": 0.0, "type": "electric_scooter", "name": "f08c98fb9c1b2aaef39ee2ce107db252", "lat": 38.8966505, "bike_id": "f08c98fb9c1b2aaef39ee2ce107db252"}, {"lon": -77.0641705, "rental_uris": {"android": "https://dc.lft.to/lastmile_qr_scan", "ios": "https://dc.lft.to/lastmile_qr_scan"}, "fusion_lon": 0.0, "is_reserved": 0, "is_disabled": 0, "fusion_lat": 0.0, "type": "electric_scooter", "name": "4a5528a1c2f572e0797f084cc5ce0059", "lat": 38.9139905, "bike_id": "4a5528a1c2f572e0797f084cc5ce0059"}, {"lon": -77.0335565, "rental_uris": {"android": "https://dc.lft.to/lastmile_qr_scan", "ios": "https://dc.lft.to/lastmile_qr_scan"}, "fusion_lon": 0.0, "is_reserved": 0, "is_disabled": 0, "fusion_lat": 0.0, "type": "electric_scooter", "name": "c2e7763006fae3fac2670bb65df9f2b5", "lat": 38.89236, "bike_id": "c2e7763006fae3fac2670bb65df9f2b5"}, {"lon": -77.0120635, "rental_uris": {"android": "https://dc.lft.to/lastmile_qr_scan", "ios": "https://dc.lft.to/lastmile_qr_scan"}, "fusion_lon": 0.0, "is_reserved": 0, "is_disabled": 0, "fusion_lat": 0.0, "type": "electric_bike", "name": "55f2b402fc7addb3d40ad81bb4ec66a9", "lat": 38.92117366666667, "bike_id": "55f2b402fc7addb3d40ad81bb4ec66a9"}, {"lon": -77.05003, "rental_uris": {"android": "https://dc.lft.to/lastmile_qr_scan", "ios": "https://dc.lft.to/lastmile_qr_scan"}, "fusion_lon": 0.0, "is_reserved": 0, "is_disabled": 0, "fusion_lat": 0.0, "type": "electric_scooter", "name": "420efacbb62ef88f0d4d8eb1d897344a", "lat": 38.89230933333333, "bike_id": "420efacbb62ef88f0d4d8eb1d897344a"}, {"lon": -77.0358085, "rental_uris": {"android": "https://dc.lft.to/lastmile_qr_scan", "ios": "https://dc.lft.to/lastmile_qr_scan"}, "fusion_lon": 0.0, "is_reserved": 0, "is_disabled": 0, "fusion_lat": 0.0, "type": "electric_scooter", "name": "2e3a8d6903c9e62f26ad2074356af8a3", "lat": 38.902399333333335, "bike_id": "2e3a8d6903c9e62f26ad2074356af8a3"}, {"lon": -77.0354695, "rental_uris": {"android": "https://dc.lft.to/lastmile_qr_scan", "ios": "https://dc.lft.to/lastmile_qr_scan"}, "fusion_lon": 0.0, "is_reserved": 0, "is_disabled": 0, "fusion_lat": 0.0, "type": "electric_scooter", "name": "8d990fbcec2d9f7229c416f2dd892c4c", "lat": 38.93293766666667, "bike_id": "8d990fbcec2d9f7229c416f2dd892c4c"}, {"lon": -77.0646615, "rental_uris": {"android": "https://dc.lft.to/lastmile_qr_scan", "ios": "https://dc.lft.to/lastmile_qr_scan"}, "fusion_lon": 0.0, "is_reserved": 0, "is_disabled": 0, "fusion_lat": 0.0, "type": "electric_scooter", "name": "79d2e22896bbb3475cf6a431e403d9f4", "lat": 38.90496233333333, "bike_id": "79d2e22896bbb3475cf6a431e403d9f4"}, {"lon": -77.04486366666667, "rental_uris": {"android": "https://dc.lft.to/lastmile_qr_scan", "ios": "https://dc.lft.to/lastmile_qr_scan"}, "fusion_lon": 0.0, "is_reserved": 0, "is_disabled": 0, "fusion_lat": 0.0, "type": "electric_scooter", "name": "8b9575e1fdbb921e850340b875c28170", "lat": 38.9056705, "bike_id": "8b9575e1fdbb921e850340b875c28170"}, {"lon": -76.9387005, "rental_uris": {"android": "https://dc.lft.to/lastmile_qr_scan", "ios": "https://dc.lft.to/lastmile_qr_scan"}, "fusion_lon": 0.0, "is_reserved": 0, "is_disabled": 0, "fusion_lat": 0.0, "type": "electric_bike", "name": "5bb98392b70113f65ea411f2ff30fd0b", "lat": 38.95623066666667, "bike_id": "5bb98392b70113f65ea411f2ff30fd0b"}, {"lon": -77.024599, "rental_uris": {"android": "https://dc.lft.to/lastmile_qr_scan", "ios": "https://dc.lft.to/lastmile_qr_scan"}, "fusion_lon": 0.0, "is_reserved": 0, "is_disabled": 0, "fusion_lat": 0.0, "type": "electric_scooter", "name": "2f89663f40fbe9e2ec05ae14b664820b", "lat": 38.8998695, "bike_id": "2f89663f40fbe9e2ec05ae14b664820b"}, {"lon": -77.02988333333333, "rental_uris": {"android": "https://dc.lft.to/lastmile_qr_scan", "ios": "https://dc.lft.to/lastmile_qr_scan"}, "fusion_lon": 0.0, "is_reserved": 0, "is_disabled": 0, "fusion_lat": 0.0, "type": "electric_scooter", "name": "1bcb22c18dcd330ac153f5f5ed7e93c2", "lat": 38.92369583333333, "bike_id": "1bcb22c18dcd330ac153f5f5ed7e93c2"}, {"lon": -77.04771283333334, "rental_uris": {"android": "https://dc.lft.to/lastmile_qr_scan", "ios": "https://dc.lft.to/lastmile_qr_scan"}, "fusion_lon": 0.0, "is_reserved": 0, "is_disabled": 0, "fusion_lat": 0.0, "type": "electric_scooter", "name": "6c49994518c19daa78e0e194b5cc11bb", "lat": 38.897833, "bike_id": "6c49994518c19daa78e0e194b5cc11bb"}, {"lon": -77.05878983333334, "rental_uris": {"android": "https://dc.lft.to/lastmile_qr_scan", "ios": "https://dc.lft.to/lastmile_qr_scan"}, "fusion_lon": 0.0, "is_reserved": 0, "is_disabled": 0, "fusion_lat": 0.0, "type": "electric_scooter", "name": "90fee5ee8b473239158c1b16594a7f8e", "lat": 38.93626, "bike_id": "90fee5ee8b473239158c1b16594a7f8e"}, {"lon": -77.0449575, "rental_uris": {"android": "https://dc.lft.to/lastmile_qr_scan", "ios": "https://dc.lft.to/lastmile_qr_scan"}, "fusion_lon": 0.0, "is_reserved": 0, "is_disabled": 0, "fusion_lat": 0.0, "type": "electric_scooter", "name": "6cec025ed27aa087a07f830ed802be7e", "lat": 38.90866833333333, "bike_id": "6cec025ed27aa087a07f830ed802be7e"}, {"lon": -77.04643583333333, "rental_uris": {"android": "https://dc.lft.to/lastmile_qr_scan", "ios": "https://dc.lft.to/lastmile_qr_scan"}, "fusion_lon": 0.0, "is_reserved": 0, "is_disabled": 0, "fusion_lat": 0.0, "type": "electric_scooter", "name": "710a87f3ce36e9427919bf041f6facaf", "lat": 38.90374766666667, "bike_id": "710a87f3ce36e9427919bf041f6facaf"}, {"lon": -77.032861, "rental_uris": {"android": "https://dc.lft.to/lastmile_qr_scan", "ios": "https://dc.lft.to/lastmile_qr_scan"}, "fusion_lon": 0.0, "is_reserved": 0, "is_disabled": 0, "fusion_lat": 0.0, "type": "electric_scooter", "name": "cd5db91717b5d70421ff79ce4500a960", "lat": 38.93755616666667, "bike_id": "cd5db91717b5d70421ff79ce4500a960"}, {"lon": -77.041479, "rental_uris": {"android": "https://dc.lft.to/lastmile_qr_scan", "ios": "https://dc.lft.to/lastmile_qr_scan"}, "fusion_lon": 0.0, "is_reserved": 0, "is_disabled": 0, "fusion_lat": 0.0, "type": "electric_scooter", "name": "9c624342d3811ed8751168de1824327a", "lat": 38.89942, "bike_id": "9c624342d3811ed8751168de1824327a"}, {"lon": -77.02756233333334, "rental_uris": {"android": "https://dc.lft.to/lastmile_qr_scan", "ios": "https://dc.lft.to/lastmile_qr_scan"}, "fusion_lon": 0.0, "is_reserved": 0, "is_disabled": 0, "fusion_lat": 0.0, "type": "electric_scooter", "name": "1cbcac393f20c9cc8fdf09b42c3396ba", "lat": 38.927798, "bike_id": "1cbcac393f20c9cc8fdf09b42c3396ba"}, {"lon": -76.99031666666667, "rental_uris": {"android": "https://dc.lft.to/lastmile_qr_scan", "ios": "https://dc.lft.to/lastmile_qr_scan"}, "fusion_lon": 0.0, "is_reserved": 0, "is_disabled": 0, "fusion_lat": 0.0, "type": "electric_scooter", "name": "bb8c9dd7ecb703797187c8f768004e97", "lat": 38.89851816666667, "bike_id": "bb8c9dd7ecb703797187c8f768004e97"}, {"lon": -77.152597, "rental_uris": {"android": "https://dc.lft.to/lastmile_qr_scan", "ios": "https://dc.lft.to/lastmile_qr_scan"}, "fusion_lon": 0.0, "is_reserved": 0, "is_disabled": 0, "fusion_lat": 0.0, "type": "electric_bike", "name": "4c33aa6c7632a868c42765827dab889a", "lat": 39.086151, "bike_id": "4c33aa6c7632a868c42765827dab889a"}, {"lon": -77.057078, "rental_uris": {"android": "https://dc.lft.to/lastmile_qr_scan", "ios": "https://dc.lft.to/lastmile_qr_scan"}, "fusion_lon": 0.0, "is_reserved": 0, "is_disabled": 0, "fusion_lat": 0.0, "type": "electric_bike", "name": "58ba4958e5bddcff2917fc3200a9d5a7", "lat": 38.90774066666667, "bike_id": "58ba4958e5bddcff2917fc3200a9d5a7"}, {"lon": -76.98760133333333, "rental_uris": {"android": "https://dc.lft.to/lastmile_qr_scan", "ios": "https://dc.lft.to/lastmile_qr_scan"}, "fusion_lon": 0.0, "is_reserved": 0, "is_disabled": 0, "fusion_lat": 0.0, "type": "electric_bike", "name": "76b426bec5631f41380ab48b00b60ba1", "lat": 38.8576475, "bike_id": "76b426bec5631f41380ab48b00b60ba1"}, {"lon": -77.03463133333334, "rental_uris": {"android": "https://dc.lft.to/lastmile_qr_scan", "ios": "https://dc.lft.to/lastmile_qr_scan"}, "fusion_lon": 0.0, "is_reserved": 0, "is_disabled": 0, "fusion_lat": 0.0, "type": "electric_scooter", "name": "0ae6a0dd72f5ad047de2e8a86124ea92", "lat": 38.9023065, "bike_id": "0ae6a0dd72f5ad047de2e8a86124ea92"}, {"lon": -77.04244916666667, "rental_uris": {"android": "https://dc.lft.to/lastmile_qr_scan", "ios": "https://dc.lft.to/lastmile_qr_scan"}, "fusion_lon": 0.0, "is_reserved": 0, "is_disabled": 0, "fusion_lat": 0.0, "type": "electric_scooter", "name": "fab5bf2ed50eba7533e85dbf500212bf", "lat": 38.92426533333333, "bike_id": "fab5bf2ed50eba7533e85dbf500212bf"}, {"lon": -76.97332833333333, "rental_uris": {"android": "https://dc.lft.to/lastmile_qr_scan", "ios": "https://dc.lft.to/lastmile_qr_scan"}, "fusion_lon": 0.0, "is_reserved": 0, "is_disabled": 0, "fusion_lat": 0.0, "type": "electric_bike", "name": "2364a9dd53d352ca05122206171f5ebb", "lat": 38.855555833333334, "bike_id": "2364a9dd53d352ca05122206171f5ebb"}, {"lon": -77.04158033333333, "rental_uris": {"android": "https://dc.lft.to/lastmile_qr_scan", "ios": "https://dc.lft.to/lastmile_qr_scan"}, "fusion_lon": 0.0, "is_reserved": 0, "is_disabled": 0, "fusion_lat": 0.0, "type": "electric_scooter", "name": "3591a02a4b40bfd7697c62398fbec9ce", "lat": 38.9071665, "bike_id": "3591a02a4b40bfd7697c62398fbec9ce"}, {"lon": -77.03193466666667, "rental_uris": {"android": "https://dc.lft.to/lastmile_qr_scan", "ios": "https://dc.lft.to/lastmile_qr_scan"}, "fusion_lon": 0.0, "is_reserved": 0, "is_disabled": 0, "fusion_lat": 0.0, "type": "electric_scooter", "name": "dd625c0a213687924bf5d176c99deaa4", "lat": 38.930618833333334, "bike_id": "dd625c0a213687924bf5d176c99deaa4"}, {"lon": -77.03745866666667, "rental_uris": {"android": "https://dc.lft.to/lastmile_qr_scan", "ios": "https://dc.lft.to/lastmile_qr_scan"}, "fusion_lon": 0.0, "is_reserved": 0, "is_disabled": 0, "fusion_lat": 0.0, "type": "electric_scooter", "name": "828732ba0788293b6407455e2667dd11", "lat": 38.90762183333333, "bike_id": "828732ba0788293b6407455e2667dd11"}, {"lon": -77.12980016666667, "rental_uris": {"android": "https://dc.lft.to/lastmile_qr_scan", "ios": "https://dc.lft.to/lastmile_qr_scan"}, "fusion_lon": 0.0, "is_reserved": 0, "is_disabled": 0, "fusion_lat": 0.0, "type": "electric_bike", "name": "384c63e5d6a6280185e490079032678e", "lat": 38.799814, "bike_id": "384c63e5d6a6280185e490079032678e"}, {"lon": -77.041914, "rental_uris": {"android": "https://dc.lft.to/lastmile_qr_scan", "ios": "https://dc.lft.to/lastmile_qr_scan"}, "fusion_lon": 0.0, "is_reserved": 0, "is_disabled": 0, "fusion_lat": 0.0, "type": "electric_scooter", "name": "d97c56b7a7fab48ed6a151211536a52d", "lat": 38.92611466666666, "bike_id": "d97c56b7a7fab48ed6a151211536a52d"}, {"lon": -77.00763116666667, "rental_uris": {"android": "https://dc.lft.to/lastmile_qr_scan", "ios": "https://dc.lft.to/lastmile_qr_scan"}, "fusion_lon": 0.0, "is_reserved": 0, "is_disabled": 0, "fusion_lat": 0.0, "type": "electric_scooter", "name": "ed7d4e0a17acfb7d0308caaf42f54987", "lat": 38.87109366666667, "bike_id": "ed7d4e0a17acfb7d0308caaf42f54987"}, {"lon": -77.11772866666666, "rental_uris": {"android": "https://dc.lft.to/lastmile_qr_scan", "ios": "https://dc.lft.to/lastmile_qr_scan"}, "fusion_lon": 0.0, "is_reserved": 0, "is_disabled": 0, "fusion_lat": 0.0, "type": "electric_bike", "name": "7c2d00bfb7671e8abd5cf14bf91a872d", "lat": 38.81257733333333, "bike_id": "7c2d00bfb7671e8abd5cf14bf91a872d"}, {"lon": -76.93418083333333, "rental_uris": {"android": "https://dc.lft.to/lastmile_qr_scan", "ios": "https://dc.lft.to/lastmile_qr_scan"}, "fusion_lon": 0.0, "is_reserved": 0, "is_disabled": 0, "fusion_lat": 0.0, "type": "electric_scooter", "name": "280017b57b8a8ea02629b9552e707dce", "lat": 38.873709833333336, "bike_id": "280017b57b8a8ea02629b9552e707dce"}, {"lon": -77.03198616666667, "rental_uris": {"android": "https://dc.lft.to/lastmile_qr_scan", "ios": "https://dc.lft.to/lastmile_qr_scan"}, "fusion_lon": 0.0, "is_reserved": 0, "is_disabled": 0, "fusion_lat": 0.0, "type": "electric_scooter", "name": "aac6f48540e167fd12ff581e51074344", "lat": 38.91628716666666, "bike_id": "aac6f48540e167fd12ff581e51074344"}, {"lon": -77.019518, "rental_uris": {"android": "https://dc.lft.to/lastmile_qr_scan", "ios": "https://dc.lft.to/lastmile_qr_scan"}, "fusion_lon": 0.0, "is_reserved": 0, "is_disabled": 0, "fusion_lat": 0.0, "type": "electric_scooter", "name": "107f237558b32a3e520d520231f0d626", "lat": 38.922441, "bike_id": "107f237558b32a3e520d520231f0d626"}, {"lon": -76.99074683333333, "rental_uris": {"android": "https://dc.lft.to/lastmile_qr_scan", "ios": "https://dc.lft.to/lastmile_qr_scan"}, "fusion_lon": 0.0, "is_reserved": 0, "is_disabled": 0, "fusion_lat": 0.0, "type": "electric_bike", "name": "683a9bcd63c7e3a2617b74f71805b2c2", "lat": 38.898137, "bike_id": "683a9bcd63c7e3a2617b74f71805b2c2"}, {"lon": -77.04112433333333, "rental_uris": {"android": "https://dc.lft.to/lastmile_qr_scan", "ios": "https://dc.lft.to/lastmile_qr_scan"}, "fusion_lon": 0.0, "is_reserved": 0, "is_disabled": 0, "fusion_lat": 0.0, "type": "electric_scooter", "name": "28cb9c9b4772ab195c68f185b50ad067", "lat": 38.898283666666664, "bike_id": "28cb9c9b4772ab195c68f185b50ad067"}, {"lon": -77.0026825, "rental_uris": {"android": "https://dc.lft.to/lastmile_qr_scan", "ios": "https://dc.lft.to/lastmile_qr_scan"}, "fusion_lon": 0.0, "is_reserved": 0, "is_disabled": 0, "fusion_lat": 0.0, "type": "electric_scooter", "name": "711f52f5c05982283f9a2e4ab109b8ef", "lat": 38.952325, "bike_id": "711f52f5c05982283f9a2e4ab109b8ef"}, {"lon": -77.03839233333333, "rental_uris": {"android": "https://dc.lft.to/lastmile_qr_scan", "ios": "https://dc.lft.to/lastmile_qr_scan"}, "fusion_lon": 0.0, "is_reserved": 0, "is_disabled": 0, "fusion_lat": 0.0, "type": "electric_scooter", "name": "f992c3f79effa397ecc501592c549445", "lat": 38.9031175, "bike_id": "f992c3f79effa397ecc501592c549445"}, {"lon": -77.04339716666667, "rental_uris": {"android": "https://dc.lft.to/lastmile_qr_scan", "ios": "https://dc.lft.to/lastmile_qr_scan"}, "fusion_lon": 0.0, "is_reserved": 0, "is_disabled": 0, "fusion_lat": 0.0, "type": "electric_scooter", "name": "c5e930bd91de9de0bed094361c556c3e", "lat": 38.90228533333333, "bike_id": "c5e930bd91de9de0bed094361c556c3e"}, {"lon": -77.03660483333333, "rental_uris": {"android": "https://dc.lft.to/lastmile_qr_scan", "ios": "https://dc.lft.to/lastmile_qr_scan"}, "fusion_lon": 0.0, "is_reserved": 0, "is_disabled": 0, "fusion_lat": 0.0, "type": "electric_scooter", "name": "9f16b2c9dd751c81c1abedc9a568ae02", "lat": 38.90913283333333, "bike_id": "9f16b2c9dd751c81c1abedc9a568ae02"}, {"lon": -77.03511, "rental_uris": {"android": "https://dc.lft.to/lastmile_qr_scan", "ios": "https://dc.lft.to/lastmile_qr_scan"}, "fusion_lon": 0.0, "is_reserved": 0, "is_disabled": 0, "fusion_lat": 0.0, "type": "electric_scooter", "name": "3c362b41e3f12c5a7681f4952faa014e", "lat": 38.92631083333333, "bike_id": "3c362b41e3f12c5a7681f4952faa014e"}, {"lon": -77.03561583333334, "rental_uris": {"android": "https://dc.lft.to/lastmile_qr_scan", "ios": "https://dc.lft.to/lastmile_qr_scan"}, "fusion_lon": 0.0, "is_reserved": 0, "is_disabled": 0, "fusion_lat": 0.0, "type": "electric_bike", "name": "815b44a14da96f740b633dc10b19bc07", "lat": 38.96457433333333, "bike_id": "815b44a14da96f740b633dc10b19bc07"}, {"lon": -77.04357133333333, "rental_uris": {"android": "https://dc.lft.to/lastmile_qr_scan", "ios": "https://dc.lft.to/lastmile_qr_scan"}, "fusion_lon": 0.0, "is_reserved": 0, "is_disabled": 0, "fusion_lat": 0.0, "type": "electric_scooter", "name": "284b0781de1c5e063dd21949434ffc66", "lat": 38.9217435, "bike_id": "284b0781de1c5e063dd21949434ffc66"}, {"lon": -77.0221615, "rental_uris": {"android": "https://dc.lft.to/lastmile_qr_scan", "ios": "https://dc.lft.to/lastmile_qr_scan"}, "fusion_lon": 0.0, "is_reserved": 0, "is_disabled": 0, "fusion_lat": 0.0, "type": "electric_scooter", "name": "c57274140a591bd2eae55ccd82fcfd22", "lat": 38.9207015, "bike_id": "c57274140a591bd2eae55ccd82fcfd22"}, {"lon": -77.00606216666667, "rental_uris": {"android": "https://dc.lft.to/lastmile_qr_scan", "ios": "https://dc.lft.to/lastmile_qr_scan"}, "fusion_lon": 0.0, "is_reserved": 0, "is_disabled": 0, "fusion_lat": 0.0, "type": "electric_scooter", "name": "26637ae612042c43582d658ed44aa57c", "lat": 38.911099666666665, "bike_id": "26637ae612042c43582d658ed44aa57c"}, {"lon": -77.028247, "rental_uris": {"android": "https://dc.lft.to/lastmile_qr_scan", "ios": "https://dc.lft.to/lastmile_qr_scan"}, "fusion_lon": 0.0, "is_reserved": 0, "is_disabled": 0, "fusion_lat": 0.0, "type": "electric_scooter", "name": "36a3e856f6f2ad93a21b520aab4b3dee", "lat": 38.886575666666666, "bike_id": "36a3e856f6f2ad93a21b520aab4b3dee"}, {"lon": -77.03173816666667, "rental_uris": {"android": "https://dc.lft.to/lastmile_qr_scan", "ios": "https://dc.lft.to/lastmile_qr_scan"}, "fusion_lon": 0.0, "is_reserved": 0, "is_disabled": 0, "fusion_lat": 0.0, "type": "electric_scooter", "name": "b3c9662b91b34d7a16dade4279ad8912", "lat": 38.887317333333336, "bike_id": "b3c9662b91b34d7a16dade4279ad8912"}, {"lon": -77.044652, "rental_uris": {"android": "https://dc.lft.to/lastmile_qr_scan", "ios": "https://dc.lft.to/lastmile_qr_scan"}, "fusion_lon": 0.0, "is_reserved": 0, "is_disabled": 0, "fusion_lat": 0.0, "type": "electric_scooter", "name": "f7458fdbbf68e66d8964bfc6c9940592", "lat": 38.892208833333335, "bike_id": "f7458fdbbf68e66d8964bfc6c9940592"}, {"lon": -77.02832033333334, "rental_uris": {"android": "https://dc.lft.to/lastmile_qr_scan", "ios": "https://dc.lft.to/lastmile_qr_scan"}, "fusion_lon": 0.0, "is_reserved": 0, "is_disabled": 0, "fusion_lat": 0.0, "type": "electric_scooter", "name": "a30881abe6bbbeba4199f86f06d95106", "lat": 38.88768233333333, "bike_id": "a30881abe6bbbeba4199f86f06d95106"}, {"lon": -77.075262, "rental_uris": {"android": "https://dc.lft.to/lastmile_qr_scan", "ios": "https://dc.lft.to/lastmile_qr_scan"}, "fusion_lon": 0.0, "is_reserved": 0, "is_disabled": 0, "fusion_lat": 0.0, "type": "electric_bike", "name": "8bb12f9dcaa0413224e2ade28af02288", "lat": 38.842799666666664, "bike_id": "8bb12f9dcaa0413224e2ade28af02288"}, {"lon": -77.00374716666667, "rental_uris": {"android": "https://dc.lft.to/lastmile_qr_scan", "ios": "https://dc.lft.to/lastmile_qr_scan"}, "fusion_lon": 0.0, "is_reserved": 0, "is_disabled": 0, "fusion_lat": 0.0, "type": "electric_scooter", "name": "8cc48d5341a08cbb9da713fafe59609f", "lat": 38.9072465, "bike_id": "8cc48d5341a08cbb9da713fafe59609f"}, {"lon": -77.02965216666666, "rental_uris": {"android": "https://dc.lft.to/lastmile_qr_scan", "ios": "https://dc.lft.to/lastmile_qr_scan"}, "fusion_lon": 0.0, "is_reserved": 0, "is_disabled": 0, "fusion_lat": 0.0, "type": "electric_scooter", "name": "8076bbf1aa4239e1759d148cb42d2655", "lat": 38.912964, "bike_id": "8076bbf1aa4239e1759d148cb42d2655"}, {"lon": -77.0351005, "rental_uris": {"android": "https://dc.lft.to/lastmile_qr_scan", "ios": "https://dc.lft.to/lastmile_qr_scan"}, "fusion_lon": 0.0, "is_reserved": 0, "is_disabled": 0, "fusion_lat": 0.0, "type": "electric_scooter", "name": "764dfca2da8928e8450c838ffe273202", "lat": 38.92337766666667, "bike_id": "764dfca2da8928e8450c838ffe273202"}, {"lon": -77.04351866666667, "rental_uris": {"android": "https://dc.lft.to/lastmile_qr_scan", "ios": "https://dc.lft.to/lastmile_qr_scan"}, "fusion_lon": 0.0, "is_reserved": 0, "is_disabled": 0, "fusion_lat": 0.0, "type": "electric_scooter", "name": "0642ef2176cdf733e08e7e47d5968c02", "lat": 38.897339333333335, "bike_id": "0642ef2176cdf733e08e7e47d5968c02"}, {"lon": -77.02168933333333, "rental_uris": {"android": "https://dc.lft.to/lastmile_qr_scan", "ios": "https://dc.lft.to/lastmile_qr_scan"}, "fusion_lon": 0.0, "is_reserved": 0, "is_disabled": 0, "fusion_lat": 0.0, "type": "electric_scooter", "name": "b52f27e1245b8ed9b35b2f43e84de25c", "lat": 38.92630233333333, "bike_id": "b52f27e1245b8ed9b35b2f43e84de25c"}, {"lon": -77.01967483333334, "rental_uris": {"android": "https://dc.lft.to/lastmile_qr_scan", "ios": "https://dc.lft.to/lastmile_qr_scan"}, "fusion_lon": 0.0, "is_reserved": 0, "is_disabled": 0, "fusion_lat": 0.0, "type": "electric_scooter", "name": "0cd4a9c327fb54c9e69affb71d39d4c7", "lat": 38.921915166666665, "bike_id": "0cd4a9c327fb54c9e69affb71d39d4c7"}, {"lon": -77.02964816666666, "rental_uris": {"android": "https://dc.lft.to/lastmile_qr_scan", "ios": "https://dc.lft.to/lastmile_qr_scan"}, "fusion_lon": 0.0, "is_reserved": 0, "is_disabled": 0, "fusion_lat": 0.0, "type": "electric_scooter", "name": "5cc062d6695e5482da4587e97481cc66", "lat": 38.90259666666667, "bike_id": "5cc062d6695e5482da4587e97481cc66"}, {"lon": -77.01952266666666, "rental_uris": {"android": "https://dc.lft.to/lastmile_qr_scan", "ios": "https://dc.lft.to/lastmile_qr_scan"}, "fusion_lon": 0.0, "is_reserved": 0, "is_disabled": 0, "fusion_lat": 0.0, "type": "electric_scooter", "name": "ff298febe499e7f5b04baf3abf52f24f", "lat": 38.92252766666667, "bike_id": "ff298febe499e7f5b04baf3abf52f24f"}, {"lon": -77.06667266666666, "rental_uris": {"android": "https://dc.lft.to/lastmile_qr_scan", "ios": "https://dc.lft.to/lastmile_qr_scan"}, "fusion_lon": 0.0, "is_reserved": 0, "is_disabled": 0, "fusion_lat": 0.0, "type": "electric_scooter", "name": "91c45c876b123d4ef06369f7dbc214cb", "lat": 38.90381283333333, "bike_id": "91c45c876b123d4ef06369f7dbc214cb"}, {"lon": -76.99796883333333, "rental_uris": {"android": "https://dc.lft.to/lastmile_qr_scan", "ios": "https://dc.lft.to/lastmile_qr_scan"}, "fusion_lon": 0.0, "is_reserved": 0, "is_disabled": 0, "fusion_lat": 0.0, "type": "electric_scooter", "name": "1092936acfbb205ba990c5e4dc3a1088", "lat": 38.88555783333334, "bike_id": "1092936acfbb205ba990c5e4dc3a1088"}, {"lon": -77.02712016666666, "rental_uris": {"android": "https://dc.lft.to/lastmile_qr_scan", "ios": "https://dc.lft.to/lastmile_qr_scan"}, "fusion_lon": 0.0, "is_reserved": 0, "is_disabled": 0, "fusion_lat": 0.0, "type": "electric_scooter", "name": "660371c76ac48406ae852f1c390ed7ef", "lat": 38.896595, "bike_id": "660371c76ac48406ae852f1c390ed7ef"}, {"lon": -77.04394683333334, "rental_uris": {"android": "https://dc.lft.to/lastmile_qr_scan", "ios": "https://dc.lft.to/lastmile_qr_scan"}, "fusion_lon": 0.0, "is_reserved": 0, "is_disabled": 0, "fusion_lat": 0.0, "type": "electric_scooter", "name": "0060474b81f33e1b78460e964426d216", "lat": 38.922252666666665, "bike_id": "0060474b81f33e1b78460e964426d216"}, {"lon": -77.04671966666666, "rental_uris": {"android": "https://dc.lft.to/lastmile_qr_scan", "ios": "https://dc.lft.to/lastmile_qr_scan"}, "fusion_lon": 0.0, "is_reserved": 0, "is_disabled": 0, "fusion_lat": 0.0, "type": "electric_scooter", "name": "35afe08eacf81a4941d110582c295b6b", "lat": 38.895573166666665, "bike_id": "35afe08eacf81a4941d110582c295b6b"}, {"lon": -77.07247783333334, "rental_uris": {"android": "https://dc.lft.to/lastmile_qr_scan", "ios": "https://dc.lft.to/lastmile_qr_scan"}, "fusion_lon": 0.0, "is_reserved": 0, "is_disabled": 0, "fusion_lat": 0.0, "type": "electric_scooter", "name": "6df7191ee2e9d7151849a336ca29d7bb", "lat": 38.90776566666667, "bike_id": "6df7191ee2e9d7151849a336ca29d7bb"}, {"lon": -77.012629, "rental_uris": {"android": "https://dc.lft.to/lastmile_qr_scan", "ios": "https://dc.lft.to/lastmile_qr_scan"}, "fusion_lon": 0.0, "is_reserved": 0, "is_disabled": 0, "fusion_lat": 0.0, "type": "electric_scooter", "name": "ff8dd4089a8ca541cffedb9e4a03c351", "lat": 38.90008516666666, "bike_id": "ff8dd4089a8ca541cffedb9e4a03c351"}, {"lon": -77.07699466666666, "rental_uris": {"android": "https://dc.lft.to/lastmile_qr_scan", "ios": "https://dc.lft.to/lastmile_qr_scan"}, "fusion_lon": 0.0, "is_reserved": 0, "is_disabled": 0, "fusion_lat": 0.0, "type": "electric_scooter", "name": "adebb1c215bccd7fbdc2155a7c49230e", "lat": 38.93156583333333, "bike_id": "adebb1c215bccd7fbdc2155a7c49230e"}, {"lon": -76.99643166666667, "rental_uris": {"android": "https://dc.lft.to/lastmile_qr_scan", "ios": "https://dc.lft.to/lastmile_qr_scan"}, "fusion_lon": 0.0, "is_reserved": 0, "is_disabled": 0, "fusion_lat": 0.0, "type": "electric_scooter", "name": "0c589caa7c40cfb7738326cefc0382ef", "lat": 38.898876333333334, "bike_id": "0c589caa7c40cfb7738326cefc0382ef"}, {"lon": -77.051678, "rental_uris": {"android": "https://dc.lft.to/lastmile_qr_scan", "ios": "https://dc.lft.to/lastmile_qr_scan"}, "fusion_lon": 0.0, "is_reserved": 0, "is_disabled": 0, "fusion_lat": 0.0, "type": "electric_scooter", "name": "6eed6fea6a2731832177af923efd431a", "lat": 38.923425, "bike_id": "6eed6fea6a2731832177af923efd431a"}, {"lon": -77.02602466666667, "rental_uris": {"android": "https://dc.lft.to/lastmile_qr_scan", "ios": "https://dc.lft.to/lastmile_qr_scan"}, "fusion_lon": 0.0, "is_reserved": 0, "is_disabled": 0, "fusion_lat": 0.0, "type": "electric_scooter", "name": "c3394d65a8f209e447e5a2b2d2bcb11c", "lat": 38.90889466666667, "bike_id": "c3394d65a8f209e447e5a2b2d2bcb11c"}, {"lon": -77.018312, "rental_uris": {"android": "https://dc.lft.to/lastmile_qr_scan", "ios": "https://dc.lft.to/lastmile_qr_scan"}, "fusion_lon": 0.0, "is_reserved": 0, "is_disabled": 0, "fusion_lat": 0.0, "type": "electric_scooter", "name": "a0339fa9644df541db4482c1c7475549", "lat": 38.9006565, "bike_id": "a0339fa9644df541db4482c1c7475549"}, {"lon": -77.03867466666667, "rental_uris": {"android": "https://dc.lft.to/lastmile_qr_scan", "ios": "https://dc.lft.to/lastmile_qr_scan"}, "fusion_lon": 0.0, "is_reserved": 0, "is_disabled": 0, "fusion_lat": 0.0, "type": "electric_scooter", "name": "164ce1a73ab9be798b9f916be8c73bef", "lat": 38.91711266666667, "bike_id": "164ce1a73ab9be798b9f916be8c73bef"}, {"lon": -77.00194933333333, "rental_uris": {"android": "https://dc.lft.to/lastmile_qr_scan", "ios": "https://dc.lft.to/lastmile_qr_scan"}, "fusion_lon": 0.0, "is_reserved": 0, "is_disabled": 0, "fusion_lat": 0.0, "type": "electric_scooter", "name": "4588ff981925d58110d500b65477fbdf", "lat": 38.873980833333334, "bike_id": "4588ff981925d58110d500b65477fbdf"}, {"lon": -77.04160983333334, "rental_uris": {"android": "https://dc.lft.to/lastmile_qr_scan", "ios": "https://dc.lft.to/lastmile_qr_scan"}, "fusion_lon": 0.0, "is_reserved": 0, "is_disabled": 0, "fusion_lat": 0.0, "type": "electric_scooter", "name": "e68ad6f0b427a5219c92c033ffbd0ec6", "lat": 38.892311, "bike_id": "e68ad6f0b427a5219c92c033ffbd0ec6"}, {"lon": -77.05021783333333, "rental_uris": {"android": "https://dc.lft.to/lastmile_qr_scan", "ios": "https://dc.lft.to/lastmile_qr_scan"}, "fusion_lon": 0.0, "is_reserved": 0, "is_disabled": 0, "fusion_lat": 0.0, "type": "electric_scooter", "name": "7d8181e765da6aac4c5e4f79efdeedaa", "lat": 38.90623633333333, "bike_id": "7d8181e765da6aac4c5e4f79efdeedaa"}, {"lon": -77.02788283333334, "rental_uris": {"android": "https://dc.lft.to/lastmile_qr_scan", "ios": "https://dc.lft.to/lastmile_qr_scan"}, "fusion_lon": 0.0, "is_reserved": 0, "is_disabled": 0, "fusion_lat": 0.0, "type": "electric_scooter", "name": "4694c3f0b602fe19f23f9ac2f638dc39", "lat": 38.973511333333335, "bike_id": "4694c3f0b602fe19f23f9ac2f638dc39"}, {"lon": -77.038325, "rental_uris": {"android": "https://dc.lft.to/lastmile_qr_scan", "ios": "https://dc.lft.to/lastmile_qr_scan"}, "fusion_lon": 0.0, "is_reserved": 0, "is_disabled": 0, "fusion_lat": 0.0, "type": "electric_scooter", "name": "93c12b03441f9835ec6171286fe0f6eb", "lat": 38.94504383333334, "bike_id": "93c12b03441f9835ec6171286fe0f6eb"}, {"lon": -77.06985616666667, "rental_uris": {"android": "https://dc.lft.to/lastmile_qr_scan", "ios": "https://dc.lft.to/lastmile_qr_scan"}, "fusion_lon": 0.0, "is_reserved": 0, "is_disabled": 0, "fusion_lat": 0.0, "type": "electric_scooter", "name": "947af418de50c1d1f028fab07e592d5b", "lat": 38.955237, "bike_id": "947af418de50c1d1f028fab07e592d5b"}, {"lon": -77.0385935, "rental_uris": {"android": "https://dc.lft.to/lastmile_qr_scan", "ios": "https://dc.lft.to/lastmile_qr_scan"}, "fusion_lon": 0.0, "is_reserved": 0, "is_disabled": 0, "fusion_lat": 0.0, "type": "electric_scooter", "name": "722ceeb1e7dd48bf32d3accdc9fc27fb", "lat": 38.902599333333335, "bike_id": "722ceeb1e7dd48bf32d3accdc9fc27fb"}, {"lon": -77.02380016666666, "rental_uris": {"android": "https://dc.lft.to/lastmile_qr_scan", "ios": "https://dc.lft.to/lastmile_qr_scan"}, "fusion_lon": 0.0, "is_reserved": 0, "is_disabled": 0, "fusion_lat": 0.0, "type": "electric_scooter", "name": "d42d30844586372f880030c89c88ec4b", "lat": 38.90201183333333, "bike_id": "d42d30844586372f880030c89c88ec4b"}, {"lon": -77.01966216666666, "rental_uris": {"android": "https://dc.lft.to/lastmile_qr_scan", "ios": "https://dc.lft.to/lastmile_qr_scan"}, "fusion_lon": 0.0, "is_reserved": 0, "is_disabled": 0, "fusion_lat": 0.0, "type": "electric_scooter", "name": "7db0f799cc84771e8e7b8215cbc839c4", "lat": 38.919001, "bike_id": "7db0f799cc84771e8e7b8215cbc839c4"}, {"lon": -76.98735683333334, "rental_uris": {"android": "https://dc.lft.to/lastmile_qr_scan", "ios": "https://dc.lft.to/lastmile_qr_scan"}, "fusion_lon": 0.0, "is_reserved": 0, "is_disabled": 0, "fusion_lat": 0.0, "type": "electric_scooter", "name": "fe1a6d0cf9aafc076dee0b44668122f7", "lat": 38.90352016666667, "bike_id": "fe1a6d0cf9aafc076dee0b44668122f7"}, {"lon": -77.02155916666666, "rental_uris": {"android": "https://dc.lft.to/lastmile_qr_scan", "ios": "https://dc.lft.to/lastmile_qr_scan"}, "fusion_lon": 0.0, "is_reserved": 0, "is_disabled": 0, "fusion_lat": 0.0, "type": "electric_scooter", "name": "21742d7c66a127391f6a3ddf1fe580ff", "lat": 38.92457666666667, "bike_id": "21742d7c66a127391f6a3ddf1fe580ff"}, {"lon": -77.036574, "rental_uris": {"android": "https://dc.lft.to/lastmile_qr_scan", "ios": "https://dc.lft.to/lastmile_qr_scan"}, "fusion_lon": 0.0, "is_reserved": 0, "is_disabled": 0, "fusion_lat": 0.0, "type": "electric_scooter", "name": "d12eb0dbc723a1d12ec8d3d77b0b87b7", "lat": 38.93202333333333, "bike_id": "d12eb0dbc723a1d12ec8d3d77b0b87b7"}, {"lon": -77.01154666666666, "rental_uris": {"android": "https://dc.lft.to/lastmile_qr_scan", "ios": "https://dc.lft.to/lastmile_qr_scan"}, "fusion_lon": 0.0, "is_reserved": 0, "is_disabled": 0, "fusion_lat": 0.0, "type": "electric_scooter", "name": "d56ddebdb581d40dff2bbbff68598459", "lat": 38.91908766666667, "bike_id": "d56ddebdb581d40dff2bbbff68598459"}, {"lon": -77.03207, "rental_uris": {"android": "https://dc.lft.to/lastmile_qr_scan", "ios": "https://dc.lft.to/lastmile_qr_scan"}, "fusion_lon": 0.0, "is_reserved": 0, "is_disabled": 0, "fusion_lat": 0.0, "type": "electric_scooter", "name": "e13bd8d88b6567f008c4fa9f780ceca7", "lat": 38.9228095, "bike_id": "e13bd8d88b6567f008c4fa9f780ceca7"}, {"lon": -77.01241966666667, "rental_uris": {"android": "https://dc.lft.to/lastmile_qr_scan", "ios": "https://dc.lft.to/lastmile_qr_scan"}, "fusion_lon": 0.0, "is_reserved": 0, "is_disabled": 0, "fusion_lat": 0.0, "type": "electric_scooter", "name": "0eafcb30103f078f97f40bb800380e0a", "lat": 38.89850766666667, "bike_id": "0eafcb30103f078f97f40bb800380e0a"}, {"lon": -77.023769, "rental_uris": {"android": "https://dc.lft.to/lastmile_qr_scan", "ios": "https://dc.lft.to/lastmile_qr_scan"}, "fusion_lon": 0.0, "is_reserved": 0, "is_disabled": 0, "fusion_lat": 0.0, "type": "electric_scooter", "name": "53d35bb09ed3e2d2fdcfb5e2e32cd3a0", "lat": 38.892147333333334, "bike_id": "53d35bb09ed3e2d2fdcfb5e2e32cd3a0"}, {"lon": -77.00725283333334, "rental_uris": {"android": "https://dc.lft.to/lastmile_qr_scan", "ios": "https://dc.lft.to/lastmile_qr_scan"}, "fusion_lon": 0.0, "is_reserved": 0, "is_disabled": 0, "fusion_lat": 0.0, "type": "electric_scooter", "name": "b7be334797e00527e9bb7b8e6f0df39a", "lat": 38.9054445, "bike_id": "b7be334797e00527e9bb7b8e6f0df39a"}, {"lon": -77.002006, "rental_uris": {"android": "https://dc.lft.to/lastmile_qr_scan", "ios": "https://dc.lft.to/lastmile_qr_scan"}, "fusion_lon": 0.0, "is_reserved": 0, "is_disabled": 0, "fusion_lat": 0.0, "type": "electric_scooter", "name": "601c3ef9560b63ab8eda22143f8451b2", "lat": 38.9023905, "bike_id": "601c3ef9560b63ab8eda22143f8451b2"}, {"lon": -77.03160216666667, "rental_uris": {"android": "https://dc.lft.to/lastmile_qr_scan", "ios": "https://dc.lft.to/lastmile_qr_scan"}, "fusion_lon": 0.0, "is_reserved": 0, "is_disabled": 0, "fusion_lat": 0.0, "type": "electric_scooter", "name": "35266dd2e0d7d3386bdda10ef9400569", "lat": 38.91630083333333, "bike_id": "35266dd2e0d7d3386bdda10ef9400569"}, {"lon": -77.04597566666666, "rental_uris": {"android": "https://dc.lft.to/lastmile_qr_scan", "ios": "https://dc.lft.to/lastmile_qr_scan"}, "fusion_lon": 0.0, "is_reserved": 0, "is_disabled": 0, "fusion_lat": 0.0, "type": "electric_scooter", "name": "32a11c5308fb099727760eb7d9fd2968", "lat": 38.9026435, "bike_id": "32a11c5308fb099727760eb7d9fd2968"}, {"lon": -77.04647883333334, "rental_uris": {"android": "https://dc.lft.to/lastmile_qr_scan", "ios": "https://dc.lft.to/lastmile_qr_scan"}, "fusion_lon": 0.0, "is_reserved": 0, "is_disabled": 0, "fusion_lat": 0.0, "type": "electric_scooter", "name": "1a50914b6d3df68159abd620123a9dfb", "lat": 38.8922875, "bike_id": "1a50914b6d3df68159abd620123a9dfb"}, {"lon": -77.22885266666667, "rental_uris": {"android": "https://dc.lft.to/lastmile_qr_scan", "ios": "https://dc.lft.to/lastmile_qr_scan"}, "fusion_lon": 0.0, "is_reserved": 0, "is_disabled": 0, "fusion_lat": 0.0, "type": "electric_bike", "name": "8473068494b2dcfed85a1d1fb7c47ad8", "lat": 38.870159, "bike_id": "8473068494b2dcfed85a1d1fb7c47ad8"}, {"lon": -77.04323766666667, "rental_uris": {"android": "https://dc.lft.to/lastmile_qr_scan", "ios": "https://dc.lft.to/lastmile_qr_scan"}, "fusion_lon": 0.0, "is_reserved": 0, "is_disabled": 0, "fusion_lat": 0.0, "type": "electric_scooter", "name": "ecebe33a51fa3ad051af6e04348598ba", "lat": 38.90328133333333, "bike_id": "ecebe33a51fa3ad051af6e04348598ba"}, {"lon": -76.98615933333333, "rental_uris": {"android": "https://dc.lft.to/lastmile_qr_scan", "ios": "https://dc.lft.to/lastmile_qr_scan"}, "fusion_lon": 0.0, "is_reserved": 0, "is_disabled": 0, "fusion_lat": 0.0, "type": "electric_scooter", "name": "586162293a16c658ffab3fb276c9d907", "lat": 38.909941, "bike_id": "586162293a16c658ffab3fb276c9d907"}, {"lon": -77.00337916666666, "rental_uris": {"android": "https://dc.lft.to/lastmile_qr_scan", "ios": "https://dc.lft.to/lastmile_qr_scan"}, "fusion_lon": 0.0, "is_reserved": 0, "is_disabled": 0, "fusion_lat": 0.0, "type": "electric_scooter", "name": "aa3f12259c7c7d79252eb6cc93857d67", "lat": 38.891798666666666, "bike_id": "aa3f12259c7c7d79252eb6cc93857d67"}, {"lon": -77.0592615, "rental_uris": {"android": "https://dc.lft.to/lastmile_qr_scan", "ios": "https://dc.lft.to/lastmile_qr_scan"}, "fusion_lon": 0.0, "is_reserved": 0, "is_disabled": 0, "fusion_lat": 0.0, "type": "electric_scooter", "name": "4047ba932647d9f173d68e0ce6e0d29a", "lat": 38.94301516666667, "bike_id": "4047ba932647d9f173d68e0ce6e0d29a"}, {"lon": -76.9699715, "rental_uris": {"android": "https://dc.lft.to/lastmile_qr_scan", "ios": "https://dc.lft.to/lastmile_qr_scan"}, "fusion_lon": 0.0, "is_reserved": 0, "is_disabled": 0, "fusion_lat": 0.0, "type": "electric_scooter", "name": "309968eda179883ca51539ba0df0eac7", "lat": 38.8602955, "bike_id": "309968eda179883ca51539ba0df0eac7"}, {"lon": -77.05882733333333, "rental_uris": {"android": "https://dc.lft.to/lastmile_qr_scan", "ios": "https://dc.lft.to/lastmile_qr_scan"}, "fusion_lon": 0.0, "is_reserved": 0, "is_disabled": 0, "fusion_lat": 0.0, "type": "electric_scooter", "name": "d92cfe181f402a456f08460a1aafa71b", "lat": 38.91833583333333, "bike_id": "d92cfe181f402a456f08460a1aafa71b"}, {"lon": -77.01870566666666, "rental_uris": {"android": "https://dc.lft.to/lastmile_qr_scan", "ios": "https://dc.lft.to/lastmile_qr_scan"}, "fusion_lon": 0.0, "is_reserved": 0, "is_disabled": 0, "fusion_lat": 0.0, "type": "electric_scooter", "name": "6ad7a08d3ecaede524fec551c3f54dee", "lat": 38.908597666666665, "bike_id": "6ad7a08d3ecaede524fec551c3f54dee"}, {"lon": -76.96263883333333, "rental_uris": {"android": "https://dc.lft.to/lastmile_qr_scan", "ios": "https://dc.lft.to/lastmile_qr_scan"}, "fusion_lon": 0.0, "is_reserved": 0, "is_disabled": 0, "fusion_lat": 0.0, "type": "electric_bike", "name": "2cb9966e66649f369687361e15ec5b3a", "lat": 38.96785583333333, "bike_id": "2cb9966e66649f369687361e15ec5b3a"}, {"lon": -77.06983566666666, "rental_uris": {"android": "https://dc.lft.to/lastmile_qr_scan", "ios": "https://dc.lft.to/lastmile_qr_scan"}, "fusion_lon": 0.0, "is_reserved": 0, "is_disabled": 0, "fusion_lat": 0.0, "type": "electric_bike", "name": "f06b32f381a453a967505109e58aa2e9", "lat": 38.95522866666667, "bike_id": "f06b32f381a453a967505109e58aa2e9"}, {"lon": -77.04323066666667, "rental_uris": {"android": "https://dc.lft.to/lastmile_qr_scan", "ios": "https://dc.lft.to/lastmile_qr_scan"}, "fusion_lon": 0.0, "is_reserved": 0, "is_disabled": 0, "fusion_lat": 0.0, "type": "electric_scooter", "name": "167381febd272c1d67a78648ea4b469c", "lat": 38.905468666666664, "bike_id": "167381febd272c1d67a78648ea4b469c"}, {"lon": -77.04481383333334, "rental_uris": {"android": "https://dc.lft.to/lastmile_qr_scan", "ios": "https://dc.lft.to/lastmile_qr_scan"}, "fusion_lon": 0.0, "is_reserved": 0, "is_disabled": 0, "fusion_lat": 0.0, "type": "electric_scooter", "name": "646999a984e9807d817506c75e8a82c5", "lat": 38.91086083333333, "bike_id": "646999a984e9807d817506c75e8a82c5"}, {"lon": -77.02099433333333, "rental_uris": {"android": "https://dc.lft.to/lastmile_qr_scan", "ios": "https://dc.lft.to/lastmile_qr_scan"}, "fusion_lon": 0.0, "is_reserved": 0, "is_disabled": 0, "fusion_lat": 0.0, "type": "electric_scooter", "name": "7e32f2b8773d610e52f5ef4ac286e6a4", "lat": 38.92144533333333, "bike_id": "7e32f2b8773d610e52f5ef4ac286e6a4"}, {"lon": -77.01636283333333, "rental_uris": {"android": "https://dc.lft.to/lastmile_qr_scan", "ios": "https://dc.lft.to/lastmile_qr_scan"}, "fusion_lon": 0.0, "is_reserved": 0, "is_disabled": 0, "fusion_lat": 0.0, "type": "electric_bike", "name": "7fe3861b38633fdae3630677aae73b6c", "lat": 38.78451283333333, "bike_id": "7fe3861b38633fdae3630677aae73b6c"}, {"lon": -76.93190566666667, "rental_uris": {"android": "https://dc.lft.to/lastmile_qr_scan", "ios": "https://dc.lft.to/lastmile_qr_scan"}, "fusion_lon": 0.0, "is_reserved": 0, "is_disabled": 0, "fusion_lat": 0.0, "type": "electric_bike", "name": "f97ebca067c71097dacc60fdfe7ad9c5", "lat": 38.898521, "bike_id": "f97ebca067c71097dacc60fdfe7ad9c5"}, {"lon": -77.03254216666667, "rental_uris": {"android": "https://dc.lft.to/lastmile_qr_scan", "ios": "https://dc.lft.to/lastmile_qr_scan"}, "fusion_lon": 0.0, "is_reserved": 0, "is_disabled": 0, "fusion_lat": 0.0, "type": "electric_scooter", "name": "2c3915499756b67d182b8e365ff4aeb6", "lat": 38.93134383333334, "bike_id": "2c3915499756b67d182b8e365ff4aeb6"}, {"lon": -77.03238733333333, "rental_uris": {"android": "https://dc.lft.to/lastmile_qr_scan", "ios": "https://dc.lft.to/lastmile_qr_scan"}, "fusion_lon": 0.0, "is_reserved": 0, "is_disabled": 0, "fusion_lat": 0.0, "type": "electric_scooter", "name": "1f0e8c1a7bf20d8043fc1de8600c9646", "lat": 38.9286545, "bike_id": "1f0e8c1a7bf20d8043fc1de8600c9646"}, {"lon": -77.00910216666666, "rental_uris": {"android": "https://dc.lft.to/lastmile_qr_scan", "ios": "https://dc.lft.to/lastmile_qr_scan"}, "fusion_lon": 0.0, "is_reserved": 0, "is_disabled": 0, "fusion_lat": 0.0, "type": "electric_scooter", "name": "aa5ba4bf02fd0de329a43bcd73bce322", "lat": 38.89641666666667, "bike_id": "aa5ba4bf02fd0de329a43bcd73bce322"}, {"lon": -77.01015083333333, "rental_uris": {"android": "https://dc.lft.to/lastmile_qr_scan", "ios": "https://dc.lft.to/lastmile_qr_scan"}, "fusion_lon": 0.0, "is_reserved": 0, "is_disabled": 0, "fusion_lat": 0.0, "type": "electric_scooter", "name": "561779ef46f9b0eaf0729932aeda6fc7", "lat": 38.917052, "bike_id": "561779ef46f9b0eaf0729932aeda6fc7"}, {"lon": -77.03865133333333, "rental_uris": {"android": "https://dc.lft.to/lastmile_qr_scan", "ios": "https://dc.lft.to/lastmile_qr_scan"}, "fusion_lon": 0.0, "is_reserved": 0, "is_disabled": 0, "fusion_lat": 0.0, "type": "electric_scooter", "name": "803d246f7ef4dcfa7fe84db2b4b5ddcf", "lat": 38.906561333333336, "bike_id": "803d246f7ef4dcfa7fe84db2b4b5ddcf"}, {"lon": -77.04653733333333, "rental_uris": {"android": "https://dc.lft.to/lastmile_qr_scan", "ios": "https://dc.lft.to/lastmile_qr_scan"}, "fusion_lon": 0.0, "is_reserved": 0, "is_disabled": 0, "fusion_lat": 0.0, "type": "electric_scooter", "name": "8ce5b0c95d746d55ddc308e250962757", "lat": 38.89222266666667, "bike_id": "8ce5b0c95d746d55ddc308e250962757"}, {"lon": -77.02563733333334, "rental_uris": {"android": "https://dc.lft.to/lastmile_qr_scan", "ios": "https://dc.lft.to/lastmile_qr_scan"}, "fusion_lon": 0.0, "is_reserved": 0, "is_disabled": 0, "fusion_lat": 0.0, "type": "electric_scooter", "name": "6a3a5002f42f7de197d3c44195d2a679", "lat": 38.8841575, "bike_id": "6a3a5002f42f7de197d3c44195d2a679"}, {"lon": -76.99076833333334, "rental_uris": {"android": "https://dc.lft.to/lastmile_qr_scan", "ios": "https://dc.lft.to/lastmile_qr_scan"}, "fusion_lon": 0.0, "is_reserved": 0, "is_disabled": 0, "fusion_lat": 0.0, "type": "electric_bike", "name": "49e44ef2db3485e40fc4a712bc37fb5c", "lat": 38.94257866666667, "bike_id": "49e44ef2db3485e40fc4a712bc37fb5c"}, {"lon": -77.04024233333334, "rental_uris": {"android": "https://dc.lft.to/lastmile_qr_scan", "ios": "https://dc.lft.to/lastmile_qr_scan"}, "fusion_lon": 0.0, "is_reserved": 0, "is_disabled": 0, "fusion_lat": 0.0, "type": "electric_scooter", "name": "e8cd035ef4842b1acaa085ef99b4d359", "lat": 38.921601, "bike_id": "e8cd035ef4842b1acaa085ef99b4d359"}, {"lon": -76.97284116666667, "rental_uris": {"android": "https://dc.lft.to/lastmile_qr_scan", "ios": "https://dc.lft.to/lastmile_qr_scan"}, "fusion_lon": 0.0, "is_reserved": 0, "is_disabled": 0, "fusion_lat": 0.0, "type": "electric_scooter", "name": "32adbe4d98d0a17063fdd562f5cef433", "lat": 38.917180333333334, "bike_id": "32adbe4d98d0a17063fdd562f5cef433"}, {"lon": -77.04184983333333, "rental_uris": {"android": "https://dc.lft.to/lastmile_qr_scan", "ios": "https://dc.lft.to/lastmile_qr_scan"}, "fusion_lon": 0.0, "is_reserved": 0, "is_disabled": 0, "fusion_lat": 0.0, "type": "electric_scooter", "name": "f12277c4b3cdf62d074b6d7b0a9ddc30", "lat": 38.90133066666667, "bike_id": "f12277c4b3cdf62d074b6d7b0a9ddc30"}, {"lon": -77.02946966666667, "rental_uris": {"android": "https://dc.lft.to/lastmile_qr_scan", "ios": "https://dc.lft.to/lastmile_qr_scan"}, "fusion_lon": 0.0, "is_reserved": 0, "is_disabled": 0, "fusion_lat": 0.0, "type": "electric_scooter", "name": "cf85852e4a3eeef4eaada4f7ae857c1c", "lat": 38.916835666666664, "bike_id": "cf85852e4a3eeef4eaada4f7ae857c1c"}, {"lon": -77.025355, "rental_uris": {"android": "https://dc.lft.to/lastmile_qr_scan", "ios": "https://dc.lft.to/lastmile_qr_scan"}, "fusion_lon": 0.0, "is_reserved": 0, "is_disabled": 0, "fusion_lat": 0.0, "type": "electric_scooter", "name": "4335395d27c3be3fb66ff66da7c33bd1", "lat": 38.92107083333333, "bike_id": "4335395d27c3be3fb66ff66da7c33bd1"}, {"lon": -77.00068783333333, "rental_uris": {"android": "https://dc.lft.to/lastmile_qr_scan", "ios": "https://dc.lft.to/lastmile_qr_scan"}, "fusion_lon": 0.0, "is_reserved": 0, "is_disabled": 0, "fusion_lat": 0.0, "type": "electric_scooter", "name": "b2dd0abd451cc0d369d3613008a2217f", "lat": 38.8736465, "bike_id": "b2dd0abd451cc0d369d3613008a2217f"}, {"lon": -77.022136, "rental_uris": {"android": "https://dc.lft.to/lastmile_qr_scan", "ios": "https://dc.lft.to/lastmile_qr_scan"}, "fusion_lon": 0.0, "is_reserved": 0, "is_disabled": 0, "fusion_lat": 0.0, "type": "electric_scooter", "name": "7fca9c4e479d6f17720b8ff2f560b2ce", "lat": 38.920604166666664, "bike_id": "7fca9c4e479d6f17720b8ff2f560b2ce"}, {"lon": -77.04933233333334, "rental_uris": {"android": "https://dc.lft.to/lastmile_qr_scan", "ios": "https://dc.lft.to/lastmile_qr_scan"}, "fusion_lon": 0.0, "is_reserved": 0, "is_disabled": 0, "fusion_lat": 0.0, "type": "electric_scooter", "name": "f8fb01b55f96bf69c10552fa3577c48b", "lat": 38.897405666666664, "bike_id": "f8fb01b55f96bf69c10552fa3577c48b"}, {"lon": -77.02540183333333, "rental_uris": {"android": "https://dc.lft.to/lastmile_qr_scan", "ios": "https://dc.lft.to/lastmile_qr_scan"}, "fusion_lon": 0.0, "is_reserved": 0, "is_disabled": 0, "fusion_lat": 0.0, "type": "electric_scooter", "name": "1abf8fc5ff6b5ed673a298eb68ece0df", "lat": 38.94074, "bike_id": "1abf8fc5ff6b5ed673a298eb68ece0df"}, {"lon": -77.02702466666666, "rental_uris": {"android": "https://dc.lft.to/lastmile_qr_scan", "ios": "https://dc.lft.to/lastmile_qr_scan"}, "fusion_lon": 0.0, "is_reserved": 0, "is_disabled": 0, "fusion_lat": 0.0, "type": "electric_scooter", "name": "5c9ec385936298e96204edb8bebdacf9", "lat": 38.923956833333335, "bike_id": "5c9ec385936298e96204edb8bebdacf9"}, {"lon": -77.02184733333333, "rental_uris": {"android": "https://dc.lft.to/lastmile_qr_scan", "ios": "https://dc.lft.to/lastmile_qr_scan"}, "fusion_lon": 0.0, "is_reserved": 0, "is_disabled": 0, "fusion_lat": 0.0, "type": "electric_bike", "name": "12f6d1ec8afa80c212ace4c14bac8b88", "lat": 39.004795666666666, "bike_id": "12f6d1ec8afa80c212ace4c14bac8b88"}, {"lon": -77.04020083333333, "rental_uris": {"android": "https://dc.lft.to/lastmile_qr_scan", "ios": "https://dc.lft.to/lastmile_qr_scan"}, "fusion_lon": 0.0, "is_reserved": 0, "is_disabled": 0, "fusion_lat": 0.0, "type": "electric_scooter", "name": "c2fde7b4472286308306d41b51441bd1", "lat": 38.90138783333333, "bike_id": "c2fde7b4472286308306d41b51441bd1"}, {"lon": -77.0511625, "rental_uris": {"android": "https://dc.lft.to/lastmile_qr_scan", "ios": "https://dc.lft.to/lastmile_qr_scan"}, "fusion_lon": 0.0, "is_reserved": 0, "is_disabled": 0, "fusion_lat": 0.0, "type": "electric_scooter", "name": "8b3780832806ef073f846da80a4610b8", "lat": 38.906182333333334, "bike_id": "8b3780832806ef073f846da80a4610b8"}, {"lon": -77.04677, "rental_uris": {"android": "https://dc.lft.to/lastmile_qr_scan", "ios": "https://dc.lft.to/lastmile_qr_scan"}, "fusion_lon": 0.0, "is_reserved": 0, "is_disabled": 0, "fusion_lat": 0.0, "type": "electric_scooter", "name": "110759dd395c1f5d2ae9bce3d413bef9", "lat": 38.89502566666667, "bike_id": "110759dd395c1f5d2ae9bce3d413bef9"}, {"lon": -77.03801366666667, "rental_uris": {"android": "https://dc.lft.to/lastmile_qr_scan", "ios": "https://dc.lft.to/lastmile_qr_scan"}, "fusion_lon": 0.0, "is_reserved": 0, "is_disabled": 0, "fusion_lat": 0.0, "type": "electric_scooter", "name": "794047597236f9721b2dc361fbe27603", "lat": 38.9065225, "bike_id": "794047597236f9721b2dc361fbe27603"}, {"lon": -76.96505316666666, "rental_uris": {"android": "https://dc.lft.to/lastmile_qr_scan", "ios": "https://dc.lft.to/lastmile_qr_scan"}, "fusion_lon": 0.0, "is_reserved": 0, "is_disabled": 0, "fusion_lat": 0.0, "type": "electric_scooter", "name": "a3d96557bb90237926f41f555e38eb39", "lat": 38.876473, "bike_id": "a3d96557bb90237926f41f555e38eb39"}, {"lon": -77.03167883333333, "rental_uris": {"android": "https://dc.lft.to/lastmile_qr_scan", "ios": "https://dc.lft.to/lastmile_qr_scan"}, "fusion_lon": 0.0, "is_reserved": 0, "is_disabled": 0, "fusion_lat": 0.0, "type": "electric_scooter", "name": "a2dabbd5b4bc866aed3f9904b6f9eae0", "lat": 38.89214183333333, "bike_id": "a2dabbd5b4bc866aed3f9904b6f9eae0"}, {"lon": -76.97522016666667, "rental_uris": {"android": "https://dc.lft.to/lastmile_qr_scan", "ios": "https://dc.lft.to/lastmile_qr_scan"}, "fusion_lon": 0.0, "is_reserved": 0, "is_disabled": 0, "fusion_lat": 0.0, "type": "electric_bike", "name": "fafab685e9f0dfd6aa9a5438359f3044", "lat": 38.84003216666667, "bike_id": "fafab685e9f0dfd6aa9a5438359f3044"}, {"lon": -77.03656966666667, "rental_uris": {"android": "https://dc.lft.to/lastmile_qr_scan", "ios": "https://dc.lft.to/lastmile_qr_scan"}, "fusion_lon": 0.0, "is_reserved": 0, "is_disabled": 0, "fusion_lat": 0.0, "type": "electric_scooter", "name": "4bdbad4465b6039bdb9ce9006712f7f6", "lat": 38.912979666666665, "bike_id": "4bdbad4465b6039bdb9ce9006712f7f6"}, {"lon": -77.03141966666666, "rental_uris": {"android": "https://dc.lft.to/lastmile_qr_scan", "ios": "https://dc.lft.to/lastmile_qr_scan"}, "fusion_lon": 0.0, "is_reserved": 0, "is_disabled": 0, "fusion_lat": 0.0, "type": "electric_scooter", "name": "98f493528b2ba51f85ff4fba836194ee", "lat": 38.90260683333333, "bike_id": "98f493528b2ba51f85ff4fba836194ee"}, {"lon": -77.04540566666667, "rental_uris": {"android": "https://dc.lft.to/lastmile_qr_scan", "ios": "https://dc.lft.to/lastmile_qr_scan"}, "fusion_lon": 0.0, "is_reserved": 0, "is_disabled": 0, "fusion_lat": 0.0, "type": "electric_scooter", "name": "ff0ea5e601cecb113b87db2a9ef603a7", "lat": 38.911154, "bike_id": "ff0ea5e601cecb113b87db2a9ef603a7"}, {"lon": -77.0238335, "rental_uris": {"android": "https://dc.lft.to/lastmile_qr_scan", "ios": "https://dc.lft.to/lastmile_qr_scan"}, "fusion_lon": 0.0, "is_reserved": 0, "is_disabled": 0, "fusion_lat": 0.0, "type": "electric_scooter", "name": "549f029363bd145a579743b3d10044f4", "lat": 38.91962866666667, "bike_id": "549f029363bd145a579743b3d10044f4"}, {"lon": -77.02363783333334, "rental_uris": {"android": "https://dc.lft.to/lastmile_qr_scan", "ios": "https://dc.lft.to/lastmile_qr_scan"}, "fusion_lon": 0.0, "is_reserved": 0, "is_disabled": 0, "fusion_lat": 0.0, "type": "electric_scooter", "name": "f039ef33b187d2b33aad9546d045dafa", "lat": 38.920637, "bike_id": "f039ef33b187d2b33aad9546d045dafa"}, {"lon": -77.04352533333333, "rental_uris": {"android": "https://dc.lft.to/lastmile_qr_scan", "ios": "https://dc.lft.to/lastmile_qr_scan"}, "fusion_lon": 0.0, "is_reserved": 0, "is_disabled": 0, "fusion_lat": 0.0, "type": "electric_scooter", "name": "f94b0cd42fbebc1ccfe41936c2e6a5a1", "lat": 38.904117166666666, "bike_id": "f94b0cd42fbebc1ccfe41936c2e6a5a1"}, {"lon": -77.04682283333334, "rental_uris": {"android": "https://dc.lft.to/lastmile_qr_scan", "ios": "https://dc.lft.to/lastmile_qr_scan"}, "fusion_lon": 0.0, "is_reserved": 0, "is_disabled": 0, "fusion_lat": 0.0, "type": "electric_scooter", "name": "737c502628c1ce3f56352fb7459aa2a6", "lat": 38.892254333333334, "bike_id": "737c502628c1ce3f56352fb7459aa2a6"}, {"lon": -77.02200116666667, "rental_uris": {"android": "https://dc.lft.to/lastmile_qr_scan", "ios": "https://dc.lft.to/lastmile_qr_scan"}, "fusion_lon": 0.0, "is_reserved": 0, "is_disabled": 0, "fusion_lat": 0.0, "type": "electric_scooter", "name": "b34205f136158058358b9d58fed704ca", "lat": 38.9105055, "bike_id": "b34205f136158058358b9d58fed704ca"}, {"lon": -77.02139833333334, "rental_uris": {"android": "https://dc.lft.to/lastmile_qr_scan", "ios": "https://dc.lft.to/lastmile_qr_scan"}, "fusion_lon": 0.0, "is_reserved": 0, "is_disabled": 0, "fusion_lat": 0.0, "type": "electric_scooter", "name": "3c571ec5bb49746539aa847d3aee8560", "lat": 38.911105, "bike_id": "3c571ec5bb49746539aa847d3aee8560"}, {"lon": -77.02033066666667, "rental_uris": {"android": "https://dc.lft.to/lastmile_qr_scan", "ios": "https://dc.lft.to/lastmile_qr_scan"}, "fusion_lon": 0.0, "is_reserved": 0, "is_disabled": 0, "fusion_lat": 0.0, "type": "electric_scooter", "name": "be4d3e32ac153d5a4aab9b0c09b85daf", "lat": 38.9243455, "bike_id": "be4d3e32ac153d5a4aab9b0c09b85daf"}, {"lon": -77.06377183333333, "rental_uris": {"android": "https://dc.lft.to/lastmile_qr_scan", "ios": "https://dc.lft.to/lastmile_qr_scan"}, "fusion_lon": 0.0, "is_reserved": 0, "is_disabled": 0, "fusion_lat": 0.0, "type": "electric_scooter", "name": "b0d96053f4e9014f42baee879884f7ca", "lat": 38.90609083333333, "bike_id": "b0d96053f4e9014f42baee879884f7ca"}, {"lon": -77.03019433333333, "rental_uris": {"android": "https://dc.lft.to/lastmile_qr_scan", "ios": "https://dc.lft.to/lastmile_qr_scan"}, "fusion_lon": 0.0, "is_reserved": 0, "is_disabled": 0, "fusion_lat": 0.0, "type": "electric_scooter", "name": "f8ecadeb02bba5d451b24aeec0267554", "lat": 38.91185866666667, "bike_id": "f8ecadeb02bba5d451b24aeec0267554"}, {"lon": -76.999395, "rental_uris": {"android": "https://dc.lft.to/lastmile_qr_scan", "ios": "https://dc.lft.to/lastmile_qr_scan"}, "fusion_lon": 0.0, "is_reserved": 0, "is_disabled": 0, "fusion_lat": 0.0, "type": "electric_scooter", "name": "3ba187acb1250270c85e67792a7344df", "lat": 38.90419283333333, "bike_id": "3ba187acb1250270c85e67792a7344df"}, {"lon": -77.2100055, "rental_uris": {"android": "https://dc.lft.to/lastmile_qr_scan", "ios": "https://dc.lft.to/lastmile_qr_scan"}, "fusion_lon": 0.0, "is_reserved": 0, "is_disabled": 0, "fusion_lat": 0.0, "type": "electric_bike", "name": "a8c86aadfccfef23c7561214f01d9ef6", "lat": 38.92588816666667, "bike_id": "a8c86aadfccfef23c7561214f01d9ef6"}, {"lon": -77.02815366666667, "rental_uris": {"android": "https://dc.lft.to/lastmile_qr_scan", "ios": "https://dc.lft.to/lastmile_qr_scan"}, "fusion_lon": 0.0, "is_reserved": 0, "is_disabled": 0, "fusion_lat": 0.0, "type": "electric_scooter", "name": "7caedd376722edfd2733cf34c3bf7182", "lat": 38.88624933333333, "bike_id": "7caedd376722edfd2733cf34c3bf7182"}, {"lon": -77.03377916666666, "rental_uris": {"android": "https://dc.lft.to/lastmile_qr_scan", "ios": "https://dc.lft.to/lastmile_qr_scan"},