{"data": {"bikes": [{"name": "06af00ced0b1fee920cef7bcd737ba07", "type": "electric_scooter", "lat": 38.90007216666667, "is_reserved": 0, "lon": -76.99158083333333, "fusion_lon": 0.0, "is_disabled": 0, "fusion_lat": 0.0, "bike_id": "06af00ced0b1fee920cef7bcd737ba07", "rental_uris": {"ios": "https://dc.lft.to/lastmile_qr_scan", "android": "https://dc.lft.to/lastmile_qr_scan"}}, {"name": "0929acf32dd7ca5d9b6e3bdcf1945f10", "type": "electric_scooter", "lat": 38.933867, "is_reserved": 0, "lon": -77.02967333333333, "fusion_lon": 0.0, "is_disabled": 0, "fusion_lat": 0.0, "bike_id": "0929acf32dd7ca5d9b6e3bdcf1945f10", "rental_uris": {"ios": "https://dc.lft.to/lastmile_qr_scan", "android": "https://dc.lft.to/lastmile_qr_scan"}}, {"name": "8e2588d0d5400c667daba6c26082ade3", "type": "electric_scooter", "lat": 38.93985833333333, "is_reserved": 0, "lon": -77.0289445, "fusion_lon": 0.0, "is_disabled": 0, "fusion_lat": 0.0, "bike_id": "8e2588d0d5400c667daba6c26082ade3", "rental_uris": {"ios": "https://dc.lft.to/lastmile_qr_scan", "android": "https://dc.lft.to/lastmile_qr_scan"}}, {"name": "df953227d4b037480e48fd277b0ed2f3", "type": "electric_scooter", "lat": 38.923590833333336, "is_reserved": 0, "lon": -77.04149483333333, "fusion_lon": 0.0, "is_disabled": 0, "fusion_lat": 0.0, "bike_id": "df953227d4b037480e48fd277b0ed2f3", "rental_uris": {"ios": "https://dc.lft.to/lastmile_qr_scan", "android": "https://dc.lft.to/lastmile_qr_scan"}}, {"name": "89261bebcd56d11f0fa6a051a5a9295e", "type": "electric_bike", "lat": 38.966259, "is_reserved": 0, "lon": -76.97668633333333, "fusion_lon": 0.0, "is_disabled": 0, "fusion_lat": 0.0, "bike_id": "89261bebcd56d11f0fa6a051a5a9295e", "rental_uris": {"ios": "https://dc.lft.to/lastmile_qr_scan", "android": "https://dc.lft.to/lastmile_qr_scan"}}, {"name": "0148c291236944ef6539bec379a4b7a5", "type": "electric_scooter", "lat": 38.921807, "is_reserved": 0, "lon": -77.0266745, "fusion_lon": 0.0, "is_disabled": 0, "fusion_lat": 0.0, "bike_id": "0148c291236944ef6539bec379a4b7a5", "rental_uris": {"ios": "https://dc.lft.to/lastmile_qr_scan", "android": "https://dc.lft.to/lastmile_qr_scan"}}, {"name": "c203db9873b83656134cf6eacfaa2521", "type": "electric_bike", "lat": 38.999365, "is_reserved": 0, "lon": -77.01769633333333, "fusion_lon": 0.0, "is_disabled": 0, "fusion_lat": 0.0, "bike_id": "c203db9873b83656134cf6eacfaa2521", "rental_uris": {"ios": "https://dc.lft.to/lastmile_qr_scan", "android": "https://dc.lft.to/lastmile_qr_scan"}}, {"name": "0e5e6375cbc94bc42ccb8ded95a4557a", "type": "electric_scooter", "lat": 38.92054666666667, "is_reserved": 0, "lon": -77.03342266666667, "fusion_lon": 0.0, "is_disabled": 0, "fusion_lat": 0.0, "bike_id": "0e5e6375cbc94bc42ccb8ded95a4557a", "rental_uris": {"ios": "https://dc.lft.to/lastmile_qr_scan", "android": "https://dc.lft.to/lastmile_qr_scan"}}, {"name": "84b03d20475c5712c3d898d3d699aec7", "type": "electric_scooter", "lat": 38.92059883333334, "is_reserved": 0, "lon": -77.0345945, "fusion_lon": 0.0, "is_disabled": 0, "fusion_lat": 0.0, "bike_id": "84b03d20475c5712c3d898d3d699aec7", "rental_uris": {"ios": "https://dc.lft.to/lastmile_qr_scan", "android": "https://dc.lft.to/lastmile_qr_scan"}}, {"name": "7423c88d680bce3c66ecf29c2c026463", "type": "electric_scooter", "lat": 38.86701683333333, "is_reserved": 0, "lon": -76.98713783333334, "fusion_lon": 0.0, "is_disabled": 0, "fusion_lat": 0.0, "bike_id": "7423c88d680bce3c66ecf29c2c026463", "rental_uris": {"ios": "https://dc.lft.to/lastmile_qr_scan", "android": "https://dc.lft.to/lastmile_qr_scan"}}, {"name": "345989b9d61d47c083b95cdda217a102", "type": "electric_bike", "lat": 38.85852633333333, "is_reserved": 0, "lon": -77.0975235, "fusion_lon": 0.0, "is_disabled": 0, "fusion_lat": 0.0, "bike_id": "345989b9d61d47c083b95cdda217a102", "rental_uris": {"ios": "https://dc.lft.to/lastmile_qr_scan", "android": "https://dc.lft.to/lastmile_qr_scan"}}, {"name": "c41884155b6a3d93262ada1ba1e7f0a6", "type": "electric_scooter", "lat": 38.90077616666667, "is_reserved": 0, "lon": -77.05016916666666, "fusion_lon": 0.0, "is_disabled": 0, "fusion_lat": 0.0, "bike_id": "c41884155b6a3d93262ada1ba1e7f0a6", "rental_uris": {"ios": "https://dc.lft.to/lastmile_qr_scan", "android": "https://dc.lft.to/lastmile_qr_scan"}}, {"name": "fa25ed2aac3ad63b07d80dad77c2b180", "type": "electric_scooter", "lat": 38.92160333333333, "is_reserved": 0, "lon": -77.03256183333333, "fusion_lon": 0.0, "is_disabled": 0, "fusion_lat": 0.0, "bike_id": "fa25ed2aac3ad63b07d80dad77c2b180", "rental_uris": {"ios": "https://dc.lft.to/lastmile_qr_scan", "android": "https://dc.lft.to/lastmile_qr_scan"}}, {"name": "3086f6b191bcbd573bc88586ad1b80ae", "type": "electric_scooter", "lat": 38.8832065, "is_reserved": 0, "lon": -77.01744966666666, "fusion_lon": 0.0, "is_disabled": 0, "fusion_lat": 0.0, "bike_id": "3086f6b191bcbd573bc88586ad1b80ae", "rental_uris": {"ios": "https://dc.lft.to/lastmile_qr_scan", "android": "https://dc.lft.to/lastmile_qr_scan"}}, {"name": "efade7e1e039f750dbd75115caee6c98", "type": "electric_scooter", "lat": 38.943025666666664, "is_reserved": 0, "lon": -77.05925283333333, "fusion_lon": 0.0, "is_disabled": 0, "fusion_lat": 0.0, "bike_id": "efade7e1e039f750dbd75115caee6c98", "rental_uris": {"ios": "https://dc.lft.to/lastmile_qr_scan", "android": "https://dc.lft.to/lastmile_qr_scan"}}, {"name": "401bc54e5988bf924c4759d249dd9c38", "type": "electric_scooter", "lat": 38.91822066666667, "is_reserved": 0, "lon": -77.034447, "fusion_lon": 0.0, "is_disabled": 0, "fusion_lat": 0.0, "bike_id": "401bc54e5988bf924c4759d249dd9c38", "rental_uris": {"ios": "https://dc.lft.to/lastmile_qr_scan", "android": "https://dc.lft.to/lastmile_qr_scan"}}, {"name": "035ca2ec07c189eda9bfebf299e8a7c1", "type": "electric_scooter", "lat": 38.90120666666667, "is_reserved": 0, "lon": -77.0416355, "fusion_lon": 0.0, "is_disabled": 0, "fusion_lat": 0.0, "bike_id": "035ca2ec07c189eda9bfebf299e8a7c1", "rental_uris": {"ios": "https://dc.lft.to/lastmile_qr_scan", "android": "https://dc.lft.to/lastmile_qr_scan"}}, {"name": "a2aba268c400932ee6c9116c444bb6b8", "type": "electric_scooter", "lat": 38.91623766666667, "is_reserved": 0, "lon": -77.01337516666666, "fusion_lon": 0.0, "is_disabled": 0, "fusion_lat": 0.0, "bike_id": "a2aba268c400932ee6c9116c444bb6b8", "rental_uris": {"ios": "https://dc.lft.to/lastmile_qr_scan", "android": "https://dc.lft.to/lastmile_qr_scan"}}, {"name": "1531d532c0e7a090d91e7a2ab3f5cb81", "type": "electric_scooter", "lat": 38.9159275, "is_reserved": 0, "lon": -77.04475883333333, "fusion_lon": 0.0, "is_disabled": 0, "fusion_lat": 0.0, "bike_id": "1531d532c0e7a090d91e7a2ab3f5cb81", "rental_uris": {"ios": "https://dc.lft.to/lastmile_qr_scan", "android": "https://dc.lft.to/lastmile_qr_scan"}}, {"name": "7e449a93adaba12f61c72033ab81ed96", "type": "electric_bike", "lat": 39.038810833333336, "is_reserved": 0, "lon": -76.99042033333333, "fusion_lon": 0.0, "is_disabled": 0, "fusion_lat": 0.0, "bike_id": "7e449a93adaba12f61c72033ab81ed96", "rental_uris": {"ios": "https://dc.lft.to/lastmile_qr_scan", "android": "https://dc.lft.to/lastmile_qr_scan"}}, {"name": "4ca205d0ca41631a9ee6b34290192556", "type": "electric_scooter", "lat": 38.906092666666666, "is_reserved": 0, "lon": -77.0748845, "fusion_lon": 0.0, "is_disabled": 0, "fusion_lat": 0.0, "bike_id": "4ca205d0ca41631a9ee6b34290192556", "rental_uris": {"ios": "https://dc.lft.to/lastmile_qr_scan", "android": "https://dc.lft.to/lastmile_qr_scan"}}, {"name": "0bd003ff786501dd8afe31b325998d1f", "type": "electric_scooter", "lat": 38.900143166666666, "is_reserved": 0, "lon": -76.9911905, "fusion_lon": 0.0, "is_disabled": 0, "fusion_lat": 0.0, "bike_id": "0bd003ff786501dd8afe31b325998d1f", "rental_uris": {"ios": "https://dc.lft.to/lastmile_qr_scan", "android": "https://dc.lft.to/lastmile_qr_scan"}}, {"name": "0b5dcabc468dab568c121e17b7dab527", "type": "electric_scooter", "lat": 38.90522166666667, "is_reserved": 0, "lon": -77.04352166666666, "fusion_lon": 0.0, "is_disabled": 0, "fusion_lat": 0.0, "bike_id": "0b5dcabc468dab568c121e17b7dab527", "rental_uris": {"ios": "https://dc.lft.to/lastmile_qr_scan", "android": "https://dc.lft.to/lastmile_qr_scan"}}, {"name": "121b7bc8338bc46cc7cd8fa521ce6357", "type": "electric_scooter", "lat": 38.92441783333334, "is_reserved": 0, "lon": -77.02036983333333, "fusion_lon": 0.0, "is_disabled": 0, "fusion_lat": 0.0, "bike_id": "121b7bc8338bc46cc7cd8fa521ce6357", "rental_uris": {"ios": "https://dc.lft.to/lastmile_qr_scan", "android": "https://dc.lft.to/lastmile_qr_scan"}}, {"name": "2503b4a90e0eaa597c26df79a16ee701", "type": "electric_scooter", "lat": 38.972342833333336, "is_reserved": 0, "lon": -77.02712433333333, "fusion_lon": 0.0, "is_disabled": 0, "fusion_lat": 0.0, "bike_id": "2503b4a90e0eaa597c26df79a16ee701", "rental_uris": {"ios": "https://dc.lft.to/lastmile_qr_scan", "android": "https://dc.lft.to/lastmile_qr_scan"}}, {"name": "01d9221b90adfc455a513ecfe162741a", "type": "electric_scooter", "lat": 38.9409635, "is_reserved": 0, "lon": -77.03281983333333, "fusion_lon": 0.0, "is_disabled": 0, "fusion_lat": 0.0, "bike_id": "01d9221b90adfc455a513ecfe162741a", "rental_uris": {"ios": "https://dc.lft.to/lastmile_qr_scan", "android": "https://dc.lft.to/lastmile_qr_scan"}}, {"name": "74fd9a9ba98df638f9e16da1cd5eda3f", "type": "electric_scooter", "lat": 38.855263666666666, "is_reserved": 0, "lon": -76.96918366666667, "fusion_lon": 0.0, "is_disabled": 0, "fusion_lat": 0.0, "bike_id": "74fd9a9ba98df638f9e16da1cd5eda3f", "rental_uris": {"ios": "https://dc.lft.to/lastmile_qr_scan", "android": "https://dc.lft.to/lastmile_qr_scan"}}, {"name": "fc424a98c69f0c4d28701a300037f3b7", "type": "electric_scooter", "lat": 38.91818166666667, "is_reserved": 0, "lon": -77.03621983333333, "fusion_lon": 0.0, "is_disabled": 0, "fusion_lat": 0.0, "bike_id": "fc424a98c69f0c4d28701a300037f3b7", "rental_uris": {"ios": "https://dc.lft.to/lastmile_qr_scan", "android": "https://dc.lft.to/lastmile_qr_scan"}}, {"name": "18bb8e907960d0cc4b62050394737e05", "type": "electric_scooter", "lat": 38.8940265, "is_reserved": 0, "lon": -76.94807316666666, "fusion_lon": 0.0, "is_disabled": 0, "fusion_lat": 0.0, "bike_id": "18bb8e907960d0cc4b62050394737e05", "rental_uris": {"ios": "https://dc.lft.to/lastmile_qr_scan", "android": "https://dc.lft.to/lastmile_qr_scan"}}, {"name": "e9277dc39761ac7ed8c8b80d720e18b5", "type": "electric_scooter", "lat": 38.899924166666665, "is_reserved": 0, "lon": -76.99506983333333, "fusion_lon": 0.0, "is_disabled": 0, "fusion_lat": 0.0, "bike_id": "e9277dc39761ac7ed8c8b80d720e18b5", "rental_uris": {"ios": "https://dc.lft.to/lastmile_qr_scan", "android": "https://dc.lft.to/lastmile_qr_scan"}}, {"name": "43122b3cd84e48c563cd28f5e898956c", "type": "electric_scooter", "lat": 38.90728333333333, "is_reserved": 0, "lon": -77.0344295, "fusion_lon": 0.0, "is_disabled": 0, "fusion_lat": 0.0, "bike_id": "43122b3cd84e48c563cd28f5e898956c", "rental_uris": {"ios": "https://dc.lft.to/lastmile_qr_scan", "android": "https://dc.lft.to/lastmile_qr_scan"}}, {"name": "a736b25c068e4e85cc336e137222a750", "type": "electric_bike", "lat": 38.945059, "is_reserved": 0, "lon": -77.00676, "fusion_lon": 0.0, "is_disabled": 0, "fusion_lat": 0.0, "bike_id": "a736b25c068e4e85cc336e137222a750", "rental_uris": {"ios": "https://dc.lft.to/lastmile_qr_scan", "android": "https://dc.lft.to/lastmile_qr_scan"}}, {"name": "84154c1b62eea29f18880e2442c2d7fc", "type": "electric_scooter", "lat": 38.91755033333333, "is_reserved": 0, "lon": -77.03959883333333, "fusion_lon": 0.0, "is_disabled": 0, "fusion_lat": 0.0, "bike_id": "84154c1b62eea29f18880e2442c2d7fc", "rental_uris": {"ios": "https://dc.lft.to/lastmile_qr_scan", "android": "https://dc.lft.to/lastmile_qr_scan"}}, {"name": "1eb17368e16a50e11cc650bb023c89d5", "type": "electric_scooter", "lat": 38.905599333333335, "is_reserved": 0, "lon": -77.02173216666667, "fusion_lon": 0.0, "is_disabled": 0, "fusion_lat": 0.0, "bike_id": "1eb17368e16a50e11cc650bb023c89d5", "rental_uris": {"ios": "https://dc.lft.to/lastmile_qr_scan", "android": "https://dc.lft.to/lastmile_qr_scan"}}, {"name": "c30e55df9b023600af686b32d98a2360", "type": "electric_scooter", "lat": 38.864170333333334, "is_reserved": 0, "lon": -76.980454, "fusion_lon": 0.0, "is_disabled": 0, "fusion_lat": 0.0, "bike_id": "c30e55df9b023600af686b32d98a2360", "rental_uris": {"ios": "https://dc.lft.to/lastmile_qr_scan", "android": "https://dc.lft.to/lastmile_qr_scan"}}, {"name": "e4903982bb2bac13969d1ba49c6f45db", "type": "electric_scooter", "lat": 38.9014675, "is_reserved": 0, "lon": -77.03311666666667, "fusion_lon": 0.0, "is_disabled": 0, "fusion_lat": 0.0, "bike_id": "e4903982bb2bac13969d1ba49c6f45db", "rental_uris": {"ios": "https://dc.lft.to/lastmile_qr_scan", "android": "https://dc.lft.to/lastmile_qr_scan"}}, {"name": "46471a54638330cf4234695d21673767", "type": "electric_scooter", "lat": 38.9304825, "is_reserved": 0, "lon": -77.027867, "fusion_lon": 0.0, "is_disabled": 0, "fusion_lat": 0.0, "bike_id": "46471a54638330cf4234695d21673767", "rental_uris": {"ios": "https://dc.lft.to/lastmile_qr_scan", "android": "https://dc.lft.to/lastmile_qr_scan"}}, {"name": "d9bca9de4b15ea096df018dba6e4e932", "type": "electric_scooter", "lat": 38.927140333333334, "is_reserved": 0, "lon": -77.02284166666666, "fusion_lon": 0.0, "is_disabled": 0, "fusion_lat": 0.0, "bike_id": "d9bca9de4b15ea096df018dba6e4e932", "rental_uris": {"ios": "https://dc.lft.to/lastmile_qr_scan", "android": "https://dc.lft.to/lastmile_qr_scan"}}, {"name": "6ed0265545df37887a93e6d9e30f95fb", "type": "electric_scooter", "lat": 38.924479833333336, "is_reserved": 0, "lon": -77.03374983333333, "fusion_lon": 0.0, "is_disabled": 0, "fusion_lat": 0.0, "bike_id": "6ed0265545df37887a93e6d9e30f95fb", "rental_uris": {"ios": "https://dc.lft.to/lastmile_qr_scan", "android": "https://dc.lft.to/lastmile_qr_scan"}}, {"name": "2d5ee8eb0b254c60e8904884566aaf10", "type": "electric_scooter", "lat": 38.90740066666667, "is_reserved": 0, "lon": -77.041941, "fusion_lon": 0.0, "is_disabled": 0, "fusion_lat": 0.0, "bike_id": "2d5ee8eb0b254c60e8904884566aaf10", "rental_uris": {"ios": "https://dc.lft.to/lastmile_qr_scan", "android": "https://dc.lft.to/lastmile_qr_scan"}}, {"name": "bdb8fa0cad12f82eaa21946dec686a62", "type": "electric_scooter", "lat": 38.908478833333334, "is_reserved": 0, "lon": -77.02061166666667, "fusion_lon": 0.0, "is_disabled": 0, "fusion_lat": 0.0, "bike_id": "bdb8fa0cad12f82eaa21946dec686a62", "rental_uris": {"ios": "https://dc.lft.to/lastmile_qr_scan", "android": "https://dc.lft.to/lastmile_qr_scan"}}, {"name": "49ec84dd58833e550c03501098533010", "type": "electric_scooter", "lat": 38.92456116666666, "is_reserved": 0, "lon": -76.99900183333334, "fusion_lon": 0.0, "is_disabled": 0, "fusion_lat": 0.0, "bike_id": "49ec84dd58833e550c03501098533010", "rental_uris": {"ios": "https://dc.lft.to/lastmile_qr_scan", "android": "https://dc.lft.to/lastmile_qr_scan"}}, {"name": "c6dbb35200c7c28d2a086d67c7582d3d", "type": "electric_scooter", "lat": 38.93116233333333, "is_reserved": 0, "lon": -77.0210435, "fusion_lon": 0.0, "is_disabled": 0, "fusion_lat": 0.0, "bike_id": "c6dbb35200c7c28d2a086d67c7582d3d", "rental_uris": {"ios": "https://dc.lft.to/lastmile_qr_scan", "android": "https://dc.lft.to/lastmile_qr_scan"}}, {"name": "1c2fbd0549282f2ea23bd329d2a5fd41", "type": "electric_scooter", "lat": 38.91869833333333, "is_reserved": 0, "lon": -77.02304216666667, "fusion_lon": 0.0, "is_disabled": 0, "fusion_lat": 0.0, "bike_id": "1c2fbd0549282f2ea23bd329d2a5fd41", "rental_uris": {"ios": "https://dc.lft.to/lastmile_qr_scan", "android": "https://dc.lft.to/lastmile_qr_scan"}}, {"name": "747c390001c614ea5414aa7bb748383f", "type": "electric_scooter", "lat": 38.883269, "is_reserved": 0, "lon": -77.01768133333333, "fusion_lon": 0.0, "is_disabled": 0, "fusion_lat": 0.0, "bike_id": "747c390001c614ea5414aa7bb748383f", "rental_uris": {"ios": "https://dc.lft.to/lastmile_qr_scan", "android": "https://dc.lft.to/lastmile_qr_scan"}}, {"name": "ba857e72cd4ef5dc0326bebb3467fc4e", "type": "electric_scooter", "lat": 38.909841166666666, "is_reserved": 0, "lon": -77.0671675, "fusion_lon": 0.0, "is_disabled": 0, "fusion_lat": 0.0, "bike_id": "ba857e72cd4ef5dc0326bebb3467fc4e", "rental_uris": {"ios": "https://dc.lft.to/lastmile_qr_scan", "android": "https://dc.lft.to/lastmile_qr_scan"}}, {"name": "a835d75862024a23edf97281a09b85e3", "type": "electric_scooter", "lat": 38.9172125, "is_reserved": 0, "lon": -77.03460583333333, "fusion_lon": 0.0, "is_disabled": 0, "fusion_lat": 0.0, "bike_id": "a835d75862024a23edf97281a09b85e3", "rental_uris": {"ios": "https://dc.lft.to/lastmile_qr_scan", "android": "https://dc.lft.to/lastmile_qr_scan"}}, {"name": "409630af16946630c62d1c90d624b036", "type": "electric_scooter", "lat": 38.949297, "is_reserved": 0, "lon": -77.01940166666667, "fusion_lon": 0.0, "is_disabled": 0, "fusion_lat": 0.0, "bike_id": "409630af16946630c62d1c90d624b036", "rental_uris": {"ios": "https://dc.lft.to/lastmile_qr_scan", "android": "https://dc.lft.to/lastmile_qr_scan"}}, {"name": "1adf515ceec4f611e8ba065aca496b1e", "type": "electric_scooter", "lat": 38.917888166666664, "is_reserved": 0, "lon": -77.02298966666666, "fusion_lon": 0.0, "is_disabled": 0, "fusion_lat": 0.0, "bike_id": "1adf515ceec4f611e8ba065aca496b1e", "rental_uris": {"ios": "https://dc.lft.to/lastmile_qr_scan", "android": "https://dc.lft.to/lastmile_qr_scan"}}, {"name": "f5ad5fbe9465c5cdaacab1dda4afc412", "type": "electric_scooter", "lat": 38.93489433333333, "is_reserved": 0, "lon": -77.07243333333334, "fusion_lon": 0.0, "is_disabled": 0, "fusion_lat": 0.0, "bike_id": "f5ad5fbe9465c5cdaacab1dda4afc412", "rental_uris": {"ios": "https://dc.lft.to/lastmile_qr_scan", "android": "https://dc.lft.to/lastmile_qr_scan"}}, {"name": "166ab0e858a2846bb68f87ab960e9c22", "type": "electric_scooter", "lat": 38.90820383333333, "is_reserved": 0, "lon": -77.00025033333333, "fusion_lon": 0.0, "is_disabled": 0, "fusion_lat": 0.0, "bike_id": "166ab0e858a2846bb68f87ab960e9c22", "rental_uris": {"ios": "https://dc.lft.to/lastmile_qr_scan", "android": "https://dc.lft.to/lastmile_qr_scan"}}, {"name": "e626378fcb35b1a1e47c62e15bc2f84c", "type": "electric_scooter", "lat": 38.9002985, "is_reserved": 0, "lon": -77.01182366666667, "fusion_lon": 0.0, "is_disabled": 0, "fusion_lat": 0.0, "bike_id": "e626378fcb35b1a1e47c62e15bc2f84c", "rental_uris": {"ios": "https://dc.lft.to/lastmile_qr_scan", "android": "https://dc.lft.to/lastmile_qr_scan"}}, {"name": "22aa112a734cbb8e3fc51b8551243390", "type": "electric_scooter", "lat": 38.93866383333334, "is_reserved": 0, "lon": -77.0267485, "fusion_lon": 0.0, "is_disabled": 0, "fusion_lat": 0.0, "bike_id": "22aa112a734cbb8e3fc51b8551243390", "rental_uris": {"ios": "https://dc.lft.to/lastmile_qr_scan", "android": "https://dc.lft.to/lastmile_qr_scan"}}, {"name": "64497b55b65301584b765fff015f141a", "type": "electric_scooter", "lat": 38.89677366666667, "is_reserved": 0, "lon": -77.026086, "fusion_lon": 0.0, "is_disabled": 0, "fusion_lat": 0.0, "bike_id": "64497b55b65301584b765fff015f141a", "rental_uris": {"ios": "https://dc.lft.to/lastmile_qr_scan", "android": "https://dc.lft.to/lastmile_qr_scan"}}, {"name": "69dd91ab8b34ede73bd9c5a278197dd1", "type": "electric_scooter", "lat": 38.9067555, "is_reserved": 0, "lon": -77.03825583333334, "fusion_lon": 0.0, "is_disabled": 0, "fusion_lat": 0.0, "bike_id": "69dd91ab8b34ede73bd9c5a278197dd1", "rental_uris": {"ios": "https://dc.lft.to/lastmile_qr_scan", "android": "https://dc.lft.to/lastmile_qr_scan"}}, {"name": "7e2904a0c0dd92108d1d35699140c780", "type": "electric_scooter", "lat": 38.905329333333334, "is_reserved": 0, "lon": -77.05025333333333, "fusion_lon": 0.0, "is_disabled": 0, "fusion_lat": 0.0, "bike_id": "7e2904a0c0dd92108d1d35699140c780", "rental_uris": {"ios": "https://dc.lft.to/lastmile_qr_scan", "android": "https://dc.lft.to/lastmile_qr_scan"}}, {"name": "0cad2f4a0d4b017d6eae26c6a0b950bf", "type": "electric_bike", "lat": 38.95690116666667, "is_reserved": 0, "lon": -77.022259, "fusion_lon": 0.0, "is_disabled": 0, "fusion_lat": 0.0, "bike_id": "0cad2f4a0d4b017d6eae26c6a0b950bf", "rental_uris": {"ios": "https://dc.lft.to/lastmile_qr_scan", "android": "https://dc.lft.to/lastmile_qr_scan"}}, {"name": "15fdf8e82856955dc465d2ea2f9f71cd", "type": "electric_scooter", "lat": 38.89826883333333, "is_reserved": 0, "lon": -76.946518, "fusion_lon": 0.0, "is_disabled": 0, "fusion_lat": 0.0, "bike_id": "15fdf8e82856955dc465d2ea2f9f71cd", "rental_uris": {"ios": "https://dc.lft.to/lastmile_qr_scan", "android": "https://dc.lft.to/lastmile_qr_scan"}}, {"name": "4ea511f904088c6366e68ff0a9582159", "type": "electric_scooter", "lat": 38.91546566666667, "is_reserved": 0, "lon": -77.03857833333333, "fusion_lon": 0.0, "is_disabled": 0, "fusion_lat": 0.0, "bike_id": "4ea511f904088c6366e68ff0a9582159", "rental_uris": {"ios": "https://dc.lft.to/lastmile_qr_scan", "android": "https://dc.lft.to/lastmile_qr_scan"}}, {"name": "1c2bd51ecbb5acd762ded7f481bf97e8", "type": "electric_scooter", "lat": 38.898257, "is_reserved": 0, "lon": -76.94652433333333, "fusion_lon": 0.0, "is_disabled": 0, "fusion_lat": 0.0, "bike_id": "1c2bd51ecbb5acd762ded7f481bf97e8", "rental_uris": {"ios": "https://dc.lft.to/lastmile_qr_scan", "android": "https://dc.lft.to/lastmile_qr_scan"}}, {"name": "fcf546b9d0e73bfac8c211af9ddcadaa", "type": "electric_scooter", "lat": 38.922499, "is_reserved": 0, "lon": -77.034685, "fusion_lon": 0.0, "is_disabled": 0, "fusion_lat": 0.0, "bike_id": "fcf546b9d0e73bfac8c211af9ddcadaa", "rental_uris": {"ios": "https://dc.lft.to/lastmile_qr_scan", "android": "https://dc.lft.to/lastmile_qr_scan"}}, {"name": "d7e177c9a705643ce639685ddb4a3651", "type": "electric_scooter", "lat": 38.887724666666664, "is_reserved": 0, "lon": -76.93264116666667, "fusion_lon": 0.0, "is_disabled": 0, "fusion_lat": 0.0, "bike_id": "d7e177c9a705643ce639685ddb4a3651", "rental_uris": {"ios": "https://dc.lft.to/lastmile_qr_scan", "android": "https://dc.lft.to/lastmile_qr_scan"}}, {"name": "b653bfb66f5ac8d46207d7c64aca030a", "type": "electric_scooter", "lat": 38.894631, "is_reserved": 0, "lon": -77.02118766666666, "fusion_lon": 0.0, "is_disabled": 0, "fusion_lat": 0.0, "bike_id": "b653bfb66f5ac8d46207d7c64aca030a", "rental_uris": {"ios": "https://dc.lft.to/lastmile_qr_scan", "android": "https://dc.lft.to/lastmile_qr_scan"}}, {"name": "37a5d01d28d0bd1be63fae56e8f36f88", "type": "electric_scooter", "lat": 38.92968833333333, "is_reserved": 0, "lon": -77.00534533333334, "fusion_lon": 0.0, "is_disabled": 0, "fusion_lat": 0.0, "bike_id": "37a5d01d28d0bd1be63fae56e8f36f88", "rental_uris": {"ios": "https://dc.lft.to/lastmile_qr_scan", "android": "https://dc.lft.to/lastmile_qr_scan"}}, {"name": "4cc067f367d88e96a0e0f8f25352927e", "type": "electric_scooter", "lat": 38.90451216666666, "is_reserved": 0, "lon": -76.996227, "fusion_lon": 0.0, "is_disabled": 0, "fusion_lat": 0.0, "bike_id": "4cc067f367d88e96a0e0f8f25352927e", "rental_uris": {"ios": "https://dc.lft.to/lastmile_qr_scan", "android": "https://dc.lft.to/lastmile_qr_scan"}}, {"name": "6c162e4cbf490996116ebb145d9e6228", "type": "electric_scooter", "lat": 38.87838466666667, "is_reserved": 0, "lon": -76.9904035, "fusion_lon": 0.0, "is_disabled": 0, "fusion_lat": 0.0, "bike_id": "6c162e4cbf490996116ebb145d9e6228", "rental_uris": {"ios": "https://dc.lft.to/lastmile_qr_scan", "android": "https://dc.lft.to/lastmile_qr_scan"}}, {"name": "da2f73e0cc026242c45f645ef62ca497", "type": "electric_scooter", "lat": 38.934856833333335, "is_reserved": 0, "lon": -77.03286566666667, "fusion_lon": 0.0, "is_disabled": 0, "fusion_lat": 0.0, "bike_id": "da2f73e0cc026242c45f645ef62ca497", "rental_uris": {"ios": "https://dc.lft.to/lastmile_qr_scan", "android": "https://dc.lft.to/lastmile_qr_scan"}}, {"name": "a1c112444fc1bd591d1bf4fe0c8afa85", "type": "electric_scooter", "lat": 38.91912383333333, "is_reserved": 0, "lon": -77.0134585, "fusion_lon": 0.0, "is_disabled": 0, "fusion_lat": 0.0, "bike_id": "a1c112444fc1bd591d1bf4fe0c8afa85", "rental_uris": {"ios": "https://dc.lft.to/lastmile_qr_scan", "android": "https://dc.lft.to/lastmile_qr_scan"}}, {"name": "e65dcfb32f38576b5490be713b8ab323", "type": "electric_scooter", "lat": 38.90299433333333, "is_reserved": 0, "lon": -76.99858666666667, "fusion_lon": 0.0, "is_disabled": 0, "fusion_lat": 0.0, "bike_id": "e65dcfb32f38576b5490be713b8ab323", "rental_uris": {"ios": "https://dc.lft.to/lastmile_qr_scan", "android": "https://dc.lft.to/lastmile_qr_scan"}}, {"name": "788bf454d6e3b7927e09afa65badf43e", "type": "electric_scooter", "lat": 38.91735333333333, "is_reserved": 0, "lon": -77.06846733333333, "fusion_lon": 0.0, "is_disabled": 0, "fusion_lat": 0.0, "bike_id": "788bf454d6e3b7927e09afa65badf43e", "rental_uris": {"ios": "https://dc.lft.to/lastmile_qr_scan", "android": "https://dc.lft.to/lastmile_qr_scan"}}, {"name": "66a9618f2ec96c45963223be6a043fa7", "type": "electric_scooter", "lat": 38.876300666666666, "is_reserved": 0, "lon": -76.965256, "fusion_lon": 0.0, "is_disabled": 0, "fusion_lat": 0.0, "bike_id": "66a9618f2ec96c45963223be6a043fa7", "rental_uris": {"ios": "https://dc.lft.to/lastmile_qr_scan", "android": "https://dc.lft.to/lastmile_qr_scan"}}, {"name": "0e067e8081a5bf3aa5877ee5f7821f4f", "type": "electric_scooter", "lat": 38.9057185, "is_reserved": 0, "lon": -77.0060975, "fusion_lon": 0.0, "is_disabled": 0, "fusion_lat": 0.0, "bike_id": "0e067e8081a5bf3aa5877ee5f7821f4f", "rental_uris": {"ios": "https://dc.lft.to/lastmile_qr_scan", "android": "https://dc.lft.to/lastmile_qr_scan"}}, {"name": "b8ffed13c859dbba976758602f821b70", "type": "electric_scooter", "lat": 38.8958435, "is_reserved": 0, "lon": -76.93719533333334, "fusion_lon": 0.0, "is_disabled": 0, "fusion_lat": 0.0, "bike_id": "b8ffed13c859dbba976758602f821b70", "rental_uris": {"ios": "https://dc.lft.to/lastmile_qr_scan", "android": "https://dc.lft.to/lastmile_qr_scan"}}, {"name": "6d876f3fbe3c7a1bd73a4add793328fd", "type": "electric_scooter", "lat": 38.8561495, "is_reserved": 0, "lon": -76.98020566666666, "fusion_lon": 0.0, "is_disabled": 0, "fusion_lat": 0.0, "bike_id": "6d876f3fbe3c7a1bd73a4add793328fd", "rental_uris": {"ios": "https://dc.lft.to/lastmile_qr_scan", "android": "https://dc.lft.to/lastmile_qr_scan"}}, {"name": "5a0850be3f6b691a30179b980e30b42a", "type": "electric_scooter", "lat": 38.842929166666664, "is_reserved": 0, "lon": -76.99945066666666, "fusion_lon": 0.0, "is_disabled": 0, "fusion_lat": 0.0, "bike_id": "5a0850be3f6b691a30179b980e30b42a", "rental_uris": {"ios": "https://dc.lft.to/lastmile_qr_scan", "android": "https://dc.lft.to/lastmile_qr_scan"}}, {"name": "e12873112acc9235028bf531f66f2839", "type": "electric_scooter", "lat": 38.9149535, "is_reserved": 0, "lon": -77.03246316666667, "fusion_lon": 0.0, "is_disabled": 0, "fusion_lat": 0.0, "bike_id": "e12873112acc9235028bf531f66f2839", "rental_uris": {"ios": "https://dc.lft.to/lastmile_qr_scan", "android": "https://dc.lft.to/lastmile_qr_scan"}}, {"name": "b8c0c141d0935b3d24acac0d599d4cb0", "type": "electric_bike", "lat": 38.90298716666667, "is_reserved": 0, "lon": -76.94440483333334, "fusion_lon": 0.0, "is_disabled": 0, "fusion_lat": 0.0, "bike_id": "b8c0c141d0935b3d24acac0d599d4cb0", "rental_uris": {"ios": "https://dc.lft.to/lastmile_qr_scan", "android": "https://dc.lft.to/lastmile_qr_scan"}}, {"name": "eeb39434911e6b1cf5755daca3c5ad99", "type": "electric_scooter", "lat": 38.95533833333333, "is_reserved": 0, "lon": -77.02471616666666, "fusion_lon": 0.0, "is_disabled": 0, "fusion_lat": 0.0, "bike_id": "eeb39434911e6b1cf5755daca3c5ad99", "rental_uris": {"ios": "https://dc.lft.to/lastmile_qr_scan", "android": "https://dc.lft.to/lastmile_qr_scan"}}, {"name": "86eaf71ec883eb24faa6de5ad5374afb", "type": "electric_scooter", "lat": 38.917188, "is_reserved": 0, "lon": -77.0186765, "fusion_lon": 0.0, "is_disabled": 0, "fusion_lat": 0.0, "bike_id": "86eaf71ec883eb24faa6de5ad5374afb", "rental_uris": {"ios": "https://dc.lft.to/lastmile_qr_scan", "android": "https://dc.lft.to/lastmile_qr_scan"}}, {"name": "54620ed5f5b6eade6f85e0cdb8aaa984", "type": "electric_scooter", "lat": 38.90027633333333, "is_reserved": 0, "lon": -76.99080733333334, "fusion_lon": 0.0, "is_disabled": 0, "fusion_lat": 0.0, "bike_id": "54620ed5f5b6eade6f85e0cdb8aaa984", "rental_uris": {"ios": "https://dc.lft.to/lastmile_qr_scan", "android": "https://dc.lft.to/lastmile_qr_scan"}}, {"name": "b6744ca668a7f740fd4af0680fd82498", "type": "electric_scooter", "lat": 38.905634, "is_reserved": 0, "lon": -77.02171666666666, "fusion_lon": 0.0, "is_disabled": 0, "fusion_lat": 0.0, "bike_id": "b6744ca668a7f740fd4af0680fd82498", "rental_uris": {"ios": "https://dc.lft.to/lastmile_qr_scan", "android": "https://dc.lft.to/lastmile_qr_scan"}}, {"name": "6492bb9425b1274451bf6d58a2df6af8", "type": "electric_scooter", "lat": 38.9003755, "is_reserved": 0, "lon": -77.00194983333333, "fusion_lon": 0.0, "is_disabled": 0, "fusion_lat": 0.0, "bike_id": "6492bb9425b1274451bf6d58a2df6af8", "rental_uris": {"ios": "https://dc.lft.to/lastmile_qr_scan", "android": "https://dc.lft.to/lastmile_qr_scan"}}, {"name": "54c52b93c507c3ce700578833fe32810", "type": "electric_bike", "lat": 38.822197, "is_reserved": 0, "lon": -77.10447733333334, "fusion_lon": 0.0, "is_disabled": 0, "fusion_lat": 0.0, "bike_id": "54c52b93c507c3ce700578833fe32810", "rental_uris": {"ios": "https://dc.lft.to/lastmile_qr_scan", "android": "https://dc.lft.to/lastmile_qr_scan"}}, {"name": "089fb3735a19dc24a638c09906455db9", "type": "electric_scooter", "lat": 38.905467, "is_reserved": 0, "lon": -77.02173783333333, "fusion_lon": 0.0, "is_disabled": 0, "fusion_lat": 0.0, "bike_id": "089fb3735a19dc24a638c09906455db9", "rental_uris": {"ios": "https://dc.lft.to/lastmile_qr_scan", "android": "https://dc.lft.to/lastmile_qr_scan"}}, {"name": "4d0bda5b8874cd82270e0bfde36dd256", "type": "electric_scooter", "lat": 38.8665765, "is_reserved": 0, "lon": -76.98882883333333, "fusion_lon": 0.0, "is_disabled": 0, "fusion_lat": 0.0, "bike_id": "4d0bda5b8874cd82270e0bfde36dd256", "rental_uris": {"ios": "https://dc.lft.to/lastmile_qr_scan", "android": "https://dc.lft.to/lastmile_qr_scan"}}, {"name": "8918dbf2216ff66fb45b2687cda153f5", "type": "electric_scooter", "lat": 38.89343133333333, "is_reserved": 0, "lon": -76.99384083333334, "fusion_lon": 0.0, "is_disabled": 0, "fusion_lat": 0.0, "bike_id": "8918dbf2216ff66fb45b2687cda153f5", "rental_uris": {"ios": "https://dc.lft.to/lastmile_qr_scan", "android": "https://dc.lft.to/lastmile_qr_scan"}}, {"name": "aa0e6d92670166e099361b908cc6339a", "type": "electric_scooter", "lat": 38.863674, "is_reserved": 0, "lon": -77.01364383333333, "fusion_lon": 0.0, "is_disabled": 0, "fusion_lat": 0.0, "bike_id": "aa0e6d92670166e099361b908cc6339a", "rental_uris": {"ios": "https://dc.lft.to/lastmile_qr_scan", "android": "https://dc.lft.to/lastmile_qr_scan"}}, {"name": "705c0c14a087cb7d80461ace8cd84fb9", "type": "electric_bike", "lat": 38.84574583333333, "is_reserved": 0, "lon": -77.09623633333334, "fusion_lon": 0.0, "is_disabled": 0, "fusion_lat": 0.0, "bike_id": "705c0c14a087cb7d80461ace8cd84fb9", "rental_uris": {"ios": "https://dc.lft.to/lastmile_qr_scan", "android": "https://dc.lft.to/lastmile_qr_scan"}}, {"name": "851a56091d9411c71e08854fcefaacf8", "type": "electric_scooter", "lat": 38.92306966666666, "is_reserved": 0, "lon": -77.01207583333333, "fusion_lon": 0.0, "is_disabled": 0, "fusion_lat": 0.0, "bike_id": "851a56091d9411c71e08854fcefaacf8", "rental_uris": {"ios": "https://dc.lft.to/lastmile_qr_scan", "android": "https://dc.lft.to/lastmile_qr_scan"}}, {"name": "06722727db5c4b5970635ee8145eb371", "type": "electric_scooter", "lat": 38.9024585, "is_reserved": 0, "lon": -77.0175305, "fusion_lon": 0.0, "is_disabled": 0, "fusion_lat": 0.0, "bike_id": "06722727db5c4b5970635ee8145eb371", "rental_uris": {"ios": "https://dc.lft.to/lastmile_qr_scan", "android": "https://dc.lft.to/lastmile_qr_scan"}}, {"name": "8fee2aa31eaef66bb73297486c60aa1e", "type": "electric_bike", "lat": 38.999137833333336, "is_reserved": 0, "lon": -77.0461995, "fusion_lon": 0.0, "is_disabled": 0, "fusion_lat": 0.0, "bike_id": "8fee2aa31eaef66bb73297486c60aa1e", "rental_uris": {"ios": "https://dc.lft.to/lastmile_qr_scan", "android": "https://dc.lft.to/lastmile_qr_scan"}}, {"name": "8e8bb8a33e653e0a0e1ec3363ebba6ec", "type": "electric_scooter", "lat": 38.96113716666667, "is_reserved": 0, "lon": -77.02815566666666, "fusion_lon": 0.0, "is_disabled": 0, "fusion_lat": 0.0, "bike_id": "8e8bb8a33e653e0a0e1ec3363ebba6ec", "rental_uris": {"ios": "https://dc.lft.to/lastmile_qr_scan", "android": "https://dc.lft.to/lastmile_qr_scan"}}, {"name": "fc9393e65dd62aeef472fc21d91a39e2", "type": "electric_bike", "lat": 38.908632833333336, "is_reserved": 0, "lon": -76.93160316666666, "fusion_lon": 0.0, "is_disabled": 0, "fusion_lat": 0.0, "bike_id": "fc9393e65dd62aeef472fc21d91a39e2", "rental_uris": {"ios": "https://dc.lft.to/lastmile_qr_scan", "android": "https://dc.lft.to/lastmile_qr_scan"}}, {"name": "93dc12bc34d4a7af75036df314d85ddb", "type": "electric_scooter", "lat": 38.907111666666665, "is_reserved": 0, "lon": -77.043572, "fusion_lon": 0.0, "is_disabled": 0, "fusion_lat": 0.0, "bike_id": "93dc12bc34d4a7af75036df314d85ddb", "rental_uris": {"ios": "https://dc.lft.to/lastmile_qr_scan", "android": "https://dc.lft.to/lastmile_qr_scan"}}, {"name": "cc2a59263a94a413ab1e6cc9a267f152", "type": "electric_scooter", "lat": 38.91928583333333, "is_reserved": 0, "lon": -77.0450255, "fusion_lon": 0.0, "is_disabled": 0, "fusion_lat": 0.0, "bike_id": "cc2a59263a94a413ab1e6cc9a267f152", "rental_uris": {"ios": "https://dc.lft.to/lastmile_qr_scan", "android": "https://dc.lft.to/lastmile_qr_scan"}}, {"name": "c630bd4d6fb7ef245443ffdc69f37e8c", "type": "electric_scooter", "lat": 38.91335083333333, "is_reserved": 0, "lon": -77.01623983333333, "fusion_lon": 0.0, "is_disabled": 0, "fusion_lat": 0.0, "bike_id": "c630bd4d6fb7ef245443ffdc69f37e8c", "rental_uris": {"ios": "https://dc.lft.to/lastmile_qr_scan", "android": "https://dc.lft.to/lastmile_qr_scan"}}, {"name": "68e08a22ff6874d0778e40b6b81e0552", "type": "electric_scooter", "lat": 38.90678333333334, "is_reserved": 0, "lon": -77.02496133333334, "fusion_lon": 0.0, "is_disabled": 0, "fusion_lat": 0.0, "bike_id": "68e08a22ff6874d0778e40b6b81e0552", "rental_uris": {"ios": "https://dc.lft.to/lastmile_qr_scan", "android": "https://dc.lft.to/lastmile_qr_scan"}}, {"name": "0b13c179bd7e003fe5246a011e91db22", "type": "electric_bike", "lat": 38.953354166666664, "is_reserved": 0, "lon": -76.982558, "fusion_lon": 0.0, "is_disabled": 0, "fusion_lat": 0.0, "bike_id": "0b13c179bd7e003fe5246a011e91db22", "rental_uris": {"ios": "https://dc.lft.to/lastmile_qr_scan", "android": "https://dc.lft.to/lastmile_qr_scan"}}, {"name": "baeac1619a816567988b8cd7170d747b", "type": "electric_bike", "lat": 38.87754566666667, "is_reserved": 0, "lon": -76.97985983333334, "fusion_lon": 0.0, "is_disabled": 0, "fusion_lat": 0.0, "bike_id": "baeac1619a816567988b8cd7170d747b", "rental_uris": {"ios": "https://dc.lft.to/lastmile_qr_scan", "android": "https://dc.lft.to/lastmile_qr_scan"}}, {"name": "83c527ae0feafc66ec09a297a9cb368c", "type": "electric_scooter", "lat": 38.97504566666667, "is_reserved": 0, "lon": -77.0169275, "fusion_lon": 0.0, "is_disabled": 0, "fusion_lat": 0.0, "bike_id": "83c527ae0feafc66ec09a297a9cb368c", "rental_uris": {"ios": "https://dc.lft.to/lastmile_qr_scan", "android": "https://dc.lft.to/lastmile_qr_scan"}}, {"name": "2f8cad3698f42c3445596ccd0afb8553", "type": "electric_bike", "lat": 38.95927916666667, "is_reserved": 0, "lon": -76.92540516666666, "fusion_lon": 0.0, "is_disabled": 0, "fusion_lat": 0.0, "bike_id": "2f8cad3698f42c3445596ccd0afb8553", "rental_uris": {"ios": "https://dc.lft.to/lastmile_qr_scan", "android": "https://dc.lft.to/lastmile_qr_scan"}}, {"name": "fb7693627a8aa26b70e4478ab7d3e916", "type": "electric_scooter", "lat": 38.90286433333333, "is_reserved": 0, "lon": -77.03853466666666, "fusion_lon": 0.0, "is_disabled": 0, "fusion_lat": 0.0, "bike_id": "fb7693627a8aa26b70e4478ab7d3e916", "rental_uris": {"ios": "https://dc.lft.to/lastmile_qr_scan", "android": "https://dc.lft.to/lastmile_qr_scan"}}, {"name": "5c369932625fd4b6e5afe53afa1fdce8", "type": "electric_bike", "lat": 38.927587833333334, "is_reserved": 0, "lon": -77.03231583333333, "fusion_lon": 0.0, "is_disabled": 0, "fusion_lat": 0.0, "bike_id": "5c369932625fd4b6e5afe53afa1fdce8", "rental_uris": {"ios": "https://dc.lft.to/lastmile_qr_scan", "android": "https://dc.lft.to/lastmile_qr_scan"}}, {"name": "2cc804027a188f3923567fa408ab23a1", "type": "electric_scooter", "lat": 38.91231633333334, "is_reserved": 0, "lon": -77.0488555, "fusion_lon": 0.0, "is_disabled": 0, "fusion_lat": 0.0, "bike_id": "2cc804027a188f3923567fa408ab23a1", "rental_uris": {"ios": "https://dc.lft.to/lastmile_qr_scan", "android": "https://dc.lft.to/lastmile_qr_scan"}}, {"name": "bbf4fab1c23ef76b596ed80ce336d236", "type": "electric_scooter", "lat": 38.909666, "is_reserved": 0, "lon": -77.01116283333333, "fusion_lon": 0.0, "is_disabled": 0, "fusion_lat": 0.0, "bike_id": "bbf4fab1c23ef76b596ed80ce336d236", "rental_uris": {"ios": "https://dc.lft.to/lastmile_qr_scan", "android": "https://dc.lft.to/lastmile_qr_scan"}}, {"name": "4763ae40a2f950bde70c6945ed903ebc", "type": "electric_scooter", "lat": 38.92437266666666, "is_reserved": 0, "lon": -77.0425145, "fusion_lon": 0.0, "is_disabled": 0, "fusion_lat": 0.0, "bike_id": "4763ae40a2f950bde70c6945ed903ebc", "rental_uris": {"ios": "https://dc.lft.to/lastmile_qr_scan", "android": "https://dc.lft.to/lastmile_qr_scan"}}, {"name": "3beb2ff71dc5f2a8193a93233bac7e04", "type": "electric_bike", "lat": 38.9395215, "is_reserved": 0, "lon": -77.36086833333333, "fusion_lon": 0.0, "is_disabled": 0, "fusion_lat": 0.0, "bike_id": "3beb2ff71dc5f2a8193a93233bac7e04", "rental_uris": {"ios": "https://dc.lft.to/lastmile_qr_scan", "android": "https://dc.lft.to/lastmile_qr_scan"}}, {"name": "051bfb23d1269c9b3d8a7a1bf1aed048", "type": "electric_scooter", "lat": 38.90664533333333, "is_reserved": 0, "lon": -77.02692333333333, "fusion_lon": 0.0, "is_disabled": 0, "fusion_lat": 0.0, "bike_id": "051bfb23d1269c9b3d8a7a1bf1aed048", "rental_uris": {"ios": "https://dc.lft.to/lastmile_qr_scan", "android": "https://dc.lft.to/lastmile_qr_scan"}}, {"name": "b08e6c093c94707c8f3f84315a03e44e", "type": "electric_scooter", "lat": 38.86961633333333, "is_reserved": 0, "lon": -77.013725, "fusion_lon": 0.0, "is_disabled": 0, "fusion_lat": 0.0, "bike_id": "b08e6c093c94707c8f3f84315a03e44e", "rental_uris": {"ios": "https://dc.lft.to/lastmile_qr_scan", "android": "https://dc.lft.to/lastmile_qr_scan"}}, {"name": "48298d23adbf56a473ba35f201d21724", "type": "electric_scooter", "lat": 38.89914483333333, "is_reserved": 0, "lon": -77.03305516666667, "fusion_lon": 0.0, "is_disabled": 0, "fusion_lat": 0.0, "bike_id": "48298d23adbf56a473ba35f201d21724", "rental_uris": {"ios": "https://dc.lft.to/lastmile_qr_scan", "android": "https://dc.lft.to/lastmile_qr_scan"}}, {"name": "50654c397be6b3f46a3be06b32ddf6e6", "type": "electric_scooter", "lat": 38.88767983333334, "is_reserved": 0, "lon": -76.92714416666666, "fusion_lon": 0.0, "is_disabled": 0, "fusion_lat": 0.0, "bike_id": "50654c397be6b3f46a3be06b32ddf6e6", "rental_uris": {"ios": "https://dc.lft.to/lastmile_qr_scan", "android": "https://dc.lft.to/lastmile_qr_scan"}}, {"name": "750c533704c45c48bfde65f9665167a4", "type": "electric_bike", "lat": 38.970903166666666, "is_reserved": 0, "lon": -77.06966683333333, "fusion_lon": 0.0, "is_disabled": 0, "fusion_lat": 0.0, "bike_id": "750c533704c45c48bfde65f9665167a4", "rental_uris": {"ios": "https://dc.lft.to/lastmile_qr_scan", "android": "https://dc.lft.to/lastmile_qr_scan"}}, {"name": "1212df59055b6d72693b0a1d0cd65b8a", "type": "electric_scooter", "lat": 38.906627666666665, "is_reserved": 0, "lon": -77.01157283333333, "fusion_lon": 0.0, "is_disabled": 0, "fusion_lat": 0.0, "bike_id": "1212df59055b6d72693b0a1d0cd65b8a", "rental_uris": {"ios": "https://dc.lft.to/lastmile_qr_scan", "android": "https://dc.lft.to/lastmile_qr_scan"}}, {"name": "f2bf231353b61faef9645229662e56ff", "type": "electric_scooter", "lat": 38.90289666666666, "is_reserved": 0, "lon": -77.01641833333333, "fusion_lon": 0.0, "is_disabled": 0, "fusion_lat": 0.0, "bike_id": "f2bf231353b61faef9645229662e56ff", "rental_uris": {"ios": "https://dc.lft.to/lastmile_qr_scan", "android": "https://dc.lft.to/lastmile_qr_scan"}}, {"name": "082fc050f4e573fa2643b9564c55233f", "type": "electric_scooter", "lat": 38.913320666666664, "is_reserved": 0, "lon": -77.04873066666667, "fusion_lon": 0.0, "is_disabled": 0, "fusion_lat": 0.0, "bike_id": "082fc050f4e573fa2643b9564c55233f", "rental_uris": {"ios": "https://dc.lft.to/lastmile_qr_scan", "android": "https://dc.lft.to/lastmile_qr_scan"}}, {"name": "1f67e1cefd09aa0fb58c816abf65d70b", "type": "electric_scooter", "lat": 38.90598633333333, "is_reserved": 0, "lon": -77.00262316666667, "fusion_lon": 0.0, "is_disabled": 0, "fusion_lat": 0.0, "bike_id": "1f67e1cefd09aa0fb58c816abf65d70b", "rental_uris": {"ios": "https://dc.lft.to/lastmile_qr_scan", "android": "https://dc.lft.to/lastmile_qr_scan"}}, {"name": "a22a7a645c77e7ba41bd638f575b4550", "type": "electric_scooter", "lat": 38.8983065, "is_reserved": 0, "lon": -77.02718583333333, "fusion_lon": 0.0, "is_disabled": 0, "fusion_lat": 0.0, "bike_id": "a22a7a645c77e7ba41bd638f575b4550", "rental_uris": {"ios": "https://dc.lft.to/lastmile_qr_scan", "android": "https://dc.lft.to/lastmile_qr_scan"}}, {"name": "7f0f505aa98cf93f55214dc8f5f4a0e7", "type": "electric_scooter", "lat": 38.9188785, "is_reserved": 0, "lon": -77.0161435, "fusion_lon": 0.0, "is_disabled": 0, "fusion_lat": 0.0, "bike_id": "7f0f505aa98cf93f55214dc8f5f4a0e7", "rental_uris": {"ios": "https://dc.lft.to/lastmile_qr_scan", "android": "https://dc.lft.to/lastmile_qr_scan"}}, {"name": "0a1015f035205eac80face117cef93aa", "type": "electric_scooter", "lat": 38.9388765, "is_reserved": 0, "lon": -77.024656, "fusion_lon": 0.0, "is_disabled": 0, "fusion_lat": 0.0, "bike_id": "0a1015f035205eac80face117cef93aa", "rental_uris": {"ios": "https://dc.lft.to/lastmile_qr_scan", "android": "https://dc.lft.to/lastmile_qr_scan"}}, {"name": "bf392f98b90067d305a0a6c8eac05b17", "type": "electric_scooter", "lat": 38.926287, "is_reserved": 0, "lon": -77.03783733333333, "fusion_lon": 0.0, "is_disabled": 0, "fusion_lat": 0.0, "bike_id": "bf392f98b90067d305a0a6c8eac05b17", "rental_uris": {"ios": "https://dc.lft.to/lastmile_qr_scan", "android": "https://dc.lft.to/lastmile_qr_scan"}}, {"name": "29a5269b37c1a8edbeb1ded7497f4bc4", "type": "electric_scooter", "lat": 38.93145466666667, "is_reserved": 0, "lon": -77.03846533333333, "fusion_lon": 0.0, "is_disabled": 0, "fusion_lat": 0.0, "bike_id": "29a5269b37c1a8edbeb1ded7497f4bc4", "rental_uris": {"ios": "https://dc.lft.to/lastmile_qr_scan", "android": "https://dc.lft.to/lastmile_qr_scan"}}, {"name": "51072de39b8e6ec8a64188f30ae2fefa", "type": "electric_scooter", "lat": 38.92583183333333, "is_reserved": 0, "lon": -77.0047205, "fusion_lon": 0.0, "is_disabled": 0, "fusion_lat": 0.0, "bike_id": "51072de39b8e6ec8a64188f30ae2fefa", "rental_uris": {"ios": "https://dc.lft.to/lastmile_qr_scan", "android": "https://dc.lft.to/lastmile_qr_scan"}}, {"name": "022b95e09c81a22b5de215a1b48f02ed", "type": "electric_scooter", "lat": 38.902704666666665, "is_reserved": 0, "lon": -77.04612666666667, "fusion_lon": 0.0, "is_disabled": 0, "fusion_lat": 0.0, "bike_id": "022b95e09c81a22b5de215a1b48f02ed", "rental_uris": {"ios": "https://dc.lft.to/lastmile_qr_scan", "android": "https://dc.lft.to/lastmile_qr_scan"}}, {"name": "d9ad51f2043d1d0c5d547147e7292f95", "type": "electric_scooter", "lat": 38.87710516666667, "is_reserved": 0, "lon": -76.99381066666666, "fusion_lon": 0.0, "is_disabled": 0, "fusion_lat": 0.0, "bike_id": "d9ad51f2043d1d0c5d547147e7292f95", "rental_uris": {"ios": "https://dc.lft.to/lastmile_qr_scan", "android": "https://dc.lft.to/lastmile_qr_scan"}}, {"name": "bdbec45baebd570a51f0ae5f8fc5d3be", "type": "electric_bike", "lat": 38.93671333333333, "is_reserved": 0, "lon": -76.95206183333333, "fusion_lon": 0.0, "is_disabled": 0, "fusion_lat": 0.0, "bike_id": "bdbec45baebd570a51f0ae5f8fc5d3be", "rental_uris": {"ios": "https://dc.lft.to/lastmile_qr_scan", "android": "https://dc.lft.to/lastmile_qr_scan"}}, {"name": "8e4d62107a9b82ae835bc87c0e7119d1", "type": "electric_scooter", "lat": 38.87709783333333, "is_reserved": 0, "lon": -77.01845583333333, "fusion_lon": 0.0, "is_disabled": 0, "fusion_lat": 0.0, "bike_id": "8e4d62107a9b82ae835bc87c0e7119d1", "rental_uris": {"ios": "https://dc.lft.to/lastmile_qr_scan", "android": "https://dc.lft.to/lastmile_qr_scan"}}, {"name": "3a4731e0717f937721da81dc9924cf00", "type": "electric_scooter", "lat": 38.928779, "is_reserved": 0, "lon": -77.04048383333334, "fusion_lon": 0.0, "is_disabled": 0, "fusion_lat": 0.0, "bike_id": "3a4731e0717f937721da81dc9924cf00", "rental_uris": {"ios": "https://dc.lft.to/lastmile_qr_scan", "android": "https://dc.lft.to/lastmile_qr_scan"}}, {"name": "3e9bc1174bb8b689a85f443c4785a0dc", "type": "electric_bike", "lat": 38.95471033333333, "is_reserved": 0, "lon": -76.990108, "fusion_lon": 0.0, "is_disabled": 0, "fusion_lat": 0.0, "bike_id": "3e9bc1174bb8b689a85f443c4785a0dc", "rental_uris": {"ios": "https://dc.lft.to/lastmile_qr_scan", "android": "https://dc.lft.to/lastmile_qr_scan"}}, {"name": "fc9fd50bd6f7e81ab7d03f0b290278b6", "type": "electric_scooter", "lat": 38.90189933333333, "is_reserved": 0, "lon": -77.02174733333334, "fusion_lon": 0.0, "is_disabled": 0, "fusion_lat": 0.0, "bike_id": "fc9fd50bd6f7e81ab7d03f0b290278b6", "rental_uris": {"ios": "https://dc.lft.to/lastmile_qr_scan", "android": "https://dc.lft.to/lastmile_qr_scan"}}, {"name": "fb0e8e32e6f94c57e08815e984ef1881", "type": "electric_scooter", "lat": 38.911917, "is_reserved": 0, "lon": -77.03217066666667, "fusion_lon": 0.0, "is_disabled": 0, "fusion_lat": 0.0, "bike_id": "fb0e8e32e6f94c57e08815e984ef1881", "rental_uris": {"ios": "https://dc.lft.to/lastmile_qr_scan", "android": "https://dc.lft.to/lastmile_qr_scan"}}, {"name": "4182df5198b29947422694999a88215c", "type": "electric_scooter", "lat": 38.87637466666666, "is_reserved": 0, "lon": -77.00921883333334, "fusion_lon": 0.0, "is_disabled": 0, "fusion_lat": 0.0, "bike_id": "4182df5198b29947422694999a88215c", "rental_uris": {"ios": "https://dc.lft.to/lastmile_qr_scan", "android": "https://dc.lft.to/lastmile_qr_scan"}}, {"name": "f1164e75a1d4439c60bd44b44582d5bf", "type": "electric_scooter", "lat": 38.878333833333336, "is_reserved": 0, "lon": -77.0005015, "fusion_lon": 0.0, "is_disabled": 0, "fusion_lat": 0.0, "bike_id": "f1164e75a1d4439c60bd44b44582d5bf", "rental_uris": {"ios": "https://dc.lft.to/lastmile_qr_scan", "android": "https://dc.lft.to/lastmile_qr_scan"}}, {"name": "d94f3537717001cca79d6d97c5fe0112", "type": "electric_scooter", "lat": 38.90083383333333, "is_reserved": 0, "lon": -77.05064166666666, "fusion_lon": 0.0, "is_disabled": 0, "fusion_lat": 0.0, "bike_id": "d94f3537717001cca79d6d97c5fe0112", "rental_uris": {"ios": "https://dc.lft.to/lastmile_qr_scan", "android": "https://dc.lft.to/lastmile_qr_scan"}}, {"name": "f18ec0486d07e8ff688960c176d34ffa", "type": "electric_scooter", "lat": 38.935928, "is_reserved": 0, "lon": -77.03762483333334, "fusion_lon": 0.0, "is_disabled": 0, "fusion_lat": 0.0, "bike_id": "f18ec0486d07e8ff688960c176d34ffa", "rental_uris": {"ios": "https://dc.lft.to/lastmile_qr_scan", "android": "https://dc.lft.to/lastmile_qr_scan"}}, {"name": "54c07ebd7aee95384c207ccb56951528", "type": "electric_scooter", "lat": 38.8922285, "is_reserved": 0, "lon": -77.04538166666667, "fusion_lon": 0.0, "is_disabled": 0, "fusion_lat": 0.0, "bike_id": "54c07ebd7aee95384c207ccb56951528", "rental_uris": {"ios": "https://dc.lft.to/lastmile_qr_scan", "android": "https://dc.lft.to/lastmile_qr_scan"}}, {"name": "bace949c6ba70927977f1b2367d53fdc", "type": "electric_scooter", "lat": 38.9290545, "is_reserved": 0, "lon": -77.0216325, "fusion_lon": 0.0, "is_disabled": 0, "fusion_lat": 0.0, "bike_id": "bace949c6ba70927977f1b2367d53fdc", "rental_uris": {"ios": "https://dc.lft.to/lastmile_qr_scan", "android": "https://dc.lft.to/lastmile_qr_scan"}}, {"name": "3576873f08aba51bd2797b4a343d4fce", "type": "electric_scooter", "lat": 38.934989333333334, "is_reserved": 0, "lon": -77.02838483333333, "fusion_lon": 0.0, "is_disabled": 0, "fusion_lat": 0.0, "bike_id": "3576873f08aba51bd2797b4a343d4fce", "rental_uris": {"ios": "https://dc.lft.to/lastmile_qr_scan", "android": "https://dc.lft.to/lastmile_qr_scan"}}, {"name": "aeb2ca5193a0048c266e69997839b8f8", "type": "electric_scooter", "lat": 38.900225166666665, "is_reserved": 0, "lon": -76.98702666666667, "fusion_lon": 0.0, "is_disabled": 0, "fusion_lat": 0.0, "bike_id": "aeb2ca5193a0048c266e69997839b8f8", "rental_uris": {"ios": "https://dc.lft.to/lastmile_qr_scan", "android": "https://dc.lft.to/lastmile_qr_scan"}}, {"name": "efaffb7e7f3ab8cab3aad6c25e04a112", "type": "electric_scooter", "lat": 38.935336, "is_reserved": 0, "lon": -77.03416016666667, "fusion_lon": 0.0, "is_disabled": 0, "fusion_lat": 0.0, "bike_id": "efaffb7e7f3ab8cab3aad6c25e04a112", "rental_uris": {"ios": "https://dc.lft.to/lastmile_qr_scan", "android": "https://dc.lft.to/lastmile_qr_scan"}}, {"name": "a6c642bf58caba49f1549905453179c3", "type": "electric_scooter", "lat": 38.926666, "is_reserved": 0, "lon": -76.995306, "fusion_lon": 0.0, "is_disabled": 0, "fusion_lat": 0.0, "bike_id": "a6c642bf58caba49f1549905453179c3", "rental_uris": {"ios": "https://dc.lft.to/lastmile_qr_scan", "android": "https://dc.lft.to/lastmile_qr_scan"}}, {"name": "e3357dd24ea8c71650136537a985d28f", "type": "electric_bike", "lat": 38.854174666666665, "is_reserved": 0, "lon": -76.90964316666667, "fusion_lon": 0.0, "is_disabled": 0, "fusion_lat": 0.0, "bike_id": "e3357dd24ea8c71650136537a985d28f", "rental_uris": {"ios": "https://dc.lft.to/lastmile_qr_scan", "android": "https://dc.lft.to/lastmile_qr_scan"}}, {"name": "1aa6e9702ba47545d47cec516ad6ba62", "type": "electric_scooter", "lat": 38.84425366666667, "is_reserved": 0, "lon": -76.99779883333333, "fusion_lon": 0.0, "is_disabled": 0, "fusion_lat": 0.0, "bike_id": "1aa6e9702ba47545d47cec516ad6ba62", "rental_uris": {"ios": "https://dc.lft.to/lastmile_qr_scan", "android": "https://dc.lft.to/lastmile_qr_scan"}}, {"name": "92fb48ce9a04b9c207aefa4366535e3f", "type": "electric_bike", "lat": 38.81048933333334, "is_reserved": 0, "lon": -77.08511033333333, "fusion_lon": 0.0, "is_disabled": 0, "fusion_lat": 0.0, "bike_id": "92fb48ce9a04b9c207aefa4366535e3f", "rental_uris": {"ios": "https://dc.lft.to/lastmile_qr_scan", "android": "https://dc.lft.to/lastmile_qr_scan"}}, {"name": "97bbf90c9c2870b9187aa7954104308e", "type": "electric_scooter", "lat": 38.89901866666666, "is_reserved": 0, "lon": -77.03291216666666, "fusion_lon": 0.0, "is_disabled": 0, "fusion_lat": 0.0, "bike_id": "97bbf90c9c2870b9187aa7954104308e", "rental_uris": {"ios": "https://dc.lft.to/lastmile_qr_scan", "android": "https://dc.lft.to/lastmile_qr_scan"}}, {"name": "22025a2ce49accc84a37a9686cb3c464", "type": "electric_bike", "lat": 39.0265, "is_reserved": 0, "lon": -77.12544316666667, "fusion_lon": 0.0, "is_disabled": 0, "fusion_lat": 0.0, "bike_id": "22025a2ce49accc84a37a9686cb3c464", "rental_uris": {"ios": "https://dc.lft.to/lastmile_qr_scan", "android": "https://dc.lft.to/lastmile_qr_scan"}}, {"name": "e591ff0e8027d5fdfdd2d477e8129dd9", "type": "electric_scooter", "lat": 38.916646166666666, "is_reserved": 0, "lon": -77.024019, "fusion_lon": 0.0, "is_disabled": 0, "fusion_lat": 0.0, "bike_id": "e591ff0e8027d5fdfdd2d477e8129dd9", "rental_uris": {"ios": "https://dc.lft.to/lastmile_qr_scan", "android": "https://dc.lft.to/lastmile_qr_scan"}}, {"name": "133d3b2675e3c07240ce07592f4b0895", "type": "electric_scooter", "lat": 38.88512466666667, "is_reserved": 0, "lon": -77.00570533333334, "fusion_lon": 0.0, "is_disabled": 0, "fusion_lat": 0.0, "bike_id": "133d3b2675e3c07240ce07592f4b0895", "rental_uris": {"ios": "https://dc.lft.to/lastmile_qr_scan", "android": "https://dc.lft.to/lastmile_qr_scan"}}, {"name": "58410d0d0c472a17e8ae28121779c75e", "type": "electric_scooter", "lat": 38.89528283333333, "is_reserved": 0, "lon": -76.94930966666666, "fusion_lon": 0.0, "is_disabled": 0, "fusion_lat": 0.0, "bike_id": "58410d0d0c472a17e8ae28121779c75e", "rental_uris": {"ios": "https://dc.lft.to/lastmile_qr_scan", "android": "https://dc.lft.to/lastmile_qr_scan"}}, {"name": "128e9deb6282c4865c49204cda112dc3", "type": "electric_scooter", "lat": 38.91194483333334, "is_reserved": 0, "lon": -77.06098816666666, "fusion_lon": 0.0, "is_disabled": 0, "fusion_lat": 0.0, "bike_id": "128e9deb6282c4865c49204cda112dc3", "rental_uris": {"ios": "https://dc.lft.to/lastmile_qr_scan", "android": "https://dc.lft.to/lastmile_qr_scan"}}, {"name": "50ff83a5490196f87621f2240620a313", "type": "electric_scooter", "lat": 38.906701, "is_reserved": 0, "lon": -77.02711983333333, "fusion_lon": 0.0, "is_disabled": 0, "fusion_lat": 0.0, "bike_id": "50ff83a5490196f87621f2240620a313", "rental_uris": {"ios": "https://dc.lft.to/lastmile_qr_scan", "android": "https://dc.lft.to/lastmile_qr_scan"}}, {"name": "ae207d4ceafb792ccafe21e8ebad1d41", "type": "electric_scooter", "lat": 38.905637666666664, "is_reserved": 0, "lon": -76.9814235, "fusion_lon": 0.0, "is_disabled": 0, "fusion_lat": 0.0, "bike_id": "ae207d4ceafb792ccafe21e8ebad1d41", "rental_uris": {"ios": "https://dc.lft.to/lastmile_qr_scan", "android": "https://dc.lft.to/lastmile_qr_scan"}}, {"name": "e4094eb462a8d5e36b2a1c0a88f60506", "type": "electric_scooter", "lat": 38.90843916666667, "is_reserved": 0, "lon": -77.08533066666666, "fusion_lon": 0.0, "is_disabled": 0, "fusion_lat": 0.0, "bike_id": "e4094eb462a8d5e36b2a1c0a88f60506", "rental_uris": {"ios": "https://dc.lft.to/lastmile_qr_scan", "android": "https://dc.lft.to/lastmile_qr_scan"}}, {"name": "fb9fabd77bf53ad4999bfcc9c4c4f64a", "type": "electric_scooter", "lat": 38.8976785, "is_reserved": 0, "lon": -77.02927083333333, "fusion_lon": 0.0, "is_disabled": 0, "fusion_lat": 0.0, "bike_id": "fb9fabd77bf53ad4999bfcc9c4c4f64a", "rental_uris": {"ios": "https://dc.lft.to/lastmile_qr_scan", "android": "https://dc.lft.to/lastmile_qr_scan"}}, {"name": "95fea01d9912413a4024e39e254565be", "type": "electric_scooter", "lat": 38.928868, "is_reserved": 0, "lon": -77.0545345, "fusion_lon": 0.0, "is_disabled": 0, "fusion_lat": 0.0, "bike_id": "95fea01d9912413a4024e39e254565be", "rental_uris": {"ios": "https://dc.lft.to/lastmile_qr_scan", "android": "https://dc.lft.to/lastmile_qr_scan"}}, {"name": "f76d8547c2554670cb18c1561838f7c2", "type": "electric_scooter", "lat": 38.918676833333336, "is_reserved": 0, "lon": -77.04201216666667, "fusion_lon": 0.0, "is_disabled": 0, "fusion_lat": 0.0, "bike_id": "f76d8547c2554670cb18c1561838f7c2", "rental_uris": {"ios": "https://dc.lft.to/lastmile_qr_scan", "android": "https://dc.lft.to/lastmile_qr_scan"}}, {"name": "77eb7da3be07fc9a819fc013c88c22a7", "type": "electric_scooter", "lat": 38.89968916666667, "is_reserved": 0, "lon": -76.93767283333334, "fusion_lon": 0.0, "is_disabled": 0, "fusion_lat": 0.0, "bike_id": "77eb7da3be07fc9a819fc013c88c22a7", "rental_uris": {"ios": "https://dc.lft.to/lastmile_qr_scan", "android": "https://dc.lft.to/lastmile_qr_scan"}}, {"name": "6094fee8e171aafaf8ab7bff11962d49", "type": "electric_scooter", "lat": 38.91879733333333, "is_reserved": 0, "lon": -77.0350045, "fusion_lon": 0.0, "is_disabled": 0, "fusion_lat": 0.0, "bike_id": "6094fee8e171aafaf8ab7bff11962d49", "rental_uris": {"ios": "https://dc.lft.to/lastmile_qr_scan", "android": "https://dc.lft.to/lastmile_qr_scan"}}, {"name": "fa78c29147cc6b58dcee01ab12854477", "type": "electric_scooter", "lat": 38.91437916666667, "is_reserved": 0, "lon": -77.00343233333334, "fusion_lon": 0.0, "is_disabled": 0, "fusion_lat": 0.0, "bike_id": "fa78c29147cc6b58dcee01ab12854477", "rental_uris": {"ios": "https://dc.lft.to/lastmile_qr_scan", "android": "https://dc.lft.to/lastmile_qr_scan"}}, {"name": "72215e30e141c3ecf6db30ba2333ee55", "type": "electric_scooter", "lat": 38.87686016666667, "is_reserved": 0, "lon": -77.00069983333333, "fusion_lon": 0.0, "is_disabled": 0, "fusion_lat": 0.0, "bike_id": "72215e30e141c3ecf6db30ba2333ee55", "rental_uris": {"ios": "https://dc.lft.to/lastmile_qr_scan", "android": "https://dc.lft.to/lastmile_qr_scan"}}, {"name": "5a33271aebc9a664db7840b9242306fb", "type": "electric_scooter", "lat": 38.900309666666665, "is_reserved": 0, "lon": -76.99862233333333, "fusion_lon": 0.0, "is_disabled": 0, "fusion_lat": 0.0, "bike_id": "5a33271aebc9a664db7840b9242306fb", "rental_uris": {"ios": "https://dc.lft.to/lastmile_qr_scan", "android": "https://dc.lft.to/lastmile_qr_scan"}}, {"name": "0fae30baf701f297f2ba954414acc497", "type": "electric_scooter", "lat": 38.94281816666667, "is_reserved": 0, "lon": -77.02501216666667, "fusion_lon": 0.0, "is_disabled": 0, "fusion_lat": 0.0, "bike_id": "0fae30baf701f297f2ba954414acc497", "rental_uris": {"ios": "https://dc.lft.to/lastmile_qr_scan", "android": "https://dc.lft.to/lastmile_qr_scan"}}, {"name": "715a72b326a700c5374f8ef5a218d7c8", "type": "electric_scooter", "lat": 38.8922435, "is_reserved": 0, "lon": -77.03215883333333, "fusion_lon": 0.0, "is_disabled": 0, "fusion_lat": 0.0, "bike_id": "715a72b326a700c5374f8ef5a218d7c8", "rental_uris": {"ios": "https://dc.lft.to/lastmile_qr_scan", "android": "https://dc.lft.to/lastmile_qr_scan"}}, {"name": "c8ad8077a2e3f2b3decbe05f8bf04140", "type": "electric_scooter", "lat": 38.894819166666665, "is_reserved": 0, "lon": -76.94872033333333, "fusion_lon": 0.0, "is_disabled": 0, "fusion_lat": 0.0, "bike_id": "c8ad8077a2e3f2b3decbe05f8bf04140", "rental_uris": {"ios": "https://dc.lft.to/lastmile_qr_scan", "android": "https://dc.lft.to/lastmile_qr_scan"}}, {"name": "cbe78e3db1a751a8bb799e1ff42e2fb5", "type": "electric_scooter", "lat": 38.9079525, "is_reserved": 0, "lon": -76.9969695, "fusion_lon": 0.0, "is_disabled": 0, "fusion_lat": 0.0, "bike_id": "cbe78e3db1a751a8bb799e1ff42e2fb5", "rental_uris": {"ios": "https://dc.lft.to/lastmile_qr_scan", "android": "https://dc.lft.to/lastmile_qr_scan"}}, {"name": "068b43172075bf3d83ce1ddffd6161b9", "type": "electric_scooter", "lat": 38.91680816666667, "is_reserved": 0, "lon": -77.01214166666666, "fusion_lon": 0.0, "is_disabled": 0, "fusion_lat": 0.0, "bike_id": "068b43172075bf3d83ce1ddffd6161b9", "rental_uris": {"ios": "https://dc.lft.to/lastmile_qr_scan", "android": "https://dc.lft.to/lastmile_qr_scan"}}, {"name": "3b0d2277fe8e7b3d4581da5393044094", "type": "electric_scooter", "lat": 38.9343545, "is_reserved": 0, "lon": -77.0725745, "fusion_lon": 0.0, "is_disabled": 0, "fusion_lat": 0.0, "bike_id": "3b0d2277fe8e7b3d4581da5393044094", "rental_uris": {"ios": "https://dc.lft.to/lastmile_qr_scan", "android": "https://dc.lft.to/lastmile_qr_scan"}}, {"name": "f4de92824eb87e0dc97fb8125201a572", "type": "electric_scooter", "lat": 38.896797666666664, "is_reserved": 0, "lon": -76.996277, "fusion_lon": 0.0, "is_disabled": 0, "fusion_lat": 0.0, "bike_id": "f4de92824eb87e0dc97fb8125201a572", "rental_uris": {"ios": "https://dc.lft.to/lastmile_qr_scan", "android": "https://dc.lft.to/lastmile_qr_scan"}}, {"name": "a7a00bf1e8ba0801596aea1c4d6f04d2", "type": "electric_scooter", "lat": 38.89730483333334, "is_reserved": 0, "lon": -77.0557185, "fusion_lon": 0.0, "is_disabled": 0, "fusion_lat": 0.0, "bike_id": "a7a00bf1e8ba0801596aea1c4d6f04d2", "rental_uris": {"ios": "https://dc.lft.to/lastmile_qr_scan", "android": "https://dc.lft.to/lastmile_qr_scan"}}, {"name": "4d646a88552253ce9dfdbd4921df7645", "type": "electric_scooter", "lat": 38.863586833333336, "is_reserved": 0, "lon": -76.99068333333334, "fusion_lon": 0.0, "is_disabled": 0, "fusion_lat": 0.0, "bike_id": "4d646a88552253ce9dfdbd4921df7645", "rental_uris": {"ios": "https://dc.lft.to/lastmile_qr_scan", "android": "https://dc.lft.to/lastmile_qr_scan"}}, {"name": "43e898bc7caef5d4840ac6d5b815bd5c", "type": "electric_scooter", "lat": 38.90175816666667, "is_reserved": 0, "lon": -77.00011366666666, "fusion_lon": 0.0, "is_disabled": 0, "fusion_lat": 0.0, "bike_id": "43e898bc7caef5d4840ac6d5b815bd5c", "rental_uris": {"ios": "https://dc.lft.to/lastmile_qr_scan", "android": "https://dc.lft.to/lastmile_qr_scan"}}, {"name": "2f60f60bef7453d744c7ffe58113785a", "type": "electric_scooter", "lat": 38.90550266666666, "is_reserved": 0, "lon": -77.04653016666667, "fusion_lon": 0.0, "is_disabled": 0, "fusion_lat": 0.0, "bike_id": "2f60f60bef7453d744c7ffe58113785a", "rental_uris": {"ios": "https://dc.lft.to/lastmile_qr_scan", "android": "https://dc.lft.to/lastmile_qr_scan"}}, {"name": "170a40d547ce4d4f19fe922c81ad3d23", "type": "electric_scooter", "lat": 38.903619166666665, "is_reserved": 0, "lon": -77.04478083333333, "fusion_lon": 0.0, "is_disabled": 0, "fusion_lat": 0.0, "bike_id": "170a40d547ce4d4f19fe922c81ad3d23", "rental_uris": {"ios": "https://dc.lft.to/lastmile_qr_scan", "android": "https://dc.lft.to/lastmile_qr_scan"}}, {"name": "457cc947c4acdf8bdb1eacd701bb7611", "type": "electric_scooter", "lat": 38.884888833333335, "is_reserved": 0, "lon": -77.0285815, "fusion_lon": 0.0, "is_disabled": 0, "fusion_lat": 0.0, "bike_id": "457cc947c4acdf8bdb1eacd701bb7611", "rental_uris": {"ios": "https://dc.lft.to/lastmile_qr_scan", "android": "https://dc.lft.to/lastmile_qr_scan"}}, {"name": "bb1c57bb3379de5fa83e91c6dd067d4e", "type": "electric_scooter", "lat": 38.941207666666664, "is_reserved": 0, "lon": -77.02659, "fusion_lon": 0.0, "is_disabled": 0, "fusion_lat": 0.0, "bike_id": "bb1c57bb3379de5fa83e91c6dd067d4e", "rental_uris": {"ios": "https://dc.lft.to/lastmile_qr_scan", "android": "https://dc.lft.to/lastmile_qr_scan"}}, {"name": "2d306ad9366144a49a29748a6f0e2e44", "type": "electric_scooter", "lat": 38.908617166666666, "is_reserved": 0, "lon": -76.98619366666667, "fusion_lon": 0.0, "is_disabled": 0, "fusion_lat": 0.0, "bike_id": "2d306ad9366144a49a29748a6f0e2e44", "rental_uris": {"ios": "https://dc.lft.to/lastmile_qr_scan", "android": "https://dc.lft.to/lastmile_qr_scan"}}, {"name": "cfa73173775d6f5b6ce36b775f6744d4", "type": "electric_scooter", "lat": 38.9003565, "is_reserved": 0, "lon": -76.98834633333334, "fusion_lon": 0.0, "is_disabled": 0, "fusion_lat": 0.0, "bike_id": "cfa73173775d6f5b6ce36b775f6744d4", "rental_uris": {"ios": "https://dc.lft.to/lastmile_qr_scan", "android": "https://dc.lft.to/lastmile_qr_scan"}}, {"name": "6763f76129f84c4e9997ee7a9514a887", "type": "electric_scooter", "lat": 38.90514483333333, "is_reserved": 0, "lon": -77.06587466666667, "fusion_lon": 0.0, "is_disabled": 0, "fusion_lat": 0.0, "bike_id": "6763f76129f84c4e9997ee7a9514a887", "rental_uris": {"ios": "https://dc.lft.to/lastmile_qr_scan", "android": "https://dc.lft.to/lastmile_qr_scan"}}, {"name": "6eb7579408b27a90807e791c29c8f18f", "type": "electric_scooter", "lat": 38.8982395, "is_reserved": 0, "lon": -77.0332135, "fusion_lon": 0.0, "is_disabled": 0, "fusion_lat": 0.0, "bike_id": "6eb7579408b27a90807e791c29c8f18f", "rental_uris": {"ios": "https://dc.lft.to/lastmile_qr_scan", "android": "https://dc.lft.to/lastmile_qr_scan"}}, {"name": "f6630f796f31cde519fa05cc5f92058c", "type": "electric_bike", "lat": 38.903638666666666, "is_reserved": 0, "lon": -76.98321733333333, "fusion_lon": 0.0, "is_disabled": 0, "fusion_lat": 0.0, "bike_id": "f6630f796f31cde519fa05cc5f92058c", "rental_uris": {"ios": "https://dc.lft.to/lastmile_qr_scan", "android": "https://dc.lft.to/lastmile_qr_scan"}}, {"name": "34296e9a345611521c200e113934a153", "type": "electric_scooter", "lat": 38.93234366666667, "is_reserved": 0, "lon": -77.03832333333334, "fusion_lon": 0.0, "is_disabled": 0, "fusion_lat": 0.0, "bike_id": "34296e9a345611521c200e113934a153", "rental_uris": {"ios": "https://dc.lft.to/lastmile_qr_scan", "android": "https://dc.lft.to/lastmile_qr_scan"}}, {"name": "f087a82dfa4fffce10fd787b9051f2ee", "type": "electric_bike", "lat": 38.8204715, "is_reserved": 0, "lon": -77.05313766666667, "fusion_lon": 0.0, "is_disabled": 0, "fusion_lat": 0.0, "bike_id": "f087a82dfa4fffce10fd787b9051f2ee", "rental_uris": {"ios": "https://dc.lft.to/lastmile_qr_scan", "android": "https://dc.lft.to/lastmile_qr_scan"}}, {"name": "491ec0f5b9dfee4f214714cf14f34ad7", "type": "electric_scooter", "lat": 38.90328016666667, "is_reserved": 0, "lon": -77.0321315, "fusion_lon": 0.0, "is_disabled": 0, "fusion_lat": 0.0, "bike_id": "491ec0f5b9dfee4f214714cf14f34ad7", "rental_uris": {"ios": "https://dc.lft.to/lastmile_qr_scan", "android": "https://dc.lft.to/lastmile_qr_scan"}}, {"name": "c0bc67311ca53520788cfd42d218025e", "type": "electric_scooter", "lat": 38.93616433333333, "is_reserved": 0, "lon": -77.02247016666666, "fusion_lon": 0.0, "is_disabled": 0, "fusion_lat": 0.0, "bike_id": "c0bc67311ca53520788cfd42d218025e", "rental_uris": {"ios": "https://dc.lft.to/lastmile_qr_scan", "android": "https://dc.lft.to/lastmile_qr_scan"}}, {"name": "86d59d8f470ddb433046075c4ffb02ff", "type": "electric_scooter", "lat": 38.93275966666667, "is_reserved": 0, "lon": -77.03489466666667, "fusion_lon": 0.0, "is_disabled": 0, "fusion_lat": 0.0, "bike_id": "86d59d8f470ddb433046075c4ffb02ff", "rental_uris": {"ios": "https://dc.lft.to/lastmile_qr_scan", "android": "https://dc.lft.to/lastmile_qr_scan"}}, {"name": "d95bd21750d4b7291e1ab3199685cbc3", "type": "electric_scooter", "lat": 38.944650333333335, "is_reserved": 0, "lon": -77.00657716666667, "fusion_lon": 0.0, "is_disabled": 0, "fusion_lat": 0.0, "bike_id": "d95bd21750d4b7291e1ab3199685cbc3", "rental_uris": {"ios": "https://dc.lft.to/lastmile_qr_scan", "android": "https://dc.lft.to/lastmile_qr_scan"}}, {"name": "75e3499a724df465292e82c26db09dda", "type": "electric_scooter", "lat": 38.909280333333335, "is_reserved": 0, "lon": -76.99964933333334, "fusion_lon": 0.0, "is_disabled": 0, "fusion_lat": 0.0, "bike_id": "75e3499a724df465292e82c26db09dda", "rental_uris": {"ios": "https://dc.lft.to/lastmile_qr_scan", "android": "https://dc.lft.to/lastmile_qr_scan"}}, {"name": "8f981c70cffeb9841274631e323b0983", "type": "electric_scooter", "lat": 38.86564216666667, "is_reserved": 0, "lon": -76.98547716666667, "fusion_lon": 0.0, "is_disabled": 0, "fusion_lat": 0.0, "bike_id": "8f981c70cffeb9841274631e323b0983", "rental_uris": {"ios": "https://dc.lft.to/lastmile_qr_scan", "android": "https://dc.lft.to/lastmile_qr_scan"}}, {"name": "7133d6d560377736ad53f5405854c949", "type": "electric_scooter", "lat": 38.9306615, "is_reserved": 0, "lon": -77.0340425, "fusion_lon": 0.0, "is_disabled": 0, "fusion_lat": 0.0, "bike_id": "7133d6d560377736ad53f5405854c949", "rental_uris": {"ios": "https://dc.lft.to/lastmile_qr_scan", "android": "https://dc.lft.to/lastmile_qr_scan"}}, {"name": "7adb711a02af312b892684dbf4d8ce8c", "type": "electric_scooter", "lat": 38.9443955, "is_reserved": 0, "lon": -77.06351316666667, "fusion_lon": 0.0, "is_disabled": 0, "fusion_lat": 0.0, "bike_id": "7adb711a02af312b892684dbf4d8ce8c", "rental_uris": {"ios": "https://dc.lft.to/lastmile_qr_scan", "android": "https://dc.lft.to/lastmile_qr_scan"}}, {"name": "e9638650de13f7f0d18a6f5a678d6a10", "type": "electric_scooter", "lat": 38.9006755, "is_reserved": 0, "lon": -76.98712383333333, "fusion_lon": 0.0, "is_disabled": 0, "fusion_lat": 0.0, "bike_id": "e9638650de13f7f0d18a6f5a678d6a10", "rental_uris": {"ios": "https://dc.lft.to/lastmile_qr_scan", "android": "https://dc.lft.to/lastmile_qr_scan"}}, {"name": "2f5d6eda1fad97cc2873a3eeee3b1314", "type": "electric_bike", "lat": 38.870252, "is_reserved": 0, "lon": -76.95981416666666, "fusion_lon": 0.0, "is_disabled": 0, "fusion_lat": 0.0, "bike_id": "2f5d6eda1fad97cc2873a3eeee3b1314", "rental_uris": {"ios": "https://dc.lft.to/lastmile_qr_scan", "android": "https://dc.lft.to/lastmile_qr_scan"}}, {"name": "d589d25c2cc63c570739c2c9bec93677", "type": "electric_scooter", "lat": 38.873423, "is_reserved": 0, "lon": -77.01855433333333, "fusion_lon": 0.0, "is_disabled": 0, "fusion_lat": 0.0, "bike_id": "d589d25c2cc63c570739c2c9bec93677", "rental_uris": {"ios": "https://dc.lft.to/lastmile_qr_scan", "android": "https://dc.lft.to/lastmile_qr_scan"}}, {"name": "4cb6596f619debb90d949089ea83b2a5", "type": "electric_bike", "lat": 38.98503983333333, "is_reserved": 0, "lon": -76.98205516666667, "fusion_lon": 0.0, "is_disabled": 0, "fusion_lat": 0.0, "bike_id": "4cb6596f619debb90d949089ea83b2a5", "rental_uris": {"ios": "https://dc.lft.to/lastmile_qr_scan", "android": "https://dc.lft.to/lastmile_qr_scan"}}, {"name": "9b80f81481ae60a82aa2837dc38a0ce3", "type": "electric_scooter", "lat": 38.862478, "is_reserved": 0, "lon": -76.99489766666667, "fusion_lon": 0.0, "is_disabled": 0, "fusion_lat": 0.0, "bike_id": "9b80f81481ae60a82aa2837dc38a0ce3", "rental_uris": {"ios": "https://dc.lft.to/lastmile_qr_scan", "android": "https://dc.lft.to/lastmile_qr_scan"}}, {"name": "4358d00b3e081aa7fd73d00ef6b21279", "type": "electric_scooter", "lat": 38.870106, "is_reserved": 0, "lon": -77.0122665, "fusion_lon": 0.0, "is_disabled": 0, "fusion_lat": 0.0, "bike_id": "4358d00b3e081aa7fd73d00ef6b21279", "rental_uris": {"ios": "https://dc.lft.to/lastmile_qr_scan", "android": "https://dc.lft.to/lastmile_qr_scan"}}, {"name": "65225f3221fcc413d2100f34d84cd63c", "type": "electric_scooter", "lat": 38.87946783333334, "is_reserved": 0, "lon": -77.00376083333333, "fusion_lon": 0.0, "is_disabled": 0, "fusion_lat": 0.0, "bike_id": "65225f3221fcc413d2100f34d84cd63c", "rental_uris": {"ios": "https://dc.lft.to/lastmile_qr_scan", "android": "https://dc.lft.to/lastmile_qr_scan"}}, {"name": "3a7b2327985a4e5987472409dfc2945d", "type": "electric_scooter", "lat": 38.93069633333333, "is_reserved": 0, "lon": -77.03799383333333, "fusion_lon": 0.0, "is_disabled": 0, "fusion_lat": 0.0, "bike_id": "3a7b2327985a4e5987472409dfc2945d", "rental_uris": {"ios": "https://dc.lft.to/lastmile_qr_scan", "android": "https://dc.lft.to/lastmile_qr_scan"}}, {"name": "5939063a73fe79a6e3cfad0100a16f0a", "type": "electric_scooter", "lat": 38.9121555, "is_reserved": 0, "lon": -77.02798216666666, "fusion_lon": 0.0, "is_disabled": 0, "fusion_lat": 0.0, "bike_id": "5939063a73fe79a6e3cfad0100a16f0a", "rental_uris": {"ios": "https://dc.lft.to/lastmile_qr_scan", "android": "https://dc.lft.to/lastmile_qr_scan"}}, {"name": "4e768d97b5f192147c7f060dda66476e", "type": "electric_scooter", "lat": 38.9030905, "is_reserved": 0, "lon": -77.0602585, "fusion_lon": 0.0, "is_disabled": 0, "fusion_lat": 0.0, "bike_id": "4e768d97b5f192147c7f060dda66476e", "rental_uris": {"ios": "https://dc.lft.to/lastmile_qr_scan", "android": "https://dc.lft.to/lastmile_qr_scan"}}, {"name": "e8cb5c4fab0c5965d6f4ecad4a73d576", "type": "electric_bike", "lat": 38.877341333333334, "is_reserved": 0, "lon": -77.118476, "fusion_lon": 0.0, "is_disabled": 0, "fusion_lat": 0.0, "bike_id": "e8cb5c4fab0c5965d6f4ecad4a73d576", "rental_uris": {"ios": "https://dc.lft.to/lastmile_qr_scan", "android": "https://dc.lft.to/lastmile_qr_scan"}}, {"name": "3ab0bf7359776faa799cbcbfeed4aa77", "type": "electric_scooter", "lat": 38.932118, "is_reserved": 0, "lon": -77.0238515, "fusion_lon": 0.0, "is_disabled": 0, "fusion_lat": 0.0, "bike_id": "3ab0bf7359776faa799cbcbfeed4aa77", "rental_uris": {"ios": "https://dc.lft.to/lastmile_qr_scan", "android": "https://dc.lft.to/lastmile_qr_scan"}}, {"name": "f6658fe497f1400a7625930072699a95", "type": "electric_scooter", "lat": 38.91114733333333, "is_reserved": 0, "lon": -77.00240616666666, "fusion_lon": 0.0, "is_disabled": 0, "fusion_lat": 0.0, "bike_id": "f6658fe497f1400a7625930072699a95", "rental_uris": {"ios": "https://dc.lft.to/lastmile_qr_scan", "android": "https://dc.lft.to/lastmile_qr_scan"}}, {"name": "18a35b2070943e3ae425c2cc732aea48", "type": "electric_scooter", "lat": 38.87884733333333, "is_reserved": 0, "lon": -77.022771, "fusion_lon": 0.0, "is_disabled": 0, "fusion_lat": 0.0, "bike_id": "18a35b2070943e3ae425c2cc732aea48", "rental_uris": {"ios": "https://dc.lft.to/lastmile_qr_scan", "android": "https://dc.lft.to/lastmile_qr_scan"}}, {"name": "337f63b031d29803594d3458ae1818b4", "type": "electric_scooter", "lat": 38.883488166666666, "is_reserved": 0, "lon": -76.98558766666666, "fusion_lon": 0.0, "is_disabled": 0, "fusion_lat": 0.0, "bike_id": "337f63b031d29803594d3458ae1818b4", "rental_uris": {"ios": "https://dc.lft.to/lastmile_qr_scan", "android": "https://dc.lft.to/lastmile_qr_scan"}}, {"name": "5f1892b995df2dd75f4b814e5c4e3817", "type": "electric_scooter", "lat": 38.9396625, "is_reserved": 0, "lon": -77.053198, "fusion_lon": 0.0, "is_disabled": 0, "fusion_lat": 0.0, "bike_id": "5f1892b995df2dd75f4b814e5c4e3817", "rental_uris": {"ios": "https://dc.lft.to/lastmile_qr_scan", "android": "https://dc.lft.to/lastmile_qr_scan"}}, {"name": "1de5168165ec2334d1e05068ac64607f", "type": "electric_scooter", "lat": 38.90613033333333, "is_reserved": 0, "lon": -77.05125633333333, "fusion_lon": 0.0, "is_disabled": 0, "fusion_lat": 0.0, "bike_id": "1de5168165ec2334d1e05068ac64607f", "rental_uris": {"ios": "https://dc.lft.to/lastmile_qr_scan", "android": "https://dc.lft.to/lastmile_qr_scan"}}, {"name": "ad83348267345c002b18c8c650850326", "type": "electric_scooter", "lat": 38.89725133333334, "is_reserved": 0, "lon": -77.001529, "fusion_lon": 0.0, "is_disabled": 0, "fusion_lat": 0.0, "bike_id": "ad83348267345c002b18c8c650850326", "rental_uris": {"ios": "https://dc.lft.to/lastmile_qr_scan", "android": "https://dc.lft.to/lastmile_qr_scan"}}, {"name": "23630af6bf3a85cc95412b799ab2fd84", "type": "electric_scooter", "lat": 38.92984766666667, "is_reserved": 0, "lon": -77.034741, "fusion_lon": 0.0, "is_disabled": 0, "fusion_lat": 0.0, "bike_id": "23630af6bf3a85cc95412b799ab2fd84", "rental_uris": {"ios": "https://dc.lft.to/lastmile_qr_scan", "android": "https://dc.lft.to/lastmile_qr_scan"}}, {"name": "5eae1c0626ce0d25c2440fa8c289801d", "type": "electric_scooter", "lat": 38.9328725, "is_reserved": 0, "lon": -77.039833, "fusion_lon": 0.0, "is_disabled": 0, "fusion_lat": 0.0, "bike_id": "5eae1c0626ce0d25c2440fa8c289801d", "rental_uris": {"ios": "https://dc.lft.to/lastmile_qr_scan", "android": "https://dc.lft.to/lastmile_qr_scan"}}, {"name": "d61b8bb3823ec1a20ee33770192d12b5", "type": "electric_scooter", "lat": 38.892263166666666, "is_reserved": 0, "lon": -77.01534233333334, "fusion_lon": 0.0, "is_disabled": 0, "fusion_lat": 0.0, "bike_id": "d61b8bb3823ec1a20ee33770192d12b5", "rental_uris": {"ios": "https://dc.lft.to/lastmile_qr_scan", "android": "https://dc.lft.to/lastmile_qr_scan"}}, {"name": "626275cc96a32b6bedbb05338dc36435", "type": "electric_scooter", "lat": 38.865219333333336, "is_reserved": 0, "lon": -76.990268, "fusion_lon": 0.0, "is_disabled": 0, "fusion_lat": 0.0, "bike_id": "626275cc96a32b6bedbb05338dc36435", "rental_uris": {"ios": "https://dc.lft.to/lastmile_qr_scan", "android": "https://dc.lft.to/lastmile_qr_scan"}}, {"name": "60264bd289f4e05177f510c331d5f1f0", "type": "electric_scooter", "lat": 38.908434166666666, "is_reserved": 0, "lon": -77.02694033333333, "fusion_lon": 0.0, "is_disabled": 0, "fusion_lat": 0.0, "bike_id": "60264bd289f4e05177f510c331d5f1f0", "rental_uris": {"ios": "https://dc.lft.to/lastmile_qr_scan", "android": "https://dc.lft.to/lastmile_qr_scan"}}, {"name": "930540535c3a21129d35f8b205fb4727", "type": "electric_scooter", "lat": 38.89737616666667, "is_reserved": 0, "lon": -76.938419, "fusion_lon": 0.0, "is_disabled": 0, "fusion_lat": 0.0, "bike_id": "930540535c3a21129d35f8b205fb4727", "rental_uris": {"ios": "https://dc.lft.to/lastmile_qr_scan", "android": "https://dc.lft.to/lastmile_qr_scan"}}, {"name": "eb6da406aba75d966861e04209202996", "type": "electric_scooter", "lat": 38.88690916666667, "is_reserved": 0, "lon": -76.95764216666667, "fusion_lon": 0.0, "is_disabled": 0, "fusion_lat": 0.0, "bike_id": "eb6da406aba75d966861e04209202996", "rental_uris": {"ios": "https://dc.lft.to/lastmile_qr_scan", "android": "https://dc.lft.to/lastmile_qr_scan"}}, {"name": "9d45a3df4c56485dc2e53fe29b820b0a", "type": "electric_scooter", "lat": 38.9068345, "is_reserved": 0, "lon": -77.03819583333333, "fusion_lon": 0.0, "is_disabled": 0, "fusion_lat": 0.0, "bike_id": "9d45a3df4c56485dc2e53fe29b820b0a", "rental_uris": {"ios": "https://dc.lft.to/lastmile_qr_scan", "android": "https://dc.lft.to/lastmile_qr_scan"}}, {"name": "5f06a7c83854edc116f3bb8f38df4496", "type": "electric_scooter", "lat": 38.89454766666667, "is_reserved": 0, "lon": -77.01913766666667, "fusion_lon": 0.0, "is_disabled": 0, "fusion_lat": 0.0, "bike_id": "5f06a7c83854edc116f3bb8f38df4496", "rental_uris": {"ios": "https://dc.lft.to/lastmile_qr_scan", "android": "https://dc.lft.to/lastmile_qr_scan"}}, {"name": "570dc5bf69decd48ddaf953eb2c5d9a1", "type": "electric_scooter", "lat": 38.87627833333333, "is_reserved": 0, "lon": -76.965281, "fusion_lon": 0.0, "is_disabled": 0, "fusion_lat": 0.0, "bike_id": "570dc5bf69decd48ddaf953eb2c5d9a1", "rental_uris": {"ios": "https://dc.lft.to/lastmile_qr_scan", "android": "https://dc.lft.to/lastmile_qr_scan"}}, {"name": "d9f85beef66a62b144dea97aecf70028", "type": "electric_bike", "lat": 38.8382295, "is_reserved": 0, "lon": -76.99686, "fusion_lon": 0.0, "is_disabled": 0, "fusion_lat": 0.0, "bike_id": "d9f85beef66a62b144dea97aecf70028", "rental_uris": {"ios": "https://dc.lft.to/lastmile_qr_scan", "android": "https://dc.lft.to/lastmile_qr_scan"}}, {"name": "554d7fb72df211b023322369b63190c6", "type": "electric_scooter", "lat": 38.9309515, "is_reserved": 0, "lon": -77.02538, "fusion_lon": 0.0, "is_disabled": 0, "fusion_lat": 0.0, "bike_id": "554d7fb72df211b023322369b63190c6", "rental_uris": {"ios": "https://dc.lft.to/lastmile_qr_scan", "android": "https://dc.lft.to/lastmile_qr_scan"}}, {"name": "e1e8da980fc2bab338b6c3e254545556", "type": "electric_scooter", "lat": 38.923509833333334, "is_reserved": 0, "lon": -77.05312866666667, "fusion_lon": 0.0, "is_disabled": 0, "fusion_lat": 0.0, "bike_id": "e1e8da980fc2bab338b6c3e254545556", "rental_uris": {"ios": "https://dc.lft.to/lastmile_qr_scan", "android": "https://dc.lft.to/lastmile_qr_scan"}}, {"name": "93fb4fd4ddb6b144a1706e01eb4085ab", "type": "electric_scooter", "lat": 38.934976666666664, "is_reserved": 0, "lon": -77.02852066666667, "fusion_lon": 0.0, "is_disabled": 0, "fusion_lat": 0.0, "bike_id": "93fb4fd4ddb6b144a1706e01eb4085ab", "rental_uris": {"ios": "https://dc.lft.to/lastmile_qr_scan", "android": "https://dc.lft.to/lastmile_qr_scan"}}, {"name": "26f7cff0b42353b12b7364c9e23a7c69", "type": "electric_scooter", "lat": 38.94183566666667, "is_reserved": 0, "lon": -77.03091516666667, "fusion_lon": 0.0, "is_disabled": 0, "fusion_lat": 0.0, "bike_id": "26f7cff0b42353b12b7364c9e23a7c69", "rental_uris": {"ios": "https://dc.lft.to/lastmile_qr_scan", "android": "https://dc.lft.to/lastmile_qr_scan"}}, {"name": "7dc5dbbb821d6782abd11291a5d4f8e2", "type": "electric_scooter", "lat": 38.9060545, "is_reserved": 0, "lon": -77.0131845, "fusion_lon": 0.0, "is_disabled": 0, "fusion_lat": 0.0, "bike_id": "7dc5dbbb821d6782abd11291a5d4f8e2", "rental_uris": {"ios": "https://dc.lft.to/lastmile_qr_scan", "android": "https://dc.lft.to/lastmile_qr_scan"}}, {"name": "d9cc900630e67e318c51689c1b32f58b", "type": "electric_scooter", "lat": 38.907214333333336, "is_reserved": 0, "lon": -77.02505716666667, "fusion_lon": 0.0, "is_disabled": 0, "fusion_lat": 0.0, "bike_id": "d9cc900630e67e318c51689c1b32f58b", "rental_uris": {"ios": "https://dc.lft.to/lastmile_qr_scan", "android": "https://dc.lft.to/lastmile_qr_scan"}}, {"name": "de6317bb73c93b8056b9efcd5fb49680", "type": "electric_bike", "lat": 38.85437983333333, "is_reserved": 0, "lon": -77.11706066666666, "fusion_lon": 0.0, "is_disabled": 0, "fusion_lat": 0.0, "bike_id": "de6317bb73c93b8056b9efcd5fb49680", "rental_uris": {"ios": "https://dc.lft.to/lastmile_qr_scan", "android": "https://dc.lft.to/lastmile_qr_scan"}}, {"name": "72f8b9a346bcf65710dee78402353105", "type": "electric_scooter", "lat": 38.935290333333334, "is_reserved": 0, "lon": -77.02855683333334, "fusion_lon": 0.0, "is_disabled": 0, "fusion_lat": 0.0, "bike_id": "72f8b9a346bcf65710dee78402353105", "rental_uris": {"ios": "https://dc.lft.to/lastmile_qr_scan", "android": "https://dc.lft.to/lastmile_qr_scan"}}, {"name": "c079e942b0de9a15fb3ef33935c30d8f", "type": "electric_scooter", "lat": 38.89747633333333, "is_reserved": 0, "lon": -77.04684816666666, "fusion_lon": 0.0, "is_disabled": 0, "fusion_lat": 0.0, "bike_id": "c079e942b0de9a15fb3ef33935c30d8f", "rental_uris": {"ios": "https://dc.lft.to/lastmile_qr_scan", "android": "https://dc.lft.to/lastmile_qr_scan"}}, {"name": "436447561f9c0df477612fd84ad720c3", "type": "electric_scooter", "lat": 38.8789215, "is_reserved": 0, "lon": -77.02206383333333, "fusion_lon": 0.0, "is_disabled": 0, "fusion_lat": 0.0, "bike_id": "436447561f9c0df477612fd84ad720c3", "rental_uris": {"ios": "https://dc.lft.to/lastmile_qr_scan", "android": "https://dc.lft.to/lastmile_qr_scan"}}, {"name": "7a469b8901d9e4b1300583f6f4497517", "type": "electric_scooter", "lat": 38.89747766666667, "is_reserved": 0, "lon": -77.0468455, "fusion_lon": 0.0, "is_disabled": 0, "fusion_lat": 0.0, "bike_id": "7a469b8901d9e4b1300583f6f4497517", "rental_uris": {"ios": "https://dc.lft.to/lastmile_qr_scan", "android": "https://dc.lft.to/lastmile_qr_scan"}}, {"name": "fdaf2ac9627a14ff3515088d08dbcbb6", "type": "electric_scooter", "lat": 38.92685266666667, "is_reserved": 0, "lon": -77.02157666666666, "fusion_lon": 0.0, "is_disabled": 0, "fusion_lat": 0.0, "bike_id": "fdaf2ac9627a14ff3515088d08dbcbb6", "rental_uris": {"ios": "https://dc.lft.to/lastmile_qr_scan", "android": "https://dc.lft.to/lastmile_qr_scan"}}, {"name": "c4dfb8d6f29f01a7187274833b828d39", "type": "electric_scooter", "lat": 38.90796366666667, "is_reserved": 0, "lon": -76.99701116666667, "fusion_lon": 0.0, "is_disabled": 0, "fusion_lat": 0.0, "bike_id": "c4dfb8d6f29f01a7187274833b828d39", "rental_uris": {"ios": "https://dc.lft.to/lastmile_qr_scan", "android": "https://dc.lft.to/lastmile_qr_scan"}}, {"name": "fb380d96a8d063a4af3d06d8d4c4e5d5", "type": "electric_scooter", "lat": 38.91062, "is_reserved": 0, "lon": -77.03032733333333, "fusion_lon": 0.0, "is_disabled": 0, "fusion_lat": 0.0, "bike_id": "fb380d96a8d063a4af3d06d8d4c4e5d5", "rental_uris": {"ios": "https://dc.lft.to/lastmile_qr_scan", "android": "https://dc.lft.to/lastmile_qr_scan"}}, {"name": "1ea8ba8f82bee4fc253b7d18e53bda95", "type": "electric_bike", "lat": 38.948908, "is_reserved": 0, "lon": -77.01928233333334, "fusion_lon": 0.0, "is_disabled": 0, "fusion_lat": 0.0, "bike_id": "1ea8ba8f82bee4fc253b7d18e53bda95", "rental_uris": {"ios": "https://dc.lft.to/lastmile_qr_scan", "android": "https://dc.lft.to/lastmile_qr_scan"}}, {"name": "e5337c36cad2b554b4431de6c57ae72d", "type": "electric_scooter", "lat": 38.92062466666667, "is_reserved": 0, "lon": -77.03201833333334, "fusion_lon": 0.0, "is_disabled": 0, "fusion_lat": 0.0, "bike_id": "e5337c36cad2b554b4431de6c57ae72d", "rental_uris": {"ios": "https://dc.lft.to/lastmile_qr_scan", "android": "https://dc.lft.to/lastmile_qr_scan"}}, {"name": "f7060e0411ffc59bf12924130aeca13e", "type": "electric_bike", "lat": 38.918087166666666, "is_reserved": 0, "lon": -77.03298666666667, "fusion_lon": 0.0, "is_disabled": 0, "fusion_lat": 0.0, "bike_id": "f7060e0411ffc59bf12924130aeca13e", "rental_uris": {"ios": "https://dc.lft.to/lastmile_qr_scan", "android": "https://dc.lft.to/lastmile_qr_scan"}}, {"name": "7edb0853f82197a8cf303144db289724", "type": "electric_scooter", "lat": 38.89529266666667, "is_reserved": 0, "lon": -77.01610516666666, "fusion_lon": 0.0, "is_disabled": 0, "fusion_lat": 0.0, "bike_id": "7edb0853f82197a8cf303144db289724", "rental_uris": {"ios": "https://dc.lft.to/lastmile_qr_scan", "android": "https://dc.lft.to/lastmile_qr_scan"}}, {"name": "cfca9fa6427ae84763a9d89663774d2d", "type": "electric_scooter", "lat": 38.91574766666667, "is_reserved": 0, "lon": -77.02197483333333, "fusion_lon": 0.0, "is_disabled": 0, "fusion_lat": 0.0, "bike_id": "cfca9fa6427ae84763a9d89663774d2d", "rental_uris": {"ios": "https://dc.lft.to/lastmile_qr_scan", "android": "https://dc.lft.to/lastmile_qr_scan"}}, {"name": "6732c1536b8e8cc08f73f60bd817ee62", "type": "electric_scooter", "lat": 38.85449883333333, "is_reserved": 0, "lon": -76.98578283333333, "fusion_lon": 0.0, "is_disabled": 0, "fusion_lat": 0.0, "bike_id": "6732c1536b8e8cc08f73f60bd817ee62", "rental_uris": {"ios": "https://dc.lft.to/lastmile_qr_scan", "android": "https://dc.lft.to/lastmile_qr_scan"}}, {"name": "c06f3569f1d2240ae658c9896880a262", "type": "electric_scooter", "lat": 38.918644666666665, "is_reserved": 0, "lon": -77.04349133333334, "fusion_lon": 0.0, "is_disabled": 0, "fusion_lat": 0.0, "bike_id": "c06f3569f1d2240ae658c9896880a262", "rental_uris": {"ios": "https://dc.lft.to/lastmile_qr_scan", "android": "https://dc.lft.to/lastmile_qr_scan"}}, {"name": "da264036d384fc7ee04ca9a78b79cd60", "type": "electric_scooter", "lat": 38.928809, "is_reserved": 0, "lon": -77.03757183333333, "fusion_lon": 0.0, "is_disabled": 0, "fusion_lat": 0.0, "bike_id": "da264036d384fc7ee04ca9a78b79cd60", "rental_uris": {"ios": "https://dc.lft.to/lastmile_qr_scan", "android": "https://dc.lft.to/lastmile_qr_scan"}}, {"name": "69c24e6e0f6cf6a0995a16050694a70c", "type": "electric_scooter", "lat": 38.940960833333335, "is_reserved": 0, "lon": -77.02111866666667, "fusion_lon": 0.0, "is_disabled": 0, "fusion_lat": 0.0, "bike_id": "69c24e6e0f6cf6a0995a16050694a70c", "rental_uris": {"ios": "https://dc.lft.to/lastmile_qr_scan", "android": "https://dc.lft.to/lastmile_qr_scan"}}, {"name": "1ac6ed7272cd8482f7c9473d937a7a06", "type": "electric_scooter", "lat": 38.9248115, "is_reserved": 0, "lon": -77.02839716666666, "fusion_lon": 0.0, "is_disabled": 0, "fusion_lat": 0.0, "bike_id": "1ac6ed7272cd8482f7c9473d937a7a06", "rental_uris": {"ios": "https://dc.lft.to/lastmile_qr_scan", "android": "https://dc.lft.to/lastmile_qr_scan"}}, {"name": "7b9aab79b320f42555fe138af86d32bf", "type": "electric_scooter", "lat": 38.87841916666667, "is_reserved": 0, "lon": -77.01968366666667, "fusion_lon": 0.0, "is_disabled": 0, "fusion_lat": 0.0, "bike_id": "7b9aab79b320f42555fe138af86d32bf", "rental_uris": {"ios": "https://dc.lft.to/lastmile_qr_scan", "android": "https://dc.lft.to/lastmile_qr_scan"}}, {"name": "a3fb45c2d5c97bf725aa548fc417aa81", "type": "electric_scooter", "lat": 38.87231233333333, "is_reserved": 0, "lon": -77.01173466666667, "fusion_lon": 0.0, "is_disabled": 0, "fusion_lat": 0.0, "bike_id": "a3fb45c2d5c97bf725aa548fc417aa81", "rental_uris": {"ios": "https://dc.lft.to/lastmile_qr_scan", "android": "https://dc.lft.to/lastmile_qr_scan"}}, {"name": "3993ee9a38f560e0956e7414d1a3a26e", "type": "electric_scooter", "lat": 38.899831166666665, "is_reserved": 0, "lon": -77.03133483333333, "fusion_lon": 0.0, "is_disabled": 0, "fusion_lat": 0.0, "bike_id": "3993ee9a38f560e0956e7414d1a3a26e", "rental_uris": {"ios": "https://dc.lft.to/lastmile_qr_scan", "android": "https://dc.lft.to/lastmile_qr_scan"}}, {"name": "05718507d4780e5b4c6bf97f4cfe10f2", "type": "electric_bike", "lat": 38.95909366666667, "is_reserved": 0, "lon": -77.00155283333334, "fusion_lon": 0.0, "is_disabled": 0, "fusion_lat": 0.0, "bike_id": "05718507d4780e5b4c6bf97f4cfe10f2", "rental_uris": {"ios": "https://dc.lft.to/lastmile_qr_scan", "android": "https://dc.lft.to/lastmile_qr_scan"}}, {"name": "1d7d5621581a7fbb9defcb86d66e0a3e", "type": "electric_scooter", "lat": 38.94438816666667, "is_reserved": 0, "lon": -77.0635175, "fusion_lon": 0.0, "is_disabled": 0, "fusion_lat": 0.0, "bike_id": "1d7d5621581a7fbb9defcb86d66e0a3e", "rental_uris": {"ios": "https://dc.lft.to/lastmile_qr_scan", "android": "https://dc.lft.to/lastmile_qr_scan"}}, {"name": "4d9b5396c0da9cdc6f2845dab4028bf2", "type": "electric_scooter", "lat": 38.897935333333336, "is_reserved": 0, "lon": -77.0298935, "fusion_lon": 0.0, "is_disabled": 0, "fusion_lat": 0.0, "bike_id": "4d9b5396c0da9cdc6f2845dab4028bf2", "rental_uris": {"ios": "https://dc.lft.to/lastmile_qr_scan", "android": "https://dc.lft.to/lastmile_qr_scan"}}, {"name": "1aa32bcd173152a8c990ad32e6104cb3", "type": "electric_scooter", "lat": 38.89222316666667, "is_reserved": 0, "lon": -77.04262766666666, "fusion_lon": 0.0, "is_disabled": 0, "fusion_lat": 0.0, "bike_id": "1aa32bcd173152a8c990ad32e6104cb3", "rental_uris": {"ios": "https://dc.lft.to/lastmile_qr_scan", "android": "https://dc.lft.to/lastmile_qr_scan"}}, {"name": "f0d32beb2fe9a56ee7dba487cd6575e3", "type": "electric_scooter", "lat": 38.920667333333334, "is_reserved": 0, "lon": -77.0291275, "fusion_lon": 0.0, "is_disabled": 0, "fusion_lat": 0.0, "bike_id": "f0d32beb2fe9a56ee7dba487cd6575e3", "rental_uris": {"ios": "https://dc.lft.to/lastmile_qr_scan", "android": "https://dc.lft.to/lastmile_qr_scan"}}, {"name": "55289fe6008af4730977e41d9db33c55", "type": "electric_scooter", "lat": 38.8833645, "is_reserved": 0, "lon": -77.01746016666667, "fusion_lon": 0.0, "is_disabled": 0, "fusion_lat": 0.0, "bike_id": "55289fe6008af4730977e41d9db33c55", "rental_uris": {"ios": "https://dc.lft.to/lastmile_qr_scan", "android": "https://dc.lft.to/lastmile_qr_scan"}}, {"name": "dd1927ac3995eda962d76c073feb65cc", "type": "electric_scooter", "lat": 38.96114383333333, "is_reserved": 0, "lon": -77.02813016666667, "fusion_lon": 0.0, "is_disabled": 0, "fusion_lat": 0.0, "bike_id": "dd1927ac3995eda962d76c073feb65cc", "rental_uris": {"ios": "https://dc.lft.to/lastmile_qr_scan", "android": "https://dc.lft.to/lastmile_qr_scan"}}, {"name": "68a401f515f206ae20c83c3dcecba576", "type": "electric_bike", "lat": 38.85491733333333, "is_reserved": 0, "lon": -77.11523116666666, "fusion_lon": 0.0, "is_disabled": 0, "fusion_lat": 0.0, "bike_id": "68a401f515f206ae20c83c3dcecba576", "rental_uris": {"ios": "https://dc.lft.to/lastmile_qr_scan", "android": "https://dc.lft.to/lastmile_qr_scan"}}, {"name": "f9daa70ed7951d299070e3966911fbdb", "type": "electric_scooter", "lat": 38.9170595, "is_reserved": 0, "lon": -77.0310015, "fusion_lon": 0.0, "is_disabled": 0, "fusion_lat": 0.0, "bike_id": "f9daa70ed7951d299070e3966911fbdb", "rental_uris": {"ios": "https://dc.lft.to/lastmile_qr_scan", "android": "https://dc.lft.to/lastmile_qr_scan"}}, {"name": "b97c7d7ebfb778b97665cd12fb969e9f", "type": "electric_scooter", "lat": 38.90744316666667, "is_reserved": 0, "lon": -77.001246, "fusion_lon": 0.0, "is_disabled": 0, "fusion_lat": 0.0, "bike_id": "b97c7d7ebfb778b97665cd12fb969e9f", "rental_uris": {"ios": "https://dc.lft.to/lastmile_qr_scan", "android": "https://dc.lft.to/lastmile_qr_scan"}}, {"name": "7a2dc17c6fcb3385a0e95d15ce6571aa", "type": "electric_scooter", "lat": 38.919403833333334, "is_reserved": 0, "lon": -77.01357066666667, "fusion_lon": 0.0, "is_disabled": 0, "fusion_lat": 0.0, "bike_id": "7a2dc17c6fcb3385a0e95d15ce6571aa", "rental_uris": {"ios": "https://dc.lft.to/lastmile_qr_scan", "android": "https://dc.lft.to/lastmile_qr_scan"}}, {"name": "322935cd950e45e2572c9fc879dfea04", "type": "electric_scooter", "lat": 38.92579583333333, "is_reserved": 0, "lon": -77.03916616666666, "fusion_lon": 0.0, "is_disabled": 0, "fusion_lat": 0.0, "bike_id": "322935cd950e45e2572c9fc879dfea04", "rental_uris": {"ios": "https://dc.lft.to/lastmile_qr_scan", "android": "https://dc.lft.to/lastmile_qr_scan"}}, {"name": "d61cb722f3611973c9dea239f47ab5cd", "type": "electric_scooter", "lat": 38.920572166666666, "is_reserved": 0, "lon": -76.99877733333334, "fusion_lon": 0.0, "is_disabled": 0, "fusion_lat": 0.0, "bike_id": "d61cb722f3611973c9dea239f47ab5cd", "rental_uris": {"ios": "https://dc.lft.to/lastmile_qr_scan", "android": "https://dc.lft.to/lastmile_qr_scan"}}, {"name": "7942a62225c15866f90d50d470e27605", "type": "electric_scooter", "lat": 38.91353083333333, "is_reserved": 0, "lon": -77.01559933333333, "fusion_lon": 0.0, "is_disabled": 0, "fusion_lat": 0.0, "bike_id": "7942a62225c15866f90d50d470e27605", "rental_uris": {"ios": "https://dc.lft.to/lastmile_qr_scan", "android": "https://dc.lft.to/lastmile_qr_scan"}}, {"name": "29601ceb799f2133ada1f9c45abf0d8c", "type": "electric_scooter", "lat": 38.924560166666666, "is_reserved": 0, "lon": -77.00213033333333, "fusion_lon": 0.0, "is_disabled": 0, "fusion_lat": 0.0, "bike_id": "29601ceb799f2133ada1f9c45abf0d8c", "rental_uris": {"ios": "https://dc.lft.to/lastmile_qr_scan", "android": "https://dc.lft.to/lastmile_qr_scan"}}, {"name": "62b9c420962e2d187b80cbffa86c0646", "type": "electric_scooter", "lat": 38.90018, "is_reserved": 0, "lon": -77.01189766666667, "fusion_lon": 0.0, "is_disabled": 0, "fusion_lat": 0.0, "bike_id": "62b9c420962e2d187b80cbffa86c0646", "rental_uris": {"ios": "https://dc.lft.to/lastmile_qr_scan", "android": "https://dc.lft.to/lastmile_qr_scan"}}, {"name": "525497bc21b277ffeb97a08691e2e7e8", "type": "electric_scooter", "lat": 38.911905833333336, "is_reserved": 0, "lon": -76.996204, "fusion_lon": 0.0, "is_disabled": 0, "fusion_lat": 0.0, "bike_id": "525497bc21b277ffeb97a08691e2e7e8", "rental_uris": {"ios": "https://dc.lft.to/lastmile_qr_scan", "android": "https://dc.lft.to/lastmile_qr_scan"}}, {"name": "d37c4a7a9746181626f99a6a4d65250d", "type": "electric_scooter", "lat": 38.913930666666666, "is_reserved": 0, "lon": -77.03326116666666, "fusion_lon": 0.0, "is_disabled": 0, "fusion_lat": 0.0, "bike_id": "d37c4a7a9746181626f99a6a4d65250d", "rental_uris": {"ios": "https://dc.lft.to/lastmile_qr_scan", "android": "https://dc.lft.to/lastmile_qr_scan"}}, {"name": "768391c60ed577c852550153d0f375b4", "type": "electric_bike", "lat": 38.95187133333334, "is_reserved": 0, "lon": -76.93545816666666, "fusion_lon": 0.0, "is_disabled": 0, "fusion_lat": 0.0, "bike_id": "768391c60ed577c852550153d0f375b4", "rental_uris": {"ios": "https://dc.lft.to/lastmile_qr_scan", "android": "https://dc.lft.to/lastmile_qr_scan"}}, {"name": "89ef24b99b94babeb8624a3fec76ad5e", "type": "electric_scooter", "lat": 38.9170435, "is_reserved": 0, "lon": -77.00115683333334, "fusion_lon": 0.0, "is_disabled": 0, "fusion_lat": 0.0, "bike_id": "89ef24b99b94babeb8624a3fec76ad5e", "rental_uris": {"ios": "https://dc.lft.to/lastmile_qr_scan", "android": "https://dc.lft.to/lastmile_qr_scan"}}, {"name": "673eb97c59fd97aca7d9c5c198ccfa23", "type": "electric_scooter", "lat": 38.927114, "is_reserved": 0, "lon": -77.03854616666666, "fusion_lon": 0.0, "is_disabled": 0, "fusion_lat": 0.0, "bike_id": "673eb97c59fd97aca7d9c5c198ccfa23", "rental_uris": {"ios": "https://dc.lft.to/lastmile_qr_scan", "android": "https://dc.lft.to/lastmile_qr_scan"}}, {"name": "ab67df4ed32062a59a9090f2a6cfe706", "type": "electric_scooter", "lat": 38.87259433333333, "is_reserved": 0, "lon": -77.01526283333334, "fusion_lon": 0.0, "is_disabled": 0, "fusion_lat": 0.0, "bike_id": "ab67df4ed32062a59a9090f2a6cfe706", "rental_uris": {"ios": "https://dc.lft.to/lastmile_qr_scan", "android": "https://dc.lft.to/lastmile_qr_scan"}}, {"name": "4d06e63707cf6845b33e9c3c31a14397", "type": "electric_bike", "lat": 38.95645366666667, "is_reserved": 0, "lon": -76.997427, "fusion_lon": 0.0, "is_disabled": 0, "fusion_lat": 0.0, "bike_id": "4d06e63707cf6845b33e9c3c31a14397", "rental_uris": {"ios": "https://dc.lft.to/lastmile_qr_scan", "android": "https://dc.lft.to/lastmile_qr_scan"}}, {"name": "88fa9b8184b3c278e95bae111da9078b", "type": "electric_scooter", "lat": 38.8831255, "is_reserved": 0, "lon": -77.01770383333333, "fusion_lon": 0.0, "is_disabled": 0, "fusion_lat": 0.0, "bike_id": "88fa9b8184b3c278e95bae111da9078b", "rental_uris": {"ios": "https://dc.lft.to/lastmile_qr_scan", "android": "https://dc.lft.to/lastmile_qr_scan"}}, {"name": "0fd2b7fefa3d5bb2011a324c7f111f66", "type": "electric_scooter", "lat": 38.9050685, "is_reserved": 0, "lon": -77.029469, "fusion_lon": 0.0, "is_disabled": 0, "fusion_lat": 0.0, "bike_id": "0fd2b7fefa3d5bb2011a324c7f111f66", "rental_uris": {"ios": "https://dc.lft.to/lastmile_qr_scan", "android": "https://dc.lft.to/lastmile_qr_scan"}}, {"name": "1e736b443762c1c9bef95e79fb7f18eb", "type": "electric_scooter", "lat": 38.90131816666667, "is_reserved": 0, "lon": -77.03335433333334, "fusion_lon": 0.0, "is_disabled": 0, "fusion_lat": 0.0, "bike_id": "1e736b443762c1c9bef95e79fb7f18eb", "rental_uris": {"ios": "https://dc.lft.to/lastmile_qr_scan", "android": "https://dc.lft.to/lastmile_qr_scan"}}, {"name": "e37ec8936ca9b1a3d862a57108514af8", "type": "electric_scooter", "lat": 38.91574033333333, "is_reserved": 0, "lon": -77.02196966666666, "fusion_lon": 0.0, "is_disabled": 0, "fusion_lat": 0.0, "bike_id": "e37ec8936ca9b1a3d862a57108514af8", "rental_uris": {"ios": "https://dc.lft.to/lastmile_qr_scan", "android": "https://dc.lft.to/lastmile_qr_scan"}}, {"name": "ce922450567280a90ba659eb2316347a", "type": "electric_scooter", "lat": 38.92552, "is_reserved": 0, "lon": -77.00095066666667, "fusion_lon": 0.0, "is_disabled": 0, "fusion_lat": 0.0, "bike_id": "ce922450567280a90ba659eb2316347a", "rental_uris": {"ios": "https://dc.lft.to/lastmile_qr_scan", "android": "https://dc.lft.to/lastmile_qr_scan"}}, {"name": "e5e4dd05de37ce9fc9cc24faa7fce632", "type": "electric_scooter", "lat": 38.905305, "is_reserved": 0, "lon": -77.0652735, "fusion_lon": 0.0, "is_disabled": 0, "fusion_lat": 0.0, "bike_id": "e5e4dd05de37ce9fc9cc24faa7fce632", "rental_uris": {"ios": "https://dc.lft.to/lastmile_qr_scan", "android": "https://dc.lft.to/lastmile_qr_scan"}}, {"name": "e2fb45b7b414c60632942cbf84536f66", "type": "electric_scooter", "lat": 38.927222666666665, "is_reserved": 0, "lon": -77.03976983333334, "fusion_lon": 0.0, "is_disabled": 0, "fusion_lat": 0.0, "bike_id": "e2fb45b7b414c60632942cbf84536f66", "rental_uris": {"ios": "https://dc.lft.to/lastmile_qr_scan", "android": "https://dc.lft.to/lastmile_qr_scan"}}, {"name": "f63c14e78a18a535b89ef04c5e1abfda", "type": "electric_scooter", "lat": 38.899511833333335, "is_reserved": 0, "lon": -77.05272366666667, "fusion_lon": 0.0, "is_disabled": 0, "fusion_lat": 0.0, "bike_id": "f63c14e78a18a535b89ef04c5e1abfda", "rental_uris": {"ios": "https://dc.lft.to/lastmile_qr_scan", "android": "https://dc.lft.to/lastmile_qr_scan"}}, {"name": "a3d89a177919945173c9843ed00a5dea", "type": "electric_scooter", "lat": 38.915927333333336, "is_reserved": 0, "lon": -76.98383033333333, "fusion_lon": 0.0, "is_disabled": 0, "fusion_lat": 0.0, "bike_id": "a3d89a177919945173c9843ed00a5dea", "rental_uris": {"ios": "https://dc.lft.to/lastmile_qr_scan", "android": "https://dc.lft.to/lastmile_qr_scan"}}, {"name": "6e9b2188358078c60bd6ae92ce8ad4f2", "type": "electric_bike", "lat": 38.832392, "is_reserved": 0, "lon": -76.94621866666667, "fusion_lon": 0.0, "is_disabled": 0, "fusion_lat": 0.0, "bike_id": "6e9b2188358078c60bd6ae92ce8ad4f2", "rental_uris": {"ios": "https://dc.lft.to/lastmile_qr_scan", "android": "https://dc.lft.to/lastmile_qr_scan"}}, {"name": "1bb7ba524f5115d142b93f90bd7c721a", "type": "electric_scooter", "lat": 38.898217333333335, "is_reserved": 0, "lon": -77.03292016666667, "fusion_lon": 0.0, "is_disabled": 0, "fusion_lat": 0.0, "bike_id": "1bb7ba524f5115d142b93f90bd7c721a", "rental_uris": {"ios": "https://dc.lft.to/lastmile_qr_scan", "android": "https://dc.lft.to/lastmile_qr_scan"}}, {"name": "728814100e316d9e6bf130f4c56240bc", "type": "electric_scooter", "lat": 38.909506, "is_reserved": 0, "lon": -77.04321016666667, "fusion_lon": 0.0, "is_disabled": 0, "fusion_lat": 0.0, "bike_id": "728814100e316d9e6bf130f4c56240bc", "rental_uris": {"ios": "https://dc.lft.to/lastmile_qr_scan", "android": "https://dc.lft.to/lastmile_qr_scan"}}, {"name": "31a5cb2f78e37096209e959c24078680", "type": "electric_bike", "lat": 38.871341, "is_reserved": 0, "lon": -76.93729516666667, "fusion_lon": 0.0, "is_disabled": 0, "fusion_lat": 0.0, "bike_id": "31a5cb2f78e37096209e959c24078680", "rental_uris": {"ios": "https://dc.lft.to/lastmile_qr_scan", "android": "https://dc.lft.to/lastmile_qr_scan"}}, {"name": "f847955bda38e16283339f3ebcb53506", "type": "electric_scooter", "lat": 38.909493833333336, "is_reserved": 0, "lon": -76.99899233333333, "fusion_lon": 0.0, "is_disabled": 0, "fusion_lat": 0.0, "bike_id": "f847955bda38e16283339f3ebcb53506", "rental_uris": {"ios": "https://dc.lft.to/lastmile_qr_scan", "android": "https://dc.lft.to/lastmile_qr_scan"}},