{"data": {"bikes": [{"rental_uris": {"ios": "https://dc.lft.to/lastmile_qr_scan", "android": "https://dc.lft.to/lastmile_qr_scan"}, "lon": -77.02339083333334, "type": "electric_scooter", "fusion_lat": 0.0, "lat": 38.929316666666665, "name": "104e47789959ca3f8c88d48c43e11c7e", "fusion_lon": 0.0, "bike_id": "104e47789959ca3f8c88d48c43e11c7e", "is_disabled": 0, "is_reserved": 0}, {"rental_uris": {"ios": "https://dc.lft.to/lastmile_qr_scan", "android": "https://dc.lft.to/lastmile_qr_scan"}, "lon": -77.10784483333333, "type": "electric_bike", "fusion_lat": 0.0, "lat": 38.8921995, "name": "3c5af727c3f3e044af1be28d4fc41f62", "fusion_lon": 0.0, "bike_id": "3c5af727c3f3e044af1be28d4fc41f62", "is_disabled": 0, "is_reserved": 0}, {"rental_uris": {"ios": "https://dc.lft.to/lastmile_qr_scan", "android": "https://dc.lft.to/lastmile_qr_scan"}, "lon": -77.06631416666667, "type": "electric_scooter", "fusion_lat": 0.0, "lat": 38.92797266666667, "name": "9157cbf653d29fb84af1da394ceb0eaf", "fusion_lon": 0.0, "bike_id": "9157cbf653d29fb84af1da394ceb0eaf", "is_disabled": 0, "is_reserved": 0}, {"rental_uris": {"ios": "https://dc.lft.to/lastmile_qr_scan", "android": "https://dc.lft.to/lastmile_qr_scan"}, "lon": -77.005713, "type": "electric_scooter", "fusion_lat": 0.0, "lat": 38.88040266666667, "name": "b3ff2cb01383956ec5a520f98ceea8ad", "fusion_lon": 0.0, "bike_id": "b3ff2cb01383956ec5a520f98ceea8ad", "is_disabled": 0, "is_reserved": 0}, {"rental_uris": {"ios": "https://dc.lft.to/lastmile_qr_scan", "android": "https://dc.lft.to/lastmile_qr_scan"}, "lon": -76.98902066666666, "type": "electric_scooter", "fusion_lat": 0.0, "lat": 38.866913833333335, "name": "23cd4e8014ed3ba1c8c9f965448fe708", "fusion_lon": 0.0, "bike_id": "23cd4e8014ed3ba1c8c9f965448fe708", "is_disabled": 0, "is_reserved": 0}, {"rental_uris": {"ios": "https://dc.lft.to/lastmile_qr_scan", "android": "https://dc.lft.to/lastmile_qr_scan"}, "lon": -77.05512433333334, "type": "electric_scooter", "fusion_lat": 0.0, "lat": 38.92957033333333, "name": "164e8d2ee790a01241e3e3d85b68d3cd", "fusion_lon": 0.0, "bike_id": "164e8d2ee790a01241e3e3d85b68d3cd", "is_disabled": 0, "is_reserved": 0}, {"rental_uris": {"ios": "https://dc.lft.to/lastmile_qr_scan", "android": "https://dc.lft.to/lastmile_qr_scan"}, "lon": -76.92710533333333, "type": "electric_scooter", "fusion_lat": 0.0, "lat": 38.887653666666665, "name": "10e7fd48c47d7937bdd9a352e2ac4ba6", "fusion_lon": 0.0, "bike_id": "10e7fd48c47d7937bdd9a352e2ac4ba6", "is_disabled": 0, "is_reserved": 0}, {"rental_uris": {"ios": "https://dc.lft.to/lastmile_qr_scan", "android": "https://dc.lft.to/lastmile_qr_scan"}, "lon": -76.995172, "type": "electric_scooter", "fusion_lat": 0.0, "lat": 38.8837095, "name": "6688f668403e11f96715c61284d40f28", "fusion_lon": 0.0, "bike_id": "6688f668403e11f96715c61284d40f28", "is_disabled": 0, "is_reserved": 0}, {"rental_uris": {"ios": "https://dc.lft.to/lastmile_qr_scan", "android": "https://dc.lft.to/lastmile_qr_scan"}, "lon": -77.017532, "type": "electric_scooter", "fusion_lat": 0.0, "lat": 38.88208616666667, "name": "47f3a8d733e6dee681071e3442b19858", "fusion_lon": 0.0, "bike_id": "47f3a8d733e6dee681071e3442b19858", "is_disabled": 0, "is_reserved": 0}, {"rental_uris": {"ios": "https://dc.lft.to/lastmile_qr_scan", "android": "https://dc.lft.to/lastmile_qr_scan"}, "lon": -77.04880616666667, "type": "electric_scooter", "fusion_lat": 0.0, "lat": 38.90359933333333, "name": "03ee058dd1ae34489a88634cdd9be280", "fusion_lon": 0.0, "bike_id": "03ee058dd1ae34489a88634cdd9be280", "is_disabled": 0, "is_reserved": 0}, {"rental_uris": {"ios": "https://dc.lft.to/lastmile_qr_scan", "android": "https://dc.lft.to/lastmile_qr_scan"}, "lon": -77.0008875, "type": "electric_bike", "fusion_lat": 0.0, "lat": 38.87482083333333, "name": "472b456a17c36de77808fb515bfc5622", "fusion_lon": 0.0, "bike_id": "472b456a17c36de77808fb515bfc5622", "is_disabled": 0, "is_reserved": 0}, {"rental_uris": {"ios": "https://dc.lft.to/lastmile_qr_scan", "android": "https://dc.lft.to/lastmile_qr_scan"}, "lon": -76.99563966666666, "type": "electric_scooter", "fusion_lat": 0.0, "lat": 38.928821166666665, "name": "a24d22d6b1167b0a7380e899b490f95f", "fusion_lon": 0.0, "bike_id": "a24d22d6b1167b0a7380e899b490f95f", "is_disabled": 0, "is_reserved": 0}, {"rental_uris": {"ios": "https://dc.lft.to/lastmile_qr_scan", "android": "https://dc.lft.to/lastmile_qr_scan"}, "lon": -76.9388095, "type": "electric_scooter", "fusion_lat": 0.0, "lat": 38.900849666666666, "name": "76d6af2ecd9e77699a9cd7c0db856484", "fusion_lon": 0.0, "bike_id": "76d6af2ecd9e77699a9cd7c0db856484", "is_disabled": 0, "is_reserved": 0}, {"rental_uris": {"ios": "https://dc.lft.to/lastmile_qr_scan", "android": "https://dc.lft.to/lastmile_qr_scan"}, "lon": -77.01187166666666, "type": "electric_scooter", "fusion_lat": 0.0, "lat": 38.90029166666667, "name": "36ea3e0b4b33f55c76735894367358e3", "fusion_lon": 0.0, "bike_id": "36ea3e0b4b33f55c76735894367358e3", "is_disabled": 0, "is_reserved": 0}, {"rental_uris": {"ios": "https://dc.lft.to/lastmile_qr_scan", "android": "https://dc.lft.to/lastmile_qr_scan"}, "lon": -77.0372555, "type": "electric_scooter", "fusion_lat": 0.0, "lat": 38.911195666666664, "name": "7b596a02bb6460411bb506d9920f0876", "fusion_lon": 0.0, "bike_id": "7b596a02bb6460411bb506d9920f0876", "is_disabled": 0, "is_reserved": 0}, {"rental_uris": {"ios": "https://dc.lft.to/lastmile_qr_scan", "android": "https://dc.lft.to/lastmile_qr_scan"}, "lon": -77.02685333333334, "type": "electric_scooter", "fusion_lat": 0.0, "lat": 38.8921185, "name": "accbe4c271d8f2789db1d4efdcbe53f7", "fusion_lon": 0.0, "bike_id": "accbe4c271d8f2789db1d4efdcbe53f7", "is_disabled": 0, "is_reserved": 0}, {"rental_uris": {"ios": "https://dc.lft.to/lastmile_qr_scan", "android": "https://dc.lft.to/lastmile_qr_scan"}, "lon": -77.029512, "type": "electric_scooter", "fusion_lat": 0.0, "lat": 38.904968833333335, "name": "012fe5351ef85b9e35992b3d6848cf5e", "fusion_lon": 0.0, "bike_id": "012fe5351ef85b9e35992b3d6848cf5e", "is_disabled": 0, "is_reserved": 0}, {"rental_uris": {"ios": "https://dc.lft.to/lastmile_qr_scan", "android": "https://dc.lft.to/lastmile_qr_scan"}, "lon": -77.00747933333334, "type": "electric_scooter", "fusion_lat": 0.0, "lat": 38.90591083333333, "name": "ecf254ec272fe351495086e0ebf770a7", "fusion_lon": 0.0, "bike_id": "ecf254ec272fe351495086e0ebf770a7", "is_disabled": 0, "is_reserved": 0}, {"rental_uris": {"ios": "https://dc.lft.to/lastmile_qr_scan", "android": "https://dc.lft.to/lastmile_qr_scan"}, "lon": -76.99669433333334, "type": "electric_scooter", "fusion_lat": 0.0, "lat": 38.9100815, "name": "432dad84407437c9636dc428f38cfc30", "fusion_lon": 0.0, "bike_id": "432dad84407437c9636dc428f38cfc30", "is_disabled": 0, "is_reserved": 0}, {"rental_uris": {"ios": "https://dc.lft.to/lastmile_qr_scan", "android": "https://dc.lft.to/lastmile_qr_scan"}, "lon": -77.0259285, "type": "electric_scooter", "fusion_lat": 0.0, "lat": 38.892481833333335, "name": "48522023ff70710ea87d6651139c8644", "fusion_lon": 0.0, "bike_id": "48522023ff70710ea87d6651139c8644", "is_disabled": 0, "is_reserved": 0}, {"rental_uris": {"ios": "https://dc.lft.to/lastmile_qr_scan", "android": "https://dc.lft.to/lastmile_qr_scan"}, "lon": -77.02979283333333, "type": "electric_scooter", "fusion_lat": 0.0, "lat": 38.94602916666667, "name": "2fcec15272a21fc3bb9d2ba9bf6be712", "fusion_lon": 0.0, "bike_id": "2fcec15272a21fc3bb9d2ba9bf6be712", "is_disabled": 0, "is_reserved": 0}, {"rental_uris": {"ios": "https://dc.lft.to/lastmile_qr_scan", "android": "https://dc.lft.to/lastmile_qr_scan"}, "lon": -76.99384816666667, "type": "electric_scooter", "fusion_lat": 0.0, "lat": 38.90059933333333, "name": "98c89b30c199ed90d4f5a0ab89e55af1", "fusion_lon": 0.0, "bike_id": "98c89b30c199ed90d4f5a0ab89e55af1", "is_disabled": 0, "is_reserved": 0}, {"rental_uris": {"ios": "https://dc.lft.to/lastmile_qr_scan", "android": "https://dc.lft.to/lastmile_qr_scan"}, "lon": -77.05885266666667, "type": "electric_scooter", "fusion_lat": 0.0, "lat": 38.93636433333333, "name": "cc3879216776b482f4279044daf8d608", "fusion_lon": 0.0, "bike_id": "cc3879216776b482f4279044daf8d608", "is_disabled": 0, "is_reserved": 0}, {"rental_uris": {"ios": "https://dc.lft.to/lastmile_qr_scan", "android": "https://dc.lft.to/lastmile_qr_scan"}, "lon": -77.0407145, "type": "electric_bike", "fusion_lat": 0.0, "lat": 38.8123895, "name": "7ecc6f2afe9b175b7a4dbccba08ed5e5", "fusion_lon": 0.0, "bike_id": "7ecc6f2afe9b175b7a4dbccba08ed5e5", "is_disabled": 0, "is_reserved": 0}, {"rental_uris": {"ios": "https://dc.lft.to/lastmile_qr_scan", "android": "https://dc.lft.to/lastmile_qr_scan"}, "lon": -77.05222666666667, "type": "electric_scooter", "fusion_lat": 0.0, "lat": 38.924983, "name": "04dca308fbd2d9d9083546a3f053b720", "fusion_lon": 0.0, "bike_id": "04dca308fbd2d9d9083546a3f053b720", "is_disabled": 0, "is_reserved": 0}, {"rental_uris": {"ios": "https://dc.lft.to/lastmile_qr_scan", "android": "https://dc.lft.to/lastmile_qr_scan"}, "lon": -77.02977366666667, "type": "electric_scooter", "fusion_lat": 0.0, "lat": 38.945146666666666, "name": "06e7748d03626a43ce01b319f9451716", "fusion_lon": 0.0, "bike_id": "06e7748d03626a43ce01b319f9451716", "is_disabled": 0, "is_reserved": 0}, {"rental_uris": {"ios": "https://dc.lft.to/lastmile_qr_scan", "android": "https://dc.lft.to/lastmile_qr_scan"}, "lon": -76.938957, "type": "electric_bike", "fusion_lat": 0.0, "lat": 38.883327333333334, "name": "3962847ef8f330a478683ef9119980cf", "fusion_lon": 0.0, "bike_id": "3962847ef8f330a478683ef9119980cf", "is_disabled": 0, "is_reserved": 0}, {"rental_uris": {"ios": "https://dc.lft.to/lastmile_qr_scan", "android": "https://dc.lft.to/lastmile_qr_scan"}, "lon": -77.04156316666666, "type": "electric_scooter", "fusion_lat": 0.0, "lat": 38.914848166666665, "name": "239023c936a90a53680e11dfeccf8d99", "fusion_lon": 0.0, "bike_id": "239023c936a90a53680e11dfeccf8d99", "is_disabled": 0, "is_reserved": 0}, {"rental_uris": {"ios": "https://dc.lft.to/lastmile_qr_scan", "android": "https://dc.lft.to/lastmile_qr_scan"}, "lon": -77.025704, "type": "electric_scooter", "fusion_lat": 0.0, "lat": 38.972427, "name": "7cda913f53b19df45a6afb0daeda32e7", "fusion_lon": 0.0, "bike_id": "7cda913f53b19df45a6afb0daeda32e7", "is_disabled": 0, "is_reserved": 0}, {"rental_uris": {"ios": "https://dc.lft.to/lastmile_qr_scan", "android": "https://dc.lft.to/lastmile_qr_scan"}, "lon": -77.03949183333333, "type": "electric_scooter", "fusion_lat": 0.0, "lat": 38.926055, "name": "caca1b2154c05ffad7e513c1bb9bf48c", "fusion_lon": 0.0, "bike_id": "caca1b2154c05ffad7e513c1bb9bf48c", "is_disabled": 0, "is_reserved": 0}, {"rental_uris": {"ios": "https://dc.lft.to/lastmile_qr_scan", "android": "https://dc.lft.to/lastmile_qr_scan"}, "lon": -77.08938366666666, "type": "electric_bike", "fusion_lat": 0.0, "lat": 38.84089133333333, "name": "0350d526596adb2d2c5a9b3c0ed1ce46", "fusion_lon": 0.0, "bike_id": "0350d526596adb2d2c5a9b3c0ed1ce46", "is_disabled": 0, "is_reserved": 0}, {"rental_uris": {"ios": "https://dc.lft.to/lastmile_qr_scan", "android": "https://dc.lft.to/lastmile_qr_scan"}, "lon": -77.02616383333333, "type": "electric_scooter", "fusion_lat": 0.0, "lat": 38.9518215, "name": "d2497977f5b898704d157f5ab67e76e1", "fusion_lon": 0.0, "bike_id": "d2497977f5b898704d157f5ab67e76e1", "is_disabled": 0, "is_reserved": 0}, {"rental_uris": {"ios": "https://dc.lft.to/lastmile_qr_scan", "android": "https://dc.lft.to/lastmile_qr_scan"}, "lon": -77.0298955, "type": "electric_scooter", "fusion_lat": 0.0, "lat": 38.956247166666664, "name": "d5597cead637339b5817bb053f95a5fa", "fusion_lon": 0.0, "bike_id": "d5597cead637339b5817bb053f95a5fa", "is_disabled": 0, "is_reserved": 0}, {"rental_uris": {"ios": "https://dc.lft.to/lastmile_qr_scan", "android": "https://dc.lft.to/lastmile_qr_scan"}, "lon": -77.03850466666667, "type": "electric_scooter", "fusion_lat": 0.0, "lat": 38.91316783333333, "name": "adbdd8e4ddcedeaad7537c92b8a2bd6e", "fusion_lon": 0.0, "bike_id": "adbdd8e4ddcedeaad7537c92b8a2bd6e", "is_disabled": 0, "is_reserved": 0}, {"rental_uris": {"ios": "https://dc.lft.to/lastmile_qr_scan", "android": "https://dc.lft.to/lastmile_qr_scan"}, "lon": -77.05839033333334, "type": "electric_scooter", "fusion_lat": 0.0, "lat": 38.93581233333333, "name": "8e5fdd241e02b86f28949970e26d7348", "fusion_lon": 0.0, "bike_id": "8e5fdd241e02b86f28949970e26d7348", "is_disabled": 0, "is_reserved": 0}, {"rental_uris": {"ios": "https://dc.lft.to/lastmile_qr_scan", "android": "https://dc.lft.to/lastmile_qr_scan"}, "lon": -77.0330755, "type": "electric_scooter", "fusion_lat": 0.0, "lat": 38.92645783333333, "name": "c8b12e1b5adac94f4f7a246fa5709c6a", "fusion_lon": 0.0, "bike_id": "c8b12e1b5adac94f4f7a246fa5709c6a", "is_disabled": 0, "is_reserved": 0}, {"rental_uris": {"ios": "https://dc.lft.to/lastmile_qr_scan", "android": "https://dc.lft.to/lastmile_qr_scan"}, "lon": -77.02136166666666, "type": "electric_scooter", "fusion_lat": 0.0, "lat": 38.93762433333333, "name": "14342b4b79a27f9e390632df2fc917f6", "fusion_lon": 0.0, "bike_id": "14342b4b79a27f9e390632df2fc917f6", "is_disabled": 0, "is_reserved": 0}, {"rental_uris": {"ios": "https://dc.lft.to/lastmile_qr_scan", "android": "https://dc.lft.to/lastmile_qr_scan"}, "lon": -76.980077, "type": "electric_bike", "fusion_lat": 0.0, "lat": 38.902355166666666, "name": "5430464054d6d3d4aac27c73c09b8849", "fusion_lon": 0.0, "bike_id": "5430464054d6d3d4aac27c73c09b8849", "is_disabled": 0, "is_reserved": 0}, {"rental_uris": {"ios": "https://dc.lft.to/lastmile_qr_scan", "android": "https://dc.lft.to/lastmile_qr_scan"}, "lon": -77.023858, "type": "electric_scooter", "fusion_lat": 0.0, "lat": 38.952427166666666, "name": "1f387ad427934309feac47c1249ad128", "fusion_lon": 0.0, "bike_id": "1f387ad427934309feac47c1249ad128", "is_disabled": 0, "is_reserved": 0}, {"rental_uris": {"ios": "https://dc.lft.to/lastmile_qr_scan", "android": "https://dc.lft.to/lastmile_qr_scan"}, "lon": -77.00191966666667, "type": "electric_scooter", "fusion_lat": 0.0, "lat": 38.900568, "name": "5931e0b37250b31e001059efa079e815", "fusion_lon": 0.0, "bike_id": "5931e0b37250b31e001059efa079e815", "is_disabled": 0, "is_reserved": 0}, {"rental_uris": {"ios": "https://dc.lft.to/lastmile_qr_scan", "android": "https://dc.lft.to/lastmile_qr_scan"}, "lon": -76.990181, "type": "electric_scooter", "fusion_lat": 0.0, "lat": 38.861040333333335, "name": "cf7948ebd04c074e3bcf91f1df636d0c", "fusion_lon": 0.0, "bike_id": "cf7948ebd04c074e3bcf91f1df636d0c", "is_disabled": 0, "is_reserved": 0}, {"rental_uris": {"ios": "https://dc.lft.to/lastmile_qr_scan", "android": "https://dc.lft.to/lastmile_qr_scan"}, "lon": -76.97673266666666, "type": "electric_scooter", "fusion_lat": 0.0, "lat": 38.898845666666666, "name": "7d085820d18b23699c718208b9619724", "fusion_lon": 0.0, "bike_id": "7d085820d18b23699c718208b9619724", "is_disabled": 0, "is_reserved": 0}, {"rental_uris": {"ios": "https://dc.lft.to/lastmile_qr_scan", "android": "https://dc.lft.to/lastmile_qr_scan"}, "lon": -77.03183316666667, "type": "electric_scooter", "fusion_lat": 0.0, "lat": 38.89576816666667, "name": "6bb315d8ac90a773853739f8f2c152ae", "fusion_lon": 0.0, "bike_id": "6bb315d8ac90a773853739f8f2c152ae", "is_disabled": 0, "is_reserved": 0}, {"rental_uris": {"ios": "https://dc.lft.to/lastmile_qr_scan", "android": "https://dc.lft.to/lastmile_qr_scan"}, "lon": -77.02780883333334, "type": "electric_scooter", "fusion_lat": 0.0, "lat": 38.92693283333333, "name": "094c7251492e9b620f73a8094f4d060c", "fusion_lon": 0.0, "bike_id": "094c7251492e9b620f73a8094f4d060c", "is_disabled": 0, "is_reserved": 0}, {"rental_uris": {"ios": "https://dc.lft.to/lastmile_qr_scan", "android": "https://dc.lft.to/lastmile_qr_scan"}, "lon": -76.96548933333334, "type": "electric_scooter", "fusion_lat": 0.0, "lat": 38.91875116666667, "name": "776dd990a2a6f143a263d852580b3023", "fusion_lon": 0.0, "bike_id": "776dd990a2a6f143a263d852580b3023", "is_disabled": 0, "is_reserved": 0}, {"rental_uris": {"ios": "https://dc.lft.to/lastmile_qr_scan", "android": "https://dc.lft.to/lastmile_qr_scan"}, "lon": -77.03065133333334, "type": "electric_scooter", "fusion_lat": 0.0, "lat": 38.90563433333333, "name": "0fd3e0c66659f7ab55aa57551ffec70f", "fusion_lon": 0.0, "bike_id": "0fd3e0c66659f7ab55aa57551ffec70f", "is_disabled": 0, "is_reserved": 0}, {"rental_uris": {"ios": "https://dc.lft.to/lastmile_qr_scan", "android": "https://dc.lft.to/lastmile_qr_scan"}, "lon": -77.03181516666666, "type": "electric_scooter", "fusion_lat": 0.0, "lat": 38.91924066666667, "name": "fc9a29b5e65a2be0590ebba528d9193c", "fusion_lon": 0.0, "bike_id": "fc9a29b5e65a2be0590ebba528d9193c", "is_disabled": 0, "is_reserved": 0}, {"rental_uris": {"ios": "https://dc.lft.to/lastmile_qr_scan", "android": "https://dc.lft.to/lastmile_qr_scan"}, "lon": -77.04678533333333, "type": "electric_scooter", "fusion_lat": 0.0, "lat": 38.897301666666664, "name": "41258a2a3f89a69846a4cd77755c35dd", "fusion_lon": 0.0, "bike_id": "41258a2a3f89a69846a4cd77755c35dd", "is_disabled": 0, "is_reserved": 0}, {"rental_uris": {"ios": "https://dc.lft.to/lastmile_qr_scan", "android": "https://dc.lft.to/lastmile_qr_scan"}, "lon": -76.94757766666666, "type": "electric_scooter", "fusion_lat": 0.0, "lat": 38.90054833333333, "name": "740c82e2412c896dfd3f4ea04b5640a1", "fusion_lon": 0.0, "bike_id": "740c82e2412c896dfd3f4ea04b5640a1", "is_disabled": 0, "is_reserved": 0}, {"rental_uris": {"ios": "https://dc.lft.to/lastmile_qr_scan", "android": "https://dc.lft.to/lastmile_qr_scan"}, "lon": -77.0386175, "type": "electric_scooter", "fusion_lat": 0.0, "lat": 38.9155145, "name": "d96c7a9c8d7f01660f99432fd57fc76c", "fusion_lon": 0.0, "bike_id": "d96c7a9c8d7f01660f99432fd57fc76c", "is_disabled": 0, "is_reserved": 0}, {"rental_uris": {"ios": "https://dc.lft.to/lastmile_qr_scan", "android": "https://dc.lft.to/lastmile_qr_scan"}, "lon": -77.02867116666667, "type": "electric_scooter", "fusion_lat": 0.0, "lat": 38.90723666666667, "name": "9cb44769f31077402ff70e91f6b8517c", "fusion_lon": 0.0, "bike_id": "9cb44769f31077402ff70e91f6b8517c", "is_disabled": 0, "is_reserved": 0}, {"rental_uris": {"ios": "https://dc.lft.to/lastmile_qr_scan", "android": "https://dc.lft.to/lastmile_qr_scan"}, "lon": -77.04816516666666, "type": "electric_scooter", "fusion_lat": 0.0, "lat": 38.907213166666665, "name": "c06a997b615de4962877ad160199997d", "fusion_lon": 0.0, "bike_id": "c06a997b615de4962877ad160199997d", "is_disabled": 0, "is_reserved": 0}, {"rental_uris": {"ios": "https://dc.lft.to/lastmile_qr_scan", "android": "https://dc.lft.to/lastmile_qr_scan"}, "lon": -77.03274516666667, "type": "electric_scooter", "fusion_lat": 0.0, "lat": 38.9478655, "name": "7f268195dd687da273cf3da62760d690", "fusion_lon": 0.0, "bike_id": "7f268195dd687da273cf3da62760d690", "is_disabled": 0, "is_reserved": 0}, {"rental_uris": {"ios": "https://dc.lft.to/lastmile_qr_scan", "android": "https://dc.lft.to/lastmile_qr_scan"}, "lon": -77.03281883333334, "type": "electric_scooter", "fusion_lat": 0.0, "lat": 38.9397415, "name": "4db9f2efa6ee299cbb479f0fe1f9e835", "fusion_lon": 0.0, "bike_id": "4db9f2efa6ee299cbb479f0fe1f9e835", "is_disabled": 0, "is_reserved": 0}, {"rental_uris": {"ios": "https://dc.lft.to/lastmile_qr_scan", "android": "https://dc.lft.to/lastmile_qr_scan"}, "lon": -76.98685266666666, "type": "electric_scooter", "fusion_lat": 0.0, "lat": 38.88213416666667, "name": "f4cb8c9f633a7f1b8f524013a1d3665e", "fusion_lon": 0.0, "bike_id": "f4cb8c9f633a7f1b8f524013a1d3665e", "is_disabled": 0, "is_reserved": 0}, {"rental_uris": {"ios": "https://dc.lft.to/lastmile_qr_scan", "android": "https://dc.lft.to/lastmile_qr_scan"}, "lon": -76.99656066666667, "type": "electric_scooter", "fusion_lat": 0.0, "lat": 38.93238133333333, "name": "d20a09dd34cafb7df3aa0a97c951b686", "fusion_lon": 0.0, "bike_id": "d20a09dd34cafb7df3aa0a97c951b686", "is_disabled": 0, "is_reserved": 0}, {"rental_uris": {"ios": "https://dc.lft.to/lastmile_qr_scan", "android": "https://dc.lft.to/lastmile_qr_scan"}, "lon": -77.02216833333334, "type": "electric_scooter", "fusion_lat": 0.0, "lat": 38.912693166666664, "name": "7c52d6f8cd09b30d265f2799298fcb26", "fusion_lon": 0.0, "bike_id": "7c52d6f8cd09b30d265f2799298fcb26", "is_disabled": 0, "is_reserved": 0}, {"rental_uris": {"ios": "https://dc.lft.to/lastmile_qr_scan", "android": "https://dc.lft.to/lastmile_qr_scan"}, "lon": -77.02981833333334, "type": "electric_scooter", "fusion_lat": 0.0, "lat": 38.908986666666664, "name": "d104843ef1ac16e328c0b48f2955d8e9", "fusion_lon": 0.0, "bike_id": "d104843ef1ac16e328c0b48f2955d8e9", "is_disabled": 0, "is_reserved": 0}, {"rental_uris": {"ios": "https://dc.lft.to/lastmile_qr_scan", "android": "https://dc.lft.to/lastmile_qr_scan"}, "lon": -77.04986283333334, "type": "electric_scooter", "fusion_lat": 0.0, "lat": 38.901119, "name": "be2f55543bcb022939a3b903ff0cc43a", "fusion_lon": 0.0, "bike_id": "be2f55543bcb022939a3b903ff0cc43a", "is_disabled": 0, "is_reserved": 0}, {"rental_uris": {"ios": "https://dc.lft.to/lastmile_qr_scan", "android": "https://dc.lft.to/lastmile_qr_scan"}, "lon": -77.02164666666667, "type": "electric_bike", "fusion_lat": 0.0, "lat": 38.88354116666667, "name": "314060c0d0ac250e108b7cdd70eb3a72", "fusion_lon": 0.0, "bike_id": "314060c0d0ac250e108b7cdd70eb3a72", "is_disabled": 0, "is_reserved": 0}, {"rental_uris": {"ios": "https://dc.lft.to/lastmile_qr_scan", "android": "https://dc.lft.to/lastmile_qr_scan"}, "lon": -77.05678583333334, "type": "electric_scooter", "fusion_lat": 0.0, "lat": 38.923215666666664, "name": "b23d33d87496c6401426b4d47cf201a7", "fusion_lon": 0.0, "bike_id": "b23d33d87496c6401426b4d47cf201a7", "is_disabled": 0, "is_reserved": 0}, {"rental_uris": {"ios": "https://dc.lft.to/lastmile_qr_scan", "android": "https://dc.lft.to/lastmile_qr_scan"}, "lon": -76.97960983333333, "type": "electric_scooter", "fusion_lat": 0.0, "lat": 38.9038115, "name": "e028b17adcccf811eed09863aed4d9a1", "fusion_lon": 0.0, "bike_id": "e028b17adcccf811eed09863aed4d9a1", "is_disabled": 0, "is_reserved": 0}, {"rental_uris": {"ios": "https://dc.lft.to/lastmile_qr_scan", "android": "https://dc.lft.to/lastmile_qr_scan"}, "lon": -77.04388383333334, "type": "electric_scooter", "fusion_lat": 0.0, "lat": 38.922771833333336, "name": "9730139b694443a5d1c19724331b5a5b", "fusion_lon": 0.0, "bike_id": "9730139b694443a5d1c19724331b5a5b", "is_disabled": 0, "is_reserved": 0}, {"rental_uris": {"ios": "https://dc.lft.to/lastmile_qr_scan", "android": "https://dc.lft.to/lastmile_qr_scan"}, "lon": -76.9903235, "type": "electric_scooter", "fusion_lat": 0.0, "lat": 38.85868333333333, "name": "7d5348e85c40221132e8c2289c163ffa", "fusion_lon": 0.0, "bike_id": "7d5348e85c40221132e8c2289c163ffa", "is_disabled": 0, "is_reserved": 0}, {"rental_uris": {"ios": "https://dc.lft.to/lastmile_qr_scan", "android": "https://dc.lft.to/lastmile_qr_scan"}, "lon": -77.015212, "type": "electric_scooter", "fusion_lat": 0.0, "lat": 38.91871033333334, "name": "e954fde1b5890e828c8f799a0452160f", "fusion_lon": 0.0, "bike_id": "e954fde1b5890e828c8f799a0452160f", "is_disabled": 0, "is_reserved": 0}, {"rental_uris": {"ios": "https://dc.lft.to/lastmile_qr_scan", "android": "https://dc.lft.to/lastmile_qr_scan"}, "lon": -76.97187916666667, "type": "electric_scooter", "fusion_lat": 0.0, "lat": 38.912658, "name": "88db9a4343a0429cb721bdc6bde51e57", "fusion_lon": 0.0, "bike_id": "88db9a4343a0429cb721bdc6bde51e57", "is_disabled": 0, "is_reserved": 0}, {"rental_uris": {"ios": "https://dc.lft.to/lastmile_qr_scan", "android": "https://dc.lft.to/lastmile_qr_scan"}, "lon": -77.066923, "type": "electric_scooter", "fusion_lat": 0.0, "lat": 38.9096955, "name": "8fea9a508d36ff4e80e5005f0560158a", "fusion_lon": 0.0, "bike_id": "8fea9a508d36ff4e80e5005f0560158a", "is_disabled": 0, "is_reserved": 0}, {"rental_uris": {"ios": "https://dc.lft.to/lastmile_qr_scan", "android": "https://dc.lft.to/lastmile_qr_scan"}, "lon": -77.02002533333334, "type": "electric_scooter", "fusion_lat": 0.0, "lat": 38.89246266666667, "name": "46c92e6fdfdc3a995e551427ec5ff6b3", "fusion_lon": 0.0, "bike_id": "46c92e6fdfdc3a995e551427ec5ff6b3", "is_disabled": 0, "is_reserved": 0}, {"rental_uris": {"ios": "https://dc.lft.to/lastmile_qr_scan", "android": "https://dc.lft.to/lastmile_qr_scan"}, "lon": -77.03120266666667, "type": "electric_scooter", "fusion_lat": 0.0, "lat": 38.911058833333335, "name": "08d966fed8cead3e44523f642f562051", "fusion_lon": 0.0, "bike_id": "08d966fed8cead3e44523f642f562051", "is_disabled": 0, "is_reserved": 0}, {"rental_uris": {"ios": "https://dc.lft.to/lastmile_qr_scan", "android": "https://dc.lft.to/lastmile_qr_scan"}, "lon": -77.0182395, "type": "electric_scooter", "fusion_lat": 0.0, "lat": 38.90807816666667, "name": "127cf6bbb454ac3b8660de800b1eae67", "fusion_lon": 0.0, "bike_id": "127cf6bbb454ac3b8660de800b1eae67", "is_disabled": 0, "is_reserved": 0}, {"rental_uris": {"ios": "https://dc.lft.to/lastmile_qr_scan", "android": "https://dc.lft.to/lastmile_qr_scan"}, "lon": -77.02316983333333, "type": "electric_scooter", "fusion_lat": 0.0, "lat": 38.88735883333333, "name": "037b657b40316ad2ca25a2cfcc92c50b", "fusion_lon": 0.0, "bike_id": "037b657b40316ad2ca25a2cfcc92c50b", "is_disabled": 0, "is_reserved": 0}, {"rental_uris": {"ios": "https://dc.lft.to/lastmile_qr_scan", "android": "https://dc.lft.to/lastmile_qr_scan"}, "lon": -76.9761015, "type": "electric_bike", "fusion_lat": 0.0, "lat": 38.913129, "name": "d955095c8be9ed7ba7f1d79b8f67000f", "fusion_lon": 0.0, "bike_id": "d955095c8be9ed7ba7f1d79b8f67000f", "is_disabled": 0, "is_reserved": 0}, {"rental_uris": {"ios": "https://dc.lft.to/lastmile_qr_scan", "android": "https://dc.lft.to/lastmile_qr_scan"}, "lon": -77.00451683333333, "type": "electric_scooter", "fusion_lat": 0.0, "lat": 38.87686333333333, "name": "513800c43b04621c83a4572b68cb525c", "fusion_lon": 0.0, "bike_id": "513800c43b04621c83a4572b68cb525c", "is_disabled": 0, "is_reserved": 0}, {"rental_uris": {"ios": "https://dc.lft.to/lastmile_qr_scan", "android": "https://dc.lft.to/lastmile_qr_scan"}, "lon": -77.05025866666666, "type": "electric_scooter", "fusion_lat": 0.0, "lat": 38.900808833333336, "name": "853f5caf70831b3d2130729cdb013e7d", "fusion_lon": 0.0, "bike_id": "853f5caf70831b3d2130729cdb013e7d", "is_disabled": 0, "is_reserved": 0}, {"rental_uris": {"ios": "https://dc.lft.to/lastmile_qr_scan", "android": "https://dc.lft.to/lastmile_qr_scan"}, "lon": -77.02961866666666, "type": "electric_scooter", "fusion_lat": 0.0, "lat": 38.90782033333333, "name": "f48e863465d21cf21b3274cc7a951b95", "fusion_lon": 0.0, "bike_id": "f48e863465d21cf21b3274cc7a951b95", "is_disabled": 0, "is_reserved": 0}, {"rental_uris": {"ios": "https://dc.lft.to/lastmile_qr_scan", "android": "https://dc.lft.to/lastmile_qr_scan"}, "lon": -77.03268683333333, "type": "electric_scooter", "fusion_lat": 0.0, "lat": 38.914033333333336, "name": "86cb5fb8f44c67cc6fed2b7d4c9d2464", "fusion_lon": 0.0, "bike_id": "86cb5fb8f44c67cc6fed2b7d4c9d2464", "is_disabled": 0, "is_reserved": 0}, {"rental_uris": {"ios": "https://dc.lft.to/lastmile_qr_scan", "android": "https://dc.lft.to/lastmile_qr_scan"}, "lon": -77.0266205, "type": "electric_scooter", "fusion_lat": 0.0, "lat": 38.932527666666665, "name": "0d40b33a52538d7d943c7426b9fcd64a", "fusion_lon": 0.0, "bike_id": "0d40b33a52538d7d943c7426b9fcd64a", "is_disabled": 0, "is_reserved": 0}, {"rental_uris": {"ios": "https://dc.lft.to/lastmile_qr_scan", "android": "https://dc.lft.to/lastmile_qr_scan"}, "lon": -76.938123, "type": "electric_scooter", "fusion_lat": 0.0, "lat": 38.91302983333333, "name": "74bd92a600b89e64227e957a46b7845b", "fusion_lon": 0.0, "bike_id": "74bd92a600b89e64227e957a46b7845b", "is_disabled": 0, "is_reserved": 0}, {"rental_uris": {"ios": "https://dc.lft.to/lastmile_qr_scan", "android": "https://dc.lft.to/lastmile_qr_scan"}, "lon": -77.0615805, "type": "electric_scooter", "fusion_lat": 0.0, "lat": 38.942088166666665, "name": "95682bf6726f338277b367dc40335766", "fusion_lon": 0.0, "bike_id": "95682bf6726f338277b367dc40335766", "is_disabled": 0, "is_reserved": 0}, {"rental_uris": {"ios": "https://dc.lft.to/lastmile_qr_scan", "android": "https://dc.lft.to/lastmile_qr_scan"}, "lon": -77.0317025, "type": "electric_scooter", "fusion_lat": 0.0, "lat": 38.8960805, "name": "96cca535f0022aab640f9e1ed90c4f19", "fusion_lon": 0.0, "bike_id": "96cca535f0022aab640f9e1ed90c4f19", "is_disabled": 0, "is_reserved": 0}, {"rental_uris": {"ios": "https://dc.lft.to/lastmile_qr_scan", "android": "https://dc.lft.to/lastmile_qr_scan"}, "lon": -77.04664966666667, "type": "electric_scooter", "fusion_lat": 0.0, "lat": 38.90553116666667, "name": "9a67d9a1cef7d1f3c3b65aea2bd4697f", "fusion_lon": 0.0, "bike_id": "9a67d9a1cef7d1f3c3b65aea2bd4697f", "is_disabled": 0, "is_reserved": 0}, {"rental_uris": {"ios": "https://dc.lft.to/lastmile_qr_scan", "android": "https://dc.lft.to/lastmile_qr_scan"}, "lon": -76.98769733333333, "type": "electric_scooter", "fusion_lat": 0.0, "lat": 38.91172266666667, "name": "1b40d46247a9d81ce87cd3c1c7efcde8", "fusion_lon": 0.0, "bike_id": "1b40d46247a9d81ce87cd3c1c7efcde8", "is_disabled": 0, "is_reserved": 0}, {"rental_uris": {"ios": "https://dc.lft.to/lastmile_qr_scan", "android": "https://dc.lft.to/lastmile_qr_scan"}, "lon": -76.97890533333333, "type": "electric_scooter", "fusion_lat": 0.0, "lat": 38.916728, "name": "93369a97a77145c85dc3b458e5e3a9ef", "fusion_lon": 0.0, "bike_id": "93369a97a77145c85dc3b458e5e3a9ef", "is_disabled": 0, "is_reserved": 0}, {"rental_uris": {"ios": "https://dc.lft.to/lastmile_qr_scan", "android": "https://dc.lft.to/lastmile_qr_scan"}, "lon": -77.02317083333334, "type": "electric_scooter", "fusion_lat": 0.0, "lat": 38.927519833333335, "name": "cc5afe1872055677cac88d472c9dad81", "fusion_lon": 0.0, "bike_id": "cc5afe1872055677cac88d472c9dad81", "is_disabled": 0, "is_reserved": 0}, {"rental_uris": {"ios": "https://dc.lft.to/lastmile_qr_scan", "android": "https://dc.lft.to/lastmile_qr_scan"}, "lon": -77.0492605, "type": "electric_scooter", "fusion_lat": 0.0, "lat": 38.89671883333333, "name": "afae3c1567abccd35e6077ba37435cbf", "fusion_lon": 0.0, "bike_id": "afae3c1567abccd35e6077ba37435cbf", "is_disabled": 0, "is_reserved": 0}, {"rental_uris": {"ios": "https://dc.lft.to/lastmile_qr_scan", "android": "https://dc.lft.to/lastmile_qr_scan"}, "lon": -77.12741, "type": "electric_bike", "fusion_lat": 0.0, "lat": 38.888140666666665, "name": "9fd693f04166e6986945a35db25b18d2", "fusion_lon": 0.0, "bike_id": "9fd693f04166e6986945a35db25b18d2", "is_disabled": 0, "is_reserved": 0}, {"rental_uris": {"ios": "https://dc.lft.to/lastmile_qr_scan", "android": "https://dc.lft.to/lastmile_qr_scan"}, "lon": -77.0284685, "type": "electric_scooter", "fusion_lat": 0.0, "lat": 38.887702166666664, "name": "a77b55f0226a4073bda64e118965b587", "fusion_lon": 0.0, "bike_id": "a77b55f0226a4073bda64e118965b587", "is_disabled": 0, "is_reserved": 0}, {"rental_uris": {"ios": "https://dc.lft.to/lastmile_qr_scan", "android": "https://dc.lft.to/lastmile_qr_scan"}, "lon": -77.03196216666667, "type": "electric_scooter", "fusion_lat": 0.0, "lat": 38.919737166666664, "name": "31f9107d74b9c1b8439bb85cf2737488", "fusion_lon": 0.0, "bike_id": "31f9107d74b9c1b8439bb85cf2737488", "is_disabled": 0, "is_reserved": 0}, {"rental_uris": {"ios": "https://dc.lft.to/lastmile_qr_scan", "android": "https://dc.lft.to/lastmile_qr_scan"}, "lon": -77.01863016666667, "type": "electric_scooter", "fusion_lat": 0.0, "lat": 38.9025845, "name": "a35ff374170fa6bb1f6e7032005b2464", "fusion_lon": 0.0, "bike_id": "a35ff374170fa6bb1f6e7032005b2464", "is_disabled": 0, "is_reserved": 0}, {"rental_uris": {"ios": "https://dc.lft.to/lastmile_qr_scan", "android": "https://dc.lft.to/lastmile_qr_scan"}, "lon": -76.99818933333333, "type": "electric_bike", "fusion_lat": 0.0, "lat": 38.84433033333333, "name": "c878026f4a6a9344e052ac3115742b94", "fusion_lon": 0.0, "bike_id": "c878026f4a6a9344e052ac3115742b94", "is_disabled": 0, "is_reserved": 0}, {"rental_uris": {"ios": "https://dc.lft.to/lastmile_qr_scan", "android": "https://dc.lft.to/lastmile_qr_scan"}, "lon": -76.94665333333333, "type": "electric_scooter", "fusion_lat": 0.0, "lat": 38.89868533333333, "name": "f8526ca6d9a42235f4050a47185ae5e2", "fusion_lon": 0.0, "bike_id": "f8526ca6d9a42235f4050a47185ae5e2", "is_disabled": 0, "is_reserved": 0}, {"rental_uris": {"ios": "https://dc.lft.to/lastmile_qr_scan", "android": "https://dc.lft.to/lastmile_qr_scan"}, "lon": -77.01185583333333, "type": "electric_scooter", "fusion_lat": 0.0, "lat": 38.915402, "name": "94e6771f526e622116f94c49ef3e9a0b", "fusion_lon": 0.0, "bike_id": "94e6771f526e622116f94c49ef3e9a0b", "is_disabled": 0, "is_reserved": 0}, {"rental_uris": {"ios": "https://dc.lft.to/lastmile_qr_scan", "android": "https://dc.lft.to/lastmile_qr_scan"}, "lon": -77.02700533333334, "type": "electric_scooter", "fusion_lat": 0.0, "lat": 38.905799, "name": "91868719333163bfb2e29cbb9a7db6bf", "fusion_lon": 0.0, "bike_id": "91868719333163bfb2e29cbb9a7db6bf", "is_disabled": 0, "is_reserved": 0}, {"rental_uris": {"ios": "https://dc.lft.to/lastmile_qr_scan", "android": "https://dc.lft.to/lastmile_qr_scan"}, "lon": -76.98934883333334, "type": "electric_bike", "fusion_lat": 0.0, "lat": 38.92854483333333, "name": "ea1ff320acef8cbd6fb055cf5130aa82", "fusion_lon": 0.0, "bike_id": "ea1ff320acef8cbd6fb055cf5130aa82", "is_disabled": 0, "is_reserved": 0}, {"rental_uris": {"ios": "https://dc.lft.to/lastmile_qr_scan", "android": "https://dc.lft.to/lastmile_qr_scan"}, "lon": -77.00074866666667, "type": "electric_scooter", "fusion_lat": 0.0, "lat": 38.925508, "name": "1fc46b09c79608d05c21084765cbd3b2", "fusion_lon": 0.0, "bike_id": "1fc46b09c79608d05c21084765cbd3b2", "is_disabled": 0, "is_reserved": 0}, {"rental_uris": {"ios": "https://dc.lft.to/lastmile_qr_scan", "android": "https://dc.lft.to/lastmile_qr_scan"}, "lon": -77.04827616666667, "type": "electric_scooter", "fusion_lat": 0.0, "lat": 38.920339166666665, "name": "2c475b4159c3e68404c1283c31b23130", "fusion_lon": 0.0, "bike_id": "2c475b4159c3e68404c1283c31b23130", "is_disabled": 0, "is_reserved": 0}, {"rental_uris": {"ios": "https://dc.lft.to/lastmile_qr_scan", "android": "https://dc.lft.to/lastmile_qr_scan"}, "lon": -77.03658, "type": "electric_scooter", "fusion_lat": 0.0, "lat": 38.91290716666666, "name": "65f4ca9909714f8adfcb188de0bebc99", "fusion_lon": 0.0, "bike_id": "65f4ca9909714f8adfcb188de0bebc99", "is_disabled": 0, "is_reserved": 0}, {"rental_uris": {"ios": "https://dc.lft.to/lastmile_qr_scan", "android": "https://dc.lft.to/lastmile_qr_scan"}, "lon": -77.03806883333333, "type": "electric_bike", "fusion_lat": 0.0, "lat": 38.93069783333333, "name": "dd94604ff6b9a54174ecfe37967363bd", "fusion_lon": 0.0, "bike_id": "dd94604ff6b9a54174ecfe37967363bd", "is_disabled": 0, "is_reserved": 0}, {"rental_uris": {"ios": "https://dc.lft.to/lastmile_qr_scan", "android": "https://dc.lft.to/lastmile_qr_scan"}, "lon": -77.02569666666666, "type": "electric_scooter", "fusion_lat": 0.0, "lat": 38.88745383333333, "name": "140751386d44fbb03ea97a00dfd1abcd", "fusion_lon": 0.0, "bike_id": "140751386d44fbb03ea97a00dfd1abcd", "is_disabled": 0, "is_reserved": 0}, {"rental_uris": {"ios": "https://dc.lft.to/lastmile_qr_scan", "android": "https://dc.lft.to/lastmile_qr_scan"}, "lon": -77.04108416666666, "type": "electric_scooter", "fusion_lat": 0.0, "lat": 38.9236825, "name": "e5bc7b4cbef3f576e28026793ef2683a", "fusion_lon": 0.0, "bike_id": "e5bc7b4cbef3f576e28026793ef2683a", "is_disabled": 0, "is_reserved": 0}, {"rental_uris": {"ios": "https://dc.lft.to/lastmile_qr_scan", "android": "https://dc.lft.to/lastmile_qr_scan"}, "lon": -76.99839283333333, "type": "electric_bike", "fusion_lat": 0.0, "lat": 38.839177166666666, "name": "43e77cacd11fa07dd60ddf0c14f7ef5f", "fusion_lon": 0.0, "bike_id": "43e77cacd11fa07dd60ddf0c14f7ef5f", "is_disabled": 0, "is_reserved": 0}, {"rental_uris": {"ios": "https://dc.lft.to/lastmile_qr_scan", "android": "https://dc.lft.to/lastmile_qr_scan"}, "lon": -77.0514135, "type": "electric_scooter", "fusion_lat": 0.0, "lat": 38.905168333333336, "name": "ddccbd29e7d2374b560bb02ae5be5018", "fusion_lon": 0.0, "bike_id": "ddccbd29e7d2374b560bb02ae5be5018", "is_disabled": 0, "is_reserved": 0}, {"rental_uris": {"ios": "https://dc.lft.to/lastmile_qr_scan", "android": "https://dc.lft.to/lastmile_qr_scan"}, "lon": -76.94967783333334, "type": "electric_scooter", "fusion_lat": 0.0, "lat": 38.89368366666667, "name": "1635f1e088d75dfdfd63e2cf9eaee363", "fusion_lon": 0.0, "bike_id": "1635f1e088d75dfdfd63e2cf9eaee363", "is_disabled": 0, "is_reserved": 0}, {"rental_uris": {"ios": "https://dc.lft.to/lastmile_qr_scan", "android": "https://dc.lft.to/lastmile_qr_scan"}, "lon": -76.93572033333334, "type": "electric_bike", "fusion_lat": 0.0, "lat": 38.885279833333335, "name": "d24a6b20bcb3773353d9ae14ea4524c1", "fusion_lon": 0.0, "bike_id": "d24a6b20bcb3773353d9ae14ea4524c1", "is_disabled": 0, "is_reserved": 0}, {"rental_uris": {"ios": "https://dc.lft.to/lastmile_qr_scan", "android": "https://dc.lft.to/lastmile_qr_scan"}, "lon": -77.04151416666667, "type": "electric_scooter", "fusion_lat": 0.0, "lat": 38.91781966666667, "name": "0a8fd0463e48fb1d561b46ddc19da282", "fusion_lon": 0.0, "bike_id": "0a8fd0463e48fb1d561b46ddc19da282", "is_disabled": 0, "is_reserved": 0}, {"rental_uris": {"ios": "https://dc.lft.to/lastmile_qr_scan", "android": "https://dc.lft.to/lastmile_qr_scan"}, "lon": -76.98020616666666, "type": "electric_scooter", "fusion_lat": 0.0, "lat": 38.903798, "name": "7e775e754f29e0791a9d77672993e337", "fusion_lon": 0.0, "bike_id": "7e775e754f29e0791a9d77672993e337", "is_disabled": 0, "is_reserved": 0}, {"rental_uris": {"ios": "https://dc.lft.to/lastmile_qr_scan", "android": "https://dc.lft.to/lastmile_qr_scan"}, "lon": -77.032093, "type": "electric_scooter", "fusion_lat": 0.0, "lat": 38.925822333333336, "name": "65045eb3c51d9163da25ff5dfcc9e794", "fusion_lon": 0.0, "bike_id": "65045eb3c51d9163da25ff5dfcc9e794", "is_disabled": 0, "is_reserved": 0}, {"rental_uris": {"ios": "https://dc.lft.to/lastmile_qr_scan", "android": "https://dc.lft.to/lastmile_qr_scan"}, "lon": -77.01101083333333, "type": "electric_scooter", "fusion_lat": 0.0, "lat": 38.89475783333334, "name": "d81edb9f348e252221be4a9ff80476de", "fusion_lon": 0.0, "bike_id": "d81edb9f348e252221be4a9ff80476de", "is_disabled": 0, "is_reserved": 0}, {"rental_uris": {"ios": "https://dc.lft.to/lastmile_qr_scan", "android": "https://dc.lft.to/lastmile_qr_scan"}, "lon": -76.99971083333334, "type": "electric_scooter", "fusion_lat": 0.0, "lat": 38.908504666666666, "name": "594e19636b0aa68464086ae564c2816a", "fusion_lon": 0.0, "bike_id": "594e19636b0aa68464086ae564c2816a", "is_disabled": 0, "is_reserved": 0}, {"rental_uris": {"ios": "https://dc.lft.to/lastmile_qr_scan", "android": "https://dc.lft.to/lastmile_qr_scan"}, "lon": -77.07560333333333, "type": "electric_scooter", "fusion_lat": 0.0, "lat": 38.920855833333334, "name": "84ae0a5fb4cde65e8c9789fca53f902c", "fusion_lon": 0.0, "bike_id": "84ae0a5fb4cde65e8c9789fca53f902c", "is_disabled": 0, "is_reserved": 0}, {"rental_uris": {"ios": "https://dc.lft.to/lastmile_qr_scan", "android": "https://dc.lft.to/lastmile_qr_scan"}, "lon": -77.01807916666667, "type": "electric_scooter", "fusion_lat": 0.0, "lat": 38.942038333333336, "name": "8b2600ec4cb8a16235a2b777c13f0244", "fusion_lon": 0.0, "bike_id": "8b2600ec4cb8a16235a2b777c13f0244", "is_disabled": 0, "is_reserved": 0}, {"rental_uris": {"ios": "https://dc.lft.to/lastmile_qr_scan", "android": "https://dc.lft.to/lastmile_qr_scan"}, "lon": -77.01412416666666, "type": "electric_scooter", "fusion_lat": 0.0, "lat": 38.9169135, "name": "ab4b584d6fb5aefcb612541691048a45", "fusion_lon": 0.0, "bike_id": "ab4b584d6fb5aefcb612541691048a45", "is_disabled": 0, "is_reserved": 0}, {"rental_uris": {"ios": "https://dc.lft.to/lastmile_qr_scan", "android": "https://dc.lft.to/lastmile_qr_scan"}, "lon": -77.03000183333333, "type": "electric_scooter", "fusion_lat": 0.0, "lat": 38.9345085, "name": "e1f358f0cab922e0a3d56f2a68488eae", "fusion_lon": 0.0, "bike_id": "e1f358f0cab922e0a3d56f2a68488eae", "is_disabled": 0, "is_reserved": 0}, {"rental_uris": {"ios": "https://dc.lft.to/lastmile_qr_scan", "android": "https://dc.lft.to/lastmile_qr_scan"}, "lon": -77.00514366666667, "type": "electric_scooter", "fusion_lat": 0.0, "lat": 38.878871, "name": "8e964bcae73d92e38f145650a22117fe", "fusion_lon": 0.0, "bike_id": "8e964bcae73d92e38f145650a22117fe", "is_disabled": 0, "is_reserved": 0}, {"rental_uris": {"ios": "https://dc.lft.to/lastmile_qr_scan", "android": "https://dc.lft.to/lastmile_qr_scan"}, "lon": -76.97504683333334, "type": "electric_bike", "fusion_lat": 0.0, "lat": 38.91934716666667, "name": "c911d71abe80f1b895030c9389c58c7d", "fusion_lon": 0.0, "bike_id": "c911d71abe80f1b895030c9389c58c7d", "is_disabled": 0, "is_reserved": 0}, {"rental_uris": {"ios": "https://dc.lft.to/lastmile_qr_scan", "android": "https://dc.lft.to/lastmile_qr_scan"}, "lon": -76.9732805, "type": "electric_scooter", "fusion_lat": 0.0, "lat": 38.93032566666667, "name": "8c39b347de558cebc88c3c67cf5eb5f0", "fusion_lon": 0.0, "bike_id": "8c39b347de558cebc88c3c67cf5eb5f0", "is_disabled": 0, "is_reserved": 0}, {"rental_uris": {"ios": "https://dc.lft.to/lastmile_qr_scan", "android": "https://dc.lft.to/lastmile_qr_scan"}, "lon": -76.975626, "type": "electric_scooter", "fusion_lat": 0.0, "lat": 38.90441633333333, "name": "a3915ca6b075e76e01d582ed899118f8", "fusion_lon": 0.0, "bike_id": "a3915ca6b075e76e01d582ed899118f8", "is_disabled": 0, "is_reserved": 0}, {"rental_uris": {"ios": "https://dc.lft.to/lastmile_qr_scan", "android": "https://dc.lft.to/lastmile_qr_scan"}, "lon": -77.04319583333333, "type": "electric_scooter", "fusion_lat": 0.0, "lat": 38.92617533333333, "name": "2d7d7bdec650057261855a3c4cfbba3d", "fusion_lon": 0.0, "bike_id": "2d7d7bdec650057261855a3c4cfbba3d", "is_disabled": 0, "is_reserved": 0}, {"rental_uris": {"ios": "https://dc.lft.to/lastmile_qr_scan", "android": "https://dc.lft.to/lastmile_qr_scan"}, "lon": -77.04644333333333, "type": "electric_scooter", "fusion_lat": 0.0, "lat": 38.89645516666667, "name": "76e35db518ca3a5896e1c438f542ffb9", "fusion_lon": 0.0, "bike_id": "76e35db518ca3a5896e1c438f542ffb9", "is_disabled": 0, "is_reserved": 0}, {"rental_uris": {"ios": "https://dc.lft.to/lastmile_qr_scan", "android": "https://dc.lft.to/lastmile_qr_scan"}, "lon": -77.04489666666667, "type": "electric_scooter", "fusion_lat": 0.0, "lat": 38.915160666666665, "name": "e3add6b1d030fc2f79f62a80f38088d0", "fusion_lon": 0.0, "bike_id": "e3add6b1d030fc2f79f62a80f38088d0", "is_disabled": 0, "is_reserved": 0}, {"rental_uris": {"ios": "https://dc.lft.to/lastmile_qr_scan", "android": "https://dc.lft.to/lastmile_qr_scan"}, "lon": -76.9961, "type": "electric_scooter", "fusion_lat": 0.0, "lat": 38.886252666666664, "name": "2683454fa71a9e5093a7c9a71adbc4ed", "fusion_lon": 0.0, "bike_id": "2683454fa71a9e5093a7c9a71adbc4ed", "is_disabled": 0, "is_reserved": 0}, {"rental_uris": {"ios": "https://dc.lft.to/lastmile_qr_scan", "android": "https://dc.lft.to/lastmile_qr_scan"}, "lon": -76.99871066666667, "type": "electric_scooter", "fusion_lat": 0.0, "lat": 38.90019266666667, "name": "c7ba087017e9cb536c4895181e2ec869", "fusion_lon": 0.0, "bike_id": "c7ba087017e9cb536c4895181e2ec869", "is_disabled": 0, "is_reserved": 0}, {"rental_uris": {"ios": "https://dc.lft.to/lastmile_qr_scan", "android": "https://dc.lft.to/lastmile_qr_scan"}, "lon": -77.01091766666667, "type": "electric_scooter", "fusion_lat": 0.0, "lat": 38.915539, "name": "86566afd4725706d594ea8013060fb27", "fusion_lon": 0.0, "bike_id": "86566afd4725706d594ea8013060fb27", "is_disabled": 0, "is_reserved": 0}, {"rental_uris": {"ios": "https://dc.lft.to/lastmile_qr_scan", "android": "https://dc.lft.to/lastmile_qr_scan"}, "lon": -77.02698716666667, "type": "electric_scooter", "fusion_lat": 0.0, "lat": 38.90582783333333, "name": "69fb57f1d81f1c29129ff6c3d92397b7", "fusion_lon": 0.0, "bike_id": "69fb57f1d81f1c29129ff6c3d92397b7", "is_disabled": 0, "is_reserved": 0}, {"rental_uris": {"ios": "https://dc.lft.to/lastmile_qr_scan", "android": "https://dc.lft.to/lastmile_qr_scan"}, "lon": -76.985554, "type": "electric_scooter", "fusion_lat": 0.0, "lat": 38.8614615, "name": "01d1a543c2e51c70f580b1f0d001a385", "fusion_lon": 0.0, "bike_id": "01d1a543c2e51c70f580b1f0d001a385", "is_disabled": 0, "is_reserved": 0}, {"rental_uris": {"ios": "https://dc.lft.to/lastmile_qr_scan", "android": "https://dc.lft.to/lastmile_qr_scan"}, "lon": -77.03555416666667, "type": "electric_scooter", "fusion_lat": 0.0, "lat": 38.908341666666665, "name": "973ccc3ff5aa69bc653a0d87bcec5a76", "fusion_lon": 0.0, "bike_id": "973ccc3ff5aa69bc653a0d87bcec5a76", "is_disabled": 0, "is_reserved": 0}, {"rental_uris": {"ios": "https://dc.lft.to/lastmile_qr_scan", "android": "https://dc.lft.to/lastmile_qr_scan"}, "lon": -77.02391066666667, "type": "electric_scooter", "fusion_lat": 0.0, "lat": 38.906980833333336, "name": "35fa33fc9c5c71b908dfb2b8955ddb5c", "fusion_lon": 0.0, "bike_id": "35fa33fc9c5c71b908dfb2b8955ddb5c", "is_disabled": 0, "is_reserved": 0}, {"rental_uris": {"ios": "https://dc.lft.to/lastmile_qr_scan", "android": "https://dc.lft.to/lastmile_qr_scan"}, "lon": -77.04168516666667, "type": "electric_scooter", "fusion_lat": 0.0, "lat": 38.919926, "name": "c6186c65ba56c06dba19c3cb1c76bac9", "fusion_lon": 0.0, "bike_id": "c6186c65ba56c06dba19c3cb1c76bac9", "is_disabled": 0, "is_reserved": 0}, {"rental_uris": {"ios": "https://dc.lft.to/lastmile_qr_scan", "android": "https://dc.lft.to/lastmile_qr_scan"}, "lon": -77.09963966666666, "type": "electric_bike", "fusion_lat": 0.0, "lat": 38.85785933333333, "name": "c1ffb9ef79b951e57ee1049f5027ab15", "fusion_lon": 0.0, "bike_id": "c1ffb9ef79b951e57ee1049f5027ab15", "is_disabled": 0, "is_reserved": 0}, {"rental_uris": {"ios": "https://dc.lft.to/lastmile_qr_scan", "android": "https://dc.lft.to/lastmile_qr_scan"}, "lon": -77.03468883333333, "type": "electric_scooter", "fusion_lat": 0.0, "lat": 38.916926333333336, "name": "b2b7468667e7acf983214576ef452acf", "fusion_lon": 0.0, "bike_id": "b2b7468667e7acf983214576ef452acf", "is_disabled": 0, "is_reserved": 0}, {"rental_uris": {"ios": "https://dc.lft.to/lastmile_qr_scan", "android": "https://dc.lft.to/lastmile_qr_scan"}, "lon": -76.94742266666667, "type": "electric_scooter", "fusion_lat": 0.0, "lat": 38.896766666666664, "name": "8026928bfae626419c792b7fc5fd65ec", "fusion_lon": 0.0, "bike_id": "8026928bfae626419c792b7fc5fd65ec", "is_disabled": 0, "is_reserved": 0}, {"rental_uris": {"ios": "https://dc.lft.to/lastmile_qr_scan", "android": "https://dc.lft.to/lastmile_qr_scan"}, "lon": -77.0807585, "type": "electric_bike", "fusion_lat": 0.0, "lat": 38.90687533333333, "name": "ec7391e52093699ac0560d52c42d1726", "fusion_lon": 0.0, "bike_id": "ec7391e52093699ac0560d52c42d1726", "is_disabled": 0, "is_reserved": 0}, {"rental_uris": {"ios": "https://dc.lft.to/lastmile_qr_scan", "android": "https://dc.lft.to/lastmile_qr_scan"}, "lon": -77.03676983333334, "type": "electric_scooter", "fusion_lat": 0.0, "lat": 38.906849333333334, "name": "299af1458b2a95517c94080f7bfad2ae", "fusion_lon": 0.0, "bike_id": "299af1458b2a95517c94080f7bfad2ae", "is_disabled": 0, "is_reserved": 0}, {"rental_uris": {"ios": "https://dc.lft.to/lastmile_qr_scan", "android": "https://dc.lft.to/lastmile_qr_scan"}, "lon": -76.965548, "type": "electric_scooter", "fusion_lat": 0.0, "lat": 38.918721, "name": "35937a4ebf0bc2f0d916c89a45d64c77", "fusion_lon": 0.0, "bike_id": "35937a4ebf0bc2f0d916c89a45d64c77", "is_disabled": 0, "is_reserved": 0}, {"rental_uris": {"ios": "https://dc.lft.to/lastmile_qr_scan", "android": "https://dc.lft.to/lastmile_qr_scan"}, "lon": -77.0330515, "type": "electric_scooter", "fusion_lat": 0.0, "lat": 38.91818883333333, "name": "147ec86927edc32d782761bd1c1dca1e", "fusion_lon": 0.0, "bike_id": "147ec86927edc32d782761bd1c1dca1e", "is_disabled": 0, "is_reserved": 0}, {"rental_uris": {"ios": "https://dc.lft.to/lastmile_qr_scan", "android": "https://dc.lft.to/lastmile_qr_scan"}, "lon": -77.02204683333333, "type": "electric_scooter", "fusion_lat": 0.0, "lat": 38.915392, "name": "18bcf9d76e0101035166d59044bc60f0", "fusion_lon": 0.0, "bike_id": "18bcf9d76e0101035166d59044bc60f0", "is_disabled": 0, "is_reserved": 0}, {"rental_uris": {"ios": "https://dc.lft.to/lastmile_qr_scan", "android": "https://dc.lft.to/lastmile_qr_scan"}, "lon": -77.04508616666666, "type": "electric_scooter", "fusion_lat": 0.0, "lat": 38.905486333333336, "name": "f36d1dd203df146cf9a7a56783f5ad66", "fusion_lon": 0.0, "bike_id": "f36d1dd203df146cf9a7a56783f5ad66", "is_disabled": 0, "is_reserved": 0}, {"rental_uris": {"ios": "https://dc.lft.to/lastmile_qr_scan", "android": "https://dc.lft.to/lastmile_qr_scan"}, "lon": -77.04052116666666, "type": "electric_scooter", "fusion_lat": 0.0, "lat": 38.927007833333334, "name": "817f8c169e11a7f891b27f99c70a20c0", "fusion_lon": 0.0, "bike_id": "817f8c169e11a7f891b27f99c70a20c0", "is_disabled": 0, "is_reserved": 0}, {"rental_uris": {"ios": "https://dc.lft.to/lastmile_qr_scan", "android": "https://dc.lft.to/lastmile_qr_scan"}, "lon": -77.0882115, "type": "electric_bike", "fusion_lat": 0.0, "lat": 38.90973116666667, "name": "449ec5f88174c8263bd97579d24b0cb8", "fusion_lon": 0.0, "bike_id": "449ec5f88174c8263bd97579d24b0cb8", "is_disabled": 0, "is_reserved": 0}, {"rental_uris": {"ios": "https://dc.lft.to/lastmile_qr_scan", "android": "https://dc.lft.to/lastmile_qr_scan"}, "lon": -77.0221915, "type": "electric_scooter", "fusion_lat": 0.0, "lat": 38.8918805, "name": "1b6da051520930cf61315a546746c7d3", "fusion_lon": 0.0, "bike_id": "1b6da051520930cf61315a546746c7d3", "is_disabled": 0, "is_reserved": 0}, {"rental_uris": {"ios": "https://dc.lft.to/lastmile_qr_scan", "android": "https://dc.lft.to/lastmile_qr_scan"}, "lon": -77.03332066666667, "type": "electric_scooter", "fusion_lat": 0.0, "lat": 38.89839533333333, "name": "782d1092b2cd036d13fea0f97edcb079", "fusion_lon": 0.0, "bike_id": "782d1092b2cd036d13fea0f97edcb079", "is_disabled": 0, "is_reserved": 0}, {"rental_uris": {"ios": "https://dc.lft.to/lastmile_qr_scan", "android": "https://dc.lft.to/lastmile_qr_scan"}, "lon": -77.00194666666667, "type": "electric_scooter", "fusion_lat": 0.0, "lat": 38.90055183333333, "name": "ac931144769fdfdbcc0a084b06dff817", "fusion_lon": 0.0, "bike_id": "ac931144769fdfdbcc0a084b06dff817", "is_disabled": 0, "is_reserved": 0}, {"rental_uris": {"ios": "https://dc.lft.to/lastmile_qr_scan", "android": "https://dc.lft.to/lastmile_qr_scan"}, "lon": -77.06389116666666, "type": "electric_scooter", "fusion_lat": 0.0, "lat": 38.908336166666665, "name": "2169d3792802a1b917904e6be19f0849", "fusion_lon": 0.0, "bike_id": "2169d3792802a1b917904e6be19f0849", "is_disabled": 0, "is_reserved": 0}, {"rental_uris": {"ios": "https://dc.lft.to/lastmile_qr_scan", "android": "https://dc.lft.to/lastmile_qr_scan"}, "lon": -77.019397, "type": "electric_scooter", "fusion_lat": 0.0, "lat": 38.94926133333333, "name": "ea16b83a26725f3c6e6c241b74117ea8", "fusion_lon": 0.0, "bike_id": "ea16b83a26725f3c6e6c241b74117ea8", "is_disabled": 0, "is_reserved": 0}, {"rental_uris": {"ios": "https://dc.lft.to/lastmile_qr_scan", "android": "https://dc.lft.to/lastmile_qr_scan"}, "lon": -77.02727333333333, "type": "electric_scooter", "fusion_lat": 0.0, "lat": 38.93790466666667, "name": "a0fa4eae5ee48b20b30a3b4c13c09505", "fusion_lon": 0.0, "bike_id": "a0fa4eae5ee48b20b30a3b4c13c09505", "is_disabled": 0, "is_reserved": 0}, {"rental_uris": {"ios": "https://dc.lft.to/lastmile_qr_scan", "android": "https://dc.lft.to/lastmile_qr_scan"}, "lon": -77.0379545, "type": "electric_scooter", "fusion_lat": 0.0, "lat": 38.912139, "name": "ac165ebe763405aa7735e513092a803f", "fusion_lon": 0.0, "bike_id": "ac165ebe763405aa7735e513092a803f", "is_disabled": 0, "is_reserved": 0}, {"rental_uris": {"ios": "https://dc.lft.to/lastmile_qr_scan", "android": "https://dc.lft.to/lastmile_qr_scan"}, "lon": -77.03077916666666, "type": "electric_scooter", "fusion_lat": 0.0, "lat": 38.899724666666664, "name": "4a84cc54d77757d98471fb3f76d7d48a", "fusion_lon": 0.0, "bike_id": "4a84cc54d77757d98471fb3f76d7d48a", "is_disabled": 0, "is_reserved": 0}, {"rental_uris": {"ios": "https://dc.lft.to/lastmile_qr_scan", "android": "https://dc.lft.to/lastmile_qr_scan"}, "lon": -77.05150266666666, "type": "electric_scooter", "fusion_lat": 0.0, "lat": 38.90541866666667, "name": "536c09b06cf040af4b0f20344f57a3be", "fusion_lon": 0.0, "bike_id": "536c09b06cf040af4b0f20344f57a3be", "is_disabled": 0, "is_reserved": 0}, {"rental_uris": {"ios": "https://dc.lft.to/lastmile_qr_scan", "android": "https://dc.lft.to/lastmile_qr_scan"}, "lon": -77.0381215, "type": "electric_scooter", "fusion_lat": 0.0, "lat": 38.90679216666667, "name": "8898bd36eb0470eb6efd9c0d002fd863", "fusion_lon": 0.0, "bike_id": "8898bd36eb0470eb6efd9c0d002fd863", "is_disabled": 0, "is_reserved": 0}, {"rental_uris": {"ios": "https://dc.lft.to/lastmile_qr_scan", "android": "https://dc.lft.to/lastmile_qr_scan"}, "lon": -77.04347316666667, "type": "electric_scooter", "fusion_lat": 0.0, "lat": 38.89649883333333, "name": "f1f4d0ab6856625cf122ddcee32657c6", "fusion_lon": 0.0, "bike_id": "f1f4d0ab6856625cf122ddcee32657c6", "is_disabled": 0, "is_reserved": 0}, {"rental_uris": {"ios": "https://dc.lft.to/lastmile_qr_scan", "android": "https://dc.lft.to/lastmile_qr_scan"}, "lon": -77.04032833333333, "type": "electric_scooter", "fusion_lat": 0.0, "lat": 38.924296, "name": "2bafd439a775754ac6841224573a46e4", "fusion_lon": 0.0, "bike_id": "2bafd439a775754ac6841224573a46e4", "is_disabled": 0, "is_reserved": 0}, {"rental_uris": {"ios": "https://dc.lft.to/lastmile_qr_scan", "android": "https://dc.lft.to/lastmile_qr_scan"}, "lon": -77.04402966666666, "type": "electric_scooter", "fusion_lat": 0.0, "lat": 38.90904666666667, "name": "071002eaa8ce17350e9071d13d6200de", "fusion_lon": 0.0, "bike_id": "071002eaa8ce17350e9071d13d6200de", "is_disabled": 0, "is_reserved": 0}, {"rental_uris": {"ios": "https://dc.lft.to/lastmile_qr_scan", "android": "https://dc.lft.to/lastmile_qr_scan"}, "lon": -77.03855566666667, "type": "electric_scooter", "fusion_lat": 0.0, "lat": 38.91329616666667, "name": "b7b6b3efe8825060a1a18f09277d9b52", "fusion_lon": 0.0, "bike_id": "b7b6b3efe8825060a1a18f09277d9b52", "is_disabled": 0, "is_reserved": 0}, {"rental_uris": {"ios": "https://dc.lft.to/lastmile_qr_scan", "android": "https://dc.lft.to/lastmile_qr_scan"}, "lon": -76.97947816666667, "type": "electric_scooter", "fusion_lat": 0.0, "lat": 38.902441333333336, "name": "5513524259c986a7aee5ed0d2617bb27", "fusion_lon": 0.0, "bike_id": "5513524259c986a7aee5ed0d2617bb27", "is_disabled": 0, "is_reserved": 0}, {"rental_uris": {"ios": "https://dc.lft.to/lastmile_qr_scan", "android": "https://dc.lft.to/lastmile_qr_scan"}, "lon": -77.03004916666667, "type": "electric_scooter", "fusion_lat": 0.0, "lat": 38.91701583333333, "name": "5cad780e9542f23c979c325a78a12278", "fusion_lon": 0.0, "bike_id": "5cad780e9542f23c979c325a78a12278", "is_disabled": 0, "is_reserved": 0}, {"rental_uris": {"ios": "https://dc.lft.to/lastmile_qr_scan", "android": "https://dc.lft.to/lastmile_qr_scan"}, "lon": -77.03535116666667, "type": "electric_scooter", "fusion_lat": 0.0, "lat": 38.9233655, "name": "1a568a85afd564b1c1fcaf7ba1aa13b4", "fusion_lon": 0.0, "bike_id": "1a568a85afd564b1c1fcaf7ba1aa13b4", "is_disabled": 0, "is_reserved": 0}, {"rental_uris": {"ios": "https://dc.lft.to/lastmile_qr_scan", "android": "https://dc.lft.to/lastmile_qr_scan"}, "lon": -77.00349616666666, "type": "electric_scooter", "fusion_lat": 0.0, "lat": 38.89357, "name": "b1f82bcd02b67cc5c3175c46b237b51c", "fusion_lon": 0.0, "bike_id": "b1f82bcd02b67cc5c3175c46b237b51c", "is_disabled": 0, "is_reserved": 0}, {"rental_uris": {"ios": "https://dc.lft.to/lastmile_qr_scan", "android": "https://dc.lft.to/lastmile_qr_scan"}, "lon": -76.98560383333333, "type": "electric_scooter", "fusion_lat": 0.0, "lat": 38.899558166666665, "name": "e07554343af453a0cd07c1ba83256374", "fusion_lon": 0.0, "bike_id": "e07554343af453a0cd07c1ba83256374", "is_disabled": 0, "is_reserved": 0}, {"rental_uris": {"ios": "https://dc.lft.to/lastmile_qr_scan", "android": "https://dc.lft.to/lastmile_qr_scan"}, "lon": -76.98887266666667, "type": "electric_scooter", "fusion_lat": 0.0, "lat": 38.866518166666665, "name": "137b9301d815dc217bb2b48093dc2b5c", "fusion_lon": 0.0, "bike_id": "137b9301d815dc217bb2b48093dc2b5c", "is_disabled": 0, "is_reserved": 0}, {"rental_uris": {"ios": "https://dc.lft.to/lastmile_qr_scan", "android": "https://dc.lft.to/lastmile_qr_scan"}, "lon": -77.02724066666667, "type": "electric_scooter", "fusion_lat": 0.0, "lat": 38.90062433333333, "name": "9d5b0c287d645ac577d8a91b4b0e951e", "fusion_lon": 0.0, "bike_id": "9d5b0c287d645ac577d8a91b4b0e951e", "is_disabled": 0, "is_reserved": 0}, {"rental_uris": {"ios": "https://dc.lft.to/lastmile_qr_scan", "android": "https://dc.lft.to/lastmile_qr_scan"}, "lon": -77.02935233333334, "type": "electric_scooter", "fusion_lat": 0.0, "lat": 38.911047833333335, "name": "039d5b9bb9878655f69ca08386fd0a9d", "fusion_lon": 0.0, "bike_id": "039d5b9bb9878655f69ca08386fd0a9d", "is_disabled": 0, "is_reserved": 0}, {"rental_uris": {"ios": "https://dc.lft.to/lastmile_qr_scan", "android": "https://dc.lft.to/lastmile_qr_scan"}, "lon": -77.02009633333333, "type": "electric_scooter", "fusion_lat": 0.0, "lat": 38.90148816666667, "name": "2610052b88b36b695c51b36d5fe1d698", "fusion_lon": 0.0, "bike_id": "2610052b88b36b695c51b36d5fe1d698", "is_disabled": 0, "is_reserved": 0}, {"rental_uris": {"ios": "https://dc.lft.to/lastmile_qr_scan", "android": "https://dc.lft.to/lastmile_qr_scan"}, "lon": -77.0433455, "type": "electric_scooter", "fusion_lat": 0.0, "lat": 38.90830733333333, "name": "c2b82f60fac8a273f5abba143d7596a2", "fusion_lon": 0.0, "bike_id": "c2b82f60fac8a273f5abba143d7596a2", "is_disabled": 0, "is_reserved": 0}, {"rental_uris": {"ios": "https://dc.lft.to/lastmile_qr_scan", "android": "https://dc.lft.to/lastmile_qr_scan"}, "lon": -77.02090066666666, "type": "electric_scooter", "fusion_lat": 0.0, "lat": 38.93116916666666, "name": "6978d4f28aa1bab0c40d68dadc42939e", "fusion_lon": 0.0, "bike_id": "6978d4f28aa1bab0c40d68dadc42939e", "is_disabled": 0, "is_reserved": 0}, {"rental_uris": {"ios": "https://dc.lft.to/lastmile_qr_scan", "android": "https://dc.lft.to/lastmile_qr_scan"}, "lon": -77.10507033333333, "type": "electric_bike", "fusion_lat": 0.0, "lat": 38.92848933333333, "name": "52dea7994d1d3645826b2b12357f4930", "fusion_lon": 0.0, "bike_id": "52dea7994d1d3645826b2b12357f4930", "is_disabled": 0, "is_reserved": 0}, {"rental_uris": {"ios": "https://dc.lft.to/lastmile_qr_scan", "android": "https://dc.lft.to/lastmile_qr_scan"}, "lon": -77.03071366666667, "type": "electric_scooter", "fusion_lat": 0.0, "lat": 38.899995, "name": "4cba0cfd871f1e50eef0f5600ac7bad8", "fusion_lon": 0.0, "bike_id": "4cba0cfd871f1e50eef0f5600ac7bad8", "is_disabled": 0, "is_reserved": 0}, {"rental_uris": {"ios": "https://dc.lft.to/lastmile_qr_scan", "android": "https://dc.lft.to/lastmile_qr_scan"}, "lon": -77.04454266666667, "type": "electric_scooter", "fusion_lat": 0.0, "lat": 38.915681666666664, "name": "1972b89b9c09b4dfb5251304585aaa20", "fusion_lon": 0.0, "bike_id": "1972b89b9c09b4dfb5251304585aaa20", "is_disabled": 0, "is_reserved": 0}, {"rental_uris": {"ios": "https://dc.lft.to/lastmile_qr_scan", "android": "https://dc.lft.to/lastmile_qr_scan"}, "lon": -77.03223816666667, "type": "electric_scooter", "fusion_lat": 0.0, "lat": 38.918030333333334, "name": "83ef6961fba1b928dd61f80bce4a38a9", "fusion_lon": 0.0, "bike_id": "83ef6961fba1b928dd61f80bce4a38a9", "is_disabled": 0, "is_reserved": 0}, {"rental_uris": {"ios": "https://dc.lft.to/lastmile_qr_scan", "android": "https://dc.lft.to/lastmile_qr_scan"}, "lon": -77.0028565, "type": "electric_scooter", "fusion_lat": 0.0, "lat": 38.897419166666666, "name": "954c2a1808a8652705148d13df6e4553", "fusion_lon": 0.0, "bike_id": "954c2a1808a8652705148d13df6e4553", "is_disabled": 0, "is_reserved": 0}, {"rental_uris": {"ios": "https://dc.lft.to/lastmile_qr_scan", "android": "https://dc.lft.to/lastmile_qr_scan"}, "lon": -77.05139966666667, "type": "electric_scooter", "fusion_lat": 0.0, "lat": 38.90532183333333, "name": "b44acb456dda8336045344893f8414c4", "fusion_lon": 0.0, "bike_id": "b44acb456dda8336045344893f8414c4", "is_disabled": 0, "is_reserved": 0}, {"rental_uris": {"ios": "https://dc.lft.to/lastmile_qr_scan", "android": "https://dc.lft.to/lastmile_qr_scan"}, "lon": -77.0894285, "type": "electric_bike", "fusion_lat": 0.0, "lat": 38.841002, "name": "f25650feeace79893e5064bea66f318c", "fusion_lon": 0.0, "bike_id": "f25650feeace79893e5064bea66f318c", "is_disabled": 0, "is_reserved": 0}, {"rental_uris": {"ios": "https://dc.lft.to/lastmile_qr_scan", "android": "https://dc.lft.to/lastmile_qr_scan"}, "lon": -77.02954883333334, "type": "electric_scooter", "fusion_lat": 0.0, "lat": 38.915861666666665, "name": "2f397b987b79ea8746722fe371341a4c", "fusion_lon": 0.0, "bike_id": "2f397b987b79ea8746722fe371341a4c", "is_disabled": 0, "is_reserved": 0}, {"rental_uris": {"ios": "https://dc.lft.to/lastmile_qr_scan", "android": "https://dc.lft.to/lastmile_qr_scan"}, "lon": -77.02150433333334, "type": "electric_scooter", "fusion_lat": 0.0, "lat": 38.89718766666667, "name": "a3ee188fec49ba67487307c9e773f0ef", "fusion_lon": 0.0, "bike_id": "a3ee188fec49ba67487307c9e773f0ef", "is_disabled": 0, "is_reserved": 0}, {"rental_uris": {"ios": "https://dc.lft.to/lastmile_qr_scan", "android": "https://dc.lft.to/lastmile_qr_scan"}, "lon": -77.02213116666667, "type": "electric_scooter", "fusion_lat": 0.0, "lat": 38.887671, "name": "d7d4e0e55dc3b32db1e1a4877fdd738b", "fusion_lon": 0.0, "bike_id": "d7d4e0e55dc3b32db1e1a4877fdd738b", "is_disabled": 0, "is_reserved": 0}, {"rental_uris": {"ios": "https://dc.lft.to/lastmile_qr_scan", "android": "https://dc.lft.to/lastmile_qr_scan"}, "lon": -77.006569, "type": "electric_scooter", "fusion_lat": 0.0, "lat": 38.94459833333333, "name": "39bb7863d8bd2926050e32a23d174a01", "fusion_lon": 0.0, "bike_id": "39bb7863d8bd2926050e32a23d174a01", "is_disabled": 0, "is_reserved": 0}, {"rental_uris": {"ios": "https://dc.lft.to/lastmile_qr_scan", "android": "https://dc.lft.to/lastmile_qr_scan"}, "lon": -76.984216, "type": "electric_scooter", "fusion_lat": 0.0, "lat": 38.859725166666664, "name": "957b89ca91e7917def11c06e56ec9bb7", "fusion_lon": 0.0, "bike_id": "957b89ca91e7917def11c06e56ec9bb7", "is_disabled": 0, "is_reserved": 0}, {"rental_uris": {"ios": "https://dc.lft.to/lastmile_qr_scan", "android": "https://dc.lft.to/lastmile_qr_scan"}, "lon": -77.04872333333333, "type": "electric_scooter", "fusion_lat": 0.0, "lat": 38.903591166666665, "name": "104b9a9b7a1ea499bcef87f110d19e0e", "fusion_lon": 0.0, "bike_id": "104b9a9b7a1ea499bcef87f110d19e0e", "is_disabled": 0, "is_reserved": 0}, {"rental_uris": {"ios": "https://dc.lft.to/lastmile_qr_scan", "android": "https://dc.lft.to/lastmile_qr_scan"}, "lon": -77.02995, "type": "electric_scooter", "fusion_lat": 0.0, "lat": 38.91020183333333, "name": "46cac32d3df91b085b02fef51d982707", "fusion_lon": 0.0, "bike_id": "46cac32d3df91b085b02fef51d982707", "is_disabled": 0, "is_reserved": 0}, {"rental_uris": {"ios": "https://dc.lft.to/lastmile_qr_scan", "android": "https://dc.lft.to/lastmile_qr_scan"}, "lon": -77.04168816666666, "type": "electric_scooter", "fusion_lat": 0.0, "lat": 38.919260333333334, "name": "a023c0e4dabf0972c85a13e0be23008c", "fusion_lon": 0.0, "bike_id": "a023c0e4dabf0972c85a13e0be23008c", "is_disabled": 0, "is_reserved": 0}, {"rental_uris": {"ios": "https://dc.lft.to/lastmile_qr_scan", "android": "https://dc.lft.to/lastmile_qr_scan"}, "lon": -76.957599, "type": "electric_scooter", "fusion_lat": 0.0, "lat": 38.88430666666667, "name": "7d64b4a6207217200415a9304add6052", "fusion_lon": 0.0, "bike_id": "7d64b4a6207217200415a9304add6052", "is_disabled": 0, "is_reserved": 0}, {"rental_uris": {"ios": "https://dc.lft.to/lastmile_qr_scan", "android": "https://dc.lft.to/lastmile_qr_scan"}, "lon": -77.02360416666667, "type": "electric_scooter", "fusion_lat": 0.0, "lat": 38.925112, "name": "d60e6196f955f4ce3a7c42e037cbb874", "fusion_lon": 0.0, "bike_id": "d60e6196f955f4ce3a7c42e037cbb874", "is_disabled": 0, "is_reserved": 0}, {"rental_uris": {"ios": "https://dc.lft.to/lastmile_qr_scan", "android": "https://dc.lft.to/lastmile_qr_scan"}, "lon": -77.15269533333333, "type": "electric_bike", "fusion_lat": 0.0, "lat": 39.1056425, "name": "01a180769a716265cb63a136cab6c27c", "fusion_lon": 0.0, "bike_id": "01a180769a716265cb63a136cab6c27c", "is_disabled": 0, "is_reserved": 0}, {"rental_uris": {"ios": "https://dc.lft.to/lastmile_qr_scan", "android": "https://dc.lft.to/lastmile_qr_scan"}, "lon": -77.01406183333333, "type": "electric_scooter", "fusion_lat": 0.0, "lat": 38.928473, "name": "7310c038897b5614e5db38f967927af6", "fusion_lon": 0.0, "bike_id": "7310c038897b5614e5db38f967927af6", "is_disabled": 0, "is_reserved": 0}, {"rental_uris": {"ios": "https://dc.lft.to/lastmile_qr_scan", "android": "https://dc.lft.to/lastmile_qr_scan"}, "lon": -77.024175, "type": "electric_scooter", "fusion_lat": 0.0, "lat": 38.917064333333336, "name": "057883c693184c5d4f6bbdeaf12b56ac", "fusion_lon": 0.0, "bike_id": "057883c693184c5d4f6bbdeaf12b56ac", "is_disabled": 0, "is_reserved": 0}, {"rental_uris": {"ios": "https://dc.lft.to/lastmile_qr_scan", "android": "https://dc.lft.to/lastmile_qr_scan"}, "lon": -77.00258566666666, "type": "electric_scooter", "fusion_lat": 0.0, "lat": 38.87742333333333, "name": "cf24cb58358877aff798888c80e8d4ff", "fusion_lon": 0.0, "bike_id": "cf24cb58358877aff798888c80e8d4ff", "is_disabled": 0, "is_reserved": 0}, {"rental_uris": {"ios": "https://dc.lft.to/lastmile_qr_scan", "android": "https://dc.lft.to/lastmile_qr_scan"}, "lon": -76.98323666666667, "type": "electric_scooter", "fusion_lat": 0.0, "lat": 38.861684, "name": "3f358407c496b6feb7e6cc687c5d368b", "fusion_lon": 0.0, "bike_id": "3f358407c496b6feb7e6cc687c5d368b", "is_disabled": 0, "is_reserved": 0}, {"rental_uris": {"ios": "https://dc.lft.to/lastmile_qr_scan", "android": "https://dc.lft.to/lastmile_qr_scan"}, "lon": -77.04186983333334, "type": "electric_scooter", "fusion_lat": 0.0, "lat": 38.903431, "name": "2182b276601bea5532a83fffeeba4e42", "fusion_lon": 0.0, "bike_id": "2182b276601bea5532a83fffeeba4e42", "is_disabled": 0, "is_reserved": 0}, {"rental_uris": {"ios": "https://dc.lft.to/lastmile_qr_scan", "android": "https://dc.lft.to/lastmile_qr_scan"}, "lon": -77.02531916666666, "type": "electric_scooter", "fusion_lat": 0.0, "lat": 38.918174, "name": "0847edef941d4218a95374296d3217d5", "fusion_lon": 0.0, "bike_id": "0847edef941d4218a95374296d3217d5", "is_disabled": 0, "is_reserved": 0}, {"rental_uris": {"ios": "https://dc.lft.to/lastmile_qr_scan", "android": "https://dc.lft.to/lastmile_qr_scan"}, "lon": -77.04995816666667, "type": "electric_scooter", "fusion_lat": 0.0, "lat": 38.89892183333333, "name": "a655585113d184861e0e673088f176b7", "fusion_lon": 0.0, "bike_id": "a655585113d184861e0e673088f176b7", "is_disabled": 0, "is_reserved": 0}, {"rental_uris": {"ios": "https://dc.lft.to/lastmile_qr_scan", "android": "https://dc.lft.to/lastmile_qr_scan"}, "lon": -76.935374, "type": "electric_bike", "fusion_lat": 0.0, "lat": 38.955403833333335, "name": "2a66ae1eb5f69145a8e413e7d382835d", "fusion_lon": 0.0, "bike_id": "2a66ae1eb5f69145a8e413e7d382835d", "is_disabled": 0, "is_reserved": 0}, {"rental_uris": {"ios": "https://dc.lft.to/lastmile_qr_scan", "android": "https://dc.lft.to/lastmile_qr_scan"}, "lon": -77.02595033333333, "type": "electric_scooter", "fusion_lat": 0.0, "lat": 38.916936666666665, "name": "e3d96bb3413889e13e76977c271a40ac", "fusion_lon": 0.0, "bike_id": "e3d96bb3413889e13e76977c271a40ac", "is_disabled": 0, "is_reserved": 0}, {"rental_uris": {"ios": "https://dc.lft.to/lastmile_qr_scan", "android": "https://dc.lft.to/lastmile_qr_scan"}, "lon": -77.00203983333333, "type": "electric_scooter", "fusion_lat": 0.0, "lat": 38.900355, "name": "405a97d0bd3048671fb5031a944c0405", "fusion_lon": 0.0, "bike_id": "405a97d0bd3048671fb5031a944c0405", "is_disabled": 0, "is_reserved": 0}, {"rental_uris": {"ios": "https://dc.lft.to/lastmile_qr_scan", "android": "https://dc.lft.to/lastmile_qr_scan"}, "lon": -77.02547083333333, "type": "electric_scooter", "fusion_lat": 0.0, "lat": 38.940890833333334, "name": "a3700b489d719043083e9abc7ecf662a", "fusion_lon": 0.0, "bike_id": "a3700b489d719043083e9abc7ecf662a", "is_disabled": 0, "is_reserved": 0}, {"rental_uris": {"ios": "https://dc.lft.to/lastmile_qr_scan", "android": "https://dc.lft.to/lastmile_qr_scan"}, "lon": -77.0768375, "type": "electric_bike", "fusion_lat": 0.0, "lat": 38.83192833333333, "name": "e3e5dd49b3cb2c3cf68b0cf1836fea4f", "fusion_lon": 0.0, "bike_id": "e3e5dd49b3cb2c3cf68b0cf1836fea4f", "is_disabled": 0, "is_reserved": 0}, {"rental_uris": {"ios": "https://dc.lft.to/lastmile_qr_scan", "android": "https://dc.lft.to/lastmile_qr_scan"}, "lon": -77.02400583333333, "type": "electric_scooter", "fusion_lat": 0.0, "lat": 38.91601583333333, "name": "ea2f742db97f0762409f98bf33de9eae", "fusion_lon": 0.0, "bike_id": "ea2f742db97f0762409f98bf33de9eae", "is_disabled": 0, "is_reserved": 0}, {"rental_uris": {"ios": "https://dc.lft.to/lastmile_qr_scan", "android": "https://dc.lft.to/lastmile_qr_scan"}, "lon": -77.003529, "type": "electric_scooter", "fusion_lat": 0.0, "lat": 38.8992465, "name": "093ff4c8c6d50e12613ae537af014e8f", "fusion_lon": 0.0, "bike_id": "093ff4c8c6d50e12613ae537af014e8f", "is_disabled": 0, "is_reserved": 0}, {"rental_uris": {"ios": "https://dc.lft.to/lastmile_qr_scan", "android": "https://dc.lft.to/lastmile_qr_scan"}, "lon": -77.04743566666667, "type": "electric_scooter", "fusion_lat": 0.0, "lat": 38.902212666666664, "name": "9e8009b5cc235a3658b7ce82099f359a", "fusion_lon": 0.0, "bike_id": "9e8009b5cc235a3658b7ce82099f359a", "is_disabled": 0, "is_reserved": 0}, {"rental_uris": {"ios": "https://dc.lft.to/lastmile_qr_scan", "android": "https://dc.lft.to/lastmile_qr_scan"}, "lon": -77.122634, "type": "electric_bike", "fusion_lat": 0.0, "lat": 38.891870833333336, "name": "d0abd5778f7d80c16177bf8a8fe8fd3d", "fusion_lon": 0.0, "bike_id": "d0abd5778f7d80c16177bf8a8fe8fd3d", "is_disabled": 0, "is_reserved": 0}, {"rental_uris": {"ios": "https://dc.lft.to/lastmile_qr_scan", "android": "https://dc.lft.to/lastmile_qr_scan"}, "lon": -77.11224333333334, "type": "electric_bike", "fusion_lat": 0.0, "lat": 38.8287185, "name": "772fc587fb77131a63ca67ee9fc29952", "fusion_lon": 0.0, "bike_id": "772fc587fb77131a63ca67ee9fc29952", "is_disabled": 0, "is_reserved": 0}, {"rental_uris": {"ios": "https://dc.lft.to/lastmile_qr_scan", "android": "https://dc.lft.to/lastmile_qr_scan"}, "lon": -77.1120345, "type": "electric_bike", "fusion_lat": 0.0, "lat": 38.81311616666667, "name": "be426e662a0641960ab9f0b45c1557f2", "fusion_lon": 0.0, "bike_id": "be426e662a0641960ab9f0b45c1557f2", "is_disabled": 0, "is_reserved": 0}, {"rental_uris": {"ios": "https://dc.lft.to/lastmile_qr_scan", "android": "https://dc.lft.to/lastmile_qr_scan"}, "lon": -77.033113, "type": "electric_scooter", "fusion_lat": 0.0, "lat": 38.90154416666667, "name": "18410ef692b5929a370878e19676117f", "fusion_lon": 0.0, "bike_id": "18410ef692b5929a370878e19676117f", "is_disabled": 0, "is_reserved": 0}, {"rental_uris": {"ios": "https://dc.lft.to/lastmile_qr_scan", "android": "https://dc.lft.to/lastmile_qr_scan"}, "lon": -76.98844833333334, "type": "electric_bike", "fusion_lat": 0.0, "lat": 38.842758, "name": "9aae6e6f93839d7ffed72d14fdd21558", "fusion_lon": 0.0, "bike_id": "9aae6e6f93839d7ffed72d14fdd21558", "is_disabled": 0, "is_reserved": 0}, {"rental_uris": {"ios": "https://dc.lft.to/lastmile_qr_scan", "android": "https://dc.lft.to/lastmile_qr_scan"}, "lon": -77.032112, "type": "electric_scooter", "fusion_lat": 0.0, "lat": 38.89338866666667, "name": "8d89476f7a5e0806eaeb0a34274cc350", "fusion_lon": 0.0, "bike_id": "8d89476f7a5e0806eaeb0a34274cc350", "is_disabled": 0, "is_reserved": 0}, {"rental_uris": {"ios": "https://dc.lft.to/lastmile_qr_scan", "android": "https://dc.lft.to/lastmile_qr_scan"}, "lon": -77.03214183333333, "type": "electric_scooter", "fusion_lat": 0.0, "lat": 38.91553783333333, "name": "d7f84ec82e68ad73155ee643d70e48c3", "fusion_lon": 0.0, "bike_id": "d7f84ec82e68ad73155ee643d70e48c3", "is_disabled": 0, "is_reserved": 0}, {"rental_uris": {"ios": "https://dc.lft.to/lastmile_qr_scan", "android": "https://dc.lft.to/lastmile_qr_scan"}, "lon": -77.02460866666667, "type": "electric_scooter", "fusion_lat": 0.0, "lat": 38.918324, "name": "0f17990eca7b50f455c55e2a08a7835f", "fusion_lon": 0.0, "bike_id": "0f17990eca7b50f455c55e2a08a7835f", "is_disabled": 0, "is_reserved": 0}, {"rental_uris": {"ios": "https://dc.lft.to/lastmile_qr_scan", "android": "https://dc.lft.to/lastmile_qr_scan"}, "lon": -77.03644366666667, "type": "electric_scooter", "fusion_lat": 0.0, "lat": 38.90283083333333, "name": "b47f12f18170ca0ec3eb938e110c5595", "fusion_lon": 0.0, "bike_id": "b47f12f18170ca0ec3eb938e110c5595", "is_disabled": 0, "is_reserved": 0}, {"rental_uris": {"ios": "https://dc.lft.to/lastmile_qr_scan", "android": "https://dc.lft.to/lastmile_qr_scan"}, "lon": -76.97600483333333, "type": "electric_scooter", "fusion_lat": 0.0, "lat": 38.902050333333335, "name": "adb499610d9045f0b675a8fc8012a264", "fusion_lon": 0.0, "bike_id": "adb499610d9045f0b675a8fc8012a264", "is_disabled": 0, "is_reserved": 0}, {"rental_uris": {"ios": "https://dc.lft.to/lastmile_qr_scan", "android": "https://dc.lft.to/lastmile_qr_scan"}, "lon": -76.99909566666666, "type": "electric_scooter", "fusion_lat": 0.0, "lat": 38.90933, "name": "b69aef9ccbfb65b7d6460b6d6c75fe06", "fusion_lon": 0.0, "bike_id": "b69aef9ccbfb65b7d6460b6d6c75fe06", "is_disabled": 0, "is_reserved": 0}, {"rental_uris": {"ios": "https://dc.lft.to/lastmile_qr_scan", "android": "https://dc.lft.to/lastmile_qr_scan"}, "lon": -77.05180016666667, "type": "electric_scooter", "fusion_lat": 0.0, "lat": 38.924164833333336, "name": "c064cb9c5d93d175d123b5b329221bed", "fusion_lon": 0.0, "bike_id": "c064cb9c5d93d175d123b5b329221bed", "is_disabled": 0, "is_reserved": 0}, {"rental_uris": {"ios": "https://dc.lft.to/lastmile_qr_scan", "android": "https://dc.lft.to/lastmile_qr_scan"}, "lon": -77.028145, "type": "electric_scooter", "fusion_lat": 0.0, "lat": 38.90929783333333, "name": "91a30de2018b8d17c26a0c6c0a5b0a7c", "fusion_lon": 0.0, "bike_id": "91a30de2018b8d17c26a0c6c0a5b0a7c", "is_disabled": 0, "is_reserved": 0}, {"rental_uris": {"ios": "https://dc.lft.to/lastmile_qr_scan", "android": "https://dc.lft.to/lastmile_qr_scan"}, "lon": -76.96885183333333, "type": "electric_bike", "fusion_lat": 0.0, "lat": 38.84593733333333, "name": "1808bae8abfb1cd60a227d734a9560a5", "fusion_lon": 0.0, "bike_id": "1808bae8abfb1cd60a227d734a9560a5", "is_disabled": 0, "is_reserved": 0}, {"rental_uris": {"ios": "https://dc.lft.to/lastmile_qr_scan", "android": "https://dc.lft.to/lastmile_qr_scan"}, "lon": -76.97015833333333, "type": "electric_bike", "fusion_lat": 0.0, "lat": 38.863672333333334, "name": "44ad9f02ceee611fe479635497937484", "fusion_lon": 0.0, "bike_id": "44ad9f02ceee611fe479635497937484", "is_disabled": 0, "is_reserved": 0}, {"rental_uris": {"ios": "https://dc.lft.to/lastmile_qr_scan", "android": "https://dc.lft.to/lastmile_qr_scan"}, "lon": -77.02750483333334, "type": "electric_scooter", "fusion_lat": 0.0, "lat": 38.966293, "name": "acdfe72a8c4f4d1f5b1e3f89060c7090", "fusion_lon": 0.0, "bike_id": "acdfe72a8c4f4d1f5b1e3f89060c7090", "is_disabled": 0, "is_reserved": 0}, {"rental_uris": {"ios": "https://dc.lft.to/lastmile_qr_scan", "android": "https://dc.lft.to/lastmile_qr_scan"}, "lon": -77.00761983333334, "type": "electric_scooter", "fusion_lat": 0.0, "lat": 38.87647966666667, "name": "3b4b1c96fc1efe8b20b21998644383e8", "fusion_lon": 0.0, "bike_id": "3b4b1c96fc1efe8b20b21998644383e8", "is_disabled": 0, "is_reserved": 0}, {"rental_uris": {"ios": "https://dc.lft.to/lastmile_qr_scan", "android": "https://dc.lft.to/lastmile_qr_scan"}, "lon": -76.984969, "type": "electric_scooter", "fusion_lat": 0.0, "lat": 38.86044416666667, "name": "34563ed13a89e65a36a4f8e8e6ac7d4d", "fusion_lon": 0.0, "bike_id": "34563ed13a89e65a36a4f8e8e6ac7d4d", "is_disabled": 0, "is_reserved": 0}, {"rental_uris": {"ios": "https://dc.lft.to/lastmile_qr_scan", "android": "https://dc.lft.to/lastmile_qr_scan"}, "lon": -76.99538866666667, "type": "electric_scooter", "fusion_lat": 0.0, "lat": 38.926651166666666, "name": "5e04d3fb735becec810538a8095ccc2a", "fusion_lon": 0.0, "bike_id": "5e04d3fb735becec810538a8095ccc2a", "is_disabled": 0, "is_reserved": 0}, {"rental_uris": {"ios": "https://dc.lft.to/lastmile_qr_scan", "android": "https://dc.lft.to/lastmile_qr_scan"}, "lon": -76.99513283333333, "type": "electric_scooter", "fusion_lat": 0.0, "lat": 38.844724166666666, "name": "a02a42d3a0ce2616e94efa93cc00ff20", "fusion_lon": 0.0, "bike_id": "a02a42d3a0ce2616e94efa93cc00ff20", "is_disabled": 0, "is_reserved": 0}, {"rental_uris": {"ios": "https://dc.lft.to/lastmile_qr_scan", "android": "https://dc.lft.to/lastmile_qr_scan"}, "lon": -77.03009333333334, "type": "electric_scooter", "fusion_lat": 0.0, "lat": 38.91915866666667, "name": "912e3b7dfd0b2025455f1964b2736124", "fusion_lon": 0.0, "bike_id": "912e3b7dfd0b2025455f1964b2736124", "is_disabled": 0, "is_reserved": 0}, {"rental_uris": {"ios": "https://dc.lft.to/lastmile_qr_scan", "android": "https://dc.lft.to/lastmile_qr_scan"}, "lon": -77.02930166666667, "type": "electric_scooter", "fusion_lat": 0.0, "lat": 38.899741166666665, "name": "30e363c8eb90b205d4c5400e31616c8e", "fusion_lon": 0.0, "bike_id": "30e363c8eb90b205d4c5400e31616c8e", "is_disabled": 0, "is_reserved": 0}, {"rental_uris": {"ios": "https://dc.lft.to/lastmile_qr_scan", "android": "https://dc.lft.to/lastmile_qr_scan"}, "lon": -77.0251175, "type": "electric_scooter", "fusion_lat": 0.0, "lat": 38.91936033333333, "name": "959b949d2afbe2386ece9379a797fe28", "fusion_lon": 0.0, "bike_id": "959b949d2afbe2386ece9379a797fe28", "is_disabled": 0, "is_reserved": 0}, {"rental_uris": {"ios": "https://dc.lft.to/lastmile_qr_scan", "android": "https://dc.lft.to/lastmile_qr_scan"}, "lon": -77.038395, "type": "electric_scooter", "fusion_lat": 0.0, "lat": 38.907488, "name": "d47bdeb4696c6cac1deee8ea0fd0eff9", "fusion_lon": 0.0, "bike_id": "d47bdeb4696c6cac1deee8ea0fd0eff9", "is_disabled": 0, "is_reserved": 0}, {"rental_uris": {"ios": "https://dc.lft.to/lastmile_qr_scan", "android": "https://dc.lft.to/lastmile_qr_scan"}, "lon": -77.04683516666667, "type": "electric_scooter", "fusion_lat": 0.0, "lat": 38.892230166666664, "name": "4fe7c93b4eaf77adb079a52fac118acd", "fusion_lon": 0.0, "bike_id": "4fe7c93b4eaf77adb079a52fac118acd", "is_disabled": 0, "is_reserved": 0}, {"rental_uris": {"ios": "https://dc.lft.to/lastmile_qr_scan", "android": "https://dc.lft.to/lastmile_qr_scan"}, "lon": -77.0254165, "type": "electric_scooter", "fusion_lat": 0.0, "lat": 38.92410566666667, "name": "3a71108f248936e7def2e16e4719b583", "fusion_lon": 0.0, "bike_id": "3a71108f248936e7def2e16e4719b583", "is_disabled": 0, "is_reserved": 0}, {"rental_uris": {"ios": "https://dc.lft.to/lastmile_qr_scan", "android": "https://dc.lft.to/lastmile_qr_scan"}, "lon": -76.980953, "type": "electric_bike", "fusion_lat": 0.0, "lat": 38.881337333333335, "name": "c2c96b6a2d52a5d6ed9589884588073e", "fusion_lon": 0.0, "bike_id": "c2c96b6a2d52a5d6ed9589884588073e", "is_disabled": 0, "is_reserved": 0}, {"rental_uris": {"ios": "https://dc.lft.to/lastmile_qr_scan", "android": "https://dc.lft.to/lastmile_qr_scan"}, "lon": -77.05307733333333, "type": "electric_scooter", "fusion_lat": 0.0, "lat": 38.9026885, "name": "95c792c3a1c89b7630950f8ee9e370ce", "fusion_lon": 0.0, "bike_id": "95c792c3a1c89b7630950f8ee9e370ce", "is_disabled": 0, "is_reserved": 0}, {"rental_uris": {"ios": "https://dc.lft.to/lastmile_qr_scan", "android": "https://dc.lft.to/lastmile_qr_scan"}, "lon": -77.07726033333333, "type": "electric_scooter", "fusion_lat": 0.0, "lat": 38.947054666666666, "name": "1f51d9aa8cbbf533621a220b9a427d05", "fusion_lon": 0.0, "bike_id": "1f51d9aa8cbbf533621a220b9a427d05", "is_disabled": 0, "is_reserved": 0}, {"rental_uris": {"ios": "https://dc.lft.to/lastmile_qr_scan", "android": "https://dc.lft.to/lastmile_qr_scan"}, "lon": -77.02779966666667, "type": "electric_scooter", "fusion_lat": 0.0, "lat": 38.953836, "name": "c8af74bf14cd25a5f5e9e9dbc5571bd2", "fusion_lon": 0.0, "bike_id": "c8af74bf14cd25a5f5e9e9dbc5571bd2", "is_disabled": 0, "is_reserved": 0}, {"rental_uris": {"ios": "https://dc.lft.to/lastmile_qr_scan", "android": "https://dc.lft.to/lastmile_qr_scan"}, "lon": -77.032106, "type": "electric_scooter", "fusion_lat": 0.0, "lat": 38.92006666666666, "name": "2ab7ba528782393e527e9504f0965239", "fusion_lon": 0.0, "bike_id": "2ab7ba528782393e527e9504f0965239", "is_disabled": 0, "is_reserved": 0}, {"rental_uris": {"ios": "https://dc.lft.to/lastmile_qr_scan", "android": "https://dc.lft.to/lastmile_qr_scan"}, "lon": -76.97312083333334, "type": "electric_scooter", "fusion_lat": 0.0, "lat": 38.91989, "name": "3a7140ff68ad35390459d5e75ddf6f6d", "fusion_lon": 0.0, "bike_id": "3a7140ff68ad35390459d5e75ddf6f6d", "is_disabled": 0, "is_reserved": 0}, {"rental_uris": {"ios": "https://dc.lft.to/lastmile_qr_scan", "android": "https://dc.lft.to/lastmile_qr_scan"}, "lon": -77.03467816666667, "type": "electric_scooter", "fusion_lat": 0.0, "lat": 38.923505666666664, "name": "5a2729d1795e80bcd04d32ee28d1e36b", "fusion_lon": 0.0, "bike_id": "5a2729d1795e80bcd04d32ee28d1e36b", "is_disabled": 0, "is_reserved": 0}, {"rental_uris": {"ios": "https://dc.lft.to/lastmile_qr_scan", "android": "https://dc.lft.to/lastmile_qr_scan"}, "lon": -77.00598966666666, "type": "electric_scooter", "fusion_lat": 0.0, "lat": 38.88490516666667, "name": "e26e622c8a1b8b09fcac0b16b60eff40", "fusion_lon": 0.0, "bike_id": "e26e622c8a1b8b09fcac0b16b60eff40", "is_disabled": 0, "is_reserved": 0}, {"rental_uris": {"ios": "https://dc.lft.to/lastmile_qr_scan", "android": "https://dc.lft.to/lastmile_qr_scan"}, "lon": -77.04790033333333, "type": "electric_scooter", "fusion_lat": 0.0, "lat": 38.899398166666664, "name": "c23f007ec813928cbcf9d8e229b1cf3c", "fusion_lon": 0.0, "bike_id": "c23f007ec813928cbcf9d8e229b1cf3c", "is_disabled": 0, "is_reserved": 0}, {"rental_uris": {"ios": "https://dc.lft.to/lastmile_qr_scan", "android": "https://dc.lft.to/lastmile_qr_scan"}, "lon": -77.02178016666667, "type": "electric_scooter", "fusion_lat": 0.0, "lat": 38.880339666666664, "name": "0650e83fc9a1e7e3df02cbd6ae0f8796", "fusion_lon": 0.0, "bike_id": "0650e83fc9a1e7e3df02cbd6ae0f8796", "is_disabled": 0, "is_reserved": 0}, {"rental_uris": {"ios": "https://dc.lft.to/lastmile_qr_scan", "android": "https://dc.lft.to/lastmile_qr_scan"}, "lon": -77.071016, "type": "electric_bike", "fusion_lat": 0.0, "lat": 38.9144855, "name": "a2ea41963e6836ab14d758a6dd59e5ab", "fusion_lon": 0.0, "bike_id": "a2ea41963e6836ab14d758a6dd59e5ab", "is_disabled": 0, "is_reserved": 0}, {"rental_uris": {"ios": "https://dc.lft.to/lastmile_qr_scan", "android": "https://dc.lft.to/lastmile_qr_scan"}, "lon": -77.021442, "type": "electric_scooter", "fusion_lat": 0.0, "lat": 38.897139, "name": "2f65e553cd9d7bcf196e180b957e5c0d", "fusion_lon": 0.0, "bike_id": "2f65e553cd9d7bcf196e180b957e5c0d", "is_disabled": 0, "is_reserved": 0}, {"rental_uris": {"ios": "https://dc.lft.to/lastmile_qr_scan", "android": "https://dc.lft.to/lastmile_qr_scan"}, "lon": -77.0955135, "type": "electric_bike", "fusion_lat": 0.0, "lat": 38.837330333333334, "name": "6505545f1ce6f2ca6428f6a9367c6def", "fusion_lon": 0.0, "bike_id": "6505545f1ce6f2ca6428f6a9367c6def", "is_disabled": 0, "is_reserved": 0}, {"rental_uris": {"ios": "https://dc.lft.to/lastmile_qr_scan", "android": "https://dc.lft.to/lastmile_qr_scan"}, "lon": -77.00379716666667, "type": "electric_bike", "fusion_lat": 0.0, "lat": 38.836021333333335, "name": "fc9732161d22a10076ac2f85a7832ec7", "fusion_lon": 0.0, "bike_id": "fc9732161d22a10076ac2f85a7832ec7", "is_disabled": 0, "is_reserved": 0}, {"rental_uris": {"ios": "https://dc.lft.to/lastmile_qr_scan", "android": "https://dc.lft.to/lastmile_qr_scan"}, "lon": -77.02800883333333, "type": "electric_scooter", "fusion_lat": 0.0, "lat": 38.96190333333333, "name": "b41709d9e9bc88a23bd4dfa02fecbee3", "fusion_lon": 0.0, "bike_id": "b41709d9e9bc88a23bd4dfa02fecbee3", "is_disabled": 0, "is_reserved": 0}, {"rental_uris": {"ios": "https://dc.lft.to/lastmile_qr_scan", "android": "https://dc.lft.to/lastmile_qr_scan"}, "lon": -77.037673, "type": "electric_scooter", "fusion_lat": 0.0, "lat": 38.92181016666667, "name": "af783756cf0a280bd2addbbcff176920", "fusion_lon": 0.0, "bike_id": "af783756cf0a280bd2addbbcff176920", "is_disabled": 0, "is_reserved": 0}, {"rental_uris": {"ios": "https://dc.lft.to/lastmile_qr_scan", "android": "https://dc.lft.to/lastmile_qr_scan"}, "lon": -77.050502, "type": "electric_scooter", "fusion_lat": 0.0, "lat": 38.9052915, "name": "c856cc280369d3a568000924d72aec3f", "fusion_lon": 0.0, "bike_id": "c856cc280369d3a568000924d72aec3f", "is_disabled": 0, "is_reserved": 0}, {"rental_uris": {"ios": "https://dc.lft.to/lastmile_qr_scan", "android": "https://dc.lft.to/lastmile_qr_scan"}, "lon": -77.00371683333333, "type": "electric_scooter", "fusion_lat": 0.0, "lat": 38.838090333333334, "name": "a768e7320f9734f97c2f9cb6222f514b", "fusion_lon": 0.0, "bike_id": "a768e7320f9734f97c2f9cb6222f514b", "is_disabled": 0, "is_reserved": 0}, {"rental_uris": {"ios": "https://dc.lft.to/lastmile_qr_scan", "android": "https://dc.lft.to/lastmile_qr_scan"}, "lon": -76.9463375, "type": "electric_scooter", "fusion_lat": 0.0, "lat": 38.89830216666667, "name": "fa626fca0c7f686891bab7c4b4d79daa", "fusion_lon": 0.0, "bike_id": "fa626fca0c7f686891bab7c4b4d79daa", "is_disabled": 0, "is_reserved": 0}, {"rental_uris": {"ios": "https://dc.lft.to/lastmile_qr_scan", "android": "https://dc.lft.to/lastmile_qr_scan"}, "lon": -77.0386215, "type": "electric_scooter", "fusion_lat": 0.0, "lat": 38.915557166666666, "name": "f045e0696c8e29bcbf50a1b8f15015fd", "fusion_lon": 0.0, "bike_id": "f045e0696c8e29bcbf50a1b8f15015fd", "is_disabled": 0, "is_reserved": 0}, {"rental_uris": {"ios": "https://dc.lft.to/lastmile_qr_scan", "android": "https://dc.lft.to/lastmile_qr_scan"}, "lon": -77.0200675, "type": "electric_scooter", "fusion_lat": 0.0, "lat": 38.900340166666666, "name": "819bb80f7d716d3e8c8465f1d37514e8", "fusion_lon": 0.0, "bike_id": "819bb80f7d716d3e8c8465f1d37514e8", "is_disabled": 0, "is_reserved": 0}, {"rental_uris": {"ios": "https://dc.lft.to/lastmile_qr_scan", "android": "https://dc.lft.to/lastmile_qr_scan"}, "lon": -76.99866666666667, "type": "electric_scooter", "fusion_lat": 0.0, "lat": 38.900205166666666, "name": "a4832cf0c3950ee044c657bb7b605f0e", "fusion_lon": 0.0, "bike_id": "a4832cf0c3950ee044c657bb7b605f0e", "is_disabled": 0, "is_reserved": 0}, {"rental_uris": {"ios": "https://dc.lft.to/lastmile_qr_scan", "android": "https://dc.lft.to/lastmile_qr_scan"}, "lon": -77.05094966666667, "type": "electric_scooter", "fusion_lat": 0.0, "lat": 38.924635333333335, "name": "e86c48e2b592c27513aed9ceb1fdaf42", "fusion_lon": 0.0, "bike_id": "e86c48e2b592c27513aed9ceb1fdaf42", "is_disabled": 0, "is_reserved": 0}, {"rental_uris": {"ios": "https://dc.lft.to/lastmile_qr_scan", "android": "https://dc.lft.to/lastmile_qr_scan"}, "lon": -76.9111735, "type": "electric_bike", "fusion_lat": 0.0, "lat": 39.010361, "name": "6c2db9760f2a6e6845a51d41ad9fd93b", "fusion_lon": 0.0, "bike_id": "6c2db9760f2a6e6845a51d41ad9fd93b", "is_disabled": 0, "is_reserved": 0}, {"rental_uris": {"ios": "https://dc.lft.to/lastmile_qr_scan", "android": "https://dc.lft.to/lastmile_qr_scan"}, "lon": -77.02196383333333, "type": "electric_scooter", "fusion_lat": 0.0, "lat": 38.9085465, "name": "8b56eb5a7f257a36ff1d96c8c8351df9", "fusion_lon": 0.0, "bike_id": "8b56eb5a7f257a36ff1d96c8c8351df9", "is_disabled": 0, "is_reserved": 0}, {"rental_uris": {"ios": "https://dc.lft.to/lastmile_qr_scan", "android": "https://dc.lft.to/lastmile_qr_scan"}, "lon": -77.03536183333334, "type": "electric_scooter", "fusion_lat": 0.0, "lat": 38.923308666666664, "name": "24b0c29b1d7b859a526f7c1e8f48db96", "fusion_lon": 0.0, "bike_id": "24b0c29b1d7b859a526f7c1e8f48db96", "is_disabled": 0, "is_reserved": 0}, {"rental_uris": {"ios": "https://dc.lft.to/lastmile_qr_scan", "android": "https://dc.lft.to/lastmile_qr_scan"}, "lon": -76.99183133333334, "type": "electric_scooter", "fusion_lat": 0.0, "lat": 38.90451933333333, "name": "dcf42ebfadc16a1ef64b9a3637278658", "fusion_lon": 0.0, "bike_id": "dcf42ebfadc16a1ef64b9a3637278658", "is_disabled": 0, "is_reserved": 0}, {"rental_uris": {"ios": "https://dc.lft.to/lastmile_qr_scan", "android": "https://dc.lft.to/lastmile_qr_scan"}, "lon": -77.02013516666666, "type": "electric_scooter", "fusion_lat": 0.0, "lat": 38.89722066666667, "name": "06de9cf0f4c2e6c0cd785783f1072491", "fusion_lon": 0.0, "bike_id": "06de9cf0f4c2e6c0cd785783f1072491", "is_disabled": 0, "is_reserved": 0}, {"rental_uris": {"ios": "https://dc.lft.to/lastmile_qr_scan", "android": "https://dc.lft.to/lastmile_qr_scan"}, "lon": -77.11233133333333, "type": "electric_bike", "fusion_lat": 0.0, "lat": 38.82865733333333, "name": "4796e99feee84f1a4f29fe5c1c714ec0", "fusion_lon": 0.0, "bike_id": "4796e99feee84f1a4f29fe5c1c714ec0", "is_disabled": 0, "is_reserved": 0}, {"rental_uris": {"ios": "https://dc.lft.to/lastmile_qr_scan", "android": "https://dc.lft.to/lastmile_qr_scan"}, "lon": -77.02082966666667, "type": "electric_scooter", "fusion_lat": 0.0, "lat": 38.881806833333336, "name": "0bbb1c3d3cc714339885187de053c252", "fusion_lon": 0.0, "bike_id": "0bbb1c3d3cc714339885187de053c252", "is_disabled": 0, "is_reserved": 0}, {"rental_uris": {"ios": "https://dc.lft.to/lastmile_qr_scan", "android": "https://dc.lft.to/lastmile_qr_scan"}, "lon": -77.0144165, "type": "electric_scooter", "fusion_lat": 0.0, "lat": 38.877668166666666, "name": "4444584f1047102a50b243e3aa0c6744", "fusion_lon": 0.0, "bike_id": "4444584f1047102a50b243e3aa0c6744", "is_disabled": 0, "is_reserved": 0}, {"rental_uris": {"ios": "https://dc.lft.to/lastmile_qr_scan", "android": "https://dc.lft.to/lastmile_qr_scan"}, "lon": -77.02941466666667, "type": "electric_scooter", "fusion_lat": 0.0, "lat": 38.92062383333333, "name": "7dec902e385d5e7587b9fe97d8d98777", "fusion_lon": 0.0, "bike_id": "7dec902e385d5e7587b9fe97d8d98777", "is_disabled": 0, "is_reserved": 0}, {"rental_uris": {"ios": "https://dc.lft.to/lastmile_qr_scan", "android": "https://dc.lft.to/lastmile_qr_scan"}, "lon": -77.04295683333333, "type": "electric_scooter", "fusion_lat": 0.0, "lat": 38.92238116666667, "name": "a3905c795644fb9e815e5dab68de03a0", "fusion_lon": 0.0, "bike_id": "a3905c795644fb9e815e5dab68de03a0", "is_disabled": 0, "is_reserved": 0}, {"rental_uris": {"ios": "https://dc.lft.to/lastmile_qr_scan", "android": "https://dc.lft.to/lastmile_qr_scan"}, "lon": -77.05255916666667, "type": "electric_scooter", "fusion_lat": 0.0, "lat": 38.923697833333335, "name": "35cde14ed1558cd2993ac9b18945fe47", "fusion_lon": 0.0, "bike_id": "35cde14ed1558cd2993ac9b18945fe47", "is_disabled": 0, "is_reserved": 0}, {"rental_uris": {"ios": "https://dc.lft.to/lastmile_qr_scan", "android": "https://dc.lft.to/lastmile_qr_scan"}, "lon": -76.98634166666666, "type": "electric_scooter", "fusion_lat": 0.0, "lat": 38.86819933333334, "name": "eb73eaa0fd9a88b54c1eed9c3c4932d5", "fusion_lon": 0.0, "bike_id": "eb73eaa0fd9a88b54c1eed9c3c4932d5", "is_disabled": 0, "is_reserved": 0}, {"rental_uris": {"ios": "https://dc.lft.to/lastmile_qr_scan", "android": "https://dc.lft.to/lastmile_qr_scan"}, "lon": -77.01151966666667, "type": "electric_scooter", "fusion_lat": 0.0, "lat": 38.897109666666665, "name": "a49beb2646c07289dbdf51e7235a0b96", "fusion_lon": 0.0, "bike_id": "a49beb2646c07289dbdf51e7235a0b96", "is_disabled": 0, "is_reserved": 0}, {"rental_uris": {"ios": "https://dc.lft.to/lastmile_qr_scan", "android": "https://dc.lft.to/lastmile_qr_scan"}, "lon": -77.04483716666667, "type": "electric_scooter", "fusion_lat": 0.0, "lat": 38.906661666666665, "name": "8ff5accb731b98b79433c96b69825275", "fusion_lon": 0.0, "bike_id": "8ff5accb731b98b79433c96b69825275", "is_disabled": 0, "is_reserved": 0}, {"rental_uris": {"ios": "https://dc.lft.to/lastmile_qr_scan", "android": "https://dc.lft.to/lastmile_qr_scan"}, "lon": -77.03650383333333, "type": "electric_scooter", "fusion_lat": 0.0, "lat": 38.92919333333333, "name": "e589cf49dbd0b46111674eadb628e800", "fusion_lon": 0.0, "bike_id": "e589cf49dbd0b46111674eadb628e800", "is_disabled": 0, "is_reserved": 0}, {"rental_uris": {"ios": "https://dc.lft.to/lastmile_qr_scan", "android": "https://dc.lft.to/lastmile_qr_scan"}, "lon": -77.01259383333333, "type": "electric_scooter", "fusion_lat": 0.0, "lat": 38.8996715, "name": "fa79aa7b44fc6443e558a136d13baf33", "fusion_lon": 0.0, "bike_id": "fa79aa7b44fc6443e558a136d13baf33", "is_disabled": 0, "is_reserved": 0}, {"rental_uris": {"ios": "https://dc.lft.to/lastmile_qr_scan", "android": "https://dc.lft.to/lastmile_qr_scan"}, "lon": -77.13595633333334, "type": "electric_bike", "fusion_lat": 0.0, "lat": 39.05346483333334, "name": "0674a7769f2bd6100ae7ae160f6ed914", "fusion_lon": 0.0, "bike_id": "0674a7769f2bd6100ae7ae160f6ed914", "is_disabled": 0, "is_reserved": 0}, {"rental_uris": {"ios": "https://dc.lft.to/lastmile_qr_scan", "android": "https://dc.lft.to/lastmile_qr_scan"}, "lon": -77.02633116666667, "type": "electric_scooter", "fusion_lat": 0.0, "lat": 38.89838533333333, "name": "18c0ad092022f579d568e8c94a3c47a2", "fusion_lon": 0.0, "bike_id": "18c0ad092022f579d568e8c94a3c47a2", "is_disabled": 0, "is_reserved": 0}, {"rental_uris": {"ios": "https://dc.lft.to/lastmile_qr_scan", "android": "https://dc.lft.to/lastmile_qr_scan"}, "lon": -77.01270266666667, "type": "electric_scooter", "fusion_lat": 0.0, "lat": 38.9154055, "name": "39aa4b86b9a04bd303a0aafcc3b3ba75", "fusion_lon": 0.0, "bike_id": "39aa4b86b9a04bd303a0aafcc3b3ba75", "is_disabled": 0, "is_reserved": 0}, {"rental_uris": {"ios": "https://dc.lft.to/lastmile_qr_scan", "android": "https://dc.lft.to/lastmile_qr_scan"}, "lon": -77.04028016666666, "type": "electric_bike", "fusion_lat": 0.0, "lat": 38.92361283333334, "name": "71ffe25e7d6fbdee438ff38b5e1bf747", "fusion_lon": 0.0, "bike_id": "71ffe25e7d6fbdee438ff38b5e1bf747", "is_disabled": 0, "is_reserved": 0}, {"rental_uris": {"ios": "https://dc.lft.to/lastmile_qr_scan", "android": "https://dc.lft.to/lastmile_qr_scan"}, "lon": -77.0228985, "type": "electric_scooter", "fusion_lat": 0.0, "lat": 38.91968033333333, "name": "503aa7c836062bca62b80e0d49dba042", "fusion_lon": 0.0, "bike_id": "503aa7c836062bca62b80e0d49dba042", "is_disabled": 0, "is_reserved": 0}, {"rental_uris": {"ios": "https://dc.lft.to/lastmile_qr_scan", "android": "https://dc.lft.to/lastmile_qr_scan"}, "lon": -77.0370865, "type": "electric_scooter", "fusion_lat": 0.0, "lat": 38.92634833333334, "name": "7aa7d1de9a513637a82914b269f9f07f", "fusion_lon": 0.0, "bike_id": "7aa7d1de9a513637a82914b269f9f07f", "is_disabled": 0, "is_reserved": 0}, {"rental_uris": {"ios": "https://dc.lft.to/lastmile_qr_scan", "android": "https://dc.lft.to/lastmile_qr_scan"}, "lon": -77.021457, "type": "electric_scooter", "fusion_lat": 0.0, "lat": 38.8970415, "name": "f8714b86de28413bb66c74ca7b6b3b8d", "fusion_lon": 0.0, "bike_id": "f8714b86de28413bb66c74ca7b6b3b8d", "is_disabled": 0, "is_reserved": 0}, {"rental_uris": {"ios": "https://dc.lft.to/lastmile_qr_scan", "android": "https://dc.lft.to/lastmile_qr_scan"}, "lon": -77.1249995, "type": "electric_bike", "fusion_lat": 0.0, "lat": 39.024217166666666, "name": "a7e57182e261ff61e6225b97e59bee3c", "fusion_lon": 0.0, "bike_id": "a7e57182e261ff61e6225b97e59bee3c", "is_disabled": 0, "is_reserved": 0}, {"rental_uris": {"ios": "https://dc.lft.to/lastmile_qr_scan", "android": "https://dc.lft.to/lastmile_qr_scan"}, "lon": -77.01859266666666, "type": "electric_scooter", "fusion_lat": 0.0, "lat": 38.900837, "name": "17a651bc5502bdb979cbf333e24aca1d", "fusion_lon": 0.0, "bike_id": "17a651bc5502bdb979cbf333e24aca1d", "is_disabled": 0, "is_reserved": 0}, {"rental_uris": {"ios": "https://dc.lft.to/lastmile_qr_scan", "android": "https://dc.lft.to/lastmile_qr_scan"}, "lon": -76.9497065, "type": "electric_scooter", "fusion_lat": 0.0, "lat": 38.89375866666666, "name": "83bc3ab47cf475f551775ee9a7d16df3", "fusion_lon": 0.0, "bike_id": "83bc3ab47cf475f551775ee9a7d16df3", "is_disabled": 0, "is_reserved": 0}, {"rental_uris": {"ios": "https://dc.lft.to/lastmile_qr_scan", "android": "https://dc.lft.to/lastmile_qr_scan"}, "lon": -76.93178733333333, "type": "electric_scooter", "fusion_lat": 0.0, "lat": 38.898869, "name": "195b83d00692ca55fdc7bff388be8ea2", "fusion_lon": 0.0, "bike_id": "195b83d00692ca55fdc7bff388be8ea2", "is_disabled": 0, "is_reserved": 0}, {"rental_uris": {"ios": "https://dc.lft.to/lastmile_qr_scan", "android": "https://dc.lft.to/lastmile_qr_scan"}, "lon": -77.03172983333333, "type": "electric_scooter", "fusion_lat": 0.0, "lat": 38.886272166666664, "name": "17bccf46c0af920032b1f3602ce60f81", "fusion_lon": 0.0, "bike_id": "17bccf46c0af920032b1f3602ce60f81", "is_disabled": 0, "is_reserved": 0}, {"rental_uris": {"ios": "https://dc.lft.to/lastmile_qr_scan", "android": "https://dc.lft.to/lastmile_qr_scan"}, "lon": -77.04676466666666, "type": "electric_scooter", "fusion_lat": 0.0, "lat": 38.893337333333335, "name": "921c79b9a04ce3e3ea4e7fafc64c27fe", "fusion_lon": 0.0, "bike_id": "921c79b9a04ce3e3ea4e7fafc64c27fe", "is_disabled": 0, "is_reserved": 0}, {"rental_uris": {"ios": "https://dc.lft.to/lastmile_qr_scan", "android": "https://dc.lft.to/lastmile_qr_scan"}, "lon": -77.00206366666667, "type": "electric_scooter", "fusion_lat": 0.0, "lat": 38.902162833333335, "name": "328058055eb5c0f44615b1397f1f573f", "fusion_lon": 0.0, "bike_id": "328058055eb5c0f44615b1397f1f573f", "is_disabled": 0, "is_reserved": 0}, {"rental_uris": {"ios": "https://dc.lft.to/lastmile_qr_scan", "android": "https://dc.lft.to/lastmile_qr_scan"}, "lon": -77.05143666666666, "type": "electric_scooter", "fusion_lat": 0.0, "lat": 38.89777316666667, "name": "7b055da6e60898d5962a963425aa28aa", "fusion_lon": 0.0, "bike_id": "7b055da6e60898d5962a963425aa28aa", "is_disabled": 0, "is_reserved": 0}, {"rental_uris": {"ios": "https://dc.lft.to/lastmile_qr_scan", "android": "https://dc.lft.to/lastmile_qr_scan"}, "lon": -77.011544, "type": "electric_scooter", "fusion_lat": 0.0, "lat": 38.90022833333333, "name": "e4d3f533d84fddf0ae400938ab98a991", "fusion_lon": 0.0, "bike_id": "e4d3f533d84fddf0ae400938ab98a991", "is_disabled": 0, "is_reserved": 0}, {"rental_uris": {"ios": "https://dc.lft.to/lastmile_qr_scan", "android": "https://dc.lft.to/lastmile_qr_scan"}, "lon": -77.05024716666667, "type": "electric_scooter", "fusion_lat": 0.0, "lat": 38.923538666666666, "name": "52c8dab88ae008efb0850526b53dd7b5", "fusion_lon": 0.0, "bike_id": "52c8dab88ae008efb0850526b53dd7b5", "is_disabled": 0, "is_reserved": 0}, {"rental_uris": {"ios": "https://dc.lft.to/lastmile_qr_scan", "android": "https://dc.lft.to/lastmile_qr_scan"}, "lon": -77.0418205, "type": "electric_scooter", "fusion_lat": 0.0, "lat": 38.911767166666664, "name": "458815677b52e930791a9a2ed7fafdd9", "fusion_lon": 0.0, "bike_id": "458815677b52e930791a9a2ed7fafdd9", "is_disabled": 0, "is_reserved": 0}, {"rental_uris": {"ios": "https://dc.lft.to/lastmile_qr_scan", "android": "https://dc.lft.to/lastmile_qr_scan"}, "lon": -76.9317755, "type": "electric_scooter", "fusion_lat": 0.0, "lat": 38.89887133333333, "name": "70ee8454e00d1c0b965af16eaeb1d8f7", "fusion_lon": 0.0, "bike_id": "70ee8454e00d1c0b965af16eaeb1d8f7", "is_disabled": 0, "is_reserved": 0}, {"rental_uris": {"ios": "https://dc.lft.to/lastmile_qr_scan", "android": "https://dc.lft.to/lastmile_qr_scan"},