{"data": {"bikes": [{"name": "d40a123c33fa62e94c67aae27c214864", "fusion_lat": 0.0, "type": "electric_bike", "lat": 38.9366215, "is_reserved": 0, "is_disabled": 0, "fusion_lon": 0.0, "bike_id": "d40a123c33fa62e94c67aae27c214864", "lon": -77.03676016666667, "rental_uris": {"ios": "https://dc.lft.to/lastmile_qr_scan", "android": "https://dc.lft.to/lastmile_qr_scan"}}, {"name": "e64f43e88bcdf8d4f95531e09eb38f1a", "fusion_lat": 0.0, "type": "electric_bike", "lat": 38.89221216666667, "is_reserved": 0, "is_disabled": 0, "fusion_lon": 0.0, "bike_id": "e64f43e88bcdf8d4f95531e09eb38f1a", "lon": -77.10782516666667, "rental_uris": {"ios": "https://dc.lft.to/lastmile_qr_scan", "android": "https://dc.lft.to/lastmile_qr_scan"}}, {"name": "93124253e9f9390597ca01399cf8ecd6", "fusion_lat": 0.0, "type": "electric_scooter", "lat": 38.93393483333333, "is_reserved": 0, "is_disabled": 0, "fusion_lon": 0.0, "bike_id": "93124253e9f9390597ca01399cf8ecd6", "lon": -77.03580133333334, "rental_uris": {"ios": "https://dc.lft.to/lastmile_qr_scan", "android": "https://dc.lft.to/lastmile_qr_scan"}}, {"name": "0eeeaa864385fb1dafef6e43a4ec4bc6", "fusion_lat": 0.0, "type": "electric_scooter", "lat": 38.85918933333333, "is_reserved": 0, "is_disabled": 0, "fusion_lon": 0.0, "bike_id": "0eeeaa864385fb1dafef6e43a4ec4bc6", "lon": -76.98980166666666, "rental_uris": {"ios": "https://dc.lft.to/lastmile_qr_scan", "android": "https://dc.lft.to/lastmile_qr_scan"}}, {"name": "4db5c370254399cda807c86c195904a6", "fusion_lat": 0.0, "type": "electric_scooter", "lat": 38.9118505, "is_reserved": 0, "is_disabled": 0, "fusion_lon": 0.0, "bike_id": "4db5c370254399cda807c86c195904a6", "lon": -77.03870566666667, "rental_uris": {"ios": "https://dc.lft.to/lastmile_qr_scan", "android": "https://dc.lft.to/lastmile_qr_scan"}}, {"name": "c225060e7d70188e112c7fa27091524b", "fusion_lat": 0.0, "type": "electric_scooter", "lat": 38.91107866666667, "is_reserved": 0, "is_disabled": 0, "fusion_lon": 0.0, "bike_id": "c225060e7d70188e112c7fa27091524b", "lon": -77.07350883333334, "rental_uris": {"ios": "https://dc.lft.to/lastmile_qr_scan", "android": "https://dc.lft.to/lastmile_qr_scan"}}, {"name": "e34e2c0e2bedec88fead77868af92380", "fusion_lat": 0.0, "type": "electric_scooter", "lat": 38.88328633333333, "is_reserved": 0, "is_disabled": 0, "fusion_lon": 0.0, "bike_id": "e34e2c0e2bedec88fead77868af92380", "lon": -77.02355383333334, "rental_uris": {"ios": "https://dc.lft.to/lastmile_qr_scan", "android": "https://dc.lft.to/lastmile_qr_scan"}}, {"name": "d687f690392890a0af2580238850dae2", "fusion_lat": 0.0, "type": "electric_scooter", "lat": 38.952881166666664, "is_reserved": 0, "is_disabled": 0, "fusion_lon": 0.0, "bike_id": "d687f690392890a0af2580238850dae2", "lon": -77.00362866666667, "rental_uris": {"ios": "https://dc.lft.to/lastmile_qr_scan", "android": "https://dc.lft.to/lastmile_qr_scan"}}, {"name": "045d882e4a849af437d4e4e497005918", "fusion_lat": 0.0, "type": "electric_scooter", "lat": 38.942945333333334, "is_reserved": 0, "is_disabled": 0, "fusion_lon": 0.0, "bike_id": "045d882e4a849af437d4e4e497005918", "lon": -77.02173433333333, "rental_uris": {"ios": "https://dc.lft.to/lastmile_qr_scan", "android": "https://dc.lft.to/lastmile_qr_scan"}}, {"name": "2b18a914755b369323bce11de6506175", "fusion_lat": 0.0, "type": "electric_scooter", "lat": 38.90581016666667, "is_reserved": 0, "is_disabled": 0, "fusion_lon": 0.0, "bike_id": "2b18a914755b369323bce11de6506175", "lon": -77.02607316666666, "rental_uris": {"ios": "https://dc.lft.to/lastmile_qr_scan", "android": "https://dc.lft.to/lastmile_qr_scan"}}, {"name": "fd7b38392b73739b177ddbc75f1a10c8", "fusion_lat": 0.0, "type": "electric_scooter", "lat": 38.91269916666667, "is_reserved": 0, "is_disabled": 0, "fusion_lon": 0.0, "bike_id": "fd7b38392b73739b177ddbc75f1a10c8", "lon": -77.038239, "rental_uris": {"ios": "https://dc.lft.to/lastmile_qr_scan", "android": "https://dc.lft.to/lastmile_qr_scan"}}, {"name": "dfa08a17b0f4c69a450e75363d5e5215", "fusion_lat": 0.0, "type": "electric_scooter", "lat": 38.912933833333334, "is_reserved": 0, "is_disabled": 0, "fusion_lon": 0.0, "bike_id": "dfa08a17b0f4c69a450e75363d5e5215", "lon": -77.06161433333334, "rental_uris": {"ios": "https://dc.lft.to/lastmile_qr_scan", "android": "https://dc.lft.to/lastmile_qr_scan"}}, {"name": "c5a436afbf757777b755ffe8a31f8a28", "fusion_lat": 0.0, "type": "electric_scooter", "lat": 38.90382866666667, "is_reserved": 0, "is_disabled": 0, "fusion_lon": 0.0, "bike_id": "c5a436afbf757777b755ffe8a31f8a28", "lon": -77.04479616666667, "rental_uris": {"ios": "https://dc.lft.to/lastmile_qr_scan", "android": "https://dc.lft.to/lastmile_qr_scan"}}, {"name": "b6f44dca5a8d1b3d740d405f76f78804", "fusion_lat": 0.0, "type": "electric_scooter", "lat": 38.93004716666667, "is_reserved": 0, "is_disabled": 0, "fusion_lon": 0.0, "bike_id": "b6f44dca5a8d1b3d740d405f76f78804", "lon": -77.0552385, "rental_uris": {"ios": "https://dc.lft.to/lastmile_qr_scan", "android": "https://dc.lft.to/lastmile_qr_scan"}}, {"name": "29bfe4aeba3f23ee0836f0a1927e9e08", "fusion_lat": 0.0, "type": "electric_scooter", "lat": 38.91699083333334, "is_reserved": 0, "is_disabled": 0, "fusion_lon": 0.0, "bike_id": "29bfe4aeba3f23ee0836f0a1927e9e08", "lon": -77.040859, "rental_uris": {"ios": "https://dc.lft.to/lastmile_qr_scan", "android": "https://dc.lft.to/lastmile_qr_scan"}}, {"name": "69bfc3370f3f18d923eb3b17a16990b6", "fusion_lat": 0.0, "type": "electric_scooter", "lat": 38.93661066666667, "is_reserved": 0, "is_disabled": 0, "fusion_lon": 0.0, "bike_id": "69bfc3370f3f18d923eb3b17a16990b6", "lon": -77.05503183333333, "rental_uris": {"ios": "https://dc.lft.to/lastmile_qr_scan", "android": "https://dc.lft.to/lastmile_qr_scan"}}, {"name": "3c0246f5dad667c276b3dcf192787e68", "fusion_lat": 0.0, "type": "electric_scooter", "lat": 38.912817833333335, "is_reserved": 0, "is_disabled": 0, "fusion_lon": 0.0, "bike_id": "3c0246f5dad667c276b3dcf192787e68", "lon": -77.03150566666666, "rental_uris": {"ios": "https://dc.lft.to/lastmile_qr_scan", "android": "https://dc.lft.to/lastmile_qr_scan"}}, {"name": "c7eeaaf833af6573e60c50791841684a", "fusion_lat": 0.0, "type": "electric_scooter", "lat": 38.86248066666667, "is_reserved": 0, "is_disabled": 0, "fusion_lon": 0.0, "bike_id": "c7eeaaf833af6573e60c50791841684a", "lon": -76.99533683333334, "rental_uris": {"ios": "https://dc.lft.to/lastmile_qr_scan", "android": "https://dc.lft.to/lastmile_qr_scan"}}, {"name": "6c0a8d472a6a7b3386674428a21dc9de", "fusion_lat": 0.0, "type": "electric_scooter", "lat": 38.90241566666667, "is_reserved": 0, "is_disabled": 0, "fusion_lon": 0.0, "bike_id": "6c0a8d472a6a7b3386674428a21dc9de", "lon": -77.01976966666666, "rental_uris": {"ios": "https://dc.lft.to/lastmile_qr_scan", "android": "https://dc.lft.to/lastmile_qr_scan"}}, {"name": "cf78bc5b76a20d7fb68938f3d0e826ae", "fusion_lat": 0.0, "type": "electric_scooter", "lat": 38.93734533333333, "is_reserved": 0, "is_disabled": 0, "fusion_lon": 0.0, "bike_id": "cf78bc5b76a20d7fb68938f3d0e826ae", "lon": -77.0327165, "rental_uris": {"ios": "https://dc.lft.to/lastmile_qr_scan", "android": "https://dc.lft.to/lastmile_qr_scan"}}, {"name": "2d22ebda185ecd602945020e2b2fb027", "fusion_lat": 0.0, "type": "electric_scooter", "lat": 38.912970666666666, "is_reserved": 0, "is_disabled": 0, "fusion_lon": 0.0, "bike_id": "2d22ebda185ecd602945020e2b2fb027", "lon": -77.06110866666667, "rental_uris": {"ios": "https://dc.lft.to/lastmile_qr_scan", "android": "https://dc.lft.to/lastmile_qr_scan"}}, {"name": "a11d43f245f1b2dac51f6e8b23b07f54", "fusion_lat": 0.0, "type": "electric_scooter", "lat": 38.87722316666667, "is_reserved": 0, "is_disabled": 0, "fusion_lon": 0.0, "bike_id": "a11d43f245f1b2dac51f6e8b23b07f54", "lon": -76.99392366666666, "rental_uris": {"ios": "https://dc.lft.to/lastmile_qr_scan", "android": "https://dc.lft.to/lastmile_qr_scan"}}, {"name": "66c85ace7d383e6733685de14b0e5f2f", "fusion_lat": 0.0, "type": "electric_scooter", "lat": 38.90521716666667, "is_reserved": 0, "is_disabled": 0, "fusion_lon": 0.0, "bike_id": "66c85ace7d383e6733685de14b0e5f2f", "lon": -77.052283, "rental_uris": {"ios": "https://dc.lft.to/lastmile_qr_scan", "android": "https://dc.lft.to/lastmile_qr_scan"}}, {"name": "a1725f84d6beb9639a293af050904039", "fusion_lat": 0.0, "type": "electric_scooter", "lat": 38.907347333333334, "is_reserved": 0, "is_disabled": 0, "fusion_lon": 0.0, "bike_id": "a1725f84d6beb9639a293af050904039", "lon": -77.04338316666667, "rental_uris": {"ios": "https://dc.lft.to/lastmile_qr_scan", "android": "https://dc.lft.to/lastmile_qr_scan"}}, {"name": "838e575e96ca83765e2c47afd56be09b", "fusion_lat": 0.0, "type": "electric_scooter", "lat": 38.94258416666667, "is_reserved": 0, "is_disabled": 0, "fusion_lon": 0.0, "bike_id": "838e575e96ca83765e2c47afd56be09b", "lon": -77.04136066666666, "rental_uris": {"ios": "https://dc.lft.to/lastmile_qr_scan", "android": "https://dc.lft.to/lastmile_qr_scan"}}, {"name": "81ced3298764cc712ce653d2744545bd", "fusion_lat": 0.0, "type": "electric_scooter", "lat": 38.9024575, "is_reserved": 0, "is_disabled": 0, "fusion_lon": 0.0, "bike_id": "81ced3298764cc712ce653d2744545bd", "lon": -77.02647466666667, "rental_uris": {"ios": "https://dc.lft.to/lastmile_qr_scan", "android": "https://dc.lft.to/lastmile_qr_scan"}}, {"name": "68277632970d270b518c4fa3b68c08c1", "fusion_lat": 0.0, "type": "electric_scooter", "lat": 38.907333666666666, "is_reserved": 0, "is_disabled": 0, "fusion_lon": 0.0, "bike_id": "68277632970d270b518c4fa3b68c08c1", "lon": -77.01068633333334, "rental_uris": {"ios": "https://dc.lft.to/lastmile_qr_scan", "android": "https://dc.lft.to/lastmile_qr_scan"}}, {"name": "4af9f01763e611626f5b0c3f119e7e6d", "fusion_lat": 0.0, "type": "electric_scooter", "lat": 38.922508, "is_reserved": 0, "is_disabled": 0, "fusion_lon": 0.0, "bike_id": "4af9f01763e611626f5b0c3f119e7e6d", "lon": -77.03079433333333, "rental_uris": {"ios": "https://dc.lft.to/lastmile_qr_scan", "android": "https://dc.lft.to/lastmile_qr_scan"}}, {"name": "a001d5dcb942f5e570d305920d7f7f28", "fusion_lat": 0.0, "type": "electric_scooter", "lat": 38.94293066666667, "is_reserved": 0, "is_disabled": 0, "fusion_lon": 0.0, "bike_id": "a001d5dcb942f5e570d305920d7f7f28", "lon": -77.02168533333334, "rental_uris": {"ios": "https://dc.lft.to/lastmile_qr_scan", "android": "https://dc.lft.to/lastmile_qr_scan"}}, {"name": "58dc34bbff57fc512f9da45163522c9c", "fusion_lat": 0.0, "type": "electric_scooter", "lat": 38.88898583333334, "is_reserved": 0, "is_disabled": 0, "fusion_lon": 0.0, "bike_id": "58dc34bbff57fc512f9da45163522c9c", "lon": -77.03284533333333, "rental_uris": {"ios": "https://dc.lft.to/lastmile_qr_scan", "android": "https://dc.lft.to/lastmile_qr_scan"}}, {"name": "5ea2b77094edcaa656b92e669859a0ab", "fusion_lat": 0.0, "type": "electric_scooter", "lat": 38.90981216666667, "is_reserved": 0, "is_disabled": 0, "fusion_lon": 0.0, "bike_id": "5ea2b77094edcaa656b92e669859a0ab", "lon": -77.0671225, "rental_uris": {"ios": "https://dc.lft.to/lastmile_qr_scan", "android": "https://dc.lft.to/lastmile_qr_scan"}}, {"name": "9a4257e1d10fe567bc8fce0a51cbe54a", "fusion_lat": 0.0, "type": "electric_scooter", "lat": 38.91121483333333, "is_reserved": 0, "is_disabled": 0, "fusion_lon": 0.0, "bike_id": "9a4257e1d10fe567bc8fce0a51cbe54a", "lon": -77.03829866666666, "rental_uris": {"ios": "https://dc.lft.to/lastmile_qr_scan", "android": "https://dc.lft.to/lastmile_qr_scan"}}, {"name": "3b19965eea8b73573a50df2d3547b181", "fusion_lat": 0.0, "type": "electric_scooter", "lat": 38.87416283333334, "is_reserved": 0, "is_disabled": 0, "fusion_lon": 0.0, "bike_id": "3b19965eea8b73573a50df2d3547b181", "lon": -76.96091816666667, "rental_uris": {"ios": "https://dc.lft.to/lastmile_qr_scan", "android": "https://dc.lft.to/lastmile_qr_scan"}}, {"name": "e34592a589c68d151e0eadb7ade5da11", "fusion_lat": 0.0, "type": "electric_scooter", "lat": 38.89666583333333, "is_reserved": 0, "is_disabled": 0, "fusion_lon": 0.0, "bike_id": "e34592a589c68d151e0eadb7ade5da11", "lon": -76.94850783333334, "rental_uris": {"ios": "https://dc.lft.to/lastmile_qr_scan", "android": "https://dc.lft.to/lastmile_qr_scan"}}, {"name": "ba32a944481e429e40afb0e0453567d4", "fusion_lat": 0.0, "type": "electric_scooter", "lat": 38.909108833333335, "is_reserved": 0, "is_disabled": 0, "fusion_lon": 0.0, "bike_id": "ba32a944481e429e40afb0e0453567d4", "lon": -77.03844166666667, "rental_uris": {"ios": "https://dc.lft.to/lastmile_qr_scan", "android": "https://dc.lft.to/lastmile_qr_scan"}}, {"name": "bf3b38269fa43a48fee7f62bd08942d2", "fusion_lat": 0.0, "type": "electric_scooter", "lat": 38.918373, "is_reserved": 0, "is_disabled": 0, "fusion_lon": 0.0, "bike_id": "bf3b38269fa43a48fee7f62bd08942d2", "lon": -77.0231765, "rental_uris": {"ios": "https://dc.lft.to/lastmile_qr_scan", "android": "https://dc.lft.to/lastmile_qr_scan"}}, {"name": "700bac897c852f72c31d90a12d3b3d7d", "fusion_lat": 0.0, "type": "electric_scooter", "lat": 38.90316116666666, "is_reserved": 0, "is_disabled": 0, "fusion_lon": 0.0, "bike_id": "700bac897c852f72c31d90a12d3b3d7d", "lon": -76.991587, "rental_uris": {"ios": "https://dc.lft.to/lastmile_qr_scan", "android": "https://dc.lft.to/lastmile_qr_scan"}}, {"name": "280fc0195a451a551b37dfc7d982c50a", "fusion_lat": 0.0, "type": "electric_scooter", "lat": 38.918699333333336, "is_reserved": 0, "is_disabled": 0, "fusion_lon": 0.0, "bike_id": "280fc0195a451a551b37dfc7d982c50a", "lon": -77.0230685, "rental_uris": {"ios": "https://dc.lft.to/lastmile_qr_scan", "android": "https://dc.lft.to/lastmile_qr_scan"}}, {"name": "7306e8ee80d07a23cb5986752319e032", "fusion_lat": 0.0, "type": "electric_scooter", "lat": 38.927563, "is_reserved": 0, "is_disabled": 0, "fusion_lon": 0.0, "bike_id": "7306e8ee80d07a23cb5986752319e032", "lon": -77.032634, "rental_uris": {"ios": "https://dc.lft.to/lastmile_qr_scan", "android": "https://dc.lft.to/lastmile_qr_scan"}}, {"name": "ba393e0a60e3e4ff712d05c3168d2919", "fusion_lat": 0.0, "type": "electric_scooter", "lat": 38.904829666666664, "is_reserved": 0, "is_disabled": 0, "fusion_lon": 0.0, "bike_id": "ba393e0a60e3e4ff712d05c3168d2919", "lon": -77.02723616666667, "rental_uris": {"ios": "https://dc.lft.to/lastmile_qr_scan", "android": "https://dc.lft.to/lastmile_qr_scan"}}, {"name": "f1f7a6b521546943f9f194ba9ad30891", "fusion_lat": 0.0, "type": "electric_scooter", "lat": 38.92626966666667, "is_reserved": 0, "is_disabled": 0, "fusion_lon": 0.0, "bike_id": "f1f7a6b521546943f9f194ba9ad30891", "lon": -77.03516, "rental_uris": {"ios": "https://dc.lft.to/lastmile_qr_scan", "android": "https://dc.lft.to/lastmile_qr_scan"}}, {"name": "21dfcde1c2ae59e83e66eb072d820fcb", "fusion_lat": 0.0, "type": "electric_scooter", "lat": 38.91921816666667, "is_reserved": 0, "is_disabled": 0, "fusion_lon": 0.0, "bike_id": "21dfcde1c2ae59e83e66eb072d820fcb", "lon": -77.02410183333333, "rental_uris": {"ios": "https://dc.lft.to/lastmile_qr_scan", "android": "https://dc.lft.to/lastmile_qr_scan"}}, {"name": "f8b7bc4dca32184629bf9f3991f59a61", "fusion_lat": 0.0, "type": "electric_scooter", "lat": 38.920669, "is_reserved": 0, "is_disabled": 0, "fusion_lon": 0.0, "bike_id": "f8b7bc4dca32184629bf9f3991f59a61", "lon": -76.978008, "rental_uris": {"ios": "https://dc.lft.to/lastmile_qr_scan", "android": "https://dc.lft.to/lastmile_qr_scan"}}, {"name": "fd75a2ae289e4d39a140cc8a2a8487ca", "fusion_lat": 0.0, "type": "electric_scooter", "lat": 38.91725233333333, "is_reserved": 0, "is_disabled": 0, "fusion_lon": 0.0, "bike_id": "fd75a2ae289e4d39a140cc8a2a8487ca", "lon": -77.0081585, "rental_uris": {"ios": "https://dc.lft.to/lastmile_qr_scan", "android": "https://dc.lft.to/lastmile_qr_scan"}}, {"name": "db4c6ee0209edf26cf7a41a8eeae447a", "fusion_lat": 0.0, "type": "electric_scooter", "lat": 38.9251605, "is_reserved": 0, "is_disabled": 0, "fusion_lon": 0.0, "bike_id": "db4c6ee0209edf26cf7a41a8eeae447a", "lon": -77.02559266666667, "rental_uris": {"ios": "https://dc.lft.to/lastmile_qr_scan", "android": "https://dc.lft.to/lastmile_qr_scan"}}, {"name": "4fad5d08f13c861d6fdc0c02c15b5787", "fusion_lat": 0.0, "type": "electric_bike", "lat": 38.964457, "is_reserved": 0, "is_disabled": 0, "fusion_lon": 0.0, "bike_id": "4fad5d08f13c861d6fdc0c02c15b5787", "lon": -77.03160933333334, "rental_uris": {"ios": "https://dc.lft.to/lastmile_qr_scan", "android": "https://dc.lft.to/lastmile_qr_scan"}}, {"name": "8e03a63ff435a510eb71dcfea1864e68", "fusion_lat": 0.0, "type": "electric_scooter", "lat": 38.9078625, "is_reserved": 0, "is_disabled": 0, "fusion_lon": 0.0, "bike_id": "8e03a63ff435a510eb71dcfea1864e68", "lon": -77.03862016666666, "rental_uris": {"ios": "https://dc.lft.to/lastmile_qr_scan", "android": "https://dc.lft.to/lastmile_qr_scan"}}, {"name": "ae7ba9fe1f6a41e6612ab2cf6147354f", "fusion_lat": 0.0, "type": "electric_scooter", "lat": 38.91097933333333, "is_reserved": 0, "is_disabled": 0, "fusion_lon": 0.0, "bike_id": "ae7ba9fe1f6a41e6612ab2cf6147354f", "lon": -77.02971683333334, "rental_uris": {"ios": "https://dc.lft.to/lastmile_qr_scan", "android": "https://dc.lft.to/lastmile_qr_scan"}}, {"name": "ed2e8bf40bd60a5c04c7b40229036171", "fusion_lat": 0.0, "type": "electric_scooter", "lat": 38.909297, "is_reserved": 0, "is_disabled": 0, "fusion_lon": 0.0, "bike_id": "ed2e8bf40bd60a5c04c7b40229036171", "lon": -77.041529, "rental_uris": {"ios": "https://dc.lft.to/lastmile_qr_scan", "android": "https://dc.lft.to/lastmile_qr_scan"}}, {"name": "f63c4d3981a5ce4a37e32c3db41b2c7b", "fusion_lat": 0.0, "type": "electric_scooter", "lat": 38.883297166666665, "is_reserved": 0, "is_disabled": 0, "fusion_lon": 0.0, "bike_id": "f63c4d3981a5ce4a37e32c3db41b2c7b", "lon": -77.0153545, "rental_uris": {"ios": "https://dc.lft.to/lastmile_qr_scan", "android": "https://dc.lft.to/lastmile_qr_scan"}}, {"name": "342447dba044dd374a7d01ba8fa33667", "fusion_lat": 0.0, "type": "electric_scooter", "lat": 38.865387166666665, "is_reserved": 0, "is_disabled": 0, "fusion_lon": 0.0, "bike_id": "342447dba044dd374a7d01ba8fa33667", "lon": -76.98706116666666, "rental_uris": {"ios": "https://dc.lft.to/lastmile_qr_scan", "android": "https://dc.lft.to/lastmile_qr_scan"}}, {"name": "853c8c1f8726e8c8c7a501fda9f15dee", "fusion_lat": 0.0, "type": "electric_scooter", "lat": 38.918532666666664, "is_reserved": 0, "is_disabled": 0, "fusion_lon": 0.0, "bike_id": "853c8c1f8726e8c8c7a501fda9f15dee", "lon": -77.04594166666666, "rental_uris": {"ios": "https://dc.lft.to/lastmile_qr_scan", "android": "https://dc.lft.to/lastmile_qr_scan"}}, {"name": "908ffc698b08578c7412505e735235cf", "fusion_lat": 0.0, "type": "electric_scooter", "lat": 38.9073725, "is_reserved": 0, "is_disabled": 0, "fusion_lon": 0.0, "bike_id": "908ffc698b08578c7412505e735235cf", "lon": -77.04335283333333, "rental_uris": {"ios": "https://dc.lft.to/lastmile_qr_scan", "android": "https://dc.lft.to/lastmile_qr_scan"}}, {"name": "3c6fc0679d2910ae09a922a3112ca785", "fusion_lat": 0.0, "type": "electric_bike", "lat": 38.925436833333336, "is_reserved": 0, "is_disabled": 0, "fusion_lon": 0.0, "bike_id": "3c6fc0679d2910ae09a922a3112ca785", "lon": -77.07894483333334, "rental_uris": {"ios": "https://dc.lft.to/lastmile_qr_scan", "android": "https://dc.lft.to/lastmile_qr_scan"}}, {"name": "89b05edbf2b61f94e5417b12cc3cd239", "fusion_lat": 0.0, "type": "electric_bike", "lat": 38.9490115, "is_reserved": 0, "is_disabled": 0, "fusion_lon": 0.0, "bike_id": "89b05edbf2b61f94e5417b12cc3cd239", "lon": -77.03957083333333, "rental_uris": {"ios": "https://dc.lft.to/lastmile_qr_scan", "android": "https://dc.lft.to/lastmile_qr_scan"}}, {"name": "9324757d046693742265d0820b67087f", "fusion_lat": 0.0, "type": "electric_bike", "lat": 38.943846, "is_reserved": 0, "is_disabled": 0, "fusion_lon": 0.0, "bike_id": "9324757d046693742265d0820b67087f", "lon": -76.96291533333333, "rental_uris": {"ios": "https://dc.lft.to/lastmile_qr_scan", "android": "https://dc.lft.to/lastmile_qr_scan"}}, {"name": "ea85464dfa8313177c3a1c0a8085caa0", "fusion_lat": 0.0, "type": "electric_scooter", "lat": 38.89199516666667, "is_reserved": 0, "is_disabled": 0, "fusion_lon": 0.0, "bike_id": "ea85464dfa8313177c3a1c0a8085caa0", "lon": -77.00293, "rental_uris": {"ios": "https://dc.lft.to/lastmile_qr_scan", "android": "https://dc.lft.to/lastmile_qr_scan"}}, {"name": "5e0ccf587df038fc88cbe0af7bbfc9f7", "fusion_lat": 0.0, "type": "electric_scooter", "lat": 38.874315, "is_reserved": 0, "is_disabled": 0, "fusion_lon": 0.0, "bike_id": "5e0ccf587df038fc88cbe0af7bbfc9f7", "lon": -77.02065866666666, "rental_uris": {"ios": "https://dc.lft.to/lastmile_qr_scan", "android": "https://dc.lft.to/lastmile_qr_scan"}}, {"name": "baf2d9baf997595eb1bac62cf7733e57", "fusion_lat": 0.0, "type": "electric_scooter", "lat": 38.88449883333333, "is_reserved": 0, "is_disabled": 0, "fusion_lon": 0.0, "bike_id": "baf2d9baf997595eb1bac62cf7733e57", "lon": -77.02624433333334, "rental_uris": {"ios": "https://dc.lft.to/lastmile_qr_scan", "android": "https://dc.lft.to/lastmile_qr_scan"}}, {"name": "da67698fa4c0cc8e5e8a2987a30ef9ec", "fusion_lat": 0.0, "type": "electric_scooter", "lat": 38.92373583333333, "is_reserved": 0, "is_disabled": 0, "fusion_lon": 0.0, "bike_id": "da67698fa4c0cc8e5e8a2987a30ef9ec", "lon": -77.03028333333333, "rental_uris": {"ios": "https://dc.lft.to/lastmile_qr_scan", "android": "https://dc.lft.to/lastmile_qr_scan"}}, {"name": "c274617e959d110b8e42c8421f6f1064", "fusion_lat": 0.0, "type": "electric_bike", "lat": 38.95256716666667, "is_reserved": 0, "is_disabled": 0, "fusion_lon": 0.0, "bike_id": "c274617e959d110b8e42c8421f6f1064", "lon": -77.06991833333333, "rental_uris": {"ios": "https://dc.lft.to/lastmile_qr_scan", "android": "https://dc.lft.to/lastmile_qr_scan"}}, {"name": "4fc1d3a24fc45216b904d75fdd4bf423", "fusion_lat": 0.0, "type": "electric_scooter", "lat": 38.891006833333336, "is_reserved": 0, "is_disabled": 0, "fusion_lon": 0.0, "bike_id": "4fc1d3a24fc45216b904d75fdd4bf423", "lon": -76.98204183333333, "rental_uris": {"ios": "https://dc.lft.to/lastmile_qr_scan", "android": "https://dc.lft.to/lastmile_qr_scan"}}, {"name": "b92fb5ec35e8229fb1b5c592c208c11b", "fusion_lat": 0.0, "type": "electric_scooter", "lat": 38.917783, "is_reserved": 0, "is_disabled": 0, "fusion_lon": 0.0, "bike_id": "b92fb5ec35e8229fb1b5c592c208c11b", "lon": -77.01497383333333, "rental_uris": {"ios": "https://dc.lft.to/lastmile_qr_scan", "android": "https://dc.lft.to/lastmile_qr_scan"}}, {"name": "9754d6b02323748e16c8bb159896e5c6", "fusion_lat": 0.0, "type": "electric_scooter", "lat": 38.91269283333333, "is_reserved": 0, "is_disabled": 0, "fusion_lon": 0.0, "bike_id": "9754d6b02323748e16c8bb159896e5c6", "lon": -77.031417, "rental_uris": {"ios": "https://dc.lft.to/lastmile_qr_scan", "android": "https://dc.lft.to/lastmile_qr_scan"}}, {"name": "0cd3bfe583a1a0121198dfe9693f003a", "fusion_lat": 0.0, "type": "electric_scooter", "lat": 38.916319666666666, "is_reserved": 0, "is_disabled": 0, "fusion_lon": 0.0, "bike_id": "0cd3bfe583a1a0121198dfe9693f003a", "lon": -77.043407, "rental_uris": {"ios": "https://dc.lft.to/lastmile_qr_scan", "android": "https://dc.lft.to/lastmile_qr_scan"}}, {"name": "90ffd4d34e854c14c6b9f3df6d4df2c4", "fusion_lat": 0.0, "type": "electric_scooter", "lat": 38.90057216666666, "is_reserved": 0, "is_disabled": 0, "fusion_lon": 0.0, "bike_id": "90ffd4d34e854c14c6b9f3df6d4df2c4", "lon": -77.05022866666667, "rental_uris": {"ios": "https://dc.lft.to/lastmile_qr_scan", "android": "https://dc.lft.to/lastmile_qr_scan"}}, {"name": "0663ad1889cfe3561325b96fe60d48a8", "fusion_lat": 0.0, "type": "electric_scooter", "lat": 38.8999875, "is_reserved": 0, "is_disabled": 0, "fusion_lon": 0.0, "bike_id": "0663ad1889cfe3561325b96fe60d48a8", "lon": -76.9856175, "rental_uris": {"ios": "https://dc.lft.to/lastmile_qr_scan", "android": "https://dc.lft.to/lastmile_qr_scan"}}, {"name": "44ffda800a5a8734c1fb7e6ab9b34dec", "fusion_lat": 0.0, "type": "electric_scooter", "lat": 38.8933665, "is_reserved": 0, "is_disabled": 0, "fusion_lon": 0.0, "bike_id": "44ffda800a5a8734c1fb7e6ab9b34dec", "lon": -76.92896666666667, "rental_uris": {"ios": "https://dc.lft.to/lastmile_qr_scan", "android": "https://dc.lft.to/lastmile_qr_scan"}}, {"name": "52fa3076d0f821e1f8b0cb8598e747ad", "fusion_lat": 0.0, "type": "electric_scooter", "lat": 38.901850833333334, "is_reserved": 0, "is_disabled": 0, "fusion_lon": 0.0, "bike_id": "52fa3076d0f821e1f8b0cb8598e747ad", "lon": -77.03342966666666, "rental_uris": {"ios": "https://dc.lft.to/lastmile_qr_scan", "android": "https://dc.lft.to/lastmile_qr_scan"}}, {"name": "d95f82070e59a094637e4a970d42db86", "fusion_lat": 0.0, "type": "electric_scooter", "lat": 38.9203, "is_reserved": 0, "is_disabled": 0, "fusion_lon": 0.0, "bike_id": "d95f82070e59a094637e4a970d42db86", "lon": -77.03113833333333, "rental_uris": {"ios": "https://dc.lft.to/lastmile_qr_scan", "android": "https://dc.lft.to/lastmile_qr_scan"}}, {"name": "9159645e7f48288d6f7be24399ececd1", "fusion_lat": 0.0, "type": "electric_scooter", "lat": 38.88349616666667, "is_reserved": 0, "is_disabled": 0, "fusion_lon": 0.0, "bike_id": "9159645e7f48288d6f7be24399ececd1", "lon": -76.98549266666667, "rental_uris": {"ios": "https://dc.lft.to/lastmile_qr_scan", "android": "https://dc.lft.to/lastmile_qr_scan"}}, {"name": "fda8359b5f96418cf2413af311d23dd8", "fusion_lat": 0.0, "type": "electric_scooter", "lat": 38.8941375, "is_reserved": 0, "is_disabled": 0, "fusion_lon": 0.0, "bike_id": "fda8359b5f96418cf2413af311d23dd8", "lon": -76.93963966666666, "rental_uris": {"ios": "https://dc.lft.to/lastmile_qr_scan", "android": "https://dc.lft.to/lastmile_qr_scan"}}, {"name": "0adf18ad5cacf92cd6fc10879dd81e16", "fusion_lat": 0.0, "type": "electric_scooter", "lat": 38.925912833333335, "is_reserved": 0, "is_disabled": 0, "fusion_lon": 0.0, "bike_id": "0adf18ad5cacf92cd6fc10879dd81e16", "lon": -77.0296055, "rental_uris": {"ios": "https://dc.lft.to/lastmile_qr_scan", "android": "https://dc.lft.to/lastmile_qr_scan"}}, {"name": "99ae61c2a1d5f1dc813049b480579b9a", "fusion_lat": 0.0, "type": "electric_scooter", "lat": 38.90141916666666, "is_reserved": 0, "is_disabled": 0, "fusion_lon": 0.0, "bike_id": "99ae61c2a1d5f1dc813049b480579b9a", "lon": -77.02893966666667, "rental_uris": {"ios": "https://dc.lft.to/lastmile_qr_scan", "android": "https://dc.lft.to/lastmile_qr_scan"}}, {"name": "f0f93a737f6316aaf0925d3f8c447c6e", "fusion_lat": 0.0, "type": "electric_scooter", "lat": 38.901263666666665, "is_reserved": 0, "is_disabled": 0, "fusion_lon": 0.0, "bike_id": "f0f93a737f6316aaf0925d3f8c447c6e", "lon": -77.0305015, "rental_uris": {"ios": "https://dc.lft.to/lastmile_qr_scan", "android": "https://dc.lft.to/lastmile_qr_scan"}}, {"name": "c4f8e26af31a1e63c950806fbedcbfde", "fusion_lat": 0.0, "type": "electric_scooter", "lat": 38.917106, "is_reserved": 0, "is_disabled": 0, "fusion_lon": 0.0, "bike_id": "c4f8e26af31a1e63c950806fbedcbfde", "lon": -77.04679466666667, "rental_uris": {"ios": "https://dc.lft.to/lastmile_qr_scan", "android": "https://dc.lft.to/lastmile_qr_scan"}}, {"name": "c2ad95836e4d62191747c95edb2f0700", "fusion_lat": 0.0, "type": "electric_bike", "lat": 38.93672433333333, "is_reserved": 0, "is_disabled": 0, "fusion_lon": 0.0, "bike_id": "c2ad95836e4d62191747c95edb2f0700", "lon": -76.952108, "rental_uris": {"ios": "https://dc.lft.to/lastmile_qr_scan", "android": "https://dc.lft.to/lastmile_qr_scan"}}, {"name": "441c258c0b046c5900308576d1bc0121", "fusion_lat": 0.0, "type": "electric_bike", "lat": 38.85683383333333, "is_reserved": 0, "is_disabled": 0, "fusion_lon": 0.0, "bike_id": "441c258c0b046c5900308576d1bc0121", "lon": -77.08542583333333, "rental_uris": {"ios": "https://dc.lft.to/lastmile_qr_scan", "android": "https://dc.lft.to/lastmile_qr_scan"}}, {"name": "216622e3b5b61bcb506fc3ba94f8ec95", "fusion_lat": 0.0, "type": "electric_bike", "lat": 38.807556, "is_reserved": 0, "is_disabled": 0, "fusion_lon": 0.0, "bike_id": "216622e3b5b61bcb506fc3ba94f8ec95", "lon": -77.09453183333333, "rental_uris": {"ios": "https://dc.lft.to/lastmile_qr_scan", "android": "https://dc.lft.to/lastmile_qr_scan"}}, {"name": "e8e4700b641b4d6d0838e1a2d86fe319", "fusion_lat": 0.0, "type": "electric_scooter", "lat": 38.88122166666667, "is_reserved": 0, "is_disabled": 0, "fusion_lon": 0.0, "bike_id": "e8e4700b641b4d6d0838e1a2d86fe319", "lon": -76.99018633333333, "rental_uris": {"ios": "https://dc.lft.to/lastmile_qr_scan", "android": "https://dc.lft.to/lastmile_qr_scan"}}, {"name": "a52b82ce988f5b8276a6941760059ac1", "fusion_lat": 0.0, "type": "electric_scooter", "lat": 38.92200283333333, "is_reserved": 0, "is_disabled": 0, "fusion_lon": 0.0, "bike_id": "a52b82ce988f5b8276a6941760059ac1", "lon": -77.0243265, "rental_uris": {"ios": "https://dc.lft.to/lastmile_qr_scan", "android": "https://dc.lft.to/lastmile_qr_scan"}}, {"name": "6e73f2c1deace859e2e422853e330988", "fusion_lat": 0.0, "type": "electric_scooter", "lat": 38.92049383333333, "is_reserved": 0, "is_disabled": 0, "fusion_lon": 0.0, "bike_id": "6e73f2c1deace859e2e422853e330988", "lon": -77.03468383333333, "rental_uris": {"ios": "https://dc.lft.to/lastmile_qr_scan", "android": "https://dc.lft.to/lastmile_qr_scan"}}, {"name": "db9622144452c947c12b94c53253d887", "fusion_lat": 0.0, "type": "electric_scooter", "lat": 38.93970366666667, "is_reserved": 0, "is_disabled": 0, "fusion_lon": 0.0, "bike_id": "db9622144452c947c12b94c53253d887", "lon": -77.027548, "rental_uris": {"ios": "https://dc.lft.to/lastmile_qr_scan", "android": "https://dc.lft.to/lastmile_qr_scan"}}, {"name": "b5f813ec082113e9229a22ff6a158770", "fusion_lat": 0.0, "type": "electric_scooter", "lat": 38.93066316666667, "is_reserved": 0, "is_disabled": 0, "fusion_lon": 0.0, "bike_id": "b5f813ec082113e9229a22ff6a158770", "lon": -77.02975233333333, "rental_uris": {"ios": "https://dc.lft.to/lastmile_qr_scan", "android": "https://dc.lft.to/lastmile_qr_scan"}}, {"name": "adefb65f666fe08be161c25fee524e4f", "fusion_lat": 0.0, "type": "electric_scooter", "lat": 38.90413783333333, "is_reserved": 0, "is_disabled": 0, "fusion_lon": 0.0, "bike_id": "adefb65f666fe08be161c25fee524e4f", "lon": -77.034193, "rental_uris": {"ios": "https://dc.lft.to/lastmile_qr_scan", "android": "https://dc.lft.to/lastmile_qr_scan"}}, {"name": "b576bd1c94dd9a926520d1ec04d8f17c", "fusion_lat": 0.0, "type": "electric_bike", "lat": 38.99937833333333, "is_reserved": 0, "is_disabled": 0, "fusion_lon": 0.0, "bike_id": "b576bd1c94dd9a926520d1ec04d8f17c", "lon": -77.01772266666667, "rental_uris": {"ios": "https://dc.lft.to/lastmile_qr_scan", "android": "https://dc.lft.to/lastmile_qr_scan"}}, {"name": "863321e2743a1405579d1aae27b2e757", "fusion_lat": 0.0, "type": "electric_scooter", "lat": 38.909640333333336, "is_reserved": 0, "is_disabled": 0, "fusion_lon": 0.0, "bike_id": "863321e2743a1405579d1aae27b2e757", "lon": -77.02307466666667, "rental_uris": {"ios": "https://dc.lft.to/lastmile_qr_scan", "android": "https://dc.lft.to/lastmile_qr_scan"}}, {"name": "19f0bb8b0b6f67fe2d11a7bdc02c7025", "fusion_lat": 0.0, "type": "electric_bike", "lat": 38.95090616666667, "is_reserved": 0, "is_disabled": 0, "fusion_lon": 0.0, "bike_id": "19f0bb8b0b6f67fe2d11a7bdc02c7025", "lon": -77.012276, "rental_uris": {"ios": "https://dc.lft.to/lastmile_qr_scan", "android": "https://dc.lft.to/lastmile_qr_scan"}}, {"name": "42de1e296fc03f4cf6922149eb2a8d07", "fusion_lat": 0.0, "type": "electric_scooter", "lat": 38.92247616666667, "is_reserved": 0, "is_disabled": 0, "fusion_lon": 0.0, "bike_id": "42de1e296fc03f4cf6922149eb2a8d07", "lon": -77.036643, "rental_uris": {"ios": "https://dc.lft.to/lastmile_qr_scan", "android": "https://dc.lft.to/lastmile_qr_scan"}}, {"name": "12ef305e92864e0952dfab895fe54873", "fusion_lat": 0.0, "type": "electric_scooter", "lat": 38.930980166666664, "is_reserved": 0, "is_disabled": 0, "fusion_lon": 0.0, "bike_id": "12ef305e92864e0952dfab895fe54873", "lon": -77.02449416666667, "rental_uris": {"ios": "https://dc.lft.to/lastmile_qr_scan", "android": "https://dc.lft.to/lastmile_qr_scan"}}, {"name": "6b74c36097cc01efddd5405fa231148e", "fusion_lat": 0.0, "type": "electric_scooter", "lat": 38.92457616666667, "is_reserved": 0, "is_disabled": 0, "fusion_lon": 0.0, "bike_id": "6b74c36097cc01efddd5405fa231148e", "lon": -77.032741, "rental_uris": {"ios": "https://dc.lft.to/lastmile_qr_scan", "android": "https://dc.lft.to/lastmile_qr_scan"}}, {"name": "0e3817919299f80a3409898cd8d2c5d7", "fusion_lat": 0.0, "type": "electric_scooter", "lat": 38.8708055, "is_reserved": 0, "is_disabled": 0, "fusion_lon": 0.0, "bike_id": "0e3817919299f80a3409898cd8d2c5d7", "lon": -76.9685995, "rental_uris": {"ios": "https://dc.lft.to/lastmile_qr_scan", "android": "https://dc.lft.to/lastmile_qr_scan"}}, {"name": "1295d46a23f720a45e8239570bb12dfa", "fusion_lat": 0.0, "type": "electric_scooter", "lat": 38.90029333333333, "is_reserved": 0, "is_disabled": 0, "fusion_lon": 0.0, "bike_id": "1295d46a23f720a45e8239570bb12dfa", "lon": -76.98845, "rental_uris": {"ios": "https://dc.lft.to/lastmile_qr_scan", "android": "https://dc.lft.to/lastmile_qr_scan"}}, {"name": "b8c3ae67a3a2f3fbfa2306f409da1c5e", "fusion_lat": 0.0, "type": "electric_bike", "lat": 39.030564, "is_reserved": 0, "is_disabled": 0, "fusion_lon": 0.0, "bike_id": "b8c3ae67a3a2f3fbfa2306f409da1c5e", "lon": -77.09484583333334, "rental_uris": {"ios": "https://dc.lft.to/lastmile_qr_scan", "android": "https://dc.lft.to/lastmile_qr_scan"}}, {"name": "8d911c3db6c0f4f3c380bafbe34ee94d", "fusion_lat": 0.0, "type": "electric_scooter", "lat": 38.88434483333333, "is_reserved": 0, "is_disabled": 0, "fusion_lon": 0.0, "bike_id": "8d911c3db6c0f4f3c380bafbe34ee94d", "lon": -76.9959305, "rental_uris": {"ios": "https://dc.lft.to/lastmile_qr_scan", "android": "https://dc.lft.to/lastmile_qr_scan"}}, {"name": "dd73978955661afc4893414ed5677fc8", "fusion_lat": 0.0, "type": "electric_scooter", "lat": 38.900264666666665, "is_reserved": 0, "is_disabled": 0, "fusion_lon": 0.0, "bike_id": "dd73978955661afc4893414ed5677fc8", "lon": -76.998384, "rental_uris": {"ios": "https://dc.lft.to/lastmile_qr_scan", "android": "https://dc.lft.to/lastmile_qr_scan"}}, {"name": "0960e9fb8031ba678c5233b5d8ecc71e", "fusion_lat": 0.0, "type": "electric_scooter", "lat": 38.8960275, "is_reserved": 0, "is_disabled": 0, "fusion_lon": 0.0, "bike_id": "0960e9fb8031ba678c5233b5d8ecc71e", "lon": -77.04139, "rental_uris": {"ios": "https://dc.lft.to/lastmile_qr_scan", "android": "https://dc.lft.to/lastmile_qr_scan"}}, {"name": "ed842920cc62ba622a46a27326c8ec25", "fusion_lat": 0.0, "type": "electric_scooter", "lat": 38.906496833333335, "is_reserved": 0, "is_disabled": 0, "fusion_lon": 0.0, "bike_id": "ed842920cc62ba622a46a27326c8ec25", "lon": -77.014116, "rental_uris": {"ios": "https://dc.lft.to/lastmile_qr_scan", "android": "https://dc.lft.to/lastmile_qr_scan"}}, {"name": "b403d3a5c9f88a815e456bc4cd3c44a0", "fusion_lat": 0.0, "type": "electric_scooter", "lat": 38.92777666666667, "is_reserved": 0, "is_disabled": 0, "fusion_lon": 0.0, "bike_id": "b403d3a5c9f88a815e456bc4cd3c44a0", "lon": -77.02658966666667, "rental_uris": {"ios": "https://dc.lft.to/lastmile_qr_scan", "android": "https://dc.lft.to/lastmile_qr_scan"}}, {"name": "baa4936b130fad37a3b8c1a2234608c0", "fusion_lat": 0.0, "type": "electric_scooter", "lat": 38.92021033333333, "is_reserved": 0, "is_disabled": 0, "fusion_lon": 0.0, "bike_id": "baa4936b130fad37a3b8c1a2234608c0", "lon": -77.03976566666667, "rental_uris": {"ios": "https://dc.lft.to/lastmile_qr_scan", "android": "https://dc.lft.to/lastmile_qr_scan"}}, {"name": "2b0b8f45e25adad0a48d5357b7b74e41", "fusion_lat": 0.0, "type": "electric_scooter", "lat": 38.8725025, "is_reserved": 0, "is_disabled": 0, "fusion_lon": 0.0, "bike_id": "2b0b8f45e25adad0a48d5357b7b74e41", "lon": -77.01160083333333, "rental_uris": {"ios": "https://dc.lft.to/lastmile_qr_scan", "android": "https://dc.lft.to/lastmile_qr_scan"}}, {"name": "5b8064f3b2f22e04e8337c238ab8b338", "fusion_lat": 0.0, "type": "electric_scooter", "lat": 38.92250966666667, "is_reserved": 0, "is_disabled": 0, "fusion_lon": 0.0, "bike_id": "5b8064f3b2f22e04e8337c238ab8b338", "lon": -77.04484766666667, "rental_uris": {"ios": "https://dc.lft.to/lastmile_qr_scan", "android": "https://dc.lft.to/lastmile_qr_scan"}}, {"name": "455ebdd5709f3828f8777e2b6196b339", "fusion_lat": 0.0, "type": "electric_scooter", "lat": 38.92228816666667, "is_reserved": 0, "is_disabled": 0, "fusion_lon": 0.0, "bike_id": "455ebdd5709f3828f8777e2b6196b339", "lon": -77.04720066666667, "rental_uris": {"ios": "https://dc.lft.to/lastmile_qr_scan", "android": "https://dc.lft.to/lastmile_qr_scan"}}, {"name": "846d3caad10d5e04d18811ebeb21b30a", "fusion_lat": 0.0, "type": "electric_scooter", "lat": 38.961111333333335, "is_reserved": 0, "is_disabled": 0, "fusion_lon": 0.0, "bike_id": "846d3caad10d5e04d18811ebeb21b30a", "lon": -77.02817766666666, "rental_uris": {"ios": "https://dc.lft.to/lastmile_qr_scan", "android": "https://dc.lft.to/lastmile_qr_scan"}}, {"name": "b05e444fd05e8c2013ddc4909c882c0a", "fusion_lat": 0.0, "type": "electric_bike", "lat": 38.84575066666667, "is_reserved": 0, "is_disabled": 0, "fusion_lon": 0.0, "bike_id": "b05e444fd05e8c2013ddc4909c882c0a", "lon": -77.096252, "rental_uris": {"ios": "https://dc.lft.to/lastmile_qr_scan", "android": "https://dc.lft.to/lastmile_qr_scan"}}, {"name": "a9b75c69fa79c00ac20c949634bb7c22", "fusion_lat": 0.0, "type": "electric_scooter", "lat": 38.93021066666667, "is_reserved": 0, "is_disabled": 0, "fusion_lon": 0.0, "bike_id": "a9b75c69fa79c00ac20c949634bb7c22", "lon": -77.02319316666667, "rental_uris": {"ios": "https://dc.lft.to/lastmile_qr_scan", "android": "https://dc.lft.to/lastmile_qr_scan"}}, {"name": "86927ccb67f0ece97e36a9dc13ce6957", "fusion_lat": 0.0, "type": "electric_scooter", "lat": 38.90959216666667, "is_reserved": 0, "is_disabled": 0, "fusion_lon": 0.0, "bike_id": "86927ccb67f0ece97e36a9dc13ce6957", "lon": -77.02383783333333, "rental_uris": {"ios": "https://dc.lft.to/lastmile_qr_scan", "android": "https://dc.lft.to/lastmile_qr_scan"}}, {"name": "53bfb505c6ce391e8660bcd575ca394e", "fusion_lat": 0.0, "type": "electric_bike", "lat": 38.94075, "is_reserved": 0, "is_disabled": 0, "fusion_lon": 0.0, "bike_id": "53bfb505c6ce391e8660bcd575ca394e", "lon": -77.03087666666667, "rental_uris": {"ios": "https://dc.lft.to/lastmile_qr_scan", "android": "https://dc.lft.to/lastmile_qr_scan"}}, {"name": "be39c1d3270661877ce222da4418585e", "fusion_lat": 0.0, "type": "electric_scooter", "lat": 38.93708016666667, "is_reserved": 0, "is_disabled": 0, "fusion_lon": 0.0, "bike_id": "be39c1d3270661877ce222da4418585e", "lon": -77.0609915, "rental_uris": {"ios": "https://dc.lft.to/lastmile_qr_scan", "android": "https://dc.lft.to/lastmile_qr_scan"}}, {"name": "7d806d4d209b4d580a8a15ebf132afa1", "fusion_lat": 0.0, "type": "electric_scooter", "lat": 38.907342166666666, "is_reserved": 0, "is_disabled": 0, "fusion_lon": 0.0, "bike_id": "7d806d4d209b4d580a8a15ebf132afa1", "lon": -77.034644, "rental_uris": {"ios": "https://dc.lft.to/lastmile_qr_scan", "android": "https://dc.lft.to/lastmile_qr_scan"}}, {"name": "e7d71304651f090d2ea6acfad0a172d1", "fusion_lat": 0.0, "type": "electric_scooter", "lat": 38.89859166666667, "is_reserved": 0, "is_disabled": 0, "fusion_lon": 0.0, "bike_id": "e7d71304651f090d2ea6acfad0a172d1", "lon": -76.99032283333334, "rental_uris": {"ios": "https://dc.lft.to/lastmile_qr_scan", "android": "https://dc.lft.to/lastmile_qr_scan"}}, {"name": "db35da93c29d24f4aa8e09123fe82df2", "fusion_lat": 0.0, "type": "electric_scooter", "lat": 38.9173325, "is_reserved": 0, "is_disabled": 0, "fusion_lon": 0.0, "bike_id": "db35da93c29d24f4aa8e09123fe82df2", "lon": -77.0384375, "rental_uris": {"ios": "https://dc.lft.to/lastmile_qr_scan", "android": "https://dc.lft.to/lastmile_qr_scan"}}, {"name": "d32828932fd0f2bf00d880592653ff00", "fusion_lat": 0.0, "type": "electric_scooter", "lat": 38.893049, "is_reserved": 0, "is_disabled": 0, "fusion_lon": 0.0, "bike_id": "d32828932fd0f2bf00d880592653ff00", "lon": -77.02007533333334, "rental_uris": {"ios": "https://dc.lft.to/lastmile_qr_scan", "android": "https://dc.lft.to/lastmile_qr_scan"}}, {"name": "96301e4fa502d2a3657118d62408674a", "fusion_lat": 0.0, "type": "electric_scooter", "lat": 38.898467833333335, "is_reserved": 0, "is_disabled": 0, "fusion_lon": 0.0, "bike_id": "96301e4fa502d2a3657118d62408674a", "lon": -76.99273416666666, "rental_uris": {"ios": "https://dc.lft.to/lastmile_qr_scan", "android": "https://dc.lft.to/lastmile_qr_scan"}}, {"name": "f8651c1616092ab70753be1d04f36363", "fusion_lat": 0.0, "type": "electric_bike", "lat": 38.9991075, "is_reserved": 0, "is_disabled": 0, "fusion_lon": 0.0, "bike_id": "f8651c1616092ab70753be1d04f36363", "lon": -77.04619266666667, "rental_uris": {"ios": "https://dc.lft.to/lastmile_qr_scan", "android": "https://dc.lft.to/lastmile_qr_scan"}}, {"name": "36ebc97a46da72fc89a619821ec98dd9", "fusion_lat": 0.0, "type": "electric_scooter", "lat": 38.9248565, "is_reserved": 0, "is_disabled": 0, "fusion_lon": 0.0, "bike_id": "36ebc97a46da72fc89a619821ec98dd9", "lon": -77.02708233333334, "rental_uris": {"ios": "https://dc.lft.to/lastmile_qr_scan", "android": "https://dc.lft.to/lastmile_qr_scan"}}, {"name": "c10d6734a4f32360afdae200eb9c32ac", "fusion_lat": 0.0, "type": "electric_scooter", "lat": 38.9216865, "is_reserved": 0, "is_disabled": 0, "fusion_lon": 0.0, "bike_id": "c10d6734a4f32360afdae200eb9c32ac", "lon": -77.04227066666667, "rental_uris": {"ios": "https://dc.lft.to/lastmile_qr_scan", "android": "https://dc.lft.to/lastmile_qr_scan"}}, {"name": "30f56a756657917896b35a7d42f714a9", "fusion_lat": 0.0, "type": "electric_scooter", "lat": 38.90563683333333, "is_reserved": 0, "is_disabled": 0, "fusion_lon": 0.0, "bike_id": "30f56a756657917896b35a7d42f714a9", "lon": -77.03719733333334, "rental_uris": {"ios": "https://dc.lft.to/lastmile_qr_scan", "android": "https://dc.lft.to/lastmile_qr_scan"}}, {"name": "7eef09f079a349c1a8973518d73447ea", "fusion_lat": 0.0, "type": "electric_scooter", "lat": 38.868324666666666, "is_reserved": 0, "is_disabled": 0, "fusion_lon": 0.0, "bike_id": "7eef09f079a349c1a8973518d73447ea", "lon": -76.98609566666667, "rental_uris": {"ios": "https://dc.lft.to/lastmile_qr_scan", "android": "https://dc.lft.to/lastmile_qr_scan"}}, {"name": "0ccb6f1af595aa52099b6593579ee7a1", "fusion_lat": 0.0, "type": "electric_scooter", "lat": 38.92754433333333, "is_reserved": 0, "is_disabled": 0, "fusion_lon": 0.0, "bike_id": "0ccb6f1af595aa52099b6593579ee7a1", "lon": -77.02298766666667, "rental_uris": {"ios": "https://dc.lft.to/lastmile_qr_scan", "android": "https://dc.lft.to/lastmile_qr_scan"}}, {"name": "1230b3b5dc714087e8193f7224c66b9d", "fusion_lat": 0.0, "type": "electric_scooter", "lat": 38.885746166666664, "is_reserved": 0, "is_disabled": 0, "fusion_lon": 0.0, "bike_id": "1230b3b5dc714087e8193f7224c66b9d", "lon": -76.9950235, "rental_uris": {"ios": "https://dc.lft.to/lastmile_qr_scan", "android": "https://dc.lft.to/lastmile_qr_scan"}}, {"name": "437c5ae2f6c97ef2fb8602253bc2be4e", "fusion_lat": 0.0, "type": "electric_scooter", "lat": 38.92096266666667, "is_reserved": 0, "is_disabled": 0, "fusion_lon": 0.0, "bike_id": "437c5ae2f6c97ef2fb8602253bc2be4e", "lon": -77.01370133333333, "rental_uris": {"ios": "https://dc.lft.to/lastmile_qr_scan", "android": "https://dc.lft.to/lastmile_qr_scan"}}, {"name": "e0724d4b9f859c883f4ee744785b7439", "fusion_lat": 0.0, "type": "electric_scooter", "lat": 38.924799, "is_reserved": 0, "is_disabled": 0, "fusion_lon": 0.0, "bike_id": "e0724d4b9f859c883f4ee744785b7439", "lon": -77.02996966666667, "rental_uris": {"ios": "https://dc.lft.to/lastmile_qr_scan", "android": "https://dc.lft.to/lastmile_qr_scan"}}, {"name": "9fa6c29ba1628c4321a178947697f234", "fusion_lat": 0.0, "type": "electric_scooter", "lat": 38.9159895, "is_reserved": 0, "is_disabled": 0, "fusion_lon": 0.0, "bike_id": "9fa6c29ba1628c4321a178947697f234", "lon": -77.042567, "rental_uris": {"ios": "https://dc.lft.to/lastmile_qr_scan", "android": "https://dc.lft.to/lastmile_qr_scan"}}, {"name": "852303fb3197b34ea6ec0aa00914a21b", "fusion_lat": 0.0, "type": "electric_scooter", "lat": 38.928477666666666, "is_reserved": 0, "is_disabled": 0, "fusion_lon": 0.0, "bike_id": "852303fb3197b34ea6ec0aa00914a21b", "lon": -77.0141095, "rental_uris": {"ios": "https://dc.lft.to/lastmile_qr_scan", "android": "https://dc.lft.to/lastmile_qr_scan"}}, {"name": "891c298788ed7af7ef945fd7c50a98bd", "fusion_lat": 0.0, "type": "electric_scooter", "lat": 38.90023866666667, "is_reserved": 0, "is_disabled": 0, "fusion_lon": 0.0, "bike_id": "891c298788ed7af7ef945fd7c50a98bd", "lon": -77.0333685, "rental_uris": {"ios": "https://dc.lft.to/lastmile_qr_scan", "android": "https://dc.lft.to/lastmile_qr_scan"}}, {"name": "f2115764d54d4472b78f9aab7dae42bb", "fusion_lat": 0.0, "type": "electric_bike", "lat": 38.9592925, "is_reserved": 0, "is_disabled": 0, "fusion_lon": 0.0, "bike_id": "f2115764d54d4472b78f9aab7dae42bb", "lon": -76.92539733333334, "rental_uris": {"ios": "https://dc.lft.to/lastmile_qr_scan", "android": "https://dc.lft.to/lastmile_qr_scan"}}, {"name": "bb49fb59db0c9a91c63b4cfbddc2f06a", "fusion_lat": 0.0, "type": "electric_scooter", "lat": 38.9170535, "is_reserved": 0, "is_disabled": 0, "fusion_lon": 0.0, "bike_id": "bb49fb59db0c9a91c63b4cfbddc2f06a", "lon": -77.0417225, "rental_uris": {"ios": "https://dc.lft.to/lastmile_qr_scan", "android": "https://dc.lft.to/lastmile_qr_scan"}}, {"name": "4853d56837ef47c48bbdcacf0ce43ccb", "fusion_lat": 0.0, "type": "electric_scooter", "lat": 38.9044225, "is_reserved": 0, "is_disabled": 0, "fusion_lon": 0.0, "bike_id": "4853d56837ef47c48bbdcacf0ce43ccb", "lon": -77.0284795, "rental_uris": {"ios": "https://dc.lft.to/lastmile_qr_scan", "android": "https://dc.lft.to/lastmile_qr_scan"}}, {"name": "a5f6cb4f21abd47eb2ca5f9152773320", "fusion_lat": 0.0, "type": "electric_scooter", "lat": 38.90823966666667, "is_reserved": 0, "is_disabled": 0, "fusion_lon": 0.0, "bike_id": "a5f6cb4f21abd47eb2ca5f9152773320", "lon": -77.03938683333334, "rental_uris": {"ios": "https://dc.lft.to/lastmile_qr_scan", "android": "https://dc.lft.to/lastmile_qr_scan"}}, {"name": "01e0109873e813383bee8ced34ee9540", "fusion_lat": 0.0, "type": "electric_scooter", "lat": 38.904026, "is_reserved": 0, "is_disabled": 0, "fusion_lon": 0.0, "bike_id": "01e0109873e813383bee8ced34ee9540", "lon": -77.006907, "rental_uris": {"ios": "https://dc.lft.to/lastmile_qr_scan", "android": "https://dc.lft.to/lastmile_qr_scan"}}, {"name": "7ca142f914d323049efaa3c6b4ea0236", "fusion_lat": 0.0, "type": "electric_scooter", "lat": 38.974986, "is_reserved": 0, "is_disabled": 0, "fusion_lon": 0.0, "bike_id": "7ca142f914d323049efaa3c6b4ea0236", "lon": -77.01693566666667, "rental_uris": {"ios": "https://dc.lft.to/lastmile_qr_scan", "android": "https://dc.lft.to/lastmile_qr_scan"}}, {"name": "64d58c8a25b02f28b62485d1b7b154ac", "fusion_lat": 0.0, "type": "electric_scooter", "lat": 38.9001465, "is_reserved": 0, "is_disabled": 0, "fusion_lon": 0.0, "bike_id": "64d58c8a25b02f28b62485d1b7b154ac", "lon": -77.05329233333333, "rental_uris": {"ios": "https://dc.lft.to/lastmile_qr_scan", "android": "https://dc.lft.to/lastmile_qr_scan"}}, {"name": "4c46233036658443ca27d525dcd5d214", "fusion_lat": 0.0, "type": "electric_scooter", "lat": 38.928291333333334, "is_reserved": 0, "is_disabled": 0, "fusion_lon": 0.0, "bike_id": "4c46233036658443ca27d525dcd5d214", "lon": -77.02256183333333, "rental_uris": {"ios": "https://dc.lft.to/lastmile_qr_scan", "android": "https://dc.lft.to/lastmile_qr_scan"}}, {"name": "37634b11725a499ad150e32e77d9b305", "fusion_lat": 0.0, "type": "electric_scooter", "lat": 38.869644, "is_reserved": 0, "is_disabled": 0, "fusion_lon": 0.0, "bike_id": "37634b11725a499ad150e32e77d9b305", "lon": -77.01373533333333, "rental_uris": {"ios": "https://dc.lft.to/lastmile_qr_scan", "android": "https://dc.lft.to/lastmile_qr_scan"}}, {"name": "2899d0e7d3e844873bbc623644bd4864", "fusion_lat": 0.0, "type": "electric_scooter", "lat": 38.92652533333333, "is_reserved": 0, "is_disabled": 0, "fusion_lon": 0.0, "bike_id": "2899d0e7d3e844873bbc623644bd4864", "lon": -77.037278, "rental_uris": {"ios": "https://dc.lft.to/lastmile_qr_scan", "android": "https://dc.lft.to/lastmile_qr_scan"}}, {"name": "927718bc3d02c1e79aaf956b1958c83b", "fusion_lat": 0.0, "type": "electric_bike", "lat": 38.953354, "is_reserved": 0, "is_disabled": 0, "fusion_lon": 0.0, "bike_id": "927718bc3d02c1e79aaf956b1958c83b", "lon": -76.9782725, "rental_uris": {"ios": "https://dc.lft.to/lastmile_qr_scan", "android": "https://dc.lft.to/lastmile_qr_scan"}}, {"name": "2b6cec21969491fa3b2107e2676873a8", "fusion_lat": 0.0, "type": "electric_scooter", "lat": 38.910511666666665, "is_reserved": 0, "is_disabled": 0, "fusion_lon": 0.0, "bike_id": "2b6cec21969491fa3b2107e2676873a8", "lon": -77.02205816666667, "rental_uris": {"ios": "https://dc.lft.to/lastmile_qr_scan", "android": "https://dc.lft.to/lastmile_qr_scan"}}, {"name": "44551290f4f3f61cf1a045dea8aed372", "fusion_lat": 0.0, "type": "electric_scooter", "lat": 38.91805166666666, "is_reserved": 0, "is_disabled": 0, "fusion_lon": 0.0, "bike_id": "44551290f4f3f61cf1a045dea8aed372", "lon": -77.0345115, "rental_uris": {"ios": "https://dc.lft.to/lastmile_qr_scan", "android": "https://dc.lft.to/lastmile_qr_scan"}}, {"name": "f6910a720c45ccf994d32769e9b9490b", "fusion_lat": 0.0, "type": "electric_scooter", "lat": 38.90146266666667, "is_reserved": 0, "is_disabled": 0, "fusion_lon": 0.0, "bike_id": "f6910a720c45ccf994d32769e9b9490b", "lon": -77.00065766666667, "rental_uris": {"ios": "https://dc.lft.to/lastmile_qr_scan", "android": "https://dc.lft.to/lastmile_qr_scan"}}, {"name": "e3937f72184115995c3d11b2686c77ce", "fusion_lat": 0.0, "type": "electric_scooter", "lat": 38.91245466666667, "is_reserved": 0, "is_disabled": 0, "fusion_lon": 0.0, "bike_id": "e3937f72184115995c3d11b2686c77ce", "lon": -77.04868933333333, "rental_uris": {"ios": "https://dc.lft.to/lastmile_qr_scan", "android": "https://dc.lft.to/lastmile_qr_scan"}}, {"name": "608268f61cc902c4351c94a4b6c370ba", "fusion_lat": 0.0, "type": "electric_scooter", "lat": 38.895625, "is_reserved": 0, "is_disabled": 0, "fusion_lon": 0.0, "bike_id": "608268f61cc902c4351c94a4b6c370ba", "lon": -76.94890816666667, "rental_uris": {"ios": "https://dc.lft.to/lastmile_qr_scan", "android": "https://dc.lft.to/lastmile_qr_scan"}}, {"name": "2edc54fdabefb87da8ebf42f124817dd", "fusion_lat": 0.0, "type": "electric_bike", "lat": 38.87758316666667, "is_reserved": 0, "is_disabled": 0, "fusion_lon": 0.0, "bike_id": "2edc54fdabefb87da8ebf42f124817dd", "lon": -76.979837, "rental_uris": {"ios": "https://dc.lft.to/lastmile_qr_scan", "android": "https://dc.lft.to/lastmile_qr_scan"}}, {"name": "d9f4b4dd8d37788eb5c380255378c573", "fusion_lat": 0.0, "type": "electric_bike", "lat": 38.9395915, "is_reserved": 0, "is_disabled": 0, "fusion_lon": 0.0, "bike_id": "d9f4b4dd8d37788eb5c380255378c573", "lon": -77.360971, "rental_uris": {"ios": "https://dc.lft.to/lastmile_qr_scan", "android": "https://dc.lft.to/lastmile_qr_scan"}}, {"name": "5c4e67be21b08da53ecec9d4dc63fbc3", "fusion_lat": 0.0, "type": "electric_scooter", "lat": 38.90973616666667, "is_reserved": 0, "is_disabled": 0, "fusion_lon": 0.0, "bike_id": "5c4e67be21b08da53ecec9d4dc63fbc3", "lon": -77.01119933333334, "rental_uris": {"ios": "https://dc.lft.to/lastmile_qr_scan", "android": "https://dc.lft.to/lastmile_qr_scan"}}, {"name": "4084bd01b46f3131dca04875d81bedd3", "fusion_lat": 0.0, "type": "electric_scooter", "lat": 38.91106833333333, "is_reserved": 0, "is_disabled": 0, "fusion_lon": 0.0, "bike_id": "4084bd01b46f3131dca04875d81bedd3", "lon": -77.02462116666666, "rental_uris": {"ios": "https://dc.lft.to/lastmile_qr_scan", "android": "https://dc.lft.to/lastmile_qr_scan"}}, {"name": "b29601117fdf65c005ce4c89fdf13cd7", "fusion_lat": 0.0, "type": "electric_scooter", "lat": 38.88374916666667, "is_reserved": 0, "is_disabled": 0, "fusion_lon": 0.0, "bike_id": "b29601117fdf65c005ce4c89fdf13cd7", "lon": -76.92373083333334, "rental_uris": {"ios": "https://dc.lft.to/lastmile_qr_scan", "android": "https://dc.lft.to/lastmile_qr_scan"}}, {"name": "86a26310c359b16cbf07ff39c6b9c0f4", "fusion_lat": 0.0, "type": "electric_scooter", "lat": 38.923644333333336, "is_reserved": 0, "is_disabled": 0, "fusion_lon": 0.0, "bike_id": "86a26310c359b16cbf07ff39c6b9c0f4", "lon": -77.05840416666666, "rental_uris": {"ios": "https://dc.lft.to/lastmile_qr_scan", "android": "https://dc.lft.to/lastmile_qr_scan"}}, {"name": "4cbf169b599a1481ca3975e9e9f1f10a", "fusion_lat": 0.0, "type": "electric_scooter", "lat": 38.92474466666667, "is_reserved": 0, "is_disabled": 0, "fusion_lon": 0.0, "bike_id": "4cbf169b599a1481ca3975e9e9f1f10a", "lon": -77.02892833333334, "rental_uris": {"ios": "https://dc.lft.to/lastmile_qr_scan", "android": "https://dc.lft.to/lastmile_qr_scan"}}, {"name": "a42f7d66c2e3d55314a9ad1cb48f030f", "fusion_lat": 0.0, "type": "electric_scooter", "lat": 38.92517316666667, "is_reserved": 0, "is_disabled": 0, "fusion_lon": 0.0, "bike_id": "a42f7d66c2e3d55314a9ad1cb48f030f", "lon": -77.00175566666667, "rental_uris": {"ios": "https://dc.lft.to/lastmile_qr_scan", "android": "https://dc.lft.to/lastmile_qr_scan"}}, {"name": "34ec13b97d6ac18cd37d138e41958f9a", "fusion_lat": 0.0, "type": "electric_scooter", "lat": 38.91277383333333, "is_reserved": 0, "is_disabled": 0, "fusion_lon": 0.0, "bike_id": "34ec13b97d6ac18cd37d138e41958f9a", "lon": -77.04507816666667, "rental_uris": {"ios": "https://dc.lft.to/lastmile_qr_scan", "android": "https://dc.lft.to/lastmile_qr_scan"}}, {"name": "4f77c8da2d2d40f5f31de7ac18654ded", "fusion_lat": 0.0, "type": "electric_scooter", "lat": 38.895386, "is_reserved": 0, "is_disabled": 0, "fusion_lon": 0.0, "bike_id": "4f77c8da2d2d40f5f31de7ac18654ded", "lon": -77.0112535, "rental_uris": {"ios": "https://dc.lft.to/lastmile_qr_scan", "android": "https://dc.lft.to/lastmile_qr_scan"}}, {"name": "51be4bd2caa8c19a5e5d6a9e042350c3", "fusion_lat": 0.0, "type": "electric_scooter", "lat": 38.896144, "is_reserved": 0, "is_disabled": 0, "fusion_lon": 0.0, "bike_id": "51be4bd2caa8c19a5e5d6a9e042350c3", "lon": -77.044622, "rental_uris": {"ios": "https://dc.lft.to/lastmile_qr_scan", "android": "https://dc.lft.to/lastmile_qr_scan"}}, {"name": "ccdfadae87e485a17104678da619571b", "fusion_lat": 0.0, "type": "electric_scooter", "lat": 38.919223333333335, "is_reserved": 0, "is_disabled": 0, "fusion_lon": 0.0, "bike_id": "ccdfadae87e485a17104678da619571b", "lon": -77.03424816666667, "rental_uris": {"ios": "https://dc.lft.to/lastmile_qr_scan", "android": "https://dc.lft.to/lastmile_qr_scan"}}, {"name": "b0ce7196c72d1c6131f6140d4bcff420", "fusion_lat": 0.0, "type": "electric_scooter", "lat": 38.92858, "is_reserved": 0, "is_disabled": 0, "fusion_lon": 0.0, "bike_id": "b0ce7196c72d1c6131f6140d4bcff420", "lon": -77.02740133333333, "rental_uris": {"ios": "https://dc.lft.to/lastmile_qr_scan", "android": "https://dc.lft.to/lastmile_qr_scan"}}, {"name": "eac003c90df2605b7fc82baa6be95486", "fusion_lat": 0.0, "type": "electric_scooter", "lat": 38.90673916666667, "is_reserved": 0, "is_disabled": 0, "fusion_lon": 0.0, "bike_id": "eac003c90df2605b7fc82baa6be95486", "lon": -77.04646783333334, "rental_uris": {"ios": "https://dc.lft.to/lastmile_qr_scan", "android": "https://dc.lft.to/lastmile_qr_scan"}}, {"name": "66d90a99f33d10d4b17a811eae62ed19", "fusion_lat": 0.0, "type": "electric_scooter", "lat": 38.9019675, "is_reserved": 0, "is_disabled": 0, "fusion_lon": 0.0, "bike_id": "66d90a99f33d10d4b17a811eae62ed19", "lon": -76.982091, "rental_uris": {"ios": "https://dc.lft.to/lastmile_qr_scan", "android": "https://dc.lft.to/lastmile_qr_scan"}}, {"name": "5c40943000160dbac5126996b680ec71", "fusion_lat": 0.0, "type": "electric_scooter", "lat": 38.90965333333333, "is_reserved": 0, "is_disabled": 0, "fusion_lon": 0.0, "bike_id": "5c40943000160dbac5126996b680ec71", "lon": -77.0274795, "rental_uris": {"ios": "https://dc.lft.to/lastmile_qr_scan", "android": "https://dc.lft.to/lastmile_qr_scan"}}, {"name": "2a3d274fa660c7768000961a4a31a290", "fusion_lat": 0.0, "type": "electric_scooter", "lat": 38.917692, "is_reserved": 0, "is_disabled": 0, "fusion_lon": 0.0, "bike_id": "2a3d274fa660c7768000961a4a31a290", "lon": -77.09674266666667, "rental_uris": {"ios": "https://dc.lft.to/lastmile_qr_scan", "android": "https://dc.lft.to/lastmile_qr_scan"}}, {"name": "32f6b050e9df8c65b412999a6470b6d3", "fusion_lat": 0.0, "type": "electric_scooter", "lat": 38.92521966666666, "is_reserved": 0, "is_disabled": 0, "fusion_lon": 0.0, "bike_id": "32f6b050e9df8c65b412999a6470b6d3", "lon": -77.03322966666667, "rental_uris": {"ios": "https://dc.lft.to/lastmile_qr_scan", "android": "https://dc.lft.to/lastmile_qr_scan"}}, {"name": "3e7647a28423c38fe7560c8864eb62fb", "fusion_lat": 0.0, "type": "electric_scooter", "lat": 38.86660716666667, "is_reserved": 0, "is_disabled": 0, "fusion_lon": 0.0, "bike_id": "3e7647a28423c38fe7560c8864eb62fb", "lon": -76.98882066666667, "rental_uris": {"ios": "https://dc.lft.to/lastmile_qr_scan", "android": "https://dc.lft.to/lastmile_qr_scan"}}, {"name": "bfad338a4984ee16d88dc2706e59efa3", "fusion_lat": 0.0, "type": "electric_scooter", "lat": 38.91927733333333, "is_reserved": 0, "is_disabled": 0, "fusion_lon": 0.0, "bike_id": "bfad338a4984ee16d88dc2706e59efa3", "lon": -77.0415335, "rental_uris": {"ios": "https://dc.lft.to/lastmile_qr_scan", "android": "https://dc.lft.to/lastmile_qr_scan"}}, {"name": "8240c412061b783c01ba88243a8c943a", "fusion_lat": 0.0, "type": "electric_bike", "lat": 38.935803, "is_reserved": 0, "is_disabled": 0, "fusion_lon": 0.0, "bike_id": "8240c412061b783c01ba88243a8c943a", "lon": -77.02126416666667, "rental_uris": {"ios": "https://dc.lft.to/lastmile_qr_scan", "android": "https://dc.lft.to/lastmile_qr_scan"}}, {"name": "2cea6947bb58ffc46f8c0d14cba13728", "fusion_lat": 0.0, "type": "electric_scooter", "lat": 38.91698916666667, "is_reserved": 0, "is_disabled": 0, "fusion_lon": 0.0, "bike_id": "2cea6947bb58ffc46f8c0d14cba13728", "lon": -77.03176283333333, "rental_uris": {"ios": "https://dc.lft.to/lastmile_qr_scan", "android": "https://dc.lft.to/lastmile_qr_scan"}}, {"name": "1becedc86ce57533d1206b7ae9b04baa", "fusion_lat": 0.0, "type": "electric_scooter", "lat": 38.92288583333333, "is_reserved": 0, "is_disabled": 0, "fusion_lon": 0.0, "bike_id": "1becedc86ce57533d1206b7ae9b04baa", "lon": -77.02969483333334, "rental_uris": {"ios": "https://dc.lft.to/lastmile_qr_scan", "android": "https://dc.lft.to/lastmile_qr_scan"}}, {"name": "db85d360a5e315fbc8d640802769943e", "fusion_lat": 0.0, "type": "electric_scooter", "lat": 38.9003405, "is_reserved": 0, "is_disabled": 0, "fusion_lon": 0.0, "bike_id": "db85d360a5e315fbc8d640802769943e", "lon": -77.001046, "rental_uris": {"ios": "https://dc.lft.to/lastmile_qr_scan", "android": "https://dc.lft.to/lastmile_qr_scan"}}, {"name": "f823c6147cf0ed77084c62f3f5dbacf7", "fusion_lat": 0.0, "type": "electric_scooter", "lat": 38.9062915, "is_reserved": 0, "is_disabled": 0, "fusion_lon": 0.0, "bike_id": "f823c6147cf0ed77084c62f3f5dbacf7", "lon": -77.00602966666666, "rental_uris": {"ios": "https://dc.lft.to/lastmile_qr_scan", "android": "https://dc.lft.to/lastmile_qr_scan"}}, {"name": "b6286a9955f5a854996671c9a36da1e3", "fusion_lat": 0.0, "type": "electric_scooter", "lat": 38.92063316666667, "is_reserved": 0, "is_disabled": 0, "fusion_lon": 0.0, "bike_id": "b6286a9955f5a854996671c9a36da1e3", "lon": -77.02354233333334, "rental_uris": {"ios": "https://dc.lft.to/lastmile_qr_scan", "android": "https://dc.lft.to/lastmile_qr_scan"}}, {"name": "36ce825fa533a62bae07cbc28b67c89e", "fusion_lat": 0.0, "type": "electric_scooter", "lat": 38.87498716666666, "is_reserved": 0, "is_disabled": 0, "fusion_lon": 0.0, "bike_id": "36ce825fa533a62bae07cbc28b67c89e", "lon": -76.99795766666666, "rental_uris": {"ios": "https://dc.lft.to/lastmile_qr_scan", "android": "https://dc.lft.to/lastmile_qr_scan"}}, {"name": "5b01f679e400e724a4b26470df99ccdf", "fusion_lat": 0.0, "type": "electric_scooter", "lat": 38.914067333333335, "is_reserved": 0, "is_disabled": 0, "fusion_lon": 0.0, "bike_id": "5b01f679e400e724a4b26470df99ccdf", "lon": -77.0223065, "rental_uris": {"ios": "https://dc.lft.to/lastmile_qr_scan", "android": "https://dc.lft.to/lastmile_qr_scan"}}, {"name": "fc54fbc5c9d3ce647238863686227ea2", "fusion_lat": 0.0, "type": "electric_scooter", "lat": 38.921293166666665, "is_reserved": 0, "is_disabled": 0, "fusion_lon": 0.0, "bike_id": "fc54fbc5c9d3ce647238863686227ea2", "lon": -77.025254, "rental_uris": {"ios": "https://dc.lft.to/lastmile_qr_scan", "android": "https://dc.lft.to/lastmile_qr_scan"}}, {"name": "f630c4ef16ee481c09e84e26ed428477", "fusion_lat": 0.0, "type": "electric_scooter", "lat": 38.90878416666666, "is_reserved": 0, "is_disabled": 0, "fusion_lon": 0.0, "bike_id": "f630c4ef16ee481c09e84e26ed428477", "lon": -77.00335283333334, "rental_uris": {"ios": "https://dc.lft.to/lastmile_qr_scan", "android": "https://dc.lft.to/lastmile_qr_scan"}}, {"name": "8cd12050016098d0cb22aa768bea0df1", "fusion_lat": 0.0, "type": "electric_bike", "lat": 38.924342333333335, "is_reserved": 0, "is_disabled": 0, "fusion_lon": 0.0, "bike_id": "8cd12050016098d0cb22aa768bea0df1", "lon": -76.99130783333334, "rental_uris": {"ios": "https://dc.lft.to/lastmile_qr_scan", "android": "https://dc.lft.to/lastmile_qr_scan"}}, {"name": "10f26ae6560dfbeee0f9b4b0111ae54d", "fusion_lat": 0.0, "type": "electric_scooter", "lat": 38.92825166666667, "is_reserved": 0, "is_disabled": 0, "fusion_lon": 0.0, "bike_id": "10f26ae6560dfbeee0f9b4b0111ae54d", "lon": -77.02257633333333, "rental_uris": {"ios": "https://dc.lft.to/lastmile_qr_scan", "android": "https://dc.lft.to/lastmile_qr_scan"}}, {"name": "9052a03fbbd5914a6cd041581f45ff2e", "fusion_lat": 0.0, "type": "electric_bike", "lat": 38.8427485, "is_reserved": 0, "is_disabled": 0, "fusion_lon": 0.0, "bike_id": "9052a03fbbd5914a6cd041581f45ff2e", "lon": -76.9884165, "rental_uris": {"ios": "https://dc.lft.to/lastmile_qr_scan", "android": "https://dc.lft.to/lastmile_qr_scan"}}, {"name": "f063693da132077b5589430cb8de8a34", "fusion_lat": 0.0, "type": "electric_scooter", "lat": 38.9170265, "is_reserved": 0, "is_disabled": 0, "fusion_lon": 0.0, "bike_id": "f063693da132077b5589430cb8de8a34", "lon": -77.0280335, "rental_uris": {"ios": "https://dc.lft.to/lastmile_qr_scan", "android": "https://dc.lft.to/lastmile_qr_scan"}}, {"name": "f1b7d1bd4f0e8430c6532164201afa30", "fusion_lat": 0.0, "type": "electric_scooter", "lat": 38.900675, "is_reserved": 0, "is_disabled": 0, "fusion_lon": 0.0, "bike_id": "f1b7d1bd4f0e8430c6532164201afa30", "lon": -77.00223783333334, "rental_uris": {"ios": "https://dc.lft.to/lastmile_qr_scan", "android": "https://dc.lft.to/lastmile_qr_scan"}}, {"name": "a3ba6c94233a9392e95fd62c513a7674", "fusion_lat": 0.0, "type": "electric_scooter", "lat": 38.92580933333333, "is_reserved": 0, "is_disabled": 0, "fusion_lon": 0.0, "bike_id": "a3ba6c94233a9392e95fd62c513a7674", "lon": -76.99491066666667, "rental_uris": {"ios": "https://dc.lft.to/lastmile_qr_scan", "android": "https://dc.lft.to/lastmile_qr_scan"}}, {"name": "ddc920cbf8dd585c5244b26627b20b89", "fusion_lat": 0.0, "type": "electric_bike", "lat": 38.96012116666667, "is_reserved": 0, "is_disabled": 0, "fusion_lon": 0.0, "bike_id": "ddc920cbf8dd585c5244b26627b20b89", "lon": -76.998648, "rental_uris": {"ios": "https://dc.lft.to/lastmile_qr_scan", "android": "https://dc.lft.to/lastmile_qr_scan"}}, {"name": "a16c84de9aa8f42beed5c3b19bac0ec9", "fusion_lat": 0.0, "type": "electric_bike", "lat": 38.881247, "is_reserved": 0, "is_disabled": 0, "fusion_lon": 0.0, "bike_id": "a16c84de9aa8f42beed5c3b19bac0ec9", "lon": -77.013519, "rental_uris": {"ios": "https://dc.lft.to/lastmile_qr_scan", "android": "https://dc.lft.to/lastmile_qr_scan"}}, {"name": "d771d8cdc4e7c9f86ace1dab7e44cf0d", "fusion_lat": 0.0, "type": "electric_scooter", "lat": 38.90357816666667, "is_reserved": 0, "is_disabled": 0, "fusion_lon": 0.0, "bike_id": "d771d8cdc4e7c9f86ace1dab7e44cf0d", "lon": -77.026072, "rental_uris": {"ios": "https://dc.lft.to/lastmile_qr_scan", "android": "https://dc.lft.to/lastmile_qr_scan"}}, {"name": "0061bf8963c10519615ba18190a979a2", "fusion_lat": 0.0, "type": "electric_scooter", "lat": 38.901692833333335, "is_reserved": 0, "is_disabled": 0, "fusion_lon": 0.0, "bike_id": "0061bf8963c10519615ba18190a979a2", "lon": -77.047011, "rental_uris": {"ios": "https://dc.lft.to/lastmile_qr_scan", "android": "https://dc.lft.to/lastmile_qr_scan"}}, {"name": "995742fcce52fc2e4d7b4ab36ff6c217", "fusion_lat": 0.0, "type": "electric_scooter", "lat": 38.94203866666667, "is_reserved": 0, "is_disabled": 0, "fusion_lon": 0.0, "bike_id": "995742fcce52fc2e4d7b4ab36ff6c217", "lon": -77.025144, "rental_uris": {"ios": "https://dc.lft.to/lastmile_qr_scan", "android": "https://dc.lft.to/lastmile_qr_scan"}}, {"name": "5e67dadcf7338404179747250f890ea6", "fusion_lat": 0.0, "type": "electric_scooter", "lat": 38.8615325, "is_reserved": 0, "is_disabled": 0, "fusion_lon": 0.0, "bike_id": "5e67dadcf7338404179747250f890ea6", "lon": -76.98934533333333, "rental_uris": {"ios": "https://dc.lft.to/lastmile_qr_scan", "android": "https://dc.lft.to/lastmile_qr_scan"}}, {"name": "6d1097d9291e97b5b49dfac2a2ce564f", "fusion_lat": 0.0, "type": "electric_scooter", "lat": 38.90728683333333, "is_reserved": 0, "is_disabled": 0, "fusion_lon": 0.0, "bike_id": "6d1097d9291e97b5b49dfac2a2ce564f", "lon": -77.04343216666666, "rental_uris": {"ios": "https://dc.lft.to/lastmile_qr_scan", "android": "https://dc.lft.to/lastmile_qr_scan"}}, {"name": "eec433ea97cc0f3bf6be66d600f08726", "fusion_lat": 0.0, "type": "electric_bike", "lat": 38.83143416666667, "is_reserved": 0, "is_disabled": 0, "fusion_lon": 0.0, "bike_id": "eec433ea97cc0f3bf6be66d600f08726", "lon": -77.11327933333334, "rental_uris": {"ios": "https://dc.lft.to/lastmile_qr_scan", "android": "https://dc.lft.to/lastmile_qr_scan"}}, {"name": "5ed7f3fedd734ebf77181f82c55719cf", "fusion_lat": 0.0, "type": "electric_bike", "lat": 38.839416, "is_reserved": 0, "is_disabled": 0, "fusion_lon": 0.0, "bike_id": "5ed7f3fedd734ebf77181f82c55719cf", "lon": -77.079021, "rental_uris": {"ios": "https://dc.lft.to/lastmile_qr_scan", "android": "https://dc.lft.to/lastmile_qr_scan"}}, {"name": "1bcba839f39108cb7cdf54a121f7267c", "fusion_lat": 0.0, "type": "electric_scooter", "lat": 38.921535666666664, "is_reserved": 0, "is_disabled": 0, "fusion_lon": 0.0, "bike_id": "1bcba839f39108cb7cdf54a121f7267c", "lon": -77.0346975, "rental_uris": {"ios": "https://dc.lft.to/lastmile_qr_scan", "android": "https://dc.lft.to/lastmile_qr_scan"}}, {"name": "98c9336dd477f08b0bc1c63e87c121dd", "fusion_lat": 0.0, "type": "electric_scooter", "lat": 38.9181415, "is_reserved": 0, "is_disabled": 0, "fusion_lon": 0.0, "bike_id": "98c9336dd477f08b0bc1c63e87c121dd", "lon": -77.04624133333333, "rental_uris": {"ios": "https://dc.lft.to/lastmile_qr_scan", "android": "https://dc.lft.to/lastmile_qr_scan"}}, {"name": "f057a6ddc36eff64d9ff93f73de25ac1", "fusion_lat": 0.0, "type": "electric_scooter", "lat": 38.89245533333333, "is_reserved": 0, "is_disabled": 0, "fusion_lon": 0.0, "bike_id": "f057a6ddc36eff64d9ff93f73de25ac1", "lon": -77.03384266666667, "rental_uris": {"ios": "https://dc.lft.to/lastmile_qr_scan", "android": "https://dc.lft.to/lastmile_qr_scan"}}, {"name": "ead1769291c768ac4a80988353a2722b", "fusion_lat": 0.0, "type": "electric_scooter", "lat": 38.9074035, "is_reserved": 0, "is_disabled": 0, "fusion_lon": 0.0, "bike_id": "ead1769291c768ac4a80988353a2722b", "lon": -77.02692683333333, "rental_uris": {"ios": "https://dc.lft.to/lastmile_qr_scan", "android": "https://dc.lft.to/lastmile_qr_scan"}}, {"name": "405f664142bb4f60319444b27411d17d", "fusion_lat": 0.0, "type": "electric_scooter", "lat": 38.9218845, "is_reserved": 0, "is_disabled": 0, "fusion_lon": 0.0, "bike_id": "405f664142bb4f60319444b27411d17d", "lon": -77.04277016666667, "rental_uris": {"ios": "https://dc.lft.to/lastmile_qr_scan", "android": "https://dc.lft.to/lastmile_qr_scan"}}, {"name": "02bdfac13aa013e092276afb7d76b59f", "fusion_lat": 0.0, "type": "electric_scooter", "lat": 38.90558866666667, "is_reserved": 0, "is_disabled": 0, "fusion_lon": 0.0, "bike_id": "02bdfac13aa013e092276afb7d76b59f", "lon": -77.04566066666666, "rental_uris": {"ios": "https://dc.lft.to/lastmile_qr_scan", "android": "https://dc.lft.to/lastmile_qr_scan"}}, {"name": "c291055c1f748af326a5c654880b23a1", "fusion_lat": 0.0, "type": "electric_scooter", "lat": 38.93190666666667, "is_reserved": 0, "is_disabled": 0, "fusion_lon": 0.0, "bike_id": "c291055c1f748af326a5c654880b23a1", "lon": -77.03449316666666, "rental_uris": {"ios": "https://dc.lft.to/lastmile_qr_scan", "android": "https://dc.lft.to/lastmile_qr_scan"}}, {"name": "a7555421b8eb9a557cfd3bd6771bc312", "fusion_lat": 0.0, "type": "electric_scooter", "lat": 38.91818333333333, "is_reserved": 0, "is_disabled": 0, "fusion_lon": 0.0, "bike_id": "a7555421b8eb9a557cfd3bd6771bc312", "lon": -77.025024, "rental_uris": {"ios": "https://dc.lft.to/lastmile_qr_scan", "android": "https://dc.lft.to/lastmile_qr_scan"}}, {"name": "c35e1b42373968fbee5bef881a7ed62d", "fusion_lat": 0.0, "type": "electric_scooter", "lat": 38.910188, "is_reserved": 0, "is_disabled": 0, "fusion_lon": 0.0, "bike_id": "c35e1b42373968fbee5bef881a7ed62d", "lon": -77.04873283333333, "rental_uris": {"ios": "https://dc.lft.to/lastmile_qr_scan", "android": "https://dc.lft.to/lastmile_qr_scan"}}, {"name": "e9e95c852f27240596f9e9cdbe860538", "fusion_lat": 0.0, "type": "electric_scooter", "lat": 38.89787583333333, "is_reserved": 0, "is_disabled": 0, "fusion_lon": 0.0, "bike_id": "e9e95c852f27240596f9e9cdbe860538", "lon": -77.03159783333334, "rental_uris": {"ios": "https://dc.lft.to/lastmile_qr_scan", "android": "https://dc.lft.to/lastmile_qr_scan"}}, {"name": "9a93368916377124b72343bd9a5d3ded", "fusion_lat": 0.0, "type": "electric_scooter", "lat": 38.919342, "is_reserved": 0, "is_disabled": 0, "fusion_lon": 0.0, "bike_id": "9a93368916377124b72343bd9a5d3ded", "lon": -77.0238245, "rental_uris": {"ios": "https://dc.lft.to/lastmile_qr_scan", "android": "https://dc.lft.to/lastmile_qr_scan"}}, {"name": "d4cd9c81e21f27fc650c981e4a6969f7", "fusion_lat": 0.0, "type": "electric_scooter", "lat": 38.905491833333336, "is_reserved": 0, "is_disabled": 0, "fusion_lon": 0.0, "bike_id": "d4cd9c81e21f27fc650c981e4a6969f7", "lon": -77.03246633333333, "rental_uris": {"ios": "https://dc.lft.to/lastmile_qr_scan", "android": "https://dc.lft.to/lastmile_qr_scan"}}, {"name": "3d8630d4cef934d0af240ecd81afe484", "fusion_lat": 0.0, "type": "electric_scooter", "lat": 38.9332425, "is_reserved": 0, "is_disabled": 0, "fusion_lon": 0.0, "bike_id": "3d8630d4cef934d0af240ecd81afe484", "lon": -77.0343795, "rental_uris": {"ios": "https://dc.lft.to/lastmile_qr_scan", "android": "https://dc.lft.to/lastmile_qr_scan"}}, {"name": "00fde8219a5d1ee1a2fa78221048aa2c", "fusion_lat": 0.0, "type": "electric_scooter", "lat": 38.918213, "is_reserved": 0, "is_disabled": 0, "fusion_lon": 0.0, "bike_id": "00fde8219a5d1ee1a2fa78221048aa2c", "lon": -77.0269335, "rental_uris": {"ios": "https://dc.lft.to/lastmile_qr_scan", "android": "https://dc.lft.to/lastmile_qr_scan"}}, {"name": "38f7561efcda6a307e5564f757d43af3", "fusion_lat": 0.0, "type": "electric_scooter", "lat": 38.91272266666667, "is_reserved": 0, "is_disabled": 0, "fusion_lon": 0.0, "bike_id": "38f7561efcda6a307e5564f757d43af3", "lon": -77.03870883333333, "rental_uris": {"ios": "https://dc.lft.to/lastmile_qr_scan", "android": "https://dc.lft.to/lastmile_qr_scan"}}, {"name": "c8765ce8066b1a14d17bfcd85d192439", "fusion_lat": 0.0, "type": "electric_scooter", "lat": 38.91703966666667, "is_reserved": 0, "is_disabled": 0, "fusion_lon": 0.0, "bike_id": "c8765ce8066b1a14d17bfcd85d192439", "lon": -77.02462316666667, "rental_uris": {"ios": "https://dc.lft.to/lastmile_qr_scan", "android": "https://dc.lft.to/lastmile_qr_scan"}}, {"name": "e53b88846aef1f38eed829dee15fe0f1", "fusion_lat": 0.0, "type": "electric_scooter", "lat": 38.913263, "is_reserved": 0, "is_disabled": 0, "fusion_lon": 0.0, "bike_id": "e53b88846aef1f38eed829dee15fe0f1", "lon": -77.01782283333333, "rental_uris": {"ios": "https://dc.lft.to/lastmile_qr_scan", "android": "https://dc.lft.to/lastmile_qr_scan"}}, {"name": "f6463bb5cf032701fb6fa06b6fe135c3", "fusion_lat": 0.0, "type": "electric_scooter", "lat": 38.890921666666664, "is_reserved": 0, "is_disabled": 0, "fusion_lon": 0.0, "bike_id": "f6463bb5cf032701fb6fa06b6fe135c3", "lon": -76.98726216666667, "rental_uris": {"ios": "https://dc.lft.to/lastmile_qr_scan", "android": "https://dc.lft.to/lastmile_qr_scan"}}, {"name": "5d4e9012278f73b9bc951c7f5d5642d7", "fusion_lat": 0.0, "type": "electric_scooter", "lat": 38.932620166666666, "is_reserved": 0, "is_disabled": 0, "fusion_lon": 0.0, "bike_id": "5d4e9012278f73b9bc951c7f5d5642d7", "lon": -77.04004716666667, "rental_uris": {"ios": "https://dc.lft.to/lastmile_qr_scan", "android": "https://dc.lft.to/lastmile_qr_scan"}}, {"name": "93d320ef33e6bf369c1ea4aab46a5f02", "fusion_lat": 0.0, "type": "electric_scooter", "lat": 38.907021666666665, "is_reserved": 0, "is_disabled": 0, "fusion_lon": 0.0, "bike_id": "93d320ef33e6bf369c1ea4aab46a5f02", "lon": -76.988557, "rental_uris": {"ios": "https://dc.lft.to/lastmile_qr_scan", "android": "https://dc.lft.to/lastmile_qr_scan"}}, {"name": "842c0bdc4b9f95155da6d54260fd5ba4", "fusion_lat": 0.0, "type": "electric_scooter", "lat": 38.92694083333333, "is_reserved": 0, "is_disabled": 0, "fusion_lon": 0.0, "bike_id": "842c0bdc4b9f95155da6d54260fd5ba4", "lon": -77.03775483333334, "rental_uris": {"ios": "https://dc.lft.to/lastmile_qr_scan", "android": "https://dc.lft.to/lastmile_qr_scan"}}, {"name": "e4c31b538e6f0de425a3e73d9249312b", "fusion_lat": 0.0, "type": "electric_scooter", "lat": 38.90514266666667, "is_reserved": 0, "is_disabled": 0, "fusion_lon": 0.0, "bike_id": "e4c31b538e6f0de425a3e73d9249312b", "lon": -77.04478866666666, "rental_uris": {"ios": "https://dc.lft.to/lastmile_qr_scan", "android": "https://dc.lft.to/lastmile_qr_scan"}}, {"name": "6698559e8a72cb159e5aa58c01c684eb", "fusion_lat": 0.0, "type": "electric_scooter", "lat": 38.914073, "is_reserved": 0, "is_disabled": 0, "fusion_lon": 0.0, "bike_id": "6698559e8a72cb159e5aa58c01c684eb", "lon": -77.00803783333333, "rental_uris": {"ios": "https://dc.lft.to/lastmile_qr_scan", "android": "https://dc.lft.to/lastmile_qr_scan"}}, {"name": "f0acbf9b62afa1bfd600300b933b0e95", "fusion_lat": 0.0, "type": "electric_scooter", "lat": 38.9057215, "is_reserved": 0, "is_disabled": 0, "fusion_lon": 0.0, "bike_id": "f0acbf9b62afa1bfd600300b933b0e95", "lon": -77.03618666666667, "rental_uris": {"ios": "https://dc.lft.to/lastmile_qr_scan", "android": "https://dc.lft.to/lastmile_qr_scan"}}, {"name": "52fae07f5fe47575dd472cd98e1873f2", "fusion_lat": 0.0, "type": "electric_bike", "lat": 38.96761933333333, "is_reserved": 0, "is_disabled": 0, "fusion_lon": 0.0, "bike_id": "52fae07f5fe47575dd472cd98e1873f2", "lon": -77.09165616666667, "rental_uris": {"ios": "https://dc.lft.to/lastmile_qr_scan", "android": "https://dc.lft.to/lastmile_qr_scan"}}, {"name": "c484554571881493ab704049cf57756c", "fusion_lat": 0.0, "type": "electric_scooter", "lat": 38.920717, "is_reserved": 0, "is_disabled": 0, "fusion_lon": 0.0, "bike_id": "c484554571881493ab704049cf57756c", "lon": -77.02387683333333, "rental_uris": {"ios": "https://dc.lft.to/lastmile_qr_scan", "android": "https://dc.lft.to/lastmile_qr_scan"}}, {"name": "fb2a427432473591f57355484ca344dc", "fusion_lat": 0.0, "type": "electric_scooter", "lat": 38.91263766666667, "is_reserved": 0, "is_disabled": 0, "fusion_lon": 0.0, "bike_id": "fb2a427432473591f57355484ca344dc", "lon": -77.04215483333333, "rental_uris": {"ios": "https://dc.lft.to/lastmile_qr_scan", "android": "https://dc.lft.to/lastmile_qr_scan"}}, {"name": "26a68cb2df6eea087bd47d93d19e1e36", "fusion_lat": 0.0, "type": "electric_bike", "lat": 38.861628333333336, "is_reserved": 0, "is_disabled": 0, "fusion_lon": 0.0, "bike_id": "26a68cb2df6eea087bd47d93d19e1e36", "lon": -77.13095366666667, "rental_uris": {"ios": "https://dc.lft.to/lastmile_qr_scan", "android": "https://dc.lft.to/lastmile_qr_scan"}}, {"name": "41a66bb95852ba2eeab9d167ff584da0", "fusion_lat": 0.0, "type": "electric_scooter", "lat": 38.90235883333333, "is_reserved": 0, "is_disabled": 0, "fusion_lon": 0.0, "bike_id": "41a66bb95852ba2eeab9d167ff584da0", "lon": -76.974137, "rental_uris": {"ios": "https://dc.lft.to/lastmile_qr_scan", "android": "https://dc.lft.to/lastmile_qr_scan"}}, {"name": "8e2d50dcf888cfc7bd5b8d4cb5ade6bf", "fusion_lat": 0.0, "type": "electric_scooter", "lat": 38.92356083333333, "is_reserved": 0, "is_disabled": 0, "fusion_lon": 0.0, "bike_id": "8e2d50dcf888cfc7bd5b8d4cb5ade6bf", "lon": -77.03370683333333, "rental_uris": {"ios": "https://dc.lft.to/lastmile_qr_scan", "android": "https://dc.lft.to/lastmile_qr_scan"}}, {"name": "071499e567b2b313021bb89c4b19bd0e", "fusion_lat": 0.0, "type": "electric_scooter", "lat": 38.883449166666665, "is_reserved": 0, "is_disabled": 0, "fusion_lon": 0.0, "bike_id": "071499e567b2b313021bb89c4b19bd0e", "lon": -77.0230535, "rental_uris": {"ios": "https://dc.lft.to/lastmile_qr_scan", "android": "https://dc.lft.to/lastmile_qr_scan"}}, {"name": "e6714a0957bb9feb979ac15423afd1fb", "fusion_lat": 0.0, "type": "electric_scooter", "lat": 38.92181583333333, "is_reserved": 0, "is_disabled": 0, "fusion_lon": 0.0, "bike_id": "e6714a0957bb9feb979ac15423afd1fb", "lon": -77.02664583333333, "rental_uris": {"ios": "https://dc.lft.to/lastmile_qr_scan", "android": "https://dc.lft.to/lastmile_qr_scan"}}, {"name": "73d6fd3d1a19fa4e35e858d702110da1", "fusion_lat": 0.0, "type": "electric_scooter", "lat": 38.9348015, "is_reserved": 0, "is_disabled": 0, "fusion_lon": 0.0, "bike_id": "73d6fd3d1a19fa4e35e858d702110da1", "lon": -77.03394216666666, "rental_uris": {"ios": "https://dc.lft.to/lastmile_qr_scan", "android": "https://dc.lft.to/lastmile_qr_scan"}}, {"name": "63cfc92440c7bbf8f98eaed92a245713", "fusion_lat": 0.0, "type": "electric_scooter", "lat": 38.89244683333333, "is_reserved": 0, "is_disabled": 0, "fusion_lon": 0.0, "bike_id": "63cfc92440c7bbf8f98eaed92a245713", "lon": -77.01787516666667, "rental_uris": {"ios": "https://dc.lft.to/lastmile_qr_scan", "android": "https://dc.lft.to/lastmile_qr_scan"}}, {"name": "5150363bc88d9cf4a3c65d4036d5886d", "fusion_lat": 0.0, "type": "electric_scooter", "lat": 38.900287, "is_reserved": 0, "is_disabled": 0, "fusion_lon": 0.0, "bike_id": "5150363bc88d9cf4a3c65d4036d5886d", "lon": -77.011861, "rental_uris": {"ios": "https://dc.lft.to/lastmile_qr_scan", "android": "https://dc.lft.to/lastmile_qr_scan"}}, {"name": "f6fa56efa807eea53c93a72203859447", "fusion_lat": 0.0, "type": "electric_scooter", "lat": 38.89855, "is_reserved": 0, "is_disabled": 0, "fusion_lon": 0.0, "bike_id": "f6fa56efa807eea53c93a72203859447", "lon": -77.0161365, "rental_uris": {"ios": "https://dc.lft.to/lastmile_qr_scan", "android": "https://dc.lft.to/lastmile_qr_scan"}}, {"name": "62c551ad4cbc0ce1ff521f9e4c88e8ce", "fusion_lat": 0.0, "type": "electric_scooter", "lat": 38.8635085, "is_reserved": 0, "is_disabled": 0, "fusion_lon": 0.0, "bike_id": "62c551ad4cbc0ce1ff521f9e4c88e8ce", "lon": -76.99066266666667, "rental_uris": {"ios": "https://dc.lft.to/lastmile_qr_scan", "android": "https://dc.lft.to/lastmile_qr_scan"}}, {"name": "52b051a0dd62e48310b51656af7db67a", "fusion_lat": 0.0, "type": "electric_scooter", "lat": 38.920767, "is_reserved": 0, "is_disabled": 0, "fusion_lon": 0.0, "bike_id": "52b051a0dd62e48310b51656af7db67a", "lon": -76.9985865, "rental_uris": {"ios": "https://dc.lft.to/lastmile_qr_scan", "android": "https://dc.lft.to/lastmile_qr_scan"}}, {"name": "7326e4d946802352722ec596a2d50306", "fusion_lat": 0.0, "type": "electric_scooter", "lat": 38.88050466666667, "is_reserved": 0, "is_disabled": 0, "fusion_lon": 0.0, "bike_id": "7326e4d946802352722ec596a2d50306", "lon": -77.013252, "rental_uris": {"ios": "https://dc.lft.to/lastmile_qr_scan", "android": "https://dc.lft.to/lastmile_qr_scan"}}, {"name": "4f8182414c6c8572cbace9378a187476", "fusion_lat": 0.0, "type": "electric_scooter", "lat": 38.899955, "is_reserved": 0, "is_disabled": 0, "fusion_lon": 0.0, "bike_id": "4f8182414c6c8572cbace9378a187476", "lon": -77.05518883333333, "rental_uris": {"ios": "https://dc.lft.to/lastmile_qr_scan", "android": "https://dc.lft.to/lastmile_qr_scan"}}, {"name": "5906e36618886be7c47edabe264fb59e", "fusion_lat": 0.0, "type": "electric_scooter", "lat": 38.907342166666666, "is_reserved": 0, "is_disabled": 0, "fusion_lon": 0.0, "bike_id": "5906e36618886be7c47edabe264fb59e", "lon": -77.00611883333333, "rental_uris": {"ios": "https://dc.lft.to/lastmile_qr_scan", "android": "https://dc.lft.to/lastmile_qr_scan"}}, {"name": "0096c753b1731e07ad02effd2e2faba1", "fusion_lat": 0.0, "type": "electric_scooter", "lat": 38.912640833333334, "is_reserved": 0, "is_disabled": 0, "fusion_lon": 0.0, "bike_id": "0096c753b1731e07ad02effd2e2faba1", "lon": -77.03867566666666, "rental_uris": {"ios": "https://dc.lft.to/lastmile_qr_scan", "android": "https://dc.lft.to/lastmile_qr_scan"}}, {"name": "1183106b1faf0465bce8648b9424d447", "fusion_lat": 0.0, "type": "electric_scooter", "lat": 38.92300566666667, "is_reserved": 0, "is_disabled": 0, "fusion_lon": 0.0, "bike_id": "1183106b1faf0465bce8648b9424d447", "lon": -77.042084, "rental_uris": {"ios": "https://dc.lft.to/lastmile_qr_scan", "android": "https://dc.lft.to/lastmile_qr_scan"}}, {"name": "ea3cb290f793a91db275d934afeed19e", "fusion_lat": 0.0, "type": "electric_scooter", "lat": 38.942162, "is_reserved": 0, "is_disabled": 0, "fusion_lon": 0.0, "bike_id": "ea3cb290f793a91db275d934afeed19e", "lon": -77.03588733333333, "rental_uris": {"ios": "https://dc.lft.to/lastmile_qr_scan", "android": "https://dc.lft.to/lastmile_qr_scan"}}, {"name": "c8c00240400c7e1bdab24b4e2638a181", "fusion_lat": 0.0, "type": "electric_scooter", "lat": 38.898295166666664, "is_reserved": 0, "is_disabled": 0, "fusion_lon": 0.0, "bike_id": "c8c00240400c7e1bdab24b4e2638a181", "lon": -76.98777983333333, "rental_uris": {"ios": "https://dc.lft.to/lastmile_qr_scan", "android": "https://dc.lft.to/lastmile_qr_scan"}}, {"name": "37f752e069922dc84cc28e373593e588", "fusion_lat": 0.0, "type": "electric_scooter", "lat": 38.89805616666666, "is_reserved": 0, "is_disabled": 0, "fusion_lon": 0.0, "bike_id": "37f752e069922dc84cc28e373593e588", "lon": -76.9916285, "rental_uris": {"ios": "https://dc.lft.to/lastmile_qr_scan", "android": "https://dc.lft.to/lastmile_qr_scan"}}, {"name": "7a58958effddac7c5fd747b8ed12e67d", "fusion_lat": 0.0, "type": "electric_scooter", "lat": 38.896228, "is_reserved": 0, "is_disabled": 0, "fusion_lon": 0.0, "bike_id": "7a58958effddac7c5fd747b8ed12e67d", "lon": -77.02696633333333, "rental_uris": {"ios": "https://dc.lft.to/lastmile_qr_scan", "android": "https://dc.lft.to/lastmile_qr_scan"}}, {"name": "91744585a33d12e0986e95f8f174acec", "fusion_lat": 0.0, "type": "electric_scooter", "lat": 38.9011575, "is_reserved": 0, "is_disabled": 0, "fusion_lon": 0.0, "bike_id": "91744585a33d12e0986e95f8f174acec", "lon": -77.04996216666666, "rental_uris": {"ios": "https://dc.lft.to/lastmile_qr_scan", "android": "https://dc.lft.to/lastmile_qr_scan"}}, {"name": "7b442cd43d6633a38924c867108e000e", "fusion_lat": 0.0, "type": "electric_scooter", "lat": 38.90653066666667, "is_reserved": 0, "is_disabled": 0, "fusion_lon": 0.0, "bike_id": "7b442cd43d6633a38924c867108e000e", "lon": -77.0532995, "rental_uris": {"ios": "https://dc.lft.to/lastmile_qr_scan", "android": "https://dc.lft.to/lastmile_qr_scan"}}, {"name": "6d2c8a5f0a71189075b2b0b70729048c", "fusion_lat": 0.0, "type": "electric_scooter", "lat": 38.898752, "is_reserved": 0, "is_disabled": 0, "fusion_lon": 0.0, "bike_id": "6d2c8a5f0a71189075b2b0b70729048c", "lon": -77.03966816666667, "rental_uris": {"ios": "https://dc.lft.to/lastmile_qr_scan", "android": "https://dc.lft.to/lastmile_qr_scan"}}, {"name": "cc931c2b6aa8e608b08ba050e8f9a9eb", "fusion_lat": 0.0, "type": "electric_scooter", "lat": 38.90367083333334, "is_reserved": 0, "is_disabled": 0, "fusion_lon": 0.0, "bike_id": "cc931c2b6aa8e608b08ba050e8f9a9eb", "lon": -77.03537566666667, "rental_uris": {"ios": "https://dc.lft.to/lastmile_qr_scan", "android": "https://dc.lft.to/lastmile_qr_scan"}}, {"name": "2296e851199c8cb848117b0e422cc0fc", "fusion_lat": 0.0, "type": "electric_scooter", "lat": 38.910222, "is_reserved": 0, "is_disabled": 0, "fusion_lon": 0.0, "bike_id": "2296e851199c8cb848117b0e422cc0fc", "lon": -77.02780233333333, "rental_uris": {"ios": "https://dc.lft.to/lastmile_qr_scan", "android": "https://dc.lft.to/lastmile_qr_scan"}}, {"name": "78418107a2d89cc442810946fc5ec89c", "fusion_lat": 0.0, "type": "electric_scooter", "lat": 38.91197366666667, "is_reserved": 0, "is_disabled": 0, "fusion_lon": 0.0, "bike_id": "78418107a2d89cc442810946fc5ec89c", "lon": -77.03145683333334, "rental_uris": {"ios": "https://dc.lft.to/lastmile_qr_scan", "android": "https://dc.lft.to/lastmile_qr_scan"}}, {"name": "5787800d0c03cd26a1cfa57b23c468ef", "fusion_lat": 0.0, "type": "electric_scooter", "lat": 38.911391, "is_reserved": 0, "is_disabled": 0, "fusion_lon": 0.0, "bike_id": "5787800d0c03cd26a1cfa57b23c468ef", "lon": -77.03663983333334, "rental_uris": {"ios": "https://dc.lft.to/lastmile_qr_scan", "android": "https://dc.lft.to/lastmile_qr_scan"}}, {"name": "dbab1d150a62677318b56477a3f954c5", "fusion_lat": 0.0, "type": "electric_scooter", "lat": 38.918311, "is_reserved": 0, "is_disabled": 0, "fusion_lon": 0.0, "bike_id": "dbab1d150a62677318b56477a3f954c5", "lon": -77.02301133333333, "rental_uris": {"ios": "https://dc.lft.to/lastmile_qr_scan", "android": "https://dc.lft.to/lastmile_qr_scan"}}, {"name": "795425534206400d379a55f8d292aee6", "fusion_lat": 0.0, "type": "electric_scooter", "lat": 38.860794166666665, "is_reserved": 0, "is_disabled": 0, "fusion_lon": 0.0, "bike_id": "795425534206400d379a55f8d292aee6", "lon": -76.9673415, "rental_uris": {"ios": "https://dc.lft.to/lastmile_qr_scan", "android": "https://dc.lft.to/lastmile_qr_scan"}}, {"name": "f2075b31af76c31315720a88d2d42562", "fusion_lat": 0.0, "type": "electric_scooter", "lat": 38.909666333333334, "is_reserved": 0, "is_disabled": 0, "fusion_lon": 0.0, "bike_id": "f2075b31af76c31315720a88d2d42562", "lon": -77.02382666666666, "rental_uris": {"ios": "https://dc.lft.to/lastmile_qr_scan", "android": "https://dc.lft.to/lastmile_qr_scan"}}, {"name": "8f9e39d314d42f8b60cb5794a0e49268", "fusion_lat": 0.0, "type": "electric_bike", "lat": 38.93122133333333, "is_reserved": 0, "is_disabled": 0, "fusion_lon": 0.0, "bike_id": "8f9e39d314d42f8b60cb5794a0e49268", "lon": -77.0271965, "rental_uris": {"ios": "https://dc.lft.to/lastmile_qr_scan", "android": "https://dc.lft.to/lastmile_qr_scan"}}, {"name": "b354bd3797251b8a25a8ca031f3634dd", "fusion_lat": 0.0, "type": "electric_scooter", "lat": 38.906663333333334, "is_reserved": 0, "is_disabled": 0, "fusion_lon": 0.0, "bike_id": "b354bd3797251b8a25a8ca031f3634dd", "lon": -77.02716783333334, "rental_uris": {"ios": "https://dc.lft.to/lastmile_qr_scan", "android": "https://dc.lft.to/lastmile_qr_scan"}}, {"name": "899ada4e02ba48514ed86228eb230068", "fusion_lat": 0.0, "type": "electric_scooter", "lat": 38.91944866666667, "is_reserved": 0, "is_disabled": 0, "fusion_lon": 0.0, "bike_id": "899ada4e02ba48514ed86228eb230068", "lon": -77.0454385, "rental_uris": {"ios": "https://dc.lft.to/lastmile_qr_scan", "android": "https://dc.lft.to/lastmile_qr_scan"}}, {"name": "01bc9220a5c7e1d3e586e3082bd1f3f3", "fusion_lat": 0.0, "type": "electric_scooter", "lat": 38.89994883333333, "is_reserved": 0, "is_disabled": 0, "fusion_lon": 0.0, "bike_id": "01bc9220a5c7e1d3e586e3082bd1f3f3", "lon": -77.02953383333333, "rental_uris": {"ios": "https://dc.lft.to/lastmile_qr_scan", "android": "https://dc.lft.to/lastmile_qr_scan"}}, {"name": "51e7a9be8a9e306486dfc6a248c97c75", "fusion_lat": 0.0, "type": "electric_scooter", "lat": 38.948047333333335, "is_reserved": 0, "is_disabled": 0, "fusion_lon": 0.0, "bike_id": "51e7a9be8a9e306486dfc6a248c97c75", "lon": -77.0791085, "rental_uris": {"ios": "https://dc.lft.to/lastmile_qr_scan", "android": "https://dc.lft.to/lastmile_qr_scan"}}, {"name": "3b3abc5847d07c56107a0a1a8385c26a", "fusion_lat": 0.0, "type": "electric_scooter", "lat": 38.927319833333335, "is_reserved": 0, "is_disabled": 0, "fusion_lon": 0.0, "bike_id": "3b3abc5847d07c56107a0a1a8385c26a", "lon": -77.02312066666667, "rental_uris": {"ios": "https://dc.lft.to/lastmile_qr_scan", "android": "https://dc.lft.to/lastmile_qr_scan"}}, {"name": "e2cdcecd9b1aed0a85a60daf474b10dd", "fusion_lat": 0.0, "type": "electric_scooter", "lat": 38.8884155, "is_reserved": 0, "is_disabled": 0, "fusion_lon": 0.0, "bike_id": "e2cdcecd9b1aed0a85a60daf474b10dd", "lon": -77.04904516666667, "rental_uris": {"ios": "https://dc.lft.to/lastmile_qr_scan", "android": "https://dc.lft.to/lastmile_qr_scan"}}, {"name": "7659beae0bedec5c2c260a167210cd92", "fusion_lat": 0.0, "type": "electric_scooter", "lat": 38.933748666666666, "is_reserved": 0, "is_disabled": 0, "fusion_lon": 0.0, "bike_id": "7659beae0bedec5c2c260a167210cd92", "lon": -77.03451166666666, "rental_uris": {"ios": "https://dc.lft.to/lastmile_qr_scan", "android": "https://dc.lft.to/lastmile_qr_scan"}}, {"name": "b2a7bc5afb590cd5c2cff9b156cc9c9e", "fusion_lat": 0.0, "type": "electric_scooter", "lat": 38.904225333333336, "is_reserved": 0, "is_disabled": 0, "fusion_lon": 0.0, "bike_id": "b2a7bc5afb590cd5c2cff9b156cc9c9e", "lon": -77.05321933333333, "rental_uris": {"ios": "https://dc.lft.to/lastmile_qr_scan", "android": "https://dc.lft.to/lastmile_qr_scan"}}, {"name": "8b217487595c655a19f367a916adad68", "fusion_lat": 0.0, "type": "electric_scooter", "lat": 38.917008833333334, "is_reserved": 0, "is_disabled": 0, "fusion_lon": 0.0, "bike_id": "8b217487595c655a19f367a916adad68", "lon": -77.04338016666667, "rental_uris": {"ios": "https://dc.lft.to/lastmile_qr_scan", "android": "https://dc.lft.to/lastmile_qr_scan"}}, {"name": "0b31fdbcfe36852a911038a00f1e857e", "fusion_lat": 0.0, "type": "electric_bike", "lat": 38.934886666666664, "is_reserved": 0, "is_disabled": 0, "fusion_lon": 0.0, "bike_id": "0b31fdbcfe36852a911038a00f1e857e", "lon": -77.07294016666667, "rental_uris": {"ios": "https://dc.lft.to/lastmile_qr_scan", "android": "https://dc.lft.to/lastmile_qr_scan"}}, {"name": "ded618e174ad873a68dcbf57da24e37b", "fusion_lat": 0.0, "type": "electric_scooter", "lat": 38.89485, "is_reserved": 0, "is_disabled": 0, "fusion_lon": 0.0, "bike_id": "ded618e174ad873a68dcbf57da24e37b", "lon": -76.94877433333333, "rental_uris": {"ios": "https://dc.lft.to/lastmile_qr_scan", "android": "https://dc.lft.to/lastmile_qr_scan"}}, {"name": "c5e914a1434543b84cbfc58747712dc9", "fusion_lat": 0.0, "type": "electric_scooter", "lat": 38.90834366666667, "is_reserved": 0, "is_disabled": 0, "fusion_lon": 0.0, "bike_id": "c5e914a1434543b84cbfc58747712dc9", "lon": -76.99976666666667, "rental_uris": {"ios": "https://dc.lft.to/lastmile_qr_scan", "android": "https://dc.lft.to/lastmile_qr_scan"}}, {"name": "812f53166e361a32191b7f1ec9b70b04", "fusion_lat": 0.0, "type": "electric_bike", "lat": 38.94553616666666, "is_reserved": 0, "is_disabled": 0, "fusion_lon": 0.0, "bike_id": "812f53166e361a32191b7f1ec9b70b04", "lon": -76.895379, "rental_uris": {"ios": "https://dc.lft.to/lastmile_qr_scan", "android": "https://dc.lft.to/lastmile_qr_scan"}}, {"name": "cd3394a5e4f2aa8d7c47b0e3755eebed", "fusion_lat": 0.0, "type": "electric_scooter", "lat": 38.892746, "is_reserved": 0, "is_disabled": 0, "fusion_lon": 0.0, "bike_id": "cd3394a5e4f2aa8d7c47b0e3755eebed", "lon": -77.03226183333334, "rental_uris": {"ios": "https://dc.lft.to/lastmile_qr_scan", "android": "https://dc.lft.to/lastmile_qr_scan"}}, {"name": "2ca6566afdb615322c1297922a390f31", "fusion_lat": 0.0, "type": "electric_scooter", "lat": 38.931259833333336, "is_reserved": 0, "is_disabled": 0, "fusion_lon": 0.0, "bike_id": "2ca6566afdb615322c1297922a390f31", "lon": -77.03602333333333, "rental_uris": {"ios": "https://dc.lft.to/lastmile_qr_scan", "android": "https://dc.lft.to/lastmile_qr_scan"}}, {"name": "52990c17cf772981df60f7c159e0c11b", "fusion_lat": 0.0, "type": "electric_scooter", "lat": 38.897726166666665, "is_reserved": 0, "is_disabled": 0, "fusion_lon": 0.0, "bike_id": "52990c17cf772981df60f7c159e0c11b", "lon": -76.99157316666667, "rental_uris": {"ios": "https://dc.lft.to/lastmile_qr_scan", "android": "https://dc.lft.to/lastmile_qr_scan"}}, {"name": "bba2f9d62fe4737f3e61396467c57e27", "fusion_lat": 0.0, "type": "electric_scooter", "lat": 38.9155215, "is_reserved": 0, "is_disabled": 0, "fusion_lon": 0.0, "bike_id": "bba2f9d62fe4737f3e61396467c57e27", "lon": -77.03851116666667, "rental_uris": {"ios": "https://dc.lft.to/lastmile_qr_scan", "android": "https://dc.lft.to/lastmile_qr_scan"}}, {"name": "39c830e28bc6fc5b2762549676a554d1", "fusion_lat": 0.0, "type": "electric_scooter", "lat": 38.883926, "is_reserved": 0, "is_disabled": 0, "fusion_lon": 0.0, "bike_id": "39c830e28bc6fc5b2762549676a554d1", "lon": -76.93045366666666, "rental_uris": {"ios": "https://dc.lft.to/lastmile_qr_scan", "android": "https://dc.lft.to/lastmile_qr_scan"}}, {"name": "ec72b99ca8c1d94701d8ce74c8db4538", "fusion_lat": 0.0, "type": "electric_scooter", "lat": 38.908112833333334, "is_reserved": 0, "is_disabled": 0, "fusion_lon": 0.0, "bike_id": "ec72b99ca8c1d94701d8ce74c8db4538", "lon": -77.02602, "rental_uris": {"ios": "https://dc.lft.to/lastmile_qr_scan", "android": "https://dc.lft.to/lastmile_qr_scan"}}, {"name": "c33663b31a1e23629e0d1b324bdd33fb", "fusion_lat": 0.0, "type": "electric_bike", "lat": 38.97324783333333, "is_reserved": 0, "is_disabled": 0, "fusion_lon": 0.0, "bike_id": "c33663b31a1e23629e0d1b324bdd33fb", "lon": -77.02145766666666, "rental_uris": {"ios": "https://dc.lft.to/lastmile_qr_scan", "android": "https://dc.lft.to/lastmile_qr_scan"}}, {"name": "90d6d0a42412172f05bbcbac04f2cc8a", "fusion_lat": 0.0, "type": "electric_scooter", "lat": 38.907623666666666, "is_reserved": 0, "is_disabled": 0, "fusion_lon": 0.0, "bike_id": "90d6d0a42412172f05bbcbac04f2cc8a", "lon": -77.00048633333333, "rental_uris": {"ios": "https://dc.lft.to/lastmile_qr_scan", "android": "https://dc.lft.to/lastmile_qr_scan"}}, {"name": "1ec556f2a17af57a9ad95339d25ae49b", "fusion_lat": 0.0, "type": "electric_scooter", "lat": 38.918184833333335, "is_reserved": 0, "is_disabled": 0, "fusion_lon": 0.0, "bike_id": "1ec556f2a17af57a9ad95339d25ae49b", "lon": -77.03169916666667, "rental_uris": {"ios": "https://dc.lft.to/lastmile_qr_scan", "android": "https://dc.lft.to/lastmile_qr_scan"}}, {"name": "aca8c5214dc781248cde927949909ab8", "fusion_lat": 0.0, "type": "electric_scooter", "lat": 38.90048616666667, "is_reserved": 0, "is_disabled": 0, "fusion_lon": 0.0, "bike_id": "aca8c5214dc781248cde927949909ab8", "lon": -77.04339866666666, "rental_uris": {"ios": "https://dc.lft.to/lastmile_qr_scan", "android": "https://dc.lft.to/lastmile_qr_scan"}}, {"name": "b3d5da2f346f36a0c179d6ba953d8ee0", "fusion_lat": 0.0, "type": "electric_scooter", "lat": 38.92845366666667, "is_reserved": 0, "is_disabled": 0, "fusion_lon": 0.0, "bike_id": "b3d5da2f346f36a0c179d6ba953d8ee0", "lon": -77.01378033333333, "rental_uris": {"ios": "https://dc.lft.to/lastmile_qr_scan", "android": "https://dc.lft.to/lastmile_qr_scan"}}, {"name": "df2ba482546927383e9fe6b049ce1620", "fusion_lat": 0.0, "type": "electric_scooter", "lat": 38.905128166666664, "is_reserved": 0, "is_disabled": 0, "fusion_lon": 0.0, "bike_id": "df2ba482546927383e9fe6b049ce1620", "lon": -77.06382183333334, "rental_uris": {"ios": "https://dc.lft.to/lastmile_qr_scan", "android": "https://dc.lft.to/lastmile_qr_scan"}}, {"name": "cbaaf24ac9b0062d512e810735ca2980", "fusion_lat": 0.0, "type": "electric_scooter", "lat": 38.94187566666667, "is_reserved": 0, "is_disabled": 0, "fusion_lon": 0.0, "bike_id": "cbaaf24ac9b0062d512e810735ca2980", "lon": -77.02491583333334, "rental_uris": {"ios": "https://dc.lft.to/lastmile_qr_scan", "android": "https://dc.lft.to/lastmile_qr_scan"}}, {"name": "bc79fb9caaa96ef1405ababe09cb2d43", "fusion_lat": 0.0, "type": "electric_scooter", "lat": 38.916157, "is_reserved": 0, "is_disabled": 0, "fusion_lon": 0.0, "bike_id": "bc79fb9caaa96ef1405ababe09cb2d43", "lon": -77.03854833333334, "rental_uris": {"ios": "https://dc.lft.to/lastmile_qr_scan", "android": "https://dc.lft.to/lastmile_qr_scan"}}, {"name": "ed82958a49969a155d415f4675c399cd", "fusion_lat": 0.0, "type": "electric_scooter", "lat": 38.8986215, "is_reserved": 0, "is_disabled": 0, "fusion_lon": 0.0, "bike_id": "ed82958a49969a155d415f4675c399cd", "lon": -76.99028866666667, "rental_uris": {"ios": "https://dc.lft.to/lastmile_qr_scan", "android": "https://dc.lft.to/lastmile_qr_scan"}}, {"name": "3e13f6ea326f09166e9c4a6d49d5cd6c", "fusion_lat": 0.0, "type": "electric_scooter", "lat": 38.900963, "is_reserved": 0, "is_disabled": 0, "fusion_lon": 0.0, "bike_id": "3e13f6ea326f09166e9c4a6d49d5cd6c", "lon": -77.01354283333333, "rental_uris": {"ios": "https://dc.lft.to/lastmile_qr_scan", "android": "https://dc.lft.to/lastmile_qr_scan"}}, {"name": "668648ed11d46ce5518f85058348b77f", "fusion_lat": 0.0, "type": "electric_scooter", "lat": 38.9399235, "is_reserved": 0, "is_disabled": 0, "fusion_lon": 0.0, "bike_id": "668648ed11d46ce5518f85058348b77f", "lon": -77.02961033333334, "rental_uris": {"ios": "https://dc.lft.to/lastmile_qr_scan", "android": "https://dc.lft.to/lastmile_qr_scan"}}, {"name": "7569241a6fa25c05f1e4b64697074b0a", "fusion_lat": 0.0, "type": "electric_scooter", "lat": 38.932580333333334, "is_reserved": 0, "is_disabled": 0, "fusion_lon": 0.0, "bike_id": "7569241a6fa25c05f1e4b64697074b0a", "lon": -77.04005216666667, "rental_uris": {"ios": "https://dc.lft.to/lastmile_qr_scan", "android": "https://dc.lft.to/lastmile_qr_scan"}}, {"name": "bc70557620f9eb80d3ee055dd19763ac", "fusion_lat": 0.0, "type": "electric_scooter", "lat": 38.91725866666667, "is_reserved": 0, "is_disabled": 0, "fusion_lon": 0.0, "bike_id": "bc70557620f9eb80d3ee055dd19763ac", "lon": -77.03664566666667, "rental_uris": {"ios": "https://dc.lft.to/lastmile_qr_scan", "android": "https://dc.lft.to/lastmile_qr_scan"}}, {"name": "815da9690f59fce5be59236cb0e5cb6c", "fusion_lat": 0.0, "type": "electric_scooter", "lat": 38.91413716666667, "is_reserved": 0, "is_disabled": 0, "fusion_lon": 0.0, "bike_id": "815da9690f59fce5be59236cb0e5cb6c", "lon": -77.02803933333334, "rental_uris": {"ios": "https://dc.lft.to/lastmile_qr_scan", "android": "https://dc.lft.to/lastmile_qr_scan"}}, {"name": "7f7a8814dc169082b837b2aa4e39042f", "fusion_lat": 0.0, "type": "electric_scooter", "lat": 38.91680933333333, "is_reserved": 0, "is_disabled": 0, "fusion_lon": 0.0, "bike_id": "7f7a8814dc169082b837b2aa4e39042f", "lon": -77.0318105, "rental_uris": {"ios": "https://dc.lft.to/lastmile_qr_scan", "android": "https://dc.lft.to/lastmile_qr_scan"}}, {"name": "ba6797b4af8733a78510490515bcba04", "fusion_lat": 0.0, "type": "electric_scooter", "lat": 38.924841666666666, "is_reserved": 0, "is_disabled": 0, "fusion_lon": 0.0, "bike_id": "ba6797b4af8733a78510490515bcba04", "lon": -77.02709016666667, "rental_uris": {"ios": "https://dc.lft.to/lastmile_qr_scan", "android": "https://dc.lft.to/lastmile_qr_scan"}}, {"name": "d195e5656d65a5269a7d6a80dc274f92", "fusion_lat": 0.0, "type": "electric_scooter", "lat": 38.88221583333333, "is_reserved": 0, "is_disabled": 0, "fusion_lon": 0.0, "bike_id": "d195e5656d65a5269a7d6a80dc274f92", "lon": -76.94176916666666, "rental_uris": {"ios": "https://dc.lft.to/lastmile_qr_scan", "android": "https://dc.lft.to/lastmile_qr_scan"}}, {"name": "6876af4e1933cfe220411f1d3ce43277", "fusion_lat": 0.0, "type": "electric_scooter", "lat": 38.916326, "is_reserved": 0, "is_disabled": 0, "fusion_lon": 0.0, "bike_id": "6876af4e1933cfe220411f1d3ce43277", "lon": -77.03595416666667, "rental_uris": {"ios": "https://dc.lft.to/lastmile_qr_scan", "android": "https://dc.lft.to/lastmile_qr_scan"}},