{"data": {"bikes": [{"is_reserved": 0, "type": "electric_scooter", "bike_id": "df0caad51bde78ca1c0fddd638dea551", "lat": 38.898382166666664, "lon": -77.02876716666667, "rental_uris": {"android": "https://dc.lft.to/lastmile_qr_scan", "ios": "https://dc.lft.to/lastmile_qr_scan"}, "is_disabled": 0, "fusion_lat": 0.0, "name": "df0caad51bde78ca1c0fddd638dea551", "fusion_lon": 0.0}, {"is_reserved": 0, "type": "electric_scooter", "bike_id": "8a84e91e6c8dd1eb1ac57c5cecd9b314", "lat": 38.905523, "lon": -77.00434416666667, "rental_uris": {"android": "https://dc.lft.to/lastmile_qr_scan", "ios": "https://dc.lft.to/lastmile_qr_scan"}, "is_disabled": 0, "fusion_lat": 0.0, "name": "8a84e91e6c8dd1eb1ac57c5cecd9b314", "fusion_lon": 0.0}, {"is_reserved": 0, "type": "electric_scooter", "bike_id": "a1e0ffe359973c50155e82a14d6ccd57", "lat": 38.917108666666664, "lon": -77.03873733333333, "rental_uris": {"android": "https://dc.lft.to/lastmile_qr_scan", "ios": "https://dc.lft.to/lastmile_qr_scan"}, "is_disabled": 0, "fusion_lat": 0.0, "name": "a1e0ffe359973c50155e82a14d6ccd57", "fusion_lon": 0.0}, {"is_reserved": 0, "type": "electric_scooter", "bike_id": "3b0cfd01b85aa465676dddc10d1a95aa", "lat": 38.9279735, "lon": -77.040626, "rental_uris": {"android": "https://dc.lft.to/lastmile_qr_scan", "ios": "https://dc.lft.to/lastmile_qr_scan"}, "is_disabled": 0, "fusion_lat": 0.0, "name": "3b0cfd01b85aa465676dddc10d1a95aa", "fusion_lon": 0.0}, {"is_reserved": 0, "type": "electric_scooter", "bike_id": "f738bafd678e5c39498095f68593eaa3", "lat": 38.95629266666667, "lon": -77.03565233333333, "rental_uris": {"android": "https://dc.lft.to/lastmile_qr_scan", "ios": "https://dc.lft.to/lastmile_qr_scan"}, "is_disabled": 0, "fusion_lat": 0.0, "name": "f738bafd678e5c39498095f68593eaa3", "fusion_lon": 0.0}, {"is_reserved": 0, "type": "electric_bike", "bike_id": "3af6ecb05d1bb649d500555695683ff0", "lat": 38.9902875, "lon": -77.02547183333333, "rental_uris": {"android": "https://dc.lft.to/lastmile_qr_scan", "ios": "https://dc.lft.to/lastmile_qr_scan"}, "is_disabled": 0, "fusion_lat": 0.0, "name": "3af6ecb05d1bb649d500555695683ff0", "fusion_lon": 0.0}, {"is_reserved": 0, "type": "electric_scooter", "bike_id": "7fa3ede35cdc862772e4c46833af2989", "lat": 38.8794155, "lon": -77.01664816666667, "rental_uris": {"android": "https://dc.lft.to/lastmile_qr_scan", "ios": "https://dc.lft.to/lastmile_qr_scan"}, "is_disabled": 0, "fusion_lat": 0.0, "name": "7fa3ede35cdc862772e4c46833af2989", "fusion_lon": 0.0}, {"is_reserved": 0, "type": "electric_scooter", "bike_id": "201585c477e1751efd25725002e82092", "lat": 38.91802033333333, "lon": -77.024888, "rental_uris": {"android": "https://dc.lft.to/lastmile_qr_scan", "ios": "https://dc.lft.to/lastmile_qr_scan"}, "is_disabled": 0, "fusion_lat": 0.0, "name": "201585c477e1751efd25725002e82092", "fusion_lon": 0.0}, {"is_reserved": 0, "type": "electric_scooter", "bike_id": "f840b083fe378c4dfed2f462fc5cf735", "lat": 38.91604233333333, "lon": -77.023014, "rental_uris": {"android": "https://dc.lft.to/lastmile_qr_scan", "ios": "https://dc.lft.to/lastmile_qr_scan"}, "is_disabled": 0, "fusion_lat": 0.0, "name": "f840b083fe378c4dfed2f462fc5cf735", "fusion_lon": 0.0}, {"is_reserved": 0, "type": "electric_scooter", "bike_id": "505a24f214efbffd59e4afaf4978eec7", "lat": 38.9190815, "lon": -77.0318805, "rental_uris": {"android": "https://dc.lft.to/lastmile_qr_scan", "ios": "https://dc.lft.to/lastmile_qr_scan"}, "is_disabled": 0, "fusion_lat": 0.0, "name": "505a24f214efbffd59e4afaf4978eec7", "fusion_lon": 0.0}, {"is_reserved": 0, "type": "electric_scooter", "bike_id": "682a9c80d215b13dcff9fd6c27d67566", "lat": 38.90504133333334, "lon": -76.991812, "rental_uris": {"android": "https://dc.lft.to/lastmile_qr_scan", "ios": "https://dc.lft.to/lastmile_qr_scan"}, "is_disabled": 0, "fusion_lat": 0.0, "name": "682a9c80d215b13dcff9fd6c27d67566", "fusion_lon": 0.0}, {"is_reserved": 0, "type": "electric_scooter", "bike_id": "15e0ef665d72893d714201a0258aabd4", "lat": 38.87942416666667, "lon": -77.00377066666667, "rental_uris": {"android": "https://dc.lft.to/lastmile_qr_scan", "ios": "https://dc.lft.to/lastmile_qr_scan"}, "is_disabled": 0, "fusion_lat": 0.0, "name": "15e0ef665d72893d714201a0258aabd4", "fusion_lon": 0.0}, {"is_reserved": 0, "type": "electric_scooter", "bike_id": "25a4c9c303fcd86e7805cdf37e61892e", "lat": 38.92099616666667, "lon": -77.030141, "rental_uris": {"android": "https://dc.lft.to/lastmile_qr_scan", "ios": "https://dc.lft.to/lastmile_qr_scan"}, "is_disabled": 0, "fusion_lat": 0.0, "name": "25a4c9c303fcd86e7805cdf37e61892e", "fusion_lon": 0.0}, {"is_reserved": 0, "type": "electric_scooter", "bike_id": "050fe704f7f8f3fe95fd0b966ff54152", "lat": 38.92080216666667, "lon": -77.0230225, "rental_uris": {"android": "https://dc.lft.to/lastmile_qr_scan", "ios": "https://dc.lft.to/lastmile_qr_scan"}, "is_disabled": 0, "fusion_lat": 0.0, "name": "050fe704f7f8f3fe95fd0b966ff54152", "fusion_lon": 0.0}, {"is_reserved": 0, "type": "electric_scooter", "bike_id": "e246fce865f18758cf753edcd2410bbb", "lat": 38.907932333333335, "lon": -77.01077383333333, "rental_uris": {"android": "https://dc.lft.to/lastmile_qr_scan", "ios": "https://dc.lft.to/lastmile_qr_scan"}, "is_disabled": 0, "fusion_lat": 0.0, "name": "e246fce865f18758cf753edcd2410bbb", "fusion_lon": 0.0}, {"is_reserved": 0, "type": "electric_scooter", "bike_id": "5c881442fc13ec84ea13fb5369a7532a", "lat": 38.90961933333333, "lon": -77.0235625, "rental_uris": {"android": "https://dc.lft.to/lastmile_qr_scan", "ios": "https://dc.lft.to/lastmile_qr_scan"}, "is_disabled": 0, "fusion_lat": 0.0, "name": "5c881442fc13ec84ea13fb5369a7532a", "fusion_lon": 0.0}, {"is_reserved": 0, "type": "electric_scooter", "bike_id": "436f2fac4651136cc95cd794eb779085", "lat": 38.894622166666664, "lon": -77.00344916666667, "rental_uris": {"android": "https://dc.lft.to/lastmile_qr_scan", "ios": "https://dc.lft.to/lastmile_qr_scan"}, "is_disabled": 0, "fusion_lat": 0.0, "name": "436f2fac4651136cc95cd794eb779085", "fusion_lon": 0.0}, {"is_reserved": 0, "type": "electric_scooter", "bike_id": "503542f1814610fe8543551f40d0d9e1", "lat": 38.945086, "lon": -77.033649, "rental_uris": {"android": "https://dc.lft.to/lastmile_qr_scan", "ios": "https://dc.lft.to/lastmile_qr_scan"}, "is_disabled": 0, "fusion_lat": 0.0, "name": "503542f1814610fe8543551f40d0d9e1", "fusion_lon": 0.0}, {"is_reserved": 0, "type": "electric_scooter", "bike_id": "d8e9d483e6a256f7d8db0260f105bb7b", "lat": 38.895363833333334, "lon": -77.01102, "rental_uris": {"android": "https://dc.lft.to/lastmile_qr_scan", "ios": "https://dc.lft.to/lastmile_qr_scan"}, "is_disabled": 0, "fusion_lat": 0.0, "name": "d8e9d483e6a256f7d8db0260f105bb7b", "fusion_lon": 0.0}, {"is_reserved": 0, "type": "electric_scooter", "bike_id": "b203954125955f51484159edca9a239c", "lat": 38.8970295, "lon": -77.0289425, "rental_uris": {"android": "https://dc.lft.to/lastmile_qr_scan", "ios": "https://dc.lft.to/lastmile_qr_scan"}, "is_disabled": 0, "fusion_lat": 0.0, "name": "b203954125955f51484159edca9a239c", "fusion_lon": 0.0}, {"is_reserved": 0, "type": "electric_bike", "bike_id": "87ac804f9e56c641ed4c1de0e1d66b30", "lat": 38.97482766666667, "lon": -77.01814366666666, "rental_uris": {"android": "https://dc.lft.to/lastmile_qr_scan", "ios": "https://dc.lft.to/lastmile_qr_scan"}, "is_disabled": 0, "fusion_lat": 0.0, "name": "87ac804f9e56c641ed4c1de0e1d66b30", "fusion_lon": 0.0}, {"is_reserved": 0, "type": "electric_scooter", "bike_id": "3eeae06ea552743697fcd80c9a617f5c", "lat": 38.898919, "lon": -77.03956933333333, "rental_uris": {"android": "https://dc.lft.to/lastmile_qr_scan", "ios": "https://dc.lft.to/lastmile_qr_scan"}, "is_disabled": 0, "fusion_lat": 0.0, "name": "3eeae06ea552743697fcd80c9a617f5c", "fusion_lon": 0.0}, {"is_reserved": 0, "type": "electric_scooter", "bike_id": "04b1ebaadce68d7f69218dc46ad5c679", "lat": 38.91907883333333, "lon": -77.044602, "rental_uris": {"android": "https://dc.lft.to/lastmile_qr_scan", "ios": "https://dc.lft.to/lastmile_qr_scan"}, "is_disabled": 0, "fusion_lat": 0.0, "name": "04b1ebaadce68d7f69218dc46ad5c679", "fusion_lon": 0.0}, {"is_reserved": 0, "type": "electric_scooter", "bike_id": "35cfc19056d88aae9ec9aeea286daee8", "lat": 38.9244105, "lon": -77.02025483333334, "rental_uris": {"android": "https://dc.lft.to/lastmile_qr_scan", "ios": "https://dc.lft.to/lastmile_qr_scan"}, "is_disabled": 0, "fusion_lat": 0.0, "name": "35cfc19056d88aae9ec9aeea286daee8", "fusion_lon": 0.0}, {"is_reserved": 0, "type": "electric_scooter", "bike_id": "4d03d0840cb4961e2451b6a09227fd84", "lat": 38.930467166666666, "lon": -77.02330833333333, "rental_uris": {"android": "https://dc.lft.to/lastmile_qr_scan", "ios": "https://dc.lft.to/lastmile_qr_scan"}, "is_disabled": 0, "fusion_lat": 0.0, "name": "4d03d0840cb4961e2451b6a09227fd84", "fusion_lon": 0.0}, {"is_reserved": 0, "type": "electric_scooter", "bike_id": "744bfaa53bd0a01dca0273c2492cdd89", "lat": 38.925661, "lon": -77.022847, "rental_uris": {"android": "https://dc.lft.to/lastmile_qr_scan", "ios": "https://dc.lft.to/lastmile_qr_scan"}, "is_disabled": 0, "fusion_lat": 0.0, "name": "744bfaa53bd0a01dca0273c2492cdd89", "fusion_lon": 0.0}, {"is_reserved": 0, "type": "electric_scooter", "bike_id": "853600445fd9de9adf3bdf9b7090e9b6", "lat": 38.9040955, "lon": -77.06894666666666, "rental_uris": {"android": "https://dc.lft.to/lastmile_qr_scan", "ios": "https://dc.lft.to/lastmile_qr_scan"}, "is_disabled": 0, "fusion_lat": 0.0, "name": "853600445fd9de9adf3bdf9b7090e9b6", "fusion_lon": 0.0}, {"is_reserved": 0, "type": "electric_scooter", "bike_id": "9f7fc68db715016dcbd995330659d555", "lat": 38.9042995, "lon": -77.038667, "rental_uris": {"android": "https://dc.lft.to/lastmile_qr_scan", "ios": "https://dc.lft.to/lastmile_qr_scan"}, "is_disabled": 0, "fusion_lat": 0.0, "name": "9f7fc68db715016dcbd995330659d555", "fusion_lon": 0.0}, {"is_reserved": 0, "type": "electric_scooter", "bike_id": "b5d0788bb0ddd11eea274620d93f89bc", "lat": 38.916946833333334, "lon": -77.05300116666666, "rental_uris": {"android": "https://dc.lft.to/lastmile_qr_scan", "ios": "https://dc.lft.to/lastmile_qr_scan"}, "is_disabled": 0, "fusion_lat": 0.0, "name": "b5d0788bb0ddd11eea274620d93f89bc", "fusion_lon": 0.0}, {"is_reserved": 0, "type": "electric_scooter", "bike_id": "0df353c75124078d1f9fd6a226369f2c", "lat": 38.95150433333333, "lon": -77.0186865, "rental_uris": {"android": "https://dc.lft.to/lastmile_qr_scan", "ios": "https://dc.lft.to/lastmile_qr_scan"}, "is_disabled": 0, "fusion_lat": 0.0, "name": "0df353c75124078d1f9fd6a226369f2c", "fusion_lon": 0.0}, {"is_reserved": 0, "type": "electric_scooter", "bike_id": "6419045d6b40b3043b39645703c1eba8", "lat": 38.91098933333333, "lon": -77.03854416666667, "rental_uris": {"android": "https://dc.lft.to/lastmile_qr_scan", "ios": "https://dc.lft.to/lastmile_qr_scan"}, "is_disabled": 0, "fusion_lat": 0.0, "name": "6419045d6b40b3043b39645703c1eba8", "fusion_lon": 0.0}, {"is_reserved": 0, "type": "electric_scooter", "bike_id": "8f35f7e53aa6a1ba42d554ae2de11a8e", "lat": 38.900334, "lon": -77.017687, "rental_uris": {"android": "https://dc.lft.to/lastmile_qr_scan", "ios": "https://dc.lft.to/lastmile_qr_scan"}, "is_disabled": 0, "fusion_lat": 0.0, "name": "8f35f7e53aa6a1ba42d554ae2de11a8e", "fusion_lon": 0.0}, {"is_reserved": 0, "type": "electric_scooter", "bike_id": "d1a6fe8af080bdb09e181376b0dab2a9", "lat": 38.92149966666667, "lon": -77.03512, "rental_uris": {"android": "https://dc.lft.to/lastmile_qr_scan", "ios": "https://dc.lft.to/lastmile_qr_scan"}, "is_disabled": 0, "fusion_lat": 0.0, "name": "d1a6fe8af080bdb09e181376b0dab2a9", "fusion_lon": 0.0}, {"is_reserved": 0, "type": "electric_scooter", "bike_id": "98854ff57e9e1587fd59c82c5f9a6681", "lat": 38.892269666666664, "lon": -77.04659433333333, "rental_uris": {"android": "https://dc.lft.to/lastmile_qr_scan", "ios": "https://dc.lft.to/lastmile_qr_scan"}, "is_disabled": 0, "fusion_lat": 0.0, "name": "98854ff57e9e1587fd59c82c5f9a6681", "fusion_lon": 0.0}, {"is_reserved": 0, "type": "electric_scooter", "bike_id": "aae2e06b4b204ff9edaa952ffde173f7", "lat": 38.943214, "lon": -77.07576466666667, "rental_uris": {"android": "https://dc.lft.to/lastmile_qr_scan", "ios": "https://dc.lft.to/lastmile_qr_scan"}, "is_disabled": 0, "fusion_lat": 0.0, "name": "aae2e06b4b204ff9edaa952ffde173f7", "fusion_lon": 0.0}, {"is_reserved": 0, "type": "electric_scooter", "bike_id": "f41090535140ac6ee620c2c37aefc4f2", "lat": 38.90785783333333, "lon": -77.00944583333333, "rental_uris": {"android": "https://dc.lft.to/lastmile_qr_scan", "ios": "https://dc.lft.to/lastmile_qr_scan"}, "is_disabled": 0, "fusion_lat": 0.0, "name": "f41090535140ac6ee620c2c37aefc4f2", "fusion_lon": 0.0}, {"is_reserved": 0, "type": "electric_scooter", "bike_id": "10711eb5acdbae65869d7bdcd258d900", "lat": 38.892820666666665, "lon": -77.01983516666667, "rental_uris": {"android": "https://dc.lft.to/lastmile_qr_scan", "ios": "https://dc.lft.to/lastmile_qr_scan"}, "is_disabled": 0, "fusion_lat": 0.0, "name": "10711eb5acdbae65869d7bdcd258d900", "fusion_lon": 0.0}, {"is_reserved": 0, "type": "electric_scooter", "bike_id": "667f957f3fcdd9faea8cb5f919aa435f", "lat": 38.898469666666664, "lon": -77.02226783333333, "rental_uris": {"android": "https://dc.lft.to/lastmile_qr_scan", "ios": "https://dc.lft.to/lastmile_qr_scan"}, "is_disabled": 0, "fusion_lat": 0.0, "name": "667f957f3fcdd9faea8cb5f919aa435f", "fusion_lon": 0.0}, {"is_reserved": 0, "type": "electric_scooter", "bike_id": "194078794347832a8b85efcc3e99a236", "lat": 38.90384916666667, "lon": -77.027358, "rental_uris": {"android": "https://dc.lft.to/lastmile_qr_scan", "ios": "https://dc.lft.to/lastmile_qr_scan"}, "is_disabled": 0, "fusion_lat": 0.0, "name": "194078794347832a8b85efcc3e99a236", "fusion_lon": 0.0}, {"is_reserved": 0, "type": "electric_scooter", "bike_id": "17985dca12f85c85be2b61727cb51e33", "lat": 38.9002955, "lon": -76.98767066666667, "rental_uris": {"android": "https://dc.lft.to/lastmile_qr_scan", "ios": "https://dc.lft.to/lastmile_qr_scan"}, "is_disabled": 0, "fusion_lat": 0.0, "name": "17985dca12f85c85be2b61727cb51e33", "fusion_lon": 0.0}, {"is_reserved": 0, "type": "electric_scooter", "bike_id": "8450fea688becbbc7c2ff8b5da400e67", "lat": 38.9117975, "lon": -77.03869666666667, "rental_uris": {"android": "https://dc.lft.to/lastmile_qr_scan", "ios": "https://dc.lft.to/lastmile_qr_scan"}, "is_disabled": 0, "fusion_lat": 0.0, "name": "8450fea688becbbc7c2ff8b5da400e67", "fusion_lon": 0.0}, {"is_reserved": 0, "type": "electric_scooter", "bike_id": "c62ce2a521d35a07055f0487a286e5e8", "lat": 38.93452216666667, "lon": -77.02104716666666, "rental_uris": {"android": "https://dc.lft.to/lastmile_qr_scan", "ios": "https://dc.lft.to/lastmile_qr_scan"}, "is_disabled": 0, "fusion_lat": 0.0, "name": "c62ce2a521d35a07055f0487a286e5e8", "fusion_lon": 0.0}, {"is_reserved": 0, "type": "electric_scooter", "bike_id": "6f7ad66cdd43cc564bf763c3955cb0e8", "lat": 38.88991, "lon": -76.99299816666667, "rental_uris": {"android": "https://dc.lft.to/lastmile_qr_scan", "ios": "https://dc.lft.to/lastmile_qr_scan"}, "is_disabled": 0, "fusion_lat": 0.0, "name": "6f7ad66cdd43cc564bf763c3955cb0e8", "fusion_lon": 0.0}, {"is_reserved": 0, "type": "electric_bike", "bike_id": "52d5077b550c26d5de5509ae00861e31", "lat": 38.83048333333333, "lon": -77.01250983333334, "rental_uris": {"android": "https://dc.lft.to/lastmile_qr_scan", "ios": "https://dc.lft.to/lastmile_qr_scan"}, "is_disabled": 0, "fusion_lat": 0.0, "name": "52d5077b550c26d5de5509ae00861e31", "fusion_lon": 0.0}, {"is_reserved": 0, "type": "electric_scooter", "bike_id": "cb63dd57d772d11ed6f174fcf49a7b51", "lat": 38.8827745, "lon": -76.99490133333333, "rental_uris": {"android": "https://dc.lft.to/lastmile_qr_scan", "ios": "https://dc.lft.to/lastmile_qr_scan"}, "is_disabled": 0, "fusion_lat": 0.0, "name": "cb63dd57d772d11ed6f174fcf49a7b51", "fusion_lon": 0.0}, {"is_reserved": 0, "type": "electric_scooter", "bike_id": "4f13a200205ca4869109a74de8f52681", "lat": 38.900305333333336, "lon": -76.9963085, "rental_uris": {"android": "https://dc.lft.to/lastmile_qr_scan", "ios": "https://dc.lft.to/lastmile_qr_scan"}, "is_disabled": 0, "fusion_lat": 0.0, "name": "4f13a200205ca4869109a74de8f52681", "fusion_lon": 0.0}, {"is_reserved": 0, "type": "electric_scooter", "bike_id": "e7abc96023f457b05ec0d843f2f47ec3", "lat": 38.91771966666667, "lon": -77.02316983333333, "rental_uris": {"android": "https://dc.lft.to/lastmile_qr_scan", "ios": "https://dc.lft.to/lastmile_qr_scan"}, "is_disabled": 0, "fusion_lat": 0.0, "name": "e7abc96023f457b05ec0d843f2f47ec3", "fusion_lon": 0.0}, {"is_reserved": 0, "type": "electric_bike", "bike_id": "5d4bd4be66c023cb5e864e0ae08fa97a", "lat": 39.084317, "lon": -76.951485, "rental_uris": {"android": "https://dc.lft.to/lastmile_qr_scan", "ios": "https://dc.lft.to/lastmile_qr_scan"}, "is_disabled": 0, "fusion_lat": 0.0, "name": "5d4bd4be66c023cb5e864e0ae08fa97a", "fusion_lon": 0.0}, {"is_reserved": 0, "type": "electric_scooter", "bike_id": "c47fb330b855d201febdada8f63c2adc", "lat": 38.912715, "lon": -77.03866416666666, "rental_uris": {"android": "https://dc.lft.to/lastmile_qr_scan", "ios": "https://dc.lft.to/lastmile_qr_scan"}, "is_disabled": 0, "fusion_lat": 0.0, "name": "c47fb330b855d201febdada8f63c2adc", "fusion_lon": 0.0}, {"is_reserved": 0, "type": "electric_bike", "bike_id": "b27729bc9e122dd02a47b9a6b1420122", "lat": 38.945368, "lon": -77.34462533333334, "rental_uris": {"android": "https://dc.lft.to/lastmile_qr_scan", "ios": "https://dc.lft.to/lastmile_qr_scan"}, "is_disabled": 0, "fusion_lat": 0.0, "name": "b27729bc9e122dd02a47b9a6b1420122", "fusion_lon": 0.0}, {"is_reserved": 0, "type": "electric_scooter", "bike_id": "b3d8f481e554914d447555188994c0df", "lat": 38.911084333333335, "lon": -77.03833616666667, "rental_uris": {"android": "https://dc.lft.to/lastmile_qr_scan", "ios": "https://dc.lft.to/lastmile_qr_scan"}, "is_disabled": 0, "fusion_lat": 0.0, "name": "b3d8f481e554914d447555188994c0df", "fusion_lon": 0.0}, {"is_reserved": 0, "type": "electric_scooter", "bike_id": "ea48b03b50b607b942951a9bb1d24ebb", "lat": 38.91569783333333, "lon": -77.03642, "rental_uris": {"android": "https://dc.lft.to/lastmile_qr_scan", "ios": "https://dc.lft.to/lastmile_qr_scan"}, "is_disabled": 0, "fusion_lat": 0.0, "name": "ea48b03b50b607b942951a9bb1d24ebb", "fusion_lon": 0.0}, {"is_reserved": 0, "type": "electric_scooter", "bike_id": "d3479a2558162711ab56eac3c127886d", "lat": 38.86569816666667, "lon": -76.99036316666667, "rental_uris": {"android": "https://dc.lft.to/lastmile_qr_scan", "ios": "https://dc.lft.to/lastmile_qr_scan"}, "is_disabled": 0, "fusion_lat": 0.0, "name": "d3479a2558162711ab56eac3c127886d", "fusion_lon": 0.0}, {"is_reserved": 0, "type": "electric_scooter", "bike_id": "b268cc3686e3c116782ae4d8566a8e24", "lat": 38.89726133333333, "lon": -77.02173133333334, "rental_uris": {"android": "https://dc.lft.to/lastmile_qr_scan", "ios": "https://dc.lft.to/lastmile_qr_scan"}, "is_disabled": 0, "fusion_lat": 0.0, "name": "b268cc3686e3c116782ae4d8566a8e24", "fusion_lon": 0.0}, {"is_reserved": 0, "type": "electric_bike", "bike_id": "188c80da6c18f9b27c0f3709a6fec949", "lat": 38.99934016666667, "lon": -77.05134766666667, "rental_uris": {"android": "https://dc.lft.to/lastmile_qr_scan", "ios": "https://dc.lft.to/lastmile_qr_scan"}, "is_disabled": 0, "fusion_lat": 0.0, "name": "188c80da6c18f9b27c0f3709a6fec949", "fusion_lon": 0.0}, {"is_reserved": 0, "type": "electric_scooter", "bike_id": "d83ece9b1b627d85bbab22752b88a669", "lat": 38.9179115, "lon": -77.04023116666667, "rental_uris": {"android": "https://dc.lft.to/lastmile_qr_scan", "ios": "https://dc.lft.to/lastmile_qr_scan"}, "is_disabled": 0, "fusion_lat": 0.0, "name": "d83ece9b1b627d85bbab22752b88a669", "fusion_lon": 0.0}, {"is_reserved": 0, "type": "electric_scooter", "bike_id": "7461c80bdc60e9d4449c66fe5f516ce0", "lat": 38.918698166666665, "lon": -77.03467083333334, "rental_uris": {"android": "https://dc.lft.to/lastmile_qr_scan", "ios": "https://dc.lft.to/lastmile_qr_scan"}, "is_disabled": 0, "fusion_lat": 0.0, "name": "7461c80bdc60e9d4449c66fe5f516ce0", "fusion_lon": 0.0}, {"is_reserved": 0, "type": "electric_scooter", "bike_id": "d144ed3f4dc5e19953d5de0be1a80762", "lat": 38.9073055, "lon": -77.0319895, "rental_uris": {"android": "https://dc.lft.to/lastmile_qr_scan", "ios": "https://dc.lft.to/lastmile_qr_scan"}, "is_disabled": 0, "fusion_lat": 0.0, "name": "d144ed3f4dc5e19953d5de0be1a80762", "fusion_lon": 0.0}, {"is_reserved": 0, "type": "electric_scooter", "bike_id": "14ac8c0c639a7166d64ef1496f592d8a", "lat": 38.92483433333334, "lon": -77.03241866666667, "rental_uris": {"android": "https://dc.lft.to/lastmile_qr_scan", "ios": "https://dc.lft.to/lastmile_qr_scan"}, "is_disabled": 0, "fusion_lat": 0.0, "name": "14ac8c0c639a7166d64ef1496f592d8a", "fusion_lon": 0.0}, {"is_reserved": 0, "type": "electric_scooter", "bike_id": "3dd5e0fad9a83f9a14dc9075beb917c2", "lat": 38.89348416666667, "lon": -77.028004, "rental_uris": {"android": "https://dc.lft.to/lastmile_qr_scan", "ios": "https://dc.lft.to/lastmile_qr_scan"}, "is_disabled": 0, "fusion_lat": 0.0, "name": "3dd5e0fad9a83f9a14dc9075beb917c2", "fusion_lon": 0.0}, {"is_reserved": 0, "type": "electric_bike", "bike_id": "363fa1947a28d9e3d8d078f0ca7fa15e", "lat": 38.97262816666667, "lon": -77.14969366666666, "rental_uris": {"android": "https://dc.lft.to/lastmile_qr_scan", "ios": "https://dc.lft.to/lastmile_qr_scan"}, "is_disabled": 0, "fusion_lat": 0.0, "name": "363fa1947a28d9e3d8d078f0ca7fa15e", "fusion_lon": 0.0}, {"is_reserved": 0, "type": "electric_scooter", "bike_id": "a41b5fed224ddf996046eb37d8e0b5f9", "lat": 38.90553033333333, "lon": -77.05701016666667, "rental_uris": {"android": "https://dc.lft.to/lastmile_qr_scan", "ios": "https://dc.lft.to/lastmile_qr_scan"}, "is_disabled": 0, "fusion_lat": 0.0, "name": "a41b5fed224ddf996046eb37d8e0b5f9", "fusion_lon": 0.0}, {"is_reserved": 0, "type": "electric_scooter", "bike_id": "f1576719c4ffd5dfab56ae77e8e1d852", "lat": 38.92340433333333, "lon": -77.0188905, "rental_uris": {"android": "https://dc.lft.to/lastmile_qr_scan", "ios": "https://dc.lft.to/lastmile_qr_scan"}, "is_disabled": 0, "fusion_lat": 0.0, "name": "f1576719c4ffd5dfab56ae77e8e1d852", "fusion_lon": 0.0}, {"is_reserved": 0, "type": "electric_scooter", "bike_id": "f2b45ddd776eda9996ec2a7b627c7664", "lat": 38.87472833333333, "lon": -77.0033515, "rental_uris": {"android": "https://dc.lft.to/lastmile_qr_scan", "ios": "https://dc.lft.to/lastmile_qr_scan"}, "is_disabled": 0, "fusion_lat": 0.0, "name": "f2b45ddd776eda9996ec2a7b627c7664", "fusion_lon": 0.0}, {"is_reserved": 0, "type": "electric_scooter", "bike_id": "485dc1203772d97a47f480fe793e92e8", "lat": 38.89830466666667, "lon": -77.01294783333333, "rental_uris": {"android": "https://dc.lft.to/lastmile_qr_scan", "ios": "https://dc.lft.to/lastmile_qr_scan"}, "is_disabled": 0, "fusion_lat": 0.0, "name": "485dc1203772d97a47f480fe793e92e8", "fusion_lon": 0.0}, {"is_reserved": 0, "type": "electric_scooter", "bike_id": "5dbaa3d7b44122124a94a1ec6a4aff1e", "lat": 38.8922055, "lon": -77.04368883333333, "rental_uris": {"android": "https://dc.lft.to/lastmile_qr_scan", "ios": "https://dc.lft.to/lastmile_qr_scan"}, "is_disabled": 0, "fusion_lat": 0.0, "name": "5dbaa3d7b44122124a94a1ec6a4aff1e", "fusion_lon": 0.0}, {"is_reserved": 0, "type": "electric_scooter", "bike_id": "53fe2b3b6361de93a838afedb91c7d95", "lat": 38.9041675, "lon": -77.02100583333333, "rental_uris": {"android": "https://dc.lft.to/lastmile_qr_scan", "ios": "https://dc.lft.to/lastmile_qr_scan"}, "is_disabled": 0, "fusion_lat": 0.0, "name": "53fe2b3b6361de93a838afedb91c7d95", "fusion_lon": 0.0}, {"is_reserved": 0, "type": "electric_scooter", "bike_id": "2ac7a930f666666b21c5221acb962788", "lat": 38.900371666666665, "lon": -76.991517, "rental_uris": {"android": "https://dc.lft.to/lastmile_qr_scan", "ios": "https://dc.lft.to/lastmile_qr_scan"}, "is_disabled": 0, "fusion_lat": 0.0, "name": "2ac7a930f666666b21c5221acb962788", "fusion_lon": 0.0}, {"is_reserved": 0, "type": "electric_scooter", "bike_id": "d3ad7b5d92dc2e3fee75acb1b1aea9b6", "lat": 38.9288385, "lon": -77.03255366666667, "rental_uris": {"android": "https://dc.lft.to/lastmile_qr_scan", "ios": "https://dc.lft.to/lastmile_qr_scan"}, "is_disabled": 0, "fusion_lat": 0.0, "name": "d3ad7b5d92dc2e3fee75acb1b1aea9b6", "fusion_lon": 0.0}, {"is_reserved": 0, "type": "electric_scooter", "bike_id": "c77184a19e93fb2f15225a2b4b4308d6", "lat": 38.9090305, "lon": -77.00306716666667, "rental_uris": {"android": "https://dc.lft.to/lastmile_qr_scan", "ios": "https://dc.lft.to/lastmile_qr_scan"}, "is_disabled": 0, "fusion_lat": 0.0, "name": "c77184a19e93fb2f15225a2b4b4308d6", "fusion_lon": 0.0}, {"is_reserved": 0, "type": "electric_scooter", "bike_id": "08d3b89622031a01b7869eccef072674", "lat": 38.91715116666666, "lon": -77.07283366666667, "rental_uris": {"android": "https://dc.lft.to/lastmile_qr_scan", "ios": "https://dc.lft.to/lastmile_qr_scan"}, "is_disabled": 0, "fusion_lat": 0.0, "name": "08d3b89622031a01b7869eccef072674", "fusion_lon": 0.0}, {"is_reserved": 0, "type": "electric_scooter", "bike_id": "36453f2e3e53eff642ceaf8015b27a31", "lat": 38.905667333333334, "lon": -77.04173533333334, "rental_uris": {"android": "https://dc.lft.to/lastmile_qr_scan", "ios": "https://dc.lft.to/lastmile_qr_scan"}, "is_disabled": 0, "fusion_lat": 0.0, "name": "36453f2e3e53eff642ceaf8015b27a31", "fusion_lon": 0.0}, {"is_reserved": 0, "type": "electric_scooter", "bike_id": "5a2c29be28b7d91dc06d06f594579ea1", "lat": 38.967906, "lon": -77.0243155, "rental_uris": {"android": "https://dc.lft.to/lastmile_qr_scan", "ios": "https://dc.lft.to/lastmile_qr_scan"}, "is_disabled": 0, "fusion_lat": 0.0, "name": "5a2c29be28b7d91dc06d06f594579ea1", "fusion_lon": 0.0}, {"is_reserved": 0, "type": "electric_scooter", "bike_id": "5906cbc8a067bb9cfc2140cb72585ee0", "lat": 38.9243795, "lon": -77.02020833333333, "rental_uris": {"android": "https://dc.lft.to/lastmile_qr_scan", "ios": "https://dc.lft.to/lastmile_qr_scan"}, "is_disabled": 0, "fusion_lat": 0.0, "name": "5906cbc8a067bb9cfc2140cb72585ee0", "fusion_lon": 0.0}, {"is_reserved": 0, "type": "electric_scooter", "bike_id": "e7f159851353ea2c9f6a54333cc4ce35", "lat": 38.927696166666664, "lon": -77.02708483333333, "rental_uris": {"android": "https://dc.lft.to/lastmile_qr_scan", "ios": "https://dc.lft.to/lastmile_qr_scan"}, "is_disabled": 0, "fusion_lat": 0.0, "name": "e7f159851353ea2c9f6a54333cc4ce35", "fusion_lon": 0.0}, {"is_reserved": 0, "type": "electric_scooter", "bike_id": "d9db38081af3a6439595774e85ea943f", "lat": 38.93236666666667, "lon": -76.994966, "rental_uris": {"android": "https://dc.lft.to/lastmile_qr_scan", "ios": "https://dc.lft.to/lastmile_qr_scan"}, "is_disabled": 0, "fusion_lat": 0.0, "name": "d9db38081af3a6439595774e85ea943f", "fusion_lon": 0.0}, {"is_reserved": 0, "type": "electric_scooter", "bike_id": "f571451dfabed5880da3e614b6bdae67", "lat": 38.9037995, "lon": -77.04174383333333, "rental_uris": {"android": "https://dc.lft.to/lastmile_qr_scan", "ios": "https://dc.lft.to/lastmile_qr_scan"}, "is_disabled": 0, "fusion_lat": 0.0, "name": "f571451dfabed5880da3e614b6bdae67", "fusion_lon": 0.0}, {"is_reserved": 0, "type": "electric_scooter", "bike_id": "fcc76f3e23137ff9182e331faaef396e", "lat": 38.932003333333334, "lon": -77.0385255, "rental_uris": {"android": "https://dc.lft.to/lastmile_qr_scan", "ios": "https://dc.lft.to/lastmile_qr_scan"}, "is_disabled": 0, "fusion_lat": 0.0, "name": "fcc76f3e23137ff9182e331faaef396e", "fusion_lon": 0.0}, {"is_reserved": 0, "type": "electric_scooter", "bike_id": "82713a2bc1216ea371ec88f7816000d1", "lat": 38.90027516666667, "lon": -76.99598933333333, "rental_uris": {"android": "https://dc.lft.to/lastmile_qr_scan", "ios": "https://dc.lft.to/lastmile_qr_scan"}, "is_disabled": 0, "fusion_lat": 0.0, "name": "82713a2bc1216ea371ec88f7816000d1", "fusion_lon": 0.0}, {"is_reserved": 0, "type": "electric_bike", "bike_id": "9edab5f8e3a1d941ab41ee49a12fda1a", "lat": 38.80382866666667, "lon": -76.98811533333334, "rental_uris": {"android": "https://dc.lft.to/lastmile_qr_scan", "ios": "https://dc.lft.to/lastmile_qr_scan"}, "is_disabled": 0, "fusion_lat": 0.0, "name": "9edab5f8e3a1d941ab41ee49a12fda1a", "fusion_lon": 0.0}, {"is_reserved": 0, "type": "electric_scooter", "bike_id": "8762e54f892d56056febc6e60e77cf09", "lat": 38.917866, "lon": -77.02320516666667, "rental_uris": {"android": "https://dc.lft.to/lastmile_qr_scan", "ios": "https://dc.lft.to/lastmile_qr_scan"}, "is_disabled": 0, "fusion_lat": 0.0, "name": "8762e54f892d56056febc6e60e77cf09", "fusion_lon": 0.0}, {"is_reserved": 0, "type": "electric_scooter", "bike_id": "a1b3bb0fa8d1e5fb1d19b82ebcd31732", "lat": 38.848147833333336, "lon": -76.97821866666666, "rental_uris": {"android": "https://dc.lft.to/lastmile_qr_scan", "ios": "https://dc.lft.to/lastmile_qr_scan"}, "is_disabled": 0, "fusion_lat": 0.0, "name": "a1b3bb0fa8d1e5fb1d19b82ebcd31732", "fusion_lon": 0.0}, {"is_reserved": 0, "type": "electric_scooter", "bike_id": "54598144faae2710708e2128b71abf5a", "lat": 38.926264833333335, "lon": -77.03784533333334, "rental_uris": {"android": "https://dc.lft.to/lastmile_qr_scan", "ios": "https://dc.lft.to/lastmile_qr_scan"}, "is_disabled": 0, "fusion_lat": 0.0, "name": "54598144faae2710708e2128b71abf5a", "fusion_lon": 0.0}, {"is_reserved": 0, "type": "electric_scooter", "bike_id": "b966dfd5f71341158e80ac6cf21bf511", "lat": 38.92388666666667, "lon": -77.0296805, "rental_uris": {"android": "https://dc.lft.to/lastmile_qr_scan", "ios": "https://dc.lft.to/lastmile_qr_scan"}, "is_disabled": 0, "fusion_lat": 0.0, "name": "b966dfd5f71341158e80ac6cf21bf511", "fusion_lon": 0.0}, {"is_reserved": 0, "type": "electric_scooter", "bike_id": "5bdcb6ab9937383c56e8402116718858", "lat": 38.901323, "lon": -76.99797566666666, "rental_uris": {"android": "https://dc.lft.to/lastmile_qr_scan", "ios": "https://dc.lft.to/lastmile_qr_scan"}, "is_disabled": 0, "fusion_lat": 0.0, "name": "5bdcb6ab9937383c56e8402116718858", "fusion_lon": 0.0}, {"is_reserved": 0, "type": "electric_scooter", "bike_id": "12848af102aba62275802f3dc2395258", "lat": 38.8958925, "lon": -77.0217275, "rental_uris": {"android": "https://dc.lft.to/lastmile_qr_scan", "ios": "https://dc.lft.to/lastmile_qr_scan"}, "is_disabled": 0, "fusion_lat": 0.0, "name": "12848af102aba62275802f3dc2395258", "fusion_lon": 0.0}, {"is_reserved": 0, "type": "electric_bike", "bike_id": "e475cff9e9b510eaeb9c5cbea7d7b91d", "lat": 38.9244465, "lon": -77.01918566666667, "rental_uris": {"android": "https://dc.lft.to/lastmile_qr_scan", "ios": "https://dc.lft.to/lastmile_qr_scan"}, "is_disabled": 0, "fusion_lat": 0.0, "name": "e475cff9e9b510eaeb9c5cbea7d7b91d", "fusion_lon": 0.0}, {"is_reserved": 0, "type": "electric_bike", "bike_id": "dfe4deff9d671a975e8f83cac4f8abbd", "lat": 38.81334566666666, "lon": -77.05119266666667, "rental_uris": {"android": "https://dc.lft.to/lastmile_qr_scan", "ios": "https://dc.lft.to/lastmile_qr_scan"}, "is_disabled": 0, "fusion_lat": 0.0, "name": "dfe4deff9d671a975e8f83cac4f8abbd", "fusion_lon": 0.0}, {"is_reserved": 0, "type": "electric_scooter", "bike_id": "b4c0b244c5472e6f759f41b37cb217dc", "lat": 38.93362183333333, "lon": -77.02731416666667, "rental_uris": {"android": "https://dc.lft.to/lastmile_qr_scan", "ios": "https://dc.lft.to/lastmile_qr_scan"}, "is_disabled": 0, "fusion_lat": 0.0, "name": "b4c0b244c5472e6f759f41b37cb217dc", "fusion_lon": 0.0}, {"is_reserved": 0, "type": "electric_scooter", "bike_id": "65a825335ad8b7a2db811b91bfd0ce95", "lat": 38.91341933333333, "lon": -77.0219465, "rental_uris": {"android": "https://dc.lft.to/lastmile_qr_scan", "ios": "https://dc.lft.to/lastmile_qr_scan"}, "is_disabled": 0, "fusion_lat": 0.0, "name": "65a825335ad8b7a2db811b91bfd0ce95", "fusion_lon": 0.0}, {"is_reserved": 0, "type": "electric_scooter", "bike_id": "ac30bf10c9895efd0ed44e93358fa5be", "lat": 38.932607833333336, "lon": -77.03854883333334, "rental_uris": {"android": "https://dc.lft.to/lastmile_qr_scan", "ios": "https://dc.lft.to/lastmile_qr_scan"}, "is_disabled": 0, "fusion_lat": 0.0, "name": "ac30bf10c9895efd0ed44e93358fa5be", "fusion_lon": 0.0}, {"is_reserved": 0, "type": "electric_scooter", "bike_id": "18441852a315dd0a2b048f11bdf64624", "lat": 38.900348666666666, "lon": -76.99151416666666, "rental_uris": {"android": "https://dc.lft.to/lastmile_qr_scan", "ios": "https://dc.lft.to/lastmile_qr_scan"}, "is_disabled": 0, "fusion_lat": 0.0, "name": "18441852a315dd0a2b048f11bdf64624", "fusion_lon": 0.0}, {"is_reserved": 0, "type": "electric_scooter", "bike_id": "088848b66bb9900e9d26457ef6850cd3", "lat": 38.892261500000004, "lon": -77.02178333333333, "rental_uris": {"android": "https://dc.lft.to/lastmile_qr_scan", "ios": "https://dc.lft.to/lastmile_qr_scan"}, "is_disabled": 0, "fusion_lat": 0.0, "name": "088848b66bb9900e9d26457ef6850cd3", "fusion_lon": 0.0}, {"is_reserved": 0, "type": "electric_scooter", "bike_id": "83998f906ac5901259473bbdd0712337", "lat": 38.9225145, "lon": -76.99753733333333, "rental_uris": {"android": "https://dc.lft.to/lastmile_qr_scan", "ios": "https://dc.lft.to/lastmile_qr_scan"}, "is_disabled": 0, "fusion_lat": 0.0, "name": "83998f906ac5901259473bbdd0712337", "fusion_lon": 0.0}, {"is_reserved": 0, "type": "electric_scooter", "bike_id": "62184da18853bef2b8a74f0812e9007c", "lat": 38.89932966666667, "lon": -77.031931, "rental_uris": {"android": "https://dc.lft.to/lastmile_qr_scan", "ios": "https://dc.lft.to/lastmile_qr_scan"}, "is_disabled": 0, "fusion_lat": 0.0, "name": "62184da18853bef2b8a74f0812e9007c", "fusion_lon": 0.0}, {"is_reserved": 0, "type": "electric_scooter", "bike_id": "3dbb7ea4484b93dea02f61e00b2782a8", "lat": 38.89362366666667, "lon": -76.94106, "rental_uris": {"android": "https://dc.lft.to/lastmile_qr_scan", "ios": "https://dc.lft.to/lastmile_qr_scan"}, "is_disabled": 0, "fusion_lat": 0.0, "name": "3dbb7ea4484b93dea02f61e00b2782a8", "fusion_lon": 0.0}, {"is_reserved": 0, "type": "electric_scooter", "bike_id": "cdc386017e0412f597fed6a8fa187822", "lat": 38.922368166666665, "lon": -77.02126816666667, "rental_uris": {"android": "https://dc.lft.to/lastmile_qr_scan", "ios": "https://dc.lft.to/lastmile_qr_scan"}, "is_disabled": 0, "fusion_lat": 0.0, "name": "cdc386017e0412f597fed6a8fa187822", "fusion_lon": 0.0}, {"is_reserved": 0, "type": "electric_scooter", "bike_id": "9c3f390189321c38a5bf44ccdc00112d", "lat": 38.928803, "lon": -77.03222583333333, "rental_uris": {"android": "https://dc.lft.to/lastmile_qr_scan", "ios": "https://dc.lft.to/lastmile_qr_scan"}, "is_disabled": 0, "fusion_lat": 0.0, "name": "9c3f390189321c38a5bf44ccdc00112d", "fusion_lon": 0.0}, {"is_reserved": 0, "type": "electric_scooter", "bike_id": "10a0a888c7a0acf8a13666e211a090e1", "lat": 38.94733816666667, "lon": -77.02459366666666, "rental_uris": {"android": "https://dc.lft.to/lastmile_qr_scan", "ios": "https://dc.lft.to/lastmile_qr_scan"}, "is_disabled": 0, "fusion_lat": 0.0, "name": "10a0a888c7a0acf8a13666e211a090e1", "fusion_lon": 0.0}, {"is_reserved": 0, "type": "electric_scooter", "bike_id": "fdb898f21d8c88e5c12919736b06c23a", "lat": 38.91129216666667, "lon": -77.02200783333333, "rental_uris": {"android": "https://dc.lft.to/lastmile_qr_scan", "ios": "https://dc.lft.to/lastmile_qr_scan"}, "is_disabled": 0, "fusion_lat": 0.0, "name": "fdb898f21d8c88e5c12919736b06c23a", "fusion_lon": 0.0}, {"is_reserved": 0, "type": "electric_scooter", "bike_id": "d0916568437fbc43206d3ff1e5762728", "lat": 38.933741, "lon": -77.05721066666666, "rental_uris": {"android": "https://dc.lft.to/lastmile_qr_scan", "ios": "https://dc.lft.to/lastmile_qr_scan"}, "is_disabled": 0, "fusion_lat": 0.0, "name": "d0916568437fbc43206d3ff1e5762728", "fusion_lon": 0.0}, {"is_reserved": 0, "type": "electric_scooter", "bike_id": "b0bb23528ff9ba2af40a863e0e0025e0", "lat": 38.925663166666666, "lon": -76.97009266666667, "rental_uris": {"android": "https://dc.lft.to/lastmile_qr_scan", "ios": "https://dc.lft.to/lastmile_qr_scan"}, "is_disabled": 0, "fusion_lat": 0.0, "name": "b0bb23528ff9ba2af40a863e0e0025e0", "fusion_lon": 0.0}, {"is_reserved": 0, "type": "electric_bike", "bike_id": "5894433b291ea73c183a50b744f92b0e", "lat": 38.95134, "lon": -76.96596166666667, "rental_uris": {"android": "https://dc.lft.to/lastmile_qr_scan", "ios": "https://dc.lft.to/lastmile_qr_scan"}, "is_disabled": 0, "fusion_lat": 0.0, "name": "5894433b291ea73c183a50b744f92b0e", "fusion_lon": 0.0}, {"is_reserved": 0, "type": "electric_scooter", "bike_id": "9b5d6cc1d6f2142d2e88ba47f3a2a83d", "lat": 38.908231, "lon": -77.03478983333333, "rental_uris": {"android": "https://dc.lft.to/lastmile_qr_scan", "ios": "https://dc.lft.to/lastmile_qr_scan"}, "is_disabled": 0, "fusion_lat": 0.0, "name": "9b5d6cc1d6f2142d2e88ba47f3a2a83d", "fusion_lon": 0.0}, {"is_reserved": 0, "type": "electric_scooter", "bike_id": "e6ee45fdf5577039c0091633201980ce", "lat": 38.89222383333333, "lon": -77.02313583333333, "rental_uris": {"android": "https://dc.lft.to/lastmile_qr_scan", "ios": "https://dc.lft.to/lastmile_qr_scan"}, "is_disabled": 0, "fusion_lat": 0.0, "name": "e6ee45fdf5577039c0091633201980ce", "fusion_lon": 0.0}, {"is_reserved": 0, "type": "electric_scooter", "bike_id": "c63a857b7d3142721b0c140ba8b4e070", "lat": 38.93109033333333, "lon": -77.0348385, "rental_uris": {"android": "https://dc.lft.to/lastmile_qr_scan", "ios": "https://dc.lft.to/lastmile_qr_scan"}, "is_disabled": 0, "fusion_lat": 0.0, "name": "c63a857b7d3142721b0c140ba8b4e070", "fusion_lon": 0.0}, {"is_reserved": 0, "type": "electric_scooter", "bike_id": "3bcbd94bbaea263bccd8f3e15869550c", "lat": 38.930303, "lon": -77.0831105, "rental_uris": {"android": "https://dc.lft.to/lastmile_qr_scan", "ios": "https://dc.lft.to/lastmile_qr_scan"}, "is_disabled": 0, "fusion_lat": 0.0, "name": "3bcbd94bbaea263bccd8f3e15869550c", "fusion_lon": 0.0}, {"is_reserved": 0, "type": "electric_scooter", "bike_id": "9d99289884c1a1ebb0158a8924c302dd", "lat": 38.92381533333333, "lon": -77.02740566666667, "rental_uris": {"android": "https://dc.lft.to/lastmile_qr_scan", "ios": "https://dc.lft.to/lastmile_qr_scan"}, "is_disabled": 0, "fusion_lat": 0.0, "name": "9d99289884c1a1ebb0158a8924c302dd", "fusion_lon": 0.0}, {"is_reserved": 0, "type": "electric_scooter", "bike_id": "a00976d533760eb6fc59dae0a1ce3688", "lat": 38.898269, "lon": -77.04827766666666, "rental_uris": {"android": "https://dc.lft.to/lastmile_qr_scan", "ios": "https://dc.lft.to/lastmile_qr_scan"}, "is_disabled": 0, "fusion_lat": 0.0, "name": "a00976d533760eb6fc59dae0a1ce3688", "fusion_lon": 0.0}, {"is_reserved": 0, "type": "electric_scooter", "bike_id": "feae8e19b91e75b12e663ee73558ba1b", "lat": 38.904893, "lon": -77.048506, "rental_uris": {"android": "https://dc.lft.to/lastmile_qr_scan", "ios": "https://dc.lft.to/lastmile_qr_scan"}, "is_disabled": 0, "fusion_lat": 0.0, "name": "feae8e19b91e75b12e663ee73558ba1b", "fusion_lon": 0.0}, {"is_reserved": 0, "type": "electric_scooter", "bike_id": "cc86a1f8aeba3b6148cc373f5fa02dcf", "lat": 38.906178, "lon": -77.03298366666667, "rental_uris": {"android": "https://dc.lft.to/lastmile_qr_scan", "ios": "https://dc.lft.to/lastmile_qr_scan"}, "is_disabled": 0, "fusion_lat": 0.0, "name": "cc86a1f8aeba3b6148cc373f5fa02dcf", "fusion_lon": 0.0}, {"is_reserved": 0, "type": "electric_scooter", "bike_id": "7ca072350e130b496aaca4fb788fb2dd", "lat": 38.895264, "lon": -77.02952183333333, "rental_uris": {"android": "https://dc.lft.to/lastmile_qr_scan", "ios": "https://dc.lft.to/lastmile_qr_scan"}, "is_disabled": 0, "fusion_lat": 0.0, "name": "7ca072350e130b496aaca4fb788fb2dd", "fusion_lon": 0.0}, {"is_reserved": 0, "type": "electric_scooter", "bike_id": "a37136ff84f2c1ac944d7d51f8a9a4b6", "lat": 38.89230233333333, "lon": -77.02205233333333, "rental_uris": {"android": "https://dc.lft.to/lastmile_qr_scan", "ios": "https://dc.lft.to/lastmile_qr_scan"}, "is_disabled": 0, "fusion_lat": 0.0, "name": "a37136ff84f2c1ac944d7d51f8a9a4b6", "fusion_lon": 0.0}, {"is_reserved": 0, "type": "electric_scooter", "bike_id": "3f47bfd331f48c5e243dcf22fc1aefca", "lat": 38.89715866666667, "lon": -77.00799983333333, "rental_uris": {"android": "https://dc.lft.to/lastmile_qr_scan", "ios": "https://dc.lft.to/lastmile_qr_scan"}, "is_disabled": 0, "fusion_lat": 0.0, "name": "3f47bfd331f48c5e243dcf22fc1aefca", "fusion_lon": 0.0}, {"is_reserved": 0, "type": "electric_scooter", "bike_id": "a429862a86f907d63f013af68fe5018d", "lat": 38.92104883333333, "lon": -77.04188733333334, "rental_uris": {"android": "https://dc.lft.to/lastmile_qr_scan", "ios": "https://dc.lft.to/lastmile_qr_scan"}, "is_disabled": 0, "fusion_lat": 0.0, "name": "a429862a86f907d63f013af68fe5018d", "fusion_lon": 0.0}, {"is_reserved": 0, "type": "electric_scooter", "bike_id": "3e1abcd9bc854b1a493977f93ff96638", "lat": 38.921493, "lon": -77.03506033333333, "rental_uris": {"android": "https://dc.lft.to/lastmile_qr_scan", "ios": "https://dc.lft.to/lastmile_qr_scan"}, "is_disabled": 0, "fusion_lat": 0.0, "name": "3e1abcd9bc854b1a493977f93ff96638", "fusion_lon": 0.0}, {"is_reserved": 0, "type": "electric_scooter", "bike_id": "cc963a72a7b985ae56d5058c19379812", "lat": 38.90510116666667, "lon": -77.06381883333333, "rental_uris": {"android": "https://dc.lft.to/lastmile_qr_scan", "ios": "https://dc.lft.to/lastmile_qr_scan"}, "is_disabled": 0, "fusion_lat": 0.0, "name": "cc963a72a7b985ae56d5058c19379812", "fusion_lon": 0.0}, {"is_reserved": 0, "type": "electric_scooter", "bike_id": "b64c77670b36b619d87e24672f2f71fb", "lat": 38.93566116666667, "lon": -77.0326165, "rental_uris": {"android": "https://dc.lft.to/lastmile_qr_scan", "ios": "https://dc.lft.to/lastmile_qr_scan"}, "is_disabled": 0, "fusion_lat": 0.0, "name": "b64c77670b36b619d87e24672f2f71fb", "fusion_lon": 0.0}, {"is_reserved": 0, "type": "electric_scooter", "bike_id": "47748db983cb1025f8330766e11c627a", "lat": 38.89927616666667, "lon": -77.03214866666667, "rental_uris": {"android": "https://dc.lft.to/lastmile_qr_scan", "ios": "https://dc.lft.to/lastmile_qr_scan"}, "is_disabled": 0, "fusion_lat": 0.0, "name": "47748db983cb1025f8330766e11c627a", "fusion_lon": 0.0}, {"is_reserved": 0, "type": "electric_scooter", "bike_id": "5189ea92fdb3d3f1ea8af76dc73a4932", "lat": 38.92583483333333, "lon": -77.0122315, "rental_uris": {"android": "https://dc.lft.to/lastmile_qr_scan", "ios": "https://dc.lft.to/lastmile_qr_scan"}, "is_disabled": 0, "fusion_lat": 0.0, "name": "5189ea92fdb3d3f1ea8af76dc73a4932", "fusion_lon": 0.0}, {"is_reserved": 0, "type": "electric_bike", "bike_id": "de3efe3516c333022c8ea97bd9683f59", "lat": 38.840504833333334, "lon": -77.0559895, "rental_uris": {"android": "https://dc.lft.to/lastmile_qr_scan", "ios": "https://dc.lft.to/lastmile_qr_scan"}, "is_disabled": 0, "fusion_lat": 0.0, "name": "de3efe3516c333022c8ea97bd9683f59", "fusion_lon": 0.0}, {"is_reserved": 0, "type": "electric_scooter", "bike_id": "edabf3c1102ca5165dcdf6dabeb65f4b", "lat": 38.923649, "lon": -77.0365795, "rental_uris": {"android": "https://dc.lft.to/lastmile_qr_scan", "ios": "https://dc.lft.to/lastmile_qr_scan"}, "is_disabled": 0, "fusion_lat": 0.0, "name": "edabf3c1102ca5165dcdf6dabeb65f4b", "fusion_lon": 0.0}, {"is_reserved": 0, "type": "electric_scooter", "bike_id": "3329384590b83a9906f6ef2e98482d51", "lat": 38.904727666666666, "lon": -77.02618516666666, "rental_uris": {"android": "https://dc.lft.to/lastmile_qr_scan", "ios": "https://dc.lft.to/lastmile_qr_scan"}, "is_disabled": 0, "fusion_lat": 0.0, "name": "3329384590b83a9906f6ef2e98482d51", "fusion_lon": 0.0}, {"is_reserved": 0, "type": "electric_scooter", "bike_id": "314af0680b60f375bb726805ec66ecd7", "lat": 38.952659, "lon": -77.02391416666667, "rental_uris": {"android": "https://dc.lft.to/lastmile_qr_scan", "ios": "https://dc.lft.to/lastmile_qr_scan"}, "is_disabled": 0, "fusion_lat": 0.0, "name": "314af0680b60f375bb726805ec66ecd7", "fusion_lon": 0.0}, {"is_reserved": 0, "type": "electric_scooter", "bike_id": "f6e9a82951bf1140ec342a6e103080d4", "lat": 38.91180133333334, "lon": -77.00459333333333, "rental_uris": {"android": "https://dc.lft.to/lastmile_qr_scan", "ios": "https://dc.lft.to/lastmile_qr_scan"}, "is_disabled": 0, "fusion_lat": 0.0, "name": "f6e9a82951bf1140ec342a6e103080d4", "fusion_lon": 0.0}, {"is_reserved": 0, "type": "electric_scooter", "bike_id": "37fa464e11254229ed63f01be8a04abd", "lat": 38.92393283333333, "lon": -77.050571, "rental_uris": {"android": "https://dc.lft.to/lastmile_qr_scan", "ios": "https://dc.lft.to/lastmile_qr_scan"}, "is_disabled": 0, "fusion_lat": 0.0, "name": "37fa464e11254229ed63f01be8a04abd", "fusion_lon": 0.0}, {"is_reserved": 0, "type": "electric_scooter", "bike_id": "c325f42f146f04733656ff7c29a741f0", "lat": 38.92602383333333, "lon": -77.03944166666666, "rental_uris": {"android": "https://dc.lft.to/lastmile_qr_scan", "ios": "https://dc.lft.to/lastmile_qr_scan"}, "is_disabled": 0, "fusion_lat": 0.0, "name": "c325f42f146f04733656ff7c29a741f0", "fusion_lon": 0.0}, {"is_reserved": 0, "type": "electric_bike", "bike_id": "2c62ad15442eb0cacf0580907e2b315f", "lat": 38.94920116666667, "lon": -77.00799083333334, "rental_uris": {"android": "https://dc.lft.to/lastmile_qr_scan", "ios": "https://dc.lft.to/lastmile_qr_scan"}, "is_disabled": 0, "fusion_lat": 0.0, "name": "2c62ad15442eb0cacf0580907e2b315f", "fusion_lon": 0.0}, {"is_reserved": 0, "type": "electric_bike", "bike_id": "7bbc4c667ebbd13dcbbb04a9089d3530", "lat": 38.89460833333333, "lon": -77.019934, "rental_uris": {"android": "https://dc.lft.to/lastmile_qr_scan", "ios": "https://dc.lft.to/lastmile_qr_scan"}, "is_disabled": 0, "fusion_lat": 0.0, "name": "7bbc4c667ebbd13dcbbb04a9089d3530", "fusion_lon": 0.0}, {"is_reserved": 0, "type": "electric_scooter", "bike_id": "a74ac41b869519eb323658c00e3a5425", "lat": 38.91127866666667, "lon": -77.02198766666666, "rental_uris": {"android": "https://dc.lft.to/lastmile_qr_scan", "ios": "https://dc.lft.to/lastmile_qr_scan"}, "is_disabled": 0, "fusion_lat": 0.0, "name": "a74ac41b869519eb323658c00e3a5425", "fusion_lon": 0.0}, {"is_reserved": 0, "type": "electric_scooter", "bike_id": "12246c752e0b1b96ab6ea40bb8572345", "lat": 38.95182116666667, "lon": -77.026159, "rental_uris": {"android": "https://dc.lft.to/lastmile_qr_scan", "ios": "https://dc.lft.to/lastmile_qr_scan"}, "is_disabled": 0, "fusion_lat": 0.0, "name": "12246c752e0b1b96ab6ea40bb8572345", "fusion_lon": 0.0}, {"is_reserved": 0, "type": "electric_bike", "bike_id": "deedeccb44bf7b7c9790393449e13074", "lat": 38.99533566666667, "lon": -77.0743605, "rental_uris": {"android": "https://dc.lft.to/lastmile_qr_scan", "ios": "https://dc.lft.to/lastmile_qr_scan"}, "is_disabled": 0, "fusion_lat": 0.0, "name": "deedeccb44bf7b7c9790393449e13074", "fusion_lon": 0.0}, {"is_reserved": 0, "type": "electric_scooter", "bike_id": "e856561532f1dc3abe688e0ce939ea87", "lat": 38.90554183333333, "lon": -77.00577933333334, "rental_uris": {"android": "https://dc.lft.to/lastmile_qr_scan", "ios": "https://dc.lft.to/lastmile_qr_scan"}, "is_disabled": 0, "fusion_lat": 0.0, "name": "e856561532f1dc3abe688e0ce939ea87", "fusion_lon": 0.0}, {"is_reserved": 0, "type": "electric_scooter", "bike_id": "083e5ec43dd946480f83ebcc705d99fe", "lat": 38.89709583333333, "lon": -77.05360733333333, "rental_uris": {"android": "https://dc.lft.to/lastmile_qr_scan", "ios": "https://dc.lft.to/lastmile_qr_scan"}, "is_disabled": 0, "fusion_lat": 0.0, "name": "083e5ec43dd946480f83ebcc705d99fe", "fusion_lon": 0.0}, {"is_reserved": 0, "type": "electric_scooter", "bike_id": "9beb14cf5626792ba7e48b84ee0f8530", "lat": 38.922476833333334, "lon": -77.0288405, "rental_uris": {"android": "https://dc.lft.to/lastmile_qr_scan", "ios": "https://dc.lft.to/lastmile_qr_scan"}, "is_disabled": 0, "fusion_lat": 0.0, "name": "9beb14cf5626792ba7e48b84ee0f8530", "fusion_lon": 0.0}, {"is_reserved": 0, "type": "electric_scooter", "bike_id": "abda468468aaf62ec688eaa6794d9b87", "lat": 38.89904966666667, "lon": -77.00356633333334, "rental_uris": {"android": "https://dc.lft.to/lastmile_qr_scan", "ios": "https://dc.lft.to/lastmile_qr_scan"}, "is_disabled": 0, "fusion_lat": 0.0, "name": "abda468468aaf62ec688eaa6794d9b87", "fusion_lon": 0.0}, {"is_reserved": 0, "type": "electric_scooter", "bike_id": "00037c50fb5a6b0ec53655ff5d7a1005", "lat": 38.87210833333334, "lon": -77.01547683333334, "rental_uris": {"android": "https://dc.lft.to/lastmile_qr_scan", "ios": "https://dc.lft.to/lastmile_qr_scan"}, "is_disabled": 0, "fusion_lat": 0.0, "name": "00037c50fb5a6b0ec53655ff5d7a1005", "fusion_lon": 0.0}, {"is_reserved": 0, "type": "electric_scooter", "bike_id": "4c35e121c43b64d5487faf75c855c922", "lat": 38.9017765, "lon": -76.928918, "rental_uris": {"android": "https://dc.lft.to/lastmile_qr_scan", "ios": "https://dc.lft.to/lastmile_qr_scan"}, "is_disabled": 0, "fusion_lat": 0.0, "name": "4c35e121c43b64d5487faf75c855c922", "fusion_lon": 0.0}, {"is_reserved": 0, "type": "electric_scooter", "bike_id": "82abcddf8f9516037009d02790021a6c", "lat": 38.90679083333333, "lon": -77.06289416666667, "rental_uris": {"android": "https://dc.lft.to/lastmile_qr_scan", "ios": "https://dc.lft.to/lastmile_qr_scan"}, "is_disabled": 0, "fusion_lat": 0.0, "name": "82abcddf8f9516037009d02790021a6c", "fusion_lon": 0.0}, {"is_reserved": 0, "type": "electric_bike", "bike_id": "11befdb704e308f75a19c275c512fb37", "lat": 38.807283, "lon": -76.99253916666666, "rental_uris": {"android": "https://dc.lft.to/lastmile_qr_scan", "ios": "https://dc.lft.to/lastmile_qr_scan"}, "is_disabled": 0, "fusion_lat": 0.0, "name": "11befdb704e308f75a19c275c512fb37", "fusion_lon": 0.0}, {"is_reserved": 0, "type": "electric_scooter", "bike_id": "f8871e5a46ff2a1874ecf94bf7ed8dfa", "lat": 38.90024283333333, "lon": -76.99600366666667, "rental_uris": {"android": "https://dc.lft.to/lastmile_qr_scan", "ios": "https://dc.lft.to/lastmile_qr_scan"}, "is_disabled": 0, "fusion_lat": 0.0, "name": "f8871e5a46ff2a1874ecf94bf7ed8dfa", "fusion_lon": 0.0}, {"is_reserved": 0, "type": "electric_scooter", "bike_id": "de892ef408a23c89a720e08746dd24da", "lat": 38.905571, "lon": -77.05698866666667, "rental_uris": {"android": "https://dc.lft.to/lastmile_qr_scan", "ios": "https://dc.lft.to/lastmile_qr_scan"}, "is_disabled": 0, "fusion_lat": 0.0, "name": "de892ef408a23c89a720e08746dd24da", "fusion_lon": 0.0}, {"is_reserved": 0, "type": "electric_scooter", "bike_id": "d2ec06d68d685f43d172314b63a5c9d0", "lat": 38.92433533333333, "lon": -77.0224565, "rental_uris": {"android": "https://dc.lft.to/lastmile_qr_scan", "ios": "https://dc.lft.to/lastmile_qr_scan"}, "is_disabled": 0, "fusion_lat": 0.0, "name": "d2ec06d68d685f43d172314b63a5c9d0", "fusion_lon": 0.0}, {"is_reserved": 0, "type": "electric_scooter", "bike_id": "7eaebd4d1b87a83589d3660055eccd77", "lat": 38.89896983333333, "lon": -76.97995616666667, "rental_uris": {"android": "https://dc.lft.to/lastmile_qr_scan", "ios": "https://dc.lft.to/lastmile_qr_scan"}, "is_disabled": 0, "fusion_lat": 0.0, "name": "7eaebd4d1b87a83589d3660055eccd77", "fusion_lon": 0.0}, {"is_reserved": 0, "type": "electric_scooter", "bike_id": "f58269b4c3143da18864b8e6562015f9", "lat": 38.903022666666665, "lon": -76.97650416666667, "rental_uris": {"android": "https://dc.lft.to/lastmile_qr_scan", "ios": "https://dc.lft.to/lastmile_qr_scan"}, "is_disabled": 0, "fusion_lat": 0.0, "name": "f58269b4c3143da18864b8e6562015f9", "fusion_lon": 0.0}, {"is_reserved": 0, "type": "electric_scooter", "bike_id": "60a4cc7b1ec819413f8fb31f453e7734", "lat": 38.90028683333333, "lon": -76.9876735, "rental_uris": {"android": "https://dc.lft.to/lastmile_qr_scan", "ios": "https://dc.lft.to/lastmile_qr_scan"}, "is_disabled": 0, "fusion_lat": 0.0, "name": "60a4cc7b1ec819413f8fb31f453e7734", "fusion_lon": 0.0}, {"is_reserved": 0, "type": "electric_scooter", "bike_id": "814d9f3b16dfbd8cf773944b9122f114", "lat": 38.87473333333333, "lon": -77.00335533333333, "rental_uris": {"android": "https://dc.lft.to/lastmile_qr_scan", "ios": "https://dc.lft.to/lastmile_qr_scan"}, "is_disabled": 0, "fusion_lat": 0.0, "name": "814d9f3b16dfbd8cf773944b9122f114", "fusion_lon": 0.0}, {"is_reserved": 0, "type": "electric_scooter", "bike_id": "909f96850bf12fe734ff166aed73cbf3", "lat": 38.917972, "lon": -77.03211466666667, "rental_uris": {"android": "https://dc.lft.to/lastmile_qr_scan", "ios": "https://dc.lft.to/lastmile_qr_scan"}, "is_disabled": 0, "fusion_lat": 0.0, "name": "909f96850bf12fe734ff166aed73cbf3", "fusion_lon": 0.0}, {"is_reserved": 0, "type": "electric_scooter", "bike_id": "ac48ee92b8cca768f20a3a76115be015", "lat": 38.93592683333333, "lon": -77.033667, "rental_uris": {"android": "https://dc.lft.to/lastmile_qr_scan", "ios": "https://dc.lft.to/lastmile_qr_scan"}, "is_disabled": 0, "fusion_lat": 0.0, "name": "ac48ee92b8cca768f20a3a76115be015", "fusion_lon": 0.0}, {"is_reserved": 0, "type": "electric_scooter", "bike_id": "38e28e8568dd9c76a3b0ebf0f092d3a1", "lat": 38.917036333333336, "lon": -77.024046, "rental_uris": {"android": "https://dc.lft.to/lastmile_qr_scan", "ios": "https://dc.lft.to/lastmile_qr_scan"}, "is_disabled": 0, "fusion_lat": 0.0, "name": "38e28e8568dd9c76a3b0ebf0f092d3a1", "fusion_lon": 0.0}, {"is_reserved": 0, "type": "electric_bike", "bike_id": "4f49d582711cbb66f226b26f83c0a1fb", "lat": 38.973129, "lon": -76.99477016666667, "rental_uris": {"android": "https://dc.lft.to/lastmile_qr_scan", "ios": "https://dc.lft.to/lastmile_qr_scan"}, "is_disabled": 0, "fusion_lat": 0.0, "name": "4f49d582711cbb66f226b26f83c0a1fb", "fusion_lon": 0.0}, {"is_reserved": 0, "type": "electric_scooter", "bike_id": "0ebb9e84097df60813b08fcf3d66b330", "lat": 38.9170095, "lon": -77.04029566666667, "rental_uris": {"android": "https://dc.lft.to/lastmile_qr_scan", "ios": "https://dc.lft.to/lastmile_qr_scan"}, "is_disabled": 0, "fusion_lat": 0.0, "name": "0ebb9e84097df60813b08fcf3d66b330", "fusion_lon": 0.0}, {"is_reserved": 0, "type": "electric_scooter", "bike_id": "8712c78ea0555677515d0fd99979ab64", "lat": 38.892888666666664, "lon": -77.019921, "rental_uris": {"android": "https://dc.lft.to/lastmile_qr_scan", "ios": "https://dc.lft.to/lastmile_qr_scan"}, "is_disabled": 0, "fusion_lat": 0.0, "name": "8712c78ea0555677515d0fd99979ab64", "fusion_lon": 0.0}, {"is_reserved": 0, "type": "electric_scooter", "bike_id": "517b280fc64b722a55d72ec9f9f30363", "lat": 38.87564916666667, "lon": -77.00586466666667, "rental_uris": {"android": "https://dc.lft.to/lastmile_qr_scan", "ios": "https://dc.lft.to/lastmile_qr_scan"}, "is_disabled": 0, "fusion_lat": 0.0, "name": "517b280fc64b722a55d72ec9f9f30363", "fusion_lon": 0.0}, {"is_reserved": 0, "type": "electric_scooter", "bike_id": "2cc5619b35f53c68f87e49ef748f443b", "lat": 38.912652, "lon": -77.03872083333333, "rental_uris": {"android": "https://dc.lft.to/lastmile_qr_scan", "ios": "https://dc.lft.to/lastmile_qr_scan"}, "is_disabled": 0, "fusion_lat": 0.0, "name": "2cc5619b35f53c68f87e49ef748f443b", "fusion_lon": 0.0}, {"is_reserved": 0, "type": "electric_scooter", "bike_id": "d8b8ee41db1dfaaa14f6312419c6210d", "lat": 38.88441366666667, "lon": -76.9576525, "rental_uris": {"android": "https://dc.lft.to/lastmile_qr_scan", "ios": "https://dc.lft.to/lastmile_qr_scan"}, "is_disabled": 0, "fusion_lat": 0.0, "name": "d8b8ee41db1dfaaa14f6312419c6210d", "fusion_lon": 0.0}, {"is_reserved": 0, "type": "electric_bike", "bike_id": "dfd73ba98e48a4eae52e5282e59d9b54", "lat": 38.832960166666666, "lon": -77.08414216666667, "rental_uris": {"android": "https://dc.lft.to/lastmile_qr_scan", "ios": "https://dc.lft.to/lastmile_qr_scan"}, "is_disabled": 0, "fusion_lat": 0.0, "name": "dfd73ba98e48a4eae52e5282e59d9b54", "fusion_lon": 0.0}, {"is_reserved": 0, "type": "electric_scooter", "bike_id": "44bdaf32a8a50e4de3159efb46797600", "lat": 38.9216105, "lon": -77.03370183333334, "rental_uris": {"android": "https://dc.lft.to/lastmile_qr_scan", "ios": "https://dc.lft.to/lastmile_qr_scan"}, "is_disabled": 0, "fusion_lat": 0.0, "name": "44bdaf32a8a50e4de3159efb46797600", "fusion_lon": 0.0}, {"is_reserved": 0, "type": "electric_scooter", "bike_id": "bfd801c75e5ae10b4d5a152bcc254237", "lat": 38.893862666666664, "lon": -77.019633, "rental_uris": {"android": "https://dc.lft.to/lastmile_qr_scan", "ios": "https://dc.lft.to/lastmile_qr_scan"}, "is_disabled": 0, "fusion_lat": 0.0, "name": "bfd801c75e5ae10b4d5a152bcc254237", "fusion_lon": 0.0}, {"is_reserved": 0, "type": "electric_scooter", "bike_id": "55e802ffb71849e1ee4ef53f5bc09f96", "lat": 38.899966666666664, "lon": -77.04039616666667, "rental_uris": {"android": "https://dc.lft.to/lastmile_qr_scan", "ios": "https://dc.lft.to/lastmile_qr_scan"}, "is_disabled": 0, "fusion_lat": 0.0, "name": "55e802ffb71849e1ee4ef53f5bc09f96", "fusion_lon": 0.0}, {"is_reserved": 0, "type": "electric_scooter", "bike_id": "ffd023dda19006ec649eebad761c9d2d", "lat": 38.928147333333335, "lon": -77.02851483333333, "rental_uris": {"android": "https://dc.lft.to/lastmile_qr_scan", "ios": "https://dc.lft.to/lastmile_qr_scan"}, "is_disabled": 0, "fusion_lat": 0.0, "name": "ffd023dda19006ec649eebad761c9d2d", "fusion_lon": 0.0}, {"is_reserved": 0, "type": "electric_bike", "bike_id": "b356a104ea05905a39aee1fe43bac6aa", "lat": 38.9595065, "lon": -77.0198535, "rental_uris": {"android": "https://dc.lft.to/lastmile_qr_scan", "ios": "https://dc.lft.to/lastmile_qr_scan"}, "is_disabled": 0, "fusion_lat": 0.0, "name": "b356a104ea05905a39aee1fe43bac6aa", "fusion_lon": 0.0}, {"is_reserved": 0, "type": "electric_scooter", "bike_id": "c1ca6ac8f091497011e204c00c753f03", "lat": 38.91114966666667, "lon": -77.04502716666667, "rental_uris": {"android": "https://dc.lft.to/lastmile_qr_scan", "ios": "https://dc.lft.to/lastmile_qr_scan"}, "is_disabled": 0, "fusion_lat": 0.0, "name": "c1ca6ac8f091497011e204c00c753f03", "fusion_lon": 0.0}, {"is_reserved": 0, "type": "electric_scooter", "bike_id": "35e7d16b044d73376e4f767a7e8b76a4", "lat": 38.901634, "lon": -77.02487666666667, "rental_uris": {"android": "https://dc.lft.to/lastmile_qr_scan", "ios": "https://dc.lft.to/lastmile_qr_scan"}, "is_disabled": 0, "fusion_lat": 0.0, "name": "35e7d16b044d73376e4f767a7e8b76a4", "fusion_lon": 0.0}, {"is_reserved": 0, "type": "electric_scooter", "bike_id": "8956ac33b76317953a0c60476d2ffd70", "lat": 38.928358833333334, "lon": -77.006047, "rental_uris": {"android": "https://dc.lft.to/lastmile_qr_scan", "ios": "https://dc.lft.to/lastmile_qr_scan"}, "is_disabled": 0, "fusion_lat": 0.0, "name": "8956ac33b76317953a0c60476d2ffd70", "fusion_lon": 0.0}, {"is_reserved": 0, "type": "electric_scooter", "bike_id": "99d89ecf8c5750062809b1a7c55e19c5", "lat": 38.93525016666667, "lon": -77.0193825, "rental_uris": {"android": "https://dc.lft.to/lastmile_qr_scan", "ios": "https://dc.lft.to/lastmile_qr_scan"}, "is_disabled": 0, "fusion_lat": 0.0, "name": "99d89ecf8c5750062809b1a7c55e19c5", "fusion_lon": 0.0}, {"is_reserved": 0, "type": "electric_scooter", "bike_id": "ab07a07bb156a07baf768393c34cee81", "lat": 38.90267983333333, "lon": -77.017574, "rental_uris": {"android": "https://dc.lft.to/lastmile_qr_scan", "ios": "https://dc.lft.to/lastmile_qr_scan"}, "is_disabled": 0, "fusion_lat": 0.0, "name": "ab07a07bb156a07baf768393c34cee81", "fusion_lon": 0.0}, {"is_reserved": 0, "type": "electric_scooter", "bike_id": "4d0b99c1de56f93bed5e2deca28ba78e", "lat": 38.929232, "lon": -77.02013383333333, "rental_uris": {"android": "https://dc.lft.to/lastmile_qr_scan", "ios": "https://dc.lft.to/lastmile_qr_scan"}, "is_disabled": 0, "fusion_lat": 0.0, "name": "4d0b99c1de56f93bed5e2deca28ba78e", "fusion_lon": 0.0}, {"is_reserved": 0, "type": "electric_scooter", "bike_id": "392dc2ddd7cfc2149611b5d6457c3703", "lat": 38.9206935, "lon": -77.02213533333334, "rental_uris": {"android": "https://dc.lft.to/lastmile_qr_scan", "ios": "https://dc.lft.to/lastmile_qr_scan"}, "is_disabled": 0, "fusion_lat": 0.0, "name": "392dc2ddd7cfc2149611b5d6457c3703", "fusion_lon": 0.0}, {"is_reserved": 0, "type": "electric_scooter", "bike_id": "d3db3a60d4a1a8080812c9b161725d1a", "lat": 38.91803383333333, "lon": -77.02492316666667, "rental_uris": {"android": "https://dc.lft.to/lastmile_qr_scan", "ios": "https://dc.lft.to/lastmile_qr_scan"}, "is_disabled": 0, "fusion_lat": 0.0, "name": "d3db3a60d4a1a8080812c9b161725d1a", "fusion_lon": 0.0}, {"is_reserved": 0, "type": "electric_scooter", "bike_id": "601aba2936efcf8789e194d92755d737", "lat": 38.905765333333335, "lon": -77.00316683333334, "rental_uris": {"android": "https://dc.lft.to/lastmile_qr_scan", "ios": "https://dc.lft.to/lastmile_qr_scan"}, "is_disabled": 0, "fusion_lat": 0.0, "name": "601aba2936efcf8789e194d92755d737", "fusion_lon": 0.0}, {"is_reserved": 0, "type": "electric_scooter", "bike_id": "0aec2cdc0282e43b9d3e5aa2a5ece8c1", "lat": 38.895967, "lon": -76.9298355, "rental_uris": {"android": "https://dc.lft.to/lastmile_qr_scan", "ios": "https://dc.lft.to/lastmile_qr_scan"}, "is_disabled": 0, "fusion_lat": 0.0, "name": "0aec2cdc0282e43b9d3e5aa2a5ece8c1", "fusion_lon": 0.0}, {"is_reserved": 0, "type": "electric_scooter", "bike_id": "a34dce1a8ffc2b4e89ed9996744fec4a", "lat": 38.929289, "lon": -77.020516, "rental_uris": {"android": "https://dc.lft.to/lastmile_qr_scan", "ios": "https://dc.lft.to/lastmile_qr_scan"}, "is_disabled": 0, "fusion_lat": 0.0, "name": "a34dce1a8ffc2b4e89ed9996744fec4a", "fusion_lon": 0.0}, {"is_reserved": 0, "type": "electric_scooter", "bike_id": "765aa5fa922377bc11a498e48def290b", "lat": 38.915090166666666, "lon": -77.00343233333334, "rental_uris": {"android": "https://dc.lft.to/lastmile_qr_scan", "ios": "https://dc.lft.to/lastmile_qr_scan"}, "is_disabled": 0, "fusion_lat": 0.0, "name": "765aa5fa922377bc11a498e48def290b", "fusion_lon": 0.0}, {"is_reserved": 0, "type": "electric_scooter", "bike_id": "f444db4890dd6b7d7ed02e225c8fa859", "lat": 38.92692133333333, "lon": -77.02289483333334, "rental_uris": {"android": "https://dc.lft.to/lastmile_qr_scan", "ios": "https://dc.lft.to/lastmile_qr_scan"}, "is_disabled": 0, "fusion_lat": 0.0, "name": "f444db4890dd6b7d7ed02e225c8fa859", "fusion_lon": 0.0}, {"is_reserved": 0, "type": "electric_scooter", "bike_id": "d134e67b4e39642f26efba0c8e79c9ff", "lat": 38.8993825, "lon": -77.02626, "rental_uris": {"android": "https://dc.lft.to/lastmile_qr_scan", "ios": "https://dc.lft.to/lastmile_qr_scan"}, "is_disabled": 0, "fusion_lat": 0.0, "name": "d134e67b4e39642f26efba0c8e79c9ff", "fusion_lon": 0.0}, {"is_reserved": 0, "type": "electric_bike", "bike_id": "2125c036f0e122643c65d6b68eca56bc", "lat": 38.88030366666667, "lon": -76.99567716666667, "rental_uris": {"android": "https://dc.lft.to/lastmile_qr_scan", "ios": "https://dc.lft.to/lastmile_qr_scan"}, "is_disabled": 0, "fusion_lat": 0.0, "name": "2125c036f0e122643c65d6b68eca56bc", "fusion_lon": 0.0}, {"is_reserved": 0, "type": "electric_scooter", "bike_id": "336c08449e4cdebd2b7f5ccb1d5cee49", "lat": 38.89245833333333, "lon": -77.0395725, "rental_uris": {"android": "https://dc.lft.to/lastmile_qr_scan", "ios": "https://dc.lft.to/lastmile_qr_scan"}, "is_disabled": 0, "fusion_lat": 0.0, "name": "336c08449e4cdebd2b7f5ccb1d5cee49", "fusion_lon": 0.0}, {"is_reserved": 0, "type": "electric_scooter", "bike_id": "0e45c7ef67c8699030ff051d95aede54", "lat": 38.91748316666666, "lon": -77.007537, "rental_uris": {"android": "https://dc.lft.to/lastmile_qr_scan", "ios": "https://dc.lft.to/lastmile_qr_scan"}, "is_disabled": 0, "fusion_lat": 0.0, "name": "0e45c7ef67c8699030ff051d95aede54", "fusion_lon": 0.0}, {"is_reserved": 0, "type": "electric_scooter", "bike_id": "618112676a3ea6f7d02141a3b4f99346", "lat": 38.8932145, "lon": -77.02226966666667, "rental_uris": {"android": "https://dc.lft.to/lastmile_qr_scan", "ios": "https://dc.lft.to/lastmile_qr_scan"}, "is_disabled": 0, "fusion_lat": 0.0, "name": "618112676a3ea6f7d02141a3b4f99346", "fusion_lon": 0.0}, {"is_reserved": 0, "type": "electric_scooter", "bike_id": "31da621b898f4ba9fdfe0105d8b0136a", "lat": 38.9175675, "lon": -77.0045435, "rental_uris": {"android": "https://dc.lft.to/lastmile_qr_scan", "ios": "https://dc.lft.to/lastmile_qr_scan"}, "is_disabled": 0, "fusion_lat": 0.0, "name": "31da621b898f4ba9fdfe0105d8b0136a", "fusion_lon": 0.0}, {"is_reserved": 0, "type": "electric_scooter", "bike_id": "822302d61433a5abff7762f2cdb6b898", "lat": 38.91065283333333, "lon": -77.03723416666666, "rental_uris": {"android": "https://dc.lft.to/lastmile_qr_scan", "ios": "https://dc.lft.to/lastmile_qr_scan"}, "is_disabled": 0, "fusion_lat": 0.0, "name": "822302d61433a5abff7762f2cdb6b898", "fusion_lon": 0.0}, {"is_reserved": 0, "type": "electric_scooter", "bike_id": "bf1669787dd5609e69ce8b19a86ea798", "lat": 38.909318999999996, "lon": -77.06365533333333, "rental_uris": {"android": "https://dc.lft.to/lastmile_qr_scan", "ios": "https://dc.lft.to/lastmile_qr_scan"}, "is_disabled": 0, "fusion_lat": 0.0, "name": "bf1669787dd5609e69ce8b19a86ea798", "fusion_lon": 0.0}, {"is_reserved": 0, "type": "electric_scooter", "bike_id": "8773ba2538d16c07e39202ec65af1f7a", "lat": 38.917078833333335, "lon": -77.02411966666666, "rental_uris": {"android": "https://dc.lft.to/lastmile_qr_scan", "ios": "https://dc.lft.to/lastmile_qr_scan"}, "is_disabled": 0, "fusion_lat": 0.0, "name": "8773ba2538d16c07e39202ec65af1f7a", "fusion_lon": 0.0}, {"is_reserved": 0, "type": "electric_scooter", "bike_id": "b70cd42dcc2fa9cc76c6f9f70fe61a91", "lat": 38.916372, "lon": -77.042659, "rental_uris": {"android": "https://dc.lft.to/lastmile_qr_scan", "ios": "https://dc.lft.to/lastmile_qr_scan"}, "is_disabled": 0, "fusion_lat": 0.0, "name": "b70cd42dcc2fa9cc76c6f9f70fe61a91", "fusion_lon": 0.0}, {"is_reserved": 0, "type": "electric_scooter", "bike_id": "6c35fe17d519e77b39ae611c4d662ec7", "lat": 38.90731916666667, "lon": -77.021791, "rental_uris": {"android": "https://dc.lft.to/lastmile_qr_scan", "ios": "https://dc.lft.to/lastmile_qr_scan"}, "is_disabled": 0, "fusion_lat": 0.0, "name": "6c35fe17d519e77b39ae611c4d662ec7", "fusion_lon": 0.0}, {"is_reserved": 0, "type": "electric_scooter", "bike_id": "d76b5b5958ef4c309f4897628cb00fa9", "lat": 38.933317833333334, "lon": -77.02912233333333, "rental_uris": {"android": "https://dc.lft.to/lastmile_qr_scan", "ios": "https://dc.lft.to/lastmile_qr_scan"}, "is_disabled": 0, "fusion_lat": 0.0, "name": "d76b5b5958ef4c309f4897628cb00fa9", "fusion_lon": 0.0}, {"is_reserved": 0, "type": "electric_scooter", "bike_id": "956276d216c91a9bf7f2c8c862f41828", "lat": 38.920824833333334, "lon": -77.02300466666667, "rental_uris": {"android": "https://dc.lft.to/lastmile_qr_scan", "ios": "https://dc.lft.to/lastmile_qr_scan"}, "is_disabled": 0, "fusion_lat": 0.0, "name": "956276d216c91a9bf7f2c8c862f41828", "fusion_lon": 0.0}, {"is_reserved": 0, "type": "electric_scooter", "bike_id": "780318044bb14c707e281d36e5cfee3e", "lat": 38.8796855, "lon": -77.00833583333333, "rental_uris": {"android": "https://dc.lft.to/lastmile_qr_scan", "ios": "https://dc.lft.to/lastmile_qr_scan"}, "is_disabled": 0, "fusion_lat": 0.0, "name": "780318044bb14c707e281d36e5cfee3e", "fusion_lon": 0.0}, {"is_reserved": 0, "type": "electric_bike", "bike_id": "91e7aa128972831f78c993c8913b2496", "lat": 38.915228, "lon": -77.00343133333334, "rental_uris": {"android": "https://dc.lft.to/lastmile_qr_scan", "ios": "https://dc.lft.to/lastmile_qr_scan"}, "is_disabled": 0, "fusion_lat": 0.0, "name": "91e7aa128972831f78c993c8913b2496", "fusion_lon": 0.0}, {"is_reserved": 0, "type": "electric_scooter", "bike_id": "70c8c3ab798247e6c170f279949fd738", "lat": 38.909042166666666, "lon": -76.99616516666667, "rental_uris": {"android": "https://dc.lft.to/lastmile_qr_scan", "ios": "https://dc.lft.to/lastmile_qr_scan"}, "is_disabled": 0, "fusion_lat": 0.0, "name": "70c8c3ab798247e6c170f279949fd738", "fusion_lon": 0.0}, {"is_reserved": 0, "type": "electric_scooter", "bike_id": "5a5fc7cc77e10c83f320e35c22a46a05", "lat": 38.9263135, "lon": -77.04251033333334, "rental_uris": {"android": "https://dc.lft.to/lastmile_qr_scan", "ios": "https://dc.lft.to/lastmile_qr_scan"}, "is_disabled": 0, "fusion_lat": 0.0, "name": "5a5fc7cc77e10c83f320e35c22a46a05", "fusion_lon": 0.0}, {"is_reserved": 0, "type": "electric_scooter", "bike_id": "4735066cca9c828db8a2b30011fe4106", "lat": 38.93037316666667, "lon": -77.055445, "rental_uris": {"android": "https://dc.lft.to/lastmile_qr_scan", "ios": "https://dc.lft.to/lastmile_qr_scan"}, "is_disabled": 0, "fusion_lat": 0.0, "name": "4735066cca9c828db8a2b30011fe4106", "fusion_lon": 0.0}, {"is_reserved": 0, "type": "electric_scooter", "bike_id": "dd54e676f857ff9c8ef8b718e5e2ea9d", "lat": 38.883854666666664, "lon": -77.019285, "rental_uris": {"android": "https://dc.lft.to/lastmile_qr_scan", "ios": "https://dc.lft.to/lastmile_qr_scan"}, "is_disabled": 0, "fusion_lat": 0.0, "name": "dd54e676f857ff9c8ef8b718e5e2ea9d", "fusion_lon": 0.0}, {"is_reserved": 0, "type": "electric_scooter", "bike_id": "2de12cb242d5b586d78a01b6fd4dd4e8", "lat": 38.94323716666667, "lon": -77.01257266666667, "rental_uris": {"android": "https://dc.lft.to/lastmile_qr_scan", "ios": "https://dc.lft.to/lastmile_qr_scan"}, "is_disabled": 0, "fusion_lat": 0.0, "name": "2de12cb242d5b586d78a01b6fd4dd4e8", "fusion_lon": 0.0}, {"is_reserved": 0, "type": "electric_scooter", "bike_id": "ae50af1cf0253f60706f2d2ed2ae233a", "lat": 38.92424183333333, "lon": -77.03415483333333, "rental_uris": {"android": "https://dc.lft.to/lastmile_qr_scan", "ios": "https://dc.lft.to/lastmile_qr_scan"}, "is_disabled": 0, "fusion_lat": 0.0, "name": "ae50af1cf0253f60706f2d2ed2ae233a", "fusion_lon": 0.0}, {"is_reserved": 0, "type": "electric_scooter", "bike_id": "5866c4fcdf4c0cb066911d4d6731e484", "lat": 38.911926, "lon": -77.03758566666667, "rental_uris": {"android": "https://dc.lft.to/lastmile_qr_scan", "ios": "https://dc.lft.to/lastmile_qr_scan"}, "is_disabled": 0, "fusion_lat": 0.0, "name": "5866c4fcdf4c0cb066911d4d6731e484", "fusion_lon": 0.0}, {"is_reserved": 0, "type": "electric_scooter", "bike_id": "4395592278aebce695f52d248c83c526", "lat": 38.89506933333333, "lon": -76.9789485, "rental_uris": {"android": "https://dc.lft.to/lastmile_qr_scan", "ios": "https://dc.lft.to/lastmile_qr_scan"}, "is_disabled": 0, "fusion_lat": 0.0, "name": "4395592278aebce695f52d248c83c526", "fusion_lon": 0.0}, {"is_reserved": 0, "type": "electric_scooter", "bike_id": "454fb78d67094a5cd27081adb6a95634", "lat": 38.88381566666666, "lon": -77.04605866666667, "rental_uris": {"android": "https://dc.lft.to/lastmile_qr_scan", "ios": "https://dc.lft.to/lastmile_qr_scan"}, "is_disabled": 0, "fusion_lat": 0.0, "name": "454fb78d67094a5cd27081adb6a95634", "fusion_lon": 0.0}, {"is_reserved": 0, "type": "electric_scooter", "bike_id": "763b86ec542b1316b619fd15653f5157", "lat": 38.9096865, "lon": -77.04830916666667, "rental_uris": {"android": "https://dc.lft.to/lastmile_qr_scan", "ios": "https://dc.lft.to/lastmile_qr_scan"}, "is_disabled": 0, "fusion_lat": 0.0, "name": "763b86ec542b1316b619fd15653f5157", "fusion_lon": 0.0}, {"is_reserved": 0, "type": "electric_scooter", "bike_id": "5adff2c8e2d9fed17b75ce83d4098689", "lat": 38.9006505, "lon": -77.045358, "rental_uris": {"android": "https://dc.lft.to/lastmile_qr_scan", "ios": "https://dc.lft.to/lastmile_qr_scan"}, "is_disabled": 0, "fusion_lat": 0.0, "name": "5adff2c8e2d9fed17b75ce83d4098689", "fusion_lon": 0.0}, {"is_reserved": 0, "type": "electric_scooter", "bike_id": "6665cba4e05251170ff2b8eb9e7b2885", "lat": 38.892219, "lon": -77.04649533333334, "rental_uris": {"android": "https://dc.lft.to/lastmile_qr_scan", "ios": "https://dc.lft.to/lastmile_qr_scan"}, "is_disabled": 0, "fusion_lat": 0.0, "name": "6665cba4e05251170ff2b8eb9e7b2885", "fusion_lon": 0.0}, {"is_reserved": 0, "type": "electric_scooter", "bike_id": "591e0f56650b5e9b9643867ef6e68016", "lat": 38.91510916666667, "lon": -77.00345433333334, "rental_uris": {"android": "https://dc.lft.to/lastmile_qr_scan", "ios": "https://dc.lft.to/lastmile_qr_scan"}, "is_disabled": 0, "fusion_lat": 0.0, "name": "591e0f56650b5e9b9643867ef6e68016", "fusion_lon": 0.0}, {"is_reserved": 0, "type": "electric_scooter", "bike_id": "8596ee4b4c09304046115b5613c6b7de", "lat": 38.898647, "lon": -77.01973966666667, "rental_uris": {"android": "https://dc.lft.to/lastmile_qr_scan", "ios": "https://dc.lft.to/lastmile_qr_scan"}, "is_disabled": 0, "fusion_lat": 0.0, "name": "8596ee4b4c09304046115b5613c6b7de", "fusion_lon": 0.0}, {"is_reserved": 0, "type": "electric_scooter", "bike_id": "3d059ef517dc9859b1de7712eeb815af", "lat": 38.9072535, "lon": -77.04502466666666, "rental_uris": {"android": "https://dc.lft.to/lastmile_qr_scan", "ios": "https://dc.lft.to/lastmile_qr_scan"}, "is_disabled": 0, "fusion_lat": 0.0, "name": "3d059ef517dc9859b1de7712eeb815af", "fusion_lon": 0.0}, {"is_reserved": 0, "type": "electric_scooter", "bike_id": "976cace213ab4e6898306a5941b855f3", "lat": 38.929129833333334, "lon": -77.0219245, "rental_uris": {"android": "https://dc.lft.to/lastmile_qr_scan", "ios": "https://dc.lft.to/lastmile_qr_scan"}, "is_disabled": 0, "fusion_lat": 0.0, "name": "976cace213ab4e6898306a5941b855f3", "fusion_lon": 0.0}, {"is_reserved": 0, "type": "electric_scooter", "bike_id": "849d091e859b6590f81493ea586b74c8", "lat": 38.9071895, "lon": -77.04754766666667, "rental_uris": {"android": "https://dc.lft.to/lastmile_qr_scan", "ios": "https://dc.lft.to/lastmile_qr_scan"}, "is_disabled": 0, "fusion_lat": 0.0, "name": "849d091e859b6590f81493ea586b74c8", "fusion_lon": 0.0}, {"is_reserved": 0, "type": "electric_scooter", "bike_id": "174836e7618f09f728100127289935f9", "lat": 38.918136, "lon": -77.03961216666667, "rental_uris": {"android": "https://dc.lft.to/lastmile_qr_scan", "ios": "https://dc.lft.to/lastmile_qr_scan"}, "is_disabled": 0, "fusion_lat": 0.0, "name": "174836e7618f09f728100127289935f9", "fusion_lon": 0.0}, {"is_reserved": 0, "type": "electric_scooter", "bike_id": "4496cabdf62c962b83d23fc50d601dbe", "lat": 38.889864, "lon": -77.00148366666667, "rental_uris": {"android": "https://dc.lft.to/lastmile_qr_scan", "ios": "https://dc.lft.to/lastmile_qr_scan"}, "is_disabled": 0, "fusion_lat": 0.0, "name": "4496cabdf62c962b83d23fc50d601dbe", "fusion_lon": 0.0}, {"is_reserved": 0, "type": "electric_scooter", "bike_id": "9d11010f0d049563f9c7395b82af80bb", "lat": 38.940524, "lon": -77.0250015, "rental_uris": {"android": "https://dc.lft.to/lastmile_qr_scan", "ios": "https://dc.lft.to/lastmile_qr_scan"}, "is_disabled": 0, "fusion_lat": 0.0, "name": "9d11010f0d049563f9c7395b82af80bb", "fusion_lon": 0.0}, {"is_reserved": 0, "type": "electric_bike", "bike_id": "db7b79e52637e721d08bd2aae89744fb", "lat": 38.85417133333333, "lon": -77.08366316666667, "rental_uris": {"android": "https://dc.lft.to/lastmile_qr_scan", "ios": "https://dc.lft.to/lastmile_qr_scan"}, "is_disabled": 0, "fusion_lat": 0.0, "name": "db7b79e52637e721d08bd2aae89744fb", "fusion_lon": 0.0}, {"is_reserved": 0, "type": "electric_scooter", "bike_id": "dbada2dbcef939cbeef377cefdf097e8", "lat": 38.90838383333333, "lon": -77.05498766666666, "rental_uris": {"android": "https://dc.lft.to/lastmile_qr_scan", "ios": "https://dc.lft.to/lastmile_qr_scan"}, "is_disabled": 0, "fusion_lat": 0.0, "name": "dbada2dbcef939cbeef377cefdf097e8", "fusion_lon": 0.0}, {"is_reserved": 0, "type": "electric_bike", "bike_id": "eebcf587a55c4661076c67c2b23a73ef", "lat": 39.004421666666666, "lon": -76.9013125, "rental_uris": {"android": "https://dc.lft.to/lastmile_qr_scan", "ios": "https://dc.lft.to/lastmile_qr_scan"}, "is_disabled": 0, "fusion_lat": 0.0, "name": "eebcf587a55c4661076c67c2b23a73ef", "fusion_lon": 0.0}, {"is_reserved": 0, "type": "electric_scooter", "bike_id": "e3d6570ffa5b3d9a9f25ff955c120719", "lat": 38.91571283333333, "lon": -77.03640433333334, "rental_uris": {"android": "https://dc.lft.to/lastmile_qr_scan", "ios": "https://dc.lft.to/lastmile_qr_scan"}, "is_disabled": 0, "fusion_lat": 0.0, "name": "e3d6570ffa5b3d9a9f25ff955c120719", "fusion_lon": 0.0}, {"is_reserved": 0, "type": "electric_scooter", "bike_id": "c3195957d24faa8f966a2cf1c51d027f", "lat": 38.92757233333333, "lon": -77.0327725, "rental_uris": {"android": "https://dc.lft.to/lastmile_qr_scan", "ios": "https://dc.lft.to/lastmile_qr_scan"}, "is_disabled": 0, "fusion_lat": 0.0, "name": "c3195957d24faa8f966a2cf1c51d027f", "fusion_lon": 0.0}, {"is_reserved": 0, "type": "electric_scooter", "bike_id": "66935cdd0e3d7af214b9931922784ef5", "lat": 38.90021983333333, "lon": -77.03976166666666, "rental_uris": {"android": "https://dc.lft.to/lastmile_qr_scan", "ios": "https://dc.lft.to/lastmile_qr_scan"}, "is_disabled": 0, "fusion_lat": 0.0, "name": "66935cdd0e3d7af214b9931922784ef5", "fusion_lon": 0.0}, {"is_reserved": 0, "type": "electric_bike", "bike_id": "00f0fd7fccfdaf1b130bfc46991e8cad", "lat": 38.87036033333333, "lon": -77.22904933333334, "rental_uris": {"android": "https://dc.lft.to/lastmile_qr_scan", "ios": "https://dc.lft.to/lastmile_qr_scan"}, "is_disabled": 0, "fusion_lat": 0.0, "name": "00f0fd7fccfdaf1b130bfc46991e8cad", "fusion_lon": 0.0}, {"is_reserved": 0, "type": "electric_scooter", "bike_id": "b2a9c770651a0916f95e92058ca75ecc", "lat": 38.92844133333333, "lon": -77.036255, "rental_uris": {"android": "https://dc.lft.to/lastmile_qr_scan", "ios": "https://dc.lft.to/lastmile_qr_scan"}, "is_disabled": 0, "fusion_lat": 0.0, "name": "b2a9c770651a0916f95e92058ca75ecc", "fusion_lon": 0.0}, {"is_reserved": 0, "type": "electric_scooter", "bike_id": "d494f2033203a2c0c72bd0f354887edb", "lat": 38.890393333333336, "lon": -76.93763, "rental_uris": {"android": "https://dc.lft.to/lastmile_qr_scan", "ios": "https://dc.lft.to/lastmile_qr_scan"}, "is_disabled": 0, "fusion_lat": 0.0, "name": "d494f2033203a2c0c72bd0f354887edb", "fusion_lon": 0.0}, {"is_reserved": 0, "type": "electric_scooter", "bike_id": "1123b751b7405d1d494c3884a6604764", "lat": 38.893452, "lon": -77.04299266666666, "rental_uris": {"android": "https://dc.lft.to/lastmile_qr_scan", "ios": "https://dc.lft.to/lastmile_qr_scan"}, "is_disabled": 0, "fusion_lat": 0.0, "name": "1123b751b7405d1d494c3884a6604764", "fusion_lon": 0.0}, {"is_reserved": 0, "type": "electric_scooter", "bike_id": "c168acaabdfe86aecda033809461e9bf", "lat": 38.92446783333333, "lon": -77.02036766666667, "rental_uris": {"android": "https://dc.lft.to/lastmile_qr_scan", "ios": "https://dc.lft.to/lastmile_qr_scan"}, "is_disabled": 0, "fusion_lat": 0.0, "name": "c168acaabdfe86aecda033809461e9bf", "fusion_lon": 0.0}, {"is_reserved": 0, "type": "electric_scooter", "bike_id": "738ac9295612c202658c44359582dc36", "lat": 38.91368166666667, "lon": -77.02735583333333, "rental_uris": {"android": "https://dc.lft.to/lastmile_qr_scan", "ios": "https://dc.lft.to/lastmile_qr_scan"}, "is_disabled": 0, "fusion_lat": 0.0, "name": "738ac9295612c202658c44359582dc36", "fusion_lon": 0.0}, {"is_reserved": 0, "type": "electric_bike", "bike_id": "ed7eabe89d080f24e6e562cc1d5382ed", "lat": 38.87083966666667, "lon": -77.13336416666667, "rental_uris": {"android": "https://dc.lft.to/lastmile_qr_scan", "ios": "https://dc.lft.to/lastmile_qr_scan"}, "is_disabled": 0, "fusion_lat": 0.0, "name": "ed7eabe89d080f24e6e562cc1d5382ed", "fusion_lon": 0.0}, {"is_reserved": 0, "type": "electric_scooter", "bike_id": "82fffc81abedff0e036d55e2bed75ad8", "lat": 38.910172, "lon": -76.993727, "rental_uris": {"android": "https://dc.lft.to/lastmile_qr_scan", "ios": "https://dc.lft.to/lastmile_qr_scan"}, "is_disabled": 0, "fusion_lat": 0.0, "name": "82fffc81abedff0e036d55e2bed75ad8", "fusion_lon": 0.0}, {"is_reserved": 0, "type": "electric_scooter", "bike_id": "c82e66c139460989bbfeec1e5c3b9e10", "lat": 38.91715383333333, "lon": -77.03046433333333, "rental_uris": {"android": "https://dc.lft.to/lastmile_qr_scan", "ios": "https://dc.lft.to/lastmile_qr_scan"}, "is_disabled": 0, "fusion_lat": 0.0, "name": "c82e66c139460989bbfeec1e5c3b9e10", "fusion_lon": 0.0}, {"is_reserved": 0, "type": "electric_scooter", "bike_id": "1ef090bee9f42754eb9ce6b7c998da70", "lat": 38.87472616666667, "lon": -77.00338766666667, "rental_uris": {"android": "https://dc.lft.to/lastmile_qr_scan", "ios": "https://dc.lft.to/lastmile_qr_scan"}, "is_disabled": 0, "fusion_lat": 0.0, "name": "1ef090bee9f42754eb9ce6b7c998da70", "fusion_lon": 0.0}, {"is_reserved": 0, "type": "electric_scooter", "bike_id": "3b25b6ea48129e1165124ad2e6674dbe", "lat": 38.91008733333334, "lon": -77.04419516666667, "rental_uris": {"android": "https://dc.lft.to/lastmile_qr_scan", "ios": "https://dc.lft.to/lastmile_qr_scan"}, "is_disabled": 0, "fusion_lat": 0.0, "name": "3b25b6ea48129e1165124ad2e6674dbe", "fusion_lon": 0.0}, {"is_reserved": 0, "type": "electric_scooter", "bike_id": "bedd9257aff8411b8d8a691f91d44b89", "lat": 38.900120333333334, "lon": -77.00041716666667, "rental_uris": {"android": "https://dc.lft.to/lastmile_qr_scan", "ios": "https://dc.lft.to/lastmile_qr_scan"}, "is_disabled": 0, "fusion_lat": 0.0, "name": "bedd9257aff8411b8d8a691f91d44b89", "fusion_lon": 0.0}, {"is_reserved": 0, "type": "electric_scooter", "bike_id": "523bee97c33fe5af10d7cb754c922f40", "lat": 38.892279333333335, "lon": -77.02207066666666, "rental_uris": {"android": "https://dc.lft.to/lastmile_qr_scan", "ios": "https://dc.lft.to/lastmile_qr_scan"}, "is_disabled": 0, "fusion_lat": 0.0, "name": "523bee97c33fe5af10d7cb754c922f40", "fusion_lon": 0.0}, {"is_reserved": 0, "type": "electric_scooter", "bike_id": "f2e45a72107e21ad4450f6886fddbfc1", "lat": 38.9141755, "lon": -77.0317565, "rental_uris": {"android": "https://dc.lft.to/lastmile_qr_scan", "ios": "https://dc.lft.to/lastmile_qr_scan"}, "is_disabled": 0, "fusion_lat": 0.0, "name": "f2e45a72107e21ad4450f6886fddbfc1", "fusion_lon": 0.0}, {"is_reserved": 0, "type": "electric_scooter", "bike_id": "5c3024e2d2e53053948ed071a4c76e1e", "lat": 38.8977695, "lon": -77.0478035, "rental_uris": {"android": "https://dc.lft.to/lastmile_qr_scan", "ios": "https://dc.lft.to/lastmile_qr_scan"}, "is_disabled": 0, "fusion_lat": 0.0, "name": "5c3024e2d2e53053948ed071a4c76e1e", "fusion_lon": 0.0}, {"is_reserved": 0, "type": "electric_scooter", "bike_id": "b7e17eb63a5072c834fa68911cff9eb6", "lat": 38.922074333333335, "lon": -77.0203265, "rental_uris": {"android": "https://dc.lft.to/lastmile_qr_scan", "ios": "https://dc.lft.to/lastmile_qr_scan"}, "is_disabled": 0, "fusion_lat": 0.0, "name": "b7e17eb63a5072c834fa68911cff9eb6", "fusion_lon": 0.0}, {"is_reserved": 0, "type": "electric_scooter", "bike_id": "d700a7f2c5d25f8a828284edebaa30a4", "lat": 38.89219966666667, "lon": -77.02310366666667, "rental_uris": {"android": "https://dc.lft.to/lastmile_qr_scan", "ios": "https://dc.lft.to/lastmile_qr_scan"}, "is_disabled": 0, "fusion_lat": 0.0, "name": "d700a7f2c5d25f8a828284edebaa30a4", "fusion_lon": 0.0}, {"is_reserved": 0, "type": "electric_scooter", "bike_id": "29040545967df1297a09be4fdadf8c21", "lat": 38.924377666666665, "lon": -77.02030916666666, "rental_uris": {"android": "https://dc.lft.to/lastmile_qr_scan", "ios": "https://dc.lft.to/lastmile_qr_scan"}, "is_disabled": 0, "fusion_lat": 0.0, "name": "29040545967df1297a09be4fdadf8c21", "fusion_lon": 0.0}, {"is_reserved": 0, "type": "electric_scooter", "bike_id": "75d3e77099bff63de19e2ada5abc5b1f", "lat": 38.93385766666667, "lon": -77.02387366666666, "rental_uris": {"android": "https://dc.lft.to/lastmile_qr_scan", "ios": "https://dc.lft.to/lastmile_qr_scan"}, "is_disabled": 0, "fusion_lat": 0.0, "name": "75d3e77099bff63de19e2ada5abc5b1f", "fusion_lon": 0.0}, {"is_reserved": 0, "type": "electric_scooter", "bike_id": "03689edc939383271000aaba0a949df0", "lat": 38.91109566666667, "lon": -77.0383235, "rental_uris": {"android": "https://dc.lft.to/lastmile_qr_scan", "ios": "https://dc.lft.to/lastmile_qr_scan"}, "is_disabled": 0, "fusion_lat": 0.0, "name": "03689edc939383271000aaba0a949df0", "fusion_lon": 0.0}, {"is_reserved": 0, "type": "electric_bike", "bike_id": "f89df59256341236c059cb9b296d9620", "lat": 38.905152666666666, "lon": -77.064978, "rental_uris": {"android": "https://dc.lft.to/lastmile_qr_scan", "ios": "https://dc.lft.to/lastmile_qr_scan"}, "is_disabled": 0, "fusion_lat": 0.0, "name": "f89df59256341236c059cb9b296d9620", "fusion_lon": 0.0}, {"is_reserved": 0, "type": "electric_scooter", "bike_id": "377a69a0c1756867192d79220048ec41", "lat": 38.900872666666665, "lon": -77.036364, "rental_uris": {"android": "https://dc.lft.to/lastmile_qr_scan", "ios": "https://dc.lft.to/lastmile_qr_scan"}, "is_disabled": 0, "fusion_lat": 0.0, "name": "377a69a0c1756867192d79220048ec41", "fusion_lon": 0.0}, {"is_reserved": 0, "type": "electric_scooter", "bike_id": "1d814eb7dbc4e19817e59818142ea5a1", "lat": 38.9244325, "lon": -77.02127866666666, "rental_uris": {"android": "https://dc.lft.to/lastmile_qr_scan", "ios": "https://dc.lft.to/lastmile_qr_scan"}, "is_disabled": 0, "fusion_lat": 0.0, "name": "1d814eb7dbc4e19817e59818142ea5a1", "fusion_lon": 0.0}, {"is_reserved": 0, "type": "electric_scooter", "bike_id": "85b7a8277f4045ee03617e1aaecd2a2f", "lat": 38.956236833333335, "lon": -77.03561366666666, "rental_uris": {"android": "https://dc.lft.to/lastmile_qr_scan", "ios": "https://dc.lft.to/lastmile_qr_scan"}, "is_disabled": 0, "fusion_lat": 0.0, "name": "85b7a8277f4045ee03617e1aaecd2a2f", "fusion_lon": 0.0}, {"is_reserved": 0, "type": "electric_scooter", "bike_id": "c325092252122af72189ab07b9dd9933", "lat": 38.9047295, "lon": -77.06290783333333, "rental_uris": {"android": "https://dc.lft.to/lastmile_qr_scan", "ios": "https://dc.lft.to/lastmile_qr_scan"}, "is_disabled": 0, "fusion_lat": 0.0, "name": "c325092252122af72189ab07b9dd9933", "fusion_lon": 0.0}, {"is_reserved": 0, "type": "electric_scooter", "bike_id": "3402c912a57767b3b5e4244b9955003b", "lat": 38.920266166666664, "lon": -77.01876916666667, "rental_uris": {"android": "https://dc.lft.to/lastmile_qr_scan", "ios": "https://dc.lft.to/lastmile_qr_scan"}, "is_disabled": 0, "fusion_lat": 0.0, "name": "3402c912a57767b3b5e4244b9955003b", "fusion_lon": 0.0}, {"is_reserved": 0, "type": "electric_scooter", "bike_id": "861f229938be381176e657e2a8c6359f", "lat": 38.923346, "lon": -77.02963933333334, "rental_uris": {"android": "https://dc.lft.to/lastmile_qr_scan", "ios": "https://dc.lft.to/lastmile_qr_scan"}, "is_disabled": 0, "fusion_lat": 0.0, "name": "861f229938be381176e657e2a8c6359f", "fusion_lon": 0.0}, {"is_reserved": 0, "type": "electric_scooter", "bike_id": "02ba8d2c01c061b6fe74baaf96f422b2", "lat": 38.930604833333334, "lon": -77.02967066666666, "rental_uris": {"android": "https://dc.lft.to/lastmile_qr_scan", "ios": "https://dc.lft.to/lastmile_qr_scan"}, "is_disabled": 0, "fusion_lat": 0.0, "name": "02ba8d2c01c061b6fe74baaf96f422b2", "fusion_lon": 0.0}, {"is_reserved": 0, "type": "electric_scooter", "bike_id": "2baecdb3741b6a69a24931ac0be93555", "lat": 38.927323333333334, "lon": -77.05251533333333, "rental_uris": {"android": "https://dc.lft.to/lastmile_qr_scan", "ios": "https://dc.lft.to/lastmile_qr_scan"}, "is_disabled": 0, "fusion_lat": 0.0, "name": "2baecdb3741b6a69a24931ac0be93555", "fusion_lon": 0.0}, {"is_reserved": 0, "type": "electric_scooter", "bike_id": "334928951ca7551953fe1f8d960752c6", "lat": 38.9190475, "lon": -77.03382366666666, "rental_uris": {"android": "https://dc.lft.to/lastmile_qr_scan", "ios": "https://dc.lft.to/lastmile_qr_scan"}, "is_disabled": 0, "fusion_lat": 0.0, "name": "334928951ca7551953fe1f8d960752c6", "fusion_lon": 0.0}, {"is_reserved": 0, "type": "electric_scooter", "bike_id": "831df49a07df856c04193ad9a008d3e3", "lat": 38.89227133333333, "lon": -77.05004233333334, "rental_uris": {"android": "https://dc.lft.to/lastmile_qr_scan", "ios": "https://dc.lft.to/lastmile_qr_scan"}, "is_disabled": 0, "fusion_lat": 0.0, "name": "831df49a07df856c04193ad9a008d3e3", "fusion_lon": 0.0}, {"is_reserved": 0, "type": "electric_scooter", "bike_id": "c725f4550fd286de1618025711ac4dd3", "lat": 38.9078615, "lon": -76.99990816666667, "rental_uris": {"android": "https://dc.lft.to/lastmile_qr_scan", "ios": "https://dc.lft.to/lastmile_qr_scan"}, "is_disabled": 0, "fusion_lat": 0.0, "name": "c725f4550fd286de1618025711ac4dd3", "fusion_lon": 0.0}, {"is_reserved": 0, "type": "electric_scooter", "bike_id": "d10525e25efe508a5cc48fbdcce36c8e", "lat": 38.949793166666666, "lon": -77.02013916666667, "rental_uris": {"android": "https://dc.lft.to/lastmile_qr_scan", "ios": "https://dc.lft.to/lastmile_qr_scan"}, "is_disabled": 0, "fusion_lat": 0.0, "name": "d10525e25efe508a5cc48fbdcce36c8e", "fusion_lon": 0.0}, {"is_reserved": 0, "type": "electric_scooter", "bike_id": "2b6b5d7294e560151c3d94c0d29ba283", "lat": 38.932369, "lon": -76.99497533333333, "rental_uris": {"android": "https://dc.lft.to/lastmile_qr_scan", "ios": "https://dc.lft.to/lastmile_qr_scan"}, "is_disabled": 0, "fusion_lat": 0.0, "name": "2b6b5d7294e560151c3d94c0d29ba283", "fusion_lon": 0.0}, {"is_reserved": 0, "type": "electric_scooter", "bike_id": "50ad088839786d508eab0fdc87e4c8cc", "lat": 38.9254685, "lon": -76.999533, "rental_uris": {"android": "https://dc.lft.to/lastmile_qr_scan", "ios": "https://dc.lft.to/lastmile_qr_scan"}, "is_disabled": 0, "fusion_lat": 0.0, "name": "50ad088839786d508eab0fdc87e4c8cc", "fusion_lon": 0.0}, {"is_reserved": 0, "type": "electric_scooter", "bike_id": "1462804a66f47843db4ca43cafb6ef61", "lat": 38.9179685, "lon": -77.02705016666667, "rental_uris": {"android": "https://dc.lft.to/lastmile_qr_scan", "ios": "https://dc.lft.to/lastmile_qr_scan"}, "is_disabled": 0, "fusion_lat": 0.0, "name": "1462804a66f47843db4ca43cafb6ef61", "fusion_lon": 0.0}, {"is_reserved": 0, "type": "electric_scooter", "bike_id": "7efaedcea7d5ad0e18c43348ca9ac9a9", "lat": 38.8873515, "lon": -77.01353783333333, "rental_uris": {"android": "https://dc.lft.to/lastmile_qr_scan", "ios": "https://dc.lft.to/lastmile_qr_scan"}, "is_disabled": 0, "fusion_lat": 0.0, "name": "7efaedcea7d5ad0e18c43348ca9ac9a9", "fusion_lon": 0.0}, {"is_reserved": 0, "type": "electric_scooter", "bike_id": "e5388e7e76f1a9c477f248fcde167c0c", "lat": 38.91567366666666, "lon": -77.03129616666666, "rental_uris": {"android": "https://dc.lft.to/lastmile_qr_scan", "ios": "https://dc.lft.to/lastmile_qr_scan"}, "is_disabled": 0, "fusion_lat": 0.0, "name": "e5388e7e76f1a9c477f248fcde167c0c", "fusion_lon": 0.0}, {"is_reserved": 0, "type": "electric_scooter", "bike_id": "1fc5e9ec2e75c6ac66074d1198000a5a", "lat": 38.90399716666667, "lon": -77.03149033333334, "rental_uris": {"android": "https://dc.lft.to/lastmile_qr_scan", "ios": "https://dc.lft.to/lastmile_qr_scan"}, "is_disabled": 0, "fusion_lat": 0.0, "name": "1fc5e9ec2e75c6ac66074d1198000a5a", "fusion_lon": 0.0}, {"is_reserved": 0, "type": "electric_scooter", "bike_id": "4ee61681a1e4562736ae11f4c512f431", "lat": 38.897034, "lon": -77.02443066666666, "rental_uris": {"android": "https://dc.lft.to/lastmile_qr_scan", "ios": "https://dc.lft.to/lastmile_qr_scan"}, "is_disabled": 0, "fusion_lat": 0.0, "name": "4ee61681a1e4562736ae11f4c512f431", "fusion_lon": 0.0}, {"is_reserved": 0, "type": "electric_scooter", "bike_id": "d55bef9b68aa46472a209e190f8c84c5", "lat": 38.905489, "lon": -77.0058205, "rental_uris": {"android": "https://dc.lft.to/lastmile_qr_scan", "ios": "https://dc.lft.to/lastmile_qr_scan"}, "is_disabled": 0, "fusion_lat": 0.0, "name": "d55bef9b68aa46472a209e190f8c84c5", "fusion_lon": 0.0}, {"is_reserved": 0, "type": "electric_scooter", "bike_id": "09eb7b4fbafc522bd72e33267d6c4dd3", "lat": 38.9012345, "lon": -77.049955, "rental_uris": {"android": "https://dc.lft.to/lastmile_qr_scan", "ios": "https://dc.lft.to/lastmile_qr_scan"}, "is_disabled": 0, "fusion_lat": 0.0, "name": "09eb7b4fbafc522bd72e33267d6c4dd3", "fusion_lon": 0.0}, {"is_reserved": 0, "type": "electric_scooter", "bike_id": "1b447407f87481e093d3f85c10e7c131", "lat": 38.918249333333335, "lon": -77.02594633333334, "rental_uris": {"android": "https://dc.lft.to/lastmile_qr_scan", "ios": "https://dc.lft.to/lastmile_qr_scan"}, "is_disabled": 0, "fusion_lat": 0.0, "name": "1b447407f87481e093d3f85c10e7c131", "fusion_lon": 0.0}, {"is_reserved": 0, "type": "electric_scooter", "bike_id": "1f9cfaf975a9eda60f9f3e6d5110f04f", "lat": 38.908802333333334, "lon": -77.0433105, "rental_uris": {"android": "https://dc.lft.to/lastmile_qr_scan", "ios": "https://dc.lft.to/lastmile_qr_scan"}, "is_disabled": 0, "fusion_lat": 0.0, "name": "1f9cfaf975a9eda60f9f3e6d5110f04f", "fusion_lon": 0.0}, {"is_reserved": 0, "type": "electric_scooter", "bike_id": "384d7f742c6f4d33132360597eb0b97d", "lat": 38.8840125, "lon": -77.03035333333334, "rental_uris": {"android": "https://dc.lft.to/lastmile_qr_scan", "ios": "https://dc.lft.to/lastmile_qr_scan"}, "is_disabled": 0, "fusion_lat": 0.0, "name": "384d7f742c6f4d33132360597eb0b97d", "fusion_lon": 0.0}, {"is_reserved": 0, "type": "electric_scooter", "bike_id": "e89c64983ec94d6c6c9696a7c661b050", "lat": 38.93363033333333, "lon": -77.02414483333334, "rental_uris": {"android": "https://dc.lft.to/lastmile_qr_scan", "ios": "https://dc.lft.to/lastmile_qr_scan"}, "is_disabled": 0, "fusion_lat": 0.0, "name": "e89c64983ec94d6c6c9696a7c661b050", "fusion_lon": 0.0}, {"is_reserved": 0, "type": "electric_scooter", "bike_id": "762cc201b7b167ab49570dc918f9a49e", "lat": 38.903952833333335, "lon": -77.03153166666667, "rental_uris": {"android": "https://dc.lft.to/lastmile_qr_scan", "ios": "https://dc.lft.to/lastmile_qr_scan"}, "is_disabled": 0, "fusion_lat": 0.0, "name": "762cc201b7b167ab49570dc918f9a49e", "fusion_lon": 0.0}, {"is_reserved": 0, "type": "electric_scooter", "bike_id": "cca731543eed6402b237cd3f47438576", "lat": 38.91576233333333, "lon": -77.01996466666667, "rental_uris": {"android": "https://dc.lft.to/lastmile_qr_scan", "ios": "https://dc.lft.to/lastmile_qr_scan"}, "is_disabled": 0, "fusion_lat": 0.0, "name": "cca731543eed6402b237cd3f47438576", "fusion_lon": 0.0}, {"is_reserved": 0, "type": "electric_scooter", "bike_id": "3fd755f2db3b1b1575ea0715458a7331", "lat": 38.91998483333333, "lon": -77.07102833333333, "rental_uris": {"android": "https://dc.lft.to/lastmile_qr_scan", "ios": "https://dc.lft.to/lastmile_qr_scan"}, "is_disabled": 0, "fusion_lat": 0.0, "name": "3fd755f2db3b1b1575ea0715458a7331", "fusion_lon": 0.0}, {"is_reserved": 0, "type": "electric_scooter", "bike_id": "855af4335c4802bd8532b1a46f8b1d88", "lat": 38.9169585, "lon": -77.0359775, "rental_uris": {"android": "https://dc.lft.to/lastmile_qr_scan", "ios": "https://dc.lft.to/lastmile_qr_scan"}, "is_disabled": 0, "fusion_lat": 0.0, "name": "855af4335c4802bd8532b1a46f8b1d88", "fusion_lon": 0.0}, {"is_reserved": 0, "type": "electric_bike", "bike_id": "706c8d97c8243cfda4c2415c17f068bf", "lat": 38.80256516666667, "lon": -77.12171166666667, "rental_uris": {"android": "https://dc.lft.to/lastmile_qr_scan", "ios": "https://dc.lft.to/lastmile_qr_scan"}, "is_disabled": 0, "fusion_lat": 0.0, "name": "706c8d97c8243cfda4c2415c17f068bf", "fusion_lon": 0.0}, {"is_reserved": 0, "type": "electric_scooter", "bike_id": "cdab5d1a33d6bf36509dc70f711c6881", "lat": 38.9104845, "lon": -77.01512, "rental_uris": {"android": "https://dc.lft.to/lastmile_qr_scan", "ios": "https://dc.lft.to/lastmile_qr_scan"}, "is_disabled": 0, "fusion_lat": 0.0, "name": "cdab5d1a33d6bf36509dc70f711c6881", "fusion_lon": 0.0}, {"is_reserved": 0, "type": "electric_scooter", "bike_id": "554e58e11ce05307d581ee25c6e44f12", "lat": 38.949742, "lon": -77.02445416666667, "rental_uris": {"android": "https://dc.lft.to/lastmile_qr_scan", "ios": "https://dc.lft.to/lastmile_qr_scan"}, "is_disabled": 0, "fusion_lat": 0.0, "name": "554e58e11ce05307d581ee25c6e44f12", "fusion_lon": 0.0}, {"is_reserved": 0, "type": "electric_bike", "bike_id": "22b871a885eb6973ce83c9de1bda9b40", "lat": 38.951537, "lon": -76.93330866666666, "rental_uris": {"android": "https://dc.lft.to/lastmile_qr_scan", "ios": "https://dc.lft.to/lastmile_qr_scan"}, "is_disabled": 0, "fusion_lat": 0.0, "name": "22b871a885eb6973ce83c9de1bda9b40", "fusion_lon": 0.0}, {"is_reserved": 0, "type": "electric_scooter", "bike_id": "1231fd9c5b65670592436d573a3ba7f1", "lat": 38.92331166666666, "lon": -77.05397583333334, "rental_uris": {"android": "https://dc.lft.to/lastmile_qr_scan", "ios": "https://dc.lft.to/lastmile_qr_scan"}, "is_disabled": 0, "fusion_lat": 0.0, "name": "1231fd9c5b65670592436d573a3ba7f1", "fusion_lon": 0.0}, {"is_reserved": 0, "type": "electric_scooter", "bike_id": "63815e2528a1cbfca43102a1d1cec405", "lat": 38.876564, "lon": -77.007185, "rental_uris": {"android": "https://dc.lft.to/lastmile_qr_scan", "ios": "https://dc.lft.to/lastmile_qr_scan"}, "is_disabled": 0, "fusion_lat": 0.0, "name": "63815e2528a1cbfca43102a1d1cec405", "fusion_lon": 0.0}, {"is_reserved": 0, "type": "electric_scooter", "bike_id": "45404301fc7946d406d278492f2c93bb", "lat": 38.929948, "lon": -77.03803116666667, "rental_uris": {"android": "https://dc.lft.to/lastmile_qr_scan", "ios": "https://dc.lft.to/lastmile_qr_scan"}, "is_disabled": 0, "fusion_lat": 0.0, "name": "45404301fc7946d406d278492f2c93bb", "fusion_lon": 0.0}, {"is_reserved": 0, "type": "electric_scooter", "bike_id": "539a3665e5c7e9bd6d8563abb3fd2789", "lat": 38.878594666666665, "lon": -77.0175525, "rental_uris": {"android": "https://dc.lft.to/lastmile_qr_scan", "ios": "https://dc.lft.to/lastmile_qr_scan"}, "is_disabled": 0, "fusion_lat": 0.0, "name": "539a3665e5c7e9bd6d8563abb3fd2789", "fusion_lon": 0.0}, {"is_reserved": 0, "type": "electric_scooter", "bike_id": "0bf272779447cdc382b04b588afeb86c", "lat": 38.930817166666664, "lon": -77.0349785, "rental_uris": {"android": "https://dc.lft.to/lastmile_qr_scan", "ios": "https://dc.lft.to/lastmile_qr_scan"}, "is_disabled": 0, "fusion_lat": 0.0, "name": "0bf272779447cdc382b04b588afeb86c", "fusion_lon": 0.0}, {"is_reserved": 0, "type": "electric_scooter", "bike_id": "7ab46d10f30c4c1ed64ef84ddcc3d79b", "lat": 38.90174833333333, "lon": -77.0248285, "rental_uris": {"android": "https://dc.lft.to/lastmile_qr_scan", "ios": "https://dc.lft.to/lastmile_qr_scan"}, "is_disabled": 0, "fusion_lat": 0.0, "name": "7ab46d10f30c4c1ed64ef84ddcc3d79b", "fusion_lon": 0.0}, {"is_reserved": 0, "type": "electric_scooter", "bike_id": "1c59267a62edfb9057cf808cd69d56a1", "lat": 38.89895333333333, "lon": -77.0269525, "rental_uris": {"android": "https://dc.lft.to/lastmile_qr_scan", "ios": "https://dc.lft.to/lastmile_qr_scan"}, "is_disabled": 0, "fusion_lat": 0.0, "name": "1c59267a62edfb9057cf808cd69d56a1", "fusion_lon": 0.0}, {"is_reserved": 0, "type": "electric_scooter", "bike_id": "61173affcff4089d41dafc1d542a6330", "lat": 38.920935, "lon": -77.03165983333334, "rental_uris": {"android": "https://dc.lft.to/lastmile_qr_scan", "ios": "https://dc.lft.to/lastmile_qr_scan"}, "is_disabled": 0, "fusion_lat": 0.0, "name": "61173affcff4089d41dafc1d542a6330", "fusion_lon": 0.0}, {"is_reserved": 0, "type": "electric_scooter", "bike_id": "c4b6af4e9fb11380769509e102fb7534", "lat": 38.920245666666666, "lon": -77.01060866666667, "rental_uris": {"android": "https://dc.lft.to/lastmile_qr_scan", "ios": "https://dc.lft.to/lastmile_qr_scan"}, "is_disabled": 0, "fusion_lat": 0.0, "name": "c4b6af4e9fb11380769509e102fb7534", "fusion_lon": 0.0}, {"is_reserved": 0, "type": "electric_scooter", "bike_id": "887ff1c2606ecca600dd02fb453032ad", "lat": 38.93465833333333, "lon": -77.05810583333333, "rental_uris": {"android": "https://dc.lft.to/lastmile_qr_scan", "ios": "https://dc.lft.to/lastmile_qr_scan"}, "is_disabled": 0, "fusion_lat": 0.0, "name": "887ff1c2606ecca600dd02fb453032ad", "fusion_lon": 0.0}, {"is_reserved": 0, "type": "electric_scooter", "bike_id": "57e73c7ce85526dbfaa8b1b5372d5ad6", "lat": 38.90024283333333, "lon": -77.03201633333333, "rental_uris": {"android": "https://dc.lft.to/lastmile_qr_scan", "ios": "https://dc.lft.to/lastmile_qr_scan"}, "is_disabled": 0, "fusion_lat": 0.0, "name": "57e73c7ce85526dbfaa8b1b5372d5ad6", "fusion_lon": 0.0}, {"is_reserved": 0, "type": "electric_scooter", "bike_id": "45efc110634a57943e6cdaa57b939348", "lat": 38.89876916666667, "lon": -77.04869783333334, "rental_uris": {"android": "https://dc.lft.to/lastmile_qr_scan", "ios": "https://dc.lft.to/lastmile_qr_scan"}, "is_disabled": 0, "fusion_lat": 0.0, "name": "45efc110634a57943e6cdaa57b939348", "fusion_lon": 0.0},