{"data": {"bikes": [{"lat": 38.9074275, "is_disabled": 0, "type": "electric_scooter", "lon": -77.0416815, "bike_id": "c4e6dec6403224ae5722acb5394829da", "fusion_lat": 0.0, "name": "c4e6dec6403224ae5722acb5394829da", "is_reserved": 0, "rental_uris": {"android": "https://dc.lft.to/lastmile_qr_scan", "ios": "https://dc.lft.to/lastmile_qr_scan"}, "fusion_lon": 0.0}, {"lat": 38.902222333333334, "is_disabled": 0, "type": "electric_scooter", "lon": -77.02161816666667, "bike_id": "26c962ae31b6b228acee1fb0fe86abd2", "fusion_lat": 0.0, "name": "26c962ae31b6b228acee1fb0fe86abd2", "is_reserved": 0, "rental_uris": {"android": "https://dc.lft.to/lastmile_qr_scan", "ios": "https://dc.lft.to/lastmile_qr_scan"}, "fusion_lon": 0.0}, {"lat": 38.899729666666666, "is_disabled": 0, "type": "electric_scooter", "lon": -77.05267533333334, "bike_id": "471cd08c23d8a4105ea1361e0446bb99", "fusion_lat": 0.0, "name": "471cd08c23d8a4105ea1361e0446bb99", "is_reserved": 0, "rental_uris": {"android": "https://dc.lft.to/lastmile_qr_scan", "ios": "https://dc.lft.to/lastmile_qr_scan"}, "fusion_lon": 0.0}, {"lat": 38.9033085, "is_disabled": 0, "type": "electric_scooter", "lon": -76.97056633333334, "bike_id": "cf67339207667daa0599466a8684912e", "fusion_lat": 0.0, "name": "cf67339207667daa0599466a8684912e", "is_reserved": 0, "rental_uris": {"android": "https://dc.lft.to/lastmile_qr_scan", "ios": "https://dc.lft.to/lastmile_qr_scan"}, "fusion_lon": 0.0}, {"lat": 38.95733716666667, "is_disabled": 0, "type": "electric_scooter", "lon": -77.02384866666667, "bike_id": "765d2a4e22d054bcb00f82cd3ece8dc8", "fusion_lat": 0.0, "name": "765d2a4e22d054bcb00f82cd3ece8dc8", "is_reserved": 0, "rental_uris": {"android": "https://dc.lft.to/lastmile_qr_scan", "ios": "https://dc.lft.to/lastmile_qr_scan"}, "fusion_lon": 0.0}, {"lat": 38.9150055, "is_disabled": 0, "type": "electric_scooter", "lon": -76.9835765, "bike_id": "8fd0ba82f0cb9034f6bc06a12c7d6e13", "fusion_lat": 0.0, "name": "8fd0ba82f0cb9034f6bc06a12c7d6e13", "is_reserved": 0, "rental_uris": {"android": "https://dc.lft.to/lastmile_qr_scan", "ios": "https://dc.lft.to/lastmile_qr_scan"}, "fusion_lon": 0.0}, {"lat": 38.91563766666667, "is_disabled": 0, "type": "electric_scooter", "lon": -77.00980483333333, "bike_id": "599fffe65beda3c7ed2e74f6c74ab45d", "fusion_lat": 0.0, "name": "599fffe65beda3c7ed2e74f6c74ab45d", "is_reserved": 0, "rental_uris": {"android": "https://dc.lft.to/lastmile_qr_scan", "ios": "https://dc.lft.to/lastmile_qr_scan"}, "fusion_lon": 0.0}, {"lat": 38.90881783333333, "is_disabled": 0, "type": "electric_scooter", "lon": -77.03661916666667, "bike_id": "d7300c3b11b1806f4af889b2e82a419f", "fusion_lat": 0.0, "name": "d7300c3b11b1806f4af889b2e82a419f", "is_reserved": 0, "rental_uris": {"android": "https://dc.lft.to/lastmile_qr_scan", "ios": "https://dc.lft.to/lastmile_qr_scan"}, "fusion_lon": 0.0}, {"lat": 38.86611333333333, "is_disabled": 0, "type": "electric_scooter", "lon": -76.98665983333333, "bike_id": "cf72b45a0c5c541392f7aea25c33b319", "fusion_lat": 0.0, "name": "cf72b45a0c5c541392f7aea25c33b319", "is_reserved": 0, "rental_uris": {"android": "https://dc.lft.to/lastmile_qr_scan", "ios": "https://dc.lft.to/lastmile_qr_scan"}, "fusion_lon": 0.0}, {"lat": 38.911964833333336, "is_disabled": 0, "type": "electric_scooter", "lon": -77.04494966666667, "bike_id": "2735cb7ef3428e9212595e980ddfb9f8", "fusion_lat": 0.0, "name": "2735cb7ef3428e9212595e980ddfb9f8", "is_reserved": 0, "rental_uris": {"android": "https://dc.lft.to/lastmile_qr_scan", "ios": "https://dc.lft.to/lastmile_qr_scan"}, "fusion_lon": 0.0}, {"lat": 38.90132533333333, "is_disabled": 0, "type": "electric_scooter", "lon": -77.051095, "bike_id": "7993e721996bc04d3b0d5dda86a0cc5b", "fusion_lat": 0.0, "name": "7993e721996bc04d3b0d5dda86a0cc5b", "is_reserved": 0, "rental_uris": {"android": "https://dc.lft.to/lastmile_qr_scan", "ios": "https://dc.lft.to/lastmile_qr_scan"}, "fusion_lon": 0.0}, {"lat": 38.8942565, "is_disabled": 0, "type": "electric_scooter", "lon": -77.02093216666667, "bike_id": "aec5d997269321e7752ff964b23e6098", "fusion_lat": 0.0, "name": "aec5d997269321e7752ff964b23e6098", "is_reserved": 0, "rental_uris": {"android": "https://dc.lft.to/lastmile_qr_scan", "ios": "https://dc.lft.to/lastmile_qr_scan"}, "fusion_lon": 0.0}, {"lat": 38.9507545, "is_disabled": 0, "type": "electric_bike", "lon": -77.01194233333334, "bike_id": "7d25a2b61089ebb4919badde94a2ec14", "fusion_lat": 0.0, "name": "7d25a2b61089ebb4919badde94a2ec14", "is_reserved": 0, "rental_uris": {"android": "https://dc.lft.to/lastmile_qr_scan", "ios": "https://dc.lft.to/lastmile_qr_scan"}, "fusion_lon": 0.0}, {"lat": 38.9057785, "is_disabled": 0, "type": "electric_scooter", "lon": -77.0220495, "bike_id": "8316e2be3c2ac7952892e091ecfd4f93", "fusion_lat": 0.0, "name": "8316e2be3c2ac7952892e091ecfd4f93", "is_reserved": 0, "rental_uris": {"android": "https://dc.lft.to/lastmile_qr_scan", "ios": "https://dc.lft.to/lastmile_qr_scan"}, "fusion_lon": 0.0}, {"lat": 38.935811, "is_disabled": 0, "type": "electric_scooter", "lon": -77.0375745, "bike_id": "8377502b054ca03309166a475833e03d", "fusion_lat": 0.0, "name": "8377502b054ca03309166a475833e03d", "is_reserved": 0, "rental_uris": {"android": "https://dc.lft.to/lastmile_qr_scan", "ios": "https://dc.lft.to/lastmile_qr_scan"}, "fusion_lon": 0.0}, {"lat": 38.882780833333335, "is_disabled": 0, "type": "electric_bike", "lon": -76.93244666666666, "bike_id": "5374ca3ba29e4d7fcfd0b6bdcc36a3b7", "fusion_lat": 0.0, "name": "5374ca3ba29e4d7fcfd0b6bdcc36a3b7", "is_reserved": 0, "rental_uris": {"android": "https://dc.lft.to/lastmile_qr_scan", "ios": "https://dc.lft.to/lastmile_qr_scan"}, "fusion_lon": 0.0}, {"lat": 38.89673583333333, "is_disabled": 0, "type": "electric_scooter", "lon": -77.00516566666667, "bike_id": "f04d989c4b2779441ad7e8ad8a0e38c0", "fusion_lat": 0.0, "name": "f04d989c4b2779441ad7e8ad8a0e38c0", "is_reserved": 0, "rental_uris": {"android": "https://dc.lft.to/lastmile_qr_scan", "ios": "https://dc.lft.to/lastmile_qr_scan"}, "fusion_lon": 0.0}, {"lat": 38.9167415, "is_disabled": 0, "type": "electric_scooter", "lon": -77.0321755, "bike_id": "15ccf691f3035639dcfa7afe71bd2aa1", "fusion_lat": 0.0, "name": "15ccf691f3035639dcfa7afe71bd2aa1", "is_reserved": 0, "rental_uris": {"android": "https://dc.lft.to/lastmile_qr_scan", "ios": "https://dc.lft.to/lastmile_qr_scan"}, "fusion_lon": 0.0}, {"lat": 38.92104533333333, "is_disabled": 0, "type": "electric_scooter", "lon": -77.03178166666666, "bike_id": "1ce4dac3cc13e8f6b4d3eb5d6471878a", "fusion_lat": 0.0, "name": "1ce4dac3cc13e8f6b4d3eb5d6471878a", "is_reserved": 0, "rental_uris": {"android": "https://dc.lft.to/lastmile_qr_scan", "ios": "https://dc.lft.to/lastmile_qr_scan"}, "fusion_lon": 0.0}, {"lat": 38.9161035, "is_disabled": 0, "type": "electric_scooter", "lon": -77.03737616666666, "bike_id": "bc93de64328fc9db9fabbd96a39347c4", "fusion_lat": 0.0, "name": "bc93de64328fc9db9fabbd96a39347c4", "is_reserved": 0, "rental_uris": {"android": "https://dc.lft.to/lastmile_qr_scan", "ios": "https://dc.lft.to/lastmile_qr_scan"}, "fusion_lon": 0.0}, {"lat": 38.920913166666665, "is_disabled": 0, "type": "electric_scooter", "lon": -77.02546116666667, "bike_id": "06e2506b1504fcbd1b9973eb3c9d3c6b", "fusion_lat": 0.0, "name": "06e2506b1504fcbd1b9973eb3c9d3c6b", "is_reserved": 0, "rental_uris": {"android": "https://dc.lft.to/lastmile_qr_scan", "ios": "https://dc.lft.to/lastmile_qr_scan"}, "fusion_lon": 0.0}, {"lat": 38.87081283333333, "is_disabled": 0, "type": "electric_scooter", "lon": -77.0111355, "bike_id": "6e3a3b70c5b98f4f3a1c5c776829de2b", "fusion_lat": 0.0, "name": "6e3a3b70c5b98f4f3a1c5c776829de2b", "is_reserved": 0, "rental_uris": {"android": "https://dc.lft.to/lastmile_qr_scan", "ios": "https://dc.lft.to/lastmile_qr_scan"}, "fusion_lon": 0.0}, {"lat": 38.87915266666667, "is_disabled": 0, "type": "electric_scooter", "lon": -76.995087, "bike_id": "1d015671fb1eb07648294f3ddf509c31", "fusion_lat": 0.0, "name": "1d015671fb1eb07648294f3ddf509c31", "is_reserved": 0, "rental_uris": {"android": "https://dc.lft.to/lastmile_qr_scan", "ios": "https://dc.lft.to/lastmile_qr_scan"}, "fusion_lon": 0.0}, {"lat": 38.911935166666666, "is_disabled": 0, "type": "electric_scooter", "lon": -77.00455333333333, "bike_id": "bbde6ea32fc6879df7222798c43ff0ea", "fusion_lat": 0.0, "name": "bbde6ea32fc6879df7222798c43ff0ea", "is_reserved": 0, "rental_uris": {"android": "https://dc.lft.to/lastmile_qr_scan", "ios": "https://dc.lft.to/lastmile_qr_scan"}, "fusion_lon": 0.0}, {"lat": 38.962185, "is_disabled": 0, "type": "electric_bike", "lon": -77.02625283333333, "bike_id": "2ec82591b71afaff44123eaf68bc55b0", "fusion_lat": 0.0, "name": "2ec82591b71afaff44123eaf68bc55b0", "is_reserved": 0, "rental_uris": {"android": "https://dc.lft.to/lastmile_qr_scan", "ios": "https://dc.lft.to/lastmile_qr_scan"}, "fusion_lon": 0.0}, {"lat": 38.94823216666666, "is_disabled": 0, "type": "electric_scooter", "lon": -76.9990455, "bike_id": "74594db90bf979a3217761b4b4cb40e6", "fusion_lat": 0.0, "name": "74594db90bf979a3217761b4b4cb40e6", "is_reserved": 0, "rental_uris": {"android": "https://dc.lft.to/lastmile_qr_scan", "ios": "https://dc.lft.to/lastmile_qr_scan"}, "fusion_lon": 0.0}, {"lat": 38.932369333333334, "is_disabled": 0, "type": "electric_bike", "lon": -76.97426, "bike_id": "c2d3e63b030f7a97f9701d65fb127ddb", "fusion_lat": 0.0, "name": "c2d3e63b030f7a97f9701d65fb127ddb", "is_reserved": 0, "rental_uris": {"android": "https://dc.lft.to/lastmile_qr_scan", "ios": "https://dc.lft.to/lastmile_qr_scan"}, "fusion_lon": 0.0}, {"lat": 38.806828833333334, "is_disabled": 0, "type": "electric_bike", "lon": -77.08117883333334, "bike_id": "bbfb04b3dc84536fbc64ec5173a19de0", "fusion_lat": 0.0, "name": "bbfb04b3dc84536fbc64ec5173a19de0", "is_reserved": 0, "rental_uris": {"android": "https://dc.lft.to/lastmile_qr_scan", "ios": "https://dc.lft.to/lastmile_qr_scan"}, "fusion_lon": 0.0}, {"lat": 38.91270883333333, "is_disabled": 0, "type": "electric_bike", "lon": -77.01220216666667, "bike_id": "99f2ad221a5ff17adff3c6b4d291dc69", "fusion_lat": 0.0, "name": "99f2ad221a5ff17adff3c6b4d291dc69", "is_reserved": 0, "rental_uris": {"android": "https://dc.lft.to/lastmile_qr_scan", "ios": "https://dc.lft.to/lastmile_qr_scan"}, "fusion_lon": 0.0}, {"lat": 38.91777716666667, "is_disabled": 0, "type": "electric_scooter", "lon": -77.043408, "bike_id": "bf909e78bf743589e2e4516d0ba90a49", "fusion_lat": 0.0, "name": "bf909e78bf743589e2e4516d0ba90a49", "is_reserved": 0, "rental_uris": {"android": "https://dc.lft.to/lastmile_qr_scan", "ios": "https://dc.lft.to/lastmile_qr_scan"}, "fusion_lon": 0.0}, {"lat": 38.866586, "is_disabled": 0, "type": "electric_scooter", "lon": -76.98886333333333, "bike_id": "032cb0e9f25efa6e00f147559ea8bd8d", "fusion_lat": 0.0, "name": "032cb0e9f25efa6e00f147559ea8bd8d", "is_reserved": 0, "rental_uris": {"android": "https://dc.lft.to/lastmile_qr_scan", "ios": "https://dc.lft.to/lastmile_qr_scan"}, "fusion_lon": 0.0}, {"lat": 38.9257325, "is_disabled": 0, "type": "electric_scooter", "lon": -77.057712, "bike_id": "c6cc968a1ee5081805847feedb9024a7", "fusion_lat": 0.0, "name": "c6cc968a1ee5081805847feedb9024a7", "is_reserved": 0, "rental_uris": {"android": "https://dc.lft.to/lastmile_qr_scan", "ios": "https://dc.lft.to/lastmile_qr_scan"}, "fusion_lon": 0.0}, {"lat": 38.911357833333334, "is_disabled": 0, "type": "electric_scooter", "lon": -77.04414433333334, "bike_id": "0a0f84eb0275422f70f3f0d5f9710f7c", "fusion_lat": 0.0, "name": "0a0f84eb0275422f70f3f0d5f9710f7c", "is_reserved": 0, "rental_uris": {"android": "https://dc.lft.to/lastmile_qr_scan", "ios": "https://dc.lft.to/lastmile_qr_scan"}, "fusion_lon": 0.0}, {"lat": 38.92136383333333, "is_disabled": 0, "type": "electric_scooter", "lon": -77.04350033333333, "bike_id": "591ecbd5df6c7b71622214a8d98cf6ec", "fusion_lat": 0.0, "name": "591ecbd5df6c7b71622214a8d98cf6ec", "is_reserved": 0, "rental_uris": {"android": "https://dc.lft.to/lastmile_qr_scan", "ios": "https://dc.lft.to/lastmile_qr_scan"}, "fusion_lon": 0.0}, {"lat": 38.90331, "is_disabled": 0, "type": "electric_scooter", "lon": -76.975967, "bike_id": "5d5f845a83a0fc9728b2774bc05f1cfc", "fusion_lat": 0.0, "name": "5d5f845a83a0fc9728b2774bc05f1cfc", "is_reserved": 0, "rental_uris": {"android": "https://dc.lft.to/lastmile_qr_scan", "ios": "https://dc.lft.to/lastmile_qr_scan"}, "fusion_lon": 0.0}, {"lat": 38.90356366666666, "is_disabled": 0, "type": "electric_scooter", "lon": -77.02523666666667, "bike_id": "08105a1d5eeaaf3a9c07d7ac8d373a9a", "fusion_lat": 0.0, "name": "08105a1d5eeaaf3a9c07d7ac8d373a9a", "is_reserved": 0, "rental_uris": {"android": "https://dc.lft.to/lastmile_qr_scan", "ios": "https://dc.lft.to/lastmile_qr_scan"}, "fusion_lon": 0.0}, {"lat": 38.892587666666664, "is_disabled": 0, "type": "electric_scooter", "lon": -76.941603, "bike_id": "6943516a6c6a649c547fa3443bc939ff", "fusion_lat": 0.0, "name": "6943516a6c6a649c547fa3443bc939ff", "is_reserved": 0, "rental_uris": {"android": "https://dc.lft.to/lastmile_qr_scan", "ios": "https://dc.lft.to/lastmile_qr_scan"}, "fusion_lon": 0.0}, {"lat": 38.939933333333336, "is_disabled": 0, "type": "electric_scooter", "lon": -77.0717365, "bike_id": "91e55bfec828fef55b2c0de1a1c653b2", "fusion_lat": 0.0, "name": "91e55bfec828fef55b2c0de1a1c653b2", "is_reserved": 0, "rental_uris": {"android": "https://dc.lft.to/lastmile_qr_scan", "ios": "https://dc.lft.to/lastmile_qr_scan"}, "fusion_lon": 0.0}, {"lat": 38.931977833333335, "is_disabled": 0, "type": "electric_scooter", "lon": -77.0374995, "bike_id": "5960fddb6e40c2094e68b8aab03eff08", "fusion_lat": 0.0, "name": "5960fddb6e40c2094e68b8aab03eff08", "is_reserved": 0, "rental_uris": {"android": "https://dc.lft.to/lastmile_qr_scan", "ios": "https://dc.lft.to/lastmile_qr_scan"}, "fusion_lon": 0.0}, {"lat": 38.874100166666665, "is_disabled": 0, "type": "electric_scooter", "lon": -76.97308416666667, "bike_id": "2a31816156556cc5f1e12d5d0a65a100", "fusion_lat": 0.0, "name": "2a31816156556cc5f1e12d5d0a65a100", "is_reserved": 0, "rental_uris": {"android": "https://dc.lft.to/lastmile_qr_scan", "ios": "https://dc.lft.to/lastmile_qr_scan"}, "fusion_lon": 0.0}, {"lat": 38.897473166666664, "is_disabled": 0, "type": "electric_scooter", "lon": -77.04544466666667, "bike_id": "eb25d67016bae4ca753cfcab5b34cdac", "fusion_lat": 0.0, "name": "eb25d67016bae4ca753cfcab5b34cdac", "is_reserved": 0, "rental_uris": {"android": "https://dc.lft.to/lastmile_qr_scan", "ios": "https://dc.lft.to/lastmile_qr_scan"}, "fusion_lon": 0.0}, {"lat": 38.899079666666665, "is_disabled": 0, "type": "electric_scooter", "lon": -76.93353866666666, "bike_id": "845a54e120fdf75d0a3656e5b5975d51", "fusion_lat": 0.0, "name": "845a54e120fdf75d0a3656e5b5975d51", "is_reserved": 0, "rental_uris": {"android": "https://dc.lft.to/lastmile_qr_scan", "ios": "https://dc.lft.to/lastmile_qr_scan"}, "fusion_lon": 0.0}, {"lat": 38.94070266666667, "is_disabled": 0, "type": "electric_scooter", "lon": -77.06139033333334, "bike_id": "7ee3904374f81e477210d60f671e5cf0", "fusion_lat": 0.0, "name": "7ee3904374f81e477210d60f671e5cf0", "is_reserved": 0, "rental_uris": {"android": "https://dc.lft.to/lastmile_qr_scan", "ios": "https://dc.lft.to/lastmile_qr_scan"}, "fusion_lon": 0.0}, {"lat": 38.9365705, "is_disabled": 0, "type": "electric_scooter", "lon": -77.036552, "bike_id": "c469db005c575878bccb737bda730258", "fusion_lat": 0.0, "name": "c469db005c575878bccb737bda730258", "is_reserved": 0, "rental_uris": {"android": "https://dc.lft.to/lastmile_qr_scan", "ios": "https://dc.lft.to/lastmile_qr_scan"}, "fusion_lon": 0.0}, {"lat": 38.93105, "is_disabled": 0, "type": "electric_scooter", "lon": -77.03510366666667, "bike_id": "0cdc6e50565c7e6f1e49fd49f7445fca", "fusion_lat": 0.0, "name": "0cdc6e50565c7e6f1e49fd49f7445fca", "is_reserved": 0, "rental_uris": {"android": "https://dc.lft.to/lastmile_qr_scan", "ios": "https://dc.lft.to/lastmile_qr_scan"}, "fusion_lon": 0.0}, {"lat": 38.9328575, "is_disabled": 0, "type": "electric_scooter", "lon": -77.0282745, "bike_id": "0598ef8f6bacd57d807ba9d1654bc3e3", "fusion_lat": 0.0, "name": "0598ef8f6bacd57d807ba9d1654bc3e3", "is_reserved": 0, "rental_uris": {"android": "https://dc.lft.to/lastmile_qr_scan", "ios": "https://dc.lft.to/lastmile_qr_scan"}, "fusion_lon": 0.0}, {"lat": 38.9147755, "is_disabled": 0, "type": "electric_scooter", "lon": -76.983606, "bike_id": "4a208e540949340e8dd4b074dd2bb680", "fusion_lat": 0.0, "name": "4a208e540949340e8dd4b074dd2bb680", "is_reserved": 0, "rental_uris": {"android": "https://dc.lft.to/lastmile_qr_scan", "ios": "https://dc.lft.to/lastmile_qr_scan"}, "fusion_lon": 0.0}, {"lat": 38.9319965, "is_disabled": 0, "type": "electric_scooter", "lon": -77.04427433333333, "bike_id": "4fc2bef0deabd7dafa8a986ef3de3c51", "fusion_lat": 0.0, "name": "4fc2bef0deabd7dafa8a986ef3de3c51", "is_reserved": 0, "rental_uris": {"android": "https://dc.lft.to/lastmile_qr_scan", "ios": "https://dc.lft.to/lastmile_qr_scan"}, "fusion_lon": 0.0}, {"lat": 38.932563333333334, "is_disabled": 0, "type": "electric_scooter", "lon": -77.032819, "bike_id": "a36424e59ae3e0f97df91e1d8e84df3b", "fusion_lat": 0.0, "name": "a36424e59ae3e0f97df91e1d8e84df3b", "is_reserved": 0, "rental_uris": {"android": "https://dc.lft.to/lastmile_qr_scan", "ios": "https://dc.lft.to/lastmile_qr_scan"}, "fusion_lon": 0.0}, {"lat": 38.90230533333333, "is_disabled": 0, "type": "electric_scooter", "lon": -77.05314366666667, "bike_id": "7ca2cf81b2ce72fd8f08cd3c026158bd", "fusion_lat": 0.0, "name": "7ca2cf81b2ce72fd8f08cd3c026158bd", "is_reserved": 0, "rental_uris": {"android": "https://dc.lft.to/lastmile_qr_scan", "ios": "https://dc.lft.to/lastmile_qr_scan"}, "fusion_lon": 0.0}, {"lat": 38.876286, "is_disabled": 0, "type": "electric_scooter", "lon": -76.96528833333333, "bike_id": "359c3122bab8ce7a9e463410a17b9be3", "fusion_lat": 0.0, "name": "359c3122bab8ce7a9e463410a17b9be3", "is_reserved": 0, "rental_uris": {"android": "https://dc.lft.to/lastmile_qr_scan", "ios": "https://dc.lft.to/lastmile_qr_scan"}, "fusion_lon": 0.0}, {"lat": 38.90221866666667, "is_disabled": 0, "type": "electric_scooter", "lon": -77.02172933333334, "bike_id": "9fec4dadb00e80bc90ef32b1339a87ca", "fusion_lat": 0.0, "name": "9fec4dadb00e80bc90ef32b1339a87ca", "is_reserved": 0, "rental_uris": {"android": "https://dc.lft.to/lastmile_qr_scan", "ios": "https://dc.lft.to/lastmile_qr_scan"}, "fusion_lon": 0.0}, {"lat": 38.90792716666667, "is_disabled": 0, "type": "electric_scooter", "lon": -77.0434095, "bike_id": "858eb63b8b1af9b4cf486e11314b53fc", "fusion_lat": 0.0, "name": "858eb63b8b1af9b4cf486e11314b53fc", "is_reserved": 0, "rental_uris": {"android": "https://dc.lft.to/lastmile_qr_scan", "ios": "https://dc.lft.to/lastmile_qr_scan"}, "fusion_lon": 0.0}, {"lat": 38.90979016666667, "is_disabled": 0, "type": "electric_bike", "lon": -76.985198, "bike_id": "ca31ba53d573e9d8b621d40a054339c4", "fusion_lat": 0.0, "name": "ca31ba53d573e9d8b621d40a054339c4", "is_reserved": 0, "rental_uris": {"android": "https://dc.lft.to/lastmile_qr_scan", "ios": "https://dc.lft.to/lastmile_qr_scan"}, "fusion_lon": 0.0}, {"lat": 38.9034925, "is_disabled": 0, "type": "electric_scooter", "lon": -77.042685, "bike_id": "db1cae204b27ebb3a4aad1ef9fc88182", "fusion_lat": 0.0, "name": "db1cae204b27ebb3a4aad1ef9fc88182", "is_reserved": 0, "rental_uris": {"android": "https://dc.lft.to/lastmile_qr_scan", "ios": "https://dc.lft.to/lastmile_qr_scan"}, "fusion_lon": 0.0}, {"lat": 38.90805116666667, "is_disabled": 0, "type": "electric_scooter", "lon": -76.982775, "bike_id": "76344195f87a4d339b24a8bd0e5a756c", "fusion_lat": 0.0, "name": "76344195f87a4d339b24a8bd0e5a756c", "is_reserved": 0, "rental_uris": {"android": "https://dc.lft.to/lastmile_qr_scan", "ios": "https://dc.lft.to/lastmile_qr_scan"}, "fusion_lon": 0.0}, {"lat": 38.90272483333333, "is_disabled": 0, "type": "electric_scooter", "lon": -77.03381283333333, "bike_id": "773370d5e3eae4fe43d53c36e5e6a8e1", "fusion_lat": 0.0, "name": "773370d5e3eae4fe43d53c36e5e6a8e1", "is_reserved": 0, "rental_uris": {"android": "https://dc.lft.to/lastmile_qr_scan", "ios": "https://dc.lft.to/lastmile_qr_scan"}, "fusion_lon": 0.0}, {"lat": 38.92327816666667, "is_disabled": 0, "type": "electric_scooter", "lon": -77.0418225, "bike_id": "8eb764aa9b3399dfed8955b9f98c7a84", "fusion_lat": 0.0, "name": "8eb764aa9b3399dfed8955b9f98c7a84", "is_reserved": 0, "rental_uris": {"android": "https://dc.lft.to/lastmile_qr_scan", "ios": "https://dc.lft.to/lastmile_qr_scan"}, "fusion_lon": 0.0}, {"lat": 38.905411666666666, "is_disabled": 0, "type": "electric_scooter", "lon": -77.03397083333333, "bike_id": "e29fcb6086d55fac68b39b5011fb93e6", "fusion_lat": 0.0, "name": "e29fcb6086d55fac68b39b5011fb93e6", "is_reserved": 0, "rental_uris": {"android": "https://dc.lft.to/lastmile_qr_scan", "ios": "https://dc.lft.to/lastmile_qr_scan"}, "fusion_lon": 0.0}, {"lat": 38.8934685, "is_disabled": 0, "type": "electric_scooter", "lon": -76.94933766666666, "bike_id": "afe2069a859f06dcce7008daba8d936a", "fusion_lat": 0.0, "name": "afe2069a859f06dcce7008daba8d936a", "is_reserved": 0, "rental_uris": {"android": "https://dc.lft.to/lastmile_qr_scan", "ios": "https://dc.lft.to/lastmile_qr_scan"}, "fusion_lon": 0.0}, {"lat": 38.91418783333334, "is_disabled": 0, "type": "electric_scooter", "lon": -77.0220175, "bike_id": "f6860b62c0b8532c8d7018ad57f57375", "fusion_lat": 0.0, "name": "f6860b62c0b8532c8d7018ad57f57375", "is_reserved": 0, "rental_uris": {"android": "https://dc.lft.to/lastmile_qr_scan", "ios": "https://dc.lft.to/lastmile_qr_scan"}, "fusion_lon": 0.0}, {"lat": 38.88067216666666, "is_disabled": 0, "type": "electric_bike", "lon": -77.10932366666667, "bike_id": "ecc2a6f69f0a6fbd6b8a211325beb990", "fusion_lat": 0.0, "name": "ecc2a6f69f0a6fbd6b8a211325beb990", "is_reserved": 0, "rental_uris": {"android": "https://dc.lft.to/lastmile_qr_scan", "ios": "https://dc.lft.to/lastmile_qr_scan"}, "fusion_lon": 0.0}, {"lat": 38.972819333333334, "is_disabled": 0, "type": "electric_bike", "lon": -77.0362835, "bike_id": "c2d9e0d82a07cde6db376cdcec14ca9a", "fusion_lat": 0.0, "name": "c2d9e0d82a07cde6db376cdcec14ca9a", "is_reserved": 0, "rental_uris": {"android": "https://dc.lft.to/lastmile_qr_scan", "ios": "https://dc.lft.to/lastmile_qr_scan"}, "fusion_lon": 0.0}, {"lat": 38.9181835, "is_disabled": 0, "type": "electric_scooter", "lon": -77.03915866666667, "bike_id": "24b97b63e99eb19e2a06b3625f085830", "fusion_lat": 0.0, "name": "24b97b63e99eb19e2a06b3625f085830", "is_reserved": 0, "rental_uris": {"android": "https://dc.lft.to/lastmile_qr_scan", "ios": "https://dc.lft.to/lastmile_qr_scan"}, "fusion_lon": 0.0}, {"lat": 38.89449283333333, "is_disabled": 0, "type": "electric_scooter", "lon": -77.02119333333333, "bike_id": "e27e33de087625aff9a78c3d6c07d1fe", "fusion_lat": 0.0, "name": "e27e33de087625aff9a78c3d6c07d1fe", "is_reserved": 0, "rental_uris": {"android": "https://dc.lft.to/lastmile_qr_scan", "ios": "https://dc.lft.to/lastmile_qr_scan"}, "fusion_lon": 0.0}, {"lat": 38.903695666666664, "is_disabled": 0, "type": "electric_scooter", "lon": -77.04001483333333, "bike_id": "d2ded1cc42512dff4e08d07bae45af69", "fusion_lat": 0.0, "name": "d2ded1cc42512dff4e08d07bae45af69", "is_reserved": 0, "rental_uris": {"android": "https://dc.lft.to/lastmile_qr_scan", "ios": "https://dc.lft.to/lastmile_qr_scan"}, "fusion_lon": 0.0}, {"lat": 38.92563766666667, "is_disabled": 0, "type": "electric_scooter", "lon": -77.035332, "bike_id": "9e2dfe02e338fd5facf102928f883a06", "fusion_lat": 0.0, "name": "9e2dfe02e338fd5facf102928f883a06", "is_reserved": 0, "rental_uris": {"android": "https://dc.lft.to/lastmile_qr_scan", "ios": "https://dc.lft.to/lastmile_qr_scan"}, "fusion_lon": 0.0}, {"lat": 38.9086445, "is_disabled": 0, "type": "electric_scooter", "lon": -77.03831616666666, "bike_id": "238fbb84e449f11adb13b4a12b09d36b", "fusion_lat": 0.0, "name": "238fbb84e449f11adb13b4a12b09d36b", "is_reserved": 0, "rental_uris": {"android": "https://dc.lft.to/lastmile_qr_scan", "ios": "https://dc.lft.to/lastmile_qr_scan"}, "fusion_lon": 0.0}, {"lat": 38.944965833333335, "is_disabled": 0, "type": "electric_bike", "lon": -77.00681266666666, "bike_id": "25df695b8fa5617dbf5235383423a886", "fusion_lat": 0.0, "name": "25df695b8fa5617dbf5235383423a886", "is_reserved": 0, "rental_uris": {"android": "https://dc.lft.to/lastmile_qr_scan", "ios": "https://dc.lft.to/lastmile_qr_scan"}, "fusion_lon": 0.0}, {"lat": 38.966219833333334, "is_disabled": 0, "type": "electric_bike", "lon": -76.9766895, "bike_id": "12b5249cd5146746ae26414d001469e8", "fusion_lat": 0.0, "name": "12b5249cd5146746ae26414d001469e8", "is_reserved": 0, "rental_uris": {"android": "https://dc.lft.to/lastmile_qr_scan", "ios": "https://dc.lft.to/lastmile_qr_scan"}, "fusion_lon": 0.0}, {"lat": 38.896411, "is_disabled": 0, "type": "electric_scooter", "lon": -77.00917583333333, "bike_id": "ae785ae0ec0c1f254402b52a5cc5ad99", "fusion_lat": 0.0, "name": "ae785ae0ec0c1f254402b52a5cc5ad99", "is_reserved": 0, "rental_uris": {"android": "https://dc.lft.to/lastmile_qr_scan", "ios": "https://dc.lft.to/lastmile_qr_scan"}, "fusion_lon": 0.0}, {"lat": 38.911739833333336, "is_disabled": 0, "type": "electric_scooter", "lon": -77.06263333333334, "bike_id": "ab78b03195e9d7d0f1e970d8b6626218", "fusion_lat": 0.0, "name": "ab78b03195e9d7d0f1e970d8b6626218", "is_reserved": 0, "rental_uris": {"android": "https://dc.lft.to/lastmile_qr_scan", "ios": "https://dc.lft.to/lastmile_qr_scan"}, "fusion_lon": 0.0}, {"lat": 38.90008866666667, "is_disabled": 0, "type": "electric_scooter", "lon": -77.03313033333333, "bike_id": "cb9437a7fec809d9cf6d152fedc7ff26", "fusion_lat": 0.0, "name": "cb9437a7fec809d9cf6d152fedc7ff26", "is_reserved": 0, "rental_uris": {"android": "https://dc.lft.to/lastmile_qr_scan", "ios": "https://dc.lft.to/lastmile_qr_scan"}, "fusion_lon": 0.0}, {"lat": 38.916353666666666, "is_disabled": 0, "type": "electric_scooter", "lon": -77.02703066666666, "bike_id": "fb08cf455692c6b9ad73ba935e9d1dad", "fusion_lat": 0.0, "name": "fb08cf455692c6b9ad73ba935e9d1dad", "is_reserved": 0, "rental_uris": {"android": "https://dc.lft.to/lastmile_qr_scan", "ios": "https://dc.lft.to/lastmile_qr_scan"}, "fusion_lon": 0.0}, {"lat": 38.941333666666665, "is_disabled": 0, "type": "electric_scooter", "lon": -77.07616583333333, "bike_id": "a6a8138a1790225e1f51916adb293b3f", "fusion_lat": 0.0, "name": "a6a8138a1790225e1f51916adb293b3f", "is_reserved": 0, "rental_uris": {"android": "https://dc.lft.to/lastmile_qr_scan", "ios": "https://dc.lft.to/lastmile_qr_scan"}, "fusion_lon": 0.0}, {"lat": 38.9094835, "is_disabled": 0, "type": "electric_scooter", "lon": -77.04661616666667, "bike_id": "e801f69e90c1b707355824f51a9af9ee", "fusion_lat": 0.0, "name": "e801f69e90c1b707355824f51a9af9ee", "is_reserved": 0, "rental_uris": {"android": "https://dc.lft.to/lastmile_qr_scan", "ios": "https://dc.lft.to/lastmile_qr_scan"}, "fusion_lon": 0.0}, {"lat": 38.871461, "is_disabled": 0, "type": "electric_bike", "lon": -76.93677416666667, "bike_id": "4030e4794b75d1b68ed5b906e8c4128c", "fusion_lat": 0.0, "name": "4030e4794b75d1b68ed5b906e8c4128c", "is_reserved": 0, "rental_uris": {"android": "https://dc.lft.to/lastmile_qr_scan", "ios": "https://dc.lft.to/lastmile_qr_scan"}, "fusion_lon": 0.0}, {"lat": 38.907359, "is_disabled": 0, "type": "electric_scooter", "lon": -77.03469283333334, "bike_id": "a49ec5c154825b9caf7c68910e638d10", "fusion_lat": 0.0, "name": "a49ec5c154825b9caf7c68910e638d10", "is_reserved": 0, "rental_uris": {"android": "https://dc.lft.to/lastmile_qr_scan", "ios": "https://dc.lft.to/lastmile_qr_scan"}, "fusion_lon": 0.0}, {"lat": 38.90279366666667, "is_disabled": 0, "type": "electric_scooter", "lon": -77.01160433333334, "bike_id": "d8815696d4e0ccc799b28c3a5033eda4", "fusion_lat": 0.0, "name": "d8815696d4e0ccc799b28c3a5033eda4", "is_reserved": 0, "rental_uris": {"android": "https://dc.lft.to/lastmile_qr_scan", "ios": "https://dc.lft.to/lastmile_qr_scan"}, "fusion_lon": 0.0}, {"lat": 38.900248833333336, "is_disabled": 0, "type": "electric_scooter", "lon": -77.03332216666666, "bike_id": "73d1207d2f605dc73f17e7cf75438a4c", "fusion_lat": 0.0, "name": "73d1207d2f605dc73f17e7cf75438a4c", "is_reserved": 0, "rental_uris": {"android": "https://dc.lft.to/lastmile_qr_scan", "ios": "https://dc.lft.to/lastmile_qr_scan"}, "fusion_lon": 0.0}, {"lat": 38.863713833333335, "is_disabled": 0, "type": "electric_scooter", "lon": -76.99022283333333, "bike_id": "1b9e87609afb920e853e1f2206bfb236", "fusion_lat": 0.0, "name": "1b9e87609afb920e853e1f2206bfb236", "is_reserved": 0, "rental_uris": {"android": "https://dc.lft.to/lastmile_qr_scan", "ios": "https://dc.lft.to/lastmile_qr_scan"}, "fusion_lon": 0.0}, {"lat": 38.952266333333334, "is_disabled": 0, "type": "electric_scooter", "lon": -77.00248983333333, "bike_id": "f1c743978e11e51463c0e7623841feaf", "fusion_lat": 0.0, "name": "f1c743978e11e51463c0e7623841feaf", "is_reserved": 0, "rental_uris": {"android": "https://dc.lft.to/lastmile_qr_scan", "ios": "https://dc.lft.to/lastmile_qr_scan"}, "fusion_lon": 0.0}, {"lat": 38.89522616666667, "is_disabled": 0, "type": "electric_scooter", "lon": -77.00056916666666, "bike_id": "f04f4b3a46d586f776819f17e4f4315a", "fusion_lat": 0.0, "name": "f04f4b3a46d586f776819f17e4f4315a", "is_reserved": 0, "rental_uris": {"android": "https://dc.lft.to/lastmile_qr_scan", "ios": "https://dc.lft.to/lastmile_qr_scan"}, "fusion_lon": 0.0}, {"lat": 38.948356, "is_disabled": 0, "type": "electric_scooter", "lon": -77.02578916666667, "bike_id": "d3b9fd69bcdce3357ccc3ca8ec1f0c59", "fusion_lat": 0.0, "name": "d3b9fd69bcdce3357ccc3ca8ec1f0c59", "is_reserved": 0, "rental_uris": {"android": "https://dc.lft.to/lastmile_qr_scan", "ios": "https://dc.lft.to/lastmile_qr_scan"}, "fusion_lon": 0.0}, {"lat": 38.912645, "is_disabled": 0, "type": "electric_scooter", "lon": -77.02253466666667, "bike_id": "5604044305275960a6511653bced62b1", "fusion_lat": 0.0, "name": "5604044305275960a6511653bced62b1", "is_reserved": 0, "rental_uris": {"android": "https://dc.lft.to/lastmile_qr_scan", "ios": "https://dc.lft.to/lastmile_qr_scan"}, "fusion_lon": 0.0}, {"lat": 38.93581483333333, "is_disabled": 0, "type": "electric_bike", "lon": -77.10687483333334, "bike_id": "2dcfaff6f0e45008a237f02e000473d4", "fusion_lat": 0.0, "name": "2dcfaff6f0e45008a237f02e000473d4", "is_reserved": 0, "rental_uris": {"android": "https://dc.lft.to/lastmile_qr_scan", "ios": "https://dc.lft.to/lastmile_qr_scan"}, "fusion_lon": 0.0}, {"lat": 38.927841, "is_disabled": 0, "type": "electric_scooter", "lon": -77.02684533333333, "bike_id": "2173997f9c9caf69489a2d4df903e569", "fusion_lat": 0.0, "name": "2173997f9c9caf69489a2d4df903e569", "is_reserved": 0, "rental_uris": {"android": "https://dc.lft.to/lastmile_qr_scan", "ios": "https://dc.lft.to/lastmile_qr_scan"}, "fusion_lon": 0.0}, {"lat": 38.909924833333335, "is_disabled": 0, "type": "electric_scooter", "lon": -77.040129, "bike_id": "1699d4efcde6bc5286829df3c2996abe", "fusion_lat": 0.0, "name": "1699d4efcde6bc5286829df3c2996abe", "is_reserved": 0, "rental_uris": {"android": "https://dc.lft.to/lastmile_qr_scan", "ios": "https://dc.lft.to/lastmile_qr_scan"}, "fusion_lon": 0.0}, {"lat": 38.9026725, "is_disabled": 0, "type": "electric_scooter", "lon": -77.03638316666667, "bike_id": "8ce64a7ce9b1724a161eca117847b345", "fusion_lat": 0.0, "name": "8ce64a7ce9b1724a161eca117847b345", "is_reserved": 0, "rental_uris": {"android": "https://dc.lft.to/lastmile_qr_scan", "ios": "https://dc.lft.to/lastmile_qr_scan"}, "fusion_lon": 0.0}, {"lat": 38.916654, "is_disabled": 0, "type": "electric_scooter", "lon": -77.02413783333333, "bike_id": "8e97cce65d35d6132139cd62dc2305fe", "fusion_lat": 0.0, "name": "8e97cce65d35d6132139cd62dc2305fe", "is_reserved": 0, "rental_uris": {"android": "https://dc.lft.to/lastmile_qr_scan", "ios": "https://dc.lft.to/lastmile_qr_scan"}, "fusion_lon": 0.0}, {"lat": 38.920653, "is_disabled": 0, "type": "electric_scooter", "lon": -77.04812433333333, "bike_id": "9d39c4a25a6e90ac5cd8bbd37ae864a7", "fusion_lat": 0.0, "name": "9d39c4a25a6e90ac5cd8bbd37ae864a7", "is_reserved": 0, "rental_uris": {"android": "https://dc.lft.to/lastmile_qr_scan", "ios": "https://dc.lft.to/lastmile_qr_scan"}, "fusion_lon": 0.0}, {"lat": 38.86673583333334, "is_disabled": 0, "type": "electric_scooter", "lon": -76.98539083333333, "bike_id": "26b76a23c5536bf516a5b9cd041613f5", "fusion_lat": 0.0, "name": "26b76a23c5536bf516a5b9cd041613f5", "is_reserved": 0, "rental_uris": {"android": "https://dc.lft.to/lastmile_qr_scan", "ios": "https://dc.lft.to/lastmile_qr_scan"}, "fusion_lon": 0.0}, {"lat": 38.917691, "is_disabled": 0, "type": "electric_scooter", "lon": -77.02817216666666, "bike_id": "b8812aba3b7506ac629ece85d2e2a0f8", "fusion_lat": 0.0, "name": "b8812aba3b7506ac629ece85d2e2a0f8", "is_reserved": 0, "rental_uris": {"android": "https://dc.lft.to/lastmile_qr_scan", "ios": "https://dc.lft.to/lastmile_qr_scan"}, "fusion_lon": 0.0}, {"lat": 38.916733666666666, "is_disabled": 0, "type": "electric_scooter", "lon": -77.0228425, "bike_id": "a84a5a1d24bc26f9e2b4a30eeea2cef0", "fusion_lat": 0.0, "name": "a84a5a1d24bc26f9e2b4a30eeea2cef0", "is_reserved": 0, "rental_uris": {"android": "https://dc.lft.to/lastmile_qr_scan", "ios": "https://dc.lft.to/lastmile_qr_scan"}, "fusion_lon": 0.0}, {"lat": 38.900105833333335, "is_disabled": 0, "type": "electric_scooter", "lon": -77.01201083333333, "bike_id": "59ade1d62711e89e91f360d1a187c8ea", "fusion_lat": 0.0, "name": "59ade1d62711e89e91f360d1a187c8ea", "is_reserved": 0, "rental_uris": {"android": "https://dc.lft.to/lastmile_qr_scan", "ios": "https://dc.lft.to/lastmile_qr_scan"}, "fusion_lon": 0.0}, {"lat": 38.89743033333333, "is_disabled": 0, "type": "electric_scooter", "lon": -77.00074733333334, "bike_id": "e6f73f57c237b72b616330a471f11091", "fusion_lat": 0.0, "name": "e6f73f57c237b72b616330a471f11091", "is_reserved": 0, "rental_uris": {"android": "https://dc.lft.to/lastmile_qr_scan", "ios": "https://dc.lft.to/lastmile_qr_scan"}, "fusion_lon": 0.0}, {"lat": 38.933067666666666, "is_disabled": 0, "type": "electric_scooter", "lon": -77.04524583333334, "bike_id": "9b15e7ba07974bd05444440c9e97bb9f", "fusion_lat": 0.0, "name": "9b15e7ba07974bd05444440c9e97bb9f", "is_reserved": 0, "rental_uris": {"android": "https://dc.lft.to/lastmile_qr_scan", "ios": "https://dc.lft.to/lastmile_qr_scan"}, "fusion_lon": 0.0}, {"lat": 38.877283, "is_disabled": 0, "type": "electric_bike", "lon": -76.98106966666667, "bike_id": "7acb07bd4e61dba9adf0d8c907dfb03e", "fusion_lat": 0.0, "name": "7acb07bd4e61dba9adf0d8c907dfb03e", "is_reserved": 0, "rental_uris": {"android": "https://dc.lft.to/lastmile_qr_scan", "ios": "https://dc.lft.to/lastmile_qr_scan"}, "fusion_lon": 0.0}, {"lat": 38.909690833333336, "is_disabled": 0, "type": "electric_scooter", "lon": -77.0394275, "bike_id": "34a73b4fc61398550f288af93e193f2b", "fusion_lat": 0.0, "name": "34a73b4fc61398550f288af93e193f2b", "is_reserved": 0, "rental_uris": {"android": "https://dc.lft.to/lastmile_qr_scan", "ios": "https://dc.lft.to/lastmile_qr_scan"}, "fusion_lon": 0.0}, {"lat": 38.87288066666667, "is_disabled": 0, "type": "electric_scooter", "lon": -77.009864, "bike_id": "71a1e572acbd09c6cdd01d1112a82ba2", "fusion_lat": 0.0, "name": "71a1e572acbd09c6cdd01d1112a82ba2", "is_reserved": 0, "rental_uris": {"android": "https://dc.lft.to/lastmile_qr_scan", "ios": "https://dc.lft.to/lastmile_qr_scan"}, "fusion_lon": 0.0}, {"lat": 38.878736833333335, "is_disabled": 0, "type": "electric_scooter", "lon": -77.0075085, "bike_id": "41906b3486895ef86eb7964d1b90352b", "fusion_lat": 0.0, "name": "41906b3486895ef86eb7964d1b90352b", "is_reserved": 0, "rental_uris": {"android": "https://dc.lft.to/lastmile_qr_scan", "ios": "https://dc.lft.to/lastmile_qr_scan"}, "fusion_lon": 0.0}, {"lat": 38.83227433333333, "is_disabled": 0, "type": "electric_bike", "lon": -77.04979966666667, "bike_id": "76420d9c9084ba9234173f7838140299", "fusion_lat": 0.0, "name": "76420d9c9084ba9234173f7838140299", "is_reserved": 0, "rental_uris": {"android": "https://dc.lft.to/lastmile_qr_scan", "ios": "https://dc.lft.to/lastmile_qr_scan"}, "fusion_lon": 0.0}, {"lat": 38.8986035, "is_disabled": 0, "type": "electric_scooter", "lon": -77.0203115, "bike_id": "327a7782a9a55f7ad0f0f98cf0e143d1", "fusion_lat": 0.0, "name": "327a7782a9a55f7ad0f0f98cf0e143d1", "is_reserved": 0, "rental_uris": {"android": "https://dc.lft.to/lastmile_qr_scan", "ios": "https://dc.lft.to/lastmile_qr_scan"}, "fusion_lon": 0.0}, {"lat": 38.9410925, "is_disabled": 0, "type": "electric_scooter", "lon": -77.0004625, "bike_id": "a16b26d4faec900cbed1fe6ec136ab22", "fusion_lat": 0.0, "name": "a16b26d4faec900cbed1fe6ec136ab22", "is_reserved": 0, "rental_uris": {"android": "https://dc.lft.to/lastmile_qr_scan", "ios": "https://dc.lft.to/lastmile_qr_scan"}, "fusion_lon": 0.0}, {"lat": 38.871698, "is_disabled": 0, "type": "electric_scooter", "lon": -77.01361483333334, "bike_id": "ff5494963dda7318e9a3ded4ec583320", "fusion_lat": 0.0, "name": "ff5494963dda7318e9a3ded4ec583320", "is_reserved": 0, "rental_uris": {"android": "https://dc.lft.to/lastmile_qr_scan", "ios": "https://dc.lft.to/lastmile_qr_scan"}, "fusion_lon": 0.0}, {"lat": 38.925157, "is_disabled": 0, "type": "electric_scooter", "lon": -77.02361633333334, "bike_id": "415a584639f0889abbc5aff1455ba296", "fusion_lat": 0.0, "name": "415a584639f0889abbc5aff1455ba296", "is_reserved": 0, "rental_uris": {"android": "https://dc.lft.to/lastmile_qr_scan", "ios": "https://dc.lft.to/lastmile_qr_scan"}, "fusion_lon": 0.0}, {"lat": 38.900288833333335, "is_disabled": 0, "type": "electric_scooter", "lon": -77.0331255, "bike_id": "d6ba9290e2552d8a254ac5501ca3ab49", "fusion_lat": 0.0, "name": "d6ba9290e2552d8a254ac5501ca3ab49", "is_reserved": 0, "rental_uris": {"android": "https://dc.lft.to/lastmile_qr_scan", "ios": "https://dc.lft.to/lastmile_qr_scan"}, "fusion_lon": 0.0}, {"lat": 38.91626316666667, "is_disabled": 0, "type": "electric_scooter", "lon": -77.02399433333333, "bike_id": "dba56fe6491514c73e8a017219f2b242", "fusion_lat": 0.0, "name": "dba56fe6491514c73e8a017219f2b242", "is_reserved": 0, "rental_uris": {"android": "https://dc.lft.to/lastmile_qr_scan", "ios": "https://dc.lft.to/lastmile_qr_scan"}, "fusion_lon": 0.0}, {"lat": 38.90753016666667, "is_disabled": 0, "type": "electric_scooter", "lon": -76.99877683333334, "bike_id": "0ff9acfbce9a87fbf0209c50ab073e09", "fusion_lat": 0.0, "name": "0ff9acfbce9a87fbf0209c50ab073e09", "is_reserved": 0, "rental_uris": {"android": "https://dc.lft.to/lastmile_qr_scan", "ios": "https://dc.lft.to/lastmile_qr_scan"}, "fusion_lon": 0.0}, {"lat": 38.949121, "is_disabled": 0, "type": "electric_scooter", "lon": -77.066271, "bike_id": "e2dd8a78268311c286754e11ef864015", "fusion_lat": 0.0, "name": "e2dd8a78268311c286754e11ef864015", "is_reserved": 0, "rental_uris": {"android": "https://dc.lft.to/lastmile_qr_scan", "ios": "https://dc.lft.to/lastmile_qr_scan"}, "fusion_lon": 0.0}, {"lat": 38.91049833333334, "is_disabled": 0, "type": "electric_scooter", "lon": -77.01521683333333, "bike_id": "ae82a515aaec2dbbe7dfc675a7e11397", "fusion_lat": 0.0, "name": "ae82a515aaec2dbbe7dfc675a7e11397", "is_reserved": 0, "rental_uris": {"android": "https://dc.lft.to/lastmile_qr_scan", "ios": "https://dc.lft.to/lastmile_qr_scan"}, "fusion_lon": 0.0}, {"lat": 38.8960835, "is_disabled": 0, "type": "electric_scooter", "lon": -76.95665583333333, "bike_id": "234aa573b9575eca043689f72fa60e41", "fusion_lat": 0.0, "name": "234aa573b9575eca043689f72fa60e41", "is_reserved": 0, "rental_uris": {"android": "https://dc.lft.to/lastmile_qr_scan", "ios": "https://dc.lft.to/lastmile_qr_scan"}, "fusion_lon": 0.0}, {"lat": 38.892305666666665, "is_disabled": 0, "type": "electric_scooter", "lon": -77.04999266666667, "bike_id": "7e9130d359abaa9920e04d48cefe4f8a", "fusion_lat": 0.0, "name": "7e9130d359abaa9920e04d48cefe4f8a", "is_reserved": 0, "rental_uris": {"android": "https://dc.lft.to/lastmile_qr_scan", "ios": "https://dc.lft.to/lastmile_qr_scan"}, "fusion_lon": 0.0}, {"lat": 38.877365166666664, "is_disabled": 0, "type": "electric_scooter", "lon": -77.003463, "bike_id": "80c54837a7fd90241d22db912ebc4248", "fusion_lat": 0.0, "name": "80c54837a7fd90241d22db912ebc4248", "is_reserved": 0, "rental_uris": {"android": "https://dc.lft.to/lastmile_qr_scan", "ios": "https://dc.lft.to/lastmile_qr_scan"}, "fusion_lon": 0.0}, {"lat": 38.89552883333333, "is_disabled": 0, "type": "electric_scooter", "lon": -77.003654, "bike_id": "70ffac761d6aa7216d05adb56bcc0bca", "fusion_lat": 0.0, "name": "70ffac761d6aa7216d05adb56bcc0bca", "is_reserved": 0, "rental_uris": {"android": "https://dc.lft.to/lastmile_qr_scan", "ios": "https://dc.lft.to/lastmile_qr_scan"}, "fusion_lon": 0.0}, {"lat": 38.925752833333334, "is_disabled": 0, "type": "electric_scooter", "lon": -77.0401295, "bike_id": "a51cfa0ad79819eb803a834b52e685b7", "fusion_lat": 0.0, "name": "a51cfa0ad79819eb803a834b52e685b7", "is_reserved": 0, "rental_uris": {"android": "https://dc.lft.to/lastmile_qr_scan", "ios": "https://dc.lft.to/lastmile_qr_scan"}, "fusion_lon": 0.0}, {"lat": 38.853187166666665, "is_disabled": 0, "type": "electric_scooter", "lon": -76.980171, "bike_id": "b57a06034a7b041c3167459bb8d96709", "fusion_lat": 0.0, "name": "b57a06034a7b041c3167459bb8d96709", "is_reserved": 0, "rental_uris": {"android": "https://dc.lft.to/lastmile_qr_scan", "ios": "https://dc.lft.to/lastmile_qr_scan"}, "fusion_lon": 0.0}, {"lat": 38.93862283333333, "is_disabled": 0, "type": "electric_scooter", "lon": -77.03204233333334, "bike_id": "f1efb6567abfe995d42f100e8fca0ad8", "fusion_lat": 0.0, "name": "f1efb6567abfe995d42f100e8fca0ad8", "is_reserved": 0, "rental_uris": {"android": "https://dc.lft.to/lastmile_qr_scan", "ios": "https://dc.lft.to/lastmile_qr_scan"}, "fusion_lon": 0.0}, {"lat": 38.962042833333335, "is_disabled": 0, "type": "electric_bike", "lon": -77.03517616666667, "bike_id": "cf2ee042deceb9c40f6034c8250881ec", "fusion_lat": 0.0, "name": "cf2ee042deceb9c40f6034c8250881ec", "is_reserved": 0, "rental_uris": {"android": "https://dc.lft.to/lastmile_qr_scan", "ios": "https://dc.lft.to/lastmile_qr_scan"}, "fusion_lon": 0.0}, {"lat": 38.892256833333334, "is_disabled": 0, "type": "electric_scooter", "lon": -77.04866366666667, "bike_id": "18f34f453a5bb7cd4168c999e5986f30", "fusion_lat": 0.0, "name": "18f34f453a5bb7cd4168c999e5986f30", "is_reserved": 0, "rental_uris": {"android": "https://dc.lft.to/lastmile_qr_scan", "ios": "https://dc.lft.to/lastmile_qr_scan"}, "fusion_lon": 0.0}, {"lat": 38.81344433333334, "is_disabled": 0, "type": "electric_bike", "lon": -77.049247, "bike_id": "24b0da0be0f73d3bb333ccf404f9092e", "fusion_lat": 0.0, "name": "24b0da0be0f73d3bb333ccf404f9092e", "is_reserved": 0, "rental_uris": {"android": "https://dc.lft.to/lastmile_qr_scan", "ios": "https://dc.lft.to/lastmile_qr_scan"}, "fusion_lon": 0.0}, {"lat": 38.884694833333334, "is_disabled": 0, "type": "electric_scooter", "lon": -76.99265183333333, "bike_id": "9ebf1d73c71a3ff5d944dac79b7f670d", "fusion_lat": 0.0, "name": "9ebf1d73c71a3ff5d944dac79b7f670d", "is_reserved": 0, "rental_uris": {"android": "https://dc.lft.to/lastmile_qr_scan", "ios": "https://dc.lft.to/lastmile_qr_scan"}, "fusion_lon": 0.0}, {"lat": 38.96022083333333, "is_disabled": 0, "type": "electric_bike", "lon": -77.017295, "bike_id": "855dce258e9c30fb687eff72efd93226", "fusion_lat": 0.0, "name": "855dce258e9c30fb687eff72efd93226", "is_reserved": 0, "rental_uris": {"android": "https://dc.lft.to/lastmile_qr_scan", "ios": "https://dc.lft.to/lastmile_qr_scan"}, "fusion_lon": 0.0}, {"lat": 38.90311916666667, "is_disabled": 0, "type": "electric_scooter", "lon": -76.9936, "bike_id": "d5df73d81db18126585f15860878fb1f", "fusion_lat": 0.0, "name": "d5df73d81db18126585f15860878fb1f", "is_reserved": 0, "rental_uris": {"android": "https://dc.lft.to/lastmile_qr_scan", "ios": "https://dc.lft.to/lastmile_qr_scan"}, "fusion_lon": 0.0}, {"lat": 38.92152683333333, "is_disabled": 0, "type": "electric_scooter", "lon": -77.03509533333333, "bike_id": "ddebdab9780ceb6ef28e056064f8bbf8", "fusion_lat": 0.0, "name": "ddebdab9780ceb6ef28e056064f8bbf8", "is_reserved": 0, "rental_uris": {"android": "https://dc.lft.to/lastmile_qr_scan", "ios": "https://dc.lft.to/lastmile_qr_scan"}, "fusion_lon": 0.0}, {"lat": 38.807535, "is_disabled": 0, "type": "electric_bike", "lon": -77.09454466666666, "bike_id": "abe1456fb7b45196f0fe3d112c975531", "fusion_lat": 0.0, "name": "abe1456fb7b45196f0fe3d112c975531", "is_reserved": 0, "rental_uris": {"android": "https://dc.lft.to/lastmile_qr_scan", "ios": "https://dc.lft.to/lastmile_qr_scan"}, "fusion_lon": 0.0}, {"lat": 38.884915, "is_disabled": 0, "type": "electric_scooter", "lon": -77.00711833333334, "bike_id": "d735ac7d47dc9a302f00f58dfda6d36b", "fusion_lat": 0.0, "name": "d735ac7d47dc9a302f00f58dfda6d36b", "is_reserved": 0, "rental_uris": {"android": "https://dc.lft.to/lastmile_qr_scan", "ios": "https://dc.lft.to/lastmile_qr_scan"}, "fusion_lon": 0.0}, {"lat": 38.87289883333333, "is_disabled": 0, "type": "electric_scooter", "lon": -77.00930533333333, "bike_id": "d8d08589d7584b12952b74aa36319cd5", "fusion_lat": 0.0, "name": "d8d08589d7584b12952b74aa36319cd5", "is_reserved": 0, "rental_uris": {"android": "https://dc.lft.to/lastmile_qr_scan", "ios": "https://dc.lft.to/lastmile_qr_scan"}, "fusion_lon": 0.0}, {"lat": 39.029340833333336, "is_disabled": 0, "type": "electric_bike", "lon": -77.049284, "bike_id": "9e563a047fe7d4b847f279ada4f05208", "fusion_lat": 0.0, "name": "9e563a047fe7d4b847f279ada4f05208", "is_reserved": 0, "rental_uris": {"android": "https://dc.lft.to/lastmile_qr_scan", "ios": "https://dc.lft.to/lastmile_qr_scan"}, "fusion_lon": 0.0}, {"lat": 38.90565383333333, "is_disabled": 0, "type": "electric_scooter", "lon": -77.029818, "bike_id": "f8bc3df1a1afc0c65b3a5e10c0d7444f", "fusion_lat": 0.0, "name": "f8bc3df1a1afc0c65b3a5e10c0d7444f", "is_reserved": 0, "rental_uris": {"android": "https://dc.lft.to/lastmile_qr_scan", "ios": "https://dc.lft.to/lastmile_qr_scan"}, "fusion_lon": 0.0}, {"lat": 38.93529083333333, "is_disabled": 0, "type": "electric_bike", "lon": -77.05695083333333, "bike_id": "136b481a641bb81807a0eccd6819d406", "fusion_lat": 0.0, "name": "136b481a641bb81807a0eccd6819d406", "is_reserved": 0, "rental_uris": {"android": "https://dc.lft.to/lastmile_qr_scan", "ios": "https://dc.lft.to/lastmile_qr_scan"}, "fusion_lon": 0.0}, {"lat": 38.934331666666665, "is_disabled": 0, "type": "electric_scooter", "lon": -77.03448133333333, "bike_id": "f884f2f6030828a362f8dc01ec0f7be5", "fusion_lat": 0.0, "name": "f884f2f6030828a362f8dc01ec0f7be5", "is_reserved": 0, "rental_uris": {"android": "https://dc.lft.to/lastmile_qr_scan", "ios": "https://dc.lft.to/lastmile_qr_scan"}, "fusion_lon": 0.0}, {"lat": 38.9533045, "is_disabled": 0, "type": "electric_scooter", "lon": -77.02754283333333, "bike_id": "99b27183a5f5fbca51c908b6a6fde999", "fusion_lat": 0.0, "name": "99b27183a5f5fbca51c908b6a6fde999", "is_reserved": 0, "rental_uris": {"android": "https://dc.lft.to/lastmile_qr_scan", "ios": "https://dc.lft.to/lastmile_qr_scan"}, "fusion_lon": 0.0}, {"lat": 38.930048, "is_disabled": 0, "type": "electric_scooter", "lon": -77.02112033333333, "bike_id": "b0161be6aa67e28d0e769cf7772800dc", "fusion_lat": 0.0, "name": "b0161be6aa67e28d0e769cf7772800dc", "is_reserved": 0, "rental_uris": {"android": "https://dc.lft.to/lastmile_qr_scan", "ios": "https://dc.lft.to/lastmile_qr_scan"}, "fusion_lon": 0.0}, {"lat": 38.9026575, "is_disabled": 0, "type": "electric_scooter", "lon": -77.00210466666667, "bike_id": "753eea65985a21e0c42eeec7d3c6810a", "fusion_lat": 0.0, "name": "753eea65985a21e0c42eeec7d3c6810a", "is_reserved": 0, "rental_uris": {"android": "https://dc.lft.to/lastmile_qr_scan", "ios": "https://dc.lft.to/lastmile_qr_scan"}, "fusion_lon": 0.0}, {"lat": 38.920503833333335, "is_disabled": 0, "type": "electric_scooter", "lon": -77.034713, "bike_id": "861fbf5477e6582627633fecb6a6c8aa", "fusion_lat": 0.0, "name": "861fbf5477e6582627633fecb6a6c8aa", "is_reserved": 0, "rental_uris": {"android": "https://dc.lft.to/lastmile_qr_scan", "ios": "https://dc.lft.to/lastmile_qr_scan"}, "fusion_lon": 0.0}, {"lat": 38.896573833333335, "is_disabled": 0, "type": "electric_scooter", "lon": -77.03973783333333, "bike_id": "ea7a1b3d5dd5834fbbfd9b461b7e5ca9", "fusion_lat": 0.0, "name": "ea7a1b3d5dd5834fbbfd9b461b7e5ca9", "is_reserved": 0, "rental_uris": {"android": "https://dc.lft.to/lastmile_qr_scan", "ios": "https://dc.lft.to/lastmile_qr_scan"}, "fusion_lon": 0.0}, {"lat": 38.9081075, "is_disabled": 0, "type": "electric_scooter", "lon": -77.04317816666666, "bike_id": "11c01ffc40fce75d5957221b468482b5", "fusion_lat": 0.0, "name": "11c01ffc40fce75d5957221b468482b5", "is_reserved": 0, "rental_uris": {"android": "https://dc.lft.to/lastmile_qr_scan", "ios": "https://dc.lft.to/lastmile_qr_scan"}, "fusion_lon": 0.0}, {"lat": 38.900475, "is_disabled": 0, "type": "electric_scooter", "lon": -77.0021115, "bike_id": "4943d094ba53322375d7c9698e93524c", "fusion_lat": 0.0, "name": "4943d094ba53322375d7c9698e93524c", "is_reserved": 0, "rental_uris": {"android": "https://dc.lft.to/lastmile_qr_scan", "ios": "https://dc.lft.to/lastmile_qr_scan"}, "fusion_lon": 0.0}, {"lat": 38.90584283333333, "is_disabled": 0, "type": "electric_scooter", "lon": -77.008848, "bike_id": "7e79cb7f3dce11d8163516fc43e33175", "fusion_lat": 0.0, "name": "7e79cb7f3dce11d8163516fc43e33175", "is_reserved": 0, "rental_uris": {"android": "https://dc.lft.to/lastmile_qr_scan", "ios": "https://dc.lft.to/lastmile_qr_scan"}, "fusion_lon": 0.0}, {"lat": 38.89561666666667, "is_disabled": 0, "type": "electric_bike", "lon": -77.12736683333333, "bike_id": "b51f2fdba9366621c54030cc372d519c", "fusion_lat": 0.0, "name": "b51f2fdba9366621c54030cc372d519c", "is_reserved": 0, "rental_uris": {"android": "https://dc.lft.to/lastmile_qr_scan", "ios": "https://dc.lft.to/lastmile_qr_scan"}, "fusion_lon": 0.0}, {"lat": 38.90377133333333, "is_disabled": 0, "type": "electric_scooter", "lon": -77.03842166666666, "bike_id": "31251bc3145b732513d87d0aba09da30", "fusion_lat": 0.0, "name": "31251bc3145b732513d87d0aba09da30", "is_reserved": 0, "rental_uris": {"android": "https://dc.lft.to/lastmile_qr_scan", "ios": "https://dc.lft.to/lastmile_qr_scan"}, "fusion_lon": 0.0}, {"lat": 38.904544, "is_disabled": 0, "type": "electric_scooter", "lon": -76.99459783333333, "bike_id": "4e65f315df3ac14d2956bb681814c044", "fusion_lat": 0.0, "name": "4e65f315df3ac14d2956bb681814c044", "is_reserved": 0, "rental_uris": {"android": "https://dc.lft.to/lastmile_qr_scan", "ios": "https://dc.lft.to/lastmile_qr_scan"}, "fusion_lon": 0.0}, {"lat": 38.91890316666667, "is_disabled": 0, "type": "electric_scooter", "lon": -77.03911316666667, "bike_id": "348486e9536fb032d1e82f9168cdd854", "fusion_lat": 0.0, "name": "348486e9536fb032d1e82f9168cdd854", "is_reserved": 0, "rental_uris": {"android": "https://dc.lft.to/lastmile_qr_scan", "ios": "https://dc.lft.to/lastmile_qr_scan"}, "fusion_lon": 0.0}, {"lat": 38.9128915, "is_disabled": 0, "type": "electric_scooter", "lon": -77.02387966666667, "bike_id": "6115f6db31796c31d4004e7be1fd9e87", "fusion_lat": 0.0, "name": "6115f6db31796c31d4004e7be1fd9e87", "is_reserved": 0, "rental_uris": {"android": "https://dc.lft.to/lastmile_qr_scan", "ios": "https://dc.lft.to/lastmile_qr_scan"}, "fusion_lon": 0.0}, {"lat": 38.90417333333333, "is_disabled": 0, "type": "electric_scooter", "lon": -77.0688845, "bike_id": "16894a479d26870abd5b317b7f51e960", "fusion_lat": 0.0, "name": "16894a479d26870abd5b317b7f51e960", "is_reserved": 0, "rental_uris": {"android": "https://dc.lft.to/lastmile_qr_scan", "ios": "https://dc.lft.to/lastmile_qr_scan"}, "fusion_lon": 0.0}, {"lat": 38.86662616666667, "is_disabled": 0, "type": "electric_scooter", "lon": -76.98904266666666, "bike_id": "1732d806f61ce06fda4eba5038973e03", "fusion_lat": 0.0, "name": "1732d806f61ce06fda4eba5038973e03", "is_reserved": 0, "rental_uris": {"android": "https://dc.lft.to/lastmile_qr_scan", "ios": "https://dc.lft.to/lastmile_qr_scan"}, "fusion_lon": 0.0}, {"lat": 38.924308833333335, "is_disabled": 0, "type": "electric_scooter", "lon": -77.03415416666667, "bike_id": "112562ec1fc40fb1830c398c9ef7a786", "fusion_lat": 0.0, "name": "112562ec1fc40fb1830c398c9ef7a786", "is_reserved": 0, "rental_uris": {"android": "https://dc.lft.to/lastmile_qr_scan", "ios": "https://dc.lft.to/lastmile_qr_scan"}, "fusion_lon": 0.0}, {"lat": 38.924381, "is_disabled": 0, "type": "electric_scooter", "lon": -77.033626, "bike_id": "fedfa8ada7ed2e3a2407932656f86cf9", "fusion_lat": 0.0, "name": "fedfa8ada7ed2e3a2407932656f86cf9", "is_reserved": 0, "rental_uris": {"android": "https://dc.lft.to/lastmile_qr_scan", "ios": "https://dc.lft.to/lastmile_qr_scan"}, "fusion_lon": 0.0}, {"lat": 38.911097166666664, "is_disabled": 0, "type": "electric_scooter", "lon": -77.02237533333333, "bike_id": "088e837aa22e795c601c09e98210ad6a", "fusion_lat": 0.0, "name": "088e837aa22e795c601c09e98210ad6a", "is_reserved": 0, "rental_uris": {"android": "https://dc.lft.to/lastmile_qr_scan", "ios": "https://dc.lft.to/lastmile_qr_scan"}, "fusion_lon": 0.0}, {"lat": 38.92406883333334, "is_disabled": 0, "type": "electric_scooter", "lon": -77.03416333333334, "bike_id": "a0a4158e9aab112ef5caa52275ab6f94", "fusion_lat": 0.0, "name": "a0a4158e9aab112ef5caa52275ab6f94", "is_reserved": 0, "rental_uris": {"android": "https://dc.lft.to/lastmile_qr_scan", "ios": "https://dc.lft.to/lastmile_qr_scan"}, "fusion_lon": 0.0}, {"lat": 38.909906, "is_disabled": 0, "type": "electric_scooter", "lon": -76.99740016666667, "bike_id": "ff53fc67c53e27c28885a582c60cac7d", "fusion_lat": 0.0, "name": "ff53fc67c53e27c28885a582c60cac7d", "is_reserved": 0, "rental_uris": {"android": "https://dc.lft.to/lastmile_qr_scan", "ios": "https://dc.lft.to/lastmile_qr_scan"}, "fusion_lon": 0.0}, {"lat": 38.91465266666667, "is_disabled": 0, "type": "electric_scooter", "lon": -77.06690666666667, "bike_id": "8940418cf7942f5e4551a883f857c20d", "fusion_lat": 0.0, "name": "8940418cf7942f5e4551a883f857c20d", "is_reserved": 0, "rental_uris": {"android": "https://dc.lft.to/lastmile_qr_scan", "ios": "https://dc.lft.to/lastmile_qr_scan"}, "fusion_lon": 0.0}, {"lat": 38.90833383333333, "is_disabled": 0, "type": "electric_scooter", "lon": -77.03544983333333, "bike_id": "d02a7860c1c2c85df9180059b657b497", "fusion_lat": 0.0, "name": "d02a7860c1c2c85df9180059b657b497", "is_reserved": 0, "rental_uris": {"android": "https://dc.lft.to/lastmile_qr_scan", "ios": "https://dc.lft.to/lastmile_qr_scan"}, "fusion_lon": 0.0}, {"lat": 38.929891, "is_disabled": 0, "type": "electric_scooter", "lon": -77.031946, "bike_id": "ef28725f4ca836f777b826e3ec8aac5a", "fusion_lat": 0.0, "name": "ef28725f4ca836f777b826e3ec8aac5a", "is_reserved": 0, "rental_uris": {"android": "https://dc.lft.to/lastmile_qr_scan", "ios": "https://dc.lft.to/lastmile_qr_scan"}, "fusion_lon": 0.0}, {"lat": 38.92067383333333, "is_disabled": 0, "type": "electric_scooter", "lon": -77.0434025, "bike_id": "ab8f837075a83519e36e5b10c24bf361", "fusion_lat": 0.0, "name": "ab8f837075a83519e36e5b10c24bf361", "is_reserved": 0, "rental_uris": {"android": "https://dc.lft.to/lastmile_qr_scan", "ios": "https://dc.lft.to/lastmile_qr_scan"}, "fusion_lon": 0.0}, {"lat": 38.91915316666667, "is_disabled": 0, "type": "electric_scooter", "lon": -77.04816183333334, "bike_id": "5010d6146818c3f701382601ac03d1e9", "fusion_lat": 0.0, "name": "5010d6146818c3f701382601ac03d1e9", "is_reserved": 0, "rental_uris": {"android": "https://dc.lft.to/lastmile_qr_scan", "ios": "https://dc.lft.to/lastmile_qr_scan"}, "fusion_lon": 0.0}, {"lat": 38.898989, "is_disabled": 0, "type": "electric_scooter", "lon": -77.03219066666666, "bike_id": "7e7223a0b1824a9777a9c12d540f6694", "fusion_lat": 0.0, "name": "7e7223a0b1824a9777a9c12d540f6694", "is_reserved": 0, "rental_uris": {"android": "https://dc.lft.to/lastmile_qr_scan", "ios": "https://dc.lft.to/lastmile_qr_scan"}, "fusion_lon": 0.0}, {"lat": 38.91685983333333, "is_disabled": 0, "type": "electric_scooter", "lon": -77.03341316666666, "bike_id": "e4e1b34fe9125000e32894722454ecca", "fusion_lat": 0.0, "name": "e4e1b34fe9125000e32894722454ecca", "is_reserved": 0, "rental_uris": {"android": "https://dc.lft.to/lastmile_qr_scan", "ios": "https://dc.lft.to/lastmile_qr_scan"}, "fusion_lon": 0.0}, {"lat": 38.866202333333334, "is_disabled": 0, "type": "electric_bike", "lon": -76.9457145, "bike_id": "74504073a5ff93ef8e92ce85d31f25bd", "fusion_lat": 0.0, "name": "74504073a5ff93ef8e92ce85d31f25bd", "is_reserved": 0, "rental_uris": {"android": "https://dc.lft.to/lastmile_qr_scan", "ios": "https://dc.lft.to/lastmile_qr_scan"}, "fusion_lon": 0.0}, {"lat": 38.95956916666667, "is_disabled": 0, "type": "electric_bike", "lon": -77.10092066666667, "bike_id": "815d68f3cd48e9eefb550dd68e0b68d0", "fusion_lat": 0.0, "name": "815d68f3cd48e9eefb550dd68e0b68d0", "is_reserved": 0, "rental_uris": {"android": "https://dc.lft.to/lastmile_qr_scan", "ios": "https://dc.lft.to/lastmile_qr_scan"}, "fusion_lon": 0.0}, {"lat": 38.89684883333334, "is_disabled": 0, "type": "electric_scooter", "lon": -76.935367, "bike_id": "70588f324bb5eb3cee2c57ef68dbeb3b", "fusion_lat": 0.0, "name": "70588f324bb5eb3cee2c57ef68dbeb3b", "is_reserved": 0, "rental_uris": {"android": "https://dc.lft.to/lastmile_qr_scan", "ios": "https://dc.lft.to/lastmile_qr_scan"}, "fusion_lon": 0.0}, {"lat": 38.919592333333334, "is_disabled": 0, "type": "electric_scooter", "lon": -77.0318515, "bike_id": "38a4fedfe1971b4dc8d2b33825576ef1", "fusion_lat": 0.0, "name": "38a4fedfe1971b4dc8d2b33825576ef1", "is_reserved": 0, "rental_uris": {"android": "https://dc.lft.to/lastmile_qr_scan", "ios": "https://dc.lft.to/lastmile_qr_scan"}, "fusion_lon": 0.0}, {"lat": 38.914902, "is_disabled": 0, "type": "electric_scooter", "lon": -77.03269133333333, "bike_id": "22bcc8e2d3634f16a1952fe37beac77d", "fusion_lat": 0.0, "name": "22bcc8e2d3634f16a1952fe37beac77d", "is_reserved": 0, "rental_uris": {"android": "https://dc.lft.to/lastmile_qr_scan", "ios": "https://dc.lft.to/lastmile_qr_scan"}, "fusion_lon": 0.0}, {"lat": 38.89230666666667, "is_disabled": 0, "type": "electric_scooter", "lon": -77.05007883333333, "bike_id": "241106096b833d1879a5f7ad76c1c215", "fusion_lat": 0.0, "name": "241106096b833d1879a5f7ad76c1c215", "is_reserved": 0, "rental_uris": {"android": "https://dc.lft.to/lastmile_qr_scan", "ios": "https://dc.lft.to/lastmile_qr_scan"}, "fusion_lon": 0.0}, {"lat": 38.95953316666667, "is_disabled": 0, "type": "electric_scooter", "lon": -77.0331225, "bike_id": "b92c3af63ee6032fa2348f2b18d311a5", "fusion_lat": 0.0, "name": "b92c3af63ee6032fa2348f2b18d311a5", "is_reserved": 0, "rental_uris": {"android": "https://dc.lft.to/lastmile_qr_scan", "ios": "https://dc.lft.to/lastmile_qr_scan"}, "fusion_lon": 0.0}, {"lat": 38.90061683333333, "is_disabled": 0, "type": "electric_scooter", "lon": -77.002074, "bike_id": "4fee7e9ee24751ea09ff463f1e80a686", "fusion_lat": 0.0, "name": "4fee7e9ee24751ea09ff463f1e80a686", "is_reserved": 0, "rental_uris": {"android": "https://dc.lft.to/lastmile_qr_scan", "ios": "https://dc.lft.to/lastmile_qr_scan"}, "fusion_lon": 0.0}, {"lat": 38.898465333333334, "is_disabled": 0, "type": "electric_scooter", "lon": -77.0292955, "bike_id": "14c5ba3ebda8ddc2c20a7114f371bbc9", "fusion_lat": 0.0, "name": "14c5ba3ebda8ddc2c20a7114f371bbc9", "is_reserved": 0, "rental_uris": {"android": "https://dc.lft.to/lastmile_qr_scan", "ios": "https://dc.lft.to/lastmile_qr_scan"}, "fusion_lon": 0.0}, {"lat": 38.89221633333333, "is_disabled": 0, "type": "electric_scooter", "lon": -77.0487585, "bike_id": "b04e328a12c4710c7ba64e630dbd60f0", "fusion_lat": 0.0, "name": "b04e328a12c4710c7ba64e630dbd60f0", "is_reserved": 0, "rental_uris": {"android": "https://dc.lft.to/lastmile_qr_scan", "ios": "https://dc.lft.to/lastmile_qr_scan"}, "fusion_lon": 0.0}, {"lat": 38.9614095, "is_disabled": 0, "type": "electric_scooter", "lon": -77.02815416666667, "bike_id": "8168e8a29403b16d0b3e6a31b6e056ce", "fusion_lat": 0.0, "name": "8168e8a29403b16d0b3e6a31b6e056ce", "is_reserved": 0, "rental_uris": {"android": "https://dc.lft.to/lastmile_qr_scan", "ios": "https://dc.lft.to/lastmile_qr_scan"}, "fusion_lon": 0.0}, {"lat": 38.913217833333334, "is_disabled": 0, "type": "electric_scooter", "lon": -77.03259433333334, "bike_id": "7b7b238e3d489b7c4101dad20dba3639", "fusion_lat": 0.0, "name": "7b7b238e3d489b7c4101dad20dba3639", "is_reserved": 0, "rental_uris": {"android": "https://dc.lft.to/lastmile_qr_scan", "ios": "https://dc.lft.to/lastmile_qr_scan"}, "fusion_lon": 0.0}, {"lat": 38.908834, "is_disabled": 0, "type": "electric_scooter", "lon": -77.04403866666667, "bike_id": "f9c22d9299f6df9b65077872f2086c34", "fusion_lat": 0.0, "name": "f9c22d9299f6df9b65077872f2086c34", "is_reserved": 0, "rental_uris": {"android": "https://dc.lft.to/lastmile_qr_scan", "ios": "https://dc.lft.to/lastmile_qr_scan"}, "fusion_lon": 0.0}, {"lat": 38.88336183333333, "is_disabled": 0, "type": "electric_scooter", "lon": -77.00934533333333, "bike_id": "6d79694b7c9abe4f62f9549dade5e74b", "fusion_lat": 0.0, "name": "6d79694b7c9abe4f62f9549dade5e74b", "is_reserved": 0, "rental_uris": {"android": "https://dc.lft.to/lastmile_qr_scan", "ios": "https://dc.lft.to/lastmile_qr_scan"}, "fusion_lon": 0.0}, {"lat": 38.921876, "is_disabled": 0, "type": "electric_scooter", "lon": -77.04343466666667, "bike_id": "4bb9ce3d931d3b8c39d1c410075ca7ff", "fusion_lat": 0.0, "name": "4bb9ce3d931d3b8c39d1c410075ca7ff", "is_reserved": 0, "rental_uris": {"android": "https://dc.lft.to/lastmile_qr_scan", "ios": "https://dc.lft.to/lastmile_qr_scan"}, "fusion_lon": 0.0}, {"lat": 38.89808583333333, "is_disabled": 0, "type": "electric_scooter", "lon": -77.05024166666666, "bike_id": "b798cc4bac683a338a7169128e39c8a5", "fusion_lat": 0.0, "name": "b798cc4bac683a338a7169128e39c8a5", "is_reserved": 0, "rental_uris": {"android": "https://dc.lft.to/lastmile_qr_scan", "ios": "https://dc.lft.to/lastmile_qr_scan"}, "fusion_lon": 0.0}, {"lat": 38.93988083333333, "is_disabled": 0, "type": "electric_scooter", "lon": -77.0288905, "bike_id": "0cff0a32be499f6a0a290d015629d72b", "fusion_lat": 0.0, "name": "0cff0a32be499f6a0a290d015629d72b", "is_reserved": 0, "rental_uris": {"android": "https://dc.lft.to/lastmile_qr_scan", "ios": "https://dc.lft.to/lastmile_qr_scan"}, "fusion_lon": 0.0}, {"lat": 38.90607133333334, "is_disabled": 0, "type": "electric_scooter", "lon": -77.03415883333334, "bike_id": "7515aa896aef7d2195d8ec2e11cca3a7", "fusion_lat": 0.0, "name": "7515aa896aef7d2195d8ec2e11cca3a7", "is_reserved": 0, "rental_uris": {"android": "https://dc.lft.to/lastmile_qr_scan", "ios": "https://dc.lft.to/lastmile_qr_scan"}, "fusion_lon": 0.0}, {"lat": 38.90866066666667, "is_disabled": 0, "type": "electric_scooter", "lon": -77.00378633333334, "bike_id": "ad1646c820276ff54ebbf3ee77f86876", "fusion_lat": 0.0, "name": "ad1646c820276ff54ebbf3ee77f86876", "is_reserved": 0, "rental_uris": {"android": "https://dc.lft.to/lastmile_qr_scan", "ios": "https://dc.lft.to/lastmile_qr_scan"}, "fusion_lon": 0.0}, {"lat": 38.914143833333334, "is_disabled": 0, "type": "electric_scooter", "lon": -77.02023866666667, "bike_id": "37ed8c2fdd3769ab41f9bbea8553baea", "fusion_lat": 0.0, "name": "37ed8c2fdd3769ab41f9bbea8553baea", "is_reserved": 0, "rental_uris": {"android": "https://dc.lft.to/lastmile_qr_scan", "ios": "https://dc.lft.to/lastmile_qr_scan"}, "fusion_lon": 0.0}, {"lat": 38.907130333333335, "is_disabled": 0, "type": "electric_scooter", "lon": -77.00344433333333, "bike_id": "232e90021169a62446cd4ec6ea29bbff", "fusion_lat": 0.0, "name": "232e90021169a62446cd4ec6ea29bbff", "is_reserved": 0, "rental_uris": {"android": "https://dc.lft.to/lastmile_qr_scan", "ios": "https://dc.lft.to/lastmile_qr_scan"}, "fusion_lon": 0.0}, {"lat": 38.94904983333333, "is_disabled": 0, "type": "electric_bike", "lon": -76.972395, "bike_id": "b58700197a1609d1a9cbf7f5e99a6124", "fusion_lat": 0.0, "name": "b58700197a1609d1a9cbf7f5e99a6124", "is_reserved": 0, "rental_uris": {"android": "https://dc.lft.to/lastmile_qr_scan", "ios": "https://dc.lft.to/lastmile_qr_scan"}, "fusion_lon": 0.0}, {"lat": 38.9268425, "is_disabled": 0, "type": "electric_scooter", "lon": -77.01574966666666, "bike_id": "ec26dd31d5b0b635b0ff43cc7f86e05a", "fusion_lat": 0.0, "name": "ec26dd31d5b0b635b0ff43cc7f86e05a", "is_reserved": 0, "rental_uris": {"android": "https://dc.lft.to/lastmile_qr_scan", "ios": "https://dc.lft.to/lastmile_qr_scan"}, "fusion_lon": 0.0}, {"lat": 38.92486566666667, "is_disabled": 0, "type": "electric_scooter", "lon": -77.03481516666666, "bike_id": "b0d72894e0c5611f9f11ae8d15787a03", "fusion_lat": 0.0, "name": "b0d72894e0c5611f9f11ae8d15787a03", "is_reserved": 0, "rental_uris": {"android": "https://dc.lft.to/lastmile_qr_scan", "ios": "https://dc.lft.to/lastmile_qr_scan"}, "fusion_lon": 0.0}, {"lat": 38.9655915, "is_disabled": 0, "type": "electric_scooter", "lon": -77.01624633333333, "bike_id": "0479e3f8db7b2553e9519b74142abea2", "fusion_lat": 0.0, "name": "0479e3f8db7b2553e9519b74142abea2", "is_reserved": 0, "rental_uris": {"android": "https://dc.lft.to/lastmile_qr_scan", "ios": "https://dc.lft.to/lastmile_qr_scan"}, "fusion_lon": 0.0}, {"lat": 38.94305516666667, "is_disabled": 0, "type": "electric_scooter", "lon": -77.06134333333334, "bike_id": "b6681bfe40dcc9ca996010fd6309b66c", "fusion_lat": 0.0, "name": "b6681bfe40dcc9ca996010fd6309b66c", "is_reserved": 0, "rental_uris": {"android": "https://dc.lft.to/lastmile_qr_scan", "ios": "https://dc.lft.to/lastmile_qr_scan"}, "fusion_lon": 0.0}, {"lat": 38.902693666666664, "is_disabled": 0, "type": "electric_scooter", "lon": -77.0337095, "bike_id": "36b41d1891f1519c92c715bb949d029e", "fusion_lat": 0.0, "name": "36b41d1891f1519c92c715bb949d029e", "is_reserved": 0, "rental_uris": {"android": "https://dc.lft.to/lastmile_qr_scan", "ios": "https://dc.lft.to/lastmile_qr_scan"}, "fusion_lon": 0.0}, {"lat": 38.88636266666666, "is_disabled": 0, "type": "electric_scooter", "lon": -76.95490283333334, "bike_id": "db83cebe130e42c4ce0ae708d0f2e491", "fusion_lat": 0.0, "name": "db83cebe130e42c4ce0ae708d0f2e491", "is_reserved": 0, "rental_uris": {"android": "https://dc.lft.to/lastmile_qr_scan", "ios": "https://dc.lft.to/lastmile_qr_scan"}, "fusion_lon": 0.0}, {"lat": 38.92673883333333, "is_disabled": 0, "type": "electric_scooter", "lon": -77.014995, "bike_id": "695f66342d0cfec0078662f6602cc36d", "fusion_lat": 0.0, "name": "695f66342d0cfec0078662f6602cc36d", "is_reserved": 0, "rental_uris": {"android": "https://dc.lft.to/lastmile_qr_scan", "ios": "https://dc.lft.to/lastmile_qr_scan"}, "fusion_lon": 0.0}, {"lat": 38.915723166666666, "is_disabled": 0, "type": "electric_scooter", "lon": -77.05029983333333, "bike_id": "8f2b8e3780562c4a5d4dbc7a15493d9f", "fusion_lat": 0.0, "name": "8f2b8e3780562c4a5d4dbc7a15493d9f", "is_reserved": 0, "rental_uris": {"android": "https://dc.lft.to/lastmile_qr_scan", "ios": "https://dc.lft.to/lastmile_qr_scan"}, "fusion_lon": 0.0}, {"lat": 38.89491966666667, "is_disabled": 0, "type": "electric_scooter", "lon": -77.00254583333333, "bike_id": "7634ee1de7d5d5b76bb0eb340589f17d", "fusion_lat": 0.0, "name": "7634ee1de7d5d5b76bb0eb340589f17d", "is_reserved": 0, "rental_uris": {"android": "https://dc.lft.to/lastmile_qr_scan", "ios": "https://dc.lft.to/lastmile_qr_scan"}, "fusion_lon": 0.0}, {"lat": 38.8965305, "is_disabled": 0, "type": "electric_scooter", "lon": -77.04660183333333, "bike_id": "eacc8f224c51a1a71790d3bbae88f949", "fusion_lat": 0.0, "name": "eacc8f224c51a1a71790d3bbae88f949", "is_reserved": 0, "rental_uris": {"android": "https://dc.lft.to/lastmile_qr_scan", "ios": "https://dc.lft.to/lastmile_qr_scan"}, "fusion_lon": 0.0}, {"lat": 38.8935065, "is_disabled": 0, "type": "electric_scooter", "lon": -76.98471816666667, "bike_id": "302d09dbb7596f55f2d235be2821f136", "fusion_lat": 0.0, "name": "302d09dbb7596f55f2d235be2821f136", "is_reserved": 0, "rental_uris": {"android": "https://dc.lft.to/lastmile_qr_scan", "ios": "https://dc.lft.to/lastmile_qr_scan"}, "fusion_lon": 0.0}, {"lat": 38.91050083333333, "is_disabled": 0, "type": "electric_scooter", "lon": -77.04570283333334, "bike_id": "914f8ae25e39fdc5f3167032c4a99acc", "fusion_lat": 0.0, "name": "914f8ae25e39fdc5f3167032c4a99acc", "is_reserved": 0, "rental_uris": {"android": "https://dc.lft.to/lastmile_qr_scan", "ios": "https://dc.lft.to/lastmile_qr_scan"}, "fusion_lon": 0.0}, {"lat": 38.906669666666666, "is_disabled": 0, "type": "electric_scooter", "lon": -77.03867166666667, "bike_id": "e50895a17ed9e9cf2488eff2081856f9", "fusion_lat": 0.0, "name": "e50895a17ed9e9cf2488eff2081856f9", "is_reserved": 0, "rental_uris": {"android": "https://dc.lft.to/lastmile_qr_scan", "ios": "https://dc.lft.to/lastmile_qr_scan"}, "fusion_lon": 0.0}, {"lat": 38.8950425, "is_disabled": 0, "type": "electric_scooter", "lon": -77.01611066666666, "bike_id": "83a22dad040c594992aa86ce31d25734", "fusion_lat": 0.0, "name": "83a22dad040c594992aa86ce31d25734", "is_reserved": 0, "rental_uris": {"android": "https://dc.lft.to/lastmile_qr_scan", "ios": "https://dc.lft.to/lastmile_qr_scan"}, "fusion_lon": 0.0}, {"lat": 38.91362633333333, "is_disabled": 0, "type": "electric_scooter", "lon": -77.04662466666667, "bike_id": "47e2d05d72a4d4ae5e65b5d54277d624", "fusion_lat": 0.0, "name": "47e2d05d72a4d4ae5e65b5d54277d624", "is_reserved": 0, "rental_uris": {"android": "https://dc.lft.to/lastmile_qr_scan", "ios": "https://dc.lft.to/lastmile_qr_scan"}, "fusion_lon": 0.0}, {"lat": 38.92110866666667, "is_disabled": 0, "type": "electric_scooter", "lon": -77.0419445, "bike_id": "36c6b0f0c353dbc468c9809afd8f2f62", "fusion_lat": 0.0, "name": "36c6b0f0c353dbc468c9809afd8f2f62", "is_reserved": 0, "rental_uris": {"android": "https://dc.lft.to/lastmile_qr_scan", "ios": "https://dc.lft.to/lastmile_qr_scan"}, "fusion_lon": 0.0}, {"lat": 38.9216865, "is_disabled": 0, "type": "electric_scooter", "lon": -77.04020166666666, "bike_id": "b1873ffaba4707570f89845e6c626e33", "fusion_lat": 0.0, "name": "b1873ffaba4707570f89845e6c626e33", "is_reserved": 0, "rental_uris": {"android": "https://dc.lft.to/lastmile_qr_scan", "ios": "https://dc.lft.to/lastmile_qr_scan"}, "fusion_lon": 0.0}, {"lat": 38.86254516666666, "is_disabled": 0, "type": "electric_scooter", "lon": -76.986993, "bike_id": "beae0a3f938c1cd2aa45045029b89335", "fusion_lat": 0.0, "name": "beae0a3f938c1cd2aa45045029b89335", "is_reserved": 0, "rental_uris": {"android": "https://dc.lft.to/lastmile_qr_scan", "ios": "https://dc.lft.to/lastmile_qr_scan"}, "fusion_lon": 0.0}, {"lat": 38.91217616666667, "is_disabled": 0, "type": "electric_scooter", "lon": -77.07598033333333, "bike_id": "d20f04e073f56957559e579eb3174763", "fusion_lat": 0.0, "name": "d20f04e073f56957559e579eb3174763", "is_reserved": 0, "rental_uris": {"android": "https://dc.lft.to/lastmile_qr_scan", "ios": "https://dc.lft.to/lastmile_qr_scan"}, "fusion_lon": 0.0}, {"lat": 38.906647666666665, "is_disabled": 0, "type": "electric_scooter", "lon": -77.015372, "bike_id": "d53458d2d8f0cdb11d74cda134b2e6a2", "fusion_lat": 0.0, "name": "d53458d2d8f0cdb11d74cda134b2e6a2", "is_reserved": 0, "rental_uris": {"android": "https://dc.lft.to/lastmile_qr_scan", "ios": "https://dc.lft.to/lastmile_qr_scan"}, "fusion_lon": 0.0}, {"lat": 38.951876666666664, "is_disabled": 0, "type": "electric_bike", "lon": -76.935457, "bike_id": "d33062f7fad1630c36bef2ccd9e21611", "fusion_lat": 0.0, "name": "d33062f7fad1630c36bef2ccd9e21611", "is_reserved": 0, "rental_uris": {"android": "https://dc.lft.to/lastmile_qr_scan", "ios": "https://dc.lft.to/lastmile_qr_scan"}, "fusion_lon": 0.0}, {"lat": 38.90719033333333, "is_disabled": 0, "type": "electric_scooter", "lon": -77.04199933333334, "bike_id": "266ef05f50337147f3f427ca99274bfb", "fusion_lat": 0.0, "name": "266ef05f50337147f3f427ca99274bfb", "is_reserved": 0, "rental_uris": {"android": "https://dc.lft.to/lastmile_qr_scan", "ios": "https://dc.lft.to/lastmile_qr_scan"}, "fusion_lon": 0.0}, {"lat": 38.88740116666666, "is_disabled": 0, "type": "electric_scooter", "lon": -77.02216, "bike_id": "81e06d93d101b213d95b174353e93b89", "fusion_lat": 0.0, "name": "81e06d93d101b213d95b174353e93b89", "is_reserved": 0, "rental_uris": {"android": "https://dc.lft.to/lastmile_qr_scan", "ios": "https://dc.lft.to/lastmile_qr_scan"}, "fusion_lon": 0.0}, {"lat": 38.91052916666666, "is_disabled": 0, "type": "electric_scooter", "lon": -77.0152705, "bike_id": "b138c10c2152f0317dc6c5b9daf1d334", "fusion_lat": 0.0, "name": "b138c10c2152f0317dc6c5b9daf1d334", "is_reserved": 0, "rental_uris": {"android": "https://dc.lft.to/lastmile_qr_scan", "ios": "https://dc.lft.to/lastmile_qr_scan"}, "fusion_lon": 0.0}, {"lat": 38.8674395, "is_disabled": 0, "type": "electric_scooter", "lon": -76.976634, "bike_id": "9cd4b29d96ae24f4dcbe1981c07fdd1e", "fusion_lat": 0.0, "name": "9cd4b29d96ae24f4dcbe1981c07fdd1e", "is_reserved": 0, "rental_uris": {"android": "https://dc.lft.to/lastmile_qr_scan", "ios": "https://dc.lft.to/lastmile_qr_scan"}, "fusion_lon": 0.0}, {"lat": 38.93900566666667, "is_disabled": 0, "type": "electric_scooter", "lon": -77.02486, "bike_id": "89951d492c85109c1a80e5db1199056e", "fusion_lat": 0.0, "name": "89951d492c85109c1a80e5db1199056e", "is_reserved": 0, "rental_uris": {"android": "https://dc.lft.to/lastmile_qr_scan", "ios": "https://dc.lft.to/lastmile_qr_scan"}, "fusion_lon": 0.0}, {"lat": 38.877333166666666, "is_disabled": 0, "type": "electric_bike", "lon": -77.11851583333333, "bike_id": "8f6956de907c7ba4ff66ed8acd3df7c9", "fusion_lat": 0.0, "name": "8f6956de907c7ba4ff66ed8acd3df7c9", "is_reserved": 0, "rental_uris": {"android": "https://dc.lft.to/lastmile_qr_scan", "ios": "https://dc.lft.to/lastmile_qr_scan"}, "fusion_lon": 0.0}, {"lat": 38.91266616666667, "is_disabled": 0, "type": "electric_scooter", "lon": -77.0225185, "bike_id": "fe626b13ad3aa00b226ad92552d5423d", "fusion_lat": 0.0, "name": "fe626b13ad3aa00b226ad92552d5423d", "is_reserved": 0, "rental_uris": {"android": "https://dc.lft.to/lastmile_qr_scan", "ios": "https://dc.lft.to/lastmile_qr_scan"}, "fusion_lon": 0.0}, {"lat": 38.905256333333334, "is_disabled": 0, "type": "electric_scooter", "lon": -77.0488035, "bike_id": "64e601eebc4df961f888697dee0b84f3", "fusion_lat": 0.0, "name": "64e601eebc4df961f888697dee0b84f3", "is_reserved": 0, "rental_uris": {"android": "https://dc.lft.to/lastmile_qr_scan", "ios": "https://dc.lft.to/lastmile_qr_scan"}, "fusion_lon": 0.0}, {"lat": 38.90013733333333, "is_disabled": 0, "type": "electric_scooter", "lon": -77.01200133333333, "bike_id": "4861eb184cb6308334cc21a47cf23929", "fusion_lat": 0.0, "name": "4861eb184cb6308334cc21a47cf23929", "is_reserved": 0, "rental_uris": {"android": "https://dc.lft.to/lastmile_qr_scan", "ios": "https://dc.lft.to/lastmile_qr_scan"}, "fusion_lon": 0.0}, {"lat": 38.884693, "is_disabled": 0, "type": "electric_scooter", "lon": -77.02413, "bike_id": "2a72928ba12c6bcfd78b51be8e34e794", "fusion_lat": 0.0, "name": "2a72928ba12c6bcfd78b51be8e34e794", "is_reserved": 0, "rental_uris": {"android": "https://dc.lft.to/lastmile_qr_scan", "ios": "https://dc.lft.to/lastmile_qr_scan"}, "fusion_lon": 0.0}, {"lat": 38.90558816666667, "is_disabled": 0, "type": "electric_bike", "lon": -77.01311016666666, "bike_id": "2f997943854dd3976b469f0c5d2e530e", "fusion_lat": 0.0, "name": "2f997943854dd3976b469f0c5d2e530e", "is_reserved": 0, "rental_uris": {"android": "https://dc.lft.to/lastmile_qr_scan", "ios": "https://dc.lft.to/lastmile_qr_scan"}, "fusion_lon": 0.0}, {"lat": 38.86510283333333, "is_disabled": 0, "type": "electric_scooter", "lon": -76.99010716666666, "bike_id": "d4ea5bb146dc186e020d9f831b938ff9", "fusion_lat": 0.0, "name": "d4ea5bb146dc186e020d9f831b938ff9", "is_reserved": 0, "rental_uris": {"android": "https://dc.lft.to/lastmile_qr_scan", "ios": "https://dc.lft.to/lastmile_qr_scan"}, "fusion_lon": 0.0}, {"lat": 38.925006833333335, "is_disabled": 0, "type": "electric_scooter", "lon": -76.98233033333334, "bike_id": "bece4409f3ac2115ff94ab2a7ef56d63", "fusion_lat": 0.0, "name": "bece4409f3ac2115ff94ab2a7ef56d63", "is_reserved": 0, "rental_uris": {"android": "https://dc.lft.to/lastmile_qr_scan", "ios": "https://dc.lft.to/lastmile_qr_scan"}, "fusion_lon": 0.0}, {"lat": 38.88118883333333, "is_disabled": 0, "type": "electric_scooter", "lon": -77.01650483333333, "bike_id": "14a6cdac6ef749e46da896654d91aaea", "fusion_lat": 0.0, "name": "14a6cdac6ef749e46da896654d91aaea", "is_reserved": 0, "rental_uris": {"android": "https://dc.lft.to/lastmile_qr_scan", "ios": "https://dc.lft.to/lastmile_qr_scan"}, "fusion_lon": 0.0}, {"lat": 38.867102833333334, "is_disabled": 0, "type": "electric_scooter", "lon": -76.98727, "bike_id": "bd0ddfba8cd01410cfc5b404d251703c", "fusion_lat": 0.0, "name": "bd0ddfba8cd01410cfc5b404d251703c", "is_reserved": 0, "rental_uris": {"android": "https://dc.lft.to/lastmile_qr_scan", "ios": "https://dc.lft.to/lastmile_qr_scan"}, "fusion_lon": 0.0}, {"lat": 38.923542833333336, "is_disabled": 0, "type": "electric_scooter", "lon": -77.054276, "bike_id": "7b136afcf9460a340dd5fcf71c48544a", "fusion_lat": 0.0, "name": "7b136afcf9460a340dd5fcf71c48544a", "is_reserved": 0, "rental_uris": {"android": "https://dc.lft.to/lastmile_qr_scan", "ios": "https://dc.lft.to/lastmile_qr_scan"}, "fusion_lon": 0.0}, {"lat": 38.91560033333333, "is_disabled": 0, "type": "electric_scooter", "lon": -77.0104225, "bike_id": "ce3100892ed14926492b1570f7d6f21d", "fusion_lat": 0.0, "name": "ce3100892ed14926492b1570f7d6f21d", "is_reserved": 0, "rental_uris": {"android": "https://dc.lft.to/lastmile_qr_scan", "ios": "https://dc.lft.to/lastmile_qr_scan"}, "fusion_lon": 0.0}, {"lat": 38.932981, "is_disabled": 0, "type": "electric_scooter", "lon": -77.04534883333334, "bike_id": "ede099d7bec00bd4918fe00617e8f3af", "fusion_lat": 0.0, "name": "ede099d7bec00bd4918fe00617e8f3af", "is_reserved": 0, "rental_uris": {"android": "https://dc.lft.to/lastmile_qr_scan", "ios": "https://dc.lft.to/lastmile_qr_scan"}, "fusion_lon": 0.0}, {"lat": 38.82784083333333, "is_disabled": 0, "type": "electric_bike", "lon": -77.00919983333333, "bike_id": "8bf7736bfcb6487272ef8ccc561f97f5", "fusion_lat": 0.0, "name": "8bf7736bfcb6487272ef8ccc561f97f5", "is_reserved": 0, "rental_uris": {"android": "https://dc.lft.to/lastmile_qr_scan", "ios": "https://dc.lft.to/lastmile_qr_scan"}, "fusion_lon": 0.0}, {"lat": 38.91462883333333, "is_disabled": 0, "type": "electric_scooter", "lon": -77.01436833333334, "bike_id": "212bb94247e69446ccebeb4f2848ed06", "fusion_lat": 0.0, "name": "212bb94247e69446ccebeb4f2848ed06", "is_reserved": 0, "rental_uris": {"android": "https://dc.lft.to/lastmile_qr_scan", "ios": "https://dc.lft.to/lastmile_qr_scan"}, "fusion_lon": 0.0}, {"lat": 38.87738783333333, "is_disabled": 0, "type": "electric_scooter", "lon": -77.00336116666666, "bike_id": "8af9170e74be3bcdf17aa0e373ebc6da", "fusion_lat": 0.0, "name": "8af9170e74be3bcdf17aa0e373ebc6da", "is_reserved": 0, "rental_uris": {"android": "https://dc.lft.to/lastmile_qr_scan", "ios": "https://dc.lft.to/lastmile_qr_scan"}, "fusion_lon": 0.0}, {"lat": 38.92107583333333, "is_disabled": 0, "type": "electric_scooter", "lon": -77.03177066666667, "bike_id": "034d88612c2bf68757b721fa5682c5dc", "fusion_lat": 0.0, "name": "034d88612c2bf68757b721fa5682c5dc", "is_reserved": 0, "rental_uris": {"android": "https://dc.lft.to/lastmile_qr_scan", "ios": "https://dc.lft.to/lastmile_qr_scan"}, "fusion_lon": 0.0}, {"lat": 38.88797516666666, "is_disabled": 0, "type": "electric_scooter", "lon": -76.933644, "bike_id": "f75fe871e950e34281aead39b46a7742", "fusion_lat": 0.0, "name": "f75fe871e950e34281aead39b46a7742", "is_reserved": 0, "rental_uris": {"android": "https://dc.lft.to/lastmile_qr_scan", "ios": "https://dc.lft.to/lastmile_qr_scan"}, "fusion_lon": 0.0}, {"lat": 38.870735, "is_disabled": 0, "type": "electric_bike", "lon": -76.97849033333334, "bike_id": "47c57c89fe17272ec9a37c12087dac84", "fusion_lat": 0.0, "name": "47c57c89fe17272ec9a37c12087dac84", "is_reserved": 0, "rental_uris": {"android": "https://dc.lft.to/lastmile_qr_scan", "ios": "https://dc.lft.to/lastmile_qr_scan"}, "fusion_lon": 0.0}, {"lat": 38.91867466666667, "is_disabled": 0, "type": "electric_scooter", "lon": -77.04034216666666, "bike_id": "28c5502b11e377d739cc5fe0ff8f6780", "fusion_lat": 0.0, "name": "28c5502b11e377d739cc5fe0ff8f6780", "is_reserved": 0, "rental_uris": {"android": "https://dc.lft.to/lastmile_qr_scan", "ios": "https://dc.lft.to/lastmile_qr_scan"}, "fusion_lon": 0.0}, {"lat": 38.91746216666667, "is_disabled": 0, "type": "electric_scooter", "lon": -77.036618, "bike_id": "89bb0663d2d1ed0defc27bafc20c8d1e", "fusion_lat": 0.0, "name": "89bb0663d2d1ed0defc27bafc20c8d1e", "is_reserved": 0, "rental_uris": {"android": "https://dc.lft.to/lastmile_qr_scan", "ios": "https://dc.lft.to/lastmile_qr_scan"}, "fusion_lon": 0.0}, {"lat": 38.915344833333336, "is_disabled": 0, "type": "electric_scooter", "lon": -77.038308, "bike_id": "ffe74bf63eb8c1ccd3cb2e6fdec5d8a0", "fusion_lat": 0.0, "name": "ffe74bf63eb8c1ccd3cb2e6fdec5d8a0", "is_reserved": 0, "rental_uris": {"android": "https://dc.lft.to/lastmile_qr_scan", "ios": "https://dc.lft.to/lastmile_qr_scan"}, "fusion_lon": 0.0}, {"lat": 38.92388283333333, "is_disabled": 0, "type": "electric_scooter", "lon": -77.03659933333333, "bike_id": "5f08308192618d09239adf6f559abba9", "fusion_lat": 0.0, "name": "5f08308192618d09239adf6f559abba9", "is_reserved": 0, "rental_uris": {"android": "https://dc.lft.to/lastmile_qr_scan", "ios": "https://dc.lft.to/lastmile_qr_scan"}, "fusion_lon": 0.0}, {"lat": 38.9125135, "is_disabled": 0, "type": "electric_scooter", "lon": -77.03811783333333, "bike_id": "70e7a0918e85d88fe1316d2271bead3c", "fusion_lat": 0.0, "name": "70e7a0918e85d88fe1316d2271bead3c", "is_reserved": 0, "rental_uris": {"android": "https://dc.lft.to/lastmile_qr_scan", "ios": "https://dc.lft.to/lastmile_qr_scan"}, "fusion_lon": 0.0}, {"lat": 38.9168375, "is_disabled": 0, "type": "electric_scooter", "lon": -77.0295205, "bike_id": "1ec7629e5bb4919955e77a3973b8e91e", "fusion_lat": 0.0, "name": "1ec7629e5bb4919955e77a3973b8e91e", "is_reserved": 0, "rental_uris": {"android": "https://dc.lft.to/lastmile_qr_scan", "ios": "https://dc.lft.to/lastmile_qr_scan"}, "fusion_lon": 0.0}, {"lat": 38.89485916666667, "is_disabled": 0, "type": "electric_scooter", "lon": -77.01084216666666, "bike_id": "b3091d01d7a8700758042e30a3ab5870", "fusion_lat": 0.0, "name": "b3091d01d7a8700758042e30a3ab5870", "is_reserved": 0, "rental_uris": {"android": "https://dc.lft.to/lastmile_qr_scan", "ios": "https://dc.lft.to/lastmile_qr_scan"}, "fusion_lon": 0.0}, {"lat": 38.90797283333333, "is_disabled": 0, "type": "electric_scooter", "lon": -76.99701566666667, "bike_id": "e5af25ddfdb34edf5c5f0dc5ef96ed35", "fusion_lat": 0.0, "name": "e5af25ddfdb34edf5c5f0dc5ef96ed35", "is_reserved": 0, "rental_uris": {"android": "https://dc.lft.to/lastmile_qr_scan", "ios": "https://dc.lft.to/lastmile_qr_scan"}, "fusion_lon": 0.0}, {"lat": 38.91266133333333, "is_disabled": 0, "type": "electric_scooter", "lon": -77.022756, "bike_id": "5ecb49a73fe4b4b86ad4852178e8d4a7", "fusion_lat": 0.0, "name": "5ecb49a73fe4b4b86ad4852178e8d4a7", "is_reserved": 0, "rental_uris": {"android": "https://dc.lft.to/lastmile_qr_scan", "ios": "https://dc.lft.to/lastmile_qr_scan"}, "fusion_lon": 0.0}, {"lat": 38.872916000000004, "is_disabled": 0, "type": "electric_scooter", "lon": -77.00925266666667, "bike_id": "96db0b9e6d6e5152a6380c8c58960ab0", "fusion_lat": 0.0, "name": "96db0b9e6d6e5152a6380c8c58960ab0", "is_reserved": 0, "rental_uris": {"android": "https://dc.lft.to/lastmile_qr_scan", "ios": "https://dc.lft.to/lastmile_qr_scan"}, "fusion_lon": 0.0}, {"lat": 38.9182295, "is_disabled": 0, "type": "electric_scooter", "lon": -77.04521533333333, "bike_id": "d4a0b42b4e457bb14a0444e4c060f1f5", "fusion_lat": 0.0, "name": "d4a0b42b4e457bb14a0444e4c060f1f5", "is_reserved": 0, "rental_uris": {"android": "https://dc.lft.to/lastmile_qr_scan", "ios": "https://dc.lft.to/lastmile_qr_scan"}, "fusion_lon": 0.0}, {"lat": 38.8988925, "is_disabled": 0, "type": "electric_scooter", "lon": -77.0723645, "bike_id": "8405ca2e4cb34d0c99e7f6b6b04473c0", "fusion_lat": 0.0, "name": "8405ca2e4cb34d0c99e7f6b6b04473c0", "is_reserved": 0, "rental_uris": {"android": "https://dc.lft.to/lastmile_qr_scan", "ios": "https://dc.lft.to/lastmile_qr_scan"}, "fusion_lon": 0.0}, {"lat": 38.9329405, "is_disabled": 0, "type": "electric_scooter", "lon": -77.02195533333334, "bike_id": "6364ce0bc8e6b4b7aed66bb1a01d8808", "fusion_lat": 0.0, "name": "6364ce0bc8e6b4b7aed66bb1a01d8808", "is_reserved": 0, "rental_uris": {"android": "https://dc.lft.to/lastmile_qr_scan", "ios": "https://dc.lft.to/lastmile_qr_scan"}, "fusion_lon": 0.0}, {"lat": 38.9124175, "is_disabled": 0, "type": "electric_scooter", "lon": -77.04663416666666, "bike_id": "6f90514b4277a5bd2b68b4d365e4e916", "fusion_lat": 0.0, "name": "6f90514b4277a5bd2b68b4d365e4e916", "is_reserved": 0, "rental_uris": {"android": "https://dc.lft.to/lastmile_qr_scan", "ios": "https://dc.lft.to/lastmile_qr_scan"}, "fusion_lon": 0.0}, {"lat": 38.903457333333336, "is_disabled": 0, "type": "electric_scooter", "lon": -77.045013, "bike_id": "6720ea7b1171ef405c14b642626fd954", "fusion_lat": 0.0, "name": "6720ea7b1171ef405c14b642626fd954", "is_reserved": 0, "rental_uris": {"android": "https://dc.lft.to/lastmile_qr_scan", "ios": "https://dc.lft.to/lastmile_qr_scan"}, "fusion_lon": 0.0}, {"lat": 38.9012585, "is_disabled": 0, "type": "electric_scooter", "lon": -77.0332905, "bike_id": "5c80bfee190cc18315161281cdab8b13", "fusion_lat": 0.0, "name": "5c80bfee190cc18315161281cdab8b13", "is_reserved": 0, "rental_uris": {"android": "https://dc.lft.to/lastmile_qr_scan", "ios": "https://dc.lft.to/lastmile_qr_scan"}, "fusion_lon": 0.0}, {"lat": 38.923024, "is_disabled": 0, "type": "electric_scooter", "lon": -77.02331966666667, "bike_id": "3c1d435e43b2effc9b472f2e318f046d", "fusion_lat": 0.0, "name": "3c1d435e43b2effc9b472f2e318f046d", "is_reserved": 0, "rental_uris": {"android": "https://dc.lft.to/lastmile_qr_scan", "ios": "https://dc.lft.to/lastmile_qr_scan"}, "fusion_lon": 0.0}, {"lat": 38.90106933333333, "is_disabled": 0, "type": "electric_scooter", "lon": -77.0590075, "bike_id": "36f451c35c3a54e009be87ee74fe7ddb", "fusion_lat": 0.0, "name": "36f451c35c3a54e009be87ee74fe7ddb", "is_reserved": 0, "rental_uris": {"android": "https://dc.lft.to/lastmile_qr_scan", "ios": "https://dc.lft.to/lastmile_qr_scan"}, "fusion_lon": 0.0}, {"lat": 38.93978, "is_disabled": 0, "type": "electric_scooter", "lon": -77.02631483333333, "bike_id": "be8f5f45995ccdaba0f8048b930ce152", "fusion_lat": 0.0, "name": "be8f5f45995ccdaba0f8048b930ce152", "is_reserved": 0, "rental_uris": {"android": "https://dc.lft.to/lastmile_qr_scan", "ios": "https://dc.lft.to/lastmile_qr_scan"}, "fusion_lon": 0.0}, {"lat": 38.958205666666665, "is_disabled": 0, "type": "electric_bike", "lon": -76.94092033333334, "bike_id": "8ed64dfae37039f39a29d3b3a2a05336", "fusion_lat": 0.0, "name": "8ed64dfae37039f39a29d3b3a2a05336", "is_reserved": 0, "rental_uris": {"android": "https://dc.lft.to/lastmile_qr_scan", "ios": "https://dc.lft.to/lastmile_qr_scan"}, "fusion_lon": 0.0}, {"lat": 38.902593333333336, "is_disabled": 0, "type": "electric_scooter", "lon": -77.03956666666667, "bike_id": "df4424354bc90eb9e8788fdd5e6e017a", "fusion_lat": 0.0, "name": "df4424354bc90eb9e8788fdd5e6e017a", "is_reserved": 0, "rental_uris": {"android": "https://dc.lft.to/lastmile_qr_scan", "ios": "https://dc.lft.to/lastmile_qr_scan"}, "fusion_lon": 0.0}, {"lat": 38.95167416666666, "is_disabled": 0, "type": "electric_bike", "lon": -76.96895, "bike_id": "a1687984da152af391e988556ded6424", "fusion_lat": 0.0, "name": "a1687984da152af391e988556ded6424", "is_reserved": 0, "rental_uris": {"android": "https://dc.lft.to/lastmile_qr_scan", "ios": "https://dc.lft.to/lastmile_qr_scan"}, "fusion_lon": 0.0}, {"lat": 38.919222, "is_disabled": 0, "type": "electric_scooter", "lon": -77.0338085, "bike_id": "6f2359bcd1c514bcdec08fa92cbe7c02", "fusion_lat": 0.0, "name": "6f2359bcd1c514bcdec08fa92cbe7c02", "is_reserved": 0, "rental_uris": {"android": "https://dc.lft.to/lastmile_qr_scan", "ios": "https://dc.lft.to/lastmile_qr_scan"}, "fusion_lon": 0.0}, {"lat": 38.909566166666664, "is_disabled": 0, "type": "electric_scooter", "lon": -77.03730266666666, "bike_id": "e9d28f5d84966280824a621c54a6f6e9", "fusion_lat": 0.0, "name": "e9d28f5d84966280824a621c54a6f6e9", "is_reserved": 0, "rental_uris": {"android": "https://dc.lft.to/lastmile_qr_scan", "ios": "https://dc.lft.to/lastmile_qr_scan"}, "fusion_lon": 0.0}, {"lat": 38.91874083333333, "is_disabled": 0, "type": "electric_scooter", "lon": -77.012076, "bike_id": "1a5e51791b9e472bda2e153581970fb4", "fusion_lat": 0.0, "name": "1a5e51791b9e472bda2e153581970fb4", "is_reserved": 0, "rental_uris": {"android": "https://dc.lft.to/lastmile_qr_scan", "ios": "https://dc.lft.to/lastmile_qr_scan"}, "fusion_lon": 0.0}, {"lat": 38.92867016666667, "is_disabled": 0, "type": "electric_scooter", "lon": -77.01386033333333, "bike_id": "6b88c2c8188982d0500445c884000d31", "fusion_lat": 0.0, "name": "6b88c2c8188982d0500445c884000d31", "is_reserved": 0, "rental_uris": {"android": "https://dc.lft.to/lastmile_qr_scan", "ios": "https://dc.lft.to/lastmile_qr_scan"}, "fusion_lon": 0.0}, {"lat": 38.90338333333333, "is_disabled": 0, "type": "electric_scooter", "lon": -77.04494466666667, "bike_id": "e3a93386c9389d5606c38a7c837dfa84", "fusion_lat": 0.0, "name": "e3a93386c9389d5606c38a7c837dfa84", "is_reserved": 0, "rental_uris": {"android": "https://dc.lft.to/lastmile_qr_scan", "ios": "https://dc.lft.to/lastmile_qr_scan"}, "fusion_lon": 0.0}, {"lat": 38.900754666666664, "is_disabled": 0, "type": "electric_scooter", "lon": -77.00212016666667, "bike_id": "508459669ad0a9858365222f0d7c7f85", "fusion_lat": 0.0, "name": "508459669ad0a9858365222f0d7c7f85", "is_reserved": 0, "rental_uris": {"android": "https://dc.lft.to/lastmile_qr_scan", "ios": "https://dc.lft.to/lastmile_qr_scan"}, "fusion_lon": 0.0}, {"lat": 38.93355733333333, "is_disabled": 0, "type": "electric_bike", "lon": -77.0996605, "bike_id": "13c6641b3dcff1a44c946cb27caebfa8", "fusion_lat": 0.0, "name": "13c6641b3dcff1a44c946cb27caebfa8", "is_reserved": 0, "rental_uris": {"android": "https://dc.lft.to/lastmile_qr_scan", "ios": "https://dc.lft.to/lastmile_qr_scan"}, "fusion_lon": 0.0}, {"lat": 38.85565666666667, "is_disabled": 0, "type": "electric_bike", "lon": -77.11141366666666, "bike_id": "f9a7d6150ecdba8c42cb0c8cd8c4878d", "fusion_lat": 0.0, "name": "f9a7d6150ecdba8c42cb0c8cd8c4878d", "is_reserved": 0, "rental_uris": {"android": "https://dc.lft.to/lastmile_qr_scan", "ios": "https://dc.lft.to/lastmile_qr_scan"}, "fusion_lon": 0.0}, {"lat": 38.933241833333334, "is_disabled": 0, "type": "electric_scooter", "lon": -77.04370383333334, "bike_id": "c8a5860799e9aa7c2c7b8d73a0501781", "fusion_lat": 0.0, "name": "c8a5860799e9aa7c2c7b8d73a0501781", "is_reserved": 0, "rental_uris": {"android": "https://dc.lft.to/lastmile_qr_scan", "ios": "https://dc.lft.to/lastmile_qr_scan"}, "fusion_lon": 0.0}, {"lat": 38.89826266666667, "is_disabled": 0, "type": "electric_scooter", "lon": -77.03030383333333, "bike_id": "f5a534ff141c12c23168191209b78797", "fusion_lat": 0.0, "name": "f5a534ff141c12c23168191209b78797", "is_reserved": 0, "rental_uris": {"android": "https://dc.lft.to/lastmile_qr_scan", "ios": "https://dc.lft.to/lastmile_qr_scan"}, "fusion_lon": 0.0}, {"lat": 38.91723283333333, "is_disabled": 0, "type": "electric_scooter", "lon": -77.0458795, "bike_id": "5e325f53214942dec4c8c23937796084", "fusion_lat": 0.0, "name": "5e325f53214942dec4c8c23937796084", "is_reserved": 0, "rental_uris": {"android": "https://dc.lft.to/lastmile_qr_scan", "ios": "https://dc.lft.to/lastmile_qr_scan"}, "fusion_lon": 0.0}, {"lat": 38.919524833333334, "is_disabled": 0, "type": "electric_scooter", "lon": -76.98083766666667, "bike_id": "fc16c91a4306c177f124b7255c26cb3d", "fusion_lat": 0.0, "name": "fc16c91a4306c177f124b7255c26cb3d", "is_reserved": 0, "rental_uris": {"android": "https://dc.lft.to/lastmile_qr_scan", "ios": "https://dc.lft.to/lastmile_qr_scan"}, "fusion_lon": 0.0}, {"lat": 38.90225183333333, "is_disabled": 0, "type": "electric_scooter", "lon": -77.02817183333333, "bike_id": "367144eec77729560e75713174b0961a", "fusion_lat": 0.0, "name": "367144eec77729560e75713174b0961a", "is_reserved": 0, "rental_uris": {"android": "https://dc.lft.to/lastmile_qr_scan", "ios": "https://dc.lft.to/lastmile_qr_scan"}, "fusion_lon": 0.0}, {"lat": 38.91777716666667, "is_disabled": 0, "type": "electric_scooter", "lon": -77.02893816666666, "bike_id": "6f7b77fb691e0d01af2f59d5021b961f", "fusion_lat": 0.0, "name": "6f7b77fb691e0d01af2f59d5021b961f", "is_reserved": 0, "rental_uris": {"android": "https://dc.lft.to/lastmile_qr_scan", "ios": "https://dc.lft.to/lastmile_qr_scan"}, "fusion_lon": 0.0}, {"lat": 39.08858983333333, "is_disabled": 0, "type": "electric_bike", "lon": -77.1784175, "bike_id": "3b71825461355f9d9471a1fa23b3f349", "fusion_lat": 0.0, "name": "3b71825461355f9d9471a1fa23b3f349", "is_reserved": 0, "rental_uris": {"android": "https://dc.lft.to/lastmile_qr_scan", "ios": "https://dc.lft.to/lastmile_qr_scan"}, "fusion_lon": 0.0}, {"lat": 38.93134083333333, "is_disabled": 0, "type": "electric_scooter", "lon": -77.03256316666666, "bike_id": "253c7106292f1b70cb2eb5c5c2178da2", "fusion_lat": 0.0, "name": "253c7106292f1b70cb2eb5c5c2178da2", "is_reserved": 0, "rental_uris": {"android": "https://dc.lft.to/lastmile_qr_scan", "ios": "https://dc.lft.to/lastmile_qr_scan"}, "fusion_lon": 0.0}, {"lat": 38.96557133333334, "is_disabled": 0, "type": "electric_bike", "lon": -77.020399, "bike_id": "4fa76a3211487fb111fb0e422e54e9d8", "fusion_lat": 0.0, "name": "4fa76a3211487fb111fb0e422e54e9d8", "is_reserved": 0, "rental_uris": {"android": "https://dc.lft.to/lastmile_qr_scan", "ios": "https://dc.lft.to/lastmile_qr_scan"}, "fusion_lon": 0.0}, {"lat": 38.9018405, "is_disabled": 0, "type": "electric_scooter", "lon": -77.0499455, "bike_id": "90d777b3b210807174c9c812a89fa32b", "fusion_lat": 0.0, "name": "90d777b3b210807174c9c812a89fa32b", "is_reserved": 0, "rental_uris": {"android": "https://dc.lft.to/lastmile_qr_scan", "ios": "https://dc.lft.to/lastmile_qr_scan"}, "fusion_lon": 0.0}, {"lat": 38.896912, "is_disabled": 0, "type": "electric_bike", "lon": -77.00351133333334, "bike_id": "017ca72ae380cfa55bd0e94bf1b7cdd1", "fusion_lat": 0.0, "name": "017ca72ae380cfa55bd0e94bf1b7cdd1", "is_reserved": 0, "rental_uris": {"android": "https://dc.lft.to/lastmile_qr_scan", "ios": "https://dc.lft.to/lastmile_qr_scan"}, "fusion_lon": 0.0}, {"lat": 38.93139983333333, "is_disabled": 0, "type": "electric_scooter", "lon": -77.0328965, "bike_id": "27c0850af4800c05f409d0eb08af3ce4", "fusion_lat": 0.0, "name": "27c0850af4800c05f409d0eb08af3ce4", "is_reserved": 0, "rental_uris": {"android": "https://dc.lft.to/lastmile_qr_scan", "ios": "https://dc.lft.to/lastmile_qr_scan"}, "fusion_lon": 0.0}, {"lat": 38.9220335, "is_disabled": 0, "type": "electric_scooter", "lon": -76.956627, "bike_id": "084236338ae6a1189d6583544b1ec030", "fusion_lat": 0.0, "name": "084236338ae6a1189d6583544b1ec030", "is_reserved": 0, "rental_uris": {"android": "https://dc.lft.to/lastmile_qr_scan", "ios": "https://dc.lft.to/lastmile_qr_scan"}, "fusion_lon": 0.0}, {"lat": 38.90331416666667, "is_disabled": 0, "type": "electric_scooter", "lon": -77.02891966666667, "bike_id": "bcb3a26985efd1b59d32117b9226728a", "fusion_lat": 0.0, "name": "bcb3a26985efd1b59d32117b9226728a", "is_reserved": 0, "rental_uris": {"android": "https://dc.lft.to/lastmile_qr_scan", "ios": "https://dc.lft.to/lastmile_qr_scan"}, "fusion_lon": 0.0}, {"lat": 38.902281, "is_disabled": 0, "type": "electric_scooter", "lon": -77.04368566666666, "bike_id": "224b9fda95c4d003848112b612aaba9b", "fusion_lat": 0.0, "name": "224b9fda95c4d003848112b612aaba9b", "is_reserved": 0, "rental_uris": {"android": "https://dc.lft.to/lastmile_qr_scan", "ios": "https://dc.lft.to/lastmile_qr_scan"}, "fusion_lon": 0.0}, {"lat": 38.89988683333333, "is_disabled": 0, "type": "electric_scooter", "lon": -77.02317483333333, "bike_id": "5beb00c99539a130d6fd69fdbae9308c", "fusion_lat": 0.0, "name": "5beb00c99539a130d6fd69fdbae9308c", "is_reserved": 0, "rental_uris": {"android": "https://dc.lft.to/lastmile_qr_scan", "ios": "https://dc.lft.to/lastmile_qr_scan"}, "fusion_lon": 0.0}, {"lat": 38.922630833333336, "is_disabled": 0, "type": "electric_scooter", "lon": -77.04289583333333, "bike_id": "392273439946912e3465eb08752c10cd", "fusion_lat": 0.0, "name": "392273439946912e3465eb08752c10cd", "is_reserved": 0, "rental_uris": {"android": "https://dc.lft.to/lastmile_qr_scan", "ios": "https://dc.lft.to/lastmile_qr_scan"}, "fusion_lon": 0.0}, {"lat": 38.92854783333333, "is_disabled": 0, "type": "electric_bike", "lon": -77.222216, "bike_id": "33ff986b758879478817e9d367758755", "fusion_lat": 0.0, "name": "33ff986b758879478817e9d367758755", "is_reserved": 0, "rental_uris": {"android": "https://dc.lft.to/lastmile_qr_scan", "ios": "https://dc.lft.to/lastmile_qr_scan"}, "fusion_lon": 0.0}, {"lat": 38.87210566666667, "is_disabled": 0, "type": "electric_bike", "lon": -77.01524266666667, "bike_id": "3ffd2ad9d46bfd131a9722a05f02f7c5", "fusion_lat": 0.0, "name": "3ffd2ad9d46bfd131a9722a05f02f7c5", "is_reserved": 0, "rental_uris": {"android": "https://dc.lft.to/lastmile_qr_scan", "ios": "https://dc.lft.to/lastmile_qr_scan"}, "fusion_lon": 0.0}, {"lat": 38.91801616666667, "is_disabled": 0, "type": "electric_scooter", "lon": -77.03449083333334, "bike_id": "0508a5ddf0b9d90791a50f1dc27a24ae", "fusion_lat": 0.0, "name": "0508a5ddf0b9d90791a50f1dc27a24ae", "is_reserved": 0, "rental_uris": {"android": "https://dc.lft.to/lastmile_qr_scan", "ios": "https://dc.lft.to/lastmile_qr_scan"}, "fusion_lon": 0.0}, {"lat": 38.917091166666665, "is_disabled": 0, "type": "electric_scooter", "lon": -77.032215, "bike_id": "464758390fccebc051cb6808f2edf0cb", "fusion_lat": 0.0, "name": "464758390fccebc051cb6808f2edf0cb", "is_reserved": 0, "rental_uris": {"android": "https://dc.lft.to/lastmile_qr_scan", "ios": "https://dc.lft.to/lastmile_qr_scan"}, "fusion_lon": 0.0}, {"lat": 38.9134195, "is_disabled": 0, "type": "electric_scooter", "lon": -77.002289, "bike_id": "b09e92f2cfa329634461ba03f8ab5c73", "fusion_lat": 0.0, "name": "b09e92f2cfa329634461ba03f8ab5c73", "is_reserved": 0, "rental_uris": {"android": "https://dc.lft.to/lastmile_qr_scan", "ios": "https://dc.lft.to/lastmile_qr_scan"}, "fusion_lon": 0.0}, {"lat": 38.92409833333333, "is_disabled": 0, "type": "electric_scooter", "lon": -77.0353835, "bike_id": "89bb7358618e5d9ad8db6a3f8b6cd338", "fusion_lat": 0.0, "name": "89bb7358618e5d9ad8db6a3f8b6cd338", "is_reserved": 0, "rental_uris": {"android": "https://dc.lft.to/lastmile_qr_scan", "ios": "https://dc.lft.to/lastmile_qr_scan"}, "fusion_lon": 0.0}, {"lat": 38.92332, "is_disabled": 0, "type": "electric_scooter", "lon": -77.01899216666666, "bike_id": "d5cad236110a59ebb35bc2f1e309286e", "fusion_lat": 0.0, "name": "d5cad236110a59ebb35bc2f1e309286e", "is_reserved": 0, "rental_uris": {"android": "https://dc.lft.to/lastmile_qr_scan", "ios": "https://dc.lft.to/lastmile_qr_scan"}, "fusion_lon": 0.0}, {"lat": 38.878930833333335, "is_disabled": 0, "type": "electric_scooter", "lon": -77.00709583333334, "bike_id": "09d5932c5bf3f6f809451516b1367861", "fusion_lat": 0.0, "name": "09d5932c5bf3f6f809451516b1367861", "is_reserved": 0, "rental_uris": {"android": "https://dc.lft.to/lastmile_qr_scan", "ios": "https://dc.lft.to/lastmile_qr_scan"}, "fusion_lon": 0.0}, {"lat": 38.912355, "is_disabled": 0, "type": "electric_scooter", "lon": -77.04478783333333, "bike_id": "3985247a0206bb1c4e695d2855fdd8ee", "fusion_lat": 0.0, "name": "3985247a0206bb1c4e695d2855fdd8ee", "is_reserved": 0, "rental_uris": {"android": "https://dc.lft.to/lastmile_qr_scan", "ios": "https://dc.lft.to/lastmile_qr_scan"}, "fusion_lon": 0.0},