{"data": {"bikes": [{"lat": 38.922412333333334, "fusion_lon": 0.0, "lon": -77.04340966666666, "is_disabled": 0, "type": "electric_scooter", "name": "5e54691957264de965d49413eaecd0e0", "fusion_lat": 0.0, "rental_uris": {"android": "https://dc.lft.to/lastmile_qr_scan", "ios": "https://dc.lft.to/lastmile_qr_scan"}, "bike_id": "5e54691957264de965d49413eaecd0e0", "is_reserved": 0}, {"lat": 38.90827433333333, "fusion_lon": 0.0, "lon": -77.039617, "is_disabled": 0, "type": "electric_scooter", "name": "298aadd6c906b3ed3bec42459d2d530a", "fusion_lat": 0.0, "rental_uris": {"android": "https://dc.lft.to/lastmile_qr_scan", "ios": "https://dc.lft.to/lastmile_qr_scan"}, "bike_id": "298aadd6c906b3ed3bec42459d2d530a", "is_reserved": 0}, {"lat": 38.903327, "fusion_lon": 0.0, "lon": -76.97535633333334, "is_disabled": 0, "type": "electric_bike", "name": "bac2336a348d53331d27522292470bbe", "fusion_lat": 0.0, "rental_uris": {"android": "https://dc.lft.to/lastmile_qr_scan", "ios": "https://dc.lft.to/lastmile_qr_scan"}, "bike_id": "bac2336a348d53331d27522292470bbe", "is_reserved": 0}, {"lat": 38.89642683333334, "fusion_lon": 0.0, "lon": -76.93025166666666, "is_disabled": 0, "type": "electric_bike", "name": "cbd11b2a610e5001f7a53c01ce484c33", "fusion_lat": 0.0, "rental_uris": {"android": "https://dc.lft.to/lastmile_qr_scan", "ios": "https://dc.lft.to/lastmile_qr_scan"}, "bike_id": "cbd11b2a610e5001f7a53c01ce484c33", "is_reserved": 0}, {"lat": 38.92436516666667, "fusion_lon": 0.0, "lon": -77.039984, "is_disabled": 0, "type": "electric_scooter", "name": "475bfd35e5a415a15b3a571a7b13ef98", "fusion_lat": 0.0, "rental_uris": {"android": "https://dc.lft.to/lastmile_qr_scan", "ios": "https://dc.lft.to/lastmile_qr_scan"}, "bike_id": "475bfd35e5a415a15b3a571a7b13ef98", "is_reserved": 0}, {"lat": 38.93678466666667, "fusion_lon": 0.0, "lon": -77.036245, "is_disabled": 0, "type": "electric_scooter", "name": "45c0c04c3848c28419be12af66dfc64f", "fusion_lat": 0.0, "rental_uris": {"android": "https://dc.lft.to/lastmile_qr_scan", "ios": "https://dc.lft.to/lastmile_qr_scan"}, "bike_id": "45c0c04c3848c28419be12af66dfc64f", "is_reserved": 0}, {"lat": 38.93520733333333, "fusion_lon": 0.0, "lon": -77.07288383333334, "is_disabled": 0, "type": "electric_scooter", "name": "e00b2b36377d4b8e32d78901d2dc3692", "fusion_lat": 0.0, "rental_uris": {"android": "https://dc.lft.to/lastmile_qr_scan", "ios": "https://dc.lft.to/lastmile_qr_scan"}, "bike_id": "e00b2b36377d4b8e32d78901d2dc3692", "is_reserved": 0}, {"lat": 38.96740716666667, "fusion_lon": 0.0, "lon": -76.96052683333333, "is_disabled": 0, "type": "electric_bike", "name": "4d5bbdd15490ae92bb28bb61bc3ac119", "fusion_lat": 0.0, "rental_uris": {"android": "https://dc.lft.to/lastmile_qr_scan", "ios": "https://dc.lft.to/lastmile_qr_scan"}, "bike_id": "4d5bbdd15490ae92bb28bb61bc3ac119", "is_reserved": 0}, {"lat": 38.8860755, "fusion_lon": 0.0, "lon": -76.99510466666666, "is_disabled": 0, "type": "electric_scooter", "name": "2375948b260a24f4a5d7c9b93ca43731", "fusion_lat": 0.0, "rental_uris": {"android": "https://dc.lft.to/lastmile_qr_scan", "ios": "https://dc.lft.to/lastmile_qr_scan"}, "bike_id": "2375948b260a24f4a5d7c9b93ca43731", "is_reserved": 0}, {"lat": 38.92276433333333, "fusion_lon": 0.0, "lon": -77.03221266666667, "is_disabled": 0, "type": "electric_scooter", "name": "d78a3c8d5016943482c3d79e48f05d50", "fusion_lat": 0.0, "rental_uris": {"android": "https://dc.lft.to/lastmile_qr_scan", "ios": "https://dc.lft.to/lastmile_qr_scan"}, "bike_id": "d78a3c8d5016943482c3d79e48f05d50", "is_reserved": 0}, {"lat": 38.920089, "fusion_lon": 0.0, "lon": -77.04164683333333, "is_disabled": 0, "type": "electric_scooter", "name": "a874aef4d34bd203392338ea65debaba", "fusion_lat": 0.0, "rental_uris": {"android": "https://dc.lft.to/lastmile_qr_scan", "ios": "https://dc.lft.to/lastmile_qr_scan"}, "bike_id": "a874aef4d34bd203392338ea65debaba", "is_reserved": 0}, {"lat": 38.908596833333334, "fusion_lon": 0.0, "lon": -77.04294766666666, "is_disabled": 0, "type": "electric_scooter", "name": "4a71be2521890d1a8071e50bd145e2d6", "fusion_lat": 0.0, "rental_uris": {"android": "https://dc.lft.to/lastmile_qr_scan", "ios": "https://dc.lft.to/lastmile_qr_scan"}, "bike_id": "4a71be2521890d1a8071e50bd145e2d6", "is_reserved": 0}, {"lat": 38.9169775, "fusion_lon": 0.0, "lon": -77.02413366666667, "is_disabled": 0, "type": "electric_scooter", "name": "fc0c93d1e3971fced3c4194b6f926895", "fusion_lat": 0.0, "rental_uris": {"android": "https://dc.lft.to/lastmile_qr_scan", "ios": "https://dc.lft.to/lastmile_qr_scan"}, "bike_id": "fc0c93d1e3971fced3c4194b6f926895", "is_reserved": 0}, {"lat": 38.86705366666666, "fusion_lon": 0.0, "lon": -76.98708566666667, "is_disabled": 0, "type": "electric_scooter", "name": "205f31fa409c47517c86ffdb9e234b2c", "fusion_lat": 0.0, "rental_uris": {"android": "https://dc.lft.to/lastmile_qr_scan", "ios": "https://dc.lft.to/lastmile_qr_scan"}, "bike_id": "205f31fa409c47517c86ffdb9e234b2c", "is_reserved": 0}, {"lat": 38.90052283333333, "fusion_lon": 0.0, "lon": -77.03948183333334, "is_disabled": 0, "type": "electric_scooter", "name": "271edecb42294c350c533f6b5c3d8ed3", "fusion_lat": 0.0, "rental_uris": {"android": "https://dc.lft.to/lastmile_qr_scan", "ios": "https://dc.lft.to/lastmile_qr_scan"}, "bike_id": "271edecb42294c350c533f6b5c3d8ed3", "is_reserved": 0}, {"lat": 38.902472833333334, "fusion_lon": 0.0, "lon": -77.02638116666667, "is_disabled": 0, "type": "electric_scooter", "name": "553b7f19e2685f5e13aa4a5e5c4ed5bb", "fusion_lat": 0.0, "rental_uris": {"android": "https://dc.lft.to/lastmile_qr_scan", "ios": "https://dc.lft.to/lastmile_qr_scan"}, "bike_id": "553b7f19e2685f5e13aa4a5e5c4ed5bb", "is_reserved": 0}, {"lat": 38.93085283333333, "fusion_lon": 0.0, "lon": -77.0040975, "is_disabled": 0, "type": "electric_scooter", "name": "38639dc1d81e8ee11b72421603cf2a06", "fusion_lat": 0.0, "rental_uris": {"android": "https://dc.lft.to/lastmile_qr_scan", "ios": "https://dc.lft.to/lastmile_qr_scan"}, "bike_id": "38639dc1d81e8ee11b72421603cf2a06", "is_reserved": 0}, {"lat": 38.898325166666666, "fusion_lon": 0.0, "lon": -77.04338833333334, "is_disabled": 0, "type": "electric_scooter", "name": "8dc50c99f81a3affa4752ca1a1f92dc5", "fusion_lat": 0.0, "rental_uris": {"android": "https://dc.lft.to/lastmile_qr_scan", "ios": "https://dc.lft.to/lastmile_qr_scan"}, "bike_id": "8dc50c99f81a3affa4752ca1a1f92dc5", "is_reserved": 0}, {"lat": 38.9146095, "fusion_lon": 0.0, "lon": -77.00909483333334, "is_disabled": 0, "type": "electric_scooter", "name": "1bdb215257ccc51a6840d89ca90b3a9f", "fusion_lat": 0.0, "rental_uris": {"android": "https://dc.lft.to/lastmile_qr_scan", "ios": "https://dc.lft.to/lastmile_qr_scan"}, "bike_id": "1bdb215257ccc51a6840d89ca90b3a9f", "is_reserved": 0}, {"lat": 38.892208, "fusion_lon": 0.0, "lon": -77.04379083333333, "is_disabled": 0, "type": "electric_scooter", "name": "1d52644af34dbd72c3e6f6879fa293f1", "fusion_lat": 0.0, "rental_uris": {"android": "https://dc.lft.to/lastmile_qr_scan", "ios": "https://dc.lft.to/lastmile_qr_scan"}, "bike_id": "1d52644af34dbd72c3e6f6879fa293f1", "is_reserved": 0}, {"lat": 38.91638066666667, "fusion_lon": 0.0, "lon": -77.04817233333333, "is_disabled": 0, "type": "electric_scooter", "name": "c7048ab68ebafda178c87e3c31b74ad5", "fusion_lat": 0.0, "rental_uris": {"android": "https://dc.lft.to/lastmile_qr_scan", "ios": "https://dc.lft.to/lastmile_qr_scan"}, "bike_id": "c7048ab68ebafda178c87e3c31b74ad5", "is_reserved": 0}, {"lat": 38.89942633333333, "fusion_lon": 0.0, "lon": -77.0421775, "is_disabled": 0, "type": "electric_scooter", "name": "65637c7a7f28d65ead92cebc12d61d02", "fusion_lat": 0.0, "rental_uris": {"android": "https://dc.lft.to/lastmile_qr_scan", "ios": "https://dc.lft.to/lastmile_qr_scan"}, "bike_id": "65637c7a7f28d65ead92cebc12d61d02", "is_reserved": 0}, {"lat": 38.89349083333333, "fusion_lon": 0.0, "lon": -77.0419485, "is_disabled": 0, "type": "electric_scooter", "name": "692968741dcba42aca40d14f33a1b0d0", "fusion_lat": 0.0, "rental_uris": {"android": "https://dc.lft.to/lastmile_qr_scan", "ios": "https://dc.lft.to/lastmile_qr_scan"}, "bike_id": "692968741dcba42aca40d14f33a1b0d0", "is_reserved": 0}, {"lat": 38.88738333333333, "fusion_lon": 0.0, "lon": -77.02587833333334, "is_disabled": 0, "type": "electric_scooter", "name": "d9634479c02c168a7656b5542267e677", "fusion_lat": 0.0, "rental_uris": {"android": "https://dc.lft.to/lastmile_qr_scan", "ios": "https://dc.lft.to/lastmile_qr_scan"}, "bike_id": "d9634479c02c168a7656b5542267e677", "is_reserved": 0}, {"lat": 38.91187683333333, "fusion_lon": 0.0, "lon": -77.03021383333333, "is_disabled": 0, "type": "electric_scooter", "name": "1b06b5d25ce1b996e703802bec707cb4", "fusion_lat": 0.0, "rental_uris": {"android": "https://dc.lft.to/lastmile_qr_scan", "ios": "https://dc.lft.to/lastmile_qr_scan"}, "bike_id": "1b06b5d25ce1b996e703802bec707cb4", "is_reserved": 0}, {"lat": 38.95925733333333, "fusion_lon": 0.0, "lon": -76.92545533333333, "is_disabled": 0, "type": "electric_bike", "name": "2229fa5b320c218a7500cd2a0bb3c05d", "fusion_lat": 0.0, "rental_uris": {"android": "https://dc.lft.to/lastmile_qr_scan", "ios": "https://dc.lft.to/lastmile_qr_scan"}, "bike_id": "2229fa5b320c218a7500cd2a0bb3c05d", "is_reserved": 0}, {"lat": 38.8762925, "fusion_lon": 0.0, "lon": -77.009381, "is_disabled": 0, "type": "electric_scooter", "name": "3b605496b5144c9a6953120f2e975a75", "fusion_lat": 0.0, "rental_uris": {"android": "https://dc.lft.to/lastmile_qr_scan", "ios": "https://dc.lft.to/lastmile_qr_scan"}, "bike_id": "3b605496b5144c9a6953120f2e975a75", "is_reserved": 0}, {"lat": 38.86896483333334, "fusion_lon": 0.0, "lon": -76.982371, "is_disabled": 0, "type": "electric_scooter", "name": "0cf7892c3698b9b75103373c3025a7ce", "fusion_lat": 0.0, "rental_uris": {"android": "https://dc.lft.to/lastmile_qr_scan", "ios": "https://dc.lft.to/lastmile_qr_scan"}, "bike_id": "0cf7892c3698b9b75103373c3025a7ce", "is_reserved": 0}, {"lat": 38.90473766666667, "fusion_lon": 0.0, "lon": -77.0282945, "is_disabled": 0, "type": "electric_scooter", "name": "f9687f956d8ec53b20680192909fdd73", "fusion_lat": 0.0, "rental_uris": {"android": "https://dc.lft.to/lastmile_qr_scan", "ios": "https://dc.lft.to/lastmile_qr_scan"}, "bike_id": "f9687f956d8ec53b20680192909fdd73", "is_reserved": 0}, {"lat": 38.89222, "fusion_lon": 0.0, "lon": -77.04370433333334, "is_disabled": 0, "type": "electric_scooter", "name": "c7406aab3073328e12af0d4e5e9e6d2c", "fusion_lat": 0.0, "rental_uris": {"android": "https://dc.lft.to/lastmile_qr_scan", "ios": "https://dc.lft.to/lastmile_qr_scan"}, "bike_id": "c7406aab3073328e12af0d4e5e9e6d2c", "is_reserved": 0}, {"lat": 38.89370916666667, "fusion_lon": 0.0, "lon": -76.94994583333333, "is_disabled": 0, "type": "electric_scooter", "name": "34312950d5d4ccb974f4521b096861a4", "fusion_lat": 0.0, "rental_uris": {"android": "https://dc.lft.to/lastmile_qr_scan", "ios": "https://dc.lft.to/lastmile_qr_scan"}, "bike_id": "34312950d5d4ccb974f4521b096861a4", "is_reserved": 0}, {"lat": 38.9674005, "fusion_lon": 0.0, "lon": -76.9819555, "is_disabled": 0, "type": "electric_bike", "name": "3a1abd3ca94acf34e521e4f94f307891", "fusion_lat": 0.0, "rental_uris": {"android": "https://dc.lft.to/lastmile_qr_scan", "ios": "https://dc.lft.to/lastmile_qr_scan"}, "bike_id": "3a1abd3ca94acf34e521e4f94f307891", "is_reserved": 0}, {"lat": 38.923331166666664, "fusion_lon": 0.0, "lon": -77.03581533333333, "is_disabled": 0, "type": "electric_scooter", "name": "ef9737bf00ec1e21d1c177c49834d9b8", "fusion_lat": 0.0, "rental_uris": {"android": "https://dc.lft.to/lastmile_qr_scan", "ios": "https://dc.lft.to/lastmile_qr_scan"}, "bike_id": "ef9737bf00ec1e21d1c177c49834d9b8", "is_reserved": 0}, {"lat": 38.919304833333335, "fusion_lon": 0.0, "lon": -77.024983, "is_disabled": 0, "type": "electric_scooter", "name": "cdbb2729ba9490ab5b8524a3b88ce7ae", "fusion_lat": 0.0, "rental_uris": {"android": "https://dc.lft.to/lastmile_qr_scan", "ios": "https://dc.lft.to/lastmile_qr_scan"}, "bike_id": "cdbb2729ba9490ab5b8524a3b88ce7ae", "is_reserved": 0}, {"lat": 38.89194766666667, "fusion_lon": 0.0, "lon": -77.027705, "is_disabled": 0, "type": "electric_scooter", "name": "a491f07ab75851ce0d5ff2a19cc05f64", "fusion_lat": 0.0, "rental_uris": {"android": "https://dc.lft.to/lastmile_qr_scan", "ios": "https://dc.lft.to/lastmile_qr_scan"}, "bike_id": "a491f07ab75851ce0d5ff2a19cc05f64", "is_reserved": 0}, {"lat": 38.90300666666667, "fusion_lon": 0.0, "lon": -77.04353066666667, "is_disabled": 0, "type": "electric_scooter", "name": "d1bd0b1f59aeb3fd51c681bdafd95f70", "fusion_lat": 0.0, "rental_uris": {"android": "https://dc.lft.to/lastmile_qr_scan", "ios": "https://dc.lft.to/lastmile_qr_scan"}, "bike_id": "d1bd0b1f59aeb3fd51c681bdafd95f70", "is_reserved": 0}, {"lat": 38.892209666666666, "fusion_lon": 0.0, "lon": -77.0262875, "is_disabled": 0, "type": "electric_scooter", "name": "293b6711077829cd7eca841560729408", "fusion_lat": 0.0, "rental_uris": {"android": "https://dc.lft.to/lastmile_qr_scan", "ios": "https://dc.lft.to/lastmile_qr_scan"}, "bike_id": "293b6711077829cd7eca841560729408", "is_reserved": 0}, {"lat": 39.01478, "fusion_lon": 0.0, "lon": -77.05497716666666, "is_disabled": 0, "type": "electric_bike", "name": "d23a95efbe1b2813f9c8cc17089f761f", "fusion_lat": 0.0, "rental_uris": {"android": "https://dc.lft.to/lastmile_qr_scan", "ios": "https://dc.lft.to/lastmile_qr_scan"}, "bike_id": "d23a95efbe1b2813f9c8cc17089f761f", "is_reserved": 0}, {"lat": 38.893490166666666, "fusion_lon": 0.0, "lon": -77.04640833333333, "is_disabled": 0, "type": "electric_scooter", "name": "c6b2fa3bfa2b5a51affdc6e635b6f8d8", "fusion_lat": 0.0, "rental_uris": {"android": "https://dc.lft.to/lastmile_qr_scan", "ios": "https://dc.lft.to/lastmile_qr_scan"}, "bike_id": "c6b2fa3bfa2b5a51affdc6e635b6f8d8", "is_reserved": 0}, {"lat": 38.906199, "fusion_lon": 0.0, "lon": -77.04809716666666, "is_disabled": 0, "type": "electric_scooter", "name": "951c002509c2b8a04f541624e48b2658", "fusion_lat": 0.0, "rental_uris": {"android": "https://dc.lft.to/lastmile_qr_scan", "ios": "https://dc.lft.to/lastmile_qr_scan"}, "bike_id": "951c002509c2b8a04f541624e48b2658", "is_reserved": 0}, {"lat": 38.89956183333334, "fusion_lon": 0.0, "lon": -77.04211566666666, "is_disabled": 0, "type": "electric_scooter", "name": "4ec7d084819cbc07c9c2151cfb1212f7", "fusion_lat": 0.0, "rental_uris": {"android": "https://dc.lft.to/lastmile_qr_scan", "ios": "https://dc.lft.to/lastmile_qr_scan"}, "bike_id": "4ec7d084819cbc07c9c2151cfb1212f7", "is_reserved": 0}, {"lat": 38.89916816666667, "fusion_lon": 0.0, "lon": -76.9338405, "is_disabled": 0, "type": "electric_scooter", "name": "661ffd6e14d7373920adc7d1edf0d18a", "fusion_lat": 0.0, "rental_uris": {"android": "https://dc.lft.to/lastmile_qr_scan", "ios": "https://dc.lft.to/lastmile_qr_scan"}, "bike_id": "661ffd6e14d7373920adc7d1edf0d18a", "is_reserved": 0}, {"lat": 38.89221383333334, "fusion_lon": 0.0, "lon": -77.02350316666667, "is_disabled": 0, "type": "electric_scooter", "name": "9b82dfda217d4d96eca8a1d380358ec0", "fusion_lat": 0.0, "rental_uris": {"android": "https://dc.lft.to/lastmile_qr_scan", "ios": "https://dc.lft.to/lastmile_qr_scan"}, "bike_id": "9b82dfda217d4d96eca8a1d380358ec0", "is_reserved": 0}, {"lat": 38.9155755, "fusion_lon": 0.0, "lon": -77.0312725, "is_disabled": 0, "type": "electric_scooter", "name": "03502635d92c413206ef4647934963c6", "fusion_lat": 0.0, "rental_uris": {"android": "https://dc.lft.to/lastmile_qr_scan", "ios": "https://dc.lft.to/lastmile_qr_scan"}, "bike_id": "03502635d92c413206ef4647934963c6", "is_reserved": 0}, {"lat": 38.9237225, "fusion_lon": 0.0, "lon": -77.03058233333333, "is_disabled": 0, "type": "electric_scooter", "name": "f88687839bbe4c4023e125e9c35e2bac", "fusion_lat": 0.0, "rental_uris": {"android": "https://dc.lft.to/lastmile_qr_scan", "ios": "https://dc.lft.to/lastmile_qr_scan"}, "bike_id": "f88687839bbe4c4023e125e9c35e2bac", "is_reserved": 0}, {"lat": 38.90037866666667, "fusion_lon": 0.0, "lon": -76.94443333333334, "is_disabled": 0, "type": "electric_scooter", "name": "7286e77b5d80e50de2204a7e11f48fd5", "fusion_lat": 0.0, "rental_uris": {"android": "https://dc.lft.to/lastmile_qr_scan", "ios": "https://dc.lft.to/lastmile_qr_scan"}, "bike_id": "7286e77b5d80e50de2204a7e11f48fd5", "is_reserved": 0}, {"lat": 38.92680383333333, "fusion_lon": 0.0, "lon": -77.0299435, "is_disabled": 0, "type": "electric_scooter", "name": "f1f8c010165a6930695476836c320ccd", "fusion_lat": 0.0, "rental_uris": {"android": "https://dc.lft.to/lastmile_qr_scan", "ios": "https://dc.lft.to/lastmile_qr_scan"}, "bike_id": "f1f8c010165a6930695476836c320ccd", "is_reserved": 0}, {"lat": 38.899705833333336, "fusion_lon": 0.0, "lon": -77.049948, "is_disabled": 0, "type": "electric_scooter", "name": "68011970291986f727c998aac20ee18e", "fusion_lat": 0.0, "rental_uris": {"android": "https://dc.lft.to/lastmile_qr_scan", "ios": "https://dc.lft.to/lastmile_qr_scan"}, "bike_id": "68011970291986f727c998aac20ee18e", "is_reserved": 0}, {"lat": 39.062988, "fusion_lon": 0.0, "lon": -77.04979483333334, "is_disabled": 0, "type": "electric_bike", "name": "572000fba946359282abb9592b55951d", "fusion_lat": 0.0, "rental_uris": {"android": "https://dc.lft.to/lastmile_qr_scan", "ios": "https://dc.lft.to/lastmile_qr_scan"}, "bike_id": "572000fba946359282abb9592b55951d", "is_reserved": 0}, {"lat": 38.88303066666667, "fusion_lon": 0.0, "lon": -76.97867716666667, "is_disabled": 0, "type": "electric_scooter", "name": "c4f2503c9a5fb15424dfa9fe2128c1e7", "fusion_lat": 0.0, "rental_uris": {"android": "https://dc.lft.to/lastmile_qr_scan", "ios": "https://dc.lft.to/lastmile_qr_scan"}, "bike_id": "c4f2503c9a5fb15424dfa9fe2128c1e7", "is_reserved": 0}, {"lat": 38.921536833333334, "fusion_lon": 0.0, "lon": -77.03871633333333, "is_disabled": 0, "type": "electric_scooter", "name": "a3061883a060604f5367e18d51ca4c16", "fusion_lat": 0.0, "rental_uris": {"android": "https://dc.lft.to/lastmile_qr_scan", "ios": "https://dc.lft.to/lastmile_qr_scan"}, "bike_id": "a3061883a060604f5367e18d51ca4c16", "is_reserved": 0}, {"lat": 38.9240425, "fusion_lon": 0.0, "lon": -77.051646, "is_disabled": 0, "type": "electric_scooter", "name": "6f63b124effc50bdbd9ad28c915c7b90", "fusion_lat": 0.0, "rental_uris": {"android": "https://dc.lft.to/lastmile_qr_scan", "ios": "https://dc.lft.to/lastmile_qr_scan"}, "bike_id": "6f63b124effc50bdbd9ad28c915c7b90", "is_reserved": 0}, {"lat": 38.921867166666665, "fusion_lon": 0.0, "lon": -77.04141833333334, "is_disabled": 0, "type": "electric_scooter", "name": "385e6a700beca45e61ae3055ccda29b8", "fusion_lat": 0.0, "rental_uris": {"android": "https://dc.lft.to/lastmile_qr_scan", "ios": "https://dc.lft.to/lastmile_qr_scan"}, "bike_id": "385e6a700beca45e61ae3055ccda29b8", "is_reserved": 0}, {"lat": 38.9118755, "fusion_lon": 0.0, "lon": -77.22286266666667, "is_disabled": 0, "type": "electric_bike", "name": "7451336240df33696f469e9bd2de1fe9", "fusion_lat": 0.0, "rental_uris": {"android": "https://dc.lft.to/lastmile_qr_scan", "ios": "https://dc.lft.to/lastmile_qr_scan"}, "bike_id": "7451336240df33696f469e9bd2de1fe9", "is_reserved": 0}, {"lat": 38.87155683333334, "fusion_lon": 0.0, "lon": -76.977511, "is_disabled": 0, "type": "electric_scooter", "name": "f1fd173eab7f45f0af83ab8ea88ac1d2", "fusion_lat": 0.0, "rental_uris": {"android": "https://dc.lft.to/lastmile_qr_scan", "ios": "https://dc.lft.to/lastmile_qr_scan"}, "bike_id": "f1fd173eab7f45f0af83ab8ea88ac1d2", "is_reserved": 0}, {"lat": 38.90633166666667, "fusion_lon": 0.0, "lon": -77.00606083333334, "is_disabled": 0, "type": "electric_scooter", "name": "227c6998b0044b2aa80bd2a03e1647de", "fusion_lat": 0.0, "rental_uris": {"android": "https://dc.lft.to/lastmile_qr_scan", "ios": "https://dc.lft.to/lastmile_qr_scan"}, "bike_id": "227c6998b0044b2aa80bd2a03e1647de", "is_reserved": 0}, {"lat": 38.91392483333333, "fusion_lon": 0.0, "lon": -77.03325616666666, "is_disabled": 0, "type": "electric_scooter", "name": "8d3d1a46175d6b77015821d0b6f1e3a5", "fusion_lat": 0.0, "rental_uris": {"android": "https://dc.lft.to/lastmile_qr_scan", "ios": "https://dc.lft.to/lastmile_qr_scan"}, "bike_id": "8d3d1a46175d6b77015821d0b6f1e3a5", "is_reserved": 0}, {"lat": 38.898261, "fusion_lon": 0.0, "lon": -77.026083, "is_disabled": 0, "type": "electric_scooter", "name": "62bc3dfffc7e624207038d2b9eeed3f8", "fusion_lat": 0.0, "rental_uris": {"android": "https://dc.lft.to/lastmile_qr_scan", "ios": "https://dc.lft.to/lastmile_qr_scan"}, "bike_id": "62bc3dfffc7e624207038d2b9eeed3f8", "is_reserved": 0}, {"lat": 38.94219416666667, "fusion_lon": 0.0, "lon": -77.02503266666666, "is_disabled": 0, "type": "electric_scooter", "name": "305e9f5a983daa4b6c06ee0d094cc979", "fusion_lat": 0.0, "rental_uris": {"android": "https://dc.lft.to/lastmile_qr_scan", "ios": "https://dc.lft.to/lastmile_qr_scan"}, "bike_id": "305e9f5a983daa4b6c06ee0d094cc979", "is_reserved": 0}, {"lat": 38.93669033333333, "fusion_lon": 0.0, "lon": -77.03418116666667, "is_disabled": 0, "type": "electric_scooter", "name": "18a003dc7befee52c3181008709fe10e", "fusion_lat": 0.0, "rental_uris": {"android": "https://dc.lft.to/lastmile_qr_scan", "ios": "https://dc.lft.to/lastmile_qr_scan"}, "bike_id": "18a003dc7befee52c3181008709fe10e", "is_reserved": 0}, {"lat": 38.930638, "fusion_lon": 0.0, "lon": -77.0382005, "is_disabled": 0, "type": "electric_scooter", "name": "6209addb95584c81d74a1fc8e44aa167", "fusion_lat": 0.0, "rental_uris": {"android": "https://dc.lft.to/lastmile_qr_scan", "ios": "https://dc.lft.to/lastmile_qr_scan"}, "bike_id": "6209addb95584c81d74a1fc8e44aa167", "is_reserved": 0}, {"lat": 38.92190816666667, "fusion_lon": 0.0, "lon": -77.04241883333333, "is_disabled": 0, "type": "electric_scooter", "name": "16755bce39b218dce19d608d4551d6f7", "fusion_lat": 0.0, "rental_uris": {"android": "https://dc.lft.to/lastmile_qr_scan", "ios": "https://dc.lft.to/lastmile_qr_scan"}, "bike_id": "16755bce39b218dce19d608d4551d6f7", "is_reserved": 0}, {"lat": 38.889617333333334, "fusion_lon": 0.0, "lon": -76.93707033333334, "is_disabled": 0, "type": "electric_scooter", "name": "2b3829637ad88f3464ee62d14f19e8fe", "fusion_lat": 0.0, "rental_uris": {"android": "https://dc.lft.to/lastmile_qr_scan", "ios": "https://dc.lft.to/lastmile_qr_scan"}, "bike_id": "2b3829637ad88f3464ee62d14f19e8fe", "is_reserved": 0}, {"lat": 38.919936, "fusion_lon": 0.0, "lon": -77.02200083333334, "is_disabled": 0, "type": "electric_scooter", "name": "e99dd7d6d85edbe07356a567b34b1d6f", "fusion_lat": 0.0, "rental_uris": {"android": "https://dc.lft.to/lastmile_qr_scan", "ios": "https://dc.lft.to/lastmile_qr_scan"}, "bike_id": "e99dd7d6d85edbe07356a567b34b1d6f", "is_reserved": 0}, {"lat": 38.90133, "fusion_lon": 0.0, "lon": -77.0477445, "is_disabled": 0, "type": "electric_scooter", "name": "2d8a053420c069db48ff2892dbe26f5f", "fusion_lat": 0.0, "rental_uris": {"android": "https://dc.lft.to/lastmile_qr_scan", "ios": "https://dc.lft.to/lastmile_qr_scan"}, "bike_id": "2d8a053420c069db48ff2892dbe26f5f", "is_reserved": 0}, {"lat": 38.92463633333333, "fusion_lon": 0.0, "lon": -77.05756166666667, "is_disabled": 0, "type": "electric_scooter", "name": "bb98e7474b88646251ebe90d1b18d547", "fusion_lat": 0.0, "rental_uris": {"android": "https://dc.lft.to/lastmile_qr_scan", "ios": "https://dc.lft.to/lastmile_qr_scan"}, "bike_id": "bb98e7474b88646251ebe90d1b18d547", "is_reserved": 0}, {"lat": 38.913015333333334, "fusion_lon": 0.0, "lon": -76.9846965, "is_disabled": 0, "type": "electric_scooter", "name": "70505b4867e6ebc0910932304f30c2d9", "fusion_lat": 0.0, "rental_uris": {"android": "https://dc.lft.to/lastmile_qr_scan", "ios": "https://dc.lft.to/lastmile_qr_scan"}, "bike_id": "70505b4867e6ebc0910932304f30c2d9", "is_reserved": 0}, {"lat": 38.91764166666667, "fusion_lon": 0.0, "lon": -77.03913033333333, "is_disabled": 0, "type": "electric_scooter", "name": "4742ce5fa18d99bfce4fe02564dd74ee", "fusion_lat": 0.0, "rental_uris": {"android": "https://dc.lft.to/lastmile_qr_scan", "ios": "https://dc.lft.to/lastmile_qr_scan"}, "bike_id": "4742ce5fa18d99bfce4fe02564dd74ee", "is_reserved": 0}, {"lat": 38.921777, "fusion_lon": 0.0, "lon": -77.0470205, "is_disabled": 0, "type": "electric_scooter", "name": "9645f0ff5493529cc9d9e0ee754a7ebe", "fusion_lat": 0.0, "rental_uris": {"android": "https://dc.lft.to/lastmile_qr_scan", "ios": "https://dc.lft.to/lastmile_qr_scan"}, "bike_id": "9645f0ff5493529cc9d9e0ee754a7ebe", "is_reserved": 0}, {"lat": 38.8942855, "fusion_lon": 0.0, "lon": -76.94881433333333, "is_disabled": 0, "type": "electric_scooter", "name": "fdb9451452042af37741425233c7f5bb", "fusion_lat": 0.0, "rental_uris": {"android": "https://dc.lft.to/lastmile_qr_scan", "ios": "https://dc.lft.to/lastmile_qr_scan"}, "bike_id": "fdb9451452042af37741425233c7f5bb", "is_reserved": 0}, {"lat": 38.934057, "fusion_lon": 0.0, "lon": -77.0412245, "is_disabled": 0, "type": "electric_scooter", "name": "d634f1d34adf6b34a4c6812d4937bc73", "fusion_lat": 0.0, "rental_uris": {"android": "https://dc.lft.to/lastmile_qr_scan", "ios": "https://dc.lft.to/lastmile_qr_scan"}, "bike_id": "d634f1d34adf6b34a4c6812d4937bc73", "is_reserved": 0}, {"lat": 38.915444666666666, "fusion_lon": 0.0, "lon": -77.01268716666667, "is_disabled": 0, "type": "electric_scooter", "name": "26d41e497c84db716c16164a12790016", "fusion_lat": 0.0, "rental_uris": {"android": "https://dc.lft.to/lastmile_qr_scan", "ios": "https://dc.lft.to/lastmile_qr_scan"}, "bike_id": "26d41e497c84db716c16164a12790016", "is_reserved": 0}, {"lat": 38.892217333333335, "fusion_lon": 0.0, "lon": -77.04263733333333, "is_disabled": 0, "type": "electric_scooter", "name": "1062346cbb66ff1e6d72b9393d02aac8", "fusion_lat": 0.0, "rental_uris": {"android": "https://dc.lft.to/lastmile_qr_scan", "ios": "https://dc.lft.to/lastmile_qr_scan"}, "bike_id": "1062346cbb66ff1e6d72b9393d02aac8", "is_reserved": 0}, {"lat": 38.894574166666665, "fusion_lon": 0.0, "lon": -76.99831583333334, "is_disabled": 0, "type": "electric_scooter", "name": "4f7cc79ef3fa5d57a6011c5878297451", "fusion_lat": 0.0, "rental_uris": {"android": "https://dc.lft.to/lastmile_qr_scan", "ios": "https://dc.lft.to/lastmile_qr_scan"}, "bike_id": "4f7cc79ef3fa5d57a6011c5878297451", "is_reserved": 0}, {"lat": 38.890997666666664, "fusion_lon": 0.0, "lon": -77.00283266666666, "is_disabled": 0, "type": "electric_scooter", "name": "db4aa3ed79ae021285a320f3833dabbd", "fusion_lat": 0.0, "rental_uris": {"android": "https://dc.lft.to/lastmile_qr_scan", "ios": "https://dc.lft.to/lastmile_qr_scan"}, "bike_id": "db4aa3ed79ae021285a320f3833dabbd", "is_reserved": 0}, {"lat": 38.9172405, "fusion_lon": 0.0, "lon": -77.04176066666666, "is_disabled": 0, "type": "electric_scooter", "name": "62cf2c4170f34c5860946ad4e521f088", "fusion_lat": 0.0, "rental_uris": {"android": "https://dc.lft.to/lastmile_qr_scan", "ios": "https://dc.lft.to/lastmile_qr_scan"}, "bike_id": "62cf2c4170f34c5860946ad4e521f088", "is_reserved": 0}, {"lat": 38.8637815, "fusion_lon": 0.0, "lon": -76.99057, "is_disabled": 0, "type": "electric_scooter", "name": "76080abfc474d0d50033cd07392582c1", "fusion_lat": 0.0, "rental_uris": {"android": "https://dc.lft.to/lastmile_qr_scan", "ios": "https://dc.lft.to/lastmile_qr_scan"}, "bike_id": "76080abfc474d0d50033cd07392582c1", "is_reserved": 0}, {"lat": 38.92256, "fusion_lon": 0.0, "lon": -77.07035066666667, "is_disabled": 0, "type": "electric_scooter", "name": "d63f6bff28845529c34744ab37d94abd", "fusion_lat": 0.0, "rental_uris": {"android": "https://dc.lft.to/lastmile_qr_scan", "ios": "https://dc.lft.to/lastmile_qr_scan"}, "bike_id": "d63f6bff28845529c34744ab37d94abd", "is_reserved": 0}, {"lat": 38.90664533333333, "fusion_lon": 0.0, "lon": -77.0416465, "is_disabled": 0, "type": "electric_scooter", "name": "64746aac90fd703637507ed561056a52", "fusion_lat": 0.0, "rental_uris": {"android": "https://dc.lft.to/lastmile_qr_scan", "ios": "https://dc.lft.to/lastmile_qr_scan"}, "bike_id": "64746aac90fd703637507ed561056a52", "is_reserved": 0}, {"lat": 38.87284316666667, "fusion_lon": 0.0, "lon": -76.97730733333333, "is_disabled": 0, "type": "electric_scooter", "name": "2bf00e1ff8deceabba2ef2498d4ce512", "fusion_lat": 0.0, "rental_uris": {"android": "https://dc.lft.to/lastmile_qr_scan", "ios": "https://dc.lft.to/lastmile_qr_scan"}, "bike_id": "2bf00e1ff8deceabba2ef2498d4ce512", "is_reserved": 0}, {"lat": 38.892218, "fusion_lon": 0.0, "lon": -77.0450555, "is_disabled": 0, "type": "electric_scooter", "name": "9afb3a4c396d2357e093a706a15a4c24", "fusion_lat": 0.0, "rental_uris": {"android": "https://dc.lft.to/lastmile_qr_scan", "ios": "https://dc.lft.to/lastmile_qr_scan"}, "bike_id": "9afb3a4c396d2357e093a706a15a4c24", "is_reserved": 0}, {"lat": 38.9086595, "fusion_lon": 0.0, "lon": -77.04860383333333, "is_disabled": 0, "type": "electric_scooter", "name": "024d8b2d4305c741cfa984ede18e62d3", "fusion_lat": 0.0, "rental_uris": {"android": "https://dc.lft.to/lastmile_qr_scan", "ios": "https://dc.lft.to/lastmile_qr_scan"}, "bike_id": "024d8b2d4305c741cfa984ede18e62d3", "is_reserved": 0}, {"lat": 38.8876845, "fusion_lon": 0.0, "lon": -77.01773616666667, "is_disabled": 0, "type": "electric_scooter", "name": "a7891a89bce123e3a6b4a76dbc93e270", "fusion_lat": 0.0, "rental_uris": {"android": "https://dc.lft.to/lastmile_qr_scan", "ios": "https://dc.lft.to/lastmile_qr_scan"}, "bike_id": "a7891a89bce123e3a6b4a76dbc93e270", "is_reserved": 0}, {"lat": 38.91941083333333, "fusion_lon": 0.0, "lon": -77.01802233333333, "is_disabled": 0, "type": "electric_scooter", "name": "d62ab5e61f2567faf9c3d1095da139b6", "fusion_lat": 0.0, "rental_uris": {"android": "https://dc.lft.to/lastmile_qr_scan", "ios": "https://dc.lft.to/lastmile_qr_scan"}, "bike_id": "d62ab5e61f2567faf9c3d1095da139b6", "is_reserved": 0}, {"lat": 38.8922325, "fusion_lon": 0.0, "lon": -77.0334135, "is_disabled": 0, "type": "electric_scooter", "name": "7e7f598c7cb71842c45e7b3bc199c579", "fusion_lat": 0.0, "rental_uris": {"android": "https://dc.lft.to/lastmile_qr_scan", "ios": "https://dc.lft.to/lastmile_qr_scan"}, "bike_id": "7e7f598c7cb71842c45e7b3bc199c579", "is_reserved": 0}, {"lat": 38.906913333333335, "fusion_lon": 0.0, "lon": -77.03699883333333, "is_disabled": 0, "type": "electric_scooter", "name": "0174a019444a043816d9474db4298132", "fusion_lat": 0.0, "rental_uris": {"android": "https://dc.lft.to/lastmile_qr_scan", "ios": "https://dc.lft.to/lastmile_qr_scan"}, "bike_id": "0174a019444a043816d9474db4298132", "is_reserved": 0}, {"lat": 38.90271466666667, "fusion_lon": 0.0, "lon": -77.03428583333333, "is_disabled": 0, "type": "electric_scooter", "name": "1bd90f8f053c1bec3c68ffac6317d8a8", "fusion_lat": 0.0, "rental_uris": {"android": "https://dc.lft.to/lastmile_qr_scan", "ios": "https://dc.lft.to/lastmile_qr_scan"}, "bike_id": "1bd90f8f053c1bec3c68ffac6317d8a8", "is_reserved": 0}, {"lat": 38.9360615, "fusion_lon": 0.0, "lon": -77.02921783333333, "is_disabled": 0, "type": "electric_scooter", "name": "17ec0089d9974313cb9b32f20903fca5", "fusion_lat": 0.0, "rental_uris": {"android": "https://dc.lft.to/lastmile_qr_scan", "ios": "https://dc.lft.to/lastmile_qr_scan"}, "bike_id": "17ec0089d9974313cb9b32f20903fca5", "is_reserved": 0}, {"lat": 38.89847016666667, "fusion_lon": 0.0, "lon": -77.02852566666667, "is_disabled": 0, "type": "electric_scooter", "name": "9f8b59bff9127fcc8836586e915adb95", "fusion_lat": 0.0, "rental_uris": {"android": "https://dc.lft.to/lastmile_qr_scan", "ios": "https://dc.lft.to/lastmile_qr_scan"}, "bike_id": "9f8b59bff9127fcc8836586e915adb95", "is_reserved": 0}, {"lat": 38.84432983333333, "fusion_lon": 0.0, "lon": -76.99781166666666, "is_disabled": 0, "type": "electric_scooter", "name": "8d9e9fcbdc371617cebc29c7b7eec80a", "fusion_lat": 0.0, "rental_uris": {"android": "https://dc.lft.to/lastmile_qr_scan", "ios": "https://dc.lft.to/lastmile_qr_scan"}, "bike_id": "8d9e9fcbdc371617cebc29c7b7eec80a", "is_reserved": 0}, {"lat": 38.9089845, "fusion_lon": 0.0, "lon": -77.04142, "is_disabled": 0, "type": "electric_scooter", "name": "86f75302f0afe6386778298e9a656ac6", "fusion_lat": 0.0, "rental_uris": {"android": "https://dc.lft.to/lastmile_qr_scan", "ios": "https://dc.lft.to/lastmile_qr_scan"}, "bike_id": "86f75302f0afe6386778298e9a656ac6", "is_reserved": 0}, {"lat": 38.91113466666667, "fusion_lon": 0.0, "lon": -77.0217795, "is_disabled": 0, "type": "electric_scooter", "name": "588a7f0f5048d54ebc8f0148890cb5de", "fusion_lat": 0.0, "rental_uris": {"android": "https://dc.lft.to/lastmile_qr_scan", "ios": "https://dc.lft.to/lastmile_qr_scan"}, "bike_id": "588a7f0f5048d54ebc8f0148890cb5de", "is_reserved": 0}, {"lat": 38.91813466666667, "fusion_lon": 0.0, "lon": -77.03030266666667, "is_disabled": 0, "type": "electric_scooter", "name": "497369baa3df6bb7dd9530d98975123d", "fusion_lat": 0.0, "rental_uris": {"android": "https://dc.lft.to/lastmile_qr_scan", "ios": "https://dc.lft.to/lastmile_qr_scan"}, "bike_id": "497369baa3df6bb7dd9530d98975123d", "is_reserved": 0}, {"lat": 38.83701966666667, "fusion_lon": 0.0, "lon": -77.005696, "is_disabled": 0, "type": "electric_scooter", "name": "40b4d540dd9aa636dce2b7e47741dd75", "fusion_lat": 0.0, "rental_uris": {"android": "https://dc.lft.to/lastmile_qr_scan", "ios": "https://dc.lft.to/lastmile_qr_scan"}, "bike_id": "40b4d540dd9aa636dce2b7e47741dd75", "is_reserved": 0}, {"lat": 38.9411475, "fusion_lon": 0.0, "lon": -77.01537483333334, "is_disabled": 0, "type": "electric_scooter", "name": "389e5c89bc817fc4339efb60eef53259", "fusion_lat": 0.0, "rental_uris": {"android": "https://dc.lft.to/lastmile_qr_scan", "ios": "https://dc.lft.to/lastmile_qr_scan"}, "bike_id": "389e5c89bc817fc4339efb60eef53259", "is_reserved": 0}, {"lat": 38.90520333333333, "fusion_lon": 0.0, "lon": -77.06140016666667, "is_disabled": 0, "type": "electric_scooter", "name": "fb2388c6f345d5acc1a4ac87b449ade9", "fusion_lat": 0.0, "rental_uris": {"android": "https://dc.lft.to/lastmile_qr_scan", "ios": "https://dc.lft.to/lastmile_qr_scan"}, "bike_id": "fb2388c6f345d5acc1a4ac87b449ade9", "is_reserved": 0}, {"lat": 38.906786, "fusion_lon": 0.0, "lon": -77.03479616666667, "is_disabled": 0, "type": "electric_scooter", "name": "e6c1c9c8575618357162d00777a662f3", "fusion_lat": 0.0, "rental_uris": {"android": "https://dc.lft.to/lastmile_qr_scan", "ios": "https://dc.lft.to/lastmile_qr_scan"}, "bike_id": "e6c1c9c8575618357162d00777a662f3", "is_reserved": 0}, {"lat": 38.899565833333334, "fusion_lon": 0.0, "lon": -77.042102, "is_disabled": 0, "type": "electric_scooter", "name": "05460a1863c43a13740526f2689cbcb1", "fusion_lat": 0.0, "rental_uris": {"android": "https://dc.lft.to/lastmile_qr_scan", "ios": "https://dc.lft.to/lastmile_qr_scan"}, "bike_id": "05460a1863c43a13740526f2689cbcb1", "is_reserved": 0}, {"lat": 38.92126533333333, "fusion_lon": 0.0, "lon": -77.03667716666666, "is_disabled": 0, "type": "electric_scooter", "name": "1b4499804b0c3e44464841f14bc5c637", "fusion_lat": 0.0, "rental_uris": {"android": "https://dc.lft.to/lastmile_qr_scan", "ios": "https://dc.lft.to/lastmile_qr_scan"}, "bike_id": "1b4499804b0c3e44464841f14bc5c637", "is_reserved": 0}, {"lat": 38.87622866666667, "fusion_lon": 0.0, "lon": -77.00562583333334, "is_disabled": 0, "type": "electric_scooter", "name": "3e09e533e4a54bf6728991c85f551190", "fusion_lat": 0.0, "rental_uris": {"android": "https://dc.lft.to/lastmile_qr_scan", "ios": "https://dc.lft.to/lastmile_qr_scan"}, "bike_id": "3e09e533e4a54bf6728991c85f551190", "is_reserved": 0}, {"lat": 38.915548666666666, "fusion_lon": 0.0, "lon": -77.0255465, "is_disabled": 0, "type": "electric_scooter", "name": "59f8e54627305bee137e56235bdb8bd4", "fusion_lat": 0.0, "rental_uris": {"android": "https://dc.lft.to/lastmile_qr_scan", "ios": "https://dc.lft.to/lastmile_qr_scan"}, "bike_id": "59f8e54627305bee137e56235bdb8bd4", "is_reserved": 0}, {"lat": 38.88796966666666, "fusion_lon": 0.0, "lon": -76.93361033333333, "is_disabled": 0, "type": "electric_scooter", "name": "7fe788be5639ff585aab1df973ae148e", "fusion_lat": 0.0, "rental_uris": {"android": "https://dc.lft.to/lastmile_qr_scan", "ios": "https://dc.lft.to/lastmile_qr_scan"}, "bike_id": "7fe788be5639ff585aab1df973ae148e", "is_reserved": 0}, {"lat": 38.917001666666664, "fusion_lon": 0.0, "lon": -77.03716666666666, "is_disabled": 0, "type": "electric_scooter", "name": "5821b1f5bcdc950d0dd047011e9ca8a5", "fusion_lat": 0.0, "rental_uris": {"android": "https://dc.lft.to/lastmile_qr_scan", "ios": "https://dc.lft.to/lastmile_qr_scan"}, "bike_id": "5821b1f5bcdc950d0dd047011e9ca8a5", "is_reserved": 0}, {"lat": 38.88317983333334, "fusion_lon": 0.0, "lon": -77.00579433333333, "is_disabled": 0, "type": "electric_scooter", "name": "69fe4ed4186e2efeda73ec59a1f0c862", "fusion_lat": 0.0, "rental_uris": {"android": "https://dc.lft.to/lastmile_qr_scan", "ios": "https://dc.lft.to/lastmile_qr_scan"}, "bike_id": "69fe4ed4186e2efeda73ec59a1f0c862", "is_reserved": 0}, {"lat": 38.835679999999996, "fusion_lon": 0.0, "lon": -76.99494516666667, "is_disabled": 0, "type": "electric_scooter", "name": "59bc8a707db6dedd9737b2587ad29939", "fusion_lat": 0.0, "rental_uris": {"android": "https://dc.lft.to/lastmile_qr_scan", "ios": "https://dc.lft.to/lastmile_qr_scan"}, "bike_id": "59bc8a707db6dedd9737b2587ad29939", "is_reserved": 0}, {"lat": 38.92431783333333, "fusion_lon": 0.0, "lon": -77.052136, "is_disabled": 0, "type": "electric_scooter", "name": "927abf6c57d6f4cd74a4b19e26597a70", "fusion_lat": 0.0, "rental_uris": {"android": "https://dc.lft.to/lastmile_qr_scan", "ios": "https://dc.lft.to/lastmile_qr_scan"}, "bike_id": "927abf6c57d6f4cd74a4b19e26597a70", "is_reserved": 0}, {"lat": 38.94714283333333, "fusion_lon": 0.0, "lon": -77.03345866666666, "is_disabled": 0, "type": "electric_scooter", "name": "6aacea8f05eb0d7f0cf71a9a85238030", "fusion_lat": 0.0, "rental_uris": {"android": "https://dc.lft.to/lastmile_qr_scan", "ios": "https://dc.lft.to/lastmile_qr_scan"}, "bike_id": "6aacea8f05eb0d7f0cf71a9a85238030", "is_reserved": 0}, {"lat": 38.89656816666667, "fusion_lon": 0.0, "lon": -77.03186683333334, "is_disabled": 0, "type": "electric_scooter", "name": "d17766f0ffac25bfbd43bd58c9f28599", "fusion_lat": 0.0, "rental_uris": {"android": "https://dc.lft.to/lastmile_qr_scan", "ios": "https://dc.lft.to/lastmile_qr_scan"}, "bike_id": "d17766f0ffac25bfbd43bd58c9f28599", "is_reserved": 0}, {"lat": 38.9229405, "fusion_lon": 0.0, "lon": -77.04138183333333, "is_disabled": 0, "type": "electric_scooter", "name": "e3fd1ebbdf4c93a855c114525ef3a772", "fusion_lat": 0.0, "rental_uris": {"android": "https://dc.lft.to/lastmile_qr_scan", "ios": "https://dc.lft.to/lastmile_qr_scan"}, "bike_id": "e3fd1ebbdf4c93a855c114525ef3a772", "is_reserved": 0}, {"lat": 38.906431166666664, "fusion_lon": 0.0, "lon": -77.0488405, "is_disabled": 0, "type": "electric_scooter", "name": "b85af67d7ab09641bf3de51ea8af9e6e", "fusion_lat": 0.0, "rental_uris": {"android": "https://dc.lft.to/lastmile_qr_scan", "ios": "https://dc.lft.to/lastmile_qr_scan"}, "bike_id": "b85af67d7ab09641bf3de51ea8af9e6e", "is_reserved": 0}, {"lat": 38.9275235, "fusion_lon": 0.0, "lon": -77.02421383333333, "is_disabled": 0, "type": "electric_scooter", "name": "422f8cd489eaabab58c2331b7aecd344", "fusion_lat": 0.0, "rental_uris": {"android": "https://dc.lft.to/lastmile_qr_scan", "ios": "https://dc.lft.to/lastmile_qr_scan"}, "bike_id": "422f8cd489eaabab58c2331b7aecd344", "is_reserved": 0}, {"lat": 38.9166745, "fusion_lon": 0.0, "lon": -77.02959183333333, "is_disabled": 0, "type": "electric_scooter", "name": "4b33f972e31e57da54783ef1837a55f0", "fusion_lat": 0.0, "rental_uris": {"android": "https://dc.lft.to/lastmile_qr_scan", "ios": "https://dc.lft.to/lastmile_qr_scan"}, "bike_id": "4b33f972e31e57da54783ef1837a55f0", "is_reserved": 0}, {"lat": 38.862091666666664, "fusion_lon": 0.0, "lon": -76.994763, "is_disabled": 0, "type": "electric_scooter", "name": "086b3ce442420e01e13e55ad47e36f3e", "fusion_lat": 0.0, "rental_uris": {"android": "https://dc.lft.to/lastmile_qr_scan", "ios": "https://dc.lft.to/lastmile_qr_scan"}, "bike_id": "086b3ce442420e01e13e55ad47e36f3e", "is_reserved": 0}, {"lat": 38.92519983333333, "fusion_lon": 0.0, "lon": -77.05046533333334, "is_disabled": 0, "type": "electric_scooter", "name": "e1fdbe83bd97b45ae74762ee2f9422cc", "fusion_lat": 0.0, "rental_uris": {"android": "https://dc.lft.to/lastmile_qr_scan", "ios": "https://dc.lft.to/lastmile_qr_scan"}, "bike_id": "e1fdbe83bd97b45ae74762ee2f9422cc", "is_reserved": 0}, {"lat": 38.92481333333333, "fusion_lon": 0.0, "lon": -77.022045, "is_disabled": 0, "type": "electric_scooter", "name": "a5d424c5cff0820548187541c78e0f28", "fusion_lat": 0.0, "rental_uris": {"android": "https://dc.lft.to/lastmile_qr_scan", "ios": "https://dc.lft.to/lastmile_qr_scan"}, "bike_id": "a5d424c5cff0820548187541c78e0f28", "is_reserved": 0}, {"lat": 38.885094, "fusion_lon": 0.0, "lon": -76.99840516666667, "is_disabled": 0, "type": "electric_scooter", "name": "38a46a9b63c4e4bbd4e11873f26fa2b4", "fusion_lat": 0.0, "rental_uris": {"android": "https://dc.lft.to/lastmile_qr_scan", "ios": "https://dc.lft.to/lastmile_qr_scan"}, "bike_id": "38a46a9b63c4e4bbd4e11873f26fa2b4", "is_reserved": 0}, {"lat": 38.89242216666667, "fusion_lon": 0.0, "lon": -77.04163116666666, "is_disabled": 0, "type": "electric_scooter", "name": "bf9afd5b07931e49b9b8e744f53c3ab8", "fusion_lat": 0.0, "rental_uris": {"android": "https://dc.lft.to/lastmile_qr_scan", "ios": "https://dc.lft.to/lastmile_qr_scan"}, "bike_id": "bf9afd5b07931e49b9b8e744f53c3ab8", "is_reserved": 0}, {"lat": 38.88883666666667, "fusion_lon": 0.0, "lon": -77.01972233333333, "is_disabled": 0, "type": "electric_scooter", "name": "6b7e8ad8e065458800f803905f4d5f58", "fusion_lat": 0.0, "rental_uris": {"android": "https://dc.lft.to/lastmile_qr_scan", "ios": "https://dc.lft.to/lastmile_qr_scan"}, "bike_id": "6b7e8ad8e065458800f803905f4d5f58", "is_reserved": 0}, {"lat": 38.933393, "fusion_lon": 0.0, "lon": -77.02624233333333, "is_disabled": 0, "type": "electric_scooter", "name": "02a98b50e9963f4dc94eebfb8a5ff67b", "fusion_lat": 0.0, "rental_uris": {"android": "https://dc.lft.to/lastmile_qr_scan", "ios": "https://dc.lft.to/lastmile_qr_scan"}, "bike_id": "02a98b50e9963f4dc94eebfb8a5ff67b", "is_reserved": 0}, {"lat": 38.867031, "fusion_lon": 0.0, "lon": -76.987116, "is_disabled": 0, "type": "electric_scooter", "name": "22e70cd650ae3d3dcf9bd067bc91ec4f", "fusion_lat": 0.0, "rental_uris": {"android": "https://dc.lft.to/lastmile_qr_scan", "ios": "https://dc.lft.to/lastmile_qr_scan"}, "bike_id": "22e70cd650ae3d3dcf9bd067bc91ec4f", "is_reserved": 0}, {"lat": 38.923962, "fusion_lon": 0.0, "lon": -77.035406, "is_disabled": 0, "type": "electric_scooter", "name": "73db34761fb4dcc842dd3b7075d86355", "fusion_lat": 0.0, "rental_uris": {"android": "https://dc.lft.to/lastmile_qr_scan", "ios": "https://dc.lft.to/lastmile_qr_scan"}, "bike_id": "73db34761fb4dcc842dd3b7075d86355", "is_reserved": 0}, {"lat": 38.88417366666667, "fusion_lon": 0.0, "lon": -77.00798316666666, "is_disabled": 0, "type": "electric_scooter", "name": "3ed9624ca299d79862d677cb11078109", "fusion_lat": 0.0, "rental_uris": {"android": "https://dc.lft.to/lastmile_qr_scan", "ios": "https://dc.lft.to/lastmile_qr_scan"}, "bike_id": "3ed9624ca299d79862d677cb11078109", "is_reserved": 0}, {"lat": 38.892213, "fusion_lon": 0.0, "lon": -77.0487025, "is_disabled": 0, "type": "electric_scooter", "name": "b54facf165bfc302057bfdef1664ac1a", "fusion_lat": 0.0, "rental_uris": {"android": "https://dc.lft.to/lastmile_qr_scan", "ios": "https://dc.lft.to/lastmile_qr_scan"}, "bike_id": "b54facf165bfc302057bfdef1664ac1a", "is_reserved": 0}, {"lat": 38.935785, "fusion_lon": 0.0, "lon": -77.02127233333333, "is_disabled": 0, "type": "electric_scooter", "name": "316a1556ebe1fd66da897ffa940706c4", "fusion_lat": 0.0, "rental_uris": {"android": "https://dc.lft.to/lastmile_qr_scan", "ios": "https://dc.lft.to/lastmile_qr_scan"}, "bike_id": "316a1556ebe1fd66da897ffa940706c4", "is_reserved": 0}, {"lat": 38.892283166666665, "fusion_lon": 0.0, "lon": -77.04334983333334, "is_disabled": 0, "type": "electric_scooter", "name": "6b151f16cc02900383b42bf6def260a0", "fusion_lat": 0.0, "rental_uris": {"android": "https://dc.lft.to/lastmile_qr_scan", "ios": "https://dc.lft.to/lastmile_qr_scan"}, "bike_id": "6b151f16cc02900383b42bf6def260a0", "is_reserved": 0}, {"lat": 38.930728, "fusion_lon": 0.0, "lon": -77.03502866666666, "is_disabled": 0, "type": "electric_scooter", "name": "1bef6ce396505582954285b8eca57ebe", "fusion_lat": 0.0, "rental_uris": {"android": "https://dc.lft.to/lastmile_qr_scan", "ios": "https://dc.lft.to/lastmile_qr_scan"}, "bike_id": "1bef6ce396505582954285b8eca57ebe", "is_reserved": 0}, {"lat": 38.87041, "fusion_lon": 0.0, "lon": -77.00969266666667, "is_disabled": 0, "type": "electric_scooter", "name": "54e157d196f4caa4cd8b5d8cd467f896", "fusion_lat": 0.0, "rental_uris": {"android": "https://dc.lft.to/lastmile_qr_scan", "ios": "https://dc.lft.to/lastmile_qr_scan"}, "bike_id": "54e157d196f4caa4cd8b5d8cd467f896", "is_reserved": 0}, {"lat": 38.88173283333333, "fusion_lon": 0.0, "lon": -77.1141785, "is_disabled": 0, "type": "electric_bike", "name": "07dcb8947a5d685121aaf1e757fe6eab", "fusion_lat": 0.0, "rental_uris": {"android": "https://dc.lft.to/lastmile_qr_scan", "ios": "https://dc.lft.to/lastmile_qr_scan"}, "bike_id": "07dcb8947a5d685121aaf1e757fe6eab", "is_reserved": 0}, {"lat": 38.910512833333335, "fusion_lon": 0.0, "lon": -77.0435405, "is_disabled": 0, "type": "electric_scooter", "name": "805f566163a8653d6b783d4f7bc0d2de", "fusion_lat": 0.0, "rental_uris": {"android": "https://dc.lft.to/lastmile_qr_scan", "ios": "https://dc.lft.to/lastmile_qr_scan"}, "bike_id": "805f566163a8653d6b783d4f7bc0d2de", "is_reserved": 0}, {"lat": 38.91488483333333, "fusion_lon": 0.0, "lon": -77.0218555, "is_disabled": 0, "type": "electric_scooter", "name": "aec31aa0ea229b745aa73a47359ac9ca", "fusion_lat": 0.0, "rental_uris": {"android": "https://dc.lft.to/lastmile_qr_scan", "ios": "https://dc.lft.to/lastmile_qr_scan"}, "bike_id": "aec31aa0ea229b745aa73a47359ac9ca", "is_reserved": 0}, {"lat": 38.8877915, "fusion_lon": 0.0, "lon": -76.95533533333334, "is_disabled": 0, "type": "electric_scooter", "name": "2e29f34eac281f361652e38d3decb1e2", "fusion_lat": 0.0, "rental_uris": {"android": "https://dc.lft.to/lastmile_qr_scan", "ios": "https://dc.lft.to/lastmile_qr_scan"}, "bike_id": "2e29f34eac281f361652e38d3decb1e2", "is_reserved": 0}, {"lat": 38.90889583333333, "fusion_lon": 0.0, "lon": -76.98237416666667, "is_disabled": 0, "type": "electric_scooter", "name": "4733ccf625e676f730b1d1c4f01e4c8d", "fusion_lat": 0.0, "rental_uris": {"android": "https://dc.lft.to/lastmile_qr_scan", "ios": "https://dc.lft.to/lastmile_qr_scan"}, "bike_id": "4733ccf625e676f730b1d1c4f01e4c8d", "is_reserved": 0}, {"lat": 38.84312416666667, "fusion_lon": 0.0, "lon": -76.9993495, "is_disabled": 0, "type": "electric_scooter", "name": "5c580c78d1a6c7e433e5410c40e62e39", "fusion_lat": 0.0, "rental_uris": {"android": "https://dc.lft.to/lastmile_qr_scan", "ios": "https://dc.lft.to/lastmile_qr_scan"}, "bike_id": "5c580c78d1a6c7e433e5410c40e62e39", "is_reserved": 0}, {"lat": 38.8634135, "fusion_lon": 0.0, "lon": -76.9827705, "is_disabled": 0, "type": "electric_scooter", "name": "aa0317d32ab04fa4f51a8c47dd2fff76", "fusion_lat": 0.0, "rental_uris": {"android": "https://dc.lft.to/lastmile_qr_scan", "ios": "https://dc.lft.to/lastmile_qr_scan"}, "bike_id": "aa0317d32ab04fa4f51a8c47dd2fff76", "is_reserved": 0}, {"lat": 38.915234833333336, "fusion_lon": 0.0, "lon": -77.03205683333333, "is_disabled": 0, "type": "electric_scooter", "name": "7c95f332d29a90cb5db6e559bfb63e33", "fusion_lat": 0.0, "rental_uris": {"android": "https://dc.lft.to/lastmile_qr_scan", "ios": "https://dc.lft.to/lastmile_qr_scan"}, "bike_id": "7c95f332d29a90cb5db6e559bfb63e33", "is_reserved": 0}, {"lat": 38.9049325, "fusion_lon": 0.0, "lon": -77.0384095, "is_disabled": 0, "type": "electric_scooter", "name": "0159b26d13e2b5274bc5c6d090100789", "fusion_lat": 0.0, "rental_uris": {"android": "https://dc.lft.to/lastmile_qr_scan", "ios": "https://dc.lft.to/lastmile_qr_scan"}, "bike_id": "0159b26d13e2b5274bc5c6d090100789", "is_reserved": 0}, {"lat": 38.919323166666665, "fusion_lon": 0.0, "lon": -77.0317505, "is_disabled": 0, "type": "electric_scooter", "name": "f1846986bee59dfbfc049616d689f4d0", "fusion_lat": 0.0, "rental_uris": {"android": "https://dc.lft.to/lastmile_qr_scan", "ios": "https://dc.lft.to/lastmile_qr_scan"}, "bike_id": "f1846986bee59dfbfc049616d689f4d0", "is_reserved": 0}, {"lat": 38.90140733333333, "fusion_lon": 0.0, "lon": -77.00009766666666, "is_disabled": 0, "type": "electric_scooter", "name": "389d375112fa86f0f773f173a0674437", "fusion_lat": 0.0, "rental_uris": {"android": "https://dc.lft.to/lastmile_qr_scan", "ios": "https://dc.lft.to/lastmile_qr_scan"}, "bike_id": "389d375112fa86f0f773f173a0674437", "is_reserved": 0}, {"lat": 38.89918466666666, "fusion_lon": 0.0, "lon": -76.93367283333333, "is_disabled": 0, "type": "electric_scooter", "name": "780d97d55ffd3cde0da991dbf76504f9", "fusion_lat": 0.0, "rental_uris": {"android": "https://dc.lft.to/lastmile_qr_scan", "ios": "https://dc.lft.to/lastmile_qr_scan"}, "bike_id": "780d97d55ffd3cde0da991dbf76504f9", "is_reserved": 0}, {"lat": 38.9049815, "fusion_lon": 0.0, "lon": -76.98075016666667, "is_disabled": 0, "type": "electric_scooter", "name": "4b98c0baaebcc96cb582b397e3dea11f", "fusion_lat": 0.0, "rental_uris": {"android": "https://dc.lft.to/lastmile_qr_scan", "ios": "https://dc.lft.to/lastmile_qr_scan"}, "bike_id": "4b98c0baaebcc96cb582b397e3dea11f", "is_reserved": 0}, {"lat": 38.9052495, "fusion_lon": 0.0, "lon": -77.04997783333333, "is_disabled": 0, "type": "electric_scooter", "name": "df39424b972fb36cc59f20f985d26e48", "fusion_lat": 0.0, "rental_uris": {"android": "https://dc.lft.to/lastmile_qr_scan", "ios": "https://dc.lft.to/lastmile_qr_scan"}, "bike_id": "df39424b972fb36cc59f20f985d26e48", "is_reserved": 0}, {"lat": 38.8901795, "fusion_lon": 0.0, "lon": -76.93702433333333, "is_disabled": 0, "type": "electric_scooter", "name": "cde4ece6c292dff96aad4e0296ceda43", "fusion_lat": 0.0, "rental_uris": {"android": "https://dc.lft.to/lastmile_qr_scan", "ios": "https://dc.lft.to/lastmile_qr_scan"}, "bike_id": "cde4ece6c292dff96aad4e0296ceda43", "is_reserved": 0}, {"lat": 38.879642833333335, "fusion_lon": 0.0, "lon": -76.9851135, "is_disabled": 0, "type": "electric_bike", "name": "23a983828fff5d80b6ea7ed71489a4ca", "fusion_lat": 0.0, "rental_uris": {"android": "https://dc.lft.to/lastmile_qr_scan", "ios": "https://dc.lft.to/lastmile_qr_scan"}, "bike_id": "23a983828fff5d80b6ea7ed71489a4ca", "is_reserved": 0}, {"lat": 38.89223466666667, "fusion_lon": 0.0, "lon": -77.02352066666667, "is_disabled": 0, "type": "electric_scooter", "name": "0134985dd7191e37747e8b9af34354bb", "fusion_lat": 0.0, "rental_uris": {"android": "https://dc.lft.to/lastmile_qr_scan", "ios": "https://dc.lft.to/lastmile_qr_scan"}, "bike_id": "0134985dd7191e37747e8b9af34354bb", "is_reserved": 0}, {"lat": 38.9016655, "fusion_lon": 0.0, "lon": -77.03201483333333, "is_disabled": 0, "type": "electric_scooter", "name": "989af931d7ed2d4e48a00fd0eae03912", "fusion_lat": 0.0, "rental_uris": {"android": "https://dc.lft.to/lastmile_qr_scan", "ios": "https://dc.lft.to/lastmile_qr_scan"}, "bike_id": "989af931d7ed2d4e48a00fd0eae03912", "is_reserved": 0}, {"lat": 38.8928855, "fusion_lon": 0.0, "lon": -77.03191716666667, "is_disabled": 0, "type": "electric_scooter", "name": "1e51fc486be1b2246823c92359236982", "fusion_lat": 0.0, "rental_uris": {"android": "https://dc.lft.to/lastmile_qr_scan", "ios": "https://dc.lft.to/lastmile_qr_scan"}, "bike_id": "1e51fc486be1b2246823c92359236982", "is_reserved": 0}, {"lat": 38.91691083333333, "fusion_lon": 0.0, "lon": -77.026001, "is_disabled": 0, "type": "electric_scooter", "name": "9d03bd386d4db018020796829747ef8b", "fusion_lat": 0.0, "rental_uris": {"android": "https://dc.lft.to/lastmile_qr_scan", "ios": "https://dc.lft.to/lastmile_qr_scan"}, "bike_id": "9d03bd386d4db018020796829747ef8b", "is_reserved": 0}, {"lat": 38.903704166666664, "fusion_lon": 0.0, "lon": -77.0073995, "is_disabled": 0, "type": "electric_scooter", "name": "3fadd950d6eaf772fa9fd67b5c4c2de8", "fusion_lat": 0.0, "rental_uris": {"android": "https://dc.lft.to/lastmile_qr_scan", "ios": "https://dc.lft.to/lastmile_qr_scan"}, "bike_id": "3fadd950d6eaf772fa9fd67b5c4c2de8", "is_reserved": 0}, {"lat": 38.869393333333335, "fusion_lon": 0.0, "lon": -77.09468633333333, "is_disabled": 0, "type": "electric_bike", "name": "ddc681bf2f0d05370cb724d100560a2f", "fusion_lat": 0.0, "rental_uris": {"android": "https://dc.lft.to/lastmile_qr_scan", "ios": "https://dc.lft.to/lastmile_qr_scan"}, "bike_id": "ddc681bf2f0d05370cb724d100560a2f", "is_reserved": 0}, {"lat": 38.89314533333334, "fusion_lon": 0.0, "lon": -77.05001883333334, "is_disabled": 0, "type": "electric_scooter", "name": "8f6993041ccc52a69a3e693fbb36bc6b", "fusion_lat": 0.0, "rental_uris": {"android": "https://dc.lft.to/lastmile_qr_scan", "ios": "https://dc.lft.to/lastmile_qr_scan"}, "bike_id": "8f6993041ccc52a69a3e693fbb36bc6b", "is_reserved": 0}, {"lat": 38.939709, "fusion_lon": 0.0, "lon": -76.98616316666667, "is_disabled": 0, "type": "electric_bike", "name": "acc9b4135a6ba1410ded3ac5a5aee538", "fusion_lat": 0.0, "rental_uris": {"android": "https://dc.lft.to/lastmile_qr_scan", "ios": "https://dc.lft.to/lastmile_qr_scan"}, "bike_id": "acc9b4135a6ba1410ded3ac5a5aee538", "is_reserved": 0}, {"lat": 38.9197595, "fusion_lon": 0.0, "lon": -77.02504066666667, "is_disabled": 0, "type": "electric_scooter", "name": "b4f98eaf1ac7cbacadae8586ccb91d6a", "fusion_lat": 0.0, "rental_uris": {"android": "https://dc.lft.to/lastmile_qr_scan", "ios": "https://dc.lft.to/lastmile_qr_scan"}, "bike_id": "b4f98eaf1ac7cbacadae8586ccb91d6a", "is_reserved": 0}, {"lat": 38.871974, "fusion_lon": 0.0, "lon": -77.005724, "is_disabled": 0, "type": "electric_scooter", "name": "147f049bd1cc6be084e0086b60380f54", "fusion_lat": 0.0, "rental_uris": {"android": "https://dc.lft.to/lastmile_qr_scan", "ios": "https://dc.lft.to/lastmile_qr_scan"}, "bike_id": "147f049bd1cc6be084e0086b60380f54", "is_reserved": 0}, {"lat": 38.92055883333333, "fusion_lon": 0.0, "lon": -77.04193816666667, "is_disabled": 0, "type": "electric_scooter", "name": "7d7f4799f396cd4ae8e4159ce2ab4b6c", "fusion_lat": 0.0, "rental_uris": {"android": "https://dc.lft.to/lastmile_qr_scan", "ios": "https://dc.lft.to/lastmile_qr_scan"}, "bike_id": "7d7f4799f396cd4ae8e4159ce2ab4b6c", "is_reserved": 0}, {"lat": 38.902657166666664, "fusion_lon": 0.0, "lon": -77.01736566666666, "is_disabled": 0, "type": "electric_scooter", "name": "9ac8febcea84448369dbb94a528679a5", "fusion_lat": 0.0, "rental_uris": {"android": "https://dc.lft.to/lastmile_qr_scan", "ios": "https://dc.lft.to/lastmile_qr_scan"}, "bike_id": "9ac8febcea84448369dbb94a528679a5", "is_reserved": 0}, {"lat": 38.911645166666666, "fusion_lon": 0.0, "lon": -77.07268466666666, "is_disabled": 0, "type": "electric_scooter", "name": "fbd4cf9fb66249bf17a9e3cb994e5655", "fusion_lat": 0.0, "rental_uris": {"android": "https://dc.lft.to/lastmile_qr_scan", "ios": "https://dc.lft.to/lastmile_qr_scan"}, "bike_id": "fbd4cf9fb66249bf17a9e3cb994e5655", "is_reserved": 0}, {"lat": 38.909153, "fusion_lon": 0.0, "lon": -77.03126866666666, "is_disabled": 0, "type": "electric_scooter", "name": "48edbb26ea58014f90538e23b83c7551", "fusion_lat": 0.0, "rental_uris": {"android": "https://dc.lft.to/lastmile_qr_scan", "ios": "https://dc.lft.to/lastmile_qr_scan"}, "bike_id": "48edbb26ea58014f90538e23b83c7551", "is_reserved": 0}, {"lat": 38.925375833333334, "fusion_lon": 0.0, "lon": -76.97220616666667, "is_disabled": 0, "type": "electric_scooter", "name": "25555fbafe6e28d4b090fc0f9c71ecd1", "fusion_lat": 0.0, "rental_uris": {"android": "https://dc.lft.to/lastmile_qr_scan", "ios": "https://dc.lft.to/lastmile_qr_scan"}, "bike_id": "25555fbafe6e28d4b090fc0f9c71ecd1", "is_reserved": 0}, {"lat": 38.90990816666667, "fusion_lon": 0.0, "lon": -77.021858, "is_disabled": 0, "type": "electric_scooter", "name": "7c6db64cf7777b376b8db23e30a8e624", "fusion_lat": 0.0, "rental_uris": {"android": "https://dc.lft.to/lastmile_qr_scan", "ios": "https://dc.lft.to/lastmile_qr_scan"}, "bike_id": "7c6db64cf7777b376b8db23e30a8e624", "is_reserved": 0}, {"lat": 38.907273333333336, "fusion_lon": 0.0, "lon": -77.04526983333334, "is_disabled": 0, "type": "electric_scooter", "name": "6d6192f2479a0b163f60bcbb5a1a412d", "fusion_lat": 0.0, "rental_uris": {"android": "https://dc.lft.to/lastmile_qr_scan", "ios": "https://dc.lft.to/lastmile_qr_scan"}, "bike_id": "6d6192f2479a0b163f60bcbb5a1a412d", "is_reserved": 0}, {"lat": 38.867, "fusion_lon": 0.0, "lon": -76.985933, "is_disabled": 0, "type": "electric_scooter", "name": "6179692b282d8b45b22d62b1980965c5", "fusion_lat": 0.0, "rental_uris": {"android": "https://dc.lft.to/lastmile_qr_scan", "ios": "https://dc.lft.to/lastmile_qr_scan"}, "bike_id": "6179692b282d8b45b22d62b1980965c5", "is_reserved": 0}, {"lat": 38.90011033333333, "fusion_lon": 0.0, "lon": -76.93031383333333, "is_disabled": 0, "type": "electric_scooter", "name": "9f2f576e5eafe98d7ca50e3d7ff96968", "fusion_lat": 0.0, "rental_uris": {"android": "https://dc.lft.to/lastmile_qr_scan", "ios": "https://dc.lft.to/lastmile_qr_scan"}, "bike_id": "9f2f576e5eafe98d7ca50e3d7ff96968", "is_reserved": 0}, {"lat": 38.892382, "fusion_lon": 0.0, "lon": -77.013191, "is_disabled": 0, "type": "electric_scooter", "name": "5afa7082dbe36cd3b273c6b421e77556", "fusion_lat": 0.0, "rental_uris": {"android": "https://dc.lft.to/lastmile_qr_scan", "ios": "https://dc.lft.to/lastmile_qr_scan"}, "bike_id": "5afa7082dbe36cd3b273c6b421e77556", "is_reserved": 0}, {"lat": 38.92443766666667, "fusion_lon": 0.0, "lon": -77.034061, "is_disabled": 0, "type": "electric_scooter", "name": "024d9de3882c1cb005b0b4776772c9f3", "fusion_lat": 0.0, "rental_uris": {"android": "https://dc.lft.to/lastmile_qr_scan", "ios": "https://dc.lft.to/lastmile_qr_scan"}, "bike_id": "024d9de3882c1cb005b0b4776772c9f3", "is_reserved": 0}, {"lat": 38.915728666666666, "fusion_lon": 0.0, "lon": -77.031853, "is_disabled": 0, "type": "electric_scooter", "name": "7f5ba9693d2400557742316a7044e584", "fusion_lat": 0.0, "rental_uris": {"android": "https://dc.lft.to/lastmile_qr_scan", "ios": "https://dc.lft.to/lastmile_qr_scan"}, "bike_id": "7f5ba9693d2400557742316a7044e584", "is_reserved": 0}, {"lat": 38.8923415, "fusion_lon": 0.0, "lon": -77.02384316666667, "is_disabled": 0, "type": "electric_scooter", "name": "3c3b06fb47cfdcf0c84169742e4e87e5", "fusion_lat": 0.0, "rental_uris": {"android": "https://dc.lft.to/lastmile_qr_scan", "ios": "https://dc.lft.to/lastmile_qr_scan"}, "bike_id": "3c3b06fb47cfdcf0c84169742e4e87e5", "is_reserved": 0}, {"lat": 38.93404783333333, "fusion_lon": 0.0, "lon": -77.07247416666667, "is_disabled": 0, "type": "electric_scooter", "name": "8f2e5091c4f720ed26ab39fe97094a97", "fusion_lat": 0.0, "rental_uris": {"android": "https://dc.lft.to/lastmile_qr_scan", "ios": "https://dc.lft.to/lastmile_qr_scan"}, "bike_id": "8f2e5091c4f720ed26ab39fe97094a97", "is_reserved": 0}, {"lat": 38.9595715, "fusion_lon": 0.0, "lon": -77.100906, "is_disabled": 0, "type": "electric_bike", "name": "215478e78d6a929975f02299663ec02d", "fusion_lat": 0.0, "rental_uris": {"android": "https://dc.lft.to/lastmile_qr_scan", "ios": "https://dc.lft.to/lastmile_qr_scan"}, "bike_id": "215478e78d6a929975f02299663ec02d", "is_reserved": 0}, {"lat": 38.8845915, "fusion_lon": 0.0, "lon": -76.92621483333333, "is_disabled": 0, "type": "electric_scooter", "name": "7e78cb99b46f0ea203fefaac60f3a9d5", "fusion_lat": 0.0, "rental_uris": {"android": "https://dc.lft.to/lastmile_qr_scan", "ios": "https://dc.lft.to/lastmile_qr_scan"}, "bike_id": "7e78cb99b46f0ea203fefaac60f3a9d5", "is_reserved": 0}, {"lat": 38.919874, "fusion_lon": 0.0, "lon": -77.03247733333333, "is_disabled": 0, "type": "electric_scooter", "name": "7fc9e42cf1e7ab0e0d774abfceddb68e", "fusion_lat": 0.0, "rental_uris": {"android": "https://dc.lft.to/lastmile_qr_scan", "ios": "https://dc.lft.to/lastmile_qr_scan"}, "bike_id": "7fc9e42cf1e7ab0e0d774abfceddb68e", "is_reserved": 0}, {"lat": 38.8716275, "fusion_lon": 0.0, "lon": -77.01354583333334, "is_disabled": 0, "type": "electric_scooter", "name": "89bd415fa380975e01350bb27b310aed", "fusion_lat": 0.0, "rental_uris": {"android": "https://dc.lft.to/lastmile_qr_scan", "ios": "https://dc.lft.to/lastmile_qr_scan"}, "bike_id": "89bd415fa380975e01350bb27b310aed", "is_reserved": 0}, {"lat": 38.83158666666667, "fusion_lon": 0.0, "lon": -76.99547666666666, "is_disabled": 0, "type": "electric_bike", "name": "cd3d19d97a6cdbef569668eb03b2b16e", "fusion_lat": 0.0, "rental_uris": {"android": "https://dc.lft.to/lastmile_qr_scan", "ios": "https://dc.lft.to/lastmile_qr_scan"}, "bike_id": "cd3d19d97a6cdbef569668eb03b2b16e", "is_reserved": 0}, {"lat": 38.81202483333333, "fusion_lon": 0.0, "lon": -77.10832516666666, "is_disabled": 0, "type": "electric_bike", "name": "ea2fbc14b625a32ee55fa76f64047ed6", "fusion_lat": 0.0, "rental_uris": {"android": "https://dc.lft.to/lastmile_qr_scan", "ios": "https://dc.lft.to/lastmile_qr_scan"}, "bike_id": "ea2fbc14b625a32ee55fa76f64047ed6", "is_reserved": 0}, {"lat": 38.90831933333333, "fusion_lon": 0.0, "lon": -77.043327, "is_disabled": 0, "type": "electric_scooter", "name": "a637a96b823b15d57fd4b48eb6bc2f3f", "fusion_lat": 0.0, "rental_uris": {"android": "https://dc.lft.to/lastmile_qr_scan", "ios": "https://dc.lft.to/lastmile_qr_scan"}, "bike_id": "a637a96b823b15d57fd4b48eb6bc2f3f", "is_reserved": 0}, {"lat": 38.88522966666667, "fusion_lon": 0.0, "lon": -76.99613866666667, "is_disabled": 0, "type": "electric_scooter", "name": "1ad3f6a11fc9b4881480bcbc09ae9ad5", "fusion_lat": 0.0, "rental_uris": {"android": "https://dc.lft.to/lastmile_qr_scan", "ios": "https://dc.lft.to/lastmile_qr_scan"}, "bike_id": "1ad3f6a11fc9b4881480bcbc09ae9ad5", "is_reserved": 0}, {"lat": 38.92747033333333, "fusion_lon": 0.0, "lon": -77.03276166666667, "is_disabled": 0, "type": "electric_scooter", "name": "95becec28077c1614c2ce88fa4d4df89", "fusion_lat": 0.0, "rental_uris": {"android": "https://dc.lft.to/lastmile_qr_scan", "ios": "https://dc.lft.to/lastmile_qr_scan"}, "bike_id": "95becec28077c1614c2ce88fa4d4df89", "is_reserved": 0}, {"lat": 38.9075945, "fusion_lon": 0.0, "lon": -77.07158083333333, "is_disabled": 0, "type": "electric_scooter", "name": "1dd74664f107e221a96d068360b2a8a6", "fusion_lat": 0.0, "rental_uris": {"android": "https://dc.lft.to/lastmile_qr_scan", "ios": "https://dc.lft.to/lastmile_qr_scan"}, "bike_id": "1dd74664f107e221a96d068360b2a8a6", "is_reserved": 0}, {"lat": 38.8955545, "fusion_lon": 0.0, "lon": -76.94877183333334, "is_disabled": 0, "type": "electric_scooter", "name": "8bb6bb4032b09e6176601b823dffa404", "fusion_lat": 0.0, "rental_uris": {"android": "https://dc.lft.to/lastmile_qr_scan", "ios": "https://dc.lft.to/lastmile_qr_scan"}, "bike_id": "8bb6bb4032b09e6176601b823dffa404", "is_reserved": 0}, {"lat": 38.96217133333333, "fusion_lon": 0.0, "lon": -77.02628733333333, "is_disabled": 0, "type": "electric_bike", "name": "2e89fb77ab7197fe1922dfb85080ad79", "fusion_lat": 0.0, "rental_uris": {"android": "https://dc.lft.to/lastmile_qr_scan", "ios": "https://dc.lft.to/lastmile_qr_scan"}, "bike_id": "2e89fb77ab7197fe1922dfb85080ad79", "is_reserved": 0}, {"lat": 38.92139183333333, "fusion_lon": 0.0, "lon": -77.02876133333334, "is_disabled": 0, "type": "electric_scooter", "name": "6e6984ece377c44a0e0dfc4c74618af1", "fusion_lat": 0.0, "rental_uris": {"android": "https://dc.lft.to/lastmile_qr_scan", "ios": "https://dc.lft.to/lastmile_qr_scan"}, "bike_id": "6e6984ece377c44a0e0dfc4c74618af1", "is_reserved": 0}, {"lat": 38.921082, "fusion_lon": 0.0, "lon": -76.99385833333334, "is_disabled": 0, "type": "electric_bike", "name": "ef34f550e3dc3c24ac865b1bac20b83b", "fusion_lat": 0.0, "rental_uris": {"android": "https://dc.lft.to/lastmile_qr_scan", "ios": "https://dc.lft.to/lastmile_qr_scan"}, "bike_id": "ef34f550e3dc3c24ac865b1bac20b83b", "is_reserved": 0}, {"lat": 38.8873825, "fusion_lon": 0.0, "lon": -77.02210066666666, "is_disabled": 0, "type": "electric_scooter", "name": "21cfc86bdf99940daf1fcd2786d55a9a", "fusion_lat": 0.0, "rental_uris": {"android": "https://dc.lft.to/lastmile_qr_scan", "ios": "https://dc.lft.to/lastmile_qr_scan"}, "bike_id": "21cfc86bdf99940daf1fcd2786d55a9a", "is_reserved": 0}, {"lat": 38.905337, "fusion_lon": 0.0, "lon": -77.02211566666666, "is_disabled": 0, "type": "electric_scooter", "name": "b2d07eb4d2722920af1f126ba30c5003", "fusion_lat": 0.0, "rental_uris": {"android": "https://dc.lft.to/lastmile_qr_scan", "ios": "https://dc.lft.to/lastmile_qr_scan"}, "bike_id": "b2d07eb4d2722920af1f126ba30c5003", "is_reserved": 0}, {"lat": 38.93869466666666, "fusion_lon": 0.0, "lon": -76.94293, "is_disabled": 0, "type": "electric_bike", "name": "da20a4d5c1054e5c3f2656de421653b5", "fusion_lat": 0.0, "rental_uris": {"android": "https://dc.lft.to/lastmile_qr_scan", "ios": "https://dc.lft.to/lastmile_qr_scan"}, "bike_id": "da20a4d5c1054e5c3f2656de421653b5", "is_reserved": 0}, {"lat": 38.886088, "fusion_lon": 0.0, "lon": -76.9951145, "is_disabled": 0, "type": "electric_scooter", "name": "7c7ca6e5dee269a97cb1140e87680467", "fusion_lat": 0.0, "rental_uris": {"android": "https://dc.lft.to/lastmile_qr_scan", "ios": "https://dc.lft.to/lastmile_qr_scan"}, "bike_id": "7c7ca6e5dee269a97cb1140e87680467", "is_reserved": 0}, {"lat": 38.934578333333334, "fusion_lon": 0.0, "lon": -77.0222065, "is_disabled": 0, "type": "electric_scooter", "name": "ea99bb31db8428d74a600341b687f673", "fusion_lat": 0.0, "rental_uris": {"android": "https://dc.lft.to/lastmile_qr_scan", "ios": "https://dc.lft.to/lastmile_qr_scan"}, "bike_id": "ea99bb31db8428d74a600341b687f673", "is_reserved": 0}, {"lat": 38.897208666666664, "fusion_lon": 0.0, "lon": -76.97342983333333, "is_disabled": 0, "type": "electric_scooter", "name": "4a687d5b79cd73f850e1efa79750173c", "fusion_lat": 0.0, "rental_uris": {"android": "https://dc.lft.to/lastmile_qr_scan", "ios": "https://dc.lft.to/lastmile_qr_scan"}, "bike_id": "4a687d5b79cd73f850e1efa79750173c", "is_reserved": 0}, {"lat": 38.91643916666666, "fusion_lon": 0.0, "lon": -77.03179083333333, "is_disabled": 0, "type": "electric_scooter", "name": "602f10ac9f4ca0c9718f41449882a40f", "fusion_lat": 0.0, "rental_uris": {"android": "https://dc.lft.to/lastmile_qr_scan", "ios": "https://dc.lft.to/lastmile_qr_scan"}, "bike_id": "602f10ac9f4ca0c9718f41449882a40f", "is_reserved": 0}, {"lat": 38.891924833333334, "fusion_lon": 0.0, "lon": -76.98856183333334, "is_disabled": 0, "type": "electric_scooter", "name": "d1046e74a2ed9d191b40fd5823ed61c8", "fusion_lat": 0.0, "rental_uris": {"android": "https://dc.lft.to/lastmile_qr_scan", "ios": "https://dc.lft.to/lastmile_qr_scan"}, "bike_id": "d1046e74a2ed9d191b40fd5823ed61c8", "is_reserved": 0}, {"lat": 38.8827165, "fusion_lon": 0.0, "lon": -76.9902115, "is_disabled": 0, "type": "electric_scooter", "name": "0fe6823d870540aa98f92db0ea46a6bf", "fusion_lat": 0.0, "rental_uris": {"android": "https://dc.lft.to/lastmile_qr_scan", "ios": "https://dc.lft.to/lastmile_qr_scan"}, "bike_id": "0fe6823d870540aa98f92db0ea46a6bf", "is_reserved": 0}, {"lat": 38.866577, "fusion_lon": 0.0, "lon": -76.98881583333333, "is_disabled": 0, "type": "electric_scooter", "name": "ccc08a059c2b9f65fd4910eae69fefd4", "fusion_lat": 0.0, "rental_uris": {"android": "https://dc.lft.to/lastmile_qr_scan", "ios": "https://dc.lft.to/lastmile_qr_scan"}, "bike_id": "ccc08a059c2b9f65fd4910eae69fefd4", "is_reserved": 0}, {"lat": 38.95748783333333, "fusion_lon": 0.0, "lon": -77.02064516666667, "is_disabled": 0, "type": "electric_scooter", "name": "2db3faddeeeb50375952bdd1f5669647", "fusion_lat": 0.0, "rental_uris": {"android": "https://dc.lft.to/lastmile_qr_scan", "ios": "https://dc.lft.to/lastmile_qr_scan"}, "bike_id": "2db3faddeeeb50375952bdd1f5669647", "is_reserved": 0}, {"lat": 38.89724733333333, "fusion_lon": 0.0, "lon": -77.01374083333333, "is_disabled": 0, "type": "electric_scooter", "name": "cd87a2e5af424dac032f5005f88376a3", "fusion_lat": 0.0, "rental_uris": {"android": "https://dc.lft.to/lastmile_qr_scan", "ios": "https://dc.lft.to/lastmile_qr_scan"}, "bike_id": "cd87a2e5af424dac032f5005f88376a3", "is_reserved": 0}, {"lat": 38.87543216666667, "fusion_lon": 0.0, "lon": -77.00583666666667, "is_disabled": 0, "type": "electric_scooter", "name": "06619a8227d7267fd14e1c23ddc46f95", "fusion_lat": 0.0, "rental_uris": {"android": "https://dc.lft.to/lastmile_qr_scan", "ios": "https://dc.lft.to/lastmile_qr_scan"}, "bike_id": "06619a8227d7267fd14e1c23ddc46f95", "is_reserved": 0}, {"lat": 38.917010166666664, "fusion_lon": 0.0, "lon": -77.024195, "is_disabled": 0, "type": "electric_scooter", "name": "b5ec059fbe3e0555be48323d37a67817", "fusion_lat": 0.0, "rental_uris": {"android": "https://dc.lft.to/lastmile_qr_scan", "ios": "https://dc.lft.to/lastmile_qr_scan"}, "bike_id": "b5ec059fbe3e0555be48323d37a67817", "is_reserved": 0}, {"lat": 38.915313166666664, "fusion_lon": 0.0, "lon": -77.00343416666666, "is_disabled": 0, "type": "electric_scooter", "name": "c84307980b15d62b9d0d88505a00d545", "fusion_lat": 0.0, "rental_uris": {"android": "https://dc.lft.to/lastmile_qr_scan", "ios": "https://dc.lft.to/lastmile_qr_scan"}, "bike_id": "c84307980b15d62b9d0d88505a00d545", "is_reserved": 0}, {"lat": 38.92368666666667, "fusion_lon": 0.0, "lon": -77.05049933333333, "is_disabled": 0, "type": "electric_scooter", "name": "7d13237ed81714a9211d00c062eb6835", "fusion_lat": 0.0, "rental_uris": {"android": "https://dc.lft.to/lastmile_qr_scan", "ios": "https://dc.lft.to/lastmile_qr_scan"}, "bike_id": "7d13237ed81714a9211d00c062eb6835", "is_reserved": 0}, {"lat": 38.90372283333333, "fusion_lon": 0.0, "lon": -77.009929, "is_disabled": 0, "type": "electric_scooter", "name": "f4f4e296ba41019503611518fc18d7dd", "fusion_lat": 0.0, "rental_uris": {"android": "https://dc.lft.to/lastmile_qr_scan", "ios": "https://dc.lft.to/lastmile_qr_scan"}, "bike_id": "f4f4e296ba41019503611518fc18d7dd", "is_reserved": 0}, {"lat": 38.90508116666667, "fusion_lon": 0.0, "lon": -76.98485966666667, "is_disabled": 0, "type": "electric_scooter", "name": "69cfd275992941b2e51e8f35210855f7", "fusion_lat": 0.0, "rental_uris": {"android": "https://dc.lft.to/lastmile_qr_scan", "ios": "https://dc.lft.to/lastmile_qr_scan"}, "bike_id": "69cfd275992941b2e51e8f35210855f7", "is_reserved": 0}, {"lat": 38.89493616666667, "fusion_lon": 0.0, "lon": -77.02731266666666, "is_disabled": 0, "type": "electric_scooter", "name": "5a469c6dd3e6ec8e6e08e9732eb10d84", "fusion_lat": 0.0, "rental_uris": {"android": "https://dc.lft.to/lastmile_qr_scan", "ios": "https://dc.lft.to/lastmile_qr_scan"}, "bike_id": "5a469c6dd3e6ec8e6e08e9732eb10d84", "is_reserved": 0}, {"lat": 38.9012085, "fusion_lon": 0.0, "lon": -77.03997933333333, "is_disabled": 0, "type": "electric_scooter", "name": "11b29660b9f2621bdfcfc947d27d1cc1", "fusion_lat": 0.0, "rental_uris": {"android": "https://dc.lft.to/lastmile_qr_scan", "ios": "https://dc.lft.to/lastmile_qr_scan"}, "bike_id": "11b29660b9f2621bdfcfc947d27d1cc1", "is_reserved": 0}, {"lat": 38.91707183333333, "fusion_lon": 0.0, "lon": -77.032429, "is_disabled": 0, "type": "electric_scooter", "name": "d523cef1c5c181acbe09d237007eec1c", "fusion_lat": 0.0, "rental_uris": {"android": "https://dc.lft.to/lastmile_qr_scan", "ios": "https://dc.lft.to/lastmile_qr_scan"}, "bike_id": "d523cef1c5c181acbe09d237007eec1c", "is_reserved": 0}, {"lat": 38.9169035, "fusion_lon": 0.0, "lon": -77.028015, "is_disabled": 0, "type": "electric_scooter", "name": "5f1d133bda25768ef5b7621fdbc20591", "fusion_lat": 0.0, "rental_uris": {"android": "https://dc.lft.to/lastmile_qr_scan", "ios": "https://dc.lft.to/lastmile_qr_scan"}, "bike_id": "5f1d133bda25768ef5b7621fdbc20591", "is_reserved": 0}, {"lat": 38.91680016666667, "fusion_lon": 0.0, "lon": -77.02805133333334, "is_disabled": 0, "type": "electric_scooter", "name": "12cf8d66c6b804b38904a56a4e43b767", "fusion_lat": 0.0, "rental_uris": {"android": "https://dc.lft.to/lastmile_qr_scan", "ios": "https://dc.lft.to/lastmile_qr_scan"}, "bike_id": "12cf8d66c6b804b38904a56a4e43b767", "is_reserved": 0}, {"lat": 38.8850165, "fusion_lon": 0.0, "lon": -77.015883, "is_disabled": 0, "type": "electric_scooter", "name": "497afbaab73a097bdbf56ff5ed3198e4", "fusion_lat": 0.0, "rental_uris": {"android": "https://dc.lft.to/lastmile_qr_scan", "ios": "https://dc.lft.to/lastmile_qr_scan"}, "bike_id": "497afbaab73a097bdbf56ff5ed3198e4", "is_reserved": 0}, {"lat": 38.827846666666666, "fusion_lon": 0.0, "lon": -77.00922066666666, "is_disabled": 0, "type": "electric_bike", "name": "d2a10ac926d733320e50c627c77a48ac", "fusion_lat": 0.0, "rental_uris": {"android": "https://dc.lft.to/lastmile_qr_scan", "ios": "https://dc.lft.to/lastmile_qr_scan"}, "bike_id": "d2a10ac926d733320e50c627c77a48ac", "is_reserved": 0}, {"lat": 38.94153133333333, "fusion_lon": 0.0, "lon": -77.00193583333333, "is_disabled": 0, "type": "electric_bike", "name": "bfbab9f477e27ce9cbfb6cab09d33811", "fusion_lat": 0.0, "rental_uris": {"android": "https://dc.lft.to/lastmile_qr_scan", "ios": "https://dc.lft.to/lastmile_qr_scan"}, "bike_id": "bfbab9f477e27ce9cbfb6cab09d33811", "is_reserved": 0}, {"lat": 38.948701, "fusion_lon": 0.0, "lon": -77.03888116666667, "is_disabled": 0, "type": "electric_scooter", "name": "387ba8c8bf41b188c1043a55eaf6deda", "fusion_lat": 0.0, "rental_uris": {"android": "https://dc.lft.to/lastmile_qr_scan", "ios": "https://dc.lft.to/lastmile_qr_scan"}, "bike_id": "387ba8c8bf41b188c1043a55eaf6deda", "is_reserved": 0}, {"lat": 38.92648283333333, "fusion_lon": 0.0, "lon": -77.03403883333333, "is_disabled": 0, "type": "electric_scooter", "name": "1aef952be96f8227096dd7c275c3a89a", "fusion_lat": 0.0, "rental_uris": {"android": "https://dc.lft.to/lastmile_qr_scan", "ios": "https://dc.lft.to/lastmile_qr_scan"}, "bike_id": "1aef952be96f8227096dd7c275c3a89a", "is_reserved": 0}, {"lat": 38.895755666666666, "fusion_lon": 0.0, "lon": -77.01600933333333, "is_disabled": 0, "type": "electric_scooter", "name": "8b2dc9ac3cb29f5465577d11c4915f7e", "fusion_lat": 0.0, "rental_uris": {"android": "https://dc.lft.to/lastmile_qr_scan", "ios": "https://dc.lft.to/lastmile_qr_scan"}, "bike_id": "8b2dc9ac3cb29f5465577d11c4915f7e", "is_reserved": 0}, {"lat": 38.895170666666665, "fusion_lon": 0.0, "lon": -77.028696, "is_disabled": 0, "type": "electric_scooter", "name": "9a62bcdc0b47c03da57a81c292f196ae", "fusion_lat": 0.0, "rental_uris": {"android": "https://dc.lft.to/lastmile_qr_scan", "ios": "https://dc.lft.to/lastmile_qr_scan"}, "bike_id": "9a62bcdc0b47c03da57a81c292f196ae", "is_reserved": 0}, {"lat": 38.8850915, "fusion_lon": 0.0, "lon": -77.01606733333334, "is_disabled": 0, "type": "electric_scooter", "name": "bbf78c77b42d1ddec90a5a89f4cbbabc", "fusion_lat": 0.0, "rental_uris": {"android": "https://dc.lft.to/lastmile_qr_scan", "ios": "https://dc.lft.to/lastmile_qr_scan"}, "bike_id": "bbf78c77b42d1ddec90a5a89f4cbbabc", "is_reserved": 0}, {"lat": 38.917143333333335, "fusion_lon": 0.0, "lon": -77.03858633333333, "is_disabled": 0, "type": "electric_scooter", "name": "7706393e2285073dd61f524a64c4f3b3", "fusion_lat": 0.0, "rental_uris": {"android": "https://dc.lft.to/lastmile_qr_scan", "ios": "https://dc.lft.to/lastmile_qr_scan"}, "bike_id": "7706393e2285073dd61f524a64c4f3b3", "is_reserved": 0}, {"lat": 38.90027366666666, "fusion_lon": 0.0, "lon": -76.98700916666667, "is_disabled": 0, "type": "electric_scooter", "name": "8c1e4ca77944eb3c4872c37897e27d45", "fusion_lat": 0.0, "rental_uris": {"android": "https://dc.lft.to/lastmile_qr_scan", "ios": "https://dc.lft.to/lastmile_qr_scan"}, "bike_id": "8c1e4ca77944eb3c4872c37897e27d45", "is_reserved": 0}, {"lat": 38.905271, "fusion_lon": 0.0, "lon": -77.04780133333334, "is_disabled": 0, "type": "electric_scooter", "name": "7dc43cae9a74e689e340c88b9ec10139", "fusion_lat": 0.0, "rental_uris": {"android": "https://dc.lft.to/lastmile_qr_scan", "ios": "https://dc.lft.to/lastmile_qr_scan"}, "bike_id": "7dc43cae9a74e689e340c88b9ec10139", "is_reserved": 0}, {"lat": 38.903467166666665, "fusion_lon": 0.0, "lon": -76.982774, "is_disabled": 0, "type": "electric_scooter", "name": "5d9356453d343226401c7c8294186447", "fusion_lat": 0.0, "rental_uris": {"android": "https://dc.lft.to/lastmile_qr_scan", "ios": "https://dc.lft.to/lastmile_qr_scan"}, "bike_id": "5d9356453d343226401c7c8294186447", "is_reserved": 0}, {"lat": 38.957300833333335, "fusion_lon": 0.0, "lon": -77.02405366666666, "is_disabled": 0, "type": "electric_scooter", "name": "2f52c97be28d4e1ea81ea940f1c212b9", "fusion_lat": 0.0, "rental_uris": {"android": "https://dc.lft.to/lastmile_qr_scan", "ios": "https://dc.lft.to/lastmile_qr_scan"}, "bike_id": "2f52c97be28d4e1ea81ea940f1c212b9", "is_reserved": 0}, {"lat": 38.9004845, "fusion_lon": 0.0, "lon": -77.04863833333333, "is_disabled": 0, "type": "electric_scooter", "name": "f553ec05cdaf5d415993c58010da4172", "fusion_lat": 0.0, "rental_uris": {"android": "https://dc.lft.to/lastmile_qr_scan", "ios": "https://dc.lft.to/lastmile_qr_scan"}, "bike_id": "f553ec05cdaf5d415993c58010da4172", "is_reserved": 0}, {"lat": 38.89982233333333, "fusion_lon": 0.0, "lon": -77.00368, "is_disabled": 0, "type": "electric_scooter", "name": "ae2d39563bc474105289255e64ef0155", "fusion_lat": 0.0, "rental_uris": {"android": "https://dc.lft.to/lastmile_qr_scan", "ios": "https://dc.lft.to/lastmile_qr_scan"}, "bike_id": "ae2d39563bc474105289255e64ef0155", "is_reserved": 0}, {"lat": 38.91174816666667, "fusion_lon": 0.0, "lon": -77.03864, "is_disabled": 0, "type": "electric_scooter", "name": "f06fdc52f5df9a9a58fd34e008a796e6", "fusion_lat": 0.0, "rental_uris": {"android": "https://dc.lft.to/lastmile_qr_scan", "ios": "https://dc.lft.to/lastmile_qr_scan"}, "bike_id": "f06fdc52f5df9a9a58fd34e008a796e6", "is_reserved": 0}, {"lat": 38.91557066666667, "fusion_lon": 0.0, "lon": -77.02425633333333, "is_disabled": 0, "type": "electric_scooter", "name": "181ff92bf5170e1fa0dce3585e9e43b1", "fusion_lat": 0.0, "rental_uris": {"android": "https://dc.lft.to/lastmile_qr_scan", "ios": "https://dc.lft.to/lastmile_qr_scan"}, "bike_id": "181ff92bf5170e1fa0dce3585e9e43b1", "is_reserved": 0}, {"lat": 38.9088535, "fusion_lon": 0.0, "lon": -76.985419, "is_disabled": 0, "type": "electric_scooter", "name": "39fcc76e2e99c4e6b42ebe84bdb52a70", "fusion_lat": 0.0, "rental_uris": {"android": "https://dc.lft.to/lastmile_qr_scan", "ios": "https://dc.lft.to/lastmile_qr_scan"}, "bike_id": "39fcc76e2e99c4e6b42ebe84bdb52a70", "is_reserved": 0}, {"lat": 38.88742966666667, "fusion_lon": 0.0, "lon": -77.02732266666666, "is_disabled": 0, "type": "electric_scooter", "name": "3564def9a5a862a4fe49e031f5f0810b", "fusion_lat": 0.0, "rental_uris": {"android": "https://dc.lft.to/lastmile_qr_scan", "ios": "https://dc.lft.to/lastmile_qr_scan"}, "bike_id": "3564def9a5a862a4fe49e031f5f0810b", "is_reserved": 0}, {"lat": 38.906993, "fusion_lon": 0.0, "lon": -77.04179933333333, "is_disabled": 0, "type": "electric_scooter", "name": "e0cf8237eed80dc1964b6f536795016f", "fusion_lat": 0.0, "rental_uris": {"android": "https://dc.lft.to/lastmile_qr_scan", "ios": "https://dc.lft.to/lastmile_qr_scan"}, "bike_id": "e0cf8237eed80dc1964b6f536795016f", "is_reserved": 0}, {"lat": 38.88675933333333, "fusion_lon": 0.0, "lon": -76.95468383333333, "is_disabled": 0, "type": "electric_scooter", "name": "6586c22798b1d255fc14801f4d7c48e4", "fusion_lat": 0.0, "rental_uris": {"android": "https://dc.lft.to/lastmile_qr_scan", "ios": "https://dc.lft.to/lastmile_qr_scan"}, "bike_id": "6586c22798b1d255fc14801f4d7c48e4", "is_reserved": 0}, {"lat": 38.865033833333335, "fusion_lon": 0.0, "lon": -76.99004066666667, "is_disabled": 0, "type": "electric_scooter", "name": "5ae17d9e98edb9945d7c83da4e01ef9e", "fusion_lat": 0.0, "rental_uris": {"android": "https://dc.lft.to/lastmile_qr_scan", "ios": "https://dc.lft.to/lastmile_qr_scan"}, "bike_id": "5ae17d9e98edb9945d7c83da4e01ef9e", "is_reserved": 0}, {"lat": 38.92654783333333, "fusion_lon": 0.0, "lon": -77.02282666666666, "is_disabled": 0, "type": "electric_scooter", "name": "220d7d190a1ea269234dbf073a43bda8", "fusion_lat": 0.0, "rental_uris": {"android": "https://dc.lft.to/lastmile_qr_scan", "ios": "https://dc.lft.to/lastmile_qr_scan"}, "bike_id": "220d7d190a1ea269234dbf073a43bda8", "is_reserved": 0}, {"lat": 38.911277, "fusion_lon": 0.0, "lon": -77.038319, "is_disabled": 0, "type": "electric_scooter", "name": "f92793858dd98e2ed16268f240df927d", "fusion_lat": 0.0, "rental_uris": {"android": "https://dc.lft.to/lastmile_qr_scan", "ios": "https://dc.lft.to/lastmile_qr_scan"}, "bike_id": "f92793858dd98e2ed16268f240df927d", "is_reserved": 0}, {"lat": 38.90279133333333, "fusion_lon": 0.0, "lon": -77.0592585, "is_disabled": 0, "type": "electric_scooter", "name": "6acfa0208f823a4ccbcc9bd1bb5e71e8", "fusion_lat": 0.0, "rental_uris": {"android": "https://dc.lft.to/lastmile_qr_scan", "ios": "https://dc.lft.to/lastmile_qr_scan"}, "bike_id": "6acfa0208f823a4ccbcc9bd1bb5e71e8", "is_reserved": 0}, {"lat": 38.9052295, "fusion_lon": 0.0, "lon": -77.05296333333334, "is_disabled": 0, "type": "electric_scooter", "name": "492e9abff9629283530f787f6781ed5f", "fusion_lat": 0.0, "rental_uris": {"android": "https://dc.lft.to/lastmile_qr_scan", "ios": "https://dc.lft.to/lastmile_qr_scan"}, "bike_id": "492e9abff9629283530f787f6781ed5f", "is_reserved": 0}, {"lat": 38.892375, "fusion_lon": 0.0, "lon": -77.0314245, "is_disabled": 0, "type": "electric_scooter", "name": "a808bb9493d6ab878e9551de31c91d25", "fusion_lat": 0.0, "rental_uris": {"android": "https://dc.lft.to/lastmile_qr_scan", "ios": "https://dc.lft.to/lastmile_qr_scan"}, "bike_id": "a808bb9493d6ab878e9551de31c91d25", "is_reserved": 0}, {"lat": 38.929837, "fusion_lon": 0.0, "lon": -77.03656733333334, "is_disabled": 0, "type": "electric_scooter", "name": "b07a4f539e9dde39c1795853eafa19a1", "fusion_lat": 0.0, "rental_uris": {"android": "https://dc.lft.to/lastmile_qr_scan", "ios": "https://dc.lft.to/lastmile_qr_scan"}, "bike_id": "b07a4f539e9dde39c1795853eafa19a1", "is_reserved": 0}, {"lat": 38.902542, "fusion_lon": 0.0, "lon": -77.04268816666666, "is_disabled": 0, "type": "electric_scooter", "name": "e82874e35eac7c793c0ea1fe34bc2535", "fusion_lat": 0.0, "rental_uris": {"android": "https://dc.lft.to/lastmile_qr_scan", "ios": "https://dc.lft.to/lastmile_qr_scan"}, "bike_id": "e82874e35eac7c793c0ea1fe34bc2535", "is_reserved": 0}, {"lat": 38.91913066666667, "fusion_lon": 0.0, "lon": -77.03116866666667, "is_disabled": 0, "type": "electric_scooter", "name": "bc390f6f9adb6bea35a1da9784b8e048", "fusion_lat": 0.0, "rental_uris": {"android": "https://dc.lft.to/lastmile_qr_scan", "ios": "https://dc.lft.to/lastmile_qr_scan"}, "bike_id": "bc390f6f9adb6bea35a1da9784b8e048", "is_reserved": 0}, {"lat": 38.897346, "fusion_lon": 0.0, "lon": -77.05567966666666, "is_disabled": 0, "type": "electric_scooter", "name": "35951a71dc301ebb135fa970b278e546", "fusion_lat": 0.0, "rental_uris": {"android": "https://dc.lft.to/lastmile_qr_scan", "ios": "https://dc.lft.to/lastmile_qr_scan"}, "bike_id": "35951a71dc301ebb135fa970b278e546", "is_reserved": 0}, {"lat": 38.89725333333333, "fusion_lon": 0.0, "lon": -77.02172516666667, "is_disabled": 0, "type": "electric_scooter", "name": "30b58e409887b9c82e775ab1b2876ce3", "fusion_lat": 0.0, "rental_uris": {"android": "https://dc.lft.to/lastmile_qr_scan", "ios": "https://dc.lft.to/lastmile_qr_scan"}, "bike_id": "30b58e409887b9c82e775ab1b2876ce3", "is_reserved": 0}, {"lat": 38.912407333333334, "fusion_lon": 0.0, "lon": -77.0091785, "is_disabled": 0, "type": "electric_scooter", "name": "5e6e2d5cd7db7f0d58a82b11436bcba6", "fusion_lat": 0.0, "rental_uris": {"android": "https://dc.lft.to/lastmile_qr_scan", "ios": "https://dc.lft.to/lastmile_qr_scan"}, "bike_id": "5e6e2d5cd7db7f0d58a82b11436bcba6", "is_reserved": 0}, {"lat": 38.91849033333333, "fusion_lon": 0.0, "lon": -76.96554016666667, "is_disabled": 0, "type": "electric_scooter", "name": "c939f99ba58c8f6793d7f1be3b0e3e72", "fusion_lat": 0.0, "rental_uris": {"android": "https://dc.lft.to/lastmile_qr_scan", "ios": "https://dc.lft.to/lastmile_qr_scan"}, "bike_id": "c939f99ba58c8f6793d7f1be3b0e3e72", "is_reserved": 0}, {"lat": 38.90394516666667, "fusion_lon": 0.0, "lon": -77.03008133333333, "is_disabled": 0, "type": "electric_scooter", "name": "c70d9c0c2990ce441d606253675c7803", "fusion_lat": 0.0, "rental_uris": {"android": "https://dc.lft.to/lastmile_qr_scan", "ios": "https://dc.lft.to/lastmile_qr_scan"}, "bike_id": "c70d9c0c2990ce441d606253675c7803", "is_reserved": 0}, {"lat": 38.908983166666665, "fusion_lon": 0.0, "lon": -76.99620983333334, "is_disabled": 0, "type": "electric_scooter", "name": "4c2282f0efe798726e4b8ee5038af93b", "fusion_lat": 0.0, "rental_uris": {"android": "https://dc.lft.to/lastmile_qr_scan", "ios": "https://dc.lft.to/lastmile_qr_scan"}, "bike_id": "4c2282f0efe798726e4b8ee5038af93b", "is_reserved": 0}, {"lat": 38.89615516666667, "fusion_lon": 0.0, "lon": -76.907452, "is_disabled": 0, "type": "electric_bike", "name": "1a8c5b51fae32ef307e59805f5edeb5e", "fusion_lat": 0.0, "rental_uris": {"android": "https://dc.lft.to/lastmile_qr_scan", "ios": "https://dc.lft.to/lastmile_qr_scan"}, "bike_id": "1a8c5b51fae32ef307e59805f5edeb5e", "is_reserved": 0}, {"lat": 38.866580166666665, "fusion_lon": 0.0, "lon": -76.98516316666667, "is_disabled": 0, "type": "electric_scooter", "name": "96000f5a0e114a2cfb001d7b8a5e4e97", "fusion_lat": 0.0, "rental_uris": {"android": "https://dc.lft.to/lastmile_qr_scan", "ios": "https://dc.lft.to/lastmile_qr_scan"}, "bike_id": "96000f5a0e114a2cfb001d7b8a5e4e97", "is_reserved": 0}, {"lat": 38.92158033333333, "fusion_lon": 0.0, "lon": -77.02092383333333, "is_disabled": 0, "type": "electric_scooter", "name": "10d8721cc292523193d78bc1a5e5f968", "fusion_lat": 0.0, "rental_uris": {"android": "https://dc.lft.to/lastmile_qr_scan", "ios": "https://dc.lft.to/lastmile_qr_scan"}, "bike_id": "10d8721cc292523193d78bc1a5e5f968", "is_reserved": 0}, {"lat": 38.89167116666667, "fusion_lon": 0.0, "lon": -76.91193683333333, "is_disabled": 0, "type": "electric_scooter", "name": "43ea3f665d8beaafb8140cc28d34ad8b", "fusion_lat": 0.0, "rental_uris": {"android": "https://dc.lft.to/lastmile_qr_scan", "ios": "https://dc.lft.to/lastmile_qr_scan"}, "bike_id": "43ea3f665d8beaafb8140cc28d34ad8b", "is_reserved": 0}, {"lat": 38.93229316666667, "fusion_lon": 0.0, "lon": -77.03869666666667, "is_disabled": 0, "type": "electric_scooter", "name": "ca99e956386faac79aef2aff9d8da572", "fusion_lat": 0.0, "rental_uris": {"android": "https://dc.lft.to/lastmile_qr_scan", "ios": "https://dc.lft.to/lastmile_qr_scan"}, "bike_id": "ca99e956386faac79aef2aff9d8da572", "is_reserved": 0}, {"lat": 38.92176533333333, "fusion_lon": 0.0, "lon": -77.021067, "is_disabled": 0, "type": "electric_scooter", "name": "73643bb74e470c57df96157939794c8e", "fusion_lat": 0.0, "rental_uris": {"android": "https://dc.lft.to/lastmile_qr_scan", "ios": "https://dc.lft.to/lastmile_qr_scan"}, "bike_id": "73643bb74e470c57df96157939794c8e", "is_reserved": 0}, {"lat": 38.891469, "fusion_lon": 0.0, "lon": -76.98379833333334, "is_disabled": 0, "type": "electric_scooter", "name": "ecb07be4bc76d4bdaabd4b498aa927ef", "fusion_lat": 0.0, "rental_uris": {"android": "https://dc.lft.to/lastmile_qr_scan", "ios": "https://dc.lft.to/lastmile_qr_scan"}, "bike_id": "ecb07be4bc76d4bdaabd4b498aa927ef", "is_reserved": 0}, {"lat": 38.924169, "fusion_lon": 0.0, "lon": -77.02274333333334, "is_disabled": 0, "type": "electric_scooter", "name": "b73737050e00e102b96aeca0367f6ce9", "fusion_lat": 0.0, "rental_uris": {"android": "https://dc.lft.to/lastmile_qr_scan", "ios": "https://dc.lft.to/lastmile_qr_scan"}, "bike_id": "b73737050e00e102b96aeca0367f6ce9", "is_reserved": 0}, {"lat": 38.911078333333336, "fusion_lon": 0.0, "lon": -77.032206, "is_disabled": 0, "type": "electric_scooter", "name": "579171cb5fcb0f642bab02593d151037", "fusion_lat": 0.0, "rental_uris": {"android": "https://dc.lft.to/lastmile_qr_scan", "ios": "https://dc.lft.to/lastmile_qr_scan"}, "bike_id": "579171cb5fcb0f642bab02593d151037", "is_reserved": 0}, {"lat": 38.87156316666667, "fusion_lon": 0.0, "lon": -76.977469, "is_disabled": 0, "type": "electric_scooter", "name": "832ab244b06d28eb811ce2ce1f0f364a", "fusion_lat": 0.0, "rental_uris": {"android": "https://dc.lft.to/lastmile_qr_scan", "ios": "https://dc.lft.to/lastmile_qr_scan"}, "bike_id": "832ab244b06d28eb811ce2ce1f0f364a", "is_reserved": 0}, {"lat": 38.91711766666667, "fusion_lon": 0.0, "lon": -77.03348766666667, "is_disabled": 0, "type": "electric_scooter", "name": "5c25beaf0177319e4eab11175cf5064d", "fusion_lat": 0.0, "rental_uris": {"android": "https://dc.lft.to/lastmile_qr_scan", "ios": "https://dc.lft.to/lastmile_qr_scan"}, "bike_id": "5c25beaf0177319e4eab11175cf5064d", "is_reserved": 0}, {"lat": 38.9323345, "fusion_lon": 0.0, "lon": -77.03867266666667, "is_disabled": 0, "type": "electric_scooter", "name": "4e89e2fb5d645ec18a1c5a0868ac84b6", "fusion_lat": 0.0, "rental_uris": {"android": "https://dc.lft.to/lastmile_qr_scan", "ios": "https://dc.lft.to/lastmile_qr_scan"}, "bike_id": "4e89e2fb5d645ec18a1c5a0868ac84b6", "is_reserved": 0}, {"lat": 38.907702, "fusion_lon": 0.0, "lon": -77.03505516666667, "is_disabled": 0, "type": "electric_scooter", "name": "8c73ed715af361d5771241d9627bcf96", "fusion_lat": 0.0, "rental_uris": {"android": "https://dc.lft.to/lastmile_qr_scan", "ios": "https://dc.lft.to/lastmile_qr_scan"}, "bike_id": "8c73ed715af361d5771241d9627bcf96", "is_reserved": 0}, {"lat": 38.954379333333335, "fusion_lon": 0.0, "lon": -76.989193, "is_disabled": 0, "type": "electric_bike", "name": "e662055797a77c811c12cd7fc1798ce0", "fusion_lat": 0.0, "rental_uris": {"android": "https://dc.lft.to/lastmile_qr_scan", "ios": "https://dc.lft.to/lastmile_qr_scan"}, "bike_id": "e662055797a77c811c12cd7fc1798ce0", "is_reserved": 0}, {"lat": 38.91705533333333, "fusion_lon": 0.0, "lon": -77.03589883333333, "is_disabled": 0, "type": "electric_scooter", "name": "d6a8f807e6533b578e60ac89cebd5843", "fusion_lat": 0.0, "rental_uris": {"android": "https://dc.lft.to/lastmile_qr_scan", "ios": "https://dc.lft.to/lastmile_qr_scan"}, "bike_id": "d6a8f807e6533b578e60ac89cebd5843", "is_reserved": 0}, {"lat": 38.931650833333336, "fusion_lon": 0.0, "lon": -76.8841225, "is_disabled": 0, "type": "electric_bike", "name": "c7206e1e79697488a04c8f03d1114d23", "fusion_lat": 0.0, "rental_uris": {"android": "https://dc.lft.to/lastmile_qr_scan", "ios": "https://dc.lft.to/lastmile_qr_scan"}, "bike_id": "c7206e1e79697488a04c8f03d1114d23", "is_reserved": 0}, {"lat": 38.917133666666665, "fusion_lon": 0.0, "lon": -77.03246566666667, "is_disabled": 0, "type": "electric_scooter", "name": "aaf2a47e10a4bf3dfc860daa388d3f01", "fusion_lat": 0.0, "rental_uris": {"android": "https://dc.lft.to/lastmile_qr_scan", "ios": "https://dc.lft.to/lastmile_qr_scan"}, "bike_id": "aaf2a47e10a4bf3dfc860daa388d3f01", "is_reserved": 0}, {"lat": 38.922427, "fusion_lon": 0.0, "lon": -77.036635, "is_disabled": 0, "type": "electric_scooter", "name": "359b2d2c905b8b8ebc85c8f1985bcfd0", "fusion_lat": 0.0, "rental_uris": {"android": "https://dc.lft.to/lastmile_qr_scan", "ios": "https://dc.lft.to/lastmile_qr_scan"}, "bike_id": "359b2d2c905b8b8ebc85c8f1985bcfd0", "is_reserved": 0}, {"lat": 38.894059, "fusion_lon": 0.0, "lon": -77.0241625, "is_disabled": 0, "type": "electric_scooter", "name": "36d84bb275fce63f627eb8f5f59a9203", "fusion_lat": 0.0, "rental_uris": {"android": "https://dc.lft.to/lastmile_qr_scan", "ios": "https://dc.lft.to/lastmile_qr_scan"}, "bike_id": "36d84bb275fce63f627eb8f5f59a9203", "is_reserved": 0}, {"lat": 38.86484, "fusion_lon": 0.0, "lon": -76.97748116666666, "is_disabled": 0, "type": "electric_bike", "name": "646666a7d87133cc50dfcb69fd25b128", "fusion_lat": 0.0, "rental_uris": {"android": "https://dc.lft.to/lastmile_qr_scan", "ios": "https://dc.lft.to/lastmile_qr_scan"}, "bike_id": "646666a7d87133cc50dfcb69fd25b128", "is_reserved": 0}, {"lat": 38.92965, "fusion_lon": 0.0, "lon": -77.18561916666667, "is_disabled": 0, "type": "electric_bike", "name": "ff39b4ddb72ea0380e08135f449f2a04", "fusion_lat": 0.0, "rental_uris": {"android": "https://dc.lft.to/lastmile_qr_scan", "ios": "https://dc.lft.to/lastmile_qr_scan"}, "bike_id": "ff39b4ddb72ea0380e08135f449f2a04", "is_reserved": 0}, {"lat": 38.916827166666664, "fusion_lon": 0.0, "lon": -77.03689933333334, "is_disabled": 0, "type": "electric_scooter", "name": "e48e5e8debe90c6c45841a294507ac2b", "fusion_lat": 0.0, "rental_uris": {"android": "https://dc.lft.to/lastmile_qr_scan", "ios": "https://dc.lft.to/lastmile_qr_scan"}, "bike_id": "e48e5e8debe90c6c45841a294507ac2b", "is_reserved": 0}, {"lat": 39.05506866666666, "fusion_lon": 0.0, "lon": -77.04647866666667, "is_disabled": 0, "type": "electric_bike", "name": "cfb9fcbeadf63263d039220481e0da01", "fusion_lat": 0.0, "rental_uris": {"android": "https://dc.lft.to/lastmile_qr_scan", "ios": "https://dc.lft.to/lastmile_qr_scan"}, "bike_id": "cfb9fcbeadf63263d039220481e0da01", "is_reserved": 0}, {"lat": 38.88611566666667, "fusion_lon": 0.0, "lon": -76.99512566666667, "is_disabled": 0, "type": "electric_scooter", "name": "47da2450abd614babf43f936ba5d1e5d", "fusion_lat": 0.0, "rental_uris": {"android": "https://dc.lft.to/lastmile_qr_scan", "ios": "https://dc.lft.to/lastmile_qr_scan"}, "bike_id": "47da2450abd614babf43f936ba5d1e5d", "is_reserved": 0}, {"lat": 38.91692116666667, "fusion_lon": 0.0, "lon": -77.02595083333334, "is_disabled": 0, "type": "electric_scooter", "name": "2fbcf8f323cb2cefc12075f29f7752c5", "fusion_lat": 0.0, "rental_uris": {"android": "https://dc.lft.to/lastmile_qr_scan", "ios": "https://dc.lft.to/lastmile_qr_scan"}, "bike_id": "2fbcf8f323cb2cefc12075f29f7752c5", "is_reserved": 0}, {"lat": 38.930481666666665, "fusion_lon": 0.0, "lon": -77.03127133333334, "is_disabled": 0, "type": "electric_scooter", "name": "818d3779776d35b3e34926ab03bbad5e", "fusion_lat": 0.0, "rental_uris": {"android": "https://dc.lft.to/lastmile_qr_scan", "ios": "https://dc.lft.to/lastmile_qr_scan"}, "bike_id": "818d3779776d35b3e34926ab03bbad5e", "is_reserved": 0}, {"lat": 38.922575333333334, "fusion_lon": 0.0, "lon": -77.03517816666667, "is_disabled": 0, "type": "electric_scooter", "name": "153ffcefffb2620d11cdfb2739e55f25", "fusion_lat": 0.0, "rental_uris": {"android": "https://dc.lft.to/lastmile_qr_scan", "ios": "https://dc.lft.to/lastmile_qr_scan"}, "bike_id": "153ffcefffb2620d11cdfb2739e55f25", "is_reserved": 0}, {"lat": 38.9224945, "fusion_lon": 0.0, "lon": -77.0306575, "is_disabled": 0, "type": "electric_scooter", "name": "3b23882ca01046438fe48f9e3d1fb2ec", "fusion_lat": 0.0, "rental_uris": {"android": "https://dc.lft.to/lastmile_qr_scan", "ios": "https://dc.lft.to/lastmile_qr_scan"}, "bike_id": "3b23882ca01046438fe48f9e3d1fb2ec", "is_reserved": 0}, {"lat": 38.96959283333333, "fusion_lon": 0.0, "lon": -76.9575045, "is_disabled": 0, "type": "electric_bike", "name": "0cb8acc606ecb7bd5021ff7d2e16f607", "fusion_lat": 0.0, "rental_uris": {"android": "https://dc.lft.to/lastmile_qr_scan", "ios": "https://dc.lft.to/lastmile_qr_scan"}, "bike_id": "0cb8acc606ecb7bd5021ff7d2e16f607", "is_reserved": 0}, {"lat": 38.90503116666667, "fusion_lon": 0.0, "lon": -77.04819966666666, "is_disabled": 0, "type": "electric_scooter", "name": "97e49e0cfcfacdd08a82af21b2f7d293", "fusion_lat": 0.0, "rental_uris": {"android": "https://dc.lft.to/lastmile_qr_scan", "ios": "https://dc.lft.to/lastmile_qr_scan"}, "bike_id": "97e49e0cfcfacdd08a82af21b2f7d293", "is_reserved": 0}, {"lat": 38.860145, "fusion_lon": 0.0, "lon": -76.98511033333334, "is_disabled": 0, "type": "electric_scooter", "name": "0a752d7728fed99117aa87541db38738", "fusion_lat": 0.0, "rental_uris": {"android": "https://dc.lft.to/lastmile_qr_scan", "ios": "https://dc.lft.to/lastmile_qr_scan"}, "bike_id": "0a752d7728fed99117aa87541db38738", "is_reserved": 0}, {"lat": 38.92757533333333, "fusion_lon": 0.0, "lon": -77.0327685, "is_disabled": 0, "type": "electric_scooter", "name": "13a73507536a1b4475cb6fa845dae4a6", "fusion_lat": 0.0, "rental_uris": {"android": "https://dc.lft.to/lastmile_qr_scan", "ios": "https://dc.lft.to/lastmile_qr_scan"}, "bike_id": "13a73507536a1b4475cb6fa845dae4a6", "is_reserved": 0}, {"lat": 38.902358666666665, "fusion_lon": 0.0, "lon": -77.02820716666666, "is_disabled": 0, "type": "electric_scooter", "name": "34aeec60f6da3093f88997fb6385630c", "fusion_lat": 0.0, "rental_uris": {"android": "https://dc.lft.to/lastmile_qr_scan", "ios": "https://dc.lft.to/lastmile_qr_scan"}, "bike_id": "34aeec60f6da3093f88997fb6385630c", "is_reserved": 0}, {"lat": 38.884072833333335, "fusion_lon": 0.0, "lon": -77.01754933333333, "is_disabled": 0, "type": "electric_scooter", "name": "ea14a0b41109e6642155d245b034e2e7", "fusion_lat": 0.0, "rental_uris": {"android": "https://dc.lft.to/lastmile_qr_scan", "ios": "https://dc.lft.to/lastmile_qr_scan"}, "bike_id": "ea14a0b41109e6642155d245b034e2e7", "is_reserved": 0}, {"lat": 38.8873985, "fusion_lon": 0.0, "lon": -77.0153555, "is_disabled": 0, "type": "electric_scooter", "name": "518fe43b955f2d1b199fcc575c9e3d5a", "fusion_lat": 0.0, "rental_uris": {"android": "https://dc.lft.to/lastmile_qr_scan", "ios": "https://dc.lft.to/lastmile_qr_scan"}, "bike_id": "518fe43b955f2d1b199fcc575c9e3d5a", "is_reserved": 0}, {"lat": 38.8999145, "fusion_lon": 0.0, "lon": -77.00669616666667, "is_disabled": 0, "type": "electric_scooter", "name": "9ebf6daea3f265983631d56358e9631d", "fusion_lat": 0.0, "rental_uris": {"android": "https://dc.lft.to/lastmile_qr_scan", "ios": "https://dc.lft.to/lastmile_qr_scan"}, "bike_id": "9ebf6daea3f265983631d56358e9631d", "is_reserved": 0}, {"lat": 38.905144666666665, "fusion_lon": 0.0, "lon": -77.04661333333334, "is_disabled": 0, "type": "electric_scooter", "name": "0157e473b265b29cbaf970e19c1253ad", "fusion_lat": 0.0, "rental_uris": {"android": "https://dc.lft.to/lastmile_qr_scan", "ios": "https://dc.lft.to/lastmile_qr_scan"}, "bike_id": "0157e473b265b29cbaf970e19c1253ad", "is_reserved": 0}, {"lat": 38.90882083333333, "fusion_lon": 0.0, "lon": -76.99851483333333, "is_disabled": 0, "type": "electric_scooter", "name": "99022abb2efaa576dc693b72790527f2", "fusion_lat": 0.0, "rental_uris": {"android": "https://dc.lft.to/lastmile_qr_scan", "ios": "https://dc.lft.to/lastmile_qr_scan"}, "bike_id": "99022abb2efaa576dc693b72790527f2", "is_reserved": 0}, {"lat": 38.90586416666667, "fusion_lon": 0.0, "lon": -77.0222565, "is_disabled": 0, "type": "electric_scooter", "name": "6dd0c316503169a32f7cc28b6f9b64b2", "fusion_lat": 0.0, "rental_uris": {"android": "https://dc.lft.to/lastmile_qr_scan", "ios": "https://dc.lft.to/lastmile_qr_scan"}, "bike_id": "6dd0c316503169a32f7cc28b6f9b64b2", "is_reserved": 0}, {"lat": 38.94074033333333, "fusion_lon": 0.0, "lon": -77.02545366666666, "is_disabled": 0, "type": "electric_scooter", "name": "75c805ce49badca5d5c77dcdd546cb23", "fusion_lat": 0.0, "rental_uris": {"android": "https://dc.lft.to/lastmile_qr_scan", "ios": "https://dc.lft.to/lastmile_qr_scan"}, "bike_id": "75c805ce49badca5d5c77dcdd546cb23", "is_reserved": 0}, {"lat": 38.8621725, "fusion_lon": 0.0, "lon": -76.994797, "is_disabled": 0, "type": "electric_scooter", "name": "5f90e9c16035cfb8c4e3891286ed46ce", "fusion_lat": 0.0, "rental_uris": {"android": "https://dc.lft.to/lastmile_qr_scan", "ios": "https://dc.lft.to/lastmile_qr_scan"}, "bike_id": "5f90e9c16035cfb8c4e3891286ed46ce", "is_reserved": 0}, {"lat": 38.9017875, "fusion_lon": 0.0, "lon": -76.9286505, "is_disabled": 0, "type": "electric_scooter", "name": "47d9ed9676b8d76a6ceef0db47296e33", "fusion_lat": 0.0, "rental_uris": {"android": "https://dc.lft.to/lastmile_qr_scan", "ios": "https://dc.lft.to/lastmile_qr_scan"}, "bike_id": "47d9ed9676b8d76a6ceef0db47296e33", "is_reserved": 0},