{"data": {"bikes": [{"bike_id": "d1245ae582ef159b6f18b6f51ef950da", "type": "electric_scooter", "is_disabled": 0, "lat": 38.9198285, "rental_uris": {"ios": "https://dc.lft.to/lastmile_qr_scan", "android": "https://dc.lft.to/lastmile_qr_scan"}, "is_reserved": 0, "fusion_lon": 0.0, "fusion_lat": 0.0, "lon": -77.017897, "name": "d1245ae582ef159b6f18b6f51ef950da"}, {"bike_id": "9852e768388eea96331ae39b1a82fa1a", "type": "electric_scooter", "is_disabled": 0, "lat": 38.914618833333336, "rental_uris": {"ios": "https://dc.lft.to/lastmile_qr_scan", "android": "https://dc.lft.to/lastmile_qr_scan"}, "is_reserved": 0, "fusion_lon": 0.0, "fusion_lat": 0.0, "lon": -77.002138, "name": "9852e768388eea96331ae39b1a82fa1a"}, {"bike_id": "db63887844b2a43a05d6435d0397e976", "type": "electric_scooter", "is_disabled": 0, "lat": 38.9236135, "rental_uris": {"ios": "https://dc.lft.to/lastmile_qr_scan", "android": "https://dc.lft.to/lastmile_qr_scan"}, "is_reserved": 0, "fusion_lon": 0.0, "fusion_lat": 0.0, "lon": -77.0512815, "name": "db63887844b2a43a05d6435d0397e976"}, {"bike_id": "4c93d73acdfa6d201bdc15a70ce579b3", "type": "electric_bike", "is_disabled": 0, "lat": 38.895644833333336, "rental_uris": {"ios": "https://dc.lft.to/lastmile_qr_scan", "android": "https://dc.lft.to/lastmile_qr_scan"}, "is_reserved": 0, "fusion_lon": 0.0, "fusion_lat": 0.0, "lon": -77.1273495, "name": "4c93d73acdfa6d201bdc15a70ce579b3"}, {"bike_id": "c660c445ee5a5ece1646c197f8c6517b", "type": "electric_scooter", "is_disabled": 0, "lat": 38.922721, "rental_uris": {"ios": "https://dc.lft.to/lastmile_qr_scan", "android": "https://dc.lft.to/lastmile_qr_scan"}, "is_reserved": 0, "fusion_lon": 0.0, "fusion_lat": 0.0, "lon": -77.0366545, "name": "c660c445ee5a5ece1646c197f8c6517b"}, {"bike_id": "4786d8be7753e63a49017b8099efeaff", "type": "electric_bike", "is_disabled": 0, "lat": 38.83606483333333, "rental_uris": {"ios": "https://dc.lft.to/lastmile_qr_scan", "android": "https://dc.lft.to/lastmile_qr_scan"}, "is_reserved": 0, "fusion_lon": 0.0, "fusion_lat": 0.0, "lon": -77.00382483333334, "name": "4786d8be7753e63a49017b8099efeaff"}, {"bike_id": "9421a8191c0049e16dfab1f88dc2b313", "type": "electric_scooter", "is_disabled": 0, "lat": 38.939518, "rental_uris": {"ios": "https://dc.lft.to/lastmile_qr_scan", "android": "https://dc.lft.to/lastmile_qr_scan"}, "is_reserved": 0, "fusion_lon": 0.0, "fusion_lat": 0.0, "lon": -77.07261833333334, "name": "9421a8191c0049e16dfab1f88dc2b313"}, {"bike_id": "e7428a65fc0a74082b2e938a443032a0", "type": "electric_scooter", "is_disabled": 0, "lat": 38.900890833333335, "rental_uris": {"ios": "https://dc.lft.to/lastmile_qr_scan", "android": "https://dc.lft.to/lastmile_qr_scan"}, "is_reserved": 0, "fusion_lon": 0.0, "fusion_lat": 0.0, "lon": -77.03810133333333, "name": "e7428a65fc0a74082b2e938a443032a0"}, {"bike_id": "3b9af9d6d94c478dc8afa3c084ebb2f9", "type": "electric_scooter", "is_disabled": 0, "lat": 38.864685333333334, "rental_uris": {"ios": "https://dc.lft.to/lastmile_qr_scan", "android": "https://dc.lft.to/lastmile_qr_scan"}, "is_reserved": 0, "fusion_lon": 0.0, "fusion_lat": 0.0, "lon": -77.00010766666666, "name": "3b9af9d6d94c478dc8afa3c084ebb2f9"}, {"bike_id": "31b46b4d0c0225611aeffa0b367c8f95", "type": "electric_scooter", "is_disabled": 0, "lat": 38.84314716666667, "rental_uris": {"ios": "https://dc.lft.to/lastmile_qr_scan", "android": "https://dc.lft.to/lastmile_qr_scan"}, "is_reserved": 0, "fusion_lon": 0.0, "fusion_lat": 0.0, "lon": -76.99930683333334, "name": "31b46b4d0c0225611aeffa0b367c8f95"}, {"bike_id": "4cf2502312dbd18298f895b9ab49708b", "type": "electric_scooter", "is_disabled": 0, "lat": 38.9110165, "rental_uris": {"ios": "https://dc.lft.to/lastmile_qr_scan", "android": "https://dc.lft.to/lastmile_qr_scan"}, "is_reserved": 0, "fusion_lon": 0.0, "fusion_lat": 0.0, "lon": -77.04520333333333, "name": "4cf2502312dbd18298f895b9ab49708b"}, {"bike_id": "65f82d513a127750590637e80e0e4d41", "type": "electric_scooter", "is_disabled": 0, "lat": 38.9133255, "rental_uris": {"ios": "https://dc.lft.to/lastmile_qr_scan", "android": "https://dc.lft.to/lastmile_qr_scan"}, "is_reserved": 0, "fusion_lon": 0.0, "fusion_lat": 0.0, "lon": -77.03991683333334, "name": "65f82d513a127750590637e80e0e4d41"}, {"bike_id": "4b34be2b8fc9ba7d5f6b89ea187f30ca", "type": "electric_scooter", "is_disabled": 0, "lat": 38.904047, "rental_uris": {"ios": "https://dc.lft.to/lastmile_qr_scan", "android": "https://dc.lft.to/lastmile_qr_scan"}, "is_reserved": 0, "fusion_lon": 0.0, "fusion_lat": 0.0, "lon": -76.97326, "name": "4b34be2b8fc9ba7d5f6b89ea187f30ca"}, {"bike_id": "90f9e4130a70a9ce7affab4f12f57dce", "type": "electric_scooter", "is_disabled": 0, "lat": 38.8962135, "rental_uris": {"ios": "https://dc.lft.to/lastmile_qr_scan", "android": "https://dc.lft.to/lastmile_qr_scan"}, "is_reserved": 0, "fusion_lon": 0.0, "fusion_lat": 0.0, "lon": -77.01084566666667, "name": "90f9e4130a70a9ce7affab4f12f57dce"}, {"bike_id": "3d9d5b7b841b9b378b27c1080f35728c", "type": "electric_scooter", "is_disabled": 0, "lat": 38.898269666666664, "rental_uris": {"ios": "https://dc.lft.to/lastmile_qr_scan", "android": "https://dc.lft.to/lastmile_qr_scan"}, "is_reserved": 0, "fusion_lon": 0.0, "fusion_lat": 0.0, "lon": -76.91950966666667, "name": "3d9d5b7b841b9b378b27c1080f35728c"}, {"bike_id": "7f764077ef8d5901136cdfa23695eaed", "type": "electric_scooter", "is_disabled": 0, "lat": 38.923205, "rental_uris": {"ios": "https://dc.lft.to/lastmile_qr_scan", "android": "https://dc.lft.to/lastmile_qr_scan"}, "is_reserved": 0, "fusion_lon": 0.0, "fusion_lat": 0.0, "lon": -77.02135166666666, "name": "7f764077ef8d5901136cdfa23695eaed"}, {"bike_id": "26da90dc6b1c733bde21d27bf9fb1de1", "type": "electric_scooter", "is_disabled": 0, "lat": 38.9200465, "rental_uris": {"ios": "https://dc.lft.to/lastmile_qr_scan", "android": "https://dc.lft.to/lastmile_qr_scan"}, "is_reserved": 0, "fusion_lon": 0.0, "fusion_lat": 0.0, "lon": -76.98495333333334, "name": "26da90dc6b1c733bde21d27bf9fb1de1"}, {"bike_id": "985b3144b0c610a48de562a9f8f6e22e", "type": "electric_scooter", "is_disabled": 0, "lat": 38.917047333333336, "rental_uris": {"ios": "https://dc.lft.to/lastmile_qr_scan", "android": "https://dc.lft.to/lastmile_qr_scan"}, "is_reserved": 0, "fusion_lon": 0.0, "fusion_lat": 0.0, "lon": -77.09578083333334, "name": "985b3144b0c610a48de562a9f8f6e22e"}, {"bike_id": "2826782b77cbf6845688a430da1aa89f", "type": "electric_scooter", "is_disabled": 0, "lat": 38.883831666666666, "rental_uris": {"ios": "https://dc.lft.to/lastmile_qr_scan", "android": "https://dc.lft.to/lastmile_qr_scan"}, "is_reserved": 0, "fusion_lon": 0.0, "fusion_lat": 0.0, "lon": -77.01769733333333, "name": "2826782b77cbf6845688a430da1aa89f"}, {"bike_id": "6501dcd598edb330ed7206f4edff6772", "type": "electric_scooter", "is_disabled": 0, "lat": 38.928036166666665, "rental_uris": {"ios": "https://dc.lft.to/lastmile_qr_scan", "android": "https://dc.lft.to/lastmile_qr_scan"}, "is_reserved": 0, "fusion_lon": 0.0, "fusion_lat": 0.0, "lon": -77.03595516666667, "name": "6501dcd598edb330ed7206f4edff6772"}, {"bike_id": "7d11b90f7e0285c65322c16b4268bd2b", "type": "electric_bike", "is_disabled": 0, "lat": 38.91243266666667, "rental_uris": {"ios": "https://dc.lft.to/lastmile_qr_scan", "android": "https://dc.lft.to/lastmile_qr_scan"}, "is_reserved": 0, "fusion_lon": 0.0, "fusion_lat": 0.0, "lon": -77.08735133333333, "name": "7d11b90f7e0285c65322c16b4268bd2b"}, {"bike_id": "f73ddb009f45311bb11a69ab17b431e4", "type": "electric_scooter", "is_disabled": 0, "lat": 38.926029, "rental_uris": {"ios": "https://dc.lft.to/lastmile_qr_scan", "android": "https://dc.lft.to/lastmile_qr_scan"}, "is_reserved": 0, "fusion_lon": 0.0, "fusion_lat": 0.0, "lon": -77.0376475, "name": "f73ddb009f45311bb11a69ab17b431e4"}, {"bike_id": "aacd38a2f6494bf2f5acae316944f825", "type": "electric_scooter", "is_disabled": 0, "lat": 38.9227975, "rental_uris": {"ios": "https://dc.lft.to/lastmile_qr_scan", "android": "https://dc.lft.to/lastmile_qr_scan"}, "is_reserved": 0, "fusion_lon": 0.0, "fusion_lat": 0.0, "lon": -76.9947165, "name": "aacd38a2f6494bf2f5acae316944f825"}, {"bike_id": "835ff76c55204453aace12e8b9ef9877", "type": "electric_scooter", "is_disabled": 0, "lat": 38.957303333333336, "rental_uris": {"ios": "https://dc.lft.to/lastmile_qr_scan", "android": "https://dc.lft.to/lastmile_qr_scan"}, "is_reserved": 0, "fusion_lon": 0.0, "fusion_lat": 0.0, "lon": -77.023997, "name": "835ff76c55204453aace12e8b9ef9877"}, {"bike_id": "e761efe4d679be0c508fc3ac82e12fea", "type": "electric_scooter", "is_disabled": 0, "lat": 38.927671, "rental_uris": {"ios": "https://dc.lft.to/lastmile_qr_scan", "android": "https://dc.lft.to/lastmile_qr_scan"}, "is_reserved": 0, "fusion_lon": 0.0, "fusion_lat": 0.0, "lon": -76.98752016666667, "name": "e761efe4d679be0c508fc3ac82e12fea"}, {"bike_id": "a2b5213290f17ad2f3afc8a001d80459", "type": "electric_bike", "is_disabled": 0, "lat": 38.937687833333335, "rental_uris": {"ios": "https://dc.lft.to/lastmile_qr_scan", "android": "https://dc.lft.to/lastmile_qr_scan"}, "is_reserved": 0, "fusion_lon": 0.0, "fusion_lat": 0.0, "lon": -77.01911016666666, "name": "a2b5213290f17ad2f3afc8a001d80459"}, {"bike_id": "1f87cd2a97c70c207ef9488e7ffc51d9", "type": "electric_scooter", "is_disabled": 0, "lat": 38.866829833333334, "rental_uris": {"ios": "https://dc.lft.to/lastmile_qr_scan", "android": "https://dc.lft.to/lastmile_qr_scan"}, "is_reserved": 0, "fusion_lon": 0.0, "fusion_lat": 0.0, "lon": -76.985843, "name": "1f87cd2a97c70c207ef9488e7ffc51d9"}, {"bike_id": "7eeaaef42130b1680b50e052bc3c8c28", "type": "electric_scooter", "is_disabled": 0, "lat": 38.862112, "rental_uris": {"ios": "https://dc.lft.to/lastmile_qr_scan", "android": "https://dc.lft.to/lastmile_qr_scan"}, "is_reserved": 0, "fusion_lon": 0.0, "fusion_lat": 0.0, "lon": -76.99469766666667, "name": "7eeaaef42130b1680b50e052bc3c8c28"}, {"bike_id": "010c273e7b72f9fefbdb16997deb543f", "type": "electric_scooter", "is_disabled": 0, "lat": 38.89538816666666, "rental_uris": {"ios": "https://dc.lft.to/lastmile_qr_scan", "android": "https://dc.lft.to/lastmile_qr_scan"}, "is_reserved": 0, "fusion_lon": 0.0, "fusion_lat": 0.0, "lon": -76.94927383333334, "name": "010c273e7b72f9fefbdb16997deb543f"}, {"bike_id": "c4c14152a9fa1d48bdb49f81aac080a3", "type": "electric_bike", "is_disabled": 0, "lat": 38.943599, "rental_uris": {"ios": "https://dc.lft.to/lastmile_qr_scan", "android": "https://dc.lft.to/lastmile_qr_scan"}, "is_reserved": 0, "fusion_lon": 0.0, "fusion_lat": 0.0, "lon": -76.96774716666667, "name": "c4c14152a9fa1d48bdb49f81aac080a3"}, {"bike_id": "ffea0edcd19c5490939b5e384e34d218", "type": "electric_scooter", "is_disabled": 0, "lat": 38.9383825, "rental_uris": {"ios": "https://dc.lft.to/lastmile_qr_scan", "android": "https://dc.lft.to/lastmile_qr_scan"}, "is_reserved": 0, "fusion_lon": 0.0, "fusion_lat": 0.0, "lon": -77.03389533333333, "name": "ffea0edcd19c5490939b5e384e34d218"}, {"bike_id": "d19b9f85591d202f2daee79e2ce880c0", "type": "electric_scooter", "is_disabled": 0, "lat": 38.917654666666664, "rental_uris": {"ios": "https://dc.lft.to/lastmile_qr_scan", "android": "https://dc.lft.to/lastmile_qr_scan"}, "is_reserved": 0, "fusion_lon": 0.0, "fusion_lat": 0.0, "lon": -77.04771166666667, "name": "d19b9f85591d202f2daee79e2ce880c0"}, {"bike_id": "5248fef6603be4a7a7fcc6718b7f9543", "type": "electric_scooter", "is_disabled": 0, "lat": 38.924477333333336, "rental_uris": {"ios": "https://dc.lft.to/lastmile_qr_scan", "android": "https://dc.lft.to/lastmile_qr_scan"}, "is_reserved": 0, "fusion_lon": 0.0, "fusion_lat": 0.0, "lon": -77.032782, "name": "5248fef6603be4a7a7fcc6718b7f9543"}, {"bike_id": "abaa16d9ff534c1c3b1f0733d32dcca5", "type": "electric_scooter", "is_disabled": 0, "lat": 38.89987966666666, "rental_uris": {"ios": "https://dc.lft.to/lastmile_qr_scan", "android": "https://dc.lft.to/lastmile_qr_scan"}, "is_reserved": 0, "fusion_lon": 0.0, "fusion_lat": 0.0, "lon": -76.94999316666667, "name": "abaa16d9ff534c1c3b1f0733d32dcca5"}, {"bike_id": "4ceb09a4f058fc703ecca908479abe1c", "type": "electric_bike", "is_disabled": 0, "lat": 38.85767833333333, "rental_uris": {"ios": "https://dc.lft.to/lastmile_qr_scan", "android": "https://dc.lft.to/lastmile_qr_scan"}, "is_reserved": 0, "fusion_lon": 0.0, "fusion_lat": 0.0, "lon": -76.9876765, "name": "4ceb09a4f058fc703ecca908479abe1c"}, {"bike_id": "a4e4c31680a7471ebf7ba5b02c893bb6", "type": "electric_scooter", "is_disabled": 0, "lat": 38.90668933333333, "rental_uris": {"ios": "https://dc.lft.to/lastmile_qr_scan", "android": "https://dc.lft.to/lastmile_qr_scan"}, "is_reserved": 0, "fusion_lon": 0.0, "fusion_lat": 0.0, "lon": -77.06126916666666, "name": "a4e4c31680a7471ebf7ba5b02c893bb6"}, {"bike_id": "634bba72023f099e894b6a74b6663aa3", "type": "electric_scooter", "is_disabled": 0, "lat": 38.9217585, "rental_uris": {"ios": "https://dc.lft.to/lastmile_qr_scan", "android": "https://dc.lft.to/lastmile_qr_scan"}, "is_reserved": 0, "fusion_lon": 0.0, "fusion_lat": 0.0, "lon": -76.99792016666666, "name": "634bba72023f099e894b6a74b6663aa3"}, {"bike_id": "9047764ea5ef1aad7db484f7eab45ea5", "type": "electric_scooter", "is_disabled": 0, "lat": 38.8589515, "rental_uris": {"ios": "https://dc.lft.to/lastmile_qr_scan", "android": "https://dc.lft.to/lastmile_qr_scan"}, "is_reserved": 0, "fusion_lon": 0.0, "fusion_lat": 0.0, "lon": -76.9973145, "name": "9047764ea5ef1aad7db484f7eab45ea5"}, {"bike_id": "25cd63a28c190cfeaac4dbd6af94abbe", "type": "electric_scooter", "is_disabled": 0, "lat": 38.9095455, "rental_uris": {"ios": "https://dc.lft.to/lastmile_qr_scan", "android": "https://dc.lft.to/lastmile_qr_scan"}, "is_reserved": 0, "fusion_lon": 0.0, "fusion_lat": 0.0, "lon": -77.0142965, "name": "25cd63a28c190cfeaac4dbd6af94abbe"}, {"bike_id": "50053a6e71c22c2d63383f15e4920989", "type": "electric_bike", "is_disabled": 0, "lat": 38.8636835, "rental_uris": {"ios": "https://dc.lft.to/lastmile_qr_scan", "android": "https://dc.lft.to/lastmile_qr_scan"}, "is_reserved": 0, "fusion_lon": 0.0, "fusion_lat": 0.0, "lon": -76.9700695, "name": "50053a6e71c22c2d63383f15e4920989"}, {"bike_id": "be1d0b3fc762d36d590b83eb333b0b9c", "type": "electric_scooter", "is_disabled": 0, "lat": 38.8781195, "rental_uris": {"ios": "https://dc.lft.to/lastmile_qr_scan", "android": "https://dc.lft.to/lastmile_qr_scan"}, "is_reserved": 0, "fusion_lon": 0.0, "fusion_lat": 0.0, "lon": -76.97171783333333, "name": "be1d0b3fc762d36d590b83eb333b0b9c"}, {"bike_id": "43d6801620c4b2ac8bb34554a211274e", "type": "electric_scooter", "is_disabled": 0, "lat": 38.8814455, "rental_uris": {"ios": "https://dc.lft.to/lastmile_qr_scan", "android": "https://dc.lft.to/lastmile_qr_scan"}, "is_reserved": 0, "fusion_lon": 0.0, "fusion_lat": 0.0, "lon": -77.027445, "name": "43d6801620c4b2ac8bb34554a211274e"}, {"bike_id": "67a3d71f65d0ac5ff01bb4df3b44b537", "type": "electric_scooter", "is_disabled": 0, "lat": 38.920412166666665, "rental_uris": {"ios": "https://dc.lft.to/lastmile_qr_scan", "android": "https://dc.lft.to/lastmile_qr_scan"}, "is_reserved": 0, "fusion_lon": 0.0, "fusion_lat": 0.0, "lon": -77.02413916666667, "name": "67a3d71f65d0ac5ff01bb4df3b44b537"}, {"bike_id": "8af05e395c1a289416cec0df81f65bc9", "type": "electric_scooter", "is_disabled": 0, "lat": 38.937633166666664, "rental_uris": {"ios": "https://dc.lft.to/lastmile_qr_scan", "android": "https://dc.lft.to/lastmile_qr_scan"}, "is_reserved": 0, "fusion_lon": 0.0, "fusion_lat": 0.0, "lon": -77.01965466666667, "name": "8af05e395c1a289416cec0df81f65bc9"}, {"bike_id": "e201681d4999dafc1a73bbdc39cda851", "type": "electric_scooter", "is_disabled": 0, "lat": 38.89779266666667, "rental_uris": {"ios": "https://dc.lft.to/lastmile_qr_scan", "android": "https://dc.lft.to/lastmile_qr_scan"}, "is_reserved": 0, "fusion_lon": 0.0, "fusion_lat": 0.0, "lon": -77.0219085, "name": "e201681d4999dafc1a73bbdc39cda851"}, {"bike_id": "6898cc14a2fd7d222ee3f7ddfe59d1ae", "type": "electric_scooter", "is_disabled": 0, "lat": 38.898477666666665, "rental_uris": {"ios": "https://dc.lft.to/lastmile_qr_scan", "android": "https://dc.lft.to/lastmile_qr_scan"}, "is_reserved": 0, "fusion_lon": 0.0, "fusion_lat": 0.0, "lon": -76.99032483333333, "name": "6898cc14a2fd7d222ee3f7ddfe59d1ae"}, {"bike_id": "0cb3ebbd730fb19ad9896b7389375bf4", "type": "electric_scooter", "is_disabled": 0, "lat": 38.929108166666666, "rental_uris": {"ios": "https://dc.lft.to/lastmile_qr_scan", "android": "https://dc.lft.to/lastmile_qr_scan"}, "is_reserved": 0, "fusion_lon": 0.0, "fusion_lat": 0.0, "lon": -77.020869, "name": "0cb3ebbd730fb19ad9896b7389375bf4"}, {"bike_id": "44f192bd7be3d780c4f36a4eafa3cc00", "type": "electric_scooter", "is_disabled": 0, "lat": 38.92036133333333, "rental_uris": {"ios": "https://dc.lft.to/lastmile_qr_scan", "android": "https://dc.lft.to/lastmile_qr_scan"}, "is_reserved": 0, "fusion_lon": 0.0, "fusion_lat": 0.0, "lon": -77.02415316666666, "name": "44f192bd7be3d780c4f36a4eafa3cc00"}, {"bike_id": "5e58a2c3cf5b8f07363d0c5059fda8a7", "type": "electric_scooter", "is_disabled": 0, "lat": 38.905047, "rental_uris": {"ios": "https://dc.lft.to/lastmile_qr_scan", "android": "https://dc.lft.to/lastmile_qr_scan"}, "is_reserved": 0, "fusion_lon": 0.0, "fusion_lat": 0.0, "lon": -77.06382016666667, "name": "5e58a2c3cf5b8f07363d0c5059fda8a7"}, {"bike_id": "a6601ee43d158d78e25c0eec10cc903a", "type": "electric_scooter", "is_disabled": 0, "lat": 38.927715, "rental_uris": {"ios": "https://dc.lft.to/lastmile_qr_scan", "android": "https://dc.lft.to/lastmile_qr_scan"}, "is_reserved": 0, "fusion_lon": 0.0, "fusion_lat": 0.0, "lon": -77.02921816666667, "name": "a6601ee43d158d78e25c0eec10cc903a"}, {"bike_id": "7e7794cfb5b46bb78d381803cd31ec44", "type": "electric_scooter", "is_disabled": 0, "lat": 38.90531716666667, "rental_uris": {"ios": "https://dc.lft.to/lastmile_qr_scan", "android": "https://dc.lft.to/lastmile_qr_scan"}, "is_reserved": 0, "fusion_lon": 0.0, "fusion_lat": 0.0, "lon": -77.059067, "name": "7e7794cfb5b46bb78d381803cd31ec44"}, {"bike_id": "35862f5a75bc6e166b0d2527066e9388", "type": "electric_scooter", "is_disabled": 0, "lat": 38.90954033333333, "rental_uris": {"ios": "https://dc.lft.to/lastmile_qr_scan", "android": "https://dc.lft.to/lastmile_qr_scan"}, "is_reserved": 0, "fusion_lon": 0.0, "fusion_lat": 0.0, "lon": -77.02606433333334, "name": "35862f5a75bc6e166b0d2527066e9388"}, {"bike_id": "bf1c53d26d3a3b40eae47a08c10d7bf8", "type": "electric_scooter", "is_disabled": 0, "lat": 38.90771933333333, "rental_uris": {"ios": "https://dc.lft.to/lastmile_qr_scan", "android": "https://dc.lft.to/lastmile_qr_scan"}, "is_reserved": 0, "fusion_lon": 0.0, "fusion_lat": 0.0, "lon": -77.07168133333333, "name": "bf1c53d26d3a3b40eae47a08c10d7bf8"}, {"bike_id": "ad51beeb4671340e22a7958283d0a6f6", "type": "electric_scooter", "is_disabled": 0, "lat": 38.908161666666665, "rental_uris": {"ios": "https://dc.lft.to/lastmile_qr_scan", "android": "https://dc.lft.to/lastmile_qr_scan"}, "is_reserved": 0, "fusion_lon": 0.0, "fusion_lat": 0.0, "lon": -77.02975066666667, "name": "ad51beeb4671340e22a7958283d0a6f6"}, {"bike_id": "c97137ca11044defd21e88519bc82947", "type": "electric_scooter", "is_disabled": 0, "lat": 38.912702833333334, "rental_uris": {"ios": "https://dc.lft.to/lastmile_qr_scan", "android": "https://dc.lft.to/lastmile_qr_scan"}, "is_reserved": 0, "fusion_lon": 0.0, "fusion_lat": 0.0, "lon": -77.01888566666666, "name": "c97137ca11044defd21e88519bc82947"}, {"bike_id": "338851e69aa464f41535943afbcbf9cb", "type": "electric_scooter", "is_disabled": 0, "lat": 38.8988305, "rental_uris": {"ios": "https://dc.lft.to/lastmile_qr_scan", "android": "https://dc.lft.to/lastmile_qr_scan"}, "is_reserved": 0, "fusion_lon": 0.0, "fusion_lat": 0.0, "lon": -76.931763, "name": "338851e69aa464f41535943afbcbf9cb"}, {"bike_id": "8a0aaeebf61e016a83bb1f29230e2c8a", "type": "electric_bike", "is_disabled": 0, "lat": 38.86617716666667, "rental_uris": {"ios": "https://dc.lft.to/lastmile_qr_scan", "android": "https://dc.lft.to/lastmile_qr_scan"}, "is_reserved": 0, "fusion_lon": 0.0, "fusion_lat": 0.0, "lon": -76.945696, "name": "8a0aaeebf61e016a83bb1f29230e2c8a"}, {"bike_id": "e00a15d1f7d6c4907eb715c75f0e4b60", "type": "electric_scooter", "is_disabled": 0, "lat": 38.927550333333336, "rental_uris": {"ios": "https://dc.lft.to/lastmile_qr_scan", "android": "https://dc.lft.to/lastmile_qr_scan"}, "is_reserved": 0, "fusion_lon": 0.0, "fusion_lat": 0.0, "lon": -77.02856483333333, "name": "e00a15d1f7d6c4907eb715c75f0e4b60"}, {"bike_id": "565e643ac8f8456d4094a3b9e2212337", "type": "electric_scooter", "is_disabled": 0, "lat": 38.9214895, "rental_uris": {"ios": "https://dc.lft.to/lastmile_qr_scan", "android": "https://dc.lft.to/lastmile_qr_scan"}, "is_reserved": 0, "fusion_lon": 0.0, "fusion_lat": 0.0, "lon": -77.01812116666666, "name": "565e643ac8f8456d4094a3b9e2212337"}, {"bike_id": "85baf20231f2c89be89167a5b87de471", "type": "electric_scooter", "is_disabled": 0, "lat": 38.926009666666666, "rental_uris": {"ios": "https://dc.lft.to/lastmile_qr_scan", "android": "https://dc.lft.to/lastmile_qr_scan"}, "is_reserved": 0, "fusion_lon": 0.0, "fusion_lat": 0.0, "lon": -77.07333533333333, "name": "85baf20231f2c89be89167a5b87de471"}, {"bike_id": "196682626a06ff1f4e90f6833f80a12e", "type": "electric_scooter", "is_disabled": 0, "lat": 38.935356166666665, "rental_uris": {"ios": "https://dc.lft.to/lastmile_qr_scan", "android": "https://dc.lft.to/lastmile_qr_scan"}, "is_reserved": 0, "fusion_lon": 0.0, "fusion_lat": 0.0, "lon": -77.03403233333333, "name": "196682626a06ff1f4e90f6833f80a12e"}, {"bike_id": "4c77960d8958fca19018ec589977db2e", "type": "electric_scooter", "is_disabled": 0, "lat": 38.8888705, "rental_uris": {"ios": "https://dc.lft.to/lastmile_qr_scan", "android": "https://dc.lft.to/lastmile_qr_scan"}, "is_reserved": 0, "fusion_lon": 0.0, "fusion_lat": 0.0, "lon": -77.0332665, "name": "4c77960d8958fca19018ec589977db2e"}, {"bike_id": "23f93601618c8bf5356854a85b1398b8", "type": "electric_scooter", "is_disabled": 0, "lat": 38.8617925, "rental_uris": {"ios": "https://dc.lft.to/lastmile_qr_scan", "android": "https://dc.lft.to/lastmile_qr_scan"}, "is_reserved": 0, "fusion_lon": 0.0, "fusion_lat": 0.0, "lon": -77.088369, "name": "23f93601618c8bf5356854a85b1398b8"}, {"bike_id": "74fe696bc4c229eb99e99eed30bc8a0b", "type": "electric_scooter", "is_disabled": 0, "lat": 38.937237, "rental_uris": {"ios": "https://dc.lft.to/lastmile_qr_scan", "android": "https://dc.lft.to/lastmile_qr_scan"}, "is_reserved": 0, "fusion_lon": 0.0, "fusion_lat": 0.0, "lon": -77.02444366666667, "name": "74fe696bc4c229eb99e99eed30bc8a0b"}, {"bike_id": "616a112dd4b5f0727c3b7ffb2c177864", "type": "electric_scooter", "is_disabled": 0, "lat": 38.913954, "rental_uris": {"ios": "https://dc.lft.to/lastmile_qr_scan", "android": "https://dc.lft.to/lastmile_qr_scan"}, "is_reserved": 0, "fusion_lon": 0.0, "fusion_lat": 0.0, "lon": -77.01795166666666, "name": "616a112dd4b5f0727c3b7ffb2c177864"}, {"bike_id": "42e3d6c5ba508cd9459adbd4bab5c556", "type": "electric_scooter", "is_disabled": 0, "lat": 38.928559166666666, "rental_uris": {"ios": "https://dc.lft.to/lastmile_qr_scan", "android": "https://dc.lft.to/lastmile_qr_scan"}, "is_reserved": 0, "fusion_lon": 0.0, "fusion_lat": 0.0, "lon": -77.03713466666666, "name": "42e3d6c5ba508cd9459adbd4bab5c556"}, {"bike_id": "43b17f83c64a0b5ba686581237d14959", "type": "electric_scooter", "is_disabled": 0, "lat": 38.918163166666666, "rental_uris": {"ios": "https://dc.lft.to/lastmile_qr_scan", "android": "https://dc.lft.to/lastmile_qr_scan"}, "is_reserved": 0, "fusion_lon": 0.0, "fusion_lat": 0.0, "lon": -77.00257216666667, "name": "43b17f83c64a0b5ba686581237d14959"}, {"bike_id": "94dc25c279a8afc621a2c563869f2501", "type": "electric_scooter", "is_disabled": 0, "lat": 38.92192516666667, "rental_uris": {"ios": "https://dc.lft.to/lastmile_qr_scan", "android": "https://dc.lft.to/lastmile_qr_scan"}, "is_reserved": 0, "fusion_lon": 0.0, "fusion_lat": 0.0, "lon": -77.0380585, "name": "94dc25c279a8afc621a2c563869f2501"}, {"bike_id": "43fc2be5cf9eb1735ed74ff010154b63", "type": "electric_scooter", "is_disabled": 0, "lat": 38.91987066666667, "rental_uris": {"ios": "https://dc.lft.to/lastmile_qr_scan", "android": "https://dc.lft.to/lastmile_qr_scan"}, "is_reserved": 0, "fusion_lon": 0.0, "fusion_lat": 0.0, "lon": -77.03972433333334, "name": "43fc2be5cf9eb1735ed74ff010154b63"}, {"bike_id": "b7c198a57844083886eac39443659988", "type": "electric_scooter", "is_disabled": 0, "lat": 38.91774816666667, "rental_uris": {"ios": "https://dc.lft.to/lastmile_qr_scan", "android": "https://dc.lft.to/lastmile_qr_scan"}, "is_reserved": 0, "fusion_lon": 0.0, "fusion_lat": 0.0, "lon": -77.02316883333333, "name": "b7c198a57844083886eac39443659988"}, {"bike_id": "548f582ef28ba53f61c9c688e31bbdba", "type": "electric_scooter", "is_disabled": 0, "lat": 38.91417166666667, "rental_uris": {"ios": "https://dc.lft.to/lastmile_qr_scan", "android": "https://dc.lft.to/lastmile_qr_scan"}, "is_reserved": 0, "fusion_lon": 0.0, "fusion_lat": 0.0, "lon": -77.02313333333333, "name": "548f582ef28ba53f61c9c688e31bbdba"}, {"bike_id": "1184b047a3f848206cdb940434d0e197", "type": "electric_scooter", "is_disabled": 0, "lat": 38.917630333333335, "rental_uris": {"ios": "https://dc.lft.to/lastmile_qr_scan", "android": "https://dc.lft.to/lastmile_qr_scan"}, "is_reserved": 0, "fusion_lon": 0.0, "fusion_lat": 0.0, "lon": -77.04768866666667, "name": "1184b047a3f848206cdb940434d0e197"}, {"bike_id": "84dbfcb730da3f6cea04d5163c3778aa", "type": "electric_bike", "is_disabled": 0, "lat": 38.8626155, "rental_uris": {"ios": "https://dc.lft.to/lastmile_qr_scan", "android": "https://dc.lft.to/lastmile_qr_scan"}, "is_reserved": 0, "fusion_lon": 0.0, "fusion_lat": 0.0, "lon": -76.98351966666667, "name": "84dbfcb730da3f6cea04d5163c3778aa"}, {"bike_id": "602d78e0bc57b28970380018620d1f59", "type": "electric_scooter", "is_disabled": 0, "lat": 38.91699766666667, "rental_uris": {"ios": "https://dc.lft.to/lastmile_qr_scan", "android": "https://dc.lft.to/lastmile_qr_scan"}, "is_reserved": 0, "fusion_lon": 0.0, "fusion_lat": 0.0, "lon": -77.0234715, "name": "602d78e0bc57b28970380018620d1f59"}, {"bike_id": "631cac9db13cc5058f6cd60cfbb1b137", "type": "electric_scooter", "is_disabled": 0, "lat": 38.913504, "rental_uris": {"ios": "https://dc.lft.to/lastmile_qr_scan", "android": "https://dc.lft.to/lastmile_qr_scan"}, "is_reserved": 0, "fusion_lon": 0.0, "fusion_lat": 0.0, "lon": -77.02569983333333, "name": "631cac9db13cc5058f6cd60cfbb1b137"}, {"bike_id": "9c1a073bfec12aefa620333362e9a351", "type": "electric_scooter", "is_disabled": 0, "lat": 38.921074833333336, "rental_uris": {"ios": "https://dc.lft.to/lastmile_qr_scan", "android": "https://dc.lft.to/lastmile_qr_scan"}, "is_reserved": 0, "fusion_lon": 0.0, "fusion_lat": 0.0, "lon": -77.04387966666667, "name": "9c1a073bfec12aefa620333362e9a351"}, {"bike_id": "085c3942307398819be5cbbc508cd7a8", "type": "electric_scooter", "is_disabled": 0, "lat": 38.9246725, "rental_uris": {"ios": "https://dc.lft.to/lastmile_qr_scan", "android": "https://dc.lft.to/lastmile_qr_scan"}, "is_reserved": 0, "fusion_lon": 0.0, "fusion_lat": 0.0, "lon": -77.02632466666667, "name": "085c3942307398819be5cbbc508cd7a8"}, {"bike_id": "1470804a1fb80a39d4b6f9385e92f3a7", "type": "electric_scooter", "is_disabled": 0, "lat": 38.9147455, "rental_uris": {"ios": "https://dc.lft.to/lastmile_qr_scan", "android": "https://dc.lft.to/lastmile_qr_scan"}, "is_reserved": 0, "fusion_lon": 0.0, "fusion_lat": 0.0, "lon": -77.0454925, "name": "1470804a1fb80a39d4b6f9385e92f3a7"}, {"bike_id": "b5e0e18581b3f4e225e05f47365deb15", "type": "electric_scooter", "is_disabled": 0, "lat": 38.908945833333334, "rental_uris": {"ios": "https://dc.lft.to/lastmile_qr_scan", "android": "https://dc.lft.to/lastmile_qr_scan"}, "is_reserved": 0, "fusion_lon": 0.0, "fusion_lat": 0.0, "lon": -77.00279766666667, "name": "b5e0e18581b3f4e225e05f47365deb15"}, {"bike_id": "3e63e30c2bf57ed0709743bb339f08d6", "type": "electric_scooter", "is_disabled": 0, "lat": 38.907805, "rental_uris": {"ios": "https://dc.lft.to/lastmile_qr_scan", "android": "https://dc.lft.to/lastmile_qr_scan"}, "is_reserved": 0, "fusion_lon": 0.0, "fusion_lat": 0.0, "lon": -77.018599, "name": "3e63e30c2bf57ed0709743bb339f08d6"}, {"bike_id": "0253ef3a6fdf7233e66a6701d3c107b0", "type": "electric_bike", "is_disabled": 0, "lat": 39.057817666666665, "rental_uris": {"ios": "https://dc.lft.to/lastmile_qr_scan", "android": "https://dc.lft.to/lastmile_qr_scan"}, "is_reserved": 0, "fusion_lon": 0.0, "fusion_lat": 0.0, "lon": -77.15019016666666, "name": "0253ef3a6fdf7233e66a6701d3c107b0"}, {"bike_id": "0e23898081b1b437499ead4431402c38", "type": "electric_scooter", "is_disabled": 0, "lat": 38.856963, "rental_uris": {"ios": "https://dc.lft.to/lastmile_qr_scan", "android": "https://dc.lft.to/lastmile_qr_scan"}, "is_reserved": 0, "fusion_lon": 0.0, "fusion_lat": 0.0, "lon": -76.98972366666666, "name": "0e23898081b1b437499ead4431402c38"}, {"bike_id": "347f2a0389b685642a5afac27e201083", "type": "electric_scooter", "is_disabled": 0, "lat": 38.90057816666667, "rental_uris": {"ios": "https://dc.lft.to/lastmile_qr_scan", "android": "https://dc.lft.to/lastmile_qr_scan"}, "is_reserved": 0, "fusion_lon": 0.0, "fusion_lat": 0.0, "lon": -76.93473416666667, "name": "347f2a0389b685642a5afac27e201083"}, {"bike_id": "bd5f53945ff2bfbece7e89b9b5b63413", "type": "electric_bike", "is_disabled": 0, "lat": 38.9163275, "rental_uris": {"ios": "https://dc.lft.to/lastmile_qr_scan", "android": "https://dc.lft.to/lastmile_qr_scan"}, "is_reserved": 0, "fusion_lon": 0.0, "fusion_lat": 0.0, "lon": -76.97169033333333, "name": "bd5f53945ff2bfbece7e89b9b5b63413"}, {"bike_id": "eaaecaabcfe1607140c6913c8d5a2c97", "type": "electric_bike", "is_disabled": 0, "lat": 38.819767, "rental_uris": {"ios": "https://dc.lft.to/lastmile_qr_scan", "android": "https://dc.lft.to/lastmile_qr_scan"}, "is_reserved": 0, "fusion_lon": 0.0, "fusion_lat": 0.0, "lon": -76.99804866666666, "name": "eaaecaabcfe1607140c6913c8d5a2c97"}, {"bike_id": "5d9c8852e2b0d56ec03eaba48627ae3e", "type": "electric_scooter", "is_disabled": 0, "lat": 38.87110966666667, "rental_uris": {"ios": "https://dc.lft.to/lastmile_qr_scan", "android": "https://dc.lft.to/lastmile_qr_scan"}, "is_reserved": 0, "fusion_lon": 0.0, "fusion_lat": 0.0, "lon": -76.98232933333334, "name": "5d9c8852e2b0d56ec03eaba48627ae3e"}, {"bike_id": "a86763fa508091e09283bbd877645766", "type": "electric_scooter", "is_disabled": 0, "lat": 38.90419633333333, "rental_uris": {"ios": "https://dc.lft.to/lastmile_qr_scan", "android": "https://dc.lft.to/lastmile_qr_scan"}, "is_reserved": 0, "fusion_lon": 0.0, "fusion_lat": 0.0, "lon": -77.04865933333333, "name": "a86763fa508091e09283bbd877645766"}, {"bike_id": "983843b7872ffa4a28b0b42f230fc589", "type": "electric_scooter", "is_disabled": 0, "lat": 38.90545433333333, "rental_uris": {"ios": "https://dc.lft.to/lastmile_qr_scan", "android": "https://dc.lft.to/lastmile_qr_scan"}, "is_reserved": 0, "fusion_lon": 0.0, "fusion_lat": 0.0, "lon": -77.00544933333333, "name": "983843b7872ffa4a28b0b42f230fc589"}, {"bike_id": "6e2b6ea062da0273a7f63f8bceb3152f", "type": "electric_scooter", "is_disabled": 0, "lat": 38.90585216666667, "rental_uris": {"ios": "https://dc.lft.to/lastmile_qr_scan", "android": "https://dc.lft.to/lastmile_qr_scan"}, "is_reserved": 0, "fusion_lon": 0.0, "fusion_lat": 0.0, "lon": -77.043896, "name": "6e2b6ea062da0273a7f63f8bceb3152f"}, {"bike_id": "89dee2609c47fd18392b080f0197f8da", "type": "electric_scooter", "is_disabled": 0, "lat": 38.91106166666667, "rental_uris": {"ios": "https://dc.lft.to/lastmile_qr_scan", "android": "https://dc.lft.to/lastmile_qr_scan"}, "is_reserved": 0, "fusion_lon": 0.0, "fusion_lat": 0.0, "lon": -77.0242105, "name": "89dee2609c47fd18392b080f0197f8da"}, {"bike_id": "bf4568311a0c7fbc69d58d0688a0cc57", "type": "electric_scooter", "is_disabled": 0, "lat": 38.909433, "rental_uris": {"ios": "https://dc.lft.to/lastmile_qr_scan", "android": "https://dc.lft.to/lastmile_qr_scan"}, "is_reserved": 0, "fusion_lon": 0.0, "fusion_lat": 0.0, "lon": -77.05557116666667, "name": "bf4568311a0c7fbc69d58d0688a0cc57"}, {"bike_id": "5597c596ec88db38ca2d1225a370f90d", "type": "electric_scooter", "is_disabled": 0, "lat": 38.91104983333334, "rental_uris": {"ios": "https://dc.lft.to/lastmile_qr_scan", "android": "https://dc.lft.to/lastmile_qr_scan"}, "is_reserved": 0, "fusion_lon": 0.0, "fusion_lat": 0.0, "lon": -77.01150416666667, "name": "5597c596ec88db38ca2d1225a370f90d"}, {"bike_id": "fafe599a30b6542d389cd0c552c4497f", "type": "electric_scooter", "is_disabled": 0, "lat": 38.8443645, "rental_uris": {"ios": "https://dc.lft.to/lastmile_qr_scan", "android": "https://dc.lft.to/lastmile_qr_scan"}, "is_reserved": 0, "fusion_lon": 0.0, "fusion_lat": 0.0, "lon": -76.998728, "name": "fafe599a30b6542d389cd0c552c4497f"}, {"bike_id": "8eb3398ab01b3591019312cb281e80f3", "type": "electric_scooter", "is_disabled": 0, "lat": 38.933983166666664, "rental_uris": {"ios": "https://dc.lft.to/lastmile_qr_scan", "android": "https://dc.lft.to/lastmile_qr_scan"}, "is_reserved": 0, "fusion_lon": 0.0, "fusion_lat": 0.0, "lon": -77.0352235, "name": "8eb3398ab01b3591019312cb281e80f3"}, {"bike_id": "43f89e5eda34f7d883eeedcb79f8849e", "type": "electric_scooter", "is_disabled": 0, "lat": 38.908322166666665, "rental_uris": {"ios": "https://dc.lft.to/lastmile_qr_scan", "android": "https://dc.lft.to/lastmile_qr_scan"}, "is_reserved": 0, "fusion_lon": 0.0, "fusion_lat": 0.0, "lon": -77.01977133333334, "name": "43f89e5eda34f7d883eeedcb79f8849e"}, {"bike_id": "a52183c964802fc99fadf92967d0b1d9", "type": "electric_scooter", "is_disabled": 0, "lat": 38.907045, "rental_uris": {"ios": "https://dc.lft.to/lastmile_qr_scan", "android": "https://dc.lft.to/lastmile_qr_scan"}, "is_reserved": 0, "fusion_lon": 0.0, "fusion_lat": 0.0, "lon": -77.04170966666666, "name": "a52183c964802fc99fadf92967d0b1d9"}, {"bike_id": "90727e6d3aecf4313afdf5ce382a0ccd", "type": "electric_scooter", "is_disabled": 0, "lat": 38.9172075, "rental_uris": {"ios": "https://dc.lft.to/lastmile_qr_scan", "android": "https://dc.lft.to/lastmile_qr_scan"}, "is_reserved": 0, "fusion_lon": 0.0, "fusion_lat": 0.0, "lon": -77.03661116666666, "name": "90727e6d3aecf4313afdf5ce382a0ccd"}, {"bike_id": "b032d7cd3ae3beab8ef6dd244715a8ed", "type": "electric_scooter", "is_disabled": 0, "lat": 38.93844283333333, "rental_uris": {"ios": "https://dc.lft.to/lastmile_qr_scan", "android": "https://dc.lft.to/lastmile_qr_scan"}, "is_reserved": 0, "fusion_lon": 0.0, "fusion_lat": 0.0, "lon": -77.072345, "name": "b032d7cd3ae3beab8ef6dd244715a8ed"}, {"bike_id": "9743d9b1e53b4157ee9d9c8ccdf5d0af", "type": "electric_scooter", "is_disabled": 0, "lat": 38.909764, "rental_uris": {"ios": "https://dc.lft.to/lastmile_qr_scan", "android": "https://dc.lft.to/lastmile_qr_scan"}, "is_reserved": 0, "fusion_lon": 0.0, "fusion_lat": 0.0, "lon": -77.015085, "name": "9743d9b1e53b4157ee9d9c8ccdf5d0af"}, {"bike_id": "5cebe1ab3923891dccf7153a840d9ba4", "type": "electric_scooter", "is_disabled": 0, "lat": 38.924913, "rental_uris": {"ios": "https://dc.lft.to/lastmile_qr_scan", "android": "https://dc.lft.to/lastmile_qr_scan"}, "is_reserved": 0, "fusion_lon": 0.0, "fusion_lat": 0.0, "lon": -77.05217983333333, "name": "5cebe1ab3923891dccf7153a840d9ba4"}, {"bike_id": "2704a61f0764a549fffb7acdf3c77ca1", "type": "electric_scooter", "is_disabled": 0, "lat": 38.944144, "rental_uris": {"ios": "https://dc.lft.to/lastmile_qr_scan", "android": "https://dc.lft.to/lastmile_qr_scan"}, "is_reserved": 0, "fusion_lon": 0.0, "fusion_lat": 0.0, "lon": -77.00733916666667, "name": "2704a61f0764a549fffb7acdf3c77ca1"}, {"bike_id": "3edd6ca4e279f4f1a270f38afaa082cc", "type": "electric_scooter", "is_disabled": 0, "lat": 38.92325616666667, "rental_uris": {"ios": "https://dc.lft.to/lastmile_qr_scan", "android": "https://dc.lft.to/lastmile_qr_scan"}, "is_reserved": 0, "fusion_lon": 0.0, "fusion_lat": 0.0, "lon": -77.0461685, "name": "3edd6ca4e279f4f1a270f38afaa082cc"}, {"bike_id": "2eb9733b62e6df3ff71b5f9a62374ecd", "type": "electric_scooter", "is_disabled": 0, "lat": 38.926341666666666, "rental_uris": {"ios": "https://dc.lft.to/lastmile_qr_scan", "android": "https://dc.lft.to/lastmile_qr_scan"}, "is_reserved": 0, "fusion_lon": 0.0, "fusion_lat": 0.0, "lon": -77.05302183333333, "name": "2eb9733b62e6df3ff71b5f9a62374ecd"}, {"bike_id": "e60712c07b0fe75aac296b0f9bed18b9", "type": "electric_scooter", "is_disabled": 0, "lat": 38.902442666666666, "rental_uris": {"ios": "https://dc.lft.to/lastmile_qr_scan", "android": "https://dc.lft.to/lastmile_qr_scan"}, "is_reserved": 0, "fusion_lon": 0.0, "fusion_lat": 0.0, "lon": -77.0019995, "name": "e60712c07b0fe75aac296b0f9bed18b9"}, {"bike_id": "05077b01f0ba1fda2f676269e8e28c76", "type": "electric_scooter", "is_disabled": 0, "lat": 38.89668283333334, "rental_uris": {"ios": "https://dc.lft.to/lastmile_qr_scan", "android": "https://dc.lft.to/lastmile_qr_scan"}, "is_reserved": 0, "fusion_lon": 0.0, "fusion_lat": 0.0, "lon": -77.00518466666666, "name": "05077b01f0ba1fda2f676269e8e28c76"}, {"bike_id": "530daa699a3b9fe9124024a51b03dfaf", "type": "electric_scooter", "is_disabled": 0, "lat": 38.8708695, "rental_uris": {"ios": "https://dc.lft.to/lastmile_qr_scan", "android": "https://dc.lft.to/lastmile_qr_scan"}, "is_reserved": 0, "fusion_lon": 0.0, "fusion_lat": 0.0, "lon": -77.01131133333334, "name": "530daa699a3b9fe9124024a51b03dfaf"}, {"bike_id": "351651d5a4dfb7474922ff9529451166", "type": "electric_scooter", "is_disabled": 0, "lat": 38.909584, "rental_uris": {"ios": "https://dc.lft.to/lastmile_qr_scan", "android": "https://dc.lft.to/lastmile_qr_scan"}, "is_reserved": 0, "fusion_lon": 0.0, "fusion_lat": 0.0, "lon": -77.022858, "name": "351651d5a4dfb7474922ff9529451166"}, {"bike_id": "55079e4d9bd1cff4958651303a699e65", "type": "electric_bike", "is_disabled": 0, "lat": 38.95353583333333, "rental_uris": {"ios": "https://dc.lft.to/lastmile_qr_scan", "android": "https://dc.lft.to/lastmile_qr_scan"}, "is_reserved": 0, "fusion_lon": 0.0, "fusion_lat": 0.0, "lon": -76.98090266666667, "name": "55079e4d9bd1cff4958651303a699e65"}, {"bike_id": "702671fffc96dfc3edf67bfa7d35b8bf", "type": "electric_bike", "is_disabled": 0, "lat": 39.013691, "rental_uris": {"ios": "https://dc.lft.to/lastmile_qr_scan", "android": "https://dc.lft.to/lastmile_qr_scan"}, "is_reserved": 0, "fusion_lon": 0.0, "fusion_lat": 0.0, "lon": -76.9213515, "name": "702671fffc96dfc3edf67bfa7d35b8bf"}, {"bike_id": "81a993e4057f07a6b3b597cf0f3bc042", "type": "electric_scooter", "is_disabled": 0, "lat": 38.915675666666665, "rental_uris": {"ios": "https://dc.lft.to/lastmile_qr_scan", "android": "https://dc.lft.to/lastmile_qr_scan"}, "is_reserved": 0, "fusion_lon": 0.0, "fusion_lat": 0.0, "lon": -77.02021133333334, "name": "81a993e4057f07a6b3b597cf0f3bc042"}, {"bike_id": "5eeb9a1079e67abd69fd8d8ad0409165", "type": "electric_scooter", "is_disabled": 0, "lat": 38.9389075, "rental_uris": {"ios": "https://dc.lft.to/lastmile_qr_scan", "android": "https://dc.lft.to/lastmile_qr_scan"}, "is_reserved": 0, "fusion_lon": 0.0, "fusion_lat": 0.0, "lon": -77.02824883333334, "name": "5eeb9a1079e67abd69fd8d8ad0409165"}, {"bike_id": "1167fb925f849f3e7a8863187a438c3a", "type": "electric_scooter", "is_disabled": 0, "lat": 38.90974533333333, "rental_uris": {"ios": "https://dc.lft.to/lastmile_qr_scan", "android": "https://dc.lft.to/lastmile_qr_scan"}, "is_reserved": 0, "fusion_lon": 0.0, "fusion_lat": 0.0, "lon": -77.03344133333333, "name": "1167fb925f849f3e7a8863187a438c3a"}, {"bike_id": "da1dc5aa44a50b10e8035269c66df751", "type": "electric_scooter", "is_disabled": 0, "lat": 38.9209115, "rental_uris": {"ios": "https://dc.lft.to/lastmile_qr_scan", "android": "https://dc.lft.to/lastmile_qr_scan"}, "is_reserved": 0, "fusion_lon": 0.0, "fusion_lat": 0.0, "lon": -77.00436333333333, "name": "da1dc5aa44a50b10e8035269c66df751"}, {"bike_id": "577259faf7548345216bdc78cc7cb021", "type": "electric_scooter", "is_disabled": 0, "lat": 38.923341, "rental_uris": {"ios": "https://dc.lft.to/lastmile_qr_scan", "android": "https://dc.lft.to/lastmile_qr_scan"}, "is_reserved": 0, "fusion_lon": 0.0, "fusion_lat": 0.0, "lon": -77.02302516666667, "name": "577259faf7548345216bdc78cc7cb021"}, {"bike_id": "e265af995c75e09cbb32656c503d3494", "type": "electric_scooter", "is_disabled": 0, "lat": 38.880055166666665, "rental_uris": {"ios": "https://dc.lft.to/lastmile_qr_scan", "android": "https://dc.lft.to/lastmile_qr_scan"}, "is_reserved": 0, "fusion_lon": 0.0, "fusion_lat": 0.0, "lon": -77.00555733333333, "name": "e265af995c75e09cbb32656c503d3494"}, {"bike_id": "1a1b46ce14801fed472d2c53248b034f", "type": "electric_scooter", "is_disabled": 0, "lat": 38.92083983333333, "rental_uris": {"ios": "https://dc.lft.to/lastmile_qr_scan", "android": "https://dc.lft.to/lastmile_qr_scan"}, "is_reserved": 0, "fusion_lon": 0.0, "fusion_lat": 0.0, "lon": -77.03162633333334, "name": "1a1b46ce14801fed472d2c53248b034f"}, {"bike_id": "6de9bca944749e45926e81b4e873f19e", "type": "electric_scooter", "is_disabled": 0, "lat": 38.8803785, "rental_uris": {"ios": "https://dc.lft.to/lastmile_qr_scan", "android": "https://dc.lft.to/lastmile_qr_scan"}, "is_reserved": 0, "fusion_lon": 0.0, "fusion_lat": 0.0, "lon": -77.00526166666667, "name": "6de9bca944749e45926e81b4e873f19e"}, {"bike_id": "142eae19c99759e710bb73512ff099dd", "type": "electric_scooter", "is_disabled": 0, "lat": 38.89256533333333, "rental_uris": {"ios": "https://dc.lft.to/lastmile_qr_scan", "android": "https://dc.lft.to/lastmile_qr_scan"}, "is_reserved": 0, "fusion_lon": 0.0, "fusion_lat": 0.0, "lon": -76.92576333333334, "name": "142eae19c99759e710bb73512ff099dd"}, {"bike_id": "98d6380aa51c6385a0766e5cd38abdba", "type": "electric_scooter", "is_disabled": 0, "lat": 38.91735083333333, "rental_uris": {"ios": "https://dc.lft.to/lastmile_qr_scan", "android": "https://dc.lft.to/lastmile_qr_scan"}, "is_reserved": 0, "fusion_lon": 0.0, "fusion_lat": 0.0, "lon": -77.02604233333334, "name": "98d6380aa51c6385a0766e5cd38abdba"}, {"bike_id": "e4b1558d71671d6223fd3fd4971814f0", "type": "electric_bike", "is_disabled": 0, "lat": 38.99301616666666, "rental_uris": {"ios": "https://dc.lft.to/lastmile_qr_scan", "android": "https://dc.lft.to/lastmile_qr_scan"}, "is_reserved": 0, "fusion_lon": 0.0, "fusion_lat": 0.0, "lon": -77.0251, "name": "e4b1558d71671d6223fd3fd4971814f0"}, {"bike_id": "170a173c46203633752741235f379eb1", "type": "electric_scooter", "is_disabled": 0, "lat": 38.907219166666664, "rental_uris": {"ios": "https://dc.lft.to/lastmile_qr_scan", "android": "https://dc.lft.to/lastmile_qr_scan"}, "is_reserved": 0, "fusion_lon": 0.0, "fusion_lat": 0.0, "lon": -77.0343455, "name": "170a173c46203633752741235f379eb1"}, {"bike_id": "314c4b44e79bad6af856a7296395de4e", "type": "electric_scooter", "is_disabled": 0, "lat": 38.902700333333335, "rental_uris": {"ios": "https://dc.lft.to/lastmile_qr_scan", "android": "https://dc.lft.to/lastmile_qr_scan"}, "is_reserved": 0, "fusion_lon": 0.0, "fusion_lat": 0.0, "lon": -77.0415525, "name": "314c4b44e79bad6af856a7296395de4e"}, {"bike_id": "297ee74ae71c952cc4a8c749fa6e87f9", "type": "electric_scooter", "is_disabled": 0, "lat": 38.92154566666667, "rental_uris": {"ios": "https://dc.lft.to/lastmile_qr_scan", "android": "https://dc.lft.to/lastmile_qr_scan"}, "is_reserved": 0, "fusion_lon": 0.0, "fusion_lat": 0.0, "lon": -77.03380116666666, "name": "297ee74ae71c952cc4a8c749fa6e87f9"}, {"bike_id": "2f52012821a7275a34685ea80f1cdc66", "type": "electric_scooter", "is_disabled": 0, "lat": 38.92317966666667, "rental_uris": {"ios": "https://dc.lft.to/lastmile_qr_scan", "android": "https://dc.lft.to/lastmile_qr_scan"}, "is_reserved": 0, "fusion_lon": 0.0, "fusion_lat": 0.0, "lon": -77.038974, "name": "2f52012821a7275a34685ea80f1cdc66"}, {"bike_id": "b4d3441243a8201d86b8900f344ad085", "type": "electric_scooter", "is_disabled": 0, "lat": 38.956625833333334, "rental_uris": {"ios": "https://dc.lft.to/lastmile_qr_scan", "android": "https://dc.lft.to/lastmile_qr_scan"}, "is_reserved": 0, "fusion_lon": 0.0, "fusion_lat": 0.0, "lon": -77.02402833333333, "name": "b4d3441243a8201d86b8900f344ad085"}, {"bike_id": "9e4949887a7b5f2e4718f446f91bcb3f", "type": "electric_scooter", "is_disabled": 0, "lat": 38.86436666666667, "rental_uris": {"ios": "https://dc.lft.to/lastmile_qr_scan", "android": "https://dc.lft.to/lastmile_qr_scan"}, "is_reserved": 0, "fusion_lon": 0.0, "fusion_lat": 0.0, "lon": -76.979799, "name": "9e4949887a7b5f2e4718f446f91bcb3f"}, {"bike_id": "d24505ea00784b31e417a89d00e739fb", "type": "electric_scooter", "is_disabled": 0, "lat": 38.92423866666667, "rental_uris": {"ios": "https://dc.lft.to/lastmile_qr_scan", "android": "https://dc.lft.to/lastmile_qr_scan"}, "is_reserved": 0, "fusion_lon": 0.0, "fusion_lat": 0.0, "lon": -77.02263916666666, "name": "d24505ea00784b31e417a89d00e739fb"}, {"bike_id": "83fb3b70242f00e0bc87a0c3023a3f30", "type": "electric_scooter", "is_disabled": 0, "lat": 38.91920666666667, "rental_uris": {"ios": "https://dc.lft.to/lastmile_qr_scan", "android": "https://dc.lft.to/lastmile_qr_scan"}, "is_reserved": 0, "fusion_lon": 0.0, "fusion_lat": 0.0, "lon": -77.02573233333334, "name": "83fb3b70242f00e0bc87a0c3023a3f30"}, {"bike_id": "e8facc406700ac762944c6646d24a25a", "type": "electric_scooter", "is_disabled": 0, "lat": 38.904239833333335, "rental_uris": {"ios": "https://dc.lft.to/lastmile_qr_scan", "android": "https://dc.lft.to/lastmile_qr_scan"}, "is_reserved": 0, "fusion_lon": 0.0, "fusion_lat": 0.0, "lon": -77.02729966666666, "name": "e8facc406700ac762944c6646d24a25a"}, {"bike_id": "a2caaeaf9905b8ab11f7a4ca9b2e95fc", "type": "electric_scooter", "is_disabled": 0, "lat": 38.91476383333333, "rental_uris": {"ios": "https://dc.lft.to/lastmile_qr_scan", "android": "https://dc.lft.to/lastmile_qr_scan"}, "is_reserved": 0, "fusion_lon": 0.0, "fusion_lat": 0.0, "lon": -76.98578866666666, "name": "a2caaeaf9905b8ab11f7a4ca9b2e95fc"}, {"bike_id": "fdc889bcbfddc00724552b8d09685722", "type": "electric_scooter", "is_disabled": 0, "lat": 38.9048215, "rental_uris": {"ios": "https://dc.lft.to/lastmile_qr_scan", "android": "https://dc.lft.to/lastmile_qr_scan"}, "is_reserved": 0, "fusion_lon": 0.0, "fusion_lat": 0.0, "lon": -77.00725433333334, "name": "fdc889bcbfddc00724552b8d09685722"}, {"bike_id": "f267239013a171c0e5b11c428b72afd9", "type": "electric_scooter", "is_disabled": 0, "lat": 38.92148316666667, "rental_uris": {"ios": "https://dc.lft.to/lastmile_qr_scan", "android": "https://dc.lft.to/lastmile_qr_scan"}, "is_reserved": 0, "fusion_lon": 0.0, "fusion_lat": 0.0, "lon": -77.0331785, "name": "f267239013a171c0e5b11c428b72afd9"}, {"bike_id": "e27ec7fcf95982044ed0761dfe0c8888", "type": "electric_scooter", "is_disabled": 0, "lat": 38.92245333333334, "rental_uris": {"ios": "https://dc.lft.to/lastmile_qr_scan", "android": "https://dc.lft.to/lastmile_qr_scan"}, "is_reserved": 0, "fusion_lon": 0.0, "fusion_lat": 0.0, "lon": -77.02838716666666, "name": "e27ec7fcf95982044ed0761dfe0c8888"}, {"bike_id": "42a939cb7fb92e9c1587aefdf48d4045", "type": "electric_scooter", "is_disabled": 0, "lat": 38.899972, "rental_uris": {"ios": "https://dc.lft.to/lastmile_qr_scan", "android": "https://dc.lft.to/lastmile_qr_scan"}, "is_reserved": 0, "fusion_lon": 0.0, "fusion_lat": 0.0, "lon": -77.010286, "name": "42a939cb7fb92e9c1587aefdf48d4045"}, {"bike_id": "8b5a88aea791d5fdc98ae1ceb3defa47", "type": "electric_scooter", "is_disabled": 0, "lat": 38.91572566666667, "rental_uris": {"ios": "https://dc.lft.to/lastmile_qr_scan", "android": "https://dc.lft.to/lastmile_qr_scan"}, "is_reserved": 0, "fusion_lon": 0.0, "fusion_lat": 0.0, "lon": -77.02017216666667, "name": "8b5a88aea791d5fdc98ae1ceb3defa47"}, {"bike_id": "b4dc93bb850190fd096265f93a55e5df", "type": "electric_scooter", "is_disabled": 0, "lat": 38.902521166666666, "rental_uris": {"ios": "https://dc.lft.to/lastmile_qr_scan", "android": "https://dc.lft.to/lastmile_qr_scan"}, "is_reserved": 0, "fusion_lon": 0.0, "fusion_lat": 0.0, "lon": -76.98664733333334, "name": "b4dc93bb850190fd096265f93a55e5df"}, {"bike_id": "ab559128faa3220bebb5c158f4154a0d", "type": "electric_scooter", "is_disabled": 0, "lat": 38.896672833333334, "rental_uris": {"ios": "https://dc.lft.to/lastmile_qr_scan", "android": "https://dc.lft.to/lastmile_qr_scan"}, "is_reserved": 0, "fusion_lon": 0.0, "fusion_lat": 0.0, "lon": -77.0237835, "name": "ab559128faa3220bebb5c158f4154a0d"}, {"bike_id": "cf234a8fa1bf0e08604db8e2b232a9e0", "type": "electric_scooter", "is_disabled": 0, "lat": 38.886059333333336, "rental_uris": {"ios": "https://dc.lft.to/lastmile_qr_scan", "android": "https://dc.lft.to/lastmile_qr_scan"}, "is_reserved": 0, "fusion_lon": 0.0, "fusion_lat": 0.0, "lon": -77.0283365, "name": "cf234a8fa1bf0e08604db8e2b232a9e0"}, {"bike_id": "ff9010259ce31e02769d8de1e498c326", "type": "electric_scooter", "is_disabled": 0, "lat": 38.838225666666666, "rental_uris": {"ios": "https://dc.lft.to/lastmile_qr_scan", "android": "https://dc.lft.to/lastmile_qr_scan"}, "is_reserved": 0, "fusion_lon": 0.0, "fusion_lat": 0.0, "lon": -77.00262566666666, "name": "ff9010259ce31e02769d8de1e498c326"}, {"bike_id": "da0b86afd15a86fb31de1c5b86cb92d2", "type": "electric_scooter", "is_disabled": 0, "lat": 38.9565335, "rental_uris": {"ios": "https://dc.lft.to/lastmile_qr_scan", "android": "https://dc.lft.to/lastmile_qr_scan"}, "is_reserved": 0, "fusion_lon": 0.0, "fusion_lat": 0.0, "lon": -77.01005266666667, "name": "da0b86afd15a86fb31de1c5b86cb92d2"}, {"bike_id": "f36d659bf8740de702c98faf8a4482dc", "type": "electric_scooter", "is_disabled": 0, "lat": 38.90170116666667, "rental_uris": {"ios": "https://dc.lft.to/lastmile_qr_scan", "android": "https://dc.lft.to/lastmile_qr_scan"}, "is_reserved": 0, "fusion_lon": 0.0, "fusion_lat": 0.0, "lon": -76.9302855, "name": "f36d659bf8740de702c98faf8a4482dc"}, {"bike_id": "b9d94e3222e84d24cd97d30385e1e1de", "type": "electric_scooter", "is_disabled": 0, "lat": 38.916078666666664, "rental_uris": {"ios": "https://dc.lft.to/lastmile_qr_scan", "android": "https://dc.lft.to/lastmile_qr_scan"}, "is_reserved": 0, "fusion_lon": 0.0, "fusion_lat": 0.0, "lon": -77.021673, "name": "b9d94e3222e84d24cd97d30385e1e1de"}, {"bike_id": "51bcfcfa6c06ee3e852db2d7d40ec3e1", "type": "electric_scooter", "is_disabled": 0, "lat": 38.91494733333333, "rental_uris": {"ios": "https://dc.lft.to/lastmile_qr_scan", "android": "https://dc.lft.to/lastmile_qr_scan"}, "is_reserved": 0, "fusion_lon": 0.0, "fusion_lat": 0.0, "lon": -77.01771333333333, "name": "51bcfcfa6c06ee3e852db2d7d40ec3e1"}, {"bike_id": "e18a7481c51782d076daf272faf5b23d", "type": "electric_scooter", "is_disabled": 0, "lat": 38.93235633333333, "rental_uris": {"ios": "https://dc.lft.to/lastmile_qr_scan", "android": "https://dc.lft.to/lastmile_qr_scan"}, "is_reserved": 0, "fusion_lon": 0.0, "fusion_lat": 0.0, "lon": -77.038925, "name": "e18a7481c51782d076daf272faf5b23d"}, {"bike_id": "fdc37e13c806dcedf4cbfaec59503ae3", "type": "electric_scooter", "is_disabled": 0, "lat": 38.886977, "rental_uris": {"ios": "https://dc.lft.to/lastmile_qr_scan", "android": "https://dc.lft.to/lastmile_qr_scan"}, "is_reserved": 0, "fusion_lon": 0.0, "fusion_lat": 0.0, "lon": -76.996117, "name": "fdc37e13c806dcedf4cbfaec59503ae3"}, {"bike_id": "e1d6fa58a413b6bd4765bbb1d8a1090e", "type": "electric_scooter", "is_disabled": 0, "lat": 38.95634916666667, "rental_uris": {"ios": "https://dc.lft.to/lastmile_qr_scan", "android": "https://dc.lft.to/lastmile_qr_scan"}, "is_reserved": 0, "fusion_lon": 0.0, "fusion_lat": 0.0, "lon": -77.0114775, "name": "e1d6fa58a413b6bd4765bbb1d8a1090e"}, {"bike_id": "32c7e6ff69f17e0e6d9b0da0aa68363d", "type": "electric_scooter", "is_disabled": 0, "lat": 38.924405666666665, "rental_uris": {"ios": "https://dc.lft.to/lastmile_qr_scan", "android": "https://dc.lft.to/lastmile_qr_scan"}, "is_reserved": 0, "fusion_lon": 0.0, "fusion_lat": 0.0, "lon": -77.042408, "name": "32c7e6ff69f17e0e6d9b0da0aa68363d"}, {"bike_id": "3eb8408b69e92325a8e1bfe55d0ec7a8", "type": "electric_bike", "is_disabled": 0, "lat": 38.813236333333336, "rental_uris": {"ios": "https://dc.lft.to/lastmile_qr_scan", "android": "https://dc.lft.to/lastmile_qr_scan"}, "is_reserved": 0, "fusion_lon": 0.0, "fusion_lat": 0.0, "lon": -77.0508785, "name": "3eb8408b69e92325a8e1bfe55d0ec7a8"}, {"bike_id": "df947dbe32389e5a905744fb4f085dda", "type": "electric_scooter", "is_disabled": 0, "lat": 38.886524, "rental_uris": {"ios": "https://dc.lft.to/lastmile_qr_scan", "android": "https://dc.lft.to/lastmile_qr_scan"}, "is_reserved": 0, "fusion_lon": 0.0, "fusion_lat": 0.0, "lon": -77.00117983333334, "name": "df947dbe32389e5a905744fb4f085dda"}, {"bike_id": "0973134821afec4ea9f8c2d431310b05", "type": "electric_scooter", "is_disabled": 0, "lat": 38.887353833333336, "rental_uris": {"ios": "https://dc.lft.to/lastmile_qr_scan", "android": "https://dc.lft.to/lastmile_qr_scan"}, "is_reserved": 0, "fusion_lon": 0.0, "fusion_lat": 0.0, "lon": -77.01526916666667, "name": "0973134821afec4ea9f8c2d431310b05"}, {"bike_id": "f0e81a15ff32f8bdf663f9bfae10e076", "type": "electric_bike", "is_disabled": 0, "lat": 38.874762833333335, "rental_uris": {"ios": "https://dc.lft.to/lastmile_qr_scan", "android": "https://dc.lft.to/lastmile_qr_scan"}, "is_reserved": 0, "fusion_lon": 0.0, "fusion_lat": 0.0, "lon": -76.96529166666667, "name": "f0e81a15ff32f8bdf663f9bfae10e076"}, {"bike_id": "b62d317b07cacb0e2898cca79bdab511", "type": "electric_scooter", "is_disabled": 0, "lat": 38.9223845, "rental_uris": {"ios": "https://dc.lft.to/lastmile_qr_scan", "android": "https://dc.lft.to/lastmile_qr_scan"}, "is_reserved": 0, "fusion_lon": 0.0, "fusion_lat": 0.0, "lon": -77.03527516666666, "name": "b62d317b07cacb0e2898cca79bdab511"}, {"bike_id": "4e5f2cbe0354ec3a409d53583b3edac0", "type": "electric_scooter", "is_disabled": 0, "lat": 38.91549233333333, "rental_uris": {"ios": "https://dc.lft.to/lastmile_qr_scan", "android": "https://dc.lft.to/lastmile_qr_scan"}, "is_reserved": 0, "fusion_lon": 0.0, "fusion_lat": 0.0, "lon": -77.040221, "name": "4e5f2cbe0354ec3a409d53583b3edac0"}, {"bike_id": "c282a3692dcacc6b3ca86afcd2849422", "type": "electric_scooter", "is_disabled": 0, "lat": 38.936196833333334, "rental_uris": {"ios": "https://dc.lft.to/lastmile_qr_scan", "android": "https://dc.lft.to/lastmile_qr_scan"}, "is_reserved": 0, "fusion_lon": 0.0, "fusion_lat": 0.0, "lon": -76.976135, "name": "c282a3692dcacc6b3ca86afcd2849422"}, {"bike_id": "9ba255dcc8fce834df072de8c61fb5b2", "type": "electric_scooter", "is_disabled": 0, "lat": 38.89478016666666, "rental_uris": {"ios": "https://dc.lft.to/lastmile_qr_scan", "android": "https://dc.lft.to/lastmile_qr_scan"}, "is_reserved": 0, "fusion_lon": 0.0, "fusion_lat": 0.0, "lon": -76.9486115, "name": "9ba255dcc8fce834df072de8c61fb5b2"}, {"bike_id": "c680fae04af2476da264645587b5882f", "type": "electric_scooter", "is_disabled": 0, "lat": 38.8764725, "rental_uris": {"ios": "https://dc.lft.to/lastmile_qr_scan", "android": "https://dc.lft.to/lastmile_qr_scan"}, "is_reserved": 0, "fusion_lon": 0.0, "fusion_lat": 0.0, "lon": -77.0041895, "name": "c680fae04af2476da264645587b5882f"}, {"bike_id": "9150dda8498202fc3dfab0a5855d5fc0", "type": "electric_scooter", "is_disabled": 0, "lat": 38.931466, "rental_uris": {"ios": "https://dc.lft.to/lastmile_qr_scan", "android": "https://dc.lft.to/lastmile_qr_scan"}, "is_reserved": 0, "fusion_lon": 0.0, "fusion_lat": 0.0, "lon": -77.03345466666667, "name": "9150dda8498202fc3dfab0a5855d5fc0"}, {"bike_id": "65e595525486a2a04b2dcb47438c5769", "type": "electric_scooter", "is_disabled": 0, "lat": 38.90958583333333, "rental_uris": {"ios": "https://dc.lft.to/lastmile_qr_scan", "android": "https://dc.lft.to/lastmile_qr_scan"}, "is_reserved": 0, "fusion_lon": 0.0, "fusion_lat": 0.0, "lon": -77.02277683333334, "name": "65e595525486a2a04b2dcb47438c5769"}, {"bike_id": "8a9ae25634081966169196bdefcb329e", "type": "electric_scooter", "is_disabled": 0, "lat": 38.93459716666667, "rental_uris": {"ios": "https://dc.lft.to/lastmile_qr_scan", "android": "https://dc.lft.to/lastmile_qr_scan"}, "is_reserved": 0, "fusion_lon": 0.0, "fusion_lat": 0.0, "lon": -77.02410966666666, "name": "8a9ae25634081966169196bdefcb329e"}, {"bike_id": "9030507adc7f668ae497c100b9b214c5", "type": "electric_bike", "is_disabled": 0, "lat": 38.978790000000004, "rental_uris": {"ios": "https://dc.lft.to/lastmile_qr_scan", "android": "https://dc.lft.to/lastmile_qr_scan"}, "is_reserved": 0, "fusion_lon": 0.0, "fusion_lat": 0.0, "lon": -77.06029066666666, "name": "9030507adc7f668ae497c100b9b214c5"}, {"bike_id": "e2c9319d41fa80db2c70b5f41232fdc1", "type": "electric_scooter", "is_disabled": 0, "lat": 38.90178266666667, "rental_uris": {"ios": "https://dc.lft.to/lastmile_qr_scan", "android": "https://dc.lft.to/lastmile_qr_scan"}, "is_reserved": 0, "fusion_lon": 0.0, "fusion_lat": 0.0, "lon": -77.01306766666667, "name": "e2c9319d41fa80db2c70b5f41232fdc1"}, {"bike_id": "d69d576e17b2e01f486ef1738a42967f", "type": "electric_scooter", "is_disabled": 0, "lat": 38.9095745, "rental_uris": {"ios": "https://dc.lft.to/lastmile_qr_scan", "android": "https://dc.lft.to/lastmile_qr_scan"}, "is_reserved": 0, "fusion_lon": 0.0, "fusion_lat": 0.0, "lon": -77.04782183333333, "name": "d69d576e17b2e01f486ef1738a42967f"}, {"bike_id": "150423b0c8dd1e2308c7e9b97fdca895", "type": "electric_scooter", "is_disabled": 0, "lat": 38.916921333333335, "rental_uris": {"ios": "https://dc.lft.to/lastmile_qr_scan", "android": "https://dc.lft.to/lastmile_qr_scan"}, "is_reserved": 0, "fusion_lon": 0.0, "fusion_lat": 0.0, "lon": -77.0234665, "name": "150423b0c8dd1e2308c7e9b97fdca895"}, {"bike_id": "23f8cf7f5624b7c5acfec47a7c037cfd", "type": "electric_scooter", "is_disabled": 0, "lat": 38.92251, "rental_uris": {"ios": "https://dc.lft.to/lastmile_qr_scan", "android": "https://dc.lft.to/lastmile_qr_scan"}, "is_reserved": 0, "fusion_lon": 0.0, "fusion_lat": 0.0, "lon": -77.0303815, "name": "23f8cf7f5624b7c5acfec47a7c037cfd"}, {"bike_id": "f7c95ccc262fba7062a784a6733a3bfe", "type": "electric_scooter", "is_disabled": 0, "lat": 38.939136, "rental_uris": {"ios": "https://dc.lft.to/lastmile_qr_scan", "android": "https://dc.lft.to/lastmile_qr_scan"}, "is_reserved": 0, "fusion_lon": 0.0, "fusion_lat": 0.0, "lon": -77.06051183333334, "name": "f7c95ccc262fba7062a784a6733a3bfe"}, {"bike_id": "93d0ff2a754dd8c3d469ee9814e34611", "type": "electric_scooter", "is_disabled": 0, "lat": 38.93478833333333, "rental_uris": {"ios": "https://dc.lft.to/lastmile_qr_scan", "android": "https://dc.lft.to/lastmile_qr_scan"}, "is_reserved": 0, "fusion_lon": 0.0, "fusion_lat": 0.0, "lon": -77.03404733333333, "name": "93d0ff2a754dd8c3d469ee9814e34611"}, {"bike_id": "d313d6d0402d6b22e737482f80e922d5", "type": "electric_bike", "is_disabled": 0, "lat": 39.03701016666667, "rental_uris": {"ios": "https://dc.lft.to/lastmile_qr_scan", "android": "https://dc.lft.to/lastmile_qr_scan"}, "is_reserved": 0, "fusion_lon": 0.0, "fusion_lat": 0.0, "lon": -77.02856333333334, "name": "d313d6d0402d6b22e737482f80e922d5"}, {"bike_id": "711973738a859a8f7d9730ae6dfb8e66", "type": "electric_scooter", "is_disabled": 0, "lat": 38.9046605, "rental_uris": {"ios": "https://dc.lft.to/lastmile_qr_scan", "android": "https://dc.lft.to/lastmile_qr_scan"}, "is_reserved": 0, "fusion_lon": 0.0, "fusion_lat": 0.0, "lon": -77.02939633333334, "name": "711973738a859a8f7d9730ae6dfb8e66"}, {"bike_id": "3a3aee04404947a56264fd3c87560232", "type": "electric_scooter", "is_disabled": 0, "lat": 38.901877, "rental_uris": {"ios": "https://dc.lft.to/lastmile_qr_scan", "android": "https://dc.lft.to/lastmile_qr_scan"}, "is_reserved": 0, "fusion_lon": 0.0, "fusion_lat": 0.0, "lon": -77.012928, "name": "3a3aee04404947a56264fd3c87560232"}, {"bike_id": "0ca1dc01a270a00764bccb0b25497622", "type": "electric_scooter", "is_disabled": 0, "lat": 38.906264666666665, "rental_uris": {"ios": "https://dc.lft.to/lastmile_qr_scan", "android": "https://dc.lft.to/lastmile_qr_scan"}, "is_reserved": 0, "fusion_lon": 0.0, "fusion_lat": 0.0, "lon": -77.0513015, "name": "0ca1dc01a270a00764bccb0b25497622"}, {"bike_id": "1a44bc8478ef0c5f2849215ff49e08db", "type": "electric_scooter", "is_disabled": 0, "lat": 38.87561983333333, "rental_uris": {"ios": "https://dc.lft.to/lastmile_qr_scan", "android": "https://dc.lft.to/lastmile_qr_scan"}, "is_reserved": 0, "fusion_lon": 0.0, "fusion_lat": 0.0, "lon": -76.95864133333333, "name": "1a44bc8478ef0c5f2849215ff49e08db"}, {"bike_id": "f5d2a4fdf45da16d19aa6dc574eab978", "type": "electric_scooter", "is_disabled": 0, "lat": 38.91564666666667, "rental_uris": {"ios": "https://dc.lft.to/lastmile_qr_scan", "android": "https://dc.lft.to/lastmile_qr_scan"}, "is_reserved": 0, "fusion_lon": 0.0, "fusion_lat": 0.0, "lon": -77.03729733333333, "name": "f5d2a4fdf45da16d19aa6dc574eab978"}, {"bike_id": "cc7300e78f59002d8008e98014d6a222", "type": "electric_scooter", "is_disabled": 0, "lat": 38.86692516666667, "rental_uris": {"ios": "https://dc.lft.to/lastmile_qr_scan", "android": "https://dc.lft.to/lastmile_qr_scan"}, "is_reserved": 0, "fusion_lon": 0.0, "fusion_lat": 0.0, "lon": -76.9871565, "name": "cc7300e78f59002d8008e98014d6a222"}, {"bike_id": "9ccf373f380333378f5a8964a5779799", "type": "electric_scooter", "is_disabled": 0, "lat": 38.947121, "rental_uris": {"ios": "https://dc.lft.to/lastmile_qr_scan", "android": "https://dc.lft.to/lastmile_qr_scan"}, "is_reserved": 0, "fusion_lon": 0.0, "fusion_lat": 0.0, "lon": -77.02778966666666, "name": "9ccf373f380333378f5a8964a5779799"}, {"bike_id": "a51831e1ae1e27ec973e00576ca962e7", "type": "electric_scooter", "is_disabled": 0, "lat": 38.899294166666664, "rental_uris": {"ios": "https://dc.lft.to/lastmile_qr_scan", "android": "https://dc.lft.to/lastmile_qr_scan"}, "is_reserved": 0, "fusion_lon": 0.0, "fusion_lat": 0.0, "lon": -77.00354816666666, "name": "a51831e1ae1e27ec973e00576ca962e7"}, {"bike_id": "5a85b376e5a51ef2ef1aa7f57765942c", "type": "electric_bike", "is_disabled": 0, "lat": 38.82950566666667, "rental_uris": {"ios": "https://dc.lft.to/lastmile_qr_scan", "android": "https://dc.lft.to/lastmile_qr_scan"}, "is_reserved": 0, "fusion_lon": 0.0, "fusion_lat": 0.0, "lon": -77.12351383333333, "name": "5a85b376e5a51ef2ef1aa7f57765942c"}, {"bike_id": "355c02b7407c98e1619ead58a5a05146", "type": "electric_scooter", "is_disabled": 0, "lat": 38.85750433333333, "rental_uris": {"ios": "https://dc.lft.to/lastmile_qr_scan", "android": "https://dc.lft.to/lastmile_qr_scan"}, "is_reserved": 0, "fusion_lon": 0.0, "fusion_lat": 0.0, "lon": -76.99295833333333, "name": "355c02b7407c98e1619ead58a5a05146"}, {"bike_id": "21c936c9e4926bb0bb15013b38170600", "type": "electric_scooter", "is_disabled": 0, "lat": 38.93813033333333, "rental_uris": {"ios": "https://dc.lft.to/lastmile_qr_scan", "android": "https://dc.lft.to/lastmile_qr_scan"}, "is_reserved": 0, "fusion_lon": 0.0, "fusion_lat": 0.0, "lon": -77.02714366666666, "name": "21c936c9e4926bb0bb15013b38170600"}, {"bike_id": "f82920a41c86c01c6cd01b317d61441b", "type": "electric_scooter", "is_disabled": 0, "lat": 38.92355283333333, "rental_uris": {"ios": "https://dc.lft.to/lastmile_qr_scan", "android": "https://dc.lft.to/lastmile_qr_scan"}, "is_reserved": 0, "fusion_lon": 0.0, "fusion_lat": 0.0, "lon": -77.03533333333333, "name": "f82920a41c86c01c6cd01b317d61441b"}, {"bike_id": "48fbf981d9d1fd30d1bc96dc8dc92394", "type": "electric_scooter", "is_disabled": 0, "lat": 38.93125083333334, "rental_uris": {"ios": "https://dc.lft.to/lastmile_qr_scan", "android": "https://dc.lft.to/lastmile_qr_scan"}, "is_reserved": 0, "fusion_lon": 0.0, "fusion_lat": 0.0, "lon": -77.0571745, "name": "48fbf981d9d1fd30d1bc96dc8dc92394"}, {"bike_id": "b80e5e8a4282696a102f40efe5cf723d", "type": "electric_scooter", "is_disabled": 0, "lat": 38.894777166666664, "rental_uris": {"ios": "https://dc.lft.to/lastmile_qr_scan", "android": "https://dc.lft.to/lastmile_qr_scan"}, "is_reserved": 0, "fusion_lon": 0.0, "fusion_lat": 0.0, "lon": -76.99518616666667, "name": "b80e5e8a4282696a102f40efe5cf723d"}, {"bike_id": "ab27ddd626309ca7d9e12563c345de54", "type": "electric_scooter", "is_disabled": 0, "lat": 38.922623, "rental_uris": {"ios": "https://dc.lft.to/lastmile_qr_scan", "android": "https://dc.lft.to/lastmile_qr_scan"}, "is_reserved": 0, "fusion_lon": 0.0, "fusion_lat": 0.0, "lon": -77.01880566666667, "name": "ab27ddd626309ca7d9e12563c345de54"}, {"bike_id": "333ce361053294be0c9b6d370aba725e", "type": "electric_scooter", "is_disabled": 0, "lat": 38.93373616666667, "rental_uris": {"ios": "https://dc.lft.to/lastmile_qr_scan", "android": "https://dc.lft.to/lastmile_qr_scan"}, "is_reserved": 0, "fusion_lon": 0.0, "fusion_lat": 0.0, "lon": -77.05728766666667, "name": "333ce361053294be0c9b6d370aba725e"}, {"bike_id": "ac661de32b7feb625ad00690dc8160ce", "type": "electric_bike", "is_disabled": 0, "lat": 38.863286, "rental_uris": {"ios": "https://dc.lft.to/lastmile_qr_scan", "android": "https://dc.lft.to/lastmile_qr_scan"}, "is_reserved": 0, "fusion_lon": 0.0, "fusion_lat": 0.0, "lon": -76.98715083333333, "name": "ac661de32b7feb625ad00690dc8160ce"}, {"bike_id": "f4dc106680743c79a1ad06ca27c71c35", "type": "electric_scooter", "is_disabled": 0, "lat": 38.9422365, "rental_uris": {"ios": "https://dc.lft.to/lastmile_qr_scan", "android": "https://dc.lft.to/lastmile_qr_scan"}, "is_reserved": 0, "fusion_lon": 0.0, "fusion_lat": 0.0, "lon": -77.01439883333333, "name": "f4dc106680743c79a1ad06ca27c71c35"}, {"bike_id": "508b7965d27807dc22ff37c5e14ee334", "type": "electric_bike", "is_disabled": 0, "lat": 38.90619383333333, "rental_uris": {"ios": "https://dc.lft.to/lastmile_qr_scan", "android": "https://dc.lft.to/lastmile_qr_scan"}, "is_reserved": 0, "fusion_lon": 0.0, "fusion_lat": 0.0, "lon": -76.98600433333333, "name": "508b7965d27807dc22ff37c5e14ee334"}, {"bike_id": "adb339d9bba193043758310d8c29fe3d", "type": "electric_scooter", "is_disabled": 0, "lat": 38.90521866666667, "rental_uris": {"ios": "https://dc.lft.to/lastmile_qr_scan", "android": "https://dc.lft.to/lastmile_qr_scan"}, "is_reserved": 0, "fusion_lon": 0.0, "fusion_lat": 0.0, "lon": -76.98624383333333, "name": "adb339d9bba193043758310d8c29fe3d"}, {"bike_id": "b6583ce85d7d77f2b6ea4e078ca1ef80", "type": "electric_scooter", "is_disabled": 0, "lat": 38.86235766666667, "rental_uris": {"ios": "https://dc.lft.to/lastmile_qr_scan", "android": "https://dc.lft.to/lastmile_qr_scan"}, "is_reserved": 0, "fusion_lon": 0.0, "fusion_lat": 0.0, "lon": -76.99515083333333, "name": "b6583ce85d7d77f2b6ea4e078ca1ef80"}, {"bike_id": "9f60a53213a1b20624938f0a3844beef", "type": "electric_scooter", "is_disabled": 0, "lat": 38.921617833333336, "rental_uris": {"ios": "https://dc.lft.to/lastmile_qr_scan", "android": "https://dc.lft.to/lastmile_qr_scan"}, "is_reserved": 0, "fusion_lon": 0.0, "fusion_lat": 0.0, "lon": -77.038431, "name": "9f60a53213a1b20624938f0a3844beef"}, {"bike_id": "000a72c1949fd8455525b4fc7337412e", "type": "electric_scooter", "is_disabled": 0, "lat": 38.909666, "rental_uris": {"ios": "https://dc.lft.to/lastmile_qr_scan", "android": "https://dc.lft.to/lastmile_qr_scan"}, "is_reserved": 0, "fusion_lon": 0.0, "fusion_lat": 0.0, "lon": -77.0228835, "name": "000a72c1949fd8455525b4fc7337412e"}, {"bike_id": "49cb686a1860829f23065aad71089700", "type": "electric_scooter", "is_disabled": 0, "lat": 38.862104333333335, "rental_uris": {"ios": "https://dc.lft.to/lastmile_qr_scan", "android": "https://dc.lft.to/lastmile_qr_scan"}, "is_reserved": 0, "fusion_lon": 0.0, "fusion_lat": 0.0, "lon": -76.9947405, "name": "49cb686a1860829f23065aad71089700"}, {"bike_id": "50ac97180fec7f43efb5b6b2600ab2cc", "type": "electric_scooter", "is_disabled": 0, "lat": 38.91691333333333, "rental_uris": {"ios": "https://dc.lft.to/lastmile_qr_scan", "android": "https://dc.lft.to/lastmile_qr_scan"}, "is_reserved": 0, "fusion_lon": 0.0, "fusion_lat": 0.0, "lon": -77.02601633333333, "name": "50ac97180fec7f43efb5b6b2600ab2cc"}, {"bike_id": "7266969e6efe51e6827d701a6c1cc426", "type": "electric_scooter", "is_disabled": 0, "lat": 38.900457833333334, "rental_uris": {"ios": "https://dc.lft.to/lastmile_qr_scan", "android": "https://dc.lft.to/lastmile_qr_scan"}, "is_reserved": 0, "fusion_lon": 0.0, "fusion_lat": 0.0, "lon": -77.01667666666667, "name": "7266969e6efe51e6827d701a6c1cc426"}, {"bike_id": "d39aa30fc9f2cae18f1ba11228afa8d3", "type": "electric_scooter", "is_disabled": 0, "lat": 38.9141425, "rental_uris": {"ios": "https://dc.lft.to/lastmile_qr_scan", "android": "https://dc.lft.to/lastmile_qr_scan"}, "is_reserved": 0, "fusion_lon": 0.0, "fusion_lat": 0.0, "lon": -77.0210165, "name": "d39aa30fc9f2cae18f1ba11228afa8d3"}, {"bike_id": "d451c404f6c74e43c79c60ee42083457", "type": "electric_scooter", "is_disabled": 0, "lat": 38.92596533333333, "rental_uris": {"ios": "https://dc.lft.to/lastmile_qr_scan", "android": "https://dc.lft.to/lastmile_qr_scan"}, "is_reserved": 0, "fusion_lon": 0.0, "fusion_lat": 0.0, "lon": -77.023864, "name": "d451c404f6c74e43c79c60ee42083457"}, {"bike_id": "c8d37f5501967eea4a661c3aaf1bccfa", "type": "electric_scooter", "is_disabled": 0, "lat": 38.909475, "rental_uris": {"ios": "https://dc.lft.to/lastmile_qr_scan", "android": "https://dc.lft.to/lastmile_qr_scan"}, "is_reserved": 0, "fusion_lon": 0.0, "fusion_lat": 0.0, "lon": -77.0556305, "name": "c8d37f5501967eea4a661c3aaf1bccfa"}, {"bike_id": "48a88cb94606167ccd055e798e8fc50c", "type": "electric_bike", "is_disabled": 0, "lat": 38.92059866666666, "rental_uris": {"ios": "https://dc.lft.to/lastmile_qr_scan", "android": "https://dc.lft.to/lastmile_qr_scan"}, "is_reserved": 0, "fusion_lon": 0.0, "fusion_lat": 0.0, "lon": -77.07453983333333, "name": "48a88cb94606167ccd055e798e8fc50c"}, {"bike_id": "bc1d716d4820af5a4f3a89eb8228b3c2", "type": "electric_scooter", "is_disabled": 0, "lat": 38.83094166666667, "rental_uris": {"ios": "https://dc.lft.to/lastmile_qr_scan", "android": "https://dc.lft.to/lastmile_qr_scan"}, "is_reserved": 0, "fusion_lon": 0.0, "fusion_lat": 0.0, "lon": -77.0517105, "name": "bc1d716d4820af5a4f3a89eb8228b3c2"}, {"bike_id": "4d09e343f6b665f87cd8c236b644fa19", "type": "electric_scooter", "is_disabled": 0, "lat": 38.91410883333333, "rental_uris": {"ios": "https://dc.lft.to/lastmile_qr_scan", "android": "https://dc.lft.to/lastmile_qr_scan"}, "is_reserved": 0, "fusion_lon": 0.0, "fusion_lat": 0.0, "lon": -77.02215, "name": "4d09e343f6b665f87cd8c236b644fa19"}, {"bike_id": "1b62ca2e22c8da42bd7d256b81ff488a", "type": "electric_scooter", "is_disabled": 0, "lat": 38.92315766666667, "rental_uris": {"ios": "https://dc.lft.to/lastmile_qr_scan", "android": "https://dc.lft.to/lastmile_qr_scan"}, "is_reserved": 0, "fusion_lon": 0.0, "fusion_lat": 0.0, "lon": -77.038084, "name": "1b62ca2e22c8da42bd7d256b81ff488a"}, {"bike_id": "a7ae86430bc9bc4a7a7ca6bce7372002", "type": "electric_scooter", "is_disabled": 0, "lat": 38.927648833333336, "rental_uris": {"ios": "https://dc.lft.to/lastmile_qr_scan", "android": "https://dc.lft.to/lastmile_qr_scan"}, "is_reserved": 0, "fusion_lon": 0.0, "fusion_lat": 0.0, "lon": -76.96098266666667, "name": "a7ae86430bc9bc4a7a7ca6bce7372002"}, {"bike_id": "5c3101984ecc27733ce3d9449cc242f8", "type": "electric_scooter", "is_disabled": 0, "lat": 38.88723233333333, "rental_uris": {"ios": "https://dc.lft.to/lastmile_qr_scan", "android": "https://dc.lft.to/lastmile_qr_scan"}, "is_reserved": 0, "fusion_lon": 0.0, "fusion_lat": 0.0, "lon": -77.02787633333334, "name": "5c3101984ecc27733ce3d9449cc242f8"}, {"bike_id": "049d0064cedaaf2d0881712ed2830b5e", "type": "electric_scooter", "is_disabled": 0, "lat": 38.86729366666667, "rental_uris": {"ios": "https://dc.lft.to/lastmile_qr_scan", "android": "https://dc.lft.to/lastmile_qr_scan"}, "is_reserved": 0, "fusion_lon": 0.0, "fusion_lat": 0.0, "lon": -76.97861083333333, "name": "049d0064cedaaf2d0881712ed2830b5e"}, {"bike_id": "9fba44bddc3d107b7c8b4ed06fa24f20", "type": "electric_scooter", "is_disabled": 0, "lat": 38.909743166666665, "rental_uris": {"ios": "https://dc.lft.to/lastmile_qr_scan", "android": "https://dc.lft.to/lastmile_qr_scan"}, "is_reserved": 0, "fusion_lon": 0.0, "fusion_lat": 0.0, "lon": -77.0279965, "name": "9fba44bddc3d107b7c8b4ed06fa24f20"}, {"bike_id": "299cd8ad10bc956843f41497004c675b", "type": "electric_scooter", "is_disabled": 0, "lat": 38.88430233333333, "rental_uris": {"ios": "https://dc.lft.to/lastmile_qr_scan", "android": "https://dc.lft.to/lastmile_qr_scan"}, "is_reserved": 0, "fusion_lon": 0.0, "fusion_lat": 0.0, "lon": -76.9574435, "name": "299cd8ad10bc956843f41497004c675b"}, {"bike_id": "3b564279eed31ed36baa080d9a70021f", "type": "electric_scooter", "is_disabled": 0, "lat": 38.92862616666667, "rental_uris": {"ios": "https://dc.lft.to/lastmile_qr_scan", "android": "https://dc.lft.to/lastmile_qr_scan"}, "is_reserved": 0, "fusion_lon": 0.0, "fusion_lat": 0.0, "lon": -77.0231665, "name": "3b564279eed31ed36baa080d9a70021f"}, {"bike_id": "5e636c45d8263974867cc624ff8755cc", "type": "electric_scooter", "is_disabled": 0, "lat": 38.90279733333333, "rental_uris": {"ios": "https://dc.lft.to/lastmile_qr_scan", "android": "https://dc.lft.to/lastmile_qr_scan"}, "is_reserved": 0, "fusion_lon": 0.0, "fusion_lat": 0.0, "lon": -77.03649333333334, "name": "5e636c45d8263974867cc624ff8755cc"}, {"bike_id": "a80e459000b6d70aefc5fe3f111beb34", "type": "electric_scooter", "is_disabled": 0, "lat": 38.87469316666667, "rental_uris": {"ios": "https://dc.lft.to/lastmile_qr_scan", "android": "https://dc.lft.to/lastmile_qr_scan"}, "is_reserved": 0, "fusion_lon": 0.0, "fusion_lat": 0.0, "lon": -77.01069866666667, "name": "a80e459000b6d70aefc5fe3f111beb34"}, {"bike_id": "c2cc36bef92b694d0a16fe6cf62ba433", "type": "electric_scooter", "is_disabled": 0, "lat": 38.90516733333333, "rental_uris": {"ios": "https://dc.lft.to/lastmile_qr_scan", "android": "https://dc.lft.to/lastmile_qr_scan"}, "is_reserved": 0, "fusion_lon": 0.0, "fusion_lat": 0.0, "lon": -77.062464, "name": "c2cc36bef92b694d0a16fe6cf62ba433"}, {"bike_id": "e1c1675a55c3982e9e662a191e6598c8", "type": "electric_scooter", "is_disabled": 0, "lat": 38.917678, "rental_uris": {"ios": "https://dc.lft.to/lastmile_qr_scan", "android": "https://dc.lft.to/lastmile_qr_scan"}, "is_reserved": 0, "fusion_lon": 0.0, "fusion_lat": 0.0, "lon": -77.03189533333334, "name": "e1c1675a55c3982e9e662a191e6598c8"}, {"bike_id": "ce1b431127e67a7d583d68af4537b621", "type": "electric_scooter", "is_disabled": 0, "lat": 38.95731133333334, "rental_uris": {"ios": "https://dc.lft.to/lastmile_qr_scan", "android": "https://dc.lft.to/lastmile_qr_scan"}, "is_reserved": 0, "fusion_lon": 0.0, "fusion_lat": 0.0, "lon": -77.02422483333334, "name": "ce1b431127e67a7d583d68af4537b621"}, {"bike_id": "0af6e48ec23e334613a75d9aa1e32329", "type": "electric_scooter", "is_disabled": 0, "lat": 38.887361166666665, "rental_uris": {"ios": "https://dc.lft.to/lastmile_qr_scan", "android": "https://dc.lft.to/lastmile_qr_scan"}, "is_reserved": 0, "fusion_lon": 0.0, "fusion_lat": 0.0, "lon": -77.01527433333334, "name": "0af6e48ec23e334613a75d9aa1e32329"}, {"bike_id": "92ca4ecbb8aa398abdaebf62dda1cc88", "type": "electric_scooter", "is_disabled": 0, "lat": 38.91684083333333, "rental_uris": {"ios": "https://dc.lft.to/lastmile_qr_scan", "android": "https://dc.lft.to/lastmile_qr_scan"}, "is_reserved": 0, "fusion_lon": 0.0, "fusion_lat": 0.0, "lon": -77.02970833333333, "name": "92ca4ecbb8aa398abdaebf62dda1cc88"}, {"bike_id": "4e5b5639c92bcbd722cfc3ab794a3cab", "type": "electric_scooter", "is_disabled": 0, "lat": 38.903835, "rental_uris": {"ios": "https://dc.lft.to/lastmile_qr_scan", "android": "https://dc.lft.to/lastmile_qr_scan"}, "is_reserved": 0, "fusion_lon": 0.0, "fusion_lat": 0.0, "lon": -76.982094, "name": "4e5b5639c92bcbd722cfc3ab794a3cab"}, {"bike_id": "8275cec536a5f2c35b0a9cf9ed0d0a1d", "type": "electric_bike", "is_disabled": 0, "lat": 38.83850966666667, "rental_uris": {"ios": "https://dc.lft.to/lastmile_qr_scan", "android": "https://dc.lft.to/lastmile_qr_scan"}, "is_reserved": 0, "fusion_lon": 0.0, "fusion_lat": 0.0, "lon": -77.05022583333333, "name": "8275cec536a5f2c35b0a9cf9ed0d0a1d"}, {"bike_id": "532925117ac4cf2a87b5e3ed48880ba9", "type": "electric_scooter", "is_disabled": 0, "lat": 38.93758666666667, "rental_uris": {"ios": "https://dc.lft.to/lastmile_qr_scan", "android": "https://dc.lft.to/lastmile_qr_scan"}, "is_reserved": 0, "fusion_lon": 0.0, "fusion_lat": 0.0, "lon": -77.02477583333334, "name": "532925117ac4cf2a87b5e3ed48880ba9"}, {"bike_id": "434ac3f6b8c5a2bf73706a9995b3f241", "type": "electric_scooter", "is_disabled": 0, "lat": 38.936500833333334, "rental_uris": {"ios": "https://dc.lft.to/lastmile_qr_scan", "android": "https://dc.lft.to/lastmile_qr_scan"}, "is_reserved": 0, "fusion_lon": 0.0, "fusion_lat": 0.0, "lon": -77.026391, "name": "434ac3f6b8c5a2bf73706a9995b3f241"}, {"bike_id": "5ac69d79c9c5d3e64b0360a619323fcc", "type": "electric_scooter", "is_disabled": 0, "lat": 38.91925833333333, "rental_uris": {"ios": "https://dc.lft.to/lastmile_qr_scan", "android": "https://dc.lft.to/lastmile_qr_scan"}, "is_reserved": 0, "fusion_lon": 0.0, "fusion_lat": 0.0, "lon": -77.00232466666667, "name": "5ac69d79c9c5d3e64b0360a619323fcc"}, {"bike_id": "45f0e1f2b2d3c5b70fcbc4720cb90771", "type": "electric_scooter", "is_disabled": 0, "lat": 38.92759316666667, "rental_uris": {"ios": "https://dc.lft.to/lastmile_qr_scan", "android": "https://dc.lft.to/lastmile_qr_scan"}, "is_reserved": 0, "fusion_lon": 0.0, "fusion_lat": 0.0, "lon": -77.05638, "name": "45f0e1f2b2d3c5b70fcbc4720cb90771"}, {"bike_id": "69e99177b33a9b3d5c475a5f6028f428", "type": "electric_scooter", "is_disabled": 0, "lat": 38.91100733333333, "rental_uris": {"ios": "https://dc.lft.to/lastmile_qr_scan", "android": "https://dc.lft.to/lastmile_qr_scan"}, "is_reserved": 0, "fusion_lon": 0.0, "fusion_lat": 0.0, "lon": -77.00211966666667, "name": "69e99177b33a9b3d5c475a5f6028f428"}, {"bike_id": "0964ca49d2afb7b6fa286fe4d4b2f2da", "type": "electric_scooter", "is_disabled": 0, "lat": 38.91665183333333, "rental_uris": {"ios": "https://dc.lft.to/lastmile_qr_scan", "android": "https://dc.lft.to/lastmile_qr_scan"}, "is_reserved": 0, "fusion_lon": 0.0, "fusion_lat": 0.0, "lon": -77.02391833333333, "name": "0964ca49d2afb7b6fa286fe4d4b2f2da"}, {"bike_id": "fe498b3caa8d23aab2406287906a3146", "type": "electric_scooter", "is_disabled": 0, "lat": 38.8737905, "rental_uris": {"ios": "https://dc.lft.to/lastmile_qr_scan", "android": "https://dc.lft.to/lastmile_qr_scan"}, "is_reserved": 0, "fusion_lon": 0.0, "fusion_lat": 0.0, "lon": -77.04331016666667, "name": "fe498b3caa8d23aab2406287906a3146"}, {"bike_id": "73199524ed20b14a1c57133ad26c3a4d", "type": "electric_scooter", "is_disabled": 0, "lat": 38.91072166666667, "rental_uris": {"ios": "https://dc.lft.to/lastmile_qr_scan", "android": "https://dc.lft.to/lastmile_qr_scan"}, "is_reserved": 0, "fusion_lon": 0.0, "fusion_lat": 0.0, "lon": -77.038477, "name": "73199524ed20b14a1c57133ad26c3a4d"}, {"bike_id": "6e25fd6d2ff55806d529241a02b43e31", "type": "electric_scooter", "is_disabled": 0, "lat": 38.936689, "rental_uris": {"ios": "https://dc.lft.to/lastmile_qr_scan", "android": "https://dc.lft.to/lastmile_qr_scan"}, "is_reserved": 0, "fusion_lon": 0.0, "fusion_lat": 0.0, "lon": -77.02443033333333, "name": "6e25fd6d2ff55806d529241a02b43e31"}, {"bike_id": "29f9587cf760ff01c524accb0b4fec94", "type": "electric_scooter", "is_disabled": 0, "lat": 38.91667183333333, "rental_uris": {"ios": "https://dc.lft.to/lastmile_qr_scan", "android": "https://dc.lft.to/lastmile_qr_scan"}, "is_reserved": 0, "fusion_lon": 0.0, "fusion_lat": 0.0, "lon": -77.04686766666667, "name": "29f9587cf760ff01c524accb0b4fec94"}, {"bike_id": "26f59464af20f281debf3783f44d6c6d", "type": "electric_scooter", "is_disabled": 0, "lat": 38.935144666666666, "rental_uris": {"ios": "https://dc.lft.to/lastmile_qr_scan", "android": "https://dc.lft.to/lastmile_qr_scan"}, "is_reserved": 0, "fusion_lon": 0.0, "fusion_lat": 0.0, "lon": -77.03357816666667, "name": "26f59464af20f281debf3783f44d6c6d"}, {"bike_id": "053f513eba7a3a316ddedac4d3b735a1", "type": "electric_scooter", "is_disabled": 0, "lat": 38.89336733333333, "rental_uris": {"ios": "https://dc.lft.to/lastmile_qr_scan", "android": "https://dc.lft.to/lastmile_qr_scan"}, "is_reserved": 0, "fusion_lon": 0.0, "fusion_lat": 0.0, "lon": -76.9505625, "name": "053f513eba7a3a316ddedac4d3b735a1"}, {"bike_id": "053e043e6a863d9892fbbdb107166a46", "type": "electric_scooter", "is_disabled": 0, "lat": 38.900809333333335, "rental_uris": {"ios": "https://dc.lft.to/lastmile_qr_scan", "android": "https://dc.lft.to/lastmile_qr_scan"}, "is_reserved": 0, "fusion_lon": 0.0, "fusion_lat": 0.0, "lon": -76.98337066666667, "name": "053e043e6a863d9892fbbdb107166a46"}, {"bike_id": "1d1d9f006b978a59673a28160a961057", "type": "electric_scooter", "is_disabled": 0, "lat": 38.90269216666667, "rental_uris": {"ios": "https://dc.lft.to/lastmile_qr_scan", "android": "https://dc.lft.to/lastmile_qr_scan"}, "is_reserved": 0, "fusion_lon": 0.0, "fusion_lat": 0.0, "lon": -77.03378766666667, "name": "1d1d9f006b978a59673a28160a961057"}, {"bike_id": "c948e267796419bbacb9bde88ff44ac8", "type": "electric_scooter", "is_disabled": 0, "lat": 38.91402433333333, "rental_uris": {"ios": "https://dc.lft.to/lastmile_qr_scan", "android": "https://dc.lft.to/lastmile_qr_scan"}, "is_reserved": 0, "fusion_lon": 0.0, "fusion_lat": 0.0, "lon": -77.03220783333333, "name": "c948e267796419bbacb9bde88ff44ac8"}, {"bike_id": "1f701a0c47428065e85dd8388ab8b048", "type": "electric_scooter", "is_disabled": 0, "lat": 38.9247175, "rental_uris": {"ios": "https://dc.lft.to/lastmile_qr_scan", "android": "https://dc.lft.to/lastmile_qr_scan"}, "is_reserved": 0, "fusion_lon": 0.0, "fusion_lat": 0.0, "lon": -77.052078, "name": "1f701a0c47428065e85dd8388ab8b048"}, {"bike_id": "6c84a32609c6fef4d493d8e43b68f5a7", "type": "electric_scooter", "is_disabled": 0, "lat": 38.90038033333333, "rental_uris": {"ios": "https://dc.lft.to/lastmile_qr_scan", "android": "https://dc.lft.to/lastmile_qr_scan"}, "is_reserved": 0, "fusion_lon": 0.0, "fusion_lat": 0.0, "lon": -77.03662833333334, "name": "6c84a32609c6fef4d493d8e43b68f5a7"}, {"bike_id": "d4a2579c4e7f7e160ac0eb465795d2ad", "type": "electric_scooter", "is_disabled": 0, "lat": 38.905650666666666, "rental_uris": {"ios": "https://dc.lft.to/lastmile_qr_scan", "android": "https://dc.lft.to/lastmile_qr_scan"}, "is_reserved": 0, "fusion_lon": 0.0, "fusion_lat": 0.0, "lon": -77.04393966666666, "name": "d4a2579c4e7f7e160ac0eb465795d2ad"}, {"bike_id": "70e8c4d08a2115207d52daf6be3cda77", "type": "electric_scooter", "is_disabled": 0, "lat": 38.93100033333333, "rental_uris": {"ios": "https://dc.lft.to/lastmile_qr_scan", "android": "https://dc.lft.to/lastmile_qr_scan"}, "is_reserved": 0, "fusion_lon": 0.0, "fusion_lat": 0.0, "lon": -77.034701, "name": "70e8c4d08a2115207d52daf6be3cda77"}, {"bike_id": "ce03b0c53e0660c4b9b2b708a11b4a97", "type": "electric_scooter", "is_disabled": 0, "lat": 38.915821666666666, "rental_uris": {"ios": "https://dc.lft.to/lastmile_qr_scan", "android": "https://dc.lft.to/lastmile_qr_scan"}, "is_reserved": 0, "fusion_lon": 0.0, "fusion_lat": 0.0, "lon": -77.01139866666666, "name": "ce03b0c53e0660c4b9b2b708a11b4a97"}, {"bike_id": "b4c8113973bd809f49df5022fb2f0b65", "type": "electric_scooter", "is_disabled": 0, "lat": 38.932665666666665, "rental_uris": {"ios": "https://dc.lft.to/lastmile_qr_scan", "android": "https://dc.lft.to/lastmile_qr_scan"}, "is_reserved": 0, "fusion_lon": 0.0, "fusion_lat": 0.0, "lon": -77.03892916666666, "name": "b4c8113973bd809f49df5022fb2f0b65"}, {"bike_id": "7922a822004c90208f01e88a5f160e29", "type": "electric_scooter", "is_disabled": 0, "lat": 38.922831, "rental_uris": {"ios": "https://dc.lft.to/lastmile_qr_scan", "android": "https://dc.lft.to/lastmile_qr_scan"}, "is_reserved": 0, "fusion_lon": 0.0, "fusion_lat": 0.0, "lon": -77.0731595, "name": "7922a822004c90208f01e88a5f160e29"}, {"bike_id": "76633854004d5eb5d924ee9ee42a7f94", "type": "electric_scooter", "is_disabled": 0, "lat": 38.8976805, "rental_uris": {"ios": "https://dc.lft.to/lastmile_qr_scan", "android": "https://dc.lft.to/lastmile_qr_scan"}, "is_reserved": 0, "fusion_lon": 0.0, "fusion_lat": 0.0, "lon": -77.05113533333333, "name": "76633854004d5eb5d924ee9ee42a7f94"}, {"bike_id": "c33100d357b5c8ffe0a55cfd5dab602f", "type": "electric_scooter", "is_disabled": 0, "lat": 38.93682416666667, "rental_uris": {"ios": "https://dc.lft.to/lastmile_qr_scan", "android": "https://dc.lft.to/lastmile_qr_scan"}, "is_reserved": 0, "fusion_lon": 0.0, "fusion_lat": 0.0, "lon": -77.06621866666667, "name": "c33100d357b5c8ffe0a55cfd5dab602f"}, {"bike_id": "5e6012ed1fa6cd2aa7c56b25eb7d1e1b", "type": "electric_scooter", "is_disabled": 0, "lat": 38.89289483333334, "rental_uris": {"ios": "https://dc.lft.to/lastmile_qr_scan", "android": "https://dc.lft.to/lastmile_qr_scan"}, "is_reserved": 0, "fusion_lon": 0.0, "fusion_lat": 0.0, "lon": -77.04870266666667, "name": "5e6012ed1fa6cd2aa7c56b25eb7d1e1b"}, {"bike_id": "2a0cd6ca82514ca7153a81a1bb70d769", "type": "electric_scooter", "is_disabled": 0, "lat": 38.904233, "rental_uris": {"ios": "https://dc.lft.to/lastmile_qr_scan", "android": "https://dc.lft.to/lastmile_qr_scan"}, "is_reserved": 0, "fusion_lon": 0.0, "fusion_lat": 0.0, "lon": -77.02508666666667, "name": "2a0cd6ca82514ca7153a81a1bb70d769"}, {"bike_id": "6f7a525e570b2cb211027b5b4ed77da6", "type": "electric_bike", "is_disabled": 0, "lat": 38.89695716666667, "rental_uris": {"ios": "https://dc.lft.to/lastmile_qr_scan", "android": "https://dc.lft.to/lastmile_qr_scan"}, "is_reserved": 0, "fusion_lon": 0.0, "fusion_lat": 0.0, "lon": -77.08648183333334, "name": "6f7a525e570b2cb211027b5b4ed77da6"}, {"bike_id": "6e9714e47aac5c7be5cbd0165301c9f6", "type": "electric_scooter", "is_disabled": 0, "lat": 38.908852333333336, "rental_uris": {"ios": "https://dc.lft.to/lastmile_qr_scan", "android": "https://dc.lft.to/lastmile_qr_scan"}, "is_reserved": 0, "fusion_lon": 0.0, "fusion_lat": 0.0, "lon": -77.0448275, "name": "6e9714e47aac5c7be5cbd0165301c9f6"}, {"bike_id": "28095295b07891449d635aca89f15737", "type": "electric_scooter", "is_disabled": 0, "lat": 38.91189216666667, "rental_uris": {"ios": "https://dc.lft.to/lastmile_qr_scan", "android": "https://dc.lft.to/lastmile_qr_scan"}, "is_reserved": 0, "fusion_lon": 0.0, "fusion_lat": 0.0, "lon": -77.0021015, "name": "28095295b07891449d635aca89f15737"}, {"bike_id": "b9e85a03a955f6feb0ad30398f5a0098", "type": "electric_scooter", "is_disabled": 0, "lat": 38.920686333333336, "rental_uris": {"ios": "https://dc.lft.to/lastmile_qr_scan", "android": "https://dc.lft.to/lastmile_qr_scan"}, "is_reserved": 0, "fusion_lon": 0.0, "fusion_lat": 0.0, "lon": -77.02839633333333, "name": "b9e85a03a955f6feb0ad30398f5a0098"}, {"bike_id": "55237edc06e5c0f6552510753f8ee185", "type": "electric_scooter", "is_disabled": 0, "lat": 38.91629433333333, "rental_uris": {"ios": "https://dc.lft.to/lastmile_qr_scan", "android": "https://dc.lft.to/lastmile_qr_scan"}, "is_reserved": 0, "fusion_lon": 0.0, "fusion_lat": 0.0, "lon": -77.02555433333333, "name": "55237edc06e5c0f6552510753f8ee185"}, {"bike_id": "f588a3bfa0112d47bf477fdd2c5adb20", "type": "electric_scooter", "is_disabled": 0, "lat": 38.916300666666665, "rental_uris": {"ios": "https://dc.lft.to/lastmile_qr_scan", "android": "https://dc.lft.to/lastmile_qr_scan"}, "is_reserved": 0, "fusion_lon": 0.0, "fusion_lat": 0.0, "lon": -77.04010783333334, "name": "f588a3bfa0112d47bf477fdd2c5adb20"}, {"bike_id": "9ab2ee11409b8aec9870593a2f8d5441", "type": "electric_scooter", "is_disabled": 0, "lat": 38.9202835, "rental_uris": {"ios": "https://dc.lft.to/lastmile_qr_scan", "android": "https://dc.lft.to/lastmile_qr_scan"}, "is_reserved": 0, "fusion_lon": 0.0, "fusion_lat": 0.0, "lon": -77.01306783333334, "name": "9ab2ee11409b8aec9870593a2f8d5441"}, {"bike_id": "33b7ebf11ac17451f046aae774b2021c", "type": "electric_scooter", "is_disabled": 0, "lat": 38.915691833333334, "rental_uris": {"ios": "https://dc.lft.to/lastmile_qr_scan", "android": "https://dc.lft.to/lastmile_qr_scan"}, "is_reserved": 0, "fusion_lon": 0.0, "fusion_lat": 0.0, "lon": -77.02416266666667, "name": "33b7ebf11ac17451f046aae774b2021c"}, {"bike_id": "e6bad2ce4b33b3a80d5efee1b8c1f827", "type": "electric_scooter", "is_disabled": 0, "lat": 38.931652, "rental_uris": {"ios": "https://dc.lft.to/lastmile_qr_scan", "android": "https://dc.lft.to/lastmile_qr_scan"}, "is_reserved": 0, "fusion_lon": 0.0, "fusion_lat": 0.0, "lon": -77.0316195, "name": "e6bad2ce4b33b3a80d5efee1b8c1f827"}, {"bike_id": "a5259c15301b70d77830ff7ef82d3585", "type": "electric_scooter", "is_disabled": 0, "lat": 38.90118283333334, "rental_uris": {"ios": "https://dc.lft.to/lastmile_qr_scan", "android": "https://dc.lft.to/lastmile_qr_scan"}, "is_reserved": 0, "fusion_lon": 0.0, "fusion_lat": 0.0, "lon": -77.04995266666667, "name": "a5259c15301b70d77830ff7ef82d3585"}, {"bike_id": "78edcf3b855170334ff5a1311b8cc2b4", "type": "electric_scooter", "is_disabled": 0, "lat": 38.92361416666667, "rental_uris": {"ios": "https://dc.lft.to/lastmile_qr_scan", "android": "https://dc.lft.to/lastmile_qr_scan"}, "is_reserved": 0, "fusion_lon": 0.0, "fusion_lat": 0.0, "lon": -77.05042716666667, "name": "78edcf3b855170334ff5a1311b8cc2b4"}, {"bike_id": "72350077da3b7ccca9daefc14152f627", "type": "electric_bike", "is_disabled": 0, "lat": 38.872996, "rental_uris": {"ios": "https://dc.lft.to/lastmile_qr_scan", "android": "https://dc.lft.to/lastmile_qr_scan"}, "is_reserved": 0, "fusion_lon": 0.0, "fusion_lat": 0.0, "lon": -77.13927416666667, "name": "72350077da3b7ccca9daefc14152f627"}, {"bike_id": "faaa053254a1836afb7221f2802a6485", "type": "electric_scooter", "is_disabled": 0, "lat": 38.939153166666664, "rental_uris": {"ios": "https://dc.lft.to/lastmile_qr_scan", "android": "https://dc.lft.to/lastmile_qr_scan"}, "is_reserved": 0, "fusion_lon": 0.0, "fusion_lat": 0.0, "lon": -77.06046983333333, "name": "faaa053254a1836afb7221f2802a6485"}, {"bike_id": "3de1c9fde560727dce51d8cde4809ce6", "type": "electric_scooter", "is_disabled": 0, "lat": 38.941984, "rental_uris": {"ios": "https://dc.lft.to/lastmile_qr_scan", "android": "https://dc.lft.to/lastmile_qr_scan"}, "is_reserved": 0, "fusion_lon": 0.0, "fusion_lat": 0.0, "lon": -77.01734616666667, "name": "3de1c9fde560727dce51d8cde4809ce6"}, {"bike_id": "6dcb8dc2a2d1c9c1d25b85bb825d5e67", "type": "electric_scooter", "is_disabled": 0, "lat": 38.90576883333333, "rental_uris": {"ios": "https://dc.lft.to/lastmile_qr_scan", "android": "https://dc.lft.to/lastmile_qr_scan"}, "is_reserved": 0, "fusion_lon": 0.0, "fusion_lat": 0.0, "lon": -76.98432533333333, "name": "6dcb8dc2a2d1c9c1d25b85bb825d5e67"}, {"bike_id": "bd6cc4ed8993c8040c50ba5aff42781b", "type": "electric_scooter", "is_disabled": 0, "lat": 38.880994333333334, "rental_uris": {"ios": "https://dc.lft.to/lastmile_qr_scan", "android": "https://dc.lft.to/lastmile_qr_scan"}, "is_reserved": 0, "fusion_lon": 0.0, "fusion_lat": 0.0, "lon": -77.01680883333333, "name": "bd6cc4ed8993c8040c50ba5aff42781b"}, {"bike_id": "129aaa9823a54e5edf36652eaec22845", "type": "electric_scooter", "is_disabled": 0, "lat": 38.91678983333333, "rental_uris": {"ios": "https://dc.lft.to/lastmile_qr_scan", "android": "https://dc.lft.to/lastmile_qr_scan"}, "is_reserved": 0, "fusion_lon": 0.0, "fusion_lat": 0.0, "lon": -77.02871666666667, "name": "129aaa9823a54e5edf36652eaec22845"}, {"bike_id": "78298577b302c7405a80727359bb8a73", "type": "electric_scooter", "is_disabled": 0, "lat": 38.8847375, "rental_uris": {"ios": "https://dc.lft.to/lastmile_qr_scan", "android": "https://dc.lft.to/lastmile_qr_scan"}, "is_reserved": 0, "fusion_lon": 0.0, "fusion_lat": 0.0, "lon": -76.98214933333334, "name": "78298577b302c7405a80727359bb8a73"}, {"bike_id": "6c438b86ea6d58344de1167a4ca1e077", "type": "electric_scooter", "is_disabled": 0, "lat": 38.902468666666664, "rental_uris": {"ios": "https://dc.lft.to/lastmile_qr_scan", "android": "https://dc.lft.to/lastmile_qr_scan"}, "is_reserved": 0, "fusion_lon": 0.0, "fusion_lat": 0.0, "lon": -77.0265035, "name": "6c438b86ea6d58344de1167a4ca1e077"}, {"bike_id": "c3d1560d5144d57a5dc6017d49be58da", "type": "electric_scooter", "is_disabled": 0, "lat": 38.93863133333333, "rental_uris": {"ios": "https://dc.lft.to/lastmile_qr_scan", "android": "https://dc.lft.to/lastmile_qr_scan"}, "is_reserved": 0, "fusion_lon": 0.0, "fusion_lat": 0.0, "lon": -77.02705516666667, "name": "c3d1560d5144d57a5dc6017d49be58da"}, {"bike_id": "82fb6f3bf1da86530e98b04dd933950e", "type": "electric_bike", "is_disabled": 0, "lat": 38.8730215, "rental_uris": {"ios": "https://dc.lft.to/lastmile_qr_scan", "android": "https://dc.lft.to/lastmile_qr_scan"}, "is_reserved": 0, "fusion_lon": 0.0, "fusion_lat": 0.0, "lon": -77.13924933333334, "name": "82fb6f3bf1da86530e98b04dd933950e"}, {"bike_id": "3c341879fc1f392d4ed21d0f0d53a0b4", "type": "electric_scooter", "is_disabled": 0, "lat": 38.93355566666666, "rental_uris": {"ios": "https://dc.lft.to/lastmile_qr_scan", "android": "https://dc.lft.to/lastmile_qr_scan"}, "is_reserved": 0, "fusion_lon": 0.0, "fusion_lat": 0.0, "lon": -77.06203816666667, "name": "3c341879fc1f392d4ed21d0f0d53a0b4"}, {"bike_id": "b98a94bdb3265c6a1aa2a7ce8160e2dc", "type": "electric_scooter", "is_disabled": 0, "lat": 38.928657666666666, "rental_uris": {"ios": "https://dc.lft.to/lastmile_qr_scan", "android": "https://dc.lft.to/lastmile_qr_scan"}, "is_reserved": 0, "fusion_lon": 0.0, "fusion_lat": 0.0, "lon": -77.034325, "name": "b98a94bdb3265c6a1aa2a7ce8160e2dc"}, {"bike_id": "d2447b28c0062475bc96ab82c721d2d9", "type": "electric_scooter", "is_disabled": 0, "lat": 38.9242565, "rental_uris": {"ios": "https://dc.lft.to/lastmile_qr_scan", "android": "https://dc.lft.to/lastmile_qr_scan"}, "is_reserved": 0, "fusion_lon": 0.0, "fusion_lat": 0.0, "lon": -77.04244666666666, "name": "d2447b28c0062475bc96ab82c721d2d9"}, {"bike_id": "7c1f9294954c56f88b0e83817c7aed48", "type": "electric_scooter", "is_disabled": 0, "lat": 38.95314166666667, "rental_uris": {"ios": "https://dc.lft.to/lastmile_qr_scan", "android": "https://dc.lft.to/lastmile_qr_scan"}, "is_reserved": 0, "fusion_lon": 0.0, "fusion_lat": 0.0, "lon": -77.06980933333334, "name": "7c1f9294954c56f88b0e83817c7aed48"}, {"bike_id": "fe1487d2e4aca55f2c455bb4c48e7539", "type": "electric_scooter", "is_disabled": 0, "lat": 38.91138333333333, "rental_uris": {"ios": "https://dc.lft.to/lastmile_qr_scan", "android": "https://dc.lft.to/lastmile_qr_scan"}, "is_reserved": 0, "fusion_lon": 0.0, "fusion_lat": 0.0, "lon": -76.99012633333334, "name": "fe1487d2e4aca55f2c455bb4c48e7539"}, {"bike_id": "98a7487ccd2e27e16e1f38d50962017e", "type": "electric_scooter", "is_disabled": 0, "lat": 38.8952245, "rental_uris": {"ios": "https://dc.lft.to/lastmile_qr_scan", "android": "https://dc.lft.to/lastmile_qr_scan"}, "is_reserved": 0, "fusion_lon": 0.0, "fusion_lat": 0.0, "lon": -77.01100316666667, "name": "98a7487ccd2e27e16e1f38d50962017e"}, {"bike_id": "5feb689964d3eb072263c0bdd22c9d04", "type": "electric_scooter", "is_disabled": 0, "lat": 38.936110666666664, "rental_uris": {"ios": "https://dc.lft.to/lastmile_qr_scan", "android": "https://dc.lft.to/lastmile_qr_scan"}, "is_reserved": 0, "fusion_lon": 0.0, "fusion_lat": 0.0, "lon": -77.03792866666667, "name": "5feb689964d3eb072263c0bdd22c9d04"}, {"bike_id": "92781950526de66a656e5abe7e46aa7b", "type": "electric_bike", "is_disabled": 0, "lat": 38.90818266666667, "rental_uris": {"ios": "https://dc.lft.to/lastmile_qr_scan", "android": "https://dc.lft.to/lastmile_qr_scan"}, "is_reserved": 0, "fusion_lon": 0.0, "fusion_lat": 0.0, "lon": -76.94034366666666, "name": "92781950526de66a656e5abe7e46aa7b"}, {"bike_id": "1e75591f04930e0abb42efee0d07b360", "type": "electric_scooter", "is_disabled": 0, "lat": 38.90568066666667, "rental_uris": {"ios": "https://dc.lft.to/lastmile_qr_scan", "android": "https://dc.lft.to/lastmile_qr_scan"}, "is_reserved": 0, "fusion_lon": 0.0, "fusion_lat": 0.0, "lon": -76.97621283333334, "name": "1e75591f04930e0abb42efee0d07b360"}, {"bike_id": "a1f83ce0e8d6a7e91e832a6b49978d35", "type": "electric_scooter", "is_disabled": 0, "lat": 38.8709135, "rental_uris": {"ios": "https://dc.lft.to/lastmile_qr_scan", "android": "https://dc.lft.to/lastmile_qr_scan"}, "is_reserved": 0, "fusion_lon": 0.0, "fusion_lat": 0.0, "lon": -77.01206183333333, "name": "a1f83ce0e8d6a7e91e832a6b49978d35"}, {"bike_id": "20dd45e72836629661053a26c7ba1978", "type": "electric_scooter", "is_disabled": 0, "lat": 38.9007695, "rental_uris": {"ios": "https://dc.lft.to/lastmile_qr_scan", "android": "https://dc.lft.to/lastmile_qr_scan"}, "is_reserved": 0, "fusion_lon": 0.0, "fusion_lat": 0.0, "lon": -77.0183875, "name": "20dd45e72836629661053a26c7ba1978"}, {"bike_id": "b3606c9a766142e93b533dd51d1b72a2", "type": "electric_scooter", "is_disabled": 0, "lat": 38.925624, "rental_uris": {"ios": "https://dc.lft.to/lastmile_qr_scan", "android": "https://dc.lft.to/lastmile_qr_scan"}, "is_reserved": 0, "fusion_lon": 0.0, "fusion_lat": 0.0, "lon": -77.0376855, "name": "b3606c9a766142e93b533dd51d1b72a2"}, {"bike_id": "35adb4f4d85d41bb6530c934cb777afb", "type": "electric_scooter", "is_disabled": 0, "lat": 38.88395333333333, "rental_uris": {"ios": "https://dc.lft.to/lastmile_qr_scan", "android": "https://dc.lft.to/lastmile_qr_scan"}, "is_reserved": 0, "fusion_lon": 0.0, "fusion_lat": 0.0, "lon": -76.95394483333334, "name": "35adb4f4d85d41bb6530c934cb777afb"}, {"bike_id": "531a193f82f1ef68950c044e3264063c", "type": "electric_scooter", "is_disabled": 0, "lat": 38.89100966666667, "rental_uris": {"ios": "https://dc.lft.to/lastmile_qr_scan", "android": "https://dc.lft.to/lastmile_qr_scan"}, "is_reserved": 0, "fusion_lon": 0.0, "fusion_lat": 0.0, "lon": -76.93847833333334, "name": "531a193f82f1ef68950c044e3264063c"}, {"bike_id": "17cdec06afd655348e6750f96f157a48", "type": "electric_scooter", "is_disabled": 0, "lat": 38.932487, "rental_uris": {"ios": "https://dc.lft.to/lastmile_qr_scan", "android": "https://dc.lft.to/lastmile_qr_scan"}, "is_reserved": 0, "fusion_lon": 0.0, "fusion_lat": 0.0, "lon": -77.03276883333334, "name": "17cdec06afd655348e6750f96f157a48"}, {"bike_id": "ff1ee6abc8441ffbb776e45ec1fbe634", "type": "electric_scooter", "is_disabled": 0, "lat": 38.91522533333333, "rental_uris": {"ios": "https://dc.lft.to/lastmile_qr_scan", "android": "https://dc.lft.to/lastmile_qr_scan"}, "is_reserved": 0, "fusion_lon": 0.0, "fusion_lat": 0.0, "lon": -77.04850383333333, "name": "ff1ee6abc8441ffbb776e45ec1fbe634"}, {"bike_id": "372638b531f4fc620d0fe00fa0be40c3", "type": "electric_scooter", "is_disabled": 0, "lat": 38.908593, "rental_uris": {"ios": "https://dc.lft.to/lastmile_qr_scan", "android": "https://dc.lft.to/lastmile_qr_scan"}, "is_reserved": 0, "fusion_lon": 0.0, "fusion_lat": 0.0, "lon": -77.08591866666667, "name": "372638b531f4fc620d0fe00fa0be40c3"}, {"bike_id": "faf931c9e6809e51bfa1456cbfef3225", "type": "electric_scooter", "is_disabled": 0, "lat": 38.91070033333333, "rental_uris": {"ios": "https://dc.lft.to/lastmile_qr_scan", "android": "https://dc.lft.to/lastmile_qr_scan"}, "is_reserved": 0, "fusion_lon": 0.0, "fusion_lat": 0.0, "lon": -77.03717966666666, "name": "faf931c9e6809e51bfa1456cbfef3225"}, {"bike_id": "601f1181675b7a9cda151e26cee20328", "type": "electric_scooter", "is_disabled": 0, "lat": 38.92253783333334, "rental_uris": {"ios": "https://dc.lft.to/lastmile_qr_scan", "android": "https://dc.lft.to/lastmile_qr_scan"}, "is_reserved": 0, "fusion_lon": 0.0, "fusion_lat": 0.0, "lon": -77.042997, "name": "601f1181675b7a9cda151e26cee20328"}, {"bike_id": "ffc773c843b154981ce3601c91bf8cf7", "type": "electric_scooter", "is_disabled": 0, "lat": 38.907789, "rental_uris": {"ios": "https://dc.lft.to/lastmile_qr_scan", "android": "https://dc.lft.to/lastmile_qr_scan"}, "is_reserved": 0, "fusion_lon": 0.0, "fusion_lat": 0.0, "lon": -77.010757, "name": "ffc773c843b154981ce3601c91bf8cf7"},