{"data": {"bikes": [{"fusion_lon": 0.0, "bike_id": "fe44bb169aaf82211de8eda90a4518ab", "name": "fe44bb169aaf82211de8eda90a4518ab", "type": "electric_scooter", "lon": -76.93429816666666, "rental_uris": {"android": "https://dc.lft.to/lastmile_qr_scan", "ios": "https://dc.lft.to/lastmile_qr_scan"}, "lat": 38.899674833333336, "is_reserved": 0, "is_disabled": 0, "fusion_lat": 0.0}, {"fusion_lon": 0.0, "bike_id": "7dfb9e05e1e0cac8dadc61c6545497d1", "name": "7dfb9e05e1e0cac8dadc61c6545497d1", "type": "electric_scooter", "lon": -77.02850066666667, "rental_uris": {"android": "https://dc.lft.to/lastmile_qr_scan", "ios": "https://dc.lft.to/lastmile_qr_scan"}, "lat": 38.922422166666664, "is_reserved": 0, "is_disabled": 0, "fusion_lat": 0.0}, {"fusion_lon": 0.0, "bike_id": "0724b735f63d0b281aa763c6e5286bc5", "name": "0724b735f63d0b281aa763c6e5286bc5", "type": "electric_scooter", "lon": -77.02280383333333, "rental_uris": {"android": "https://dc.lft.to/lastmile_qr_scan", "ios": "https://dc.lft.to/lastmile_qr_scan"}, "lat": 38.916873333333335, "is_reserved": 0, "is_disabled": 0, "fusion_lat": 0.0}, {"fusion_lon": 0.0, "bike_id": "9c74d0e22c572826c7bbd181cffa3f7f", "name": "9c74d0e22c572826c7bbd181cffa3f7f", "type": "electric_scooter", "lon": -77.00592983333334, "rental_uris": {"android": "https://dc.lft.to/lastmile_qr_scan", "ios": "https://dc.lft.to/lastmile_qr_scan"}, "lat": 38.877148166666665, "is_reserved": 0, "is_disabled": 0, "fusion_lat": 0.0}, {"fusion_lon": 0.0, "bike_id": "667c0952b7a706b7219954ab56cdd658", "name": "667c0952b7a706b7219954ab56cdd658", "type": "electric_scooter", "lon": -77.05290066666667, "rental_uris": {"android": "https://dc.lft.to/lastmile_qr_scan", "ios": "https://dc.lft.to/lastmile_qr_scan"}, "lat": 38.927844666666665, "is_reserved": 0, "is_disabled": 0, "fusion_lat": 0.0}, {"fusion_lon": 0.0, "bike_id": "b29346d4c6edfe7038b01ece098452e1", "name": "b29346d4c6edfe7038b01ece098452e1", "type": "electric_scooter", "lon": -77.0249495, "rental_uris": {"android": "https://dc.lft.to/lastmile_qr_scan", "ios": "https://dc.lft.to/lastmile_qr_scan"}, "lat": 38.9180695, "is_reserved": 0, "is_disabled": 0, "fusion_lat": 0.0}, {"fusion_lon": 0.0, "bike_id": "948d2a13b9a9d42ab5eab50060e63f50", "name": "948d2a13b9a9d42ab5eab50060e63f50", "type": "electric_scooter", "lon": -77.02512883333333, "rental_uris": {"android": "https://dc.lft.to/lastmile_qr_scan", "ios": "https://dc.lft.to/lastmile_qr_scan"}, "lat": 38.9193075, "is_reserved": 0, "is_disabled": 0, "fusion_lat": 0.0}, {"fusion_lon": 0.0, "bike_id": "7a16b9676ba21c8727b9c1de0864c2b5", "name": "7a16b9676ba21c8727b9c1de0864c2b5", "type": "electric_bike", "lon": -76.9832735, "rental_uris": {"android": "https://dc.lft.to/lastmile_qr_scan", "ios": "https://dc.lft.to/lastmile_qr_scan"}, "lat": 38.9660555, "is_reserved": 0, "is_disabled": 0, "fusion_lat": 0.0}, {"fusion_lon": 0.0, "bike_id": "19d84c5d9454f9fb879c61e5f1a1554c", "name": "19d84c5d9454f9fb879c61e5f1a1554c", "type": "electric_scooter", "lon": -76.99001916666667, "rental_uris": {"android": "https://dc.lft.to/lastmile_qr_scan", "ios": "https://dc.lft.to/lastmile_qr_scan"}, "lat": 38.86504933333333, "is_reserved": 0, "is_disabled": 0, "fusion_lat": 0.0}, {"fusion_lon": 0.0, "bike_id": "aae0fce4849e9b4ba1bcf854609bff99", "name": "aae0fce4849e9b4ba1bcf854609bff99", "type": "electric_scooter", "lon": -77.042912, "rental_uris": {"android": "https://dc.lft.to/lastmile_qr_scan", "ios": "https://dc.lft.to/lastmile_qr_scan"}, "lat": 38.91790016666667, "is_reserved": 0, "is_disabled": 0, "fusion_lat": 0.0}, {"fusion_lon": 0.0, "bike_id": "ac179a4a13d0920e1a64dae196d3b2d0", "name": "ac179a4a13d0920e1a64dae196d3b2d0", "type": "electric_scooter", "lon": -77.04680583333334, "rental_uris": {"android": "https://dc.lft.to/lastmile_qr_scan", "ios": "https://dc.lft.to/lastmile_qr_scan"}, "lat": 38.898299, "is_reserved": 0, "is_disabled": 0, "fusion_lat": 0.0}, {"fusion_lon": 0.0, "bike_id": "d5ee6a162b65c1bc05dd429dcdd8d2c1", "name": "d5ee6a162b65c1bc05dd429dcdd8d2c1", "type": "electric_scooter", "lon": -77.034257, "rental_uris": {"android": "https://dc.lft.to/lastmile_qr_scan", "ios": "https://dc.lft.to/lastmile_qr_scan"}, "lat": 38.907967166666666, "is_reserved": 0, "is_disabled": 0, "fusion_lat": 0.0}, {"fusion_lon": 0.0, "bike_id": "14ea3e00736eac9d3db49000fa077749", "name": "14ea3e00736eac9d3db49000fa077749", "type": "electric_scooter", "lon": -77.03849883333334, "rental_uris": {"android": "https://dc.lft.to/lastmile_qr_scan", "ios": "https://dc.lft.to/lastmile_qr_scan"}, "lat": 38.910172, "is_reserved": 0, "is_disabled": 0, "fusion_lat": 0.0}, {"fusion_lon": 0.0, "bike_id": "cd72fc44ea3e269ef694db704a3b0c69", "name": "cd72fc44ea3e269ef694db704a3b0c69", "type": "electric_scooter", "lon": -77.03717816666666, "rental_uris": {"android": "https://dc.lft.to/lastmile_qr_scan", "ios": "https://dc.lft.to/lastmile_qr_scan"}, "lat": 38.918086833333334, "is_reserved": 0, "is_disabled": 0, "fusion_lat": 0.0}, {"fusion_lon": 0.0, "bike_id": "08920a26c4ad45026aa2aaebe6e6194d", "name": "08920a26c4ad45026aa2aaebe6e6194d", "type": "electric_scooter", "lon": -77.00577283333334, "rental_uris": {"android": "https://dc.lft.to/lastmile_qr_scan", "ios": "https://dc.lft.to/lastmile_qr_scan"}, "lat": 38.90558933333333, "is_reserved": 0, "is_disabled": 0, "fusion_lat": 0.0}, {"fusion_lon": 0.0, "bike_id": "4db11a390470c2cc16e2a114d0846813", "name": "4db11a390470c2cc16e2a114d0846813", "type": "electric_scooter", "lon": -77.008565, "rental_uris": {"android": "https://dc.lft.to/lastmile_qr_scan", "ios": "https://dc.lft.to/lastmile_qr_scan"}, "lat": 38.87651566666667, "is_reserved": 0, "is_disabled": 0, "fusion_lat": 0.0}, {"fusion_lon": 0.0, "bike_id": "02493dab3c4459c959ee79d57350d1be", "name": "02493dab3c4459c959ee79d57350d1be", "type": "electric_scooter", "lon": -77.08613983333333, "rental_uris": {"android": "https://dc.lft.to/lastmile_qr_scan", "ios": "https://dc.lft.to/lastmile_qr_scan"}, "lat": 38.9587445, "is_reserved": 0, "is_disabled": 0, "fusion_lat": 0.0}, {"fusion_lon": 0.0, "bike_id": "88e05e69ddd0c26ad65012b3cbba8205", "name": "88e05e69ddd0c26ad65012b3cbba8205", "type": "electric_scooter", "lon": -76.99900583333333, "rental_uris": {"android": "https://dc.lft.to/lastmile_qr_scan", "ios": "https://dc.lft.to/lastmile_qr_scan"}, "lat": 38.95650783333333, "is_reserved": 0, "is_disabled": 0, "fusion_lat": 0.0}, {"fusion_lon": 0.0, "bike_id": "04e6780e65baa2826cf23f1867235d26", "name": "04e6780e65baa2826cf23f1867235d26", "type": "electric_scooter", "lon": -76.986583, "rental_uris": {"android": "https://dc.lft.to/lastmile_qr_scan", "ios": "https://dc.lft.to/lastmile_qr_scan"}, "lat": 38.91315566666667, "is_reserved": 0, "is_disabled": 0, "fusion_lat": 0.0}, {"fusion_lon": 0.0, "bike_id": "da0d60fd73e4eff653db6971123cfa1b", "name": "da0d60fd73e4eff653db6971123cfa1b", "type": "electric_scooter", "lon": -76.998089, "rental_uris": {"android": "https://dc.lft.to/lastmile_qr_scan", "ios": "https://dc.lft.to/lastmile_qr_scan"}, "lat": 38.87682216666666, "is_reserved": 0, "is_disabled": 0, "fusion_lat": 0.0}, {"fusion_lon": 0.0, "bike_id": "703ada355eb1a21e8365e331ccaa6e13", "name": "703ada355eb1a21e8365e331ccaa6e13", "type": "electric_scooter", "lon": -76.948983, "rental_uris": {"android": "https://dc.lft.to/lastmile_qr_scan", "ios": "https://dc.lft.to/lastmile_qr_scan"}, "lat": 38.89533266666667, "is_reserved": 0, "is_disabled": 0, "fusion_lat": 0.0}, {"fusion_lon": 0.0, "bike_id": "bba2b855320f53aef196c6b29666f0ff", "name": "bba2b855320f53aef196c6b29666f0ff", "type": "electric_bike", "lon": -76.95999, "rental_uris": {"android": "https://dc.lft.to/lastmile_qr_scan", "ios": "https://dc.lft.to/lastmile_qr_scan"}, "lat": 38.87017066666667, "is_reserved": 0, "is_disabled": 0, "fusion_lat": 0.0}, {"fusion_lon": 0.0, "bike_id": "ed1d2792a9dfa5458cac932de421102b", "name": "ed1d2792a9dfa5458cac932de421102b", "type": "electric_scooter", "lon": -77.03150266666667, "rental_uris": {"android": "https://dc.lft.to/lastmile_qr_scan", "ios": "https://dc.lft.to/lastmile_qr_scan"}, "lat": 38.883096, "is_reserved": 0, "is_disabled": 0, "fusion_lat": 0.0}, {"fusion_lon": 0.0, "bike_id": "b4a7462b5fb89e1d03c945413235a1fa", "name": "b4a7462b5fb89e1d03c945413235a1fa", "type": "electric_scooter", "lon": -77.05297383333334, "rental_uris": {"android": "https://dc.lft.to/lastmile_qr_scan", "ios": "https://dc.lft.to/lastmile_qr_scan"}, "lat": 38.91018233333333, "is_reserved": 0, "is_disabled": 0, "fusion_lat": 0.0}, {"fusion_lon": 0.0, "bike_id": "b47e35659780f6005abd80c80e04d472", "name": "b47e35659780f6005abd80c80e04d472", "type": "electric_scooter", "lon": -77.00582516666667, "rental_uris": {"android": "https://dc.lft.to/lastmile_qr_scan", "ios": "https://dc.lft.to/lastmile_qr_scan"}, "lat": 38.905500333333336, "is_reserved": 0, "is_disabled": 0, "fusion_lat": 0.0}, {"fusion_lon": 0.0, "bike_id": "83ae62ee35342030c03a6102f2f4e120", "name": "83ae62ee35342030c03a6102f2f4e120", "type": "electric_bike", "lon": -77.178439, "rental_uris": {"android": "https://dc.lft.to/lastmile_qr_scan", "ios": "https://dc.lft.to/lastmile_qr_scan"}, "lat": 39.089058333333334, "is_reserved": 0, "is_disabled": 0, "fusion_lat": 0.0}, {"fusion_lon": 0.0, "bike_id": "f919c57c8a1223dc8acfef7156e91519", "name": "f919c57c8a1223dc8acfef7156e91519", "type": "electric_scooter", "lon": -76.986632, "rental_uris": {"android": "https://dc.lft.to/lastmile_qr_scan", "ios": "https://dc.lft.to/lastmile_qr_scan"}, "lat": 38.901451333333334, "is_reserved": 0, "is_disabled": 0, "fusion_lat": 0.0}, {"fusion_lon": 0.0, "bike_id": "6931736e492c956cfa53640371da213a", "name": "6931736e492c956cfa53640371da213a", "type": "electric_scooter", "lon": -77.0420645, "rental_uris": {"android": "https://dc.lft.to/lastmile_qr_scan", "ios": "https://dc.lft.to/lastmile_qr_scan"}, "lat": 38.91705916666667, "is_reserved": 0, "is_disabled": 0, "fusion_lat": 0.0}, {"fusion_lon": 0.0, "bike_id": "d024cd3bf1a63a3c7b1fb2a9efb3e30f", "name": "d024cd3bf1a63a3c7b1fb2a9efb3e30f", "type": "electric_scooter", "lon": -77.07301666666666, "rental_uris": {"android": "https://dc.lft.to/lastmile_qr_scan", "ios": "https://dc.lft.to/lastmile_qr_scan"}, "lat": 38.9216545, "is_reserved": 0, "is_disabled": 0, "fusion_lat": 0.0}, {"fusion_lon": 0.0, "bike_id": "3d15b28d79fdc3774a846d5d4077b7ea", "name": "3d15b28d79fdc3774a846d5d4077b7ea", "type": "electric_scooter", "lon": -77.018208, "rental_uris": {"android": "https://dc.lft.to/lastmile_qr_scan", "ios": "https://dc.lft.to/lastmile_qr_scan"}, "lat": 38.92203166666667, "is_reserved": 0, "is_disabled": 0, "fusion_lat": 0.0}, {"fusion_lon": 0.0, "bike_id": "7b0d2bfa7f9511c69ab7fa98520d374f", "name": "7b0d2bfa7f9511c69ab7fa98520d374f", "type": "electric_bike", "lon": -77.043078, "rental_uris": {"android": "https://dc.lft.to/lastmile_qr_scan", "ios": "https://dc.lft.to/lastmile_qr_scan"}, "lat": 39.054515, "is_reserved": 0, "is_disabled": 0, "fusion_lat": 0.0}, {"fusion_lon": 0.0, "bike_id": "d4ef677609e82aee4fa6f5f8e2b2840a", "name": "d4ef677609e82aee4fa6f5f8e2b2840a", "type": "electric_scooter", "lon": -76.99864466666666, "rental_uris": {"android": "https://dc.lft.to/lastmile_qr_scan", "ios": "https://dc.lft.to/lastmile_qr_scan"}, "lat": 38.90900933333333, "is_reserved": 0, "is_disabled": 0, "fusion_lat": 0.0}, {"fusion_lon": 0.0, "bike_id": "b467ef0762af89d59031291a2369ef42", "name": "b467ef0762af89d59031291a2369ef42", "type": "electric_scooter", "lon": -77.03800066666666, "rental_uris": {"android": "https://dc.lft.to/lastmile_qr_scan", "ios": "https://dc.lft.to/lastmile_qr_scan"}, "lat": 38.910373, "is_reserved": 0, "is_disabled": 0, "fusion_lat": 0.0}, {"fusion_lon": 0.0, "bike_id": "a8121c89cf120d2c230384136f7007e6", "name": "a8121c89cf120d2c230384136f7007e6", "type": "electric_scooter", "lon": -77.02313616666666, "rental_uris": {"android": "https://dc.lft.to/lastmile_qr_scan", "ios": "https://dc.lft.to/lastmile_qr_scan"}, "lat": 38.91791533333333, "is_reserved": 0, "is_disabled": 0, "fusion_lat": 0.0}, {"fusion_lon": 0.0, "bike_id": "99a65c6992d389d51ee9bdbc617e61a8", "name": "99a65c6992d389d51ee9bdbc617e61a8", "type": "electric_scooter", "lon": -77.04238983333333, "rental_uris": {"android": "https://dc.lft.to/lastmile_qr_scan", "ios": "https://dc.lft.to/lastmile_qr_scan"}, "lat": 38.921560666666664, "is_reserved": 0, "is_disabled": 0, "fusion_lat": 0.0}, {"fusion_lon": 0.0, "bike_id": "9a7cd7d92046c82137c0c5250611ff3c", "name": "9a7cd7d92046c82137c0c5250611ff3c", "type": "electric_bike", "lon": -77.10130533333333, "rental_uris": {"android": "https://dc.lft.to/lastmile_qr_scan", "ios": "https://dc.lft.to/lastmile_qr_scan"}, "lat": 38.85209866666667, "is_reserved": 0, "is_disabled": 0, "fusion_lat": 0.0}, {"fusion_lon": 0.0, "bike_id": "f11caf2ac9ff29dd5d1a9353073d6656", "name": "f11caf2ac9ff29dd5d1a9353073d6656", "type": "electric_scooter", "lon": -77.03522633333333, "rental_uris": {"android": "https://dc.lft.to/lastmile_qr_scan", "ios": "https://dc.lft.to/lastmile_qr_scan"}, "lat": 38.932760333333334, "is_reserved": 0, "is_disabled": 0, "fusion_lat": 0.0}, {"fusion_lon": 0.0, "bike_id": "1e08ef18ab38e05b9f94c0182106f88e", "name": "1e08ef18ab38e05b9f94c0182106f88e", "type": "electric_scooter", "lon": -77.01860833333333, "rental_uris": {"android": "https://dc.lft.to/lastmile_qr_scan", "ios": "https://dc.lft.to/lastmile_qr_scan"}, "lat": 38.902522, "is_reserved": 0, "is_disabled": 0, "fusion_lat": 0.0}, {"fusion_lon": 0.0, "bike_id": "99a26c8e09f34012f15aa2a8aad26802", "name": "99a26c8e09f34012f15aa2a8aad26802", "type": "electric_scooter", "lon": -77.04511533333333, "rental_uris": {"android": "https://dc.lft.to/lastmile_qr_scan", "ios": "https://dc.lft.to/lastmile_qr_scan"}, "lat": 38.886063666666665, "is_reserved": 0, "is_disabled": 0, "fusion_lat": 0.0}, {"fusion_lon": 0.0, "bike_id": "0bcc0fba8d51d9ff150f4d4e87508310", "name": "0bcc0fba8d51d9ff150f4d4e87508310", "type": "electric_scooter", "lon": -77.0386095, "rental_uris": {"android": "https://dc.lft.to/lastmile_qr_scan", "ios": "https://dc.lft.to/lastmile_qr_scan"}, "lat": 38.915565, "is_reserved": 0, "is_disabled": 0, "fusion_lat": 0.0}, {"fusion_lon": 0.0, "bike_id": "18f54e318d399d21ccd621aa971d75dd", "name": "18f54e318d399d21ccd621aa971d75dd", "type": "electric_scooter", "lon": -77.05095666666666, "rental_uris": {"android": "https://dc.lft.to/lastmile_qr_scan", "ios": "https://dc.lft.to/lastmile_qr_scan"}, "lat": 38.90538083333333, "is_reserved": 0, "is_disabled": 0, "fusion_lat": 0.0}, {"fusion_lon": 0.0, "bike_id": "cc67ee43fbd0f83146331d32cc962d3a", "name": "cc67ee43fbd0f83146331d32cc962d3a", "type": "electric_scooter", "lon": -77.04391416666667, "rental_uris": {"android": "https://dc.lft.to/lastmile_qr_scan", "ios": "https://dc.lft.to/lastmile_qr_scan"}, "lat": 38.922792333333334, "is_reserved": 0, "is_disabled": 0, "fusion_lat": 0.0}, {"fusion_lon": 0.0, "bike_id": "94335ae9ec05ffe6f7ff4388134fe753", "name": "94335ae9ec05ffe6f7ff4388134fe753", "type": "electric_scooter", "lon": -77.00820683333333, "rental_uris": {"android": "https://dc.lft.to/lastmile_qr_scan", "ios": "https://dc.lft.to/lastmile_qr_scan"}, "lat": 38.87625383333334, "is_reserved": 0, "is_disabled": 0, "fusion_lat": 0.0}, {"fusion_lon": 0.0, "bike_id": "2205f300efd88c082158243fd1ac687a", "name": "2205f300efd88c082158243fd1ac687a", "type": "electric_scooter", "lon": -76.9984335, "rental_uris": {"android": "https://dc.lft.to/lastmile_qr_scan", "ios": "https://dc.lft.to/lastmile_qr_scan"}, "lat": 38.9002865, "is_reserved": 0, "is_disabled": 0, "fusion_lat": 0.0}, {"fusion_lon": 0.0, "bike_id": "17d636e598c7463d64fdfa8e6d15a56b", "name": "17d636e598c7463d64fdfa8e6d15a56b", "type": "electric_scooter", "lon": -77.04893766666666, "rental_uris": {"android": "https://dc.lft.to/lastmile_qr_scan", "ios": "https://dc.lft.to/lastmile_qr_scan"}, "lat": 38.89251483333334, "is_reserved": 0, "is_disabled": 0, "fusion_lat": 0.0}, {"fusion_lon": 0.0, "bike_id": "6441986cee1bcb05919e650fd6768fed", "name": "6441986cee1bcb05919e650fd6768fed", "type": "electric_scooter", "lon": -76.99263183333333, "rental_uris": {"android": "https://dc.lft.to/lastmile_qr_scan", "ios": "https://dc.lft.to/lastmile_qr_scan"}, "lat": 38.9232505, "is_reserved": 0, "is_disabled": 0, "fusion_lat": 0.0}, {"fusion_lon": 0.0, "bike_id": "c87b40cea7955d0106a612616e0da62d", "name": "c87b40cea7955d0106a612616e0da62d", "type": "electric_scooter", "lon": -76.98707983333334, "rental_uris": {"android": "https://dc.lft.to/lastmile_qr_scan", "ios": "https://dc.lft.to/lastmile_qr_scan"}, "lat": 38.866992833333335, "is_reserved": 0, "is_disabled": 0, "fusion_lat": 0.0}, {"fusion_lon": 0.0, "bike_id": "b7a51426f2d73eaa94ea2994db428fc1", "name": "b7a51426f2d73eaa94ea2994db428fc1", "type": "electric_bike", "lon": -76.975656, "rental_uris": {"android": "https://dc.lft.to/lastmile_qr_scan", "ios": "https://dc.lft.to/lastmile_qr_scan"}, "lat": 38.9246115, "is_reserved": 0, "is_disabled": 0, "fusion_lat": 0.0}, {"fusion_lon": 0.0, "bike_id": "227bbc10ef113be08e3bb13c042def73", "name": "227bbc10ef113be08e3bb13c042def73", "type": "electric_scooter", "lon": -76.96504383333334, "rental_uris": {"android": "https://dc.lft.to/lastmile_qr_scan", "ios": "https://dc.lft.to/lastmile_qr_scan"}, "lat": 38.87649716666667, "is_reserved": 0, "is_disabled": 0, "fusion_lat": 0.0}, {"fusion_lon": 0.0, "bike_id": "b610e310b97c46874129520225303c2f", "name": "b610e310b97c46874129520225303c2f", "type": "electric_scooter", "lon": -76.94994383333334, "rental_uris": {"android": "https://dc.lft.to/lastmile_qr_scan", "ios": "https://dc.lft.to/lastmile_qr_scan"}, "lat": 38.893905333333336, "is_reserved": 0, "is_disabled": 0, "fusion_lat": 0.0}, {"fusion_lon": 0.0, "bike_id": "31b0a9aa82bc5551324b75d61bab1549", "name": "31b0a9aa82bc5551324b75d61bab1549", "type": "electric_scooter", "lon": -76.98595366666666, "rental_uris": {"android": "https://dc.lft.to/lastmile_qr_scan", "ios": "https://dc.lft.to/lastmile_qr_scan"}, "lat": 38.906510833333336, "is_reserved": 0, "is_disabled": 0, "fusion_lat": 0.0}, {"fusion_lon": 0.0, "bike_id": "f00ae277433197707bcb1ef30e179bfc", "name": "f00ae277433197707bcb1ef30e179bfc", "type": "electric_scooter", "lon": -77.03861833333333, "rental_uris": {"android": "https://dc.lft.to/lastmile_qr_scan", "ios": "https://dc.lft.to/lastmile_qr_scan"}, "lat": 38.90782766666667, "is_reserved": 0, "is_disabled": 0, "fusion_lat": 0.0}, {"fusion_lon": 0.0, "bike_id": "76a4662413b370de8e6a08d20ce97146", "name": "76a4662413b370de8e6a08d20ce97146", "type": "electric_scooter", "lon": -77.0321495, "rental_uris": {"android": "https://dc.lft.to/lastmile_qr_scan", "ios": "https://dc.lft.to/lastmile_qr_scan"}, "lat": 38.9097635, "is_reserved": 0, "is_disabled": 0, "fusion_lat": 0.0}, {"fusion_lon": 0.0, "bike_id": "8651d5d6fc536cb643a5c6a5579a537c", "name": "8651d5d6fc536cb643a5c6a5579a537c", "type": "electric_scooter", "lon": -77.04648966666667, "rental_uris": {"android": "https://dc.lft.to/lastmile_qr_scan", "ios": "https://dc.lft.to/lastmile_qr_scan"}, "lat": 38.90406683333333, "is_reserved": 0, "is_disabled": 0, "fusion_lat": 0.0}, {"fusion_lon": 0.0, "bike_id": "3ebeb4809dbd2dbeb872f9ea8a302db8", "name": "3ebeb4809dbd2dbeb872f9ea8a302db8", "type": "electric_scooter", "lon": -77.0036795, "rental_uris": {"android": "https://dc.lft.to/lastmile_qr_scan", "ios": "https://dc.lft.to/lastmile_qr_scan"}, "lat": 38.877528166666664, "is_reserved": 0, "is_disabled": 0, "fusion_lat": 0.0}, {"fusion_lon": 0.0, "bike_id": "f3f349d829eaf7a3d3de459fcbb224b5", "name": "f3f349d829eaf7a3d3de459fcbb224b5", "type": "electric_scooter", "lon": -77.0112545, "rental_uris": {"android": "https://dc.lft.to/lastmile_qr_scan", "ios": "https://dc.lft.to/lastmile_qr_scan"}, "lat": 38.89519833333333, "is_reserved": 0, "is_disabled": 0, "fusion_lat": 0.0}, {"fusion_lon": 0.0, "bike_id": "9951832582a499145b6741f33c280e38", "name": "9951832582a499145b6741f33c280e38", "type": "electric_scooter", "lon": -77.07171033333333, "rental_uris": {"android": "https://dc.lft.to/lastmile_qr_scan", "ios": "https://dc.lft.to/lastmile_qr_scan"}, "lat": 38.90764016666667, "is_reserved": 0, "is_disabled": 0, "fusion_lat": 0.0}, {"fusion_lon": 0.0, "bike_id": "11067c19ca992acc918f0830c7ba3d0a", "name": "11067c19ca992acc918f0830c7ba3d0a", "type": "electric_scooter", "lon": -77.02169016666667, "rental_uris": {"android": "https://dc.lft.to/lastmile_qr_scan", "ios": "https://dc.lft.to/lastmile_qr_scan"}, "lat": 38.94295116666667, "is_reserved": 0, "is_disabled": 0, "fusion_lat": 0.0}, {"fusion_lon": 0.0, "bike_id": "efbb95d3a2e69ec050607c00dc2b349a", "name": "efbb95d3a2e69ec050607c00dc2b349a", "type": "electric_scooter", "lon": -77.04658933333333, "rental_uris": {"android": "https://dc.lft.to/lastmile_qr_scan", "ios": "https://dc.lft.to/lastmile_qr_scan"}, "lat": 38.90415866666667, "is_reserved": 0, "is_disabled": 0, "fusion_lat": 0.0}, {"fusion_lon": 0.0, "bike_id": "70d23205c6b5edb4f772aa7bf3be4176", "name": "70d23205c6b5edb4f772aa7bf3be4176", "type": "electric_scooter", "lon": -77.02551033333333, "rental_uris": {"android": "https://dc.lft.to/lastmile_qr_scan", "ios": "https://dc.lft.to/lastmile_qr_scan"}, "lat": 38.900885833333334, "is_reserved": 0, "is_disabled": 0, "fusion_lat": 0.0}, {"fusion_lon": 0.0, "bike_id": "51c0b3b066d359b0f51768723d5c93df", "name": "51c0b3b066d359b0f51768723d5c93df", "type": "electric_bike", "lon": -77.13232316666667, "rental_uris": {"android": "https://dc.lft.to/lastmile_qr_scan", "ios": "https://dc.lft.to/lastmile_qr_scan"}, "lat": 38.869747, "is_reserved": 0, "is_disabled": 0, "fusion_lat": 0.0}, {"fusion_lon": 0.0, "bike_id": "901e4d5d92236adcafad3540444a667a", "name": "901e4d5d92236adcafad3540444a667a", "type": "electric_scooter", "lon": -77.0460965, "rental_uris": {"android": "https://dc.lft.to/lastmile_qr_scan", "ios": "https://dc.lft.to/lastmile_qr_scan"}, "lat": 38.905761, "is_reserved": 0, "is_disabled": 0, "fusion_lat": 0.0}, {"fusion_lon": 0.0, "bike_id": "95ed7e359fa5543d8573c6c14bb8c77c", "name": "95ed7e359fa5543d8573c6c14bb8c77c", "type": "electric_scooter", "lon": -77.02713433333334, "rental_uris": {"android": "https://dc.lft.to/lastmile_qr_scan", "ios": "https://dc.lft.to/lastmile_qr_scan"}, "lat": 38.9075155, "is_reserved": 0, "is_disabled": 0, "fusion_lat": 0.0}, {"fusion_lon": 0.0, "bike_id": "51e0592d7a13685ebc706d46829acfb9", "name": "51e0592d7a13685ebc706d46829acfb9", "type": "electric_scooter", "lon": -77.00097716666667, "rental_uris": {"android": "https://dc.lft.to/lastmile_qr_scan", "ios": "https://dc.lft.to/lastmile_qr_scan"}, "lat": 38.897438666666666, "is_reserved": 0, "is_disabled": 0, "fusion_lat": 0.0}, {"fusion_lon": 0.0, "bike_id": "5d386265e1d8cf9a7e468d0eef09e168", "name": "5d386265e1d8cf9a7e468d0eef09e168", "type": "electric_scooter", "lon": -77.00750233333333, "rental_uris": {"android": "https://dc.lft.to/lastmile_qr_scan", "ios": "https://dc.lft.to/lastmile_qr_scan"}, "lat": 38.8766975, "is_reserved": 0, "is_disabled": 0, "fusion_lat": 0.0}, {"fusion_lon": 0.0, "bike_id": "5722edc4cb89491ee950065659198273", "name": "5722edc4cb89491ee950065659198273", "type": "electric_scooter", "lon": -77.0320615, "rental_uris": {"android": "https://dc.lft.to/lastmile_qr_scan", "ios": "https://dc.lft.to/lastmile_qr_scan"}, "lat": 38.9192325, "is_reserved": 0, "is_disabled": 0, "fusion_lat": 0.0}, {"fusion_lon": 0.0, "bike_id": "34d97e29bc51942453d2db44773100b2", "name": "34d97e29bc51942453d2db44773100b2", "type": "electric_scooter", "lon": -77.00582, "rental_uris": {"android": "https://dc.lft.to/lastmile_qr_scan", "ios": "https://dc.lft.to/lastmile_qr_scan"}, "lat": 38.8751405, "is_reserved": 0, "is_disabled": 0, "fusion_lat": 0.0}, {"fusion_lon": 0.0, "bike_id": "e4dacfdc06a5de506f25be826a986c2d", "name": "e4dacfdc06a5de506f25be826a986c2d", "type": "electric_scooter", "lon": -77.0265605, "rental_uris": {"android": "https://dc.lft.to/lastmile_qr_scan", "ios": "https://dc.lft.to/lastmile_qr_scan"}, "lat": 38.93099633333333, "is_reserved": 0, "is_disabled": 0, "fusion_lat": 0.0}, {"fusion_lon": 0.0, "bike_id": "0a811cc945e4229bcb508faed0d18d9b", "name": "0a811cc945e4229bcb508faed0d18d9b", "type": "electric_scooter", "lon": -76.99163633333333, "rental_uris": {"android": "https://dc.lft.to/lastmile_qr_scan", "ios": "https://dc.lft.to/lastmile_qr_scan"}, "lat": 38.879173, "is_reserved": 0, "is_disabled": 0, "fusion_lat": 0.0}, {"fusion_lon": 0.0, "bike_id": "928990165a0b526e75c78929d1a45e5d", "name": "928990165a0b526e75c78929d1a45e5d", "type": "electric_scooter", "lon": -77.04749466666667, "rental_uris": {"android": "https://dc.lft.to/lastmile_qr_scan", "ios": "https://dc.lft.to/lastmile_qr_scan"}, "lat": 38.90242033333333, "is_reserved": 0, "is_disabled": 0, "fusion_lat": 0.0}, {"fusion_lon": 0.0, "bike_id": "05fffffa2c0767776b003143ad549e48", "name": "05fffffa2c0767776b003143ad549e48", "type": "electric_scooter", "lon": -77.04509333333333, "rental_uris": {"android": "https://dc.lft.to/lastmile_qr_scan", "ios": "https://dc.lft.to/lastmile_qr_scan"}, "lat": 38.91281933333333, "is_reserved": 0, "is_disabled": 0, "fusion_lat": 0.0}, {"fusion_lon": 0.0, "bike_id": "941446d7bfbd31d09ff595797da57d08", "name": "941446d7bfbd31d09ff595797da57d08", "type": "electric_scooter", "lon": -76.9982155, "rental_uris": {"android": "https://dc.lft.to/lastmile_qr_scan", "ios": "https://dc.lft.to/lastmile_qr_scan"}, "lat": 38.907136333333334, "is_reserved": 0, "is_disabled": 0, "fusion_lat": 0.0}, {"fusion_lon": 0.0, "bike_id": "66912d3f5fdb9661fb735da521d8168b", "name": "66912d3f5fdb9661fb735da521d8168b", "type": "electric_bike", "lon": -77.12254633333333, "rental_uris": {"android": "https://dc.lft.to/lastmile_qr_scan", "ios": "https://dc.lft.to/lastmile_qr_scan"}, "lat": 38.887677833333335, "is_reserved": 0, "is_disabled": 0, "fusion_lat": 0.0}, {"fusion_lon": 0.0, "bike_id": "aa849da95e3bf99154491dacd89bd8d2", "name": "aa849da95e3bf99154491dacd89bd8d2", "type": "electric_scooter", "lon": -77.041451, "rental_uris": {"android": "https://dc.lft.to/lastmile_qr_scan", "ios": "https://dc.lft.to/lastmile_qr_scan"}, "lat": 38.9171035, "is_reserved": 0, "is_disabled": 0, "fusion_lat": 0.0}, {"fusion_lon": 0.0, "bike_id": "c8bd1911bc6f94d9f798472b6beb161c", "name": "c8bd1911bc6f94d9f798472b6beb161c", "type": "electric_scooter", "lon": -77.07857683333333, "rental_uris": {"android": "https://dc.lft.to/lastmile_qr_scan", "ios": "https://dc.lft.to/lastmile_qr_scan"}, "lat": 38.924618, "is_reserved": 0, "is_disabled": 0, "fusion_lat": 0.0}, {"fusion_lon": 0.0, "bike_id": "8093a5a4352f9cdd32106e8362c4ec7a", "name": "8093a5a4352f9cdd32106e8362c4ec7a", "type": "electric_scooter", "lon": -77.0057995, "rental_uris": {"android": "https://dc.lft.to/lastmile_qr_scan", "ios": "https://dc.lft.to/lastmile_qr_scan"}, "lat": 38.87661416666667, "is_reserved": 0, "is_disabled": 0, "fusion_lat": 0.0}, {"fusion_lon": 0.0, "bike_id": "44995c779c29cdf4cc2f48c54ec483ae", "name": "44995c779c29cdf4cc2f48c54ec483ae", "type": "electric_scooter", "lon": -77.00455466666666, "rental_uris": {"android": "https://dc.lft.to/lastmile_qr_scan", "ios": "https://dc.lft.to/lastmile_qr_scan"}, "lat": 38.8767365, "is_reserved": 0, "is_disabled": 0, "fusion_lat": 0.0}, {"fusion_lon": 0.0, "bike_id": "4c14d61691e867991fb580cdd64afc8c", "name": "4c14d61691e867991fb580cdd64afc8c", "type": "electric_scooter", "lon": -77.02872333333333, "rental_uris": {"android": "https://dc.lft.to/lastmile_qr_scan", "ios": "https://dc.lft.to/lastmile_qr_scan"}, "lat": 38.9005045, "is_reserved": 0, "is_disabled": 0, "fusion_lat": 0.0}, {"fusion_lon": 0.0, "bike_id": "e70c0a77cb095325b6b1736290698d78", "name": "e70c0a77cb095325b6b1736290698d78", "type": "electric_bike", "lon": -77.07680766666667, "rental_uris": {"android": "https://dc.lft.to/lastmile_qr_scan", "ios": "https://dc.lft.to/lastmile_qr_scan"}, "lat": 38.83195216666667, "is_reserved": 0, "is_disabled": 0, "fusion_lat": 0.0}, {"fusion_lon": 0.0, "bike_id": "909b2025138829b5fdf4479320bfc875", "name": "909b2025138829b5fdf4479320bfc875", "type": "electric_scooter", "lon": -77.01092566666667, "rental_uris": {"android": "https://dc.lft.to/lastmile_qr_scan", "ios": "https://dc.lft.to/lastmile_qr_scan"}, "lat": 38.90561816666667, "is_reserved": 0, "is_disabled": 0, "fusion_lat": 0.0}, {"fusion_lon": 0.0, "bike_id": "ad6d09bc2da33f61b9269624ad65c61a", "name": "ad6d09bc2da33f61b9269624ad65c61a", "type": "electric_scooter", "lon": -77.04180133333334, "rental_uris": {"android": "https://dc.lft.to/lastmile_qr_scan", "ios": "https://dc.lft.to/lastmile_qr_scan"}, "lat": 38.9126575, "is_reserved": 0, "is_disabled": 0, "fusion_lat": 0.0}, {"fusion_lon": 0.0, "bike_id": "9a958aa44163a31644bae9846b66ddf9", "name": "9a958aa44163a31644bae9846b66ddf9", "type": "electric_scooter", "lon": -77.024165, "rental_uris": {"android": "https://dc.lft.to/lastmile_qr_scan", "ios": "https://dc.lft.to/lastmile_qr_scan"}, "lat": 38.9057165, "is_reserved": 0, "is_disabled": 0, "fusion_lat": 0.0}, {"fusion_lon": 0.0, "bike_id": "5e55a5263c68444b5bda471dcc20b576", "name": "5e55a5263c68444b5bda471dcc20b576", "type": "electric_bike", "lon": -77.11218366666667, "rental_uris": {"android": "https://dc.lft.to/lastmile_qr_scan", "ios": "https://dc.lft.to/lastmile_qr_scan"}, "lat": 38.828773166666664, "is_reserved": 0, "is_disabled": 0, "fusion_lat": 0.0}, {"fusion_lon": 0.0, "bike_id": "87c84ecd9f9d5ba4273a97f44cea7384", "name": "87c84ecd9f9d5ba4273a97f44cea7384", "type": "electric_scooter", "lon": -77.034472, "rental_uris": {"android": "https://dc.lft.to/lastmile_qr_scan", "ios": "https://dc.lft.to/lastmile_qr_scan"}, "lat": 38.90573066666666, "is_reserved": 0, "is_disabled": 0, "fusion_lat": 0.0}, {"fusion_lon": 0.0, "bike_id": "944c4f46b5d23f0b6de570c3b9678f60", "name": "944c4f46b5d23f0b6de570c3b9678f60", "type": "electric_scooter", "lon": -77.030228, "rental_uris": {"android": "https://dc.lft.to/lastmile_qr_scan", "ios": "https://dc.lft.to/lastmile_qr_scan"}, "lat": 38.926688, "is_reserved": 0, "is_disabled": 0, "fusion_lat": 0.0}, {"fusion_lon": 0.0, "bike_id": "2d64b289fdf03dfda31fb16e2a74a450", "name": "2d64b289fdf03dfda31fb16e2a74a450", "type": "electric_scooter", "lon": -77.04781466666667, "rental_uris": {"android": "https://dc.lft.to/lastmile_qr_scan", "ios": "https://dc.lft.to/lastmile_qr_scan"}, "lat": 38.90244633333333, "is_reserved": 0, "is_disabled": 0, "fusion_lat": 0.0}, {"fusion_lon": 0.0, "bike_id": "447290e9090e90fe6edc951158f334d5", "name": "447290e9090e90fe6edc951158f334d5", "type": "electric_scooter", "lon": -77.041198, "rental_uris": {"android": "https://dc.lft.to/lastmile_qr_scan", "ios": "https://dc.lft.to/lastmile_qr_scan"}, "lat": 38.934019, "is_reserved": 0, "is_disabled": 0, "fusion_lat": 0.0}, {"fusion_lon": 0.0, "bike_id": "7791188fabf4fe65a393a856a7b4780a", "name": "7791188fabf4fe65a393a856a7b4780a", "type": "electric_bike", "lon": -76.93540916666667, "rental_uris": {"android": "https://dc.lft.to/lastmile_qr_scan", "ios": "https://dc.lft.to/lastmile_qr_scan"}, "lat": 38.955593666666665, "is_reserved": 0, "is_disabled": 0, "fusion_lat": 0.0}, {"fusion_lon": 0.0, "bike_id": "1fa8be648de28b1fc7a2a8c8ad9a8ddb", "name": "1fa8be648de28b1fc7a2a8c8ad9a8ddb", "type": "electric_scooter", "lon": -77.03322633333333, "rental_uris": {"android": "https://dc.lft.to/lastmile_qr_scan", "ios": "https://dc.lft.to/lastmile_qr_scan"}, "lat": 38.91566383333333, "is_reserved": 0, "is_disabled": 0, "fusion_lat": 0.0}, {"fusion_lon": 0.0, "bike_id": "156453904e6ac012c0251e90d5092a66", "name": "156453904e6ac012c0251e90d5092a66", "type": "electric_scooter", "lon": -77.03852516666667, "rental_uris": {"android": "https://dc.lft.to/lastmile_qr_scan", "ios": "https://dc.lft.to/lastmile_qr_scan"}, "lat": 38.918394166666666, "is_reserved": 0, "is_disabled": 0, "fusion_lat": 0.0}, {"fusion_lon": 0.0, "bike_id": "ebddb042b73a9db9f3fbf57e7b5922fb", "name": "ebddb042b73a9db9f3fbf57e7b5922fb", "type": "electric_scooter", "lon": -76.9825295, "rental_uris": {"android": "https://dc.lft.to/lastmile_qr_scan", "ios": "https://dc.lft.to/lastmile_qr_scan"}, "lat": 38.8635405, "is_reserved": 0, "is_disabled": 0, "fusion_lat": 0.0}, {"fusion_lon": 0.0, "bike_id": "1b67984542060b6420aa67afaa6e134e", "name": "1b67984542060b6420aa67afaa6e134e", "type": "electric_scooter", "lon": -77.0216915, "rental_uris": {"android": "https://dc.lft.to/lastmile_qr_scan", "ios": "https://dc.lft.to/lastmile_qr_scan"}, "lat": 38.919802, "is_reserved": 0, "is_disabled": 0, "fusion_lat": 0.0}, {"fusion_lon": 0.0, "bike_id": "f04f9e65177b62b9d2015831f5d4ffbe", "name": "f04f9e65177b62b9d2015831f5d4ffbe", "type": "electric_scooter", "lon": -76.9826935, "rental_uris": {"android": "https://dc.lft.to/lastmile_qr_scan", "ios": "https://dc.lft.to/lastmile_qr_scan"}, "lat": 38.88528783333334, "is_reserved": 0, "is_disabled": 0, "fusion_lat": 0.0}, {"fusion_lon": 0.0, "bike_id": "cd5442af9c4db2c35e8e1602d8aa085d", "name": "cd5442af9c4db2c35e8e1602d8aa085d", "type": "electric_scooter", "lon": -77.03210633333333, "rental_uris": {"android": "https://dc.lft.to/lastmile_qr_scan", "ios": "https://dc.lft.to/lastmile_qr_scan"}, "lat": 38.92583666666667, "is_reserved": 0, "is_disabled": 0, "fusion_lat": 0.0}, {"fusion_lon": 0.0, "bike_id": "1778976aae17a822b177440821511297", "name": "1778976aae17a822b177440821511297", "type": "electric_scooter", "lon": -77.0478785, "rental_uris": {"android": "https://dc.lft.to/lastmile_qr_scan", "ios": "https://dc.lft.to/lastmile_qr_scan"}, "lat": 38.90247566666667, "is_reserved": 0, "is_disabled": 0, "fusion_lat": 0.0}, {"fusion_lon": 0.0, "bike_id": "5e22c93f8be7979301e4e666eede63e0", "name": "5e22c93f8be7979301e4e666eede63e0", "type": "electric_scooter", "lon": -77.0012415, "rental_uris": {"android": "https://dc.lft.to/lastmile_qr_scan", "ios": "https://dc.lft.to/lastmile_qr_scan"}, "lat": 38.907547666666666, "is_reserved": 0, "is_disabled": 0, "fusion_lat": 0.0}, {"fusion_lon": 0.0, "bike_id": "1a18020bd88d506f4687b325bdbec73f", "name": "1a18020bd88d506f4687b325bdbec73f", "type": "electric_scooter", "lon": -77.066608, "rental_uris": {"android": "https://dc.lft.to/lastmile_qr_scan", "ios": "https://dc.lft.to/lastmile_qr_scan"}, "lat": 38.9497955, "is_reserved": 0, "is_disabled": 0, "fusion_lat": 0.0}, {"fusion_lon": 0.0, "bike_id": "dc9a29795fb5554c6965c94dbd29c38a", "name": "dc9a29795fb5554c6965c94dbd29c38a", "type": "electric_scooter", "lon": -77.045131, "rental_uris": {"android": "https://dc.lft.to/lastmile_qr_scan", "ios": "https://dc.lft.to/lastmile_qr_scan"}, "lat": 38.9213735, "is_reserved": 0, "is_disabled": 0, "fusion_lat": 0.0}, {"fusion_lon": 0.0, "bike_id": "add747ed29c00ec24595fff7b9ca753b", "name": "add747ed29c00ec24595fff7b9ca753b", "type": "electric_scooter", "lon": -77.0188705, "rental_uris": {"android": "https://dc.lft.to/lastmile_qr_scan", "ios": "https://dc.lft.to/lastmile_qr_scan"}, "lat": 38.946414, "is_reserved": 0, "is_disabled": 0, "fusion_lat": 0.0}, {"fusion_lon": 0.0, "bike_id": "87bbd0e8273005dc27fcde64dd2547ef", "name": "87bbd0e8273005dc27fcde64dd2547ef", "type": "electric_scooter", "lon": -77.02714816666666, "rental_uris": {"android": "https://dc.lft.to/lastmile_qr_scan", "ios": "https://dc.lft.to/lastmile_qr_scan"}, "lat": 38.90985216666667, "is_reserved": 0, "is_disabled": 0, "fusion_lat": 0.0}, {"fusion_lon": 0.0, "bike_id": "f2e1814b596e80e36fe218f57f318ee1", "name": "f2e1814b596e80e36fe218f57f318ee1", "type": "electric_scooter", "lon": -77.01349316666666, "rental_uris": {"android": "https://dc.lft.to/lastmile_qr_scan", "ios": "https://dc.lft.to/lastmile_qr_scan"}, "lat": 38.907259833333335, "is_reserved": 0, "is_disabled": 0, "fusion_lat": 0.0}, {"fusion_lon": 0.0, "bike_id": "43b3d5b6fd35a17c73a55dd0b7b54c5e", "name": "43b3d5b6fd35a17c73a55dd0b7b54c5e", "type": "electric_scooter", "lon": -76.98959716666667, "rental_uris": {"android": "https://dc.lft.to/lastmile_qr_scan", "ios": "https://dc.lft.to/lastmile_qr_scan"}, "lat": 38.844045, "is_reserved": 0, "is_disabled": 0, "fusion_lat": 0.0}, {"fusion_lon": 0.0, "bike_id": "f6e4d42939727c11e70a8bdef8729f0d", "name": "f6e4d42939727c11e70a8bdef8729f0d", "type": "electric_bike", "lon": -77.1142775, "rental_uris": {"android": "https://dc.lft.to/lastmile_qr_scan", "ios": "https://dc.lft.to/lastmile_qr_scan"}, "lat": 38.85247616666667, "is_reserved": 0, "is_disabled": 0, "fusion_lat": 0.0}, {"fusion_lon": 0.0, "bike_id": "fbe832a421fb42c00cae60b3f4460ebc", "name": "fbe832a421fb42c00cae60b3f4460ebc", "type": "electric_bike", "lon": -76.99763433333334, "rental_uris": {"android": "https://dc.lft.to/lastmile_qr_scan", "ios": "https://dc.lft.to/lastmile_qr_scan"}, "lat": 39.00596316666667, "is_reserved": 0, "is_disabled": 0, "fusion_lat": 0.0}, {"fusion_lon": 0.0, "bike_id": "b3cda90659744c61320f116da2230b98", "name": "b3cda90659744c61320f116da2230b98", "type": "electric_scooter", "lon": -77.023912, "rental_uris": {"android": "https://dc.lft.to/lastmile_qr_scan", "ios": "https://dc.lft.to/lastmile_qr_scan"}, "lat": 38.92079433333333, "is_reserved": 0, "is_disabled": 0, "fusion_lat": 0.0}, {"fusion_lon": 0.0, "bike_id": "aaccab15f5205064b0f44b94db08ddcf", "name": "aaccab15f5205064b0f44b94db08ddcf", "type": "electric_scooter", "lon": -77.05514966666667, "rental_uris": {"android": "https://dc.lft.to/lastmile_qr_scan", "ios": "https://dc.lft.to/lastmile_qr_scan"}, "lat": 38.91058733333333, "is_reserved": 0, "is_disabled": 0, "fusion_lat": 0.0}, {"fusion_lon": 0.0, "bike_id": "4ed5d1bc2ded49ab00dfd50e7dc5ad1b", "name": "4ed5d1bc2ded49ab00dfd50e7dc5ad1b", "type": "electric_scooter", "lon": -77.01564416666666, "rental_uris": {"android": "https://dc.lft.to/lastmile_qr_scan", "ios": "https://dc.lft.to/lastmile_qr_scan"}, "lat": 38.87267416666667, "is_reserved": 0, "is_disabled": 0, "fusion_lat": 0.0}, {"fusion_lon": 0.0, "bike_id": "ccf5e95e30cdd4a9a39a8eef2299da3f", "name": "ccf5e95e30cdd4a9a39a8eef2299da3f", "type": "electric_scooter", "lon": -76.9755135, "rental_uris": {"android": "https://dc.lft.to/lastmile_qr_scan", "ios": "https://dc.lft.to/lastmile_qr_scan"}, "lat": 38.90256316666667, "is_reserved": 0, "is_disabled": 0, "fusion_lat": 0.0}, {"fusion_lon": 0.0, "bike_id": "904524db4c3964dfb64fdb3517336889", "name": "904524db4c3964dfb64fdb3517336889", "type": "electric_scooter", "lon": -77.038601, "rental_uris": {"android": "https://dc.lft.to/lastmile_qr_scan", "ios": "https://dc.lft.to/lastmile_qr_scan"}, "lat": 38.911987333333336, "is_reserved": 0, "is_disabled": 0, "fusion_lat": 0.0}, {"fusion_lon": 0.0, "bike_id": "32186b362819b6d6d87003dc21192cbc", "name": "32186b362819b6d6d87003dc21192cbc", "type": "electric_scooter", "lon": -77.023998, "rental_uris": {"android": "https://dc.lft.to/lastmile_qr_scan", "ios": "https://dc.lft.to/lastmile_qr_scan"}, "lat": 38.9309865, "is_reserved": 0, "is_disabled": 0, "fusion_lat": 0.0}, {"fusion_lon": 0.0, "bike_id": "b08eb76178b0fd6fdb7a822001e56bef", "name": "b08eb76178b0fd6fdb7a822001e56bef", "type": "electric_scooter", "lon": -77.05264966666667, "rental_uris": {"android": "https://dc.lft.to/lastmile_qr_scan", "ios": "https://dc.lft.to/lastmile_qr_scan"}, "lat": 38.925687333333336, "is_reserved": 0, "is_disabled": 0, "fusion_lat": 0.0}, {"fusion_lon": 0.0, "bike_id": "88af013a6a326272237241339ee66cee", "name": "88af013a6a326272237241339ee66cee", "type": "electric_bike", "lon": -77.03986933333333, "rental_uris": {"android": "https://dc.lft.to/lastmile_qr_scan", "ios": "https://dc.lft.to/lastmile_qr_scan"}, "lat": 38.80296833333333, "is_reserved": 0, "is_disabled": 0, "fusion_lat": 0.0}, {"fusion_lon": 0.0, "bike_id": "b6d6df7fd49ee8640dc1bd55453a6c0d", "name": "b6d6df7fd49ee8640dc1bd55453a6c0d", "type": "electric_scooter", "lon": -77.02387716666667, "rental_uris": {"android": "https://dc.lft.to/lastmile_qr_scan", "ios": "https://dc.lft.to/lastmile_qr_scan"}, "lat": 38.90746433333333, "is_reserved": 0, "is_disabled": 0, "fusion_lat": 0.0}, {"fusion_lon": 0.0, "bike_id": "34b7c747f4422715865f41789a78ee8f", "name": "34b7c747f4422715865f41789a78ee8f", "type": "electric_scooter", "lon": -77.04177683333333, "rental_uris": {"android": "https://dc.lft.to/lastmile_qr_scan", "ios": "https://dc.lft.to/lastmile_qr_scan"}, "lat": 38.90732916666666, "is_reserved": 0, "is_disabled": 0, "fusion_lat": 0.0}, {"fusion_lon": 0.0, "bike_id": "5456aa7cc1a4a203fd73c430cd5e2244", "name": "5456aa7cc1a4a203fd73c430cd5e2244", "type": "electric_scooter", "lon": -77.0013235, "rental_uris": {"android": "https://dc.lft.to/lastmile_qr_scan", "ios": "https://dc.lft.to/lastmile_qr_scan"}, "lat": 38.907509833333336, "is_reserved": 0, "is_disabled": 0, "fusion_lat": 0.0}, {"fusion_lon": 0.0, "bike_id": "29f4dae10b227e8a7ec5401df34d62ab", "name": "29f4dae10b227e8a7ec5401df34d62ab", "type": "electric_scooter", "lon": -76.9861205, "rental_uris": {"android": "https://dc.lft.to/lastmile_qr_scan", "ios": "https://dc.lft.to/lastmile_qr_scan"}, "lat": 38.85461316666667, "is_reserved": 0, "is_disabled": 0, "fusion_lat": 0.0}, {"fusion_lon": 0.0, "bike_id": "c6145f5b5208fc0c178443f62501a5c1", "name": "c6145f5b5208fc0c178443f62501a5c1", "type": "electric_scooter", "lon": -77.0456555, "rental_uris": {"android": "https://dc.lft.to/lastmile_qr_scan", "ios": "https://dc.lft.to/lastmile_qr_scan"}, "lat": 38.920768833333334, "is_reserved": 0, "is_disabled": 0, "fusion_lat": 0.0}, {"fusion_lon": 0.0, "bike_id": "1ac3e1a36c669f7858b1330775c39972", "name": "1ac3e1a36c669f7858b1330775c39972", "type": "electric_scooter", "lon": -77.0071235, "rental_uris": {"android": "https://dc.lft.to/lastmile_qr_scan", "ios": "https://dc.lft.to/lastmile_qr_scan"}, "lat": 38.8848955, "is_reserved": 0, "is_disabled": 0, "fusion_lat": 0.0}, {"fusion_lon": 0.0, "bike_id": "6477b4d0ca66ad7a23046a5eac4dace9", "name": "6477b4d0ca66ad7a23046a5eac4dace9", "type": "electric_scooter", "lon": -77.048879, "rental_uris": {"android": "https://dc.lft.to/lastmile_qr_scan", "ios": "https://dc.lft.to/lastmile_qr_scan"}, "lat": 38.903604666666666, "is_reserved": 0, "is_disabled": 0, "fusion_lat": 0.0}, {"fusion_lon": 0.0, "bike_id": "25eddbc5dd18cd0d24c1abe74549e98f", "name": "25eddbc5dd18cd0d24c1abe74549e98f", "type": "electric_scooter", "lon": -76.97975983333333, "rental_uris": {"android": "https://dc.lft.to/lastmile_qr_scan", "ios": "https://dc.lft.to/lastmile_qr_scan"}, "lat": 38.8876995, "is_reserved": 0, "is_disabled": 0, "fusion_lat": 0.0}, {"fusion_lon": 0.0, "bike_id": "fa61fc83f764e0fdf35084dc034aa80d", "name": "fa61fc83f764e0fdf35084dc034aa80d", "type": "electric_scooter", "lon": -77.01779533333334, "rental_uris": {"android": "https://dc.lft.to/lastmile_qr_scan", "ios": "https://dc.lft.to/lastmile_qr_scan"}, "lat": 38.90249416666666, "is_reserved": 0, "is_disabled": 0, "fusion_lat": 0.0}, {"fusion_lon": 0.0, "bike_id": "f12228c8a2a7df4df58ae25c6916caa3", "name": "f12228c8a2a7df4df58ae25c6916caa3", "type": "electric_scooter", "lon": -77.04371266666666, "rental_uris": {"android": "https://dc.lft.to/lastmile_qr_scan", "ios": "https://dc.lft.to/lastmile_qr_scan"}, "lat": 38.910584, "is_reserved": 0, "is_disabled": 0, "fusion_lat": 0.0}, {"fusion_lon": 0.0, "bike_id": "ecc788914148538b5337c11113f02d4d", "name": "ecc788914148538b5337c11113f02d4d", "type": "electric_scooter", "lon": -77.00225016666667, "rental_uris": {"android": "https://dc.lft.to/lastmile_qr_scan", "ios": "https://dc.lft.to/lastmile_qr_scan"}, "lat": 38.890928, "is_reserved": 0, "is_disabled": 0, "fusion_lat": 0.0}, {"fusion_lon": 0.0, "bike_id": "ed9be237c1df874f144670d689c997eb", "name": "ed9be237c1df874f144670d689c997eb", "type": "electric_scooter", "lon": -77.0270615, "rental_uris": {"android": "https://dc.lft.to/lastmile_qr_scan", "ios": "https://dc.lft.to/lastmile_qr_scan"}, "lat": 38.89620583333333, "is_reserved": 0, "is_disabled": 0, "fusion_lat": 0.0}, {"fusion_lon": 0.0, "bike_id": "e61a8a04079f2263a8ee1107433d4a32", "name": "e61a8a04079f2263a8ee1107433d4a32", "type": "electric_scooter", "lon": -77.06176583333334, "rental_uris": {"android": "https://dc.lft.to/lastmile_qr_scan", "ios": "https://dc.lft.to/lastmile_qr_scan"}, "lat": 38.940848833333334, "is_reserved": 0, "is_disabled": 0, "fusion_lat": 0.0}, {"fusion_lon": 0.0, "bike_id": "24f1b047d6e590baaebe30943fa053a5", "name": "24f1b047d6e590baaebe30943fa053a5", "type": "electric_scooter", "lon": -77.009643, "rental_uris": {"android": "https://dc.lft.to/lastmile_qr_scan", "ios": "https://dc.lft.to/lastmile_qr_scan"}, "lat": 38.907908166666665, "is_reserved": 0, "is_disabled": 0, "fusion_lat": 0.0}, {"fusion_lon": 0.0, "bike_id": "04db5d7bd1b5a6f0ac58c207c11941f3", "name": "04db5d7bd1b5a6f0ac58c207c11941f3", "type": "electric_scooter", "lon": -77.01598383333334, "rental_uris": {"android": "https://dc.lft.to/lastmile_qr_scan", "ios": "https://dc.lft.to/lastmile_qr_scan"}, "lat": 38.8997495, "is_reserved": 0, "is_disabled": 0, "fusion_lat": 0.0}, {"fusion_lon": 0.0, "bike_id": "214528758d47b332407a371346c8713a", "name": "214528758d47b332407a371346c8713a", "type": "electric_scooter", "lon": -77.0192985, "rental_uris": {"android": "https://dc.lft.to/lastmile_qr_scan", "ios": "https://dc.lft.to/lastmile_qr_scan"}, "lat": 38.9447925, "is_reserved": 0, "is_disabled": 0, "fusion_lat": 0.0}, {"fusion_lon": 0.0, "bike_id": "c26d1cee18254b7de05b055a28ee9ce8", "name": "c26d1cee18254b7de05b055a28ee9ce8", "type": "electric_scooter", "lon": -77.06843233333333, "rental_uris": {"android": "https://dc.lft.to/lastmile_qr_scan", "ios": "https://dc.lft.to/lastmile_qr_scan"}, "lat": 38.952221, "is_reserved": 0, "is_disabled": 0, "fusion_lat": 0.0}, {"fusion_lon": 0.0, "bike_id": "8c7e02961c1514663b002cd74d691924", "name": "8c7e02961c1514663b002cd74d691924", "type": "electric_scooter", "lon": -77.04391966666667, "rental_uris": {"android": "https://dc.lft.to/lastmile_qr_scan", "ios": "https://dc.lft.to/lastmile_qr_scan"}, "lat": 38.908889, "is_reserved": 0, "is_disabled": 0, "fusion_lat": 0.0}, {"fusion_lon": 0.0, "bike_id": "aae88f8e47c0cb397d5f4a378199f3b9", "name": "aae88f8e47c0cb397d5f4a378199f3b9", "type": "electric_scooter", "lon": -77.0345415, "rental_uris": {"android": "https://dc.lft.to/lastmile_qr_scan", "ios": "https://dc.lft.to/lastmile_qr_scan"}, "lat": 38.92157383333333, "is_reserved": 0, "is_disabled": 0, "fusion_lat": 0.0}, {"fusion_lon": 0.0, "bike_id": "0ebe4ba0bb57389eac04585310375337", "name": "0ebe4ba0bb57389eac04585310375337", "type": "electric_scooter", "lon": -77.01481333333334, "rental_uris": {"android": "https://dc.lft.to/lastmile_qr_scan", "ios": "https://dc.lft.to/lastmile_qr_scan"}, "lat": 38.876417833333335, "is_reserved": 0, "is_disabled": 0, "fusion_lat": 0.0}, {"fusion_lon": 0.0, "bike_id": "3adeb4071ca5a5ff95e7ca30a605f40a", "name": "3adeb4071ca5a5ff95e7ca30a605f40a", "type": "electric_scooter", "lon": -77.00077783333333, "rental_uris": {"android": "https://dc.lft.to/lastmile_qr_scan", "ios": "https://dc.lft.to/lastmile_qr_scan"}, "lat": 38.9014955, "is_reserved": 0, "is_disabled": 0, "fusion_lat": 0.0}, {"fusion_lon": 0.0, "bike_id": "2b06cad65bf2643e391c4be247d78663", "name": "2b06cad65bf2643e391c4be247d78663", "type": "electric_bike", "lon": -77.085273, "rental_uris": {"android": "https://dc.lft.to/lastmile_qr_scan", "ios": "https://dc.lft.to/lastmile_qr_scan"}, "lat": 38.856472833333335, "is_reserved": 0, "is_disabled": 0, "fusion_lat": 0.0}, {"fusion_lon": 0.0, "bike_id": "ae0b1bf456d869147c5fa98524b13a4e", "name": "ae0b1bf456d869147c5fa98524b13a4e", "type": "electric_bike", "lon": -77.02625583333334, "rental_uris": {"android": "https://dc.lft.to/lastmile_qr_scan", "ios": "https://dc.lft.to/lastmile_qr_scan"}, "lat": 38.962280166666666, "is_reserved": 0, "is_disabled": 0, "fusion_lat": 0.0}, {"fusion_lon": 0.0, "bike_id": "5c1090580d6ecd1525bfb117ed9e5414", "name": "5c1090580d6ecd1525bfb117ed9e5414", "type": "electric_scooter", "lon": -77.03188033333333, "rental_uris": {"android": "https://dc.lft.to/lastmile_qr_scan", "ios": "https://dc.lft.to/lastmile_qr_scan"}, "lat": 38.911933, "is_reserved": 0, "is_disabled": 0, "fusion_lat": 0.0}, {"fusion_lon": 0.0, "bike_id": "fc803b1be0df13d3ad1e71028e47b4a4", "name": "fc803b1be0df13d3ad1e71028e47b4a4", "type": "electric_scooter", "lon": -77.01632966666666, "rental_uris": {"android": "https://dc.lft.to/lastmile_qr_scan", "ios": "https://dc.lft.to/lastmile_qr_scan"}, "lat": 38.876373666666666, "is_reserved": 0, "is_disabled": 0, "fusion_lat": 0.0}, {"fusion_lon": 0.0, "bike_id": "2ac7fb9c1d8b4f9f6396815ff0eb5855", "name": "2ac7fb9c1d8b4f9f6396815ff0eb5855", "type": "electric_scooter", "lon": -77.03173716666667, "rental_uris": {"android": "https://dc.lft.to/lastmile_qr_scan", "ios": "https://dc.lft.to/lastmile_qr_scan"}, "lat": 38.887355, "is_reserved": 0, "is_disabled": 0, "fusion_lat": 0.0}, {"fusion_lon": 0.0, "bike_id": "334dd94fd60b2bfb14b3af4024a3a895", "name": "334dd94fd60b2bfb14b3af4024a3a895", "type": "electric_scooter", "lon": -77.0110455, "rental_uris": {"android": "https://dc.lft.to/lastmile_qr_scan", "ios": "https://dc.lft.to/lastmile_qr_scan"}, "lat": 38.9035795, "is_reserved": 0, "is_disabled": 0, "fusion_lat": 0.0}, {"fusion_lon": 0.0, "bike_id": "cee6d6fbb13f289138d0e6d166a53fbb", "name": "cee6d6fbb13f289138d0e6d166a53fbb", "type": "electric_scooter", "lon": -77.03382383333333, "rental_uris": {"android": "https://dc.lft.to/lastmile_qr_scan", "ios": "https://dc.lft.to/lastmile_qr_scan"}, "lat": 38.921577666666664, "is_reserved": 0, "is_disabled": 0, "fusion_lat": 0.0}, {"fusion_lon": 0.0, "bike_id": "5fc11527bc3c19b476603307bd7f7be6", "name": "5fc11527bc3c19b476603307bd7f7be6", "type": "electric_scooter", "lon": -77.02296166666666, "rental_uris": {"android": "https://dc.lft.to/lastmile_qr_scan", "ios": "https://dc.lft.to/lastmile_qr_scan"}, "lat": 38.9178765, "is_reserved": 0, "is_disabled": 0, "fusion_lat": 0.0}, {"fusion_lon": 0.0, "bike_id": "240ed511245b8a56db22126bcafa701b", "name": "240ed511245b8a56db22126bcafa701b", "type": "electric_scooter", "lon": -77.0346615, "rental_uris": {"android": "https://dc.lft.to/lastmile_qr_scan", "ios": "https://dc.lft.to/lastmile_qr_scan"}, "lat": 38.917225333333334, "is_reserved": 0, "is_disabled": 0, "fusion_lat": 0.0}, {"fusion_lon": 0.0, "bike_id": "3b39a130cba87a812ade264c22eff474", "name": "3b39a130cba87a812ade264c22eff474", "type": "electric_scooter", "lon": -77.0418285, "rental_uris": {"android": "https://dc.lft.to/lastmile_qr_scan", "ios": "https://dc.lft.to/lastmile_qr_scan"}, "lat": 38.912663333333334, "is_reserved": 0, "is_disabled": 0, "fusion_lat": 0.0}, {"fusion_lon": 0.0, "bike_id": "aef02ce366de6e18a59b928b18fe1aac", "name": "aef02ce366de6e18a59b928b18fe1aac", "type": "electric_scooter", "lon": -77.039345, "rental_uris": {"android": "https://dc.lft.to/lastmile_qr_scan", "ios": "https://dc.lft.to/lastmile_qr_scan"}, "lat": 38.924968, "is_reserved": 0, "is_disabled": 0, "fusion_lat": 0.0}, {"fusion_lon": 0.0, "bike_id": "51ec0bc005a2d10c1ff2209db373c505", "name": "51ec0bc005a2d10c1ff2209db373c505", "type": "electric_scooter", "lon": -77.02894283333333, "rental_uris": {"android": "https://dc.lft.to/lastmile_qr_scan", "ios": "https://dc.lft.to/lastmile_qr_scan"}, "lat": 38.924736, "is_reserved": 0, "is_disabled": 0, "fusion_lat": 0.0}, {"fusion_lon": 0.0, "bike_id": "4fad699e18adf9771ed999c4c6d31bb5", "name": "4fad699e18adf9771ed999c4c6d31bb5", "type": "electric_scooter", "lon": -77.01961766666666, "rental_uris": {"android": "https://dc.lft.to/lastmile_qr_scan", "ios": "https://dc.lft.to/lastmile_qr_scan"}, "lat": 38.930363666666665, "is_reserved": 0, "is_disabled": 0, "fusion_lat": 0.0}, {"fusion_lon": 0.0, "bike_id": "99a91e317e13e5b6c0453ec9e7e54c05", "name": "99a91e317e13e5b6c0453ec9e7e54c05", "type": "electric_bike", "lon": -76.968816, "rental_uris": {"android": "https://dc.lft.to/lastmile_qr_scan", "ios": "https://dc.lft.to/lastmile_qr_scan"}, "lat": 38.84597983333333, "is_reserved": 0, "is_disabled": 0, "fusion_lat": 0.0}, {"fusion_lon": 0.0, "bike_id": "71f7ebef452d7fefd14de9e997f142b8", "name": "71f7ebef452d7fefd14de9e997f142b8", "type": "electric_scooter", "lon": -77.05788383333334, "rental_uris": {"android": "https://dc.lft.to/lastmile_qr_scan", "ios": "https://dc.lft.to/lastmile_qr_scan"}, "lat": 38.934806333333334, "is_reserved": 0, "is_disabled": 0, "fusion_lat": 0.0}, {"fusion_lon": 0.0, "bike_id": "b8fbcd5ec09016d5d27c4ef5fdf2bba7", "name": "b8fbcd5ec09016d5d27c4ef5fdf2bba7", "type": "electric_scooter", "lon": -76.96529166666667, "rental_uris": {"android": "https://dc.lft.to/lastmile_qr_scan", "ios": "https://dc.lft.to/lastmile_qr_scan"}, "lat": 38.874826166666665, "is_reserved": 0, "is_disabled": 0, "fusion_lat": 0.0}, {"fusion_lon": 0.0, "bike_id": "f8c4c95ad64183f2112b61573d66ee68", "name": "f8c4c95ad64183f2112b61573d66ee68", "type": "electric_scooter", "lon": -77.038338, "rental_uris": {"android": "https://dc.lft.to/lastmile_qr_scan", "ios": "https://dc.lft.to/lastmile_qr_scan"}, "lat": 38.911103, "is_reserved": 0, "is_disabled": 0, "fusion_lat": 0.0}, {"fusion_lon": 0.0, "bike_id": "00078ae3b0739866d80e4b833c59797f", "name": "00078ae3b0739866d80e4b833c59797f", "type": "electric_scooter", "lon": -77.0376115, "rental_uris": {"android": "https://dc.lft.to/lastmile_qr_scan", "ios": "https://dc.lft.to/lastmile_qr_scan"}, "lat": 38.92907666666667, "is_reserved": 0, "is_disabled": 0, "fusion_lat": 0.0}, {"fusion_lon": 0.0, "bike_id": "dfccd90ae7ea54fa659875cfb130d9d9", "name": "dfccd90ae7ea54fa659875cfb130d9d9", "type": "electric_scooter", "lon": -77.00821416666666, "rental_uris": {"android": "https://dc.lft.to/lastmile_qr_scan", "ios": "https://dc.lft.to/lastmile_qr_scan"}, "lat": 38.915662166666664, "is_reserved": 0, "is_disabled": 0, "fusion_lat": 0.0}, {"fusion_lon": 0.0, "bike_id": "1908745a2ad74c3c164fc76f2c3b050c", "name": "1908745a2ad74c3c164fc76f2c3b050c", "type": "electric_scooter", "lon": -77.020043, "rental_uris": {"android": "https://dc.lft.to/lastmile_qr_scan", "ios": "https://dc.lft.to/lastmile_qr_scan"}, "lat": 38.915686666666666, "is_reserved": 0, "is_disabled": 0, "fusion_lat": 0.0}, {"fusion_lon": 0.0, "bike_id": "ac0ffc3171fd16058fb870e915445907", "name": "ac0ffc3171fd16058fb870e915445907", "type": "electric_scooter", "lon": -77.0048705, "rental_uris": {"android": "https://dc.lft.to/lastmile_qr_scan", "ios": "https://dc.lft.to/lastmile_qr_scan"}, "lat": 38.88046116666666, "is_reserved": 0, "is_disabled": 0, "fusion_lat": 0.0}, {"fusion_lon": 0.0, "bike_id": "c1e96a4c5187fa994e5e24b8a0a382eb", "name": "c1e96a4c5187fa994e5e24b8a0a382eb", "type": "electric_scooter", "lon": -77.06085766666666, "rental_uris": {"android": "https://dc.lft.to/lastmile_qr_scan", "ios": "https://dc.lft.to/lastmile_qr_scan"}, "lat": 38.943706, "is_reserved": 0, "is_disabled": 0, "fusion_lat": 0.0}, {"fusion_lon": 0.0, "bike_id": "77423361685acc59ace5caac6b12ebb8", "name": "77423361685acc59ace5caac6b12ebb8", "type": "electric_scooter", "lon": -77.0180555, "rental_uris": {"android": "https://dc.lft.to/lastmile_qr_scan", "ios": "https://dc.lft.to/lastmile_qr_scan"}, "lat": 38.902618333333336, "is_reserved": 0, "is_disabled": 0, "fusion_lat": 0.0}, {"fusion_lon": 0.0, "bike_id": "1e217461918bf5b622698e98bcab1881", "name": "1e217461918bf5b622698e98bcab1881", "type": "electric_scooter", "lon": -77.0417305, "rental_uris": {"android": "https://dc.lft.to/lastmile_qr_scan", "ios": "https://dc.lft.to/lastmile_qr_scan"}, "lat": 38.91359333333333, "is_reserved": 0, "is_disabled": 0, "fusion_lat": 0.0}, {"fusion_lon": 0.0, "bike_id": "36cc68fefcf5f4294fbea0b50e448224", "name": "36cc68fefcf5f4294fbea0b50e448224", "type": "electric_scooter", "lon": -77.00598466666666, "rental_uris": {"android": "https://dc.lft.to/lastmile_qr_scan", "ios": "https://dc.lft.to/lastmile_qr_scan"}, "lat": 38.905663833333335, "is_reserved": 0, "is_disabled": 0, "fusion_lat": 0.0}, {"fusion_lon": 0.0, "bike_id": "f6a5ade9d3c23a523e5594a219c4b4ef", "name": "f6a5ade9d3c23a523e5594a219c4b4ef", "type": "electric_scooter", "lon": -77.03492833333334, "rental_uris": {"android": "https://dc.lft.to/lastmile_qr_scan", "ios": "https://dc.lft.to/lastmile_qr_scan"}, "lat": 38.9215125, "is_reserved": 0, "is_disabled": 0, "fusion_lat": 0.0}, {"fusion_lon": 0.0, "bike_id": "718d32e127cd365beba1e62200d477f8", "name": "718d32e127cd365beba1e62200d477f8", "type": "electric_scooter", "lon": -77.03053933333334, "rental_uris": {"android": "https://dc.lft.to/lastmile_qr_scan", "ios": "https://dc.lft.to/lastmile_qr_scan"}, "lat": 38.88413333333333, "is_reserved": 0, "is_disabled": 0, "fusion_lat": 0.0}, {"fusion_lon": 0.0, "bike_id": "922e58e718e08ed7dcb42122ecee60e4", "name": "922e58e718e08ed7dcb42122ecee60e4", "type": "electric_scooter", "lon": -77.03260216666666, "rental_uris": {"android": "https://dc.lft.to/lastmile_qr_scan", "ios": "https://dc.lft.to/lastmile_qr_scan"}, "lat": 38.91815966666667, "is_reserved": 0, "is_disabled": 0, "fusion_lat": 0.0}, {"fusion_lon": 0.0, "bike_id": "9bef99136c7aefe5feb07fed82268eb9", "name": "9bef99136c7aefe5feb07fed82268eb9", "type": "electric_scooter", "lon": -77.02023666666666, "rental_uris": {"android": "https://dc.lft.to/lastmile_qr_scan", "ios": "https://dc.lft.to/lastmile_qr_scan"}, "lat": 38.9245145, "is_reserved": 0, "is_disabled": 0, "fusion_lat": 0.0}, {"fusion_lon": 0.0, "bike_id": "148ff97fc2a5cde8cff26a1489f729e8", "name": "148ff97fc2a5cde8cff26a1489f729e8", "type": "electric_scooter", "lon": -77.04670583333333, "rental_uris": {"android": "https://dc.lft.to/lastmile_qr_scan", "ios": "https://dc.lft.to/lastmile_qr_scan"}, "lat": 38.907412666666666, "is_reserved": 0, "is_disabled": 0, "fusion_lat": 0.0}, {"fusion_lon": 0.0, "bike_id": "aad08f143cda77232da93d8593b3a6cb", "name": "aad08f143cda77232da93d8593b3a6cb", "type": "electric_scooter", "lon": -76.99791283333333, "rental_uris": {"android": "https://dc.lft.to/lastmile_qr_scan", "ios": "https://dc.lft.to/lastmile_qr_scan"}, "lat": 38.948294, "is_reserved": 0, "is_disabled": 0, "fusion_lat": 0.0}, {"fusion_lon": 0.0, "bike_id": "d7387f96a858504b0bab602d0eb816be", "name": "d7387f96a858504b0bab602d0eb816be", "type": "electric_bike", "lon": -76.9838645, "rental_uris": {"android": "https://dc.lft.to/lastmile_qr_scan", "ios": "https://dc.lft.to/lastmile_qr_scan"}, "lat": 38.91477033333334, "is_reserved": 0, "is_disabled": 0, "fusion_lat": 0.0}, {"fusion_lon": 0.0, "bike_id": "e92bef5c642a075ffd12a2bab0c064c1", "name": "e92bef5c642a075ffd12a2bab0c064c1", "type": "electric_scooter", "lon": -77.03284933333333, "rental_uris": {"android": "https://dc.lft.to/lastmile_qr_scan", "ios": "https://dc.lft.to/lastmile_qr_scan"}, "lat": 38.93749116666667, "is_reserved": 0, "is_disabled": 0, "fusion_lat": 0.0}, {"fusion_lon": 0.0, "bike_id": "3dc025b95b992fa91b05c9e686a30536", "name": "3dc025b95b992fa91b05c9e686a30536", "type": "electric_scooter", "lon": -77.00748166666666, "rental_uris": {"android": "https://dc.lft.to/lastmile_qr_scan", "ios": "https://dc.lft.to/lastmile_qr_scan"}, "lat": 38.90368266666667, "is_reserved": 0, "is_disabled": 0, "fusion_lat": 0.0}, {"fusion_lon": 0.0, "bike_id": "98a98e3c26be495c5ace731886d3e2fb", "name": "98a98e3c26be495c5ace731886d3e2fb", "type": "electric_scooter", "lon": -77.04188383333333, "rental_uris": {"android": "https://dc.lft.to/lastmile_qr_scan", "ios": "https://dc.lft.to/lastmile_qr_scan"}, "lat": 38.92335333333333, "is_reserved": 0, "is_disabled": 0, "fusion_lat": 0.0}, {"fusion_lon": 0.0, "bike_id": "23c818ecece3e1a775f1de674eb00c31", "name": "23c818ecece3e1a775f1de674eb00c31", "type": "electric_scooter", "lon": -77.03646933333333, "rental_uris": {"android": "https://dc.lft.to/lastmile_qr_scan", "ios": "https://dc.lft.to/lastmile_qr_scan"}, "lat": 38.917668, "is_reserved": 0, "is_disabled": 0, "fusion_lat": 0.0}, {"fusion_lon": 0.0, "bike_id": "ac31ef93d9a3aa829053c164e2429c1e", "name": "ac31ef93d9a3aa829053c164e2429c1e", "type": "electric_scooter", "lon": -77.05516166666666, "rental_uris": {"android": "https://dc.lft.to/lastmile_qr_scan", "ios": "https://dc.lft.to/lastmile_qr_scan"}, "lat": 38.944172, "is_reserved": 0, "is_disabled": 0, "fusion_lat": 0.0}, {"fusion_lon": 0.0, "bike_id": "e0525c593db34064116d6dd9a06bc445", "name": "e0525c593db34064116d6dd9a06bc445", "type": "electric_scooter", "lon": -77.03183683333333, "rental_uris": {"android": "https://dc.lft.to/lastmile_qr_scan", "ios": "https://dc.lft.to/lastmile_qr_scan"}, "lat": 38.90516483333333, "is_reserved": 0, "is_disabled": 0, "fusion_lat": 0.0}, {"fusion_lon": 0.0, "bike_id": "524fc3ace48c3a0066198ebee464c658", "name": "524fc3ace48c3a0066198ebee464c658", "type": "electric_scooter", "lon": -77.01191233333333, "rental_uris": {"android": "https://dc.lft.to/lastmile_qr_scan", "ios": "https://dc.lft.to/lastmile_qr_scan"}, "lat": 38.8876965, "is_reserved": 0, "is_disabled": 0, "fusion_lat": 0.0}, {"fusion_lon": 0.0, "bike_id": "e8d3b6562c2a2623859fad3e4be8a04d", "name": "e8d3b6562c2a2623859fad3e4be8a04d", "type": "electric_scooter", "lon": -77.02949883333334, "rental_uris": {"android": "https://dc.lft.to/lastmile_qr_scan", "ios": "https://dc.lft.to/lastmile_qr_scan"}, "lat": 38.90504933333333, "is_reserved": 0, "is_disabled": 0, "fusion_lat": 0.0}, {"fusion_lon": 0.0, "bike_id": "5c8d868f2abebb50bf7fcdb82dfdfcb2", "name": "5c8d868f2abebb50bf7fcdb82dfdfcb2", "type": "electric_scooter", "lon": -76.98917083333333, "rental_uris": {"android": "https://dc.lft.to/lastmile_qr_scan", "ios": "https://dc.lft.to/lastmile_qr_scan"}, "lat": 38.90244416666667, "is_reserved": 0, "is_disabled": 0, "fusion_lat": 0.0}, {"fusion_lon": 0.0, "bike_id": "749055c117435bd42e99f0affdb2e8a6", "name": "749055c117435bd42e99f0affdb2e8a6", "type": "electric_scooter", "lon": -77.00189516666667, "rental_uris": {"android": "https://dc.lft.to/lastmile_qr_scan", "ios": "https://dc.lft.to/lastmile_qr_scan"}, "lat": 38.90003083333333, "is_reserved": 0, "is_disabled": 0, "fusion_lat": 0.0}, {"fusion_lon": 0.0, "bike_id": "7264c5eff2e42b997a10edeb00916e08", "name": "7264c5eff2e42b997a10edeb00916e08", "type": "electric_scooter", "lon": -77.03149366666666, "rental_uris": {"android": "https://dc.lft.to/lastmile_qr_scan", "ios": "https://dc.lft.to/lastmile_qr_scan"}, "lat": 38.8874215, "is_reserved": 0, "is_disabled": 0, "fusion_lat": 0.0}, {"fusion_lon": 0.0, "bike_id": "18c976cc160d63dad87b83878bc50193", "name": "18c976cc160d63dad87b83878bc50193", "type": "electric_scooter", "lon": -76.94996483333334, "rental_uris": {"android": "https://dc.lft.to/lastmile_qr_scan", "ios": "https://dc.lft.to/lastmile_qr_scan"}, "lat": 38.893907666666664, "is_reserved": 0, "is_disabled": 0, "fusion_lat": 0.0}, {"fusion_lon": 0.0, "bike_id": "c4154fca6dbd7565a131455fd01a4009", "name": "c4154fca6dbd7565a131455fd01a4009", "type": "electric_scooter", "lon": -77.02450316666666, "rental_uris": {"android": "https://dc.lft.to/lastmile_qr_scan", "ios": "https://dc.lft.to/lastmile_qr_scan"}, "lat": 38.9289485, "is_reserved": 0, "is_disabled": 0, "fusion_lat": 0.0}, {"fusion_lon": 0.0, "bike_id": "ce49d9aeee7c8b0b073c43330d9c7f6b", "name": "ce49d9aeee7c8b0b073c43330d9c7f6b", "type": "electric_scooter", "lon": -77.03841066666666, "rental_uris": {"android": "https://dc.lft.to/lastmile_qr_scan", "ios": "https://dc.lft.to/lastmile_qr_scan"}, "lat": 38.91567583333333, "is_reserved": 0, "is_disabled": 0, "fusion_lat": 0.0}, {"fusion_lon": 0.0, "bike_id": "250e0083e73d5d9f89a0ee5b2c53cf08", "name": "250e0083e73d5d9f89a0ee5b2c53cf08", "type": "electric_scooter", "lon": -77.0422405, "rental_uris": {"android": "https://dc.lft.to/lastmile_qr_scan", "ios": "https://dc.lft.to/lastmile_qr_scan"}, "lat": 38.91692666666667, "is_reserved": 0, "is_disabled": 0, "fusion_lat": 0.0}, {"fusion_lon": 0.0, "bike_id": "f527ec226b6d4b39271de96a84b8c99b", "name": "f527ec226b6d4b39271de96a84b8c99b", "type": "electric_scooter", "lon": -77.04186483333334, "rental_uris": {"android": "https://dc.lft.to/lastmile_qr_scan", "ios": "https://dc.lft.to/lastmile_qr_scan"}, "lat": 38.90533383333333, "is_reserved": 0, "is_disabled": 0, "fusion_lat": 0.0}, {"fusion_lon": 0.0, "bike_id": "b92d1b1e9039babca682d876d2cb904b", "name": "b92d1b1e9039babca682d876d2cb904b", "type": "electric_scooter", "lon": -77.0419005, "rental_uris": {"android": "https://dc.lft.to/lastmile_qr_scan", "ios": "https://dc.lft.to/lastmile_qr_scan"}, "lat": 38.924726166666666, "is_reserved": 0, "is_disabled": 0, "fusion_lat": 0.0}, {"fusion_lon": 0.0, "bike_id": "b8a9330241bd02a04478c70697183d06", "name": "b8a9330241bd02a04478c70697183d06", "type": "electric_scooter", "lon": -77.02445916666667, "rental_uris": {"android": "https://dc.lft.to/lastmile_qr_scan", "ios": "https://dc.lft.to/lastmile_qr_scan"}, "lat": 38.927947, "is_reserved": 0, "is_disabled": 0, "fusion_lat": 0.0}, {"fusion_lon": 0.0, "bike_id": "ec35c4253436ac1925e6deb1bd3bb4dd", "name": "ec35c4253436ac1925e6deb1bd3bb4dd", "type": "electric_scooter", "lon": -77.04783883333333, "rental_uris": {"android": "https://dc.lft.to/lastmile_qr_scan", "ios": "https://dc.lft.to/lastmile_qr_scan"}, "lat": 38.9080015, "is_reserved": 0, "is_disabled": 0, "fusion_lat": 0.0}, {"fusion_lon": 0.0, "bike_id": "dac2357c7d1b87552702c1e5c8180ae7", "name": "dac2357c7d1b87552702c1e5c8180ae7", "type": "electric_scooter", "lon": -77.04014983333333, "rental_uris": {"android": "https://dc.lft.to/lastmile_qr_scan", "ios": "https://dc.lft.to/lastmile_qr_scan"}, "lat": 38.918026833333336, "is_reserved": 0, "is_disabled": 0, "fusion_lat": 0.0}, {"fusion_lon": 0.0, "bike_id": "e41fb5dcbec65702d555a66bed6cc68c", "name": "e41fb5dcbec65702d555a66bed6cc68c", "type": "electric_scooter", "lon": -77.03267366666667, "rental_uris": {"android": "https://dc.lft.to/lastmile_qr_scan", "ios": "https://dc.lft.to/lastmile_qr_scan"}, "lat": 38.932147666666665, "is_reserved": 0, "is_disabled": 0, "fusion_lat": 0.0}, {"fusion_lon": 0.0, "bike_id": "866595281d243e5745f4026e511a1c0b", "name": "866595281d243e5745f4026e511a1c0b", "type": "electric_scooter", "lon": -77.026602, "rental_uris": {"android": "https://dc.lft.to/lastmile_qr_scan", "ios": "https://dc.lft.to/lastmile_qr_scan"}, "lat": 38.979396, "is_reserved": 0, "is_disabled": 0, "fusion_lat": 0.0}, {"fusion_lon": 0.0, "bike_id": "34c53281ba3beb6b90f1bfafbd0e7580", "name": "34c53281ba3beb6b90f1bfafbd0e7580", "type": "electric_scooter", "lon": -77.04694, "rental_uris": {"android": "https://dc.lft.to/lastmile_qr_scan", "ios": "https://dc.lft.to/lastmile_qr_scan"}, "lat": 38.8974065, "is_reserved": 0, "is_disabled": 0, "fusion_lat": 0.0}, {"fusion_lon": 0.0, "bike_id": "bf32bbf1ac0c596907132d3e3ff2f66e", "name": "bf32bbf1ac0c596907132d3e3ff2f66e", "type": "electric_scooter", "lon": -77.02726333333334, "rental_uris": {"android": "https://dc.lft.to/lastmile_qr_scan", "ios": "https://dc.lft.to/lastmile_qr_scan"}, "lat": 38.934282833333334, "is_reserved": 0, "is_disabled": 0, "fusion_lat": 0.0}, {"fusion_lon": 0.0, "bike_id": "031afd4d796cee28450653d054f501ae", "name": "031afd4d796cee28450653d054f501ae", "type": "electric_bike", "lon": -76.98829066666667, "rental_uris": {"android": "https://dc.lft.to/lastmile_qr_scan", "ios": "https://dc.lft.to/lastmile_qr_scan"}, "lat": 38.98564483333333, "is_reserved": 0, "is_disabled": 0, "fusion_lat": 0.0}, {"fusion_lon": 0.0, "bike_id": "a75beb06484a571f3c2c8570c2e585d0", "name": "a75beb06484a571f3c2c8570c2e585d0", "type": "electric_scooter", "lon": -77.04152483333333, "rental_uris": {"android": "https://dc.lft.to/lastmile_qr_scan", "ios": "https://dc.lft.to/lastmile_qr_scan"}, "lat": 38.916049, "is_reserved": 0, "is_disabled": 0, "fusion_lat": 0.0}, {"fusion_lon": 0.0, "bike_id": "c236821368b0077e3da3e7556ac8ad0f", "name": "c236821368b0077e3da3e7556ac8ad0f", "type": "electric_scooter", "lon": -77.02351533333334, "rental_uris": {"android": "https://dc.lft.to/lastmile_qr_scan", "ios": "https://dc.lft.to/lastmile_qr_scan"}, "lat": 38.925026, "is_reserved": 0, "is_disabled": 0, "fusion_lat": 0.0}, {"fusion_lon": 0.0, "bike_id": "ab0d7a35b8d5f24248f2d5efa7db2a0c", "name": "ab0d7a35b8d5f24248f2d5efa7db2a0c", "type": "electric_scooter", "lon": -77.023883, "rental_uris": {"android": "https://dc.lft.to/lastmile_qr_scan", "ios": "https://dc.lft.to/lastmile_qr_scan"}, "lat": 38.95737716666667, "is_reserved": 0, "is_disabled": 0, "fusion_lat": 0.0}, {"fusion_lon": 0.0, "bike_id": "f4b35cc37118a3dbce93b8df54e919a7", "name": "f4b35cc37118a3dbce93b8df54e919a7", "type": "electric_scooter", "lon": -77.00183133333333, "rental_uris": {"android": "https://dc.lft.to/lastmile_qr_scan", "ios": "https://dc.lft.to/lastmile_qr_scan"}, "lat": 38.9000105, "is_reserved": 0, "is_disabled": 0, "fusion_lat": 0.0}, {"fusion_lon": 0.0, "bike_id": "e0cfe7836876187e5fac7b7f2cf48aa7", "name": "e0cfe7836876187e5fac7b7f2cf48aa7", "type": "electric_scooter", "lon": -76.99465083333334, "rental_uris": {"android": "https://dc.lft.to/lastmile_qr_scan", "ios": "https://dc.lft.to/lastmile_qr_scan"}, "lat": 38.840338333333335, "is_reserved": 0, "is_disabled": 0, "fusion_lat": 0.0}, {"fusion_lon": 0.0, "bike_id": "63de25c5a4d8c12d9dd9b280547be656", "name": "63de25c5a4d8c12d9dd9b280547be656", "type": "electric_scooter", "lon": -77.032875, "rental_uris": {"android": "https://dc.lft.to/lastmile_qr_scan", "ios": "https://dc.lft.to/lastmile_qr_scan"}, "lat": 38.91713583333333, "is_reserved": 0, "is_disabled": 0, "fusion_lat": 0.0}, {"fusion_lon": 0.0, "bike_id": "8723e3925f9119eaeea8b5276253e200", "name": "8723e3925f9119eaeea8b5276253e200", "type": "electric_scooter", "lon": -77.02859883333333, "rental_uris": {"android": "https://dc.lft.to/lastmile_qr_scan", "ios": "https://dc.lft.to/lastmile_qr_scan"}, "lat": 38.935887, "is_reserved": 0, "is_disabled": 0, "fusion_lat": 0.0}, {"fusion_lon": 0.0, "bike_id": "e23355795e26ff73806a73b994de2cc9", "name": "e23355795e26ff73806a73b994de2cc9", "type": "electric_scooter", "lon": -77.03419083333333, "rental_uris": {"android": "https://dc.lft.to/lastmile_qr_scan", "ios": "https://dc.lft.to/lastmile_qr_scan"}, "lat": 38.92737133333333, "is_reserved": 0, "is_disabled": 0, "fusion_lat": 0.0}, {"fusion_lon": 0.0, "bike_id": "119342d60f734046417e9d7f137b7548", "name": "119342d60f734046417e9d7f137b7548", "type": "electric_scooter", "lon": -76.99630183333333, "rental_uris": {"android": "https://dc.lft.to/lastmile_qr_scan", "ios": "https://dc.lft.to/lastmile_qr_scan"}, "lat": 38.846212, "is_reserved": 0, "is_disabled": 0, "fusion_lat": 0.0}, {"fusion_lon": 0.0, "bike_id": "95c466d856438e50d9e6e2837abe22f0", "name": "95c466d856438e50d9e6e2837abe22f0", "type": "electric_scooter", "lon": -77.0056955, "rental_uris": {"android": "https://dc.lft.to/lastmile_qr_scan", "ios": "https://dc.lft.to/lastmile_qr_scan"}, "lat": 38.90524966666667, "is_reserved": 0, "is_disabled": 0, "fusion_lat": 0.0}, {"fusion_lon": 0.0, "bike_id": "5e2f691201ec4db88a5997158cbbf154", "name": "5e2f691201ec4db88a5997158cbbf154", "type": "electric_scooter", "lon": -76.93746933333334, "rental_uris": {"android": "https://dc.lft.to/lastmile_qr_scan", "ios": "https://dc.lft.to/lastmile_qr_scan"}, "lat": 38.890061833333334, "is_reserved": 0, "is_disabled": 0, "fusion_lat": 0.0}, {"fusion_lon": 0.0, "bike_id": "c7bc1a7f61dd6c955e26f98c03d2aa2d", "name": "c7bc1a7f61dd6c955e26f98c03d2aa2d", "type": "electric_scooter", "lon": -77.0215025, "rental_uris": {"android": "https://dc.lft.to/lastmile_qr_scan", "ios": "https://dc.lft.to/lastmile_qr_scan"}, "lat": 38.92916433333333, "is_reserved": 0, "is_disabled": 0, "fusion_lat": 0.0}, {"fusion_lon": 0.0, "bike_id": "3b327b9e42e555aa537c9bb29c43d087", "name": "3b327b9e42e555aa537c9bb29c43d087", "type": "electric_scooter", "lon": -77.02208183333333, "rental_uris": {"android": "https://dc.lft.to/lastmile_qr_scan", "ios": "https://dc.lft.to/lastmile_qr_scan"}, "lat": 38.905719833333336, "is_reserved": 0, "is_disabled": 0, "fusion_lat": 0.0}, {"fusion_lon": 0.0, "bike_id": "6d68bf304ab6c9e97ed9f84c5943dd5d", "name": "6d68bf304ab6c9e97ed9f84c5943dd5d", "type": "electric_scooter", "lon": -77.0323905, "rental_uris": {"android": "https://dc.lft.to/lastmile_qr_scan", "ios": "https://dc.lft.to/lastmile_qr_scan"}, "lat": 38.915486666666666, "is_reserved": 0, "is_disabled": 0, "fusion_lat": 0.0}, {"fusion_lon": 0.0, "bike_id": "5494cb77cb4f3d8033da8d1494171f54", "name": "5494cb77cb4f3d8033da8d1494171f54", "type": "electric_bike", "lon": -77.1240285, "rental_uris": {"android": "https://dc.lft.to/lastmile_qr_scan", "ios": "https://dc.lft.to/lastmile_qr_scan"}, "lat": 38.89332683333333, "is_reserved": 0, "is_disabled": 0, "fusion_lat": 0.0}, {"fusion_lon": 0.0, "bike_id": "fba5a54e518d431debb48ca95b8bb953", "name": "fba5a54e518d431debb48ca95b8bb953", "type": "electric_scooter", "lon": -77.03653633333333, "rental_uris": {"android": "https://dc.lft.to/lastmile_qr_scan", "ios": "https://dc.lft.to/lastmile_qr_scan"}, "lat": 38.920791333333334, "is_reserved": 0, "is_disabled": 0, "fusion_lat": 0.0}, {"fusion_lon": 0.0, "bike_id": "0db4e4dcf9b21a42be03bd48c386c9e6", "name": "0db4e4dcf9b21a42be03bd48c386c9e6", "type": "electric_scooter", "lon": -77.02107366666667, "rental_uris": {"android": "https://dc.lft.to/lastmile_qr_scan", "ios": "https://dc.lft.to/lastmile_qr_scan"}, "lat": 38.94099716666667, "is_reserved": 0, "is_disabled": 0, "fusion_lat": 0.0}, {"fusion_lon": 0.0, "bike_id": "8d03ac39563b5e1eb344aee030eb865d", "name": "8d03ac39563b5e1eb344aee030eb865d", "type": "electric_scooter", "lon": -76.96508583333333, "rental_uris": {"android": "https://dc.lft.to/lastmile_qr_scan", "ios": "https://dc.lft.to/lastmile_qr_scan"}, "lat": 38.876484166666664, "is_reserved": 0, "is_disabled": 0, "fusion_lat": 0.0}, {"fusion_lon": 0.0, "bike_id": "411c5e016189e1f5bc3311227331350e", "name": "411c5e016189e1f5bc3311227331350e", "type": "electric_scooter", "lon": -77.0317105, "rental_uris": {"android": "https://dc.lft.to/lastmile_qr_scan", "ios": "https://dc.lft.to/lastmile_qr_scan"}, "lat": 38.907172, "is_reserved": 0, "is_disabled": 0, "fusion_lat": 0.0}, {"fusion_lon": 0.0, "bike_id": "b3046fb599a354e70e49ea836870a27d", "name": "b3046fb599a354e70e49ea836870a27d", "type": "electric_scooter", "lon": -77.03995166666667, "rental_uris": {"android": "https://dc.lft.to/lastmile_qr_scan", "ios": "https://dc.lft.to/lastmile_qr_scan"}, "lat": 38.93254, "is_reserved": 0, "is_disabled": 0, "fusion_lat": 0.0}, {"fusion_lon": 0.0, "bike_id": "9ccf58a18a8bb53dbe0546a81468a236", "name": "9ccf58a18a8bb53dbe0546a81468a236", "type": "electric_scooter", "lon": -77.06216233333333, "rental_uris": {"android": "https://dc.lft.to/lastmile_qr_scan", "ios": "https://dc.lft.to/lastmile_qr_scan"}, "lat": 38.905283, "is_reserved": 0, "is_disabled": 0, "fusion_lat": 0.0}, {"fusion_lon": 0.0, "bike_id": "d75c51a72210a3aec0cdf29a667ee898", "name": "d75c51a72210a3aec0cdf29a667ee898", "type": "electric_scooter", "lon": -76.99678733333333, "rental_uris": {"android": "https://dc.lft.to/lastmile_qr_scan", "ios": "https://dc.lft.to/lastmile_qr_scan"}, "lat": 38.88698316666667, "is_reserved": 0, "is_disabled": 0, "fusion_lat": 0.0}, {"fusion_lon": 0.0, "bike_id": "fdeccdc5ff919ad293fde8a3610c9ffa", "name": "fdeccdc5ff919ad293fde8a3610c9ffa", "type": "electric_scooter", "lon": -77.0260765, "rental_uris": {"android": "https://dc.lft.to/lastmile_qr_scan", "ios": "https://dc.lft.to/lastmile_qr_scan"}, "lat": 38.92445133333333, "is_reserved": 0, "is_disabled": 0, "fusion_lat": 0.0}, {"fusion_lon": 0.0, "bike_id": "bd45564ca75bc8be659a929e189e5820", "name": "bd45564ca75bc8be659a929e189e5820", "type": "electric_scooter", "lon": -77.031068, "rental_uris": {"android": "https://dc.lft.to/lastmile_qr_scan", "ios": "https://dc.lft.to/lastmile_qr_scan"}, "lat": 38.929760333333334, "is_reserved": 0, "is_disabled": 0, "fusion_lat": 0.0}, {"fusion_lon": 0.0, "bike_id": "b48f26a156ba93b760cc45730e9f86a2", "name": "b48f26a156ba93b760cc45730e9f86a2", "type": "electric_scooter", "lon": -77.0005755, "rental_uris": {"android": "https://dc.lft.to/lastmile_qr_scan", "ios": "https://dc.lft.to/lastmile_qr_scan"}, "lat": 38.88902266666667, "is_reserved": 0, "is_disabled": 0, "fusion_lat": 0.0}, {"fusion_lon": 0.0, "bike_id": "4442f21fc51e416e339733eb4dffa13a", "name": "4442f21fc51e416e339733eb4dffa13a", "type": "electric_scooter", "lon": -76.96523583333334, "rental_uris": {"android": "https://dc.lft.to/lastmile_qr_scan", "ios": "https://dc.lft.to/lastmile_qr_scan"}, "lat": 38.87629733333333, "is_reserved": 0, "is_disabled": 0, "fusion_lat": 0.0}, {"fusion_lon": 0.0, "bike_id": "08b0bc4e56e366d5c689fe08b79b6cef", "name": "08b0bc4e56e366d5c689fe08b79b6cef", "type": "electric_bike", "lon": -76.94570933333333, "rental_uris": {"android": "https://dc.lft.to/lastmile_qr_scan", "ios": "https://dc.lft.to/lastmile_qr_scan"}, "lat": 38.866224333333335, "is_reserved": 0, "is_disabled": 0, "fusion_lat": 0.0}, {"fusion_lon": 0.0, "bike_id": "66b4525c8e21ad856a475ff1c08e355e", "name": "66b4525c8e21ad856a475ff1c08e355e", "type": "electric_scooter", "lon": -77.0263325, "rental_uris": {"android": "https://dc.lft.to/lastmile_qr_scan", "ios": "https://dc.lft.to/lastmile_qr_scan"}, "lat": 38.980577, "is_reserved": 0, "is_disabled": 0, "fusion_lat": 0.0}, {"fusion_lon": 0.0, "bike_id": "c7c0300de38658fb5c1a73d3ff1a69db", "name": "c7c0300de38658fb5c1a73d3ff1a69db", "type": "electric_scooter", "lon": -77.0313385, "rental_uris": {"android": "https://dc.lft.to/lastmile_qr_scan", "ios": "https://dc.lft.to/lastmile_qr_scan"}, "lat": 38.918659, "is_reserved": 0, "is_disabled": 0, "fusion_lat": 0.0}, {"fusion_lon": 0.0, "bike_id": "75fe514081782d345239cc1a283ecada", "name": "75fe514081782d345239cc1a283ecada", "type": "electric_scooter", "lon": -77.06890016666667, "rental_uris": {"android": "https://dc.lft.to/lastmile_qr_scan", "ios": "https://dc.lft.to/lastmile_qr_scan"}, "lat": 38.905133, "is_reserved": 0, "is_disabled": 0, "fusion_lat": 0.0}, {"fusion_lon": 0.0, "bike_id": "a4fb5c5d97ee182ceb7775e064ade67c", "name": "a4fb5c5d97ee182ceb7775e064ade67c", "type": "electric_scooter", "lon": -77.03831033333333, "rental_uris": {"android": "https://dc.lft.to/lastmile_qr_scan", "ios": "https://dc.lft.to/lastmile_qr_scan"}, "lat": 38.9156945, "is_reserved": 0, "is_disabled": 0, "fusion_lat": 0.0}, {"fusion_lon": 0.0, "bike_id": "b32e7e3ba6079fd29894b4fbbaa13b2c", "name": "b32e7e3ba6079fd29894b4fbbaa13b2c", "type": "electric_scooter", "lon": -77.01771066666667, "rental_uris": {"android": "https://dc.lft.to/lastmile_qr_scan", "ios": "https://dc.lft.to/lastmile_qr_scan"}, "lat": 38.877144, "is_reserved": 0, "is_disabled": 0, "fusion_lat": 0.0}, {"fusion_lon": 0.0, "bike_id": "e24584d3f9413dfa78786b7fa28ee2bd", "name": "e24584d3f9413dfa78786b7fa28ee2bd", "type": "electric_scooter", "lon": -77.02105233333333, "rental_uris": {"android": "https://dc.lft.to/lastmile_qr_scan", "ios": "https://dc.lft.to/lastmile_qr_scan"}, "lat": 38.89751316666667, "is_reserved": 0, "is_disabled": 0, "fusion_lat": 0.0}, {"fusion_lon": 0.0, "bike_id": "6ce76ae7c9ccbcb76bdd9c114c27088a", "name": "6ce76ae7c9ccbcb76bdd9c114c27088a", "type": "electric_scooter", "lon": -77.040413, "rental_uris": {"android": "https://dc.lft.to/lastmile_qr_scan", "ios": "https://dc.lft.to/lastmile_qr_scan"}, "lat": 38.90568566666666, "is_reserved": 0, "is_disabled": 0, "fusion_lat": 0.0}, {"fusion_lon": 0.0, "bike_id": "1a21a0cdf80ce5e56cabe21b2f0748c8", "name": "1a21a0cdf80ce5e56cabe21b2f0748c8", "type": "electric_scooter", "lon": -77.008141, "rental_uris": {"android": "https://dc.lft.to/lastmile_qr_scan", "ios": "https://dc.lft.to/lastmile_qr_scan"}, "lat": 38.87638716666667, "is_reserved": 0, "is_disabled": 0, "fusion_lat": 0.0}, {"fusion_lon": 0.0, "bike_id": "09c3cf7d0cf60f7cbf52c7a17d5087d7", "name": "09c3cf7d0cf60f7cbf52c7a17d5087d7", "type": "electric_scooter", "lon": -77.00933883333333, "rental_uris": {"android": "https://dc.lft.to/lastmile_qr_scan", "ios": "https://dc.lft.to/lastmile_qr_scan"}, "lat": 38.876596, "is_reserved": 0, "is_disabled": 0, "fusion_lat": 0.0}, {"fusion_lon": 0.0, "bike_id": "5764fcf32f1eb5430ed5bee36afec127", "name": "5764fcf32f1eb5430ed5bee36afec127", "type": "electric_scooter", "lon": -77.01768916666667, "rental_uris": {"android": "https://dc.lft.to/lastmile_qr_scan", "ios": "https://dc.lft.to/lastmile_qr_scan"}, "lat": 38.87718916666667, "is_reserved": 0, "is_disabled": 0, "fusion_lat": 0.0}, {"fusion_lon": 0.0, "bike_id": "12683dd4b0a6d8e0cffdc23818b31efe", "name": "12683dd4b0a6d8e0cffdc23818b31efe", "type": "electric_scooter", "lon": -77.04297816666667, "rental_uris": {"android": "https://dc.lft.to/lastmile_qr_scan", "ios": "https://dc.lft.to/lastmile_qr_scan"}, "lat": 38.913345666666665, "is_reserved": 0, "is_disabled": 0, "fusion_lat": 0.0}, {"fusion_lon": 0.0, "bike_id": "8a14404f2290b06a0e2154a503599675", "name": "8a14404f2290b06a0e2154a503599675", "type": "electric_scooter", "lon": -77.04355966666667, "rental_uris": {"android": "https://dc.lft.to/lastmile_qr_scan", "ios": "https://dc.lft.to/lastmile_qr_scan"}, "lat": 38.918648833333336, "is_reserved": 0, "is_disabled": 0, "fusion_lat": 0.0}, {"fusion_lon": 0.0, "bike_id": "a58893a334b4c7b460ec9b675d19c850", "name": "a58893a334b4c7b460ec9b675d19c850", "type": "electric_scooter", "lon": -77.017695, "rental_uris": {"android": "https://dc.lft.to/lastmile_qr_scan", "ios": "https://dc.lft.to/lastmile_qr_scan"}, "lat": 38.87706766666667, "is_reserved": 0, "is_disabled": 0, "fusion_lat": 0.0}, {"fusion_lon": 0.0, "bike_id": "b42cd1d9a062c5b28ca46535ef85ab7e", "name": "b42cd1d9a062c5b28ca46535ef85ab7e", "type": "electric_scooter", "lon": -77.07701683333333, "rental_uris": {"android": "https://dc.lft.to/lastmile_qr_scan", "ios": "https://dc.lft.to/lastmile_qr_scan"}, "lat": 38.942911, "is_reserved": 0, "is_disabled": 0, "fusion_lat": 0.0}, {"fusion_lon": 0.0, "bike_id": "c8c9d37ec1e23b14c485a7a7fddde3c0", "name": "c8c9d37ec1e23b14c485a7a7fddde3c0", "type": "electric_scooter", "lon": -77.03296833333333, "rental_uris": {"android": "https://dc.lft.to/lastmile_qr_scan", "ios": "https://dc.lft.to/lastmile_qr_scan"}, "lat": 38.9111515, "is_reserved": 0, "is_disabled": 0, "fusion_lat": 0.0}, {"fusion_lon": 0.0, "bike_id": "db60dc25493a9295d12e632470bcb20f", "name": "db60dc25493a9295d12e632470bcb20f", "type": "electric_scooter", "lon": -77.010974, "rental_uris": {"android": "https://dc.lft.to/lastmile_qr_scan", "ios": "https://dc.lft.to/lastmile_qr_scan"}, "lat": 38.89610666666667, "is_reserved": 0, "is_disabled": 0, "fusion_lat": 0.0}, {"fusion_lon": 0.0, "bike_id": "d2cbba12e14571bddb80c6a1a21dd56b", "name": "d2cbba12e14571bddb80c6a1a21dd56b", "type": "electric_scooter", "lon": -77.04151633333333, "rental_uris": {"android": "https://dc.lft.to/lastmile_qr_scan", "ios": "https://dc.lft.to/lastmile_qr_scan"}, "lat": 38.91478883333333, "is_reserved": 0, "is_disabled": 0, "fusion_lat": 0.0}, {"fusion_lon": 0.0, "bike_id": "3454184b4724e71e8cd93de7969dfaae", "name": "3454184b4724e71e8cd93de7969dfaae", "type": "electric_scooter", "lon": -77.048578, "rental_uris": {"android": "https://dc.lft.to/lastmile_qr_scan", "ios": "https://dc.lft.to/lastmile_qr_scan"}, "lat": 38.9019785, "is_reserved": 0, "is_disabled": 0, "fusion_lat": 0.0}, {"fusion_lon": 0.0, "bike_id": "2b05828ddf763899262be32e6ef69e23", "name": "2b05828ddf763899262be32e6ef69e23", "type": "electric_scooter", "lon": -77.042429, "rental_uris": {"android": "https://dc.lft.to/lastmile_qr_scan", "ios": "https://dc.lft.to/lastmile_qr_scan"}, "lat": 38.91924933333333, "is_reserved": 0, "is_disabled": 0, "fusion_lat": 0.0}, {"fusion_lon": 0.0, "bike_id": "e4234bdd2e6e8545c840e0dcffb67dc1", "name": "e4234bdd2e6e8545c840e0dcffb67dc1", "type": "electric_scooter", "lon": -76.99644866666667, "rental_uris": {"android": "https://dc.lft.to/lastmile_qr_scan", "ios": "https://dc.lft.to/lastmile_qr_scan"}, "lat": 38.88721616666667, "is_reserved": 0, "is_disabled": 0, "fusion_lat": 0.0}, {"fusion_lon": 0.0, "bike_id": "7a07186c74166d987a5f3ad2c8f5b09c", "name": "7a07186c74166d987a5f3ad2c8f5b09c", "type": "electric_scooter", "lon": -77.03363583333334, "rental_uris": {"android": "https://dc.lft.to/lastmile_qr_scan", "ios": "https://dc.lft.to/lastmile_qr_scan"}, "lat": 38.911948833333334, "is_reserved": 0, "is_disabled": 0, "fusion_lat": 0.0}, {"fusion_lon": 0.0, "bike_id": "fea1112db14f0c7848ad0a6389024bbd", "name": "fea1112db14f0c7848ad0a6389024bbd", "type": "electric_scooter", "lon": -76.931858, "rental_uris": {"android": "https://dc.lft.to/lastmile_qr_scan", "ios": "https://dc.lft.to/lastmile_qr_scan"}, "lat": 38.89877033333333, "is_reserved": 0, "is_disabled": 0, "fusion_lat": 0.0}, {"fusion_lon": 0.0, "bike_id": "c6a0fbc48eb8ba670e79f48dc218cae8", "name": "c6a0fbc48eb8ba670e79f48dc218cae8", "type": "electric_scooter", "lon": -76.98073583333333, "rental_uris": {"android": "https://dc.lft.to/lastmile_qr_scan", "ios": "https://dc.lft.to/lastmile_qr_scan"}, "lat": 38.9166795, "is_reserved": 0, "is_disabled": 0, "fusion_lat": 0.0}, {"fusion_lon": 0.0, "bike_id": "ebe11d2b08f647cfec19fd1bd475a25c", "name": "ebe11d2b08f647cfec19fd1bd475a25c", "type": "electric_bike", "lon": -77.02495783333333, "rental_uris": {"android": "https://dc.lft.to/lastmile_qr_scan", "ios": "https://dc.lft.to/lastmile_qr_scan"}, "lat": 38.9740855, "is_reserved": 0, "is_disabled": 0, "fusion_lat": 0.0}, {"fusion_lon": 0.0, "bike_id": "a1f55d27a1b7974cfd8f593aa9b395b3", "name": "a1f55d27a1b7974cfd8f593aa9b395b3", "type": "electric_scooter", "lon": -77.02312116666667, "rental_uris": {"android": "https://dc.lft.to/lastmile_qr_scan", "ios": "https://dc.lft.to/lastmile_qr_scan"}, "lat": 38.920681333333334, "is_reserved": 0, "is_disabled": 0, "fusion_lat": 0.0}, {"fusion_lon": 0.0, "bike_id": "3e92558794ab55284e0edd9ce08e724f", "name": "3e92558794ab55284e0edd9ce08e724f", "type": "electric_bike", "lon": -77.00084066666666, "rental_uris": {"android": "https://dc.lft.to/lastmile_qr_scan", "ios": "https://dc.lft.to/lastmile_qr_scan"}, "lat": 38.886003333333335, "is_reserved": 0, "is_disabled": 0, "fusion_lat": 0.0}, {"fusion_lon": 0.0, "bike_id": "86cbec931d5053707f6d23f9ffddcdf9", "name": "86cbec931d5053707f6d23f9ffddcdf9", "type": "electric_scooter", "lon": -77.02168016666667, "rental_uris": {"android": "https://dc.lft.to/lastmile_qr_scan", "ios": "https://dc.lft.to/lastmile_qr_scan"}, "lat": 38.94294133333333, "is_reserved": 0, "is_disabled": 0, "fusion_lat": 0.0}, {"fusion_lon": 0.0, "bike_id": "bfc5d667e3fbe1e635e65f0e81d4b029", "name": "bfc5d667e3fbe1e635e65f0e81d4b029", "type": "electric_scooter", "lon": -76.99068883333334, "rental_uris": {"android": "https://dc.lft.to/lastmile_qr_scan", "ios": "https://dc.lft.to/lastmile_qr_scan"}, "lat": 38.90424516666667, "is_reserved": 0, "is_disabled": 0, "fusion_lat": 0.0}, {"fusion_lon": 0.0, "bike_id": "72e101742cbb007b179bc5c8a6bdd877", "name": "72e101742cbb007b179bc5c8a6bdd877", "type": "electric_scooter", "lon": -77.05436733333333, "rental_uris": {"android": "https://dc.lft.to/lastmile_qr_scan", "ios": "https://dc.lft.to/lastmile_qr_scan"}, "lat": 38.8960365, "is_reserved": 0, "is_disabled": 0, "fusion_lat": 0.0}, {"fusion_lon": 0.0, "bike_id": "247a6eaa9b7732c58f176587ab5ac429", "name": "247a6eaa9b7732c58f176587ab5ac429", "type": "electric_scooter", "lon": -77.01730033333334, "rental_uris": {"android": "https://dc.lft.to/lastmile_qr_scan", "ios": "https://dc.lft.to/lastmile_qr_scan"}, "lat": 38.874785, "is_reserved": 0, "is_disabled": 0, "fusion_lat": 0.0}, {"fusion_lon": 0.0, "bike_id": "3527a1615965fec354852e2bd05a3d6a", "name": "3527a1615965fec354852e2bd05a3d6a", "type": "electric_scooter", "lon": -77.0086515, "rental_uris": {"android": "https://dc.lft.to/lastmile_qr_scan", "ios": "https://dc.lft.to/lastmile_qr_scan"}, "lat": 38.905610333333335, "is_reserved": 0, "is_disabled": 0, "fusion_lat": 0.0}, {"fusion_lon": 0.0, "bike_id": "ca1a18f6b9db483eab0db3fbb7680f11", "name": "ca1a18f6b9db483eab0db3fbb7680f11", "type": "electric_scooter", "lon": -77.00741266666667, "rental_uris": {"android": "https://dc.lft.to/lastmile_qr_scan", "ios": "https://dc.lft.to/lastmile_qr_scan"}, "lat": 38.87661666666666, "is_reserved": 0, "is_disabled": 0, "fusion_lat": 0.0}, {"fusion_lon": 0.0, "bike_id": "1125e9fa426cf57ccad75b0d07b56647", "name": "1125e9fa426cf57ccad75b0d07b56647", "type": "electric_scooter", "lon": -77.02281016666667, "rental_uris": {"android": "https://dc.lft.to/lastmile_qr_scan", "ios": "https://dc.lft.to/lastmile_qr_scan"}, "lat": 38.91760633333333, "is_reserved": 0, "is_disabled": 0, "fusion_lat": 0.0}, {"fusion_lon": 0.0, "bike_id": "08d2a99d3139186a2a1af370c449f714", "name": "08d2a99d3139186a2a1af370c449f714", "type": "electric_scooter", "lon": -77.01891033333334, "rental_uris": {"android": "https://dc.lft.to/lastmile_qr_scan", "ios": "https://dc.lft.to/lastmile_qr_scan"}, "lat": 38.877469, "is_reserved": 0, "is_disabled": 0, "fusion_lat": 0.0}, {"fusion_lon": 0.0, "bike_id": "b8633af6a7d234c11444daf3b4e3a3c5", "name": "b8633af6a7d234c11444daf3b4e3a3c5", "type": "electric_bike", "lon": -76.97899783333334, "rental_uris": {"android": "https://dc.lft.to/lastmile_qr_scan", "ios": "https://dc.lft.to/lastmile_qr_scan"}, "lat": 38.854952, "is_reserved": 0, "is_disabled": 0, "fusion_lat": 0.0}, {"fusion_lon": 0.0, "bike_id": "350272b67d20abbfaa6511cb16b80c0d", "name": "350272b67d20abbfaa6511cb16b80c0d", "type": "electric_scooter", "lon": -76.95537233333333, "rental_uris": {"android": "https://dc.lft.to/lastmile_qr_scan", "ios": "https://dc.lft.to/lastmile_qr_scan"}, "lat": 38.887660333333336, "is_reserved": 0, "is_disabled": 0, "fusion_lat": 0.0}, {"fusion_lon": 0.0, "bike_id": "7f9dd3a7a40693f7c0403bf0e4c98409", "name": "7f9dd3a7a40693f7c0403bf0e4c98409", "type": "electric_scooter", "lon": -77.10312216666667, "rental_uris": {"android": "https://dc.lft.to/lastmile_qr_scan", "ios": "https://dc.lft.to/lastmile_qr_scan"}, "lat": 38.92670566666666, "is_reserved": 0, "is_disabled": 0, "fusion_lat": 0.0}, {"fusion_lon": 0.0, "bike_id": "14daf37bbb75b48078b8fa28ba0f57b2", "name": "14daf37bbb75b48078b8fa28ba0f57b2", "type": "electric_scooter", "lon": -77.06241616666667, "rental_uris": {"android": "https://dc.lft.to/lastmile_qr_scan", "ios": "https://dc.lft.to/lastmile_qr_scan"}, "lat": 38.90531633333333, "is_reserved": 0, "is_disabled": 0, "fusion_lat": 0.0}, {"fusion_lon": 0.0, "bike_id": "af184a41e6bdbaff8aa52c3b9710583f", "name": "af184a41e6bdbaff8aa52c3b9710583f", "type": "electric_scooter", "lon": -76.983422, "rental_uris": {"android": "https://dc.lft.to/lastmile_qr_scan", "ios": "https://dc.lft.to/lastmile_qr_scan"}, "lat": 38.91274883333333, "is_reserved": 0, "is_disabled": 0, "fusion_lat": 0.0}, {"fusion_lon": 0.0, "bike_id": "01789a52683fd4371b484ce7b761219b", "name": "01789a52683fd4371b484ce7b761219b", "type": "electric_scooter", "lon": -77.05095883333334, "rental_uris": {"android": "https://dc.lft.to/lastmile_qr_scan", "ios": "https://dc.lft.to/lastmile_qr_scan"}, "lat": 38.923461833333334, "is_reserved": 0, "is_disabled": 0, "fusion_lat": 0.0}, {"fusion_lon": 0.0, "bike_id": "6d0b2af7dfb6bbd53fe26c3936012d5d", "name": "6d0b2af7dfb6bbd53fe26c3936012d5d", "type": "electric_scooter", "lon": -77.02714766666666, "rental_uris": {"android": "https://dc.lft.to/lastmile_qr_scan", "ios": "https://dc.lft.to/lastmile_qr_scan"}, "lat": 38.907503, "is_reserved": 0, "is_disabled": 0, "fusion_lat": 0.0}, {"fusion_lon": 0.0, "bike_id": "47f3e2f954dc5fa94d9eb8c1f98132eb", "name": "47f3e2f954dc5fa94d9eb8c1f98132eb", "type": "electric_bike", "lon": -76.91596366666667, "rental_uris": {"android": "https://dc.lft.to/lastmile_qr_scan", "ios": "https://dc.lft.to/lastmile_qr_scan"}, "lat": 38.88011766666666, "is_reserved": 0, "is_disabled": 0, "fusion_lat": 0.0}, {"fusion_lon": 0.0, "bike_id": "09c1a6b5291e25f455042abb830e5880", "name": "09c1a6b5291e25f455042abb830e5880", "type": "electric_scooter", "lon": -76.984027, "rental_uris": {"android": "https://dc.lft.to/lastmile_qr_scan", "ios": "https://dc.lft.to/lastmile_qr_scan"}, "lat": 38.85974233333334, "is_reserved": 0, "is_disabled": 0, "fusion_lat": 0.0}, {"fusion_lon": 0.0, "bike_id": "c738cef0f6d5df1ed7913be3d06ca45e", "name": "c738cef0f6d5df1ed7913be3d06ca45e", "type": "electric_scooter", "lon": -77.03317283333334, "rental_uris": {"android": "https://dc.lft.to/lastmile_qr_scan", "ios": "https://dc.lft.to/lastmile_qr_scan"}, "lat": 38.960163333333334, "is_reserved": 0, "is_disabled": 0, "fusion_lat": 0.0}, {"fusion_lon": 0.0, "bike_id": "37a6b632914ad333ed0ff368957acf27", "name": "37a6b632914ad333ed0ff368957acf27", "type": "electric_scooter", "lon": -77.00340283333334, "rental_uris": {"android": "https://dc.lft.to/lastmile_qr_scan", "ios": "https://dc.lft.to/lastmile_qr_scan"}, "lat": 38.88321, "is_reserved": 0, "is_disabled": 0, "fusion_lat": 0.0}, {"fusion_lon": 0.0, "bike_id": "8a8818b45d111373879cf00f2cdd34d9", "name": "8a8818b45d111373879cf00f2cdd34d9", "type": "electric_bike", "lon": -76.90817933333334, "rental_uris": {"android": "https://dc.lft.to/lastmile_qr_scan", "ios": "https://dc.lft.to/lastmile_qr_scan"}, "lat": 38.99453966666667, "is_reserved": 0, "is_disabled": 0, "fusion_lat": 0.0}, {"fusion_lon": 0.0, "bike_id": "94e38d5652da5e022c5f4999ac97fcfa", "name": "94e38d5652da5e022c5f4999ac97fcfa", "type": "electric_scooter", "lon": -77.02583433333334, "rental_uris": {"android": "https://dc.lft.to/lastmile_qr_scan", "ios": "https://dc.lft.to/lastmile_qr_scan"}, "lat": 38.942159333333336, "is_reserved": 0, "is_disabled": 0, "fusion_lat": 0.0}, {"fusion_lon": 0.0, "bike_id": "ee1d7c3d6af5affd445cb2666eaa191c", "name": "ee1d7c3d6af5affd445cb2666eaa191c", "type": "electric_scooter", "lon": -77.03146633333333, "rental_uris": {"android": "https://dc.lft.to/lastmile_qr_scan", "ios": "https://dc.lft.to/lastmile_qr_scan"}, "lat": 38.92722366666667, "is_reserved": 0, "is_disabled": 0, "fusion_lat": 0.0}, {"fusion_lon": 0.0, "bike_id": "b5d52ba6100c06dbe6b8fa4d66da73d1", "name": "b5d52ba6100c06dbe6b8fa4d66da73d1", "type": "electric_bike", "lon": -76.98181466666666, "rental_uris": {"android": "https://dc.lft.to/lastmile_qr_scan", "ios": "https://dc.lft.to/lastmile_qr_scan"}, "lat": 38.98493166666667, "is_reserved": 0, "is_disabled": 0, "fusion_lat": 0.0}, {"fusion_lon": 0.0, "bike_id": "8a109fc3bcce24e49718d3cd1fe6ad59", "name": "8a109fc3bcce24e49718d3cd1fe6ad59", "type": "electric_scooter", "lon": -77.03855883333334, "rental_uris": {"android": "https://dc.lft.to/lastmile_qr_scan", "ios": "https://dc.lft.to/lastmile_qr_scan"}, "lat": 38.918088166666664, "is_reserved": 0, "is_disabled": 0, "fusion_lat": 0.0}, {"fusion_lon": 0.0, "bike_id": "f0ad24ca2987c0c4dedb784fb768eb4b", "name": "f0ad24ca2987c0c4dedb784fb768eb4b", "type": "electric_scooter", "lon": -77.0074165, "rental_uris": {"android": "https://dc.lft.to/lastmile_qr_scan", "ios": "https://dc.lft.to/lastmile_qr_scan"}, "lat": 38.87652, "is_reserved": 0, "is_disabled": 0, "fusion_lat": 0.0}, {"fusion_lon": 0.0, "bike_id": "55d5cbfa15e68acb9d9d7dc0d5f7f274", "name": "55d5cbfa15e68acb9d9d7dc0d5f7f274", "type": "electric_scooter", "lon": -77.02692683333333, "rental_uris": {"android": "https://dc.lft.to/lastmile_qr_scan", "ios": "https://dc.lft.to/lastmile_qr_scan"}, "lat": 38.907381, "is_reserved": 0, "is_disabled": 0, "fusion_lat": 0.0}, {"fusion_lon": 0.0, "bike_id": "c47c011afb2b5484eda12ba7dfc34d13", "name": "c47c011afb2b5484eda12ba7dfc34d13", "type": "electric_scooter", "lon": -77.032659, "rental_uris": {"android": "https://dc.lft.to/lastmile_qr_scan", "ios": "https://dc.lft.to/lastmile_qr_scan"}, "lat": 38.93213733333333, "is_reserved": 0, "is_disabled": 0, "fusion_lat": 0.0}, {"fusion_lon": 0.0, "bike_id": "1b2dd2aa17c29d31bcad7fe13ea6ffa2", "name": "1b2dd2aa17c29d31bcad7fe13ea6ffa2", "type": "electric_scooter", "lon": -77.0542265, "rental_uris": {"android": "https://dc.lft.to/lastmile_qr_scan", "ios": "https://dc.lft.to/lastmile_qr_scan"}, "lat": 38.92800483333333, "is_reserved": 0, "is_disabled": 0, "fusion_lat": 0.0}, {"fusion_lon": 0.0, "bike_id": "f9e3bbdf75e61099aa0c2385a44e12e7", "name": "f9e3bbdf75e61099aa0c2385a44e12e7", "type": "electric_scooter", "lon": -77.00652066666666, "rental_uris": {"android": "https://dc.lft.to/lastmile_qr_scan", "ios": "https://dc.lft.to/lastmile_qr_scan"}, "lat": 38.91185883333333, "is_reserved": 0, "is_disabled": 0, "fusion_lat": 0.0}, {"fusion_lon": 0.0, "bike_id": "138dacceb30fec8511606b1482f93f4c", "name": "138dacceb30fec8511606b1482f93f4c", "type": "electric_scooter", "lon": -77.03629116666667, "rental_uris": {"android": "https://dc.lft.to/lastmile_qr_scan", "ios": "https://dc.lft.to/lastmile_qr_scan"}, "lat": 38.936672333333334, "is_reserved": 0, "is_disabled": 0, "fusion_lat": 0.0}, {"fusion_lon": 0.0, "bike_id": "d7adc12bc0710ba8d6ca8baea89a4c66", "name": "d7adc12bc0710ba8d6ca8baea89a4c66", "type": "electric_scooter", "lon": -77.046807, "rental_uris": {"android": "https://dc.lft.to/lastmile_qr_scan", "ios": "https://dc.lft.to/lastmile_qr_scan"}, "lat": 38.91594216666667, "is_reserved": 0, "is_disabled": 0, "fusion_lat": 0.0}, {"fusion_lon": 0.0, "bike_id": "9e4a57b15c5e3b92fd204e832842a8dc", "name": "9e4a57b15c5e3b92fd204e832842a8dc", "type": "electric_scooter", "lon": -77.0279825, "rental_uris": {"android": "https://dc.lft.to/lastmile_qr_scan", "ios": "https://dc.lft.to/lastmile_qr_scan"}, "lat": 38.912196, "is_reserved": 0, "is_disabled": 0, "fusion_lat": 0.0}, {"fusion_lon": 0.0, "bike_id": "b3e7e2203b148c80c6933ddf184fc677", "name": "b3e7e2203b148c80c6933ddf184fc677", "type": "electric_scooter", "lon": -77.0325245, "rental_uris": {"android": "https://dc.lft.to/lastmile_qr_scan", "ios": "https://dc.lft.to/lastmile_qr_scan"}, "lat": 38.914871166666664, "is_reserved": 0, "is_disabled": 0, "fusion_lat": 0.0}, {"fusion_lon": 0.0, "bike_id": "4db9987f5c0b2f3b47cdf56e799ca3c3", "name": "4db9987f5c0b2f3b47cdf56e799ca3c3", "type": "electric_scooter", "lon": -77.031762, "rental_uris": {"android": "https://dc.lft.to/lastmile_qr_scan", "ios": "https://dc.lft.to/lastmile_qr_scan"}, "lat": 38.893355, "is_reserved": 0, "is_disabled": 0, "fusion_lat": 0.0}, {"fusion_lon": 0.0, "bike_id": "59baaa8a2ed13223e237a19dddec5d91", "name": "59baaa8a2ed13223e237a19dddec5d91", "type": "electric_scooter", "lon": -77.07809366666666, "rental_uris": {"android": "https://dc.lft.to/lastmile_qr_scan", "ios": "https://dc.lft.to/lastmile_qr_scan"}, "lat": 38.92459066666667, "is_reserved": 0, "is_disabled": 0, "fusion_lat": 0.0}, {"fusion_lon": 0.0, "bike_id": "ab2c9ba362b1cd2e003fb479676e5199", "name": "ab2c9ba362b1cd2e003fb479676e5199", "type": "electric_scooter", "lon": -77.02204316666666, "rental_uris": {"android": "https://dc.lft.to/lastmile_qr_scan", "ios": "https://dc.lft.to/lastmile_qr_scan"}, "lat": 38.9153445, "is_reserved": 0, "is_disabled": 0, "fusion_lat": 0.0}, {"fusion_lon": 0.0, "bike_id": "1158f54390eadccffaecd6bb9b92a8ea", "name": "1158f54390eadccffaecd6bb9b92a8ea", "type": "electric_scooter", "lon": -77.021393, "rental_uris": {"android": "https://dc.lft.to/lastmile_qr_scan", "ios": "https://dc.lft.to/lastmile_qr_scan"}, "lat": 38.89967216666667, "is_reserved": 0, "is_disabled": 0, "fusion_lat": 0.0}, {"fusion_lon": 0.0, "bike_id": "52bbe2697113ab589116acd822c099aa", "name": "52bbe2697113ab589116acd822c099aa", "type": "electric_scooter", "lon": -77.00578483333334, "rental_uris": {"android": "https://dc.lft.to/lastmile_qr_scan", "ios": "https://dc.lft.to/lastmile_qr_scan"}, "lat": 38.871742166666664, "is_reserved": 0, "is_disabled": 0, "fusion_lat": 0.0}, {"fusion_lon": 0.0, "bike_id": "743bafda32a63afec8b1b757a4d07407", "name": "743bafda32a63afec8b1b757a4d07407", "type": "electric_bike", "lon": -76.90758416666667, "rental_uris": {"android": "https://dc.lft.to/lastmile_qr_scan", "ios": "https://dc.lft.to/lastmile_qr_scan"}, "lat": 38.92439183333333, "is_reserved": 0, "is_disabled": 0, "fusion_lat": 0.0},