{"data": {"bikes": [{"lat": 38.900123, "is_disabled": 0, "type": "electric_scooter", "lon": -76.99217516666667, "bike_id": "cc0f2a08a32178f164afa190214dc7d8", "fusion_lat": 0.0, "name": "cc0f2a08a32178f164afa190214dc7d8", "is_reserved": 0, "rental_uris": {"android": "https://dc.lft.to/lastmile_qr_scan", "ios": "https://dc.lft.to/lastmile_qr_scan"}, "fusion_lon": 0.0}, {"lat": 38.91711733333333, "is_disabled": 0, "type": "electric_scooter", "lon": -77.03220483333334, "bike_id": "97f2e25c795dc0b901d25a1a1516c9d1", "fusion_lat": 0.0, "name": "97f2e25c795dc0b901d25a1a1516c9d1", "is_reserved": 0, "rental_uris": {"android": "https://dc.lft.to/lastmile_qr_scan", "ios": "https://dc.lft.to/lastmile_qr_scan"}, "fusion_lon": 0.0}, {"lat": 38.8609335, "is_disabled": 0, "type": "electric_scooter", "lon": -76.98374966666667, "bike_id": "7a01d29a61d6a7aa1bb3d954930f462a", "fusion_lat": 0.0, "name": "7a01d29a61d6a7aa1bb3d954930f462a", "is_reserved": 0, "rental_uris": {"android": "https://dc.lft.to/lastmile_qr_scan", "ios": "https://dc.lft.to/lastmile_qr_scan"}, "fusion_lon": 0.0}, {"lat": 38.8323385, "is_disabled": 0, "type": "electric_bike", "lon": -76.94626516666666, "bike_id": "90bc78ffb03d322bd6c972e4d590aa8b", "fusion_lat": 0.0, "name": "90bc78ffb03d322bd6c972e4d590aa8b", "is_reserved": 0, "rental_uris": {"android": "https://dc.lft.to/lastmile_qr_scan", "ios": "https://dc.lft.to/lastmile_qr_scan"}, "fusion_lon": 0.0}, {"lat": 38.924444, "is_disabled": 0, "type": "electric_scooter", "lon": -77.02026616666667, "bike_id": "f91fb04a0f03a2ce7d9a5ba530bc27be", "fusion_lat": 0.0, "name": "f91fb04a0f03a2ce7d9a5ba530bc27be", "is_reserved": 0, "rental_uris": {"android": "https://dc.lft.to/lastmile_qr_scan", "ios": "https://dc.lft.to/lastmile_qr_scan"}, "fusion_lon": 0.0}, {"lat": 38.900051166666664, "is_disabled": 0, "type": "electric_scooter", "lon": -76.9986915, "bike_id": "7f795d4fb8b24c772b52c46a4ea0e45e", "fusion_lat": 0.0, "name": "7f795d4fb8b24c772b52c46a4ea0e45e", "is_reserved": 0, "rental_uris": {"android": "https://dc.lft.to/lastmile_qr_scan", "ios": "https://dc.lft.to/lastmile_qr_scan"}, "fusion_lon": 0.0}, {"lat": 38.904180833333335, "is_disabled": 0, "type": "electric_scooter", "lon": -77.0295525, "bike_id": "0d58d3be36f81aa81543b9566f86204d", "fusion_lat": 0.0, "name": "0d58d3be36f81aa81543b9566f86204d", "is_reserved": 0, "rental_uris": {"android": "https://dc.lft.to/lastmile_qr_scan", "ios": "https://dc.lft.to/lastmile_qr_scan"}, "fusion_lon": 0.0}, {"lat": 38.94303033333333, "is_disabled": 0, "type": "electric_scooter", "lon": -77.05926333333333, "bike_id": "277769031252662c3eba31d796c580c7", "fusion_lat": 0.0, "name": "277769031252662c3eba31d796c580c7", "is_reserved": 0, "rental_uris": {"android": "https://dc.lft.to/lastmile_qr_scan", "ios": "https://dc.lft.to/lastmile_qr_scan"}, "fusion_lon": 0.0}, {"lat": 38.86383216666667, "is_disabled": 0, "type": "electric_scooter", "lon": -76.99246683333334, "bike_id": "dca5f3c42f600b990cc12994a0dfbb57", "fusion_lat": 0.0, "name": "dca5f3c42f600b990cc12994a0dfbb57", "is_reserved": 0, "rental_uris": {"android": "https://dc.lft.to/lastmile_qr_scan", "ios": "https://dc.lft.to/lastmile_qr_scan"}, "fusion_lon": 0.0}, {"lat": 38.906382666666666, "is_disabled": 0, "type": "electric_scooter", "lon": -76.97951333333333, "bike_id": "a492e586c9a0885666f39a9ec05ca234", "fusion_lat": 0.0, "name": "a492e586c9a0885666f39a9ec05ca234", "is_reserved": 0, "rental_uris": {"android": "https://dc.lft.to/lastmile_qr_scan", "ios": "https://dc.lft.to/lastmile_qr_scan"}, "fusion_lon": 0.0}, {"lat": 38.978325166666664, "is_disabled": 0, "type": "electric_bike", "lon": -77.02642016666667, "bike_id": "bcc77758d3b3d32c8ac597a4dbb65ce9", "fusion_lat": 0.0, "name": "bcc77758d3b3d32c8ac597a4dbb65ce9", "is_reserved": 0, "rental_uris": {"android": "https://dc.lft.to/lastmile_qr_scan", "ios": "https://dc.lft.to/lastmile_qr_scan"}, "fusion_lon": 0.0}, {"lat": 38.91689316666667, "is_disabled": 0, "type": "electric_scooter", "lon": -77.02305966666667, "bike_id": "de94a2ce25f93ce613c54b71c9a8dd96", "fusion_lat": 0.0, "name": "de94a2ce25f93ce613c54b71c9a8dd96", "is_reserved": 0, "rental_uris": {"android": "https://dc.lft.to/lastmile_qr_scan", "ios": "https://dc.lft.to/lastmile_qr_scan"}, "fusion_lon": 0.0}, {"lat": 38.85514366666666, "is_disabled": 0, "type": "electric_bike", "lon": -77.12053016666667, "bike_id": "b7e8fe57b3c7a65e40160c1e01828014", "fusion_lat": 0.0, "name": "b7e8fe57b3c7a65e40160c1e01828014", "is_reserved": 0, "rental_uris": {"android": "https://dc.lft.to/lastmile_qr_scan", "ios": "https://dc.lft.to/lastmile_qr_scan"}, "fusion_lon": 0.0}, {"lat": 38.9132645, "is_disabled": 0, "type": "electric_scooter", "lon": -77.01500616666667, "bike_id": "0dc8e00c4455847aea66558add04008c", "fusion_lat": 0.0, "name": "0dc8e00c4455847aea66558add04008c", "is_reserved": 0, "rental_uris": {"android": "https://dc.lft.to/lastmile_qr_scan", "ios": "https://dc.lft.to/lastmile_qr_scan"}, "fusion_lon": 0.0}, {"lat": 38.91828233333333, "is_disabled": 0, "type": "electric_scooter", "lon": -77.01472916666667, "bike_id": "f36c248330adc0d4ad9b153c9f3238a0", "fusion_lat": 0.0, "name": "f36c248330adc0d4ad9b153c9f3238a0", "is_reserved": 0, "rental_uris": {"android": "https://dc.lft.to/lastmile_qr_scan", "ios": "https://dc.lft.to/lastmile_qr_scan"}, "fusion_lon": 0.0}, {"lat": 38.93113433333333, "is_disabled": 0, "type": "electric_scooter", "lon": -77.03810233333333, "bike_id": "f54da393b57d7eb792899019356b1289", "fusion_lat": 0.0, "name": "f54da393b57d7eb792899019356b1289", "is_reserved": 0, "rental_uris": {"android": "https://dc.lft.to/lastmile_qr_scan", "ios": "https://dc.lft.to/lastmile_qr_scan"}, "fusion_lon": 0.0}, {"lat": 38.9386025, "is_disabled": 0, "type": "electric_scooter", "lon": -77.025919, "bike_id": "ffba1e39d89c9480b3546d734636a868", "fusion_lat": 0.0, "name": "ffba1e39d89c9480b3546d734636a868", "is_reserved": 0, "rental_uris": {"android": "https://dc.lft.to/lastmile_qr_scan", "ios": "https://dc.lft.to/lastmile_qr_scan"}, "fusion_lon": 0.0}, {"lat": 38.923678333333335, "is_disabled": 0, "type": "electric_scooter", "lon": -77.031301, "bike_id": "8e6bbabbf05744f8ed5cc529ab63b5b4", "fusion_lat": 0.0, "name": "8e6bbabbf05744f8ed5cc529ab63b5b4", "is_reserved": 0, "rental_uris": {"android": "https://dc.lft.to/lastmile_qr_scan", "ios": "https://dc.lft.to/lastmile_qr_scan"}, "fusion_lon": 0.0}, {"lat": 38.90199916666667, "is_disabled": 0, "type": "electric_scooter", "lon": -77.0237515, "bike_id": "43ff4ed37d7384e72f3803d0947645e7", "fusion_lat": 0.0, "name": "43ff4ed37d7384e72f3803d0947645e7", "is_reserved": 0, "rental_uris": {"android": "https://dc.lft.to/lastmile_qr_scan", "ios": "https://dc.lft.to/lastmile_qr_scan"}, "fusion_lon": 0.0}, {"lat": 38.905012, "is_disabled": 0, "type": "electric_scooter", "lon": -77.04878, "bike_id": "50d4caa670b80dde0966a6ee726d7d58", "fusion_lat": 0.0, "name": "50d4caa670b80dde0966a6ee726d7d58", "is_reserved": 0, "rental_uris": {"android": "https://dc.lft.to/lastmile_qr_scan", "ios": "https://dc.lft.to/lastmile_qr_scan"}, "fusion_lon": 0.0}, {"lat": 38.8691595, "is_disabled": 0, "type": "electric_scooter", "lon": -76.9830145, "bike_id": "f5b3a97d3e6f817171b87bad727b74ca", "fusion_lat": 0.0, "name": "f5b3a97d3e6f817171b87bad727b74ca", "is_reserved": 0, "rental_uris": {"android": "https://dc.lft.to/lastmile_qr_scan", "ios": "https://dc.lft.to/lastmile_qr_scan"}, "fusion_lon": 0.0}, {"lat": 38.91324566666667, "is_disabled": 0, "type": "electric_scooter", "lon": -77.0312755, "bike_id": "220ee181da30777b6b36825bcf648aff", "fusion_lat": 0.0, "name": "220ee181da30777b6b36825bcf648aff", "is_reserved": 0, "rental_uris": {"android": "https://dc.lft.to/lastmile_qr_scan", "ios": "https://dc.lft.to/lastmile_qr_scan"}, "fusion_lon": 0.0}, {"lat": 38.88419783333333, "is_disabled": 0, "type": "electric_scooter", "lon": -77.00021766666667, "bike_id": "6610db3060749396da62e5b90aff5744", "fusion_lat": 0.0, "name": "6610db3060749396da62e5b90aff5744", "is_reserved": 0, "rental_uris": {"android": "https://dc.lft.to/lastmile_qr_scan", "ios": "https://dc.lft.to/lastmile_qr_scan"}, "fusion_lon": 0.0}, {"lat": 38.928698833333335, "is_disabled": 0, "type": "electric_scooter", "lon": -77.03338766666667, "bike_id": "46cdbda16d98e498072cd8b0d4bc45b7", "fusion_lat": 0.0, "name": "46cdbda16d98e498072cd8b0d4bc45b7", "is_reserved": 0, "rental_uris": {"android": "https://dc.lft.to/lastmile_qr_scan", "ios": "https://dc.lft.to/lastmile_qr_scan"}, "fusion_lon": 0.0}, {"lat": 38.9865585, "is_disabled": 0, "type": "electric_bike", "lon": -77.056351, "bike_id": "651df322dc2a94df58cb948f8b8bc1ec", "fusion_lat": 0.0, "name": "651df322dc2a94df58cb948f8b8bc1ec", "is_reserved": 0, "rental_uris": {"android": "https://dc.lft.to/lastmile_qr_scan", "ios": "https://dc.lft.to/lastmile_qr_scan"}, "fusion_lon": 0.0}, {"lat": 38.878065166666666, "is_disabled": 0, "type": "electric_bike", "lon": -76.96073733333333, "bike_id": "2c101c0169e05451a6e6654e58dce0a6", "fusion_lat": 0.0, "name": "2c101c0169e05451a6e6654e58dce0a6", "is_reserved": 0, "rental_uris": {"android": "https://dc.lft.to/lastmile_qr_scan", "ios": "https://dc.lft.to/lastmile_qr_scan"}, "fusion_lon": 0.0}, {"lat": 38.84428316666666, "is_disabled": 0, "type": "electric_scooter", "lon": -76.99779083333334, "bike_id": "88f71d70b93fd5158376941e1a047e04", "fusion_lat": 0.0, "name": "88f71d70b93fd5158376941e1a047e04", "is_reserved": 0, "rental_uris": {"android": "https://dc.lft.to/lastmile_qr_scan", "ios": "https://dc.lft.to/lastmile_qr_scan"}, "fusion_lon": 0.0}, {"lat": 38.90584833333333, "is_disabled": 0, "type": "electric_scooter", "lon": -77.06516116666667, "bike_id": "8f7004300fdf2995d2b8f03c517d5afb", "fusion_lat": 0.0, "name": "8f7004300fdf2995d2b8f03c517d5afb", "is_reserved": 0, "rental_uris": {"android": "https://dc.lft.to/lastmile_qr_scan", "ios": "https://dc.lft.to/lastmile_qr_scan"}, "fusion_lon": 0.0}, {"lat": 38.90674, "is_disabled": 0, "type": "electric_scooter", "lon": -77.02941016666666, "bike_id": "b7c57367d8fc50b602879c40060bfca1", "fusion_lat": 0.0, "name": "b7c57367d8fc50b602879c40060bfca1", "is_reserved": 0, "rental_uris": {"android": "https://dc.lft.to/lastmile_qr_scan", "ios": "https://dc.lft.to/lastmile_qr_scan"}, "fusion_lon": 0.0}, {"lat": 38.9197935, "is_disabled": 0, "type": "electric_scooter", "lon": -77.0414535, "bike_id": "c0aaec92ce78edbbe43a84789924ebe7", "fusion_lat": 0.0, "name": "c0aaec92ce78edbbe43a84789924ebe7", "is_reserved": 0, "rental_uris": {"android": "https://dc.lft.to/lastmile_qr_scan", "ios": "https://dc.lft.to/lastmile_qr_scan"}, "fusion_lon": 0.0}, {"lat": 38.92837816666667, "is_disabled": 0, "type": "electric_scooter", "lon": -76.998508, "bike_id": "4448229887efdc567774196cfcd02ea7", "fusion_lat": 0.0, "name": "4448229887efdc567774196cfcd02ea7", "is_reserved": 0, "rental_uris": {"android": "https://dc.lft.to/lastmile_qr_scan", "ios": "https://dc.lft.to/lastmile_qr_scan"}, "fusion_lon": 0.0}, {"lat": 38.945096, "is_disabled": 0, "type": "electric_bike", "lon": -77.00674866666667, "bike_id": "7c40a869fa000bc49841f26e5645cc42", "fusion_lat": 0.0, "name": "7c40a869fa000bc49841f26e5645cc42", "is_reserved": 0, "rental_uris": {"android": "https://dc.lft.to/lastmile_qr_scan", "ios": "https://dc.lft.to/lastmile_qr_scan"}, "fusion_lon": 0.0}, {"lat": 38.936116, "is_disabled": 0, "type": "electric_scooter", "lon": -77.05753816666666, "bike_id": "89546f1cf13d3378bbf80c08d5b12204", "fusion_lat": 0.0, "name": "89546f1cf13d3378bbf80c08d5b12204", "is_reserved": 0, "rental_uris": {"android": "https://dc.lft.to/lastmile_qr_scan", "ios": "https://dc.lft.to/lastmile_qr_scan"}, "fusion_lon": 0.0}, {"lat": 38.899234, "is_disabled": 0, "type": "electric_scooter", "lon": -77.05427483333334, "bike_id": "dae96a97782f7b11f3c6799d5e0a9205", "fusion_lat": 0.0, "name": "dae96a97782f7b11f3c6799d5e0a9205", "is_reserved": 0, "rental_uris": {"android": "https://dc.lft.to/lastmile_qr_scan", "ios": "https://dc.lft.to/lastmile_qr_scan"}, "fusion_lon": 0.0}, {"lat": 38.926945, "is_disabled": 0, "type": "electric_scooter", "lon": -77.02569666666666, "bike_id": "e62db85ea23f23155440ba0dbcf2d074", "fusion_lat": 0.0, "name": "e62db85ea23f23155440ba0dbcf2d074", "is_reserved": 0, "rental_uris": {"android": "https://dc.lft.to/lastmile_qr_scan", "ios": "https://dc.lft.to/lastmile_qr_scan"}, "fusion_lon": 0.0}, {"lat": 38.905655833333334, "is_disabled": 0, "type": "electric_scooter", "lon": -77.0344705, "bike_id": "c911567d368a6a19d30c3f2460d076c6", "fusion_lat": 0.0, "name": "c911567d368a6a19d30c3f2460d076c6", "is_reserved": 0, "rental_uris": {"android": "https://dc.lft.to/lastmile_qr_scan", "ios": "https://dc.lft.to/lastmile_qr_scan"}, "fusion_lon": 0.0}, {"lat": 38.94322783333333, "is_disabled": 0, "type": "electric_scooter", "lon": -77.07374666666666, "bike_id": "33b0b58aad6bd904e5fd783d0ae44430", "fusion_lat": 0.0, "name": "33b0b58aad6bd904e5fd783d0ae44430", "is_reserved": 0, "rental_uris": {"android": "https://dc.lft.to/lastmile_qr_scan", "ios": "https://dc.lft.to/lastmile_qr_scan"}, "fusion_lon": 0.0}, {"lat": 38.85806133333333, "is_disabled": 0, "type": "electric_scooter", "lon": -76.98654566666667, "bike_id": "c1d1284c232beb34684056a90a9b770b", "fusion_lat": 0.0, "name": "c1d1284c232beb34684056a90a9b770b", "is_reserved": 0, "rental_uris": {"android": "https://dc.lft.to/lastmile_qr_scan", "ios": "https://dc.lft.to/lastmile_qr_scan"}, "fusion_lon": 0.0}, {"lat": 38.94450533333333, "is_disabled": 0, "type": "electric_scooter", "lon": -77.06031966666667, "bike_id": "691cc91efc13bc24f0f1d11debba6c0d", "fusion_lat": 0.0, "name": "691cc91efc13bc24f0f1d11debba6c0d", "is_reserved": 0, "rental_uris": {"android": "https://dc.lft.to/lastmile_qr_scan", "ios": "https://dc.lft.to/lastmile_qr_scan"}, "fusion_lon": 0.0}, {"lat": 38.89250216666667, "is_disabled": 0, "type": "electric_scooter", "lon": -77.03959033333334, "bike_id": "a22998088850f1e100c12bbb1343c627", "fusion_lat": 0.0, "name": "a22998088850f1e100c12bbb1343c627", "is_reserved": 0, "rental_uris": {"android": "https://dc.lft.to/lastmile_qr_scan", "ios": "https://dc.lft.to/lastmile_qr_scan"}, "fusion_lon": 0.0}, {"lat": 38.890973833333334, "is_disabled": 0, "type": "electric_scooter", "lon": -76.94299633333333, "bike_id": "b60340e7fba2865e866e7307d40a71b9", "fusion_lat": 0.0, "name": "b60340e7fba2865e866e7307d40a71b9", "is_reserved": 0, "rental_uris": {"android": "https://dc.lft.to/lastmile_qr_scan", "ios": "https://dc.lft.to/lastmile_qr_scan"}, "fusion_lon": 0.0}, {"lat": 38.95277183333334, "is_disabled": 0, "type": "electric_scooter", "lon": -77.03654316666666, "bike_id": "c51110eba12d1ec9b1bbf9de4952f29f", "fusion_lat": 0.0, "name": "c51110eba12d1ec9b1bbf9de4952f29f", "is_reserved": 0, "rental_uris": {"android": "https://dc.lft.to/lastmile_qr_scan", "ios": "https://dc.lft.to/lastmile_qr_scan"}, "fusion_lon": 0.0}, {"lat": 38.91601466666667, "is_disabled": 0, "type": "electric_scooter", "lon": -77.07558383333334, "bike_id": "a5b8ec142899fd61aacda43239192c12", "fusion_lat": 0.0, "name": "a5b8ec142899fd61aacda43239192c12", "is_reserved": 0, "rental_uris": {"android": "https://dc.lft.to/lastmile_qr_scan", "ios": "https://dc.lft.to/lastmile_qr_scan"}, "fusion_lon": 0.0}, {"lat": 38.92466783333333, "is_disabled": 0, "type": "electric_bike", "lon": -77.20845283333334, "bike_id": "59f2a5378d7f25659b7ac4fcfb78de4b", "fusion_lat": 0.0, "name": "59f2a5378d7f25659b7ac4fcfb78de4b", "is_reserved": 0, "rental_uris": {"android": "https://dc.lft.to/lastmile_qr_scan", "ios": "https://dc.lft.to/lastmile_qr_scan"}, "fusion_lon": 0.0}, {"lat": 38.96395233333333, "is_disabled": 0, "type": "electric_scooter", "lon": -77.02590266666667, "bike_id": "d8f49a8edfd02492739454650735d604", "fusion_lat": 0.0, "name": "d8f49a8edfd02492739454650735d604", "is_reserved": 0, "rental_uris": {"android": "https://dc.lft.to/lastmile_qr_scan", "ios": "https://dc.lft.to/lastmile_qr_scan"}, "fusion_lon": 0.0}, {"lat": 38.92947983333333, "is_disabled": 0, "type": "electric_scooter", "lon": -77.07039416666667, "bike_id": "f958bff2aa9f0d0e8411d0145ca0aca8", "fusion_lat": 0.0, "name": "f958bff2aa9f0d0e8411d0145ca0aca8", "is_reserved": 0, "rental_uris": {"android": "https://dc.lft.to/lastmile_qr_scan", "ios": "https://dc.lft.to/lastmile_qr_scan"}, "fusion_lon": 0.0}, {"lat": 38.929463166666665, "is_disabled": 0, "type": "electric_scooter", "lon": -77.03258066666666, "bike_id": "266471f2d909fd8a3aae61de024eef2d", "fusion_lat": 0.0, "name": "266471f2d909fd8a3aae61de024eef2d", "is_reserved": 0, "rental_uris": {"android": "https://dc.lft.to/lastmile_qr_scan", "ios": "https://dc.lft.to/lastmile_qr_scan"}, "fusion_lon": 0.0}, {"lat": 38.90236783333334, "is_disabled": 0, "type": "electric_scooter", "lon": -77.0053675, "bike_id": "ef4d5b913253cad9201116b3baf57505", "fusion_lat": 0.0, "name": "ef4d5b913253cad9201116b3baf57505", "is_reserved": 0, "rental_uris": {"android": "https://dc.lft.to/lastmile_qr_scan", "ios": "https://dc.lft.to/lastmile_qr_scan"}, "fusion_lon": 0.0}, {"lat": 38.87746166666667, "is_disabled": 0, "type": "electric_bike", "lon": -76.99516683333333, "bike_id": "ce62d9f9b82e0657f832d02b3ceb05bf", "fusion_lat": 0.0, "name": "ce62d9f9b82e0657f832d02b3ceb05bf", "is_reserved": 0, "rental_uris": {"android": "https://dc.lft.to/lastmile_qr_scan", "ios": "https://dc.lft.to/lastmile_qr_scan"}, "fusion_lon": 0.0}, {"lat": 38.918957166666665, "is_disabled": 0, "type": "electric_scooter", "lon": -77.03449016666667, "bike_id": "24de31e401f115e946c00310a397cb66", "fusion_lat": 0.0, "name": "24de31e401f115e946c00310a397cb66", "is_reserved": 0, "rental_uris": {"android": "https://dc.lft.to/lastmile_qr_scan", "ios": "https://dc.lft.to/lastmile_qr_scan"}, "fusion_lon": 0.0}, {"lat": 38.92713333333333, "is_disabled": 0, "type": "electric_scooter", "lon": -77.020956, "bike_id": "06ea58ad5100aae04600621763e44702", "fusion_lat": 0.0, "name": "06ea58ad5100aae04600621763e44702", "is_reserved": 0, "rental_uris": {"android": "https://dc.lft.to/lastmile_qr_scan", "ios": "https://dc.lft.to/lastmile_qr_scan"}, "fusion_lon": 0.0}, {"lat": 38.90035983333333, "is_disabled": 0, "type": "electric_scooter", "lon": -77.0058445, "bike_id": "1fe9eced490dfda1e4cca76315a72182", "fusion_lat": 0.0, "name": "1fe9eced490dfda1e4cca76315a72182", "is_reserved": 0, "rental_uris": {"android": "https://dc.lft.to/lastmile_qr_scan", "ios": "https://dc.lft.to/lastmile_qr_scan"}, "fusion_lon": 0.0}, {"lat": 38.90673783333333, "is_disabled": 0, "type": "electric_scooter", "lon": -77.062648, "bike_id": "357b7acd37c066f67ea0c87edb230421", "fusion_lat": 0.0, "name": "357b7acd37c066f67ea0c87edb230421", "is_reserved": 0, "rental_uris": {"android": "https://dc.lft.to/lastmile_qr_scan", "ios": "https://dc.lft.to/lastmile_qr_scan"}, "fusion_lon": 0.0}, {"lat": 38.86647166666667, "is_disabled": 0, "type": "electric_scooter", "lon": -76.98890316666666, "bike_id": "ab4899ea2e400e16836820b8c43c64ec", "fusion_lat": 0.0, "name": "ab4899ea2e400e16836820b8c43c64ec", "is_reserved": 0, "rental_uris": {"android": "https://dc.lft.to/lastmile_qr_scan", "ios": "https://dc.lft.to/lastmile_qr_scan"}, "fusion_lon": 0.0}, {"lat": 38.922942666666664, "is_disabled": 0, "type": "electric_scooter", "lon": -77.041409, "bike_id": "4118551d87feb72b7b660925087ac352", "fusion_lat": 0.0, "name": "4118551d87feb72b7b660925087ac352", "is_reserved": 0, "rental_uris": {"android": "https://dc.lft.to/lastmile_qr_scan", "ios": "https://dc.lft.to/lastmile_qr_scan"}, "fusion_lon": 0.0}, {"lat": 38.921802, "is_disabled": 0, "type": "electric_scooter", "lon": -77.0470825, "bike_id": "41c3f655b306b61a63a0899b7ac5b331", "fusion_lat": 0.0, "name": "41c3f655b306b61a63a0899b7ac5b331", "is_reserved": 0, "rental_uris": {"android": "https://dc.lft.to/lastmile_qr_scan", "ios": "https://dc.lft.to/lastmile_qr_scan"}, "fusion_lon": 0.0}, {"lat": 38.964915500000004, "is_disabled": 0, "type": "electric_scooter", "lon": -77.0278575, "bike_id": "0e7734e33d559344c88322ee7640e9e4", "fusion_lat": 0.0, "name": "0e7734e33d559344c88322ee7640e9e4", "is_reserved": 0, "rental_uris": {"android": "https://dc.lft.to/lastmile_qr_scan", "ios": "https://dc.lft.to/lastmile_qr_scan"}, "fusion_lon": 0.0}, {"lat": 38.932305166666666, "is_disabled": 0, "type": "electric_scooter", "lon": -77.03267366666667, "bike_id": "2ff070b3185e76a44016a0892af3de89", "fusion_lat": 0.0, "name": "2ff070b3185e76a44016a0892af3de89", "is_reserved": 0, "rental_uris": {"android": "https://dc.lft.to/lastmile_qr_scan", "ios": "https://dc.lft.to/lastmile_qr_scan"}, "fusion_lon": 0.0}, {"lat": 38.900241333333334, "is_disabled": 0, "type": "electric_scooter", "lon": -77.00208016666667, "bike_id": "2034ade1d1eb283318ece3c74992d40e", "fusion_lat": 0.0, "name": "2034ade1d1eb283318ece3c74992d40e", "is_reserved": 0, "rental_uris": {"android": "https://dc.lft.to/lastmile_qr_scan", "ios": "https://dc.lft.to/lastmile_qr_scan"}, "fusion_lon": 0.0}, {"lat": 38.90371483333333, "is_disabled": 0, "type": "electric_scooter", "lon": -77.00267116666667, "bike_id": "ed53b7249d335023f9100fc812029e39", "fusion_lat": 0.0, "name": "ed53b7249d335023f9100fc812029e39", "is_reserved": 0, "rental_uris": {"android": "https://dc.lft.to/lastmile_qr_scan", "ios": "https://dc.lft.to/lastmile_qr_scan"}, "fusion_lon": 0.0}, {"lat": 38.92156766666667, "is_disabled": 0, "type": "electric_scooter", "lon": -77.03379333333334, "bike_id": "ae18cfb40ee07ed6a441d5f6f1df65fd", "fusion_lat": 0.0, "name": "ae18cfb40ee07ed6a441d5f6f1df65fd", "is_reserved": 0, "rental_uris": {"android": "https://dc.lft.to/lastmile_qr_scan", "ios": "https://dc.lft.to/lastmile_qr_scan"}, "fusion_lon": 0.0}, {"lat": 38.905258833333335, "is_disabled": 0, "type": "electric_scooter", "lon": -76.986225, "bike_id": "ae88d2c57fec1ce3274820900a066778", "fusion_lat": 0.0, "name": "ae88d2c57fec1ce3274820900a066778", "is_reserved": 0, "rental_uris": {"android": "https://dc.lft.to/lastmile_qr_scan", "ios": "https://dc.lft.to/lastmile_qr_scan"}, "fusion_lon": 0.0}, {"lat": 38.86791133333333, "is_disabled": 0, "type": "electric_scooter", "lon": -76.96578633333333, "bike_id": "c3400fad8da71cfd0e9fe1eca4fc8932", "fusion_lat": 0.0, "name": "c3400fad8da71cfd0e9fe1eca4fc8932", "is_reserved": 0, "rental_uris": {"android": "https://dc.lft.to/lastmile_qr_scan", "ios": "https://dc.lft.to/lastmile_qr_scan"}, "fusion_lon": 0.0}, {"lat": 38.92024816666667, "is_disabled": 0, "type": "electric_scooter", "lon": -77.03853833333334, "bike_id": "3b488f229593adbcffc736485c85583b", "fusion_lat": 0.0, "name": "3b488f229593adbcffc736485c85583b", "is_reserved": 0, "rental_uris": {"android": "https://dc.lft.to/lastmile_qr_scan", "ios": "https://dc.lft.to/lastmile_qr_scan"}, "fusion_lon": 0.0}, {"lat": 38.8975415, "is_disabled": 0, "type": "electric_scooter", "lon": -77.01855983333333, "bike_id": "06e319f2fd9fafa56d919f631f238689", "fusion_lat": 0.0, "name": "06e319f2fd9fafa56d919f631f238689", "is_reserved": 0, "rental_uris": {"android": "https://dc.lft.to/lastmile_qr_scan", "ios": "https://dc.lft.to/lastmile_qr_scan"}, "fusion_lon": 0.0}, {"lat": 38.93265266666667, "is_disabled": 0, "type": "electric_scooter", "lon": -77.03275933333333, "bike_id": "53e68196d1cef997b122a9e27477f60e", "fusion_lat": 0.0, "name": "53e68196d1cef997b122a9e27477f60e", "is_reserved": 0, "rental_uris": {"android": "https://dc.lft.to/lastmile_qr_scan", "ios": "https://dc.lft.to/lastmile_qr_scan"}, "fusion_lon": 0.0}, {"lat": 38.908755, "is_disabled": 0, "type": "electric_scooter", "lon": -77.0367125, "bike_id": "6aa76d20c46aa02a8431103291745470", "fusion_lat": 0.0, "name": "6aa76d20c46aa02a8431103291745470", "is_reserved": 0, "rental_uris": {"android": "https://dc.lft.to/lastmile_qr_scan", "ios": "https://dc.lft.to/lastmile_qr_scan"}, "fusion_lon": 0.0}, {"lat": 38.919830833333336, "is_disabled": 0, "type": "electric_scooter", "lon": -77.02402883333333, "bike_id": "1e0a2a06c700ebd2f56af88066c88fee", "fusion_lat": 0.0, "name": "1e0a2a06c700ebd2f56af88066c88fee", "is_reserved": 0, "rental_uris": {"android": "https://dc.lft.to/lastmile_qr_scan", "ios": "https://dc.lft.to/lastmile_qr_scan"}, "fusion_lon": 0.0}, {"lat": 38.920459, "is_disabled": 0, "type": "electric_scooter", "lon": -77.03290516666667, "bike_id": "c6e32a2367ebdbf897d53c614d91d3c3", "fusion_lat": 0.0, "name": "c6e32a2367ebdbf897d53c614d91d3c3", "is_reserved": 0, "rental_uris": {"android": "https://dc.lft.to/lastmile_qr_scan", "ios": "https://dc.lft.to/lastmile_qr_scan"}, "fusion_lon": 0.0}, {"lat": 38.95210816666667, "is_disabled": 0, "type": "electric_scooter", "lon": -77.020186, "bike_id": "d5ba1c3cdf214058ac07263e3598ba78", "fusion_lat": 0.0, "name": "d5ba1c3cdf214058ac07263e3598ba78", "is_reserved": 0, "rental_uris": {"android": "https://dc.lft.to/lastmile_qr_scan", "ios": "https://dc.lft.to/lastmile_qr_scan"}, "fusion_lon": 0.0}, {"lat": 38.939736833333335, "is_disabled": 0, "type": "electric_scooter", "lon": -77.03587483333334, "bike_id": "9dd85e2f00263ccf043b0412985c6ddc", "fusion_lat": 0.0, "name": "9dd85e2f00263ccf043b0412985c6ddc", "is_reserved": 0, "rental_uris": {"android": "https://dc.lft.to/lastmile_qr_scan", "ios": "https://dc.lft.to/lastmile_qr_scan"}, "fusion_lon": 0.0}, {"lat": 38.887306333333335, "is_disabled": 0, "type": "electric_scooter", "lon": -77.02823016666666, "bike_id": "77ef7ebc445d2cd466ab5a0c892aa887", "fusion_lat": 0.0, "name": "77ef7ebc445d2cd466ab5a0c892aa887", "is_reserved": 0, "rental_uris": {"android": "https://dc.lft.to/lastmile_qr_scan", "ios": "https://dc.lft.to/lastmile_qr_scan"}, "fusion_lon": 0.0}, {"lat": 38.881188, "is_disabled": 0, "type": "electric_bike", "lon": -77.01663966666666, "bike_id": "f8fd9b03c908938195ab4c173d46601f", "fusion_lat": 0.0, "name": "f8fd9b03c908938195ab4c173d46601f", "is_reserved": 0, "rental_uris": {"android": "https://dc.lft.to/lastmile_qr_scan", "ios": "https://dc.lft.to/lastmile_qr_scan"}, "fusion_lon": 0.0}, {"lat": 38.88716516666667, "is_disabled": 0, "type": "electric_scooter", "lon": -77.01378733333334, "bike_id": "219888763024b073990a8adb111d4e6b", "fusion_lat": 0.0, "name": "219888763024b073990a8adb111d4e6b", "is_reserved": 0, "rental_uris": {"android": "https://dc.lft.to/lastmile_qr_scan", "ios": "https://dc.lft.to/lastmile_qr_scan"}, "fusion_lon": 0.0}, {"lat": 38.919207, "is_disabled": 0, "type": "electric_scooter", "lon": -77.00098783333334, "bike_id": "1db53c78f99e0e86edc9cd00366942c5", "fusion_lat": 0.0, "name": "1db53c78f99e0e86edc9cd00366942c5", "is_reserved": 0, "rental_uris": {"android": "https://dc.lft.to/lastmile_qr_scan", "ios": "https://dc.lft.to/lastmile_qr_scan"}, "fusion_lon": 0.0}, {"lat": 38.903087, "is_disabled": 0, "type": "electric_scooter", "lon": -77.02068166666666, "bike_id": "d17cfc430debed3ff94505ae803ffc43", "fusion_lat": 0.0, "name": "d17cfc430debed3ff94505ae803ffc43", "is_reserved": 0, "rental_uris": {"android": "https://dc.lft.to/lastmile_qr_scan", "ios": "https://dc.lft.to/lastmile_qr_scan"}, "fusion_lon": 0.0}, {"lat": 38.92623616666667, "is_disabled": 0, "type": "electric_scooter", "lon": -77.0370665, "bike_id": "dc5488979f9bd098be3a650901f42cfa", "fusion_lat": 0.0, "name": "dc5488979f9bd098be3a650901f42cfa", "is_reserved": 0, "rental_uris": {"android": "https://dc.lft.to/lastmile_qr_scan", "ios": "https://dc.lft.to/lastmile_qr_scan"}, "fusion_lon": 0.0}, {"lat": 38.90503783333333, "is_disabled": 0, "type": "electric_scooter", "lon": -77.06203566666667, "bike_id": "e3324f08d9b8111ff3c7f06ee7908241", "fusion_lat": 0.0, "name": "e3324f08d9b8111ff3c7f06ee7908241", "is_reserved": 0, "rental_uris": {"android": "https://dc.lft.to/lastmile_qr_scan", "ios": "https://dc.lft.to/lastmile_qr_scan"}, "fusion_lon": 0.0}, {"lat": 38.899999, "is_disabled": 0, "type": "electric_bike", "lon": -77.02193016666666, "bike_id": "5362b30cb11055a5cd8cb5acb3397642", "fusion_lat": 0.0, "name": "5362b30cb11055a5cd8cb5acb3397642", "is_reserved": 0, "rental_uris": {"android": "https://dc.lft.to/lastmile_qr_scan", "ios": "https://dc.lft.to/lastmile_qr_scan"}, "fusion_lon": 0.0}, {"lat": 38.900617833333335, "is_disabled": 0, "type": "electric_scooter", "lon": -77.05045016666666, "bike_id": "7439e89a8640e92e9ce36fd042f9361b", "fusion_lat": 0.0, "name": "7439e89a8640e92e9ce36fd042f9361b", "is_reserved": 0, "rental_uris": {"android": "https://dc.lft.to/lastmile_qr_scan", "ios": "https://dc.lft.to/lastmile_qr_scan"}, "fusion_lon": 0.0}, {"lat": 38.9182315, "is_disabled": 0, "type": "electric_scooter", "lon": -77.03442983333333, "bike_id": "07881d1b3f3129fdfece52eba495ba81", "fusion_lat": 0.0, "name": "07881d1b3f3129fdfece52eba495ba81", "is_reserved": 0, "rental_uris": {"android": "https://dc.lft.to/lastmile_qr_scan", "ios": "https://dc.lft.to/lastmile_qr_scan"}, "fusion_lon": 0.0}, {"lat": 38.89731916666667, "is_disabled": 0, "type": "electric_scooter", "lon": -77.04767966666667, "bike_id": "4aa37e76ec19194322762ffad69b47a4", "fusion_lat": 0.0, "name": "4aa37e76ec19194322762ffad69b47a4", "is_reserved": 0, "rental_uris": {"android": "https://dc.lft.to/lastmile_qr_scan", "ios": "https://dc.lft.to/lastmile_qr_scan"}, "fusion_lon": 0.0}, {"lat": 38.899691833333335, "is_disabled": 0, "type": "electric_scooter", "lon": -77.05703583333333, "bike_id": "8e41677a5a23ca88009b8c0b1dec62e2", "fusion_lat": 0.0, "name": "8e41677a5a23ca88009b8c0b1dec62e2", "is_reserved": 0, "rental_uris": {"android": "https://dc.lft.to/lastmile_qr_scan", "ios": "https://dc.lft.to/lastmile_qr_scan"}, "fusion_lon": 0.0}, {"lat": 38.92240783333333, "is_disabled": 0, "type": "electric_scooter", "lon": -77.04572966666667, "bike_id": "15ba5ad2fcaea715e7e46b8da0aca536", "fusion_lat": 0.0, "name": "15ba5ad2fcaea715e7e46b8da0aca536", "is_reserved": 0, "rental_uris": {"android": "https://dc.lft.to/lastmile_qr_scan", "ios": "https://dc.lft.to/lastmile_qr_scan"}, "fusion_lon": 0.0}, {"lat": 38.939885333333336, "is_disabled": 0, "type": "electric_scooter", "lon": -77.0717225, "bike_id": "e68a6fea5999ac1bf3da4c9a909522ba", "fusion_lat": 0.0, "name": "e68a6fea5999ac1bf3da4c9a909522ba", "is_reserved": 0, "rental_uris": {"android": "https://dc.lft.to/lastmile_qr_scan", "ios": "https://dc.lft.to/lastmile_qr_scan"}, "fusion_lon": 0.0}, {"lat": 38.91415633333333, "is_disabled": 0, "type": "electric_scooter", "lon": -77.03172316666667, "bike_id": "41bafd2e7bb224c179146512b97d6c9e", "fusion_lat": 0.0, "name": "41bafd2e7bb224c179146512b97d6c9e", "is_reserved": 0, "rental_uris": {"android": "https://dc.lft.to/lastmile_qr_scan", "ios": "https://dc.lft.to/lastmile_qr_scan"}, "fusion_lon": 0.0}, {"lat": 38.89742066666667, "is_disabled": 0, "type": "electric_scooter", "lon": -77.02971116666667, "bike_id": "ada561b8731e8d0bfde992d6b8f73490", "fusion_lat": 0.0, "name": "ada561b8731e8d0bfde992d6b8f73490", "is_reserved": 0, "rental_uris": {"android": "https://dc.lft.to/lastmile_qr_scan", "ios": "https://dc.lft.to/lastmile_qr_scan"}, "fusion_lon": 0.0}, {"lat": 38.85055883333333, "is_disabled": 0, "type": "electric_bike", "lon": -76.9731485, "bike_id": "b86f65dd0dcb908ce1e0757f8ddf8bf2", "fusion_lat": 0.0, "name": "b86f65dd0dcb908ce1e0757f8ddf8bf2", "is_reserved": 0, "rental_uris": {"android": "https://dc.lft.to/lastmile_qr_scan", "ios": "https://dc.lft.to/lastmile_qr_scan"}, "fusion_lon": 0.0}, {"lat": 38.89884283333333, "is_disabled": 0, "type": "electric_scooter", "lon": -76.93177666666666, "bike_id": "21fe7bf3df58625ad5e81ac64bd3aa0f", "fusion_lat": 0.0, "name": "21fe7bf3df58625ad5e81ac64bd3aa0f", "is_reserved": 0, "rental_uris": {"android": "https://dc.lft.to/lastmile_qr_scan", "ios": "https://dc.lft.to/lastmile_qr_scan"}, "fusion_lon": 0.0}, {"lat": 38.876764, "is_disabled": 0, "type": "electric_scooter", "lon": -77.01790233333334, "bike_id": "4d865b6c9f988495114a1ad76e0f6e82", "fusion_lat": 0.0, "name": "4d865b6c9f988495114a1ad76e0f6e82", "is_reserved": 0, "rental_uris": {"android": "https://dc.lft.to/lastmile_qr_scan", "ios": "https://dc.lft.to/lastmile_qr_scan"}, "fusion_lon": 0.0}, {"lat": 38.922191833333336, "is_disabled": 0, "type": "electric_scooter", "lon": -77.03776733333333, "bike_id": "7f3126725f669cf6a06ad43dab42f36d", "fusion_lat": 0.0, "name": "7f3126725f669cf6a06ad43dab42f36d", "is_reserved": 0, "rental_uris": {"android": "https://dc.lft.to/lastmile_qr_scan", "ios": "https://dc.lft.to/lastmile_qr_scan"}, "fusion_lon": 0.0}, {"lat": 38.91711, "is_disabled": 0, "type": "electric_scooter", "lon": -77.04586733333333, "bike_id": "4531881bdf3e173312d140b76677b9fe", "fusion_lat": 0.0, "name": "4531881bdf3e173312d140b76677b9fe", "is_reserved": 0, "rental_uris": {"android": "https://dc.lft.to/lastmile_qr_scan", "ios": "https://dc.lft.to/lastmile_qr_scan"}, "fusion_lon": 0.0}, {"lat": 38.93264766666667, "is_disabled": 0, "type": "electric_scooter", "lon": -77.03261733333333, "bike_id": "fea91d89b21d1f6ee2240ea644668ba8", "fusion_lat": 0.0, "name": "fea91d89b21d1f6ee2240ea644668ba8", "is_reserved": 0, "rental_uris": {"android": "https://dc.lft.to/lastmile_qr_scan", "ios": "https://dc.lft.to/lastmile_qr_scan"}, "fusion_lon": 0.0}, {"lat": 38.915615333333335, "is_disabled": 0, "type": "electric_scooter", "lon": -77.03156783333333, "bike_id": "25c2a0be0cc74b68b5f0223b6ad9b20d", "fusion_lat": 0.0, "name": "25c2a0be0cc74b68b5f0223b6ad9b20d", "is_reserved": 0, "rental_uris": {"android": "https://dc.lft.to/lastmile_qr_scan", "ios": "https://dc.lft.to/lastmile_qr_scan"}, "fusion_lon": 0.0}, {"lat": 38.911023666666665, "is_disabled": 0, "type": "electric_scooter", "lon": -77.03084166666666, "bike_id": "0c81d2fe6a22372c7abfa0e0084786fc", "fusion_lat": 0.0, "name": "0c81d2fe6a22372c7abfa0e0084786fc", "is_reserved": 0, "rental_uris": {"android": "https://dc.lft.to/lastmile_qr_scan", "ios": "https://dc.lft.to/lastmile_qr_scan"}, "fusion_lon": 0.0}, {"lat": 38.867147333333335, "is_disabled": 0, "type": "electric_scooter", "lon": -77.01013983333333, "bike_id": "57d8e03f78349ff523d4fa0758544dc3", "fusion_lat": 0.0, "name": "57d8e03f78349ff523d4fa0758544dc3", "is_reserved": 0, "rental_uris": {"android": "https://dc.lft.to/lastmile_qr_scan", "ios": "https://dc.lft.to/lastmile_qr_scan"}, "fusion_lon": 0.0}, {"lat": 38.91691466666666, "is_disabled": 0, "type": "electric_scooter", "lon": -77.0230025, "bike_id": "cf32f6105151e342ef3d6fb8b958b55c", "fusion_lat": 0.0, "name": "cf32f6105151e342ef3d6fb8b958b55c", "is_reserved": 0, "rental_uris": {"android": "https://dc.lft.to/lastmile_qr_scan", "ios": "https://dc.lft.to/lastmile_qr_scan"}, "fusion_lon": 0.0}, {"lat": 38.857881, "is_disabled": 0, "type": "electric_bike", "lon": -77.09963733333333, "bike_id": "8ce1cfbb275706712541557ba32c0dc2", "fusion_lat": 0.0, "name": "8ce1cfbb275706712541557ba32c0dc2", "is_reserved": 0, "rental_uris": {"android": "https://dc.lft.to/lastmile_qr_scan", "ios": "https://dc.lft.to/lastmile_qr_scan"}, "fusion_lon": 0.0}, {"lat": 38.961508333333335, "is_disabled": 0, "type": "electric_scooter", "lon": -77.02791633333334, "bike_id": "dcb9c148a0e80683f1cbe0d945321746", "fusion_lat": 0.0, "name": "dcb9c148a0e80683f1cbe0d945321746", "is_reserved": 0, "rental_uris": {"android": "https://dc.lft.to/lastmile_qr_scan", "ios": "https://dc.lft.to/lastmile_qr_scan"}, "fusion_lon": 0.0}, {"lat": 38.8863845, "is_disabled": 0, "type": "electric_bike", "lon": -76.95474183333333, "bike_id": "040ad17f7fecd86c184aacc03933980a", "fusion_lat": 0.0, "name": "040ad17f7fecd86c184aacc03933980a", "is_reserved": 0, "rental_uris": {"android": "https://dc.lft.to/lastmile_qr_scan", "ios": "https://dc.lft.to/lastmile_qr_scan"}, "fusion_lon": 0.0}, {"lat": 38.901946833333334, "is_disabled": 0, "type": "electric_scooter", "lon": -77.02394683333333, "bike_id": "c75d0f33bcb42a7f2a42b3a7aebbeef4", "fusion_lat": 0.0, "name": "c75d0f33bcb42a7f2a42b3a7aebbeef4", "is_reserved": 0, "rental_uris": {"android": "https://dc.lft.to/lastmile_qr_scan", "ios": "https://dc.lft.to/lastmile_qr_scan"}, "fusion_lon": 0.0}, {"lat": 38.9180635, "is_disabled": 0, "type": "electric_scooter", "lon": -77.02688766666667, "bike_id": "c969da60a035ceb3348041e291c1e7a5", "fusion_lat": 0.0, "name": "c969da60a035ceb3348041e291c1e7a5", "is_reserved": 0, "rental_uris": {"android": "https://dc.lft.to/lastmile_qr_scan", "ios": "https://dc.lft.to/lastmile_qr_scan"}, "fusion_lon": 0.0}, {"lat": 38.927533333333336, "is_disabled": 0, "type": "electric_scooter", "lon": -77.03215783333333, "bike_id": "c1acceea7282cbc2bdb5059c4d6aa20e", "fusion_lat": 0.0, "name": "c1acceea7282cbc2bdb5059c4d6aa20e", "is_reserved": 0, "rental_uris": {"android": "https://dc.lft.to/lastmile_qr_scan", "ios": "https://dc.lft.to/lastmile_qr_scan"}, "fusion_lon": 0.0}, {"lat": 38.885772333333335, "is_disabled": 0, "type": "electric_scooter", "lon": -76.91912283333333, "bike_id": "f346bc9b7e6dfb4799b5081b22e1e944", "fusion_lat": 0.0, "name": "f346bc9b7e6dfb4799b5081b22e1e944", "is_reserved": 0, "rental_uris": {"android": "https://dc.lft.to/lastmile_qr_scan", "ios": "https://dc.lft.to/lastmile_qr_scan"}, "fusion_lon": 0.0}, {"lat": 39.05635933333333, "is_disabled": 0, "type": "electric_bike", "lon": -77.12527833333333, "bike_id": "b9164341215050851829f28ec1e7a8e0", "fusion_lat": 0.0, "name": "b9164341215050851829f28ec1e7a8e0", "is_reserved": 0, "rental_uris": {"android": "https://dc.lft.to/lastmile_qr_scan", "ios": "https://dc.lft.to/lastmile_qr_scan"}, "fusion_lon": 0.0}, {"lat": 38.904896, "is_disabled": 0, "type": "electric_scooter", "lon": -77.05058266666667, "bike_id": "7035e1f777391bb50928a1226b8b088b", "fusion_lat": 0.0, "name": "7035e1f777391bb50928a1226b8b088b", "is_reserved": 0, "rental_uris": {"android": "https://dc.lft.to/lastmile_qr_scan", "ios": "https://dc.lft.to/lastmile_qr_scan"}, "fusion_lon": 0.0}, {"lat": 38.8981625, "is_disabled": 0, "type": "electric_scooter", "lon": -76.9969045, "bike_id": "7f608991ef6a085f70c373c9655cfdf3", "fusion_lat": 0.0, "name": "7f608991ef6a085f70c373c9655cfdf3", "is_reserved": 0, "rental_uris": {"android": "https://dc.lft.to/lastmile_qr_scan", "ios": "https://dc.lft.to/lastmile_qr_scan"}, "fusion_lon": 0.0}, {"lat": 38.911729, "is_disabled": 0, "type": "electric_scooter", "lon": -77.06090316666666, "bike_id": "1c246a1e457bac290ae5326048ba1b1d", "fusion_lat": 0.0, "name": "1c246a1e457bac290ae5326048ba1b1d", "is_reserved": 0, "rental_uris": {"android": "https://dc.lft.to/lastmile_qr_scan", "ios": "https://dc.lft.to/lastmile_qr_scan"}, "fusion_lon": 0.0}, {"lat": 38.9247465, "is_disabled": 0, "type": "electric_scooter", "lon": -77.02841866666667, "bike_id": "986fa253f091a32d5e1be157289bb6e1", "fusion_lat": 0.0, "name": "986fa253f091a32d5e1be157289bb6e1", "is_reserved": 0, "rental_uris": {"android": "https://dc.lft.to/lastmile_qr_scan", "ios": "https://dc.lft.to/lastmile_qr_scan"}, "fusion_lon": 0.0}, {"lat": 38.93657566666667, "is_disabled": 0, "type": "electric_bike", "lon": -76.95217116666667, "bike_id": "4760c805777428b5c8a6e11c6f421f20", "fusion_lat": 0.0, "name": "4760c805777428b5c8a6e11c6f421f20", "is_reserved": 0, "rental_uris": {"android": "https://dc.lft.to/lastmile_qr_scan", "ios": "https://dc.lft.to/lastmile_qr_scan"}, "fusion_lon": 0.0}, {"lat": 38.934721, "is_disabled": 0, "type": "electric_scooter", "lon": -77.03604916666667, "bike_id": "1e0887800bed785694bd1f5bf1a5f90b", "fusion_lat": 0.0, "name": "1e0887800bed785694bd1f5bf1a5f90b", "is_reserved": 0, "rental_uris": {"android": "https://dc.lft.to/lastmile_qr_scan", "ios": "https://dc.lft.to/lastmile_qr_scan"}, "fusion_lon": 0.0}, {"lat": 38.91974833333333, "is_disabled": 0, "type": "electric_scooter", "lon": -77.02380816666667, "bike_id": "a89a476807993808fabf6e39010218c9", "fusion_lat": 0.0, "name": "a89a476807993808fabf6e39010218c9", "is_reserved": 0, "rental_uris": {"android": "https://dc.lft.to/lastmile_qr_scan", "ios": "https://dc.lft.to/lastmile_qr_scan"}, "fusion_lon": 0.0}, {"lat": 38.906477, "is_disabled": 0, "type": "electric_scooter", "lon": -77.03447516666667, "bike_id": "bf4185af0aae275a3008511da28c90d9", "fusion_lat": 0.0, "name": "bf4185af0aae275a3008511da28c90d9", "is_reserved": 0, "rental_uris": {"android": "https://dc.lft.to/lastmile_qr_scan", "ios": "https://dc.lft.to/lastmile_qr_scan"}, "fusion_lon": 0.0}, {"lat": 39.0342485, "is_disabled": 0, "type": "electric_bike", "lon": -77.04315416666667, "bike_id": "5fdfbe512ab4c98839733a657013a0f3", "fusion_lat": 0.0, "name": "5fdfbe512ab4c98839733a657013a0f3", "is_reserved": 0, "rental_uris": {"android": "https://dc.lft.to/lastmile_qr_scan", "ios": "https://dc.lft.to/lastmile_qr_scan"}, "fusion_lon": 0.0}, {"lat": 38.909593, "is_disabled": 0, "type": "electric_scooter", "lon": -77.0402805, "bike_id": "c130253e1df70b7fb4d687eeab351001", "fusion_lat": 0.0, "name": "c130253e1df70b7fb4d687eeab351001", "is_reserved": 0, "rental_uris": {"android": "https://dc.lft.to/lastmile_qr_scan", "ios": "https://dc.lft.to/lastmile_qr_scan"}, "fusion_lon": 0.0}, {"lat": 38.887373833333335, "is_disabled": 0, "type": "electric_scooter", "lon": -77.02832333333333, "bike_id": "d898ff63fdc74ee47cca3860e9e34664", "fusion_lat": 0.0, "name": "d898ff63fdc74ee47cca3860e9e34664", "is_reserved": 0, "rental_uris": {"android": "https://dc.lft.to/lastmile_qr_scan", "ios": "https://dc.lft.to/lastmile_qr_scan"}, "fusion_lon": 0.0}, {"lat": 38.927945, "is_disabled": 0, "type": "electric_scooter", "lon": -77.02603016666667, "bike_id": "b70b80efc6d388a4d2a96e59a12e7ea4", "fusion_lat": 0.0, "name": "b70b80efc6d388a4d2a96e59a12e7ea4", "is_reserved": 0, "rental_uris": {"android": "https://dc.lft.to/lastmile_qr_scan", "ios": "https://dc.lft.to/lastmile_qr_scan"}, "fusion_lon": 0.0}, {"lat": 38.915432333333335, "is_disabled": 0, "type": "electric_scooter", "lon": -77.02203216666666, "bike_id": "b4873a705eaf3d26648fddf1060a79da", "fusion_lat": 0.0, "name": "b4873a705eaf3d26648fddf1060a79da", "is_reserved": 0, "rental_uris": {"android": "https://dc.lft.to/lastmile_qr_scan", "ios": "https://dc.lft.to/lastmile_qr_scan"}, "fusion_lon": 0.0}, {"lat": 38.88119716666667, "is_disabled": 0, "type": "electric_scooter", "lon": -77.00102516666666, "bike_id": "184c33da5fd9cc17b15247706d31e806", "fusion_lat": 0.0, "name": "184c33da5fd9cc17b15247706d31e806", "is_reserved": 0, "rental_uris": {"android": "https://dc.lft.to/lastmile_qr_scan", "ios": "https://dc.lft.to/lastmile_qr_scan"}, "fusion_lon": 0.0}, {"lat": 38.92437116666667, "is_disabled": 0, "type": "electric_scooter", "lon": -77.0340525, "bike_id": "c31ebbd11c7400ce01ee1e73f1c0ff1a", "fusion_lat": 0.0, "name": "c31ebbd11c7400ce01ee1e73f1c0ff1a", "is_reserved": 0, "rental_uris": {"android": "https://dc.lft.to/lastmile_qr_scan", "ios": "https://dc.lft.to/lastmile_qr_scan"}, "fusion_lon": 0.0}, {"lat": 38.973274, "is_disabled": 0, "type": "electric_bike", "lon": -77.02151133333334, "bike_id": "1953f0331dd7920fd4df9dfbfe9fa9e8", "fusion_lat": 0.0, "name": "1953f0331dd7920fd4df9dfbfe9fa9e8", "is_reserved": 0, "rental_uris": {"android": "https://dc.lft.to/lastmile_qr_scan", "ios": "https://dc.lft.to/lastmile_qr_scan"}, "fusion_lon": 0.0}, {"lat": 38.8851335, "is_disabled": 0, "type": "electric_scooter", "lon": -77.00570583333334, "bike_id": "a3cd3ebd75da022b3eb644b2e98c8acb", "fusion_lat": 0.0, "name": "a3cd3ebd75da022b3eb644b2e98c8acb", "is_reserved": 0, "rental_uris": {"android": "https://dc.lft.to/lastmile_qr_scan", "ios": "https://dc.lft.to/lastmile_qr_scan"}, "fusion_lon": 0.0}, {"lat": 38.9003295, "is_disabled": 0, "type": "electric_scooter", "lon": -76.99621566666667, "bike_id": "0c8807016d39b15f168ff1cfc1603330", "fusion_lat": 0.0, "name": "0c8807016d39b15f168ff1cfc1603330", "is_reserved": 0, "rental_uris": {"android": "https://dc.lft.to/lastmile_qr_scan", "ios": "https://dc.lft.to/lastmile_qr_scan"}, "fusion_lon": 0.0}, {"lat": 38.89773516666666, "is_disabled": 0, "type": "electric_scooter", "lon": -77.03206633333333, "bike_id": "62c35d773abb71e086254a057f9d7232", "fusion_lat": 0.0, "name": "62c35d773abb71e086254a057f9d7232", "is_reserved": 0, "rental_uris": {"android": "https://dc.lft.to/lastmile_qr_scan", "ios": "https://dc.lft.to/lastmile_qr_scan"}, "fusion_lon": 0.0}, {"lat": 38.902703, "is_disabled": 0, "type": "electric_scooter", "lon": -77.0337025, "bike_id": "adcf97c014100dcf05868359e75a848e", "fusion_lat": 0.0, "name": "adcf97c014100dcf05868359e75a848e", "is_reserved": 0, "rental_uris": {"android": "https://dc.lft.to/lastmile_qr_scan", "ios": "https://dc.lft.to/lastmile_qr_scan"}, "fusion_lon": 0.0}, {"lat": 38.90582916666666, "is_disabled": 0, "type": "electric_scooter", "lon": -77.04868, "bike_id": "e6da220ca950bb6eba91a94f84dd4c9d", "fusion_lat": 0.0, "name": "e6da220ca950bb6eba91a94f84dd4c9d", "is_reserved": 0, "rental_uris": {"android": "https://dc.lft.to/lastmile_qr_scan", "ios": "https://dc.lft.to/lastmile_qr_scan"}, "fusion_lon": 0.0}, {"lat": 38.84425483333333, "is_disabled": 0, "type": "electric_scooter", "lon": -76.99777783333333, "bike_id": "21d1931d6d74502f6ade096b6eb80dc4", "fusion_lat": 0.0, "name": "21d1931d6d74502f6ade096b6eb80dc4", "is_reserved": 0, "rental_uris": {"android": "https://dc.lft.to/lastmile_qr_scan", "ios": "https://dc.lft.to/lastmile_qr_scan"}, "fusion_lon": 0.0}, {"lat": 38.91108366666667, "is_disabled": 0, "type": "electric_scooter", "lon": -77.04500983333334, "bike_id": "c2dce040b55b66e3a1fc689724a90120", "fusion_lat": 0.0, "name": "c2dce040b55b66e3a1fc689724a90120", "is_reserved": 0, "rental_uris": {"android": "https://dc.lft.to/lastmile_qr_scan", "ios": "https://dc.lft.to/lastmile_qr_scan"}, "fusion_lon": 0.0}, {"lat": 38.91181616666667, "is_disabled": 0, "type": "electric_scooter", "lon": -77.03832866666667, "bike_id": "2ea01a77ebbf7f2ec2da2718cc50d5b3", "fusion_lat": 0.0, "name": "2ea01a77ebbf7f2ec2da2718cc50d5b3", "is_reserved": 0, "rental_uris": {"android": "https://dc.lft.to/lastmile_qr_scan", "ios": "https://dc.lft.to/lastmile_qr_scan"}, "fusion_lon": 0.0}, {"lat": 38.87630633333333, "is_disabled": 0, "type": "electric_scooter", "lon": -77.00738316666667, "bike_id": "31a26898c0487d7e75c117fd9ec60af3", "fusion_lat": 0.0, "name": "31a26898c0487d7e75c117fd9ec60af3", "is_reserved": 0, "rental_uris": {"android": "https://dc.lft.to/lastmile_qr_scan", "ios": "https://dc.lft.to/lastmile_qr_scan"}, "fusion_lon": 0.0}, {"lat": 38.914952166666666, "is_disabled": 0, "type": "electric_scooter", "lon": -77.01860333333333, "bike_id": "de3e4f1c5a45adff2842ee87d7e99d32", "fusion_lat": 0.0, "name": "de3e4f1c5a45adff2842ee87d7e99d32", "is_reserved": 0, "rental_uris": {"android": "https://dc.lft.to/lastmile_qr_scan", "ios": "https://dc.lft.to/lastmile_qr_scan"}, "fusion_lon": 0.0}, {"lat": 38.868903833333334, "is_disabled": 0, "type": "electric_scooter", "lon": -76.9831005, "bike_id": "19e35a644c32692355713fbea0b71859", "fusion_lat": 0.0, "name": "19e35a644c32692355713fbea0b71859", "is_reserved": 0, "rental_uris": {"android": "https://dc.lft.to/lastmile_qr_scan", "ios": "https://dc.lft.to/lastmile_qr_scan"}, "fusion_lon": 0.0}, {"lat": 38.91247233333333, "is_disabled": 0, "type": "electric_scooter", "lon": -77.02716533333333, "bike_id": "9822620833de60d439d7f516f02abe37", "fusion_lat": 0.0, "name": "9822620833de60d439d7f516f02abe37", "is_reserved": 0, "rental_uris": {"android": "https://dc.lft.to/lastmile_qr_scan", "ios": "https://dc.lft.to/lastmile_qr_scan"}, "fusion_lon": 0.0}, {"lat": 38.87342233333333, "is_disabled": 0, "type": "electric_scooter", "lon": -76.99166583333333, "bike_id": "8c6859fd3893b847cc25a118ec0c7758", "fusion_lat": 0.0, "name": "8c6859fd3893b847cc25a118ec0c7758", "is_reserved": 0, "rental_uris": {"android": "https://dc.lft.to/lastmile_qr_scan", "ios": "https://dc.lft.to/lastmile_qr_scan"}, "fusion_lon": 0.0}, {"lat": 38.938892833333334, "is_disabled": 0, "type": "electric_scooter", "lon": -77.02821316666666, "bike_id": "e720a8bff50edd055edae46943cdcfa7", "fusion_lat": 0.0, "name": "e720a8bff50edd055edae46943cdcfa7", "is_reserved": 0, "rental_uris": {"android": "https://dc.lft.to/lastmile_qr_scan", "ios": "https://dc.lft.to/lastmile_qr_scan"}, "fusion_lon": 0.0}, {"lat": 38.902234166666666, "is_disabled": 0, "type": "electric_scooter", "lon": -77.0194085, "bike_id": "a6e90daa52071bcaa1724557ec02b4aa", "fusion_lat": 0.0, "name": "a6e90daa52071bcaa1724557ec02b4aa", "is_reserved": 0, "rental_uris": {"android": "https://dc.lft.to/lastmile_qr_scan", "ios": "https://dc.lft.to/lastmile_qr_scan"}, "fusion_lon": 0.0}, {"lat": 38.94438233333333, "is_disabled": 0, "type": "electric_scooter", "lon": -77.06349666666667, "bike_id": "9cd967484687d8e890cbe4d7f27e1e7f", "fusion_lat": 0.0, "name": "9cd967484687d8e890cbe4d7f27e1e7f", "is_reserved": 0, "rental_uris": {"android": "https://dc.lft.to/lastmile_qr_scan", "ios": "https://dc.lft.to/lastmile_qr_scan"}, "fusion_lon": 0.0}, {"lat": 38.904912333333336, "is_disabled": 0, "type": "electric_scooter", "lon": -77.0199225, "bike_id": "626cdfb36cae1f97bdbd57babfbb1a01", "fusion_lat": 0.0, "name": "626cdfb36cae1f97bdbd57babfbb1a01", "is_reserved": 0, "rental_uris": {"android": "https://dc.lft.to/lastmile_qr_scan", "ios": "https://dc.lft.to/lastmile_qr_scan"}, "fusion_lon": 0.0}, {"lat": 38.90916516666667, "is_disabled": 0, "type": "electric_scooter", "lon": -77.03642966666666, "bike_id": "80691b313c4c4e7efea5c570e512580d", "fusion_lat": 0.0, "name": "80691b313c4c4e7efea5c570e512580d", "is_reserved": 0, "rental_uris": {"android": "https://dc.lft.to/lastmile_qr_scan", "ios": "https://dc.lft.to/lastmile_qr_scan"}, "fusion_lon": 0.0}, {"lat": 38.88385666666667, "is_disabled": 0, "type": "electric_scooter", "lon": -77.0189385, "bike_id": "e487a76ebcb63a335ee892c042e95a9e", "fusion_lat": 0.0, "name": "e487a76ebcb63a335ee892c042e95a9e", "is_reserved": 0, "rental_uris": {"android": "https://dc.lft.to/lastmile_qr_scan", "ios": "https://dc.lft.to/lastmile_qr_scan"}, "fusion_lon": 0.0}, {"lat": 38.904942, "is_disabled": 0, "type": "electric_scooter", "lon": -76.98710133333333, "bike_id": "e4dcfec1e94978fb443c29ca3811c24e", "fusion_lat": 0.0, "name": "e4dcfec1e94978fb443c29ca3811c24e", "is_reserved": 0, "rental_uris": {"android": "https://dc.lft.to/lastmile_qr_scan", "ios": "https://dc.lft.to/lastmile_qr_scan"}, "fusion_lon": 0.0}, {"lat": 38.91164283333333, "is_disabled": 0, "type": "electric_scooter", "lon": -77.04141633333333, "bike_id": "e6c0e078b71fca1d8440f7b1df19744a", "fusion_lat": 0.0, "name": "e6c0e078b71fca1d8440f7b1df19744a", "is_reserved": 0, "rental_uris": {"android": "https://dc.lft.to/lastmile_qr_scan", "ios": "https://dc.lft.to/lastmile_qr_scan"}, "fusion_lon": 0.0}, {"lat": 38.912322, "is_disabled": 0, "type": "electric_scooter", "lon": -77.00198733333333, "bike_id": "0fffbaca7e57fd14443f49911a273da3", "fusion_lat": 0.0, "name": "0fffbaca7e57fd14443f49911a273da3", "is_reserved": 0, "rental_uris": {"android": "https://dc.lft.to/lastmile_qr_scan", "ios": "https://dc.lft.to/lastmile_qr_scan"}, "fusion_lon": 0.0}, {"lat": 38.90559066666667, "is_disabled": 0, "type": "electric_scooter", "lon": -77.04041366666667, "bike_id": "812f8f539ebac88d82efdd473ad77770", "fusion_lat": 0.0, "name": "812f8f539ebac88d82efdd473ad77770", "is_reserved": 0, "rental_uris": {"android": "https://dc.lft.to/lastmile_qr_scan", "ios": "https://dc.lft.to/lastmile_qr_scan"}, "fusion_lon": 0.0}, {"lat": 38.916734166666664, "is_disabled": 0, "type": "electric_scooter", "lon": -77.02966233333333, "bike_id": "bae51ef30e12896e36e95d962de40ac6", "fusion_lat": 0.0, "name": "bae51ef30e12896e36e95d962de40ac6", "is_reserved": 0, "rental_uris": {"android": "https://dc.lft.to/lastmile_qr_scan", "ios": "https://dc.lft.to/lastmile_qr_scan"}, "fusion_lon": 0.0}, {"lat": 39.08854633333333, "is_disabled": 0, "type": "electric_bike", "lon": -77.17838816666666, "bike_id": "0de84916cc8a8a68e1ea1c1ac2c7160a", "fusion_lat": 0.0, "name": "0de84916cc8a8a68e1ea1c1ac2c7160a", "is_reserved": 0, "rental_uris": {"android": "https://dc.lft.to/lastmile_qr_scan", "ios": "https://dc.lft.to/lastmile_qr_scan"}, "fusion_lon": 0.0}, {"lat": 38.905139, "is_disabled": 0, "type": "electric_scooter", "lon": -77.04333683333333, "bike_id": "71010de33e6662f09c554b15cb3e7d82", "fusion_lat": 0.0, "name": "71010de33e6662f09c554b15cb3e7d82", "is_reserved": 0, "rental_uris": {"android": "https://dc.lft.to/lastmile_qr_scan", "ios": "https://dc.lft.to/lastmile_qr_scan"}, "fusion_lon": 0.0}, {"lat": 38.91634966666667, "is_disabled": 0, "type": "electric_scooter", "lon": -77.0461645, "bike_id": "475dc1a28c5d21cef6898dd0f896a398", "fusion_lat": 0.0, "name": "475dc1a28c5d21cef6898dd0f896a398", "is_reserved": 0, "rental_uris": {"android": "https://dc.lft.to/lastmile_qr_scan", "ios": "https://dc.lft.to/lastmile_qr_scan"}, "fusion_lon": 0.0}, {"lat": 38.95926166666667, "is_disabled": 0, "type": "electric_bike", "lon": -77.031162, "bike_id": "aa1e4d34703092f5edc6b31c4d49dcea", "fusion_lat": 0.0, "name": "aa1e4d34703092f5edc6b31c4d49dcea", "is_reserved": 0, "rental_uris": {"android": "https://dc.lft.to/lastmile_qr_scan", "ios": "https://dc.lft.to/lastmile_qr_scan"}, "fusion_lon": 0.0}, {"lat": 38.89961666666667, "is_disabled": 0, "type": "electric_bike", "lon": -77.05501266666667, "bike_id": "ceccf6c250bb6c50546c9eb455ebadd3", "fusion_lat": 0.0, "name": "ceccf6c250bb6c50546c9eb455ebadd3", "is_reserved": 0, "rental_uris": {"android": "https://dc.lft.to/lastmile_qr_scan", "ios": "https://dc.lft.to/lastmile_qr_scan"}, "fusion_lon": 0.0}, {"lat": 38.924769833333336, "is_disabled": 0, "type": "electric_bike", "lon": -77.030445, "bike_id": "60527efc073282089b9ef4027d2c046f", "fusion_lat": 0.0, "name": "60527efc073282089b9ef4027d2c046f", "is_reserved": 0, "rental_uris": {"android": "https://dc.lft.to/lastmile_qr_scan", "ios": "https://dc.lft.to/lastmile_qr_scan"}, "fusion_lon": 0.0}, {"lat": 38.8956805, "is_disabled": 0, "type": "electric_scooter", "lon": -77.029188, "bike_id": "b43c4e98be9f8bafffe8b3f52e09472e", "fusion_lat": 0.0, "name": "b43c4e98be9f8bafffe8b3f52e09472e", "is_reserved": 0, "rental_uris": {"android": "https://dc.lft.to/lastmile_qr_scan", "ios": "https://dc.lft.to/lastmile_qr_scan"}, "fusion_lon": 0.0}, {"lat": 38.876379666666665, "is_disabled": 0, "type": "electric_scooter", "lon": -76.993203, "bike_id": "458841a17435ca4905e10c3bfc0ff012", "fusion_lat": 0.0, "name": "458841a17435ca4905e10c3bfc0ff012", "is_reserved": 0, "rental_uris": {"android": "https://dc.lft.to/lastmile_qr_scan", "ios": "https://dc.lft.to/lastmile_qr_scan"}, "fusion_lon": 0.0}, {"lat": 38.9836495, "is_disabled": 0, "type": "electric_scooter", "lon": -77.026454, "bike_id": "978e60c38fcc4589ca35fd00adf3d5c5", "fusion_lat": 0.0, "name": "978e60c38fcc4589ca35fd00adf3d5c5", "is_reserved": 0, "rental_uris": {"android": "https://dc.lft.to/lastmile_qr_scan", "ios": "https://dc.lft.to/lastmile_qr_scan"}, "fusion_lon": 0.0}, {"lat": 38.917767, "is_disabled": 0, "type": "electric_scooter", "lon": -77.02885566666667, "bike_id": "48c3e9fd155d3c2d8aede3a00f6c2fa7", "fusion_lat": 0.0, "name": "48c3e9fd155d3c2d8aede3a00f6c2fa7", "is_reserved": 0, "rental_uris": {"android": "https://dc.lft.to/lastmile_qr_scan", "ios": "https://dc.lft.to/lastmile_qr_scan"}, "fusion_lon": 0.0}, {"lat": 38.92852383333334, "is_disabled": 0, "type": "electric_bike", "lon": -77.222204, "bike_id": "5ddb314a9fd8c6ad6e69bc735ed4f1a7", "fusion_lat": 0.0, "name": "5ddb314a9fd8c6ad6e69bc735ed4f1a7", "is_reserved": 0, "rental_uris": {"android": "https://dc.lft.to/lastmile_qr_scan", "ios": "https://dc.lft.to/lastmile_qr_scan"}, "fusion_lon": 0.0}, {"lat": 38.9230175, "is_disabled": 0, "type": "electric_bike", "lon": -77.02353183333334, "bike_id": "d090739da4c933df4984258dddf2ee77", "fusion_lat": 0.0, "name": "d090739da4c933df4984258dddf2ee77", "is_reserved": 0, "rental_uris": {"android": "https://dc.lft.to/lastmile_qr_scan", "ios": "https://dc.lft.to/lastmile_qr_scan"}, "fusion_lon": 0.0}, {"lat": 38.9054945, "is_disabled": 0, "type": "electric_scooter", "lon": -77.02209616666667, "bike_id": "9e101e588812cbcb7782ab8f1b177816", "fusion_lat": 0.0, "name": "9e101e588812cbcb7782ab8f1b177816", "is_reserved": 0, "rental_uris": {"android": "https://dc.lft.to/lastmile_qr_scan", "ios": "https://dc.lft.to/lastmile_qr_scan"}, "fusion_lon": 0.0}, {"lat": 38.8818915, "is_disabled": 0, "type": "electric_scooter", "lon": -76.99505016666667, "bike_id": "3915dbcb481d9179b1f4e2a5a9e9d26c", "fusion_lat": 0.0, "name": "3915dbcb481d9179b1f4e2a5a9e9d26c", "is_reserved": 0, "rental_uris": {"android": "https://dc.lft.to/lastmile_qr_scan", "ios": "https://dc.lft.to/lastmile_qr_scan"}, "fusion_lon": 0.0}, {"lat": 38.92589683333333, "is_disabled": 0, "type": "electric_scooter", "lon": -77.02435266666667, "bike_id": "d7bb0d9b2f2c8d89a4c2cc3d47636e60", "fusion_lat": 0.0, "name": "d7bb0d9b2f2c8d89a4c2cc3d47636e60", "is_reserved": 0, "rental_uris": {"android": "https://dc.lft.to/lastmile_qr_scan", "ios": "https://dc.lft.to/lastmile_qr_scan"}, "fusion_lon": 0.0}, {"lat": 38.88614, "is_disabled": 0, "type": "electric_scooter", "lon": -77.0217145, "bike_id": "0a09d0c7e53068ec9d4da607cf18de11", "fusion_lat": 0.0, "name": "0a09d0c7e53068ec9d4da607cf18de11", "is_reserved": 0, "rental_uris": {"android": "https://dc.lft.to/lastmile_qr_scan", "ios": "https://dc.lft.to/lastmile_qr_scan"}, "fusion_lon": 0.0}, {"lat": 38.9051755, "is_disabled": 0, "type": "electric_scooter", "lon": -77.02617866666667, "bike_id": "c5ce3fc3ded5e0ae29be54d46a1e5090", "fusion_lat": 0.0, "name": "c5ce3fc3ded5e0ae29be54d46a1e5090", "is_reserved": 0, "rental_uris": {"android": "https://dc.lft.to/lastmile_qr_scan", "ios": "https://dc.lft.to/lastmile_qr_scan"}, "fusion_lon": 0.0}, {"lat": 38.89348366666667, "is_disabled": 0, "type": "electric_scooter", "lon": -76.94934566666667, "bike_id": "cb8f861e4dd694e34cdaa6509d7fdb65", "fusion_lat": 0.0, "name": "cb8f861e4dd694e34cdaa6509d7fdb65", "is_reserved": 0, "rental_uris": {"android": "https://dc.lft.to/lastmile_qr_scan", "ios": "https://dc.lft.to/lastmile_qr_scan"}, "fusion_lon": 0.0}, {"lat": 38.90554566666667, "is_disabled": 0, "type": "electric_scooter", "lon": -77.03400916666666, "bike_id": "acb15c725ec65adc0cc0fca54dce7de0", "fusion_lat": 0.0, "name": "acb15c725ec65adc0cc0fca54dce7de0", "is_reserved": 0, "rental_uris": {"android": "https://dc.lft.to/lastmile_qr_scan", "ios": "https://dc.lft.to/lastmile_qr_scan"}, "fusion_lon": 0.0}, {"lat": 38.916888666666665, "is_disabled": 0, "type": "electric_scooter", "lon": -77.03127216666667, "bike_id": "6156a5801c80894a9fcd152c4c77aa28", "fusion_lat": 0.0, "name": "6156a5801c80894a9fcd152c4c77aa28", "is_reserved": 0, "rental_uris": {"android": "https://dc.lft.to/lastmile_qr_scan", "ios": "https://dc.lft.to/lastmile_qr_scan"}, "fusion_lon": 0.0}, {"lat": 38.918218333333336, "is_disabled": 0, "type": "electric_scooter", "lon": -77.03442366666667, "bike_id": "05449b66c1ba64a91c2e9a6c59d86197", "fusion_lat": 0.0, "name": "05449b66c1ba64a91c2e9a6c59d86197", "is_reserved": 0, "rental_uris": {"android": "https://dc.lft.to/lastmile_qr_scan", "ios": "https://dc.lft.to/lastmile_qr_scan"}, "fusion_lon": 0.0}, {"lat": 38.92879833333333, "is_disabled": 0, "type": "electric_scooter", "lon": -77.0323415, "bike_id": "b9879dbe57dc27b66e41e0dedd3f6db5", "fusion_lat": 0.0, "name": "b9879dbe57dc27b66e41e0dedd3f6db5", "is_reserved": 0, "rental_uris": {"android": "https://dc.lft.to/lastmile_qr_scan", "ios": "https://dc.lft.to/lastmile_qr_scan"}, "fusion_lon": 0.0}, {"lat": 38.92423566666667, "is_disabled": 0, "type": "electric_scooter", "lon": -77.05176766666666, "bike_id": "5431927f63d56ab2f3c44c339be6bf1c", "fusion_lat": 0.0, "name": "5431927f63d56ab2f3c44c339be6bf1c", "is_reserved": 0, "rental_uris": {"android": "https://dc.lft.to/lastmile_qr_scan", "ios": "https://dc.lft.to/lastmile_qr_scan"}, "fusion_lon": 0.0}, {"lat": 38.94431466666666, "is_disabled": 0, "type": "electric_scooter", "lon": -76.99206183333334, "bike_id": "846552c4467b5537530c002c1e5d0f82", "fusion_lat": 0.0, "name": "846552c4467b5537530c002c1e5d0f82", "is_reserved": 0, "rental_uris": {"android": "https://dc.lft.to/lastmile_qr_scan", "ios": "https://dc.lft.to/lastmile_qr_scan"}, "fusion_lon": 0.0}, {"lat": 38.90140916666667, "is_disabled": 0, "type": "electric_scooter", "lon": -77.04137883333334, "bike_id": "04a83bfcaf4a80bca4bdde564ec1a3a7", "fusion_lat": 0.0, "name": "04a83bfcaf4a80bca4bdde564ec1a3a7", "is_reserved": 0, "rental_uris": {"android": "https://dc.lft.to/lastmile_qr_scan", "ios": "https://dc.lft.to/lastmile_qr_scan"}, "fusion_lon": 0.0}, {"lat": 38.918093666666664, "is_disabled": 0, "type": "electric_scooter", "lon": -77.02477683333333, "bike_id": "c27559545dc0baafb7ba98be36dd2073", "fusion_lat": 0.0, "name": "c27559545dc0baafb7ba98be36dd2073", "is_reserved": 0, "rental_uris": {"android": "https://dc.lft.to/lastmile_qr_scan", "ios": "https://dc.lft.to/lastmile_qr_scan"}, "fusion_lon": 0.0}, {"lat": 38.957325833333336, "is_disabled": 0, "type": "electric_bike", "lon": -77.02325283333333, "bike_id": "c58b5f80e2e8500295b6a9b2fb8d7278", "fusion_lat": 0.0, "name": "c58b5f80e2e8500295b6a9b2fb8d7278", "is_reserved": 0, "rental_uris": {"android": "https://dc.lft.to/lastmile_qr_scan", "ios": "https://dc.lft.to/lastmile_qr_scan"}, "fusion_lon": 0.0}, {"lat": 38.94437116666667, "is_disabled": 0, "type": "electric_scooter", "lon": -77.02342266666666, "bike_id": "91e9d861f2986529c10588910b6e1998", "fusion_lat": 0.0, "name": "91e9d861f2986529c10588910b6e1998", "is_reserved": 0, "rental_uris": {"android": "https://dc.lft.to/lastmile_qr_scan", "ios": "https://dc.lft.to/lastmile_qr_scan"}, "fusion_lon": 0.0}, {"lat": 38.85734466666667, "is_disabled": 0, "type": "electric_scooter", "lon": -76.99438366666666, "bike_id": "e8171d14061ed603d278241cb0c53c6b", "fusion_lat": 0.0, "name": "e8171d14061ed603d278241cb0c53c6b", "is_reserved": 0, "rental_uris": {"android": "https://dc.lft.to/lastmile_qr_scan", "ios": "https://dc.lft.to/lastmile_qr_scan"}, "fusion_lon": 0.0}, {"lat": 38.909471833333335, "is_disabled": 0, "type": "electric_scooter", "lon": -77.04796466666667, "bike_id": "734e50c62c297fd0d34ae298dc52283b", "fusion_lat": 0.0, "name": "734e50c62c297fd0d34ae298dc52283b", "is_reserved": 0, "rental_uris": {"android": "https://dc.lft.to/lastmile_qr_scan", "ios": "https://dc.lft.to/lastmile_qr_scan"}, "fusion_lon": 0.0}, {"lat": 38.916900166666665, "is_disabled": 0, "type": "electric_scooter", "lon": -77.02914933333334, "bike_id": "49ef52efc3c760de4e36f7890d735930", "fusion_lat": 0.0, "name": "49ef52efc3c760de4e36f7890d735930", "is_reserved": 0, "rental_uris": {"android": "https://dc.lft.to/lastmile_qr_scan", "ios": "https://dc.lft.to/lastmile_qr_scan"}, "fusion_lon": 0.0}, {"lat": 38.90967766666667, "is_disabled": 0, "type": "electric_scooter", "lon": -77.0239605, "bike_id": "f21dcdf207890d0ac4ac80a2d6ef73f3", "fusion_lat": 0.0, "name": "f21dcdf207890d0ac4ac80a2d6ef73f3", "is_reserved": 0, "rental_uris": {"android": "https://dc.lft.to/lastmile_qr_scan", "ios": "https://dc.lft.to/lastmile_qr_scan"}, "fusion_lon": 0.0}, {"lat": 38.90948383333333, "is_disabled": 0, "type": "electric_scooter", "lon": -77.03663283333333, "bike_id": "61ce02eadda3388bc7e868f425566136", "fusion_lat": 0.0, "name": "61ce02eadda3388bc7e868f425566136", "is_reserved": 0, "rental_uris": {"android": "https://dc.lft.to/lastmile_qr_scan", "ios": "https://dc.lft.to/lastmile_qr_scan"}, "fusion_lon": 0.0}, {"lat": 38.896784, "is_disabled": 0, "type": "electric_scooter", "lon": -77.00515866666667, "bike_id": "dc5876e24cd2c8f1d2107aac01e72adb", "fusion_lat": 0.0, "name": "dc5876e24cd2c8f1d2107aac01e72adb", "is_reserved": 0, "rental_uris": {"android": "https://dc.lft.to/lastmile_qr_scan", "ios": "https://dc.lft.to/lastmile_qr_scan"}, "fusion_lon": 0.0}, {"lat": 38.86364316666667, "is_disabled": 0, "type": "electric_scooter", "lon": -76.99050133333333, "bike_id": "76455dde98f0d8007ff7979e4c42af88", "fusion_lat": 0.0, "name": "76455dde98f0d8007ff7979e4c42af88", "is_reserved": 0, "rental_uris": {"android": "https://dc.lft.to/lastmile_qr_scan", "ios": "https://dc.lft.to/lastmile_qr_scan"}, "fusion_lon": 0.0}, {"lat": 38.9518745, "is_disabled": 0, "type": "electric_bike", "lon": -76.93545233333333, "bike_id": "0a8780e2905905676a9a8af66550cd0f", "fusion_lat": 0.0, "name": "0a8780e2905905676a9a8af66550cd0f", "is_reserved": 0, "rental_uris": {"android": "https://dc.lft.to/lastmile_qr_scan", "ios": "https://dc.lft.to/lastmile_qr_scan"}, "fusion_lon": 0.0}, {"lat": 38.907278, "is_disabled": 0, "type": "electric_scooter", "lon": -77.0344575, "bike_id": "b8d9bccf9021285ea72f1b5e4de7e2e7", "fusion_lat": 0.0, "name": "b8d9bccf9021285ea72f1b5e4de7e2e7", "is_reserved": 0, "rental_uris": {"android": "https://dc.lft.to/lastmile_qr_scan", "ios": "https://dc.lft.to/lastmile_qr_scan"}, "fusion_lon": 0.0}, {"lat": 38.87088633333333, "is_disabled": 0, "type": "electric_scooter", "lon": -77.011852, "bike_id": "b7c97f2dd1874999426c154a237b8415", "fusion_lat": 0.0, "name": "b7c97f2dd1874999426c154a237b8415", "is_reserved": 0, "rental_uris": {"android": "https://dc.lft.to/lastmile_qr_scan", "ios": "https://dc.lft.to/lastmile_qr_scan"}, "fusion_lon": 0.0}, {"lat": 38.877327, "is_disabled": 0, "type": "electric_bike", "lon": -77.11844916666666, "bike_id": "fe16d5bce56e5fc42070e1d632ada9e1", "fusion_lat": 0.0, "name": "fe16d5bce56e5fc42070e1d632ada9e1", "is_reserved": 0, "rental_uris": {"android": "https://dc.lft.to/lastmile_qr_scan", "ios": "https://dc.lft.to/lastmile_qr_scan"}, "fusion_lon": 0.0}, {"lat": 38.892226, "is_disabled": 0, "type": "electric_scooter", "lon": -77.021631, "bike_id": "a0017ae1ff6276c5f4987df86ba292f4", "fusion_lat": 0.0, "name": "a0017ae1ff6276c5f4987df86ba292f4", "is_reserved": 0, "rental_uris": {"android": "https://dc.lft.to/lastmile_qr_scan", "ios": "https://dc.lft.to/lastmile_qr_scan"}, "fusion_lon": 0.0}, {"lat": 38.907672, "is_disabled": 0, "type": "electric_scooter", "lon": -77.043451, "bike_id": "db223b3d65e5485ab96d3c2f5ebd69e3", "fusion_lat": 0.0, "name": "db223b3d65e5485ab96d3c2f5ebd69e3", "is_reserved": 0, "rental_uris": {"android": "https://dc.lft.to/lastmile_qr_scan", "ios": "https://dc.lft.to/lastmile_qr_scan"}, "fusion_lon": 0.0}, {"lat": 38.924176833333334, "is_disabled": 0, "type": "electric_scooter", "lon": -77.044496, "bike_id": "2f1d6c1a1e031f78edd038e3f3b103fd", "fusion_lat": 0.0, "name": "2f1d6c1a1e031f78edd038e3f3b103fd", "is_reserved": 0, "rental_uris": {"android": "https://dc.lft.to/lastmile_qr_scan", "ios": "https://dc.lft.to/lastmile_qr_scan"}, "fusion_lon": 0.0}, {"lat": 38.86501616666666, "is_disabled": 0, "type": "electric_scooter", "lon": -76.974379, "bike_id": "ce8dc8afeb79c0950a2424384b44e453", "fusion_lat": 0.0, "name": "ce8dc8afeb79c0950a2424384b44e453", "is_reserved": 0, "rental_uris": {"android": "https://dc.lft.to/lastmile_qr_scan", "ios": "https://dc.lft.to/lastmile_qr_scan"}, "fusion_lon": 0.0}, {"lat": 38.899675, "is_disabled": 0, "type": "electric_scooter", "lon": -77.05174516666666, "bike_id": "1e3cc832c0786826bd6bc8566131844f", "fusion_lat": 0.0, "name": "1e3cc832c0786826bd6bc8566131844f", "is_reserved": 0, "rental_uris": {"android": "https://dc.lft.to/lastmile_qr_scan", "ios": "https://dc.lft.to/lastmile_qr_scan"}, "fusion_lon": 0.0}, {"lat": 38.874756166666664, "is_disabled": 0, "type": "electric_scooter", "lon": -77.01070666666666, "bike_id": "f62a80042a66fb8a10562fe858152c76", "fusion_lat": 0.0, "name": "f62a80042a66fb8a10562fe858152c76", "is_reserved": 0, "rental_uris": {"android": "https://dc.lft.to/lastmile_qr_scan", "ios": "https://dc.lft.to/lastmile_qr_scan"}, "fusion_lon": 0.0}, {"lat": 38.90259016666667, "is_disabled": 0, "type": "electric_scooter", "lon": -77.028269, "bike_id": "d2dc8bbcebf5c60558cc0fc20862e3c2", "fusion_lat": 0.0, "name": "d2dc8bbcebf5c60558cc0fc20862e3c2", "is_reserved": 0, "rental_uris": {"android": "https://dc.lft.to/lastmile_qr_scan", "ios": "https://dc.lft.to/lastmile_qr_scan"}, "fusion_lon": 0.0}, {"lat": 38.899541666666664, "is_disabled": 0, "type": "electric_scooter", "lon": -77.050912, "bike_id": "a0e94a59444e68a424808b23543307eb", "fusion_lat": 0.0, "name": "a0e94a59444e68a424808b23543307eb", "is_reserved": 0, "rental_uris": {"android": "https://dc.lft.to/lastmile_qr_scan", "ios": "https://dc.lft.to/lastmile_qr_scan"}, "fusion_lon": 0.0}, {"lat": 38.900338833333336, "is_disabled": 0, "type": "electric_scooter", "lon": -77.0121525, "bike_id": "d7aac14635707a231faa07f0d2961dee", "fusion_lat": 0.0, "name": "d7aac14635707a231faa07f0d2961dee", "is_reserved": 0, "rental_uris": {"android": "https://dc.lft.to/lastmile_qr_scan", "ios": "https://dc.lft.to/lastmile_qr_scan"}, "fusion_lon": 0.0}, {"lat": 38.8923205, "is_disabled": 0, "type": "electric_scooter", "lon": -77.02645633333333, "bike_id": "dd2bc5dfe6c53a6253decb700c773754", "fusion_lat": 0.0, "name": "dd2bc5dfe6c53a6253decb700c773754", "is_reserved": 0, "rental_uris": {"android": "https://dc.lft.to/lastmile_qr_scan", "ios": "https://dc.lft.to/lastmile_qr_scan"}, "fusion_lon": 0.0}, {"lat": 38.91257916666667, "is_disabled": 0, "type": "electric_scooter", "lon": -77.03860716666667, "bike_id": "96f7251ff0f221f309780f2fa9e30b24", "fusion_lat": 0.0, "name": "96f7251ff0f221f309780f2fa9e30b24", "is_reserved": 0, "rental_uris": {"android": "https://dc.lft.to/lastmile_qr_scan", "ios": "https://dc.lft.to/lastmile_qr_scan"}, "fusion_lon": 0.0}, {"lat": 38.8768165, "is_disabled": 0, "type": "electric_scooter", "lon": -77.0179015, "bike_id": "44c12de0acd34575b5c7bdafa2c6edaa", "fusion_lat": 0.0, "name": "44c12de0acd34575b5c7bdafa2c6edaa", "is_reserved": 0, "rental_uris": {"android": "https://dc.lft.to/lastmile_qr_scan", "ios": "https://dc.lft.to/lastmile_qr_scan"}, "fusion_lon": 0.0}, {"lat": 38.906930833333334, "is_disabled": 0, "type": "electric_scooter", "lon": -76.99962283333333, "bike_id": "9da4771ca0ad94bab7a9026843037edc", "fusion_lat": 0.0, "name": "9da4771ca0ad94bab7a9026843037edc", "is_reserved": 0, "rental_uris": {"android": "https://dc.lft.to/lastmile_qr_scan", "ios": "https://dc.lft.to/lastmile_qr_scan"}, "fusion_lon": 0.0}, {"lat": 38.877280999999996, "is_disabled": 0, "type": "electric_bike", "lon": -76.981071, "bike_id": "4e3e10750fab89e65c0392d6a6e1d9b9", "fusion_lat": 0.0, "name": "4e3e10750fab89e65c0392d6a6e1d9b9", "is_reserved": 0, "rental_uris": {"android": "https://dc.lft.to/lastmile_qr_scan", "ios": "https://dc.lft.to/lastmile_qr_scan"}, "fusion_lon": 0.0}, {"lat": 38.9263295, "is_disabled": 0, "type": "electric_scooter", "lon": -77.037942, "bike_id": "c7f045683478d09136e2f469b7442c54", "fusion_lat": 0.0, "name": "c7f045683478d09136e2f469b7442c54", "is_reserved": 0, "rental_uris": {"android": "https://dc.lft.to/lastmile_qr_scan", "ios": "https://dc.lft.to/lastmile_qr_scan"}, "fusion_lon": 0.0}, {"lat": 38.910528, "is_disabled": 0, "type": "electric_scooter", "lon": -77.015205, "bike_id": "905fd370d9377355e2121d886999f1e9", "fusion_lat": 0.0, "name": "905fd370d9377355e2121d886999f1e9", "is_reserved": 0, "rental_uris": {"android": "https://dc.lft.to/lastmile_qr_scan", "ios": "https://dc.lft.to/lastmile_qr_scan"}, "fusion_lon": 0.0}, {"lat": 38.921964333333335, "is_disabled": 0, "type": "electric_scooter", "lon": -77.04119933333334, "bike_id": "c248abff8d18c91973d9618c69d6d78a", "fusion_lat": 0.0, "name": "c248abff8d18c91973d9618c69d6d78a", "is_reserved": 0, "rental_uris": {"android": "https://dc.lft.to/lastmile_qr_scan", "ios": "https://dc.lft.to/lastmile_qr_scan"}, "fusion_lon": 0.0}, {"lat": 38.954942, "is_disabled": 0, "type": "electric_scooter", "lon": -77.06568533333333, "bike_id": "c1502544f0df88edc6f4180ddedc7f34", "fusion_lat": 0.0, "name": "c1502544f0df88edc6f4180ddedc7f34", "is_reserved": 0, "rental_uris": {"android": "https://dc.lft.to/lastmile_qr_scan", "ios": "https://dc.lft.to/lastmile_qr_scan"}, "fusion_lon": 0.0}, {"lat": 38.91290466666667, "is_disabled": 0, "type": "electric_scooter", "lon": -77.04512766666667, "bike_id": "a19da16d0c4934796df3492eb73ca934", "fusion_lat": 0.0, "name": "a19da16d0c4934796df3492eb73ca934", "is_reserved": 0, "rental_uris": {"android": "https://dc.lft.to/lastmile_qr_scan", "ios": "https://dc.lft.to/lastmile_qr_scan"}, "fusion_lon": 0.0}, {"lat": 38.9097475, "is_disabled": 0, "type": "electric_scooter", "lon": -77.03302766666667, "bike_id": "14807ac64ce894fe0e42ce0b2a5210a1", "fusion_lat": 0.0, "name": "14807ac64ce894fe0e42ce0b2a5210a1", "is_reserved": 0, "rental_uris": {"android": "https://dc.lft.to/lastmile_qr_scan", "ios": "https://dc.lft.to/lastmile_qr_scan"}, "fusion_lon": 0.0}, {"lat": 38.866585666666666, "is_disabled": 0, "type": "electric_scooter", "lon": -76.9888335, "bike_id": "beea8b36ad90cec5fa8e57fbe797536a", "fusion_lat": 0.0, "name": "beea8b36ad90cec5fa8e57fbe797536a", "is_reserved": 0, "rental_uris": {"android": "https://dc.lft.to/lastmile_qr_scan", "ios": "https://dc.lft.to/lastmile_qr_scan"}, "fusion_lon": 0.0}, {"lat": 38.9205, "is_disabled": 0, "type": "electric_scooter", "lon": -77.03472166666667, "bike_id": "12daa38e1500f06a6c13db9d7521f5f9", "fusion_lat": 0.0, "name": "12daa38e1500f06a6c13db9d7521f5f9", "is_reserved": 0, "rental_uris": {"android": "https://dc.lft.to/lastmile_qr_scan", "ios": "https://dc.lft.to/lastmile_qr_scan"}, "fusion_lon": 0.0}, {"lat": 38.89225, "is_disabled": 0, "type": "electric_scooter", "lon": -77.02163166666666, "bike_id": "986d33e3eab8625413845f93ca6b8983", "fusion_lat": 0.0, "name": "986d33e3eab8625413845f93ca6b8983", "is_reserved": 0, "rental_uris": {"android": "https://dc.lft.to/lastmile_qr_scan", "ios": "https://dc.lft.to/lastmile_qr_scan"}, "fusion_lon": 0.0}, {"lat": 38.900410666666666, "is_disabled": 0, "type": "electric_scooter", "lon": -77.02904466666666, "bike_id": "984165c0ff3a15c04d8424eb8eac096b", "fusion_lat": 0.0, "name": "984165c0ff3a15c04d8424eb8eac096b", "is_reserved": 0, "rental_uris": {"android": "https://dc.lft.to/lastmile_qr_scan", "ios": "https://dc.lft.to/lastmile_qr_scan"}, "fusion_lon": 0.0}, {"lat": 38.8951755, "is_disabled": 0, "type": "electric_scooter", "lon": -76.97732716666667, "bike_id": "8b0431ff4d384f91643b690b5d0e7e8a", "fusion_lat": 0.0, "name": "8b0431ff4d384f91643b690b5d0e7e8a", "is_reserved": 0, "rental_uris": {"android": "https://dc.lft.to/lastmile_qr_scan", "ios": "https://dc.lft.to/lastmile_qr_scan"}, "fusion_lon": 0.0}, {"lat": 38.942009666666664, "is_disabled": 0, "type": "electric_scooter", "lon": -77.018303, "bike_id": "a3e69b05ac1a40eeb430f5eaf4d2a355", "fusion_lat": 0.0, "name": "a3e69b05ac1a40eeb430f5eaf4d2a355", "is_reserved": 0, "rental_uris": {"android": "https://dc.lft.to/lastmile_qr_scan", "ios": "https://dc.lft.to/lastmile_qr_scan"}, "fusion_lon": 0.0}, {"lat": 38.9096655, "is_disabled": 0, "type": "electric_scooter", "lon": -77.03429066666666, "bike_id": "00f151e0aa2c5b0fef2d24fc3c4b538a", "fusion_lat": 0.0, "name": "00f151e0aa2c5b0fef2d24fc3c4b538a", "is_reserved": 0, "rental_uris": {"android": "https://dc.lft.to/lastmile_qr_scan", "ios": "https://dc.lft.to/lastmile_qr_scan"}, "fusion_lon": 0.0}, {"lat": 38.92046833333333, "is_disabled": 0, "type": "electric_scooter", "lon": -77.03292916666666, "bike_id": "9dd49e3292f12351b89e870b2488329b", "fusion_lat": 0.0, "name": "9dd49e3292f12351b89e870b2488329b", "is_reserved": 0, "rental_uris": {"android": "https://dc.lft.to/lastmile_qr_scan", "ios": "https://dc.lft.to/lastmile_qr_scan"}, "fusion_lon": 0.0}, {"lat": 38.917853666666666, "is_disabled": 0, "type": "electric_scooter", "lon": -77.02263066666667, "bike_id": "d5fc64867a83ccc4ba98df1e94f04853", "fusion_lat": 0.0, "name": "d5fc64867a83ccc4ba98df1e94f04853", "is_reserved": 0, "rental_uris": {"android": "https://dc.lft.to/lastmile_qr_scan", "ios": "https://dc.lft.to/lastmile_qr_scan"}, "fusion_lon": 0.0}, {"lat": 38.887444, "is_disabled": 0, "type": "electric_scooter", "lon": -77.0149225, "bike_id": "7a34f978747b2adeb08ed5da2a553383", "fusion_lat": 0.0, "name": "7a34f978747b2adeb08ed5da2a553383", "is_reserved": 0, "rental_uris": {"android": "https://dc.lft.to/lastmile_qr_scan", "ios": "https://dc.lft.to/lastmile_qr_scan"}, "fusion_lon": 0.0}, {"lat": 38.88925833333333, "is_disabled": 0, "type": "electric_scooter", "lon": -76.97377433333334, "bike_id": "ac2c0baa58434b21dae9ddd2a295b4d4", "fusion_lat": 0.0, "name": "ac2c0baa58434b21dae9ddd2a295b4d4", "is_reserved": 0, "rental_uris": {"android": "https://dc.lft.to/lastmile_qr_scan", "ios": "https://dc.lft.to/lastmile_qr_scan"}, "fusion_lon": 0.0}, {"lat": 38.906395333333336, "is_disabled": 0, "type": "electric_scooter", "lon": -77.06279683333334, "bike_id": "6667edbf143a1a3d6705bbf16c951f83", "fusion_lat": 0.0, "name": "6667edbf143a1a3d6705bbf16c951f83", "is_reserved": 0, "rental_uris": {"android": "https://dc.lft.to/lastmile_qr_scan", "ios": "https://dc.lft.to/lastmile_qr_scan"}, "fusion_lon": 0.0}, {"lat": 38.96702166666667, "is_disabled": 0, "type": "electric_bike", "lon": -77.102207, "bike_id": "fb64e0d72e516157c2dc5d0cf292c274", "fusion_lat": 0.0, "name": "fb64e0d72e516157c2dc5d0cf292c274", "is_reserved": 0, "rental_uris": {"android": "https://dc.lft.to/lastmile_qr_scan", "ios": "https://dc.lft.to/lastmile_qr_scan"}, "fusion_lon": 0.0}, {"lat": 38.861613, "is_disabled": 0, "type": "electric_bike", "lon": -77.13093, "bike_id": "883485490599ba28d729b2c936409f3a", "fusion_lat": 0.0, "name": "883485490599ba28d729b2c936409f3a", "is_reserved": 0, "rental_uris": {"android": "https://dc.lft.to/lastmile_qr_scan", "ios": "https://dc.lft.to/lastmile_qr_scan"}, "fusion_lon": 0.0}, {"lat": 38.90260933333333, "is_disabled": 0, "type": "electric_scooter", "lon": -77.0176945, "bike_id": "c3dc14d5e4cde1dfd3841f3196b1cba1", "fusion_lat": 0.0, "name": "c3dc14d5e4cde1dfd3841f3196b1cba1", "is_reserved": 0, "rental_uris": {"android": "https://dc.lft.to/lastmile_qr_scan", "ios": "https://dc.lft.to/lastmile_qr_scan"}, "fusion_lon": 0.0}, {"lat": 38.91056066666667, "is_disabled": 0, "type": "electric_scooter", "lon": -77.0423275, "bike_id": "471dc357570d205cb4f3aa777aea6302", "fusion_lat": 0.0, "name": "471dc357570d205cb4f3aa777aea6302", "is_reserved": 0, "rental_uris": {"android": "https://dc.lft.to/lastmile_qr_scan", "ios": "https://dc.lft.to/lastmile_qr_scan"}, "fusion_lon": 0.0}, {"lat": 38.91049783333333, "is_disabled": 0, "type": "electric_scooter", "lon": -77.02683766666667, "bike_id": "108718338232abf7a1e882c73a19772b", "fusion_lat": 0.0, "name": "108718338232abf7a1e882c73a19772b", "is_reserved": 0, "rental_uris": {"android": "https://dc.lft.to/lastmile_qr_scan", "ios": "https://dc.lft.to/lastmile_qr_scan"}, "fusion_lon": 0.0}, {"lat": 38.9141165, "is_disabled": 0, "type": "electric_scooter", "lon": -77.0223375, "bike_id": "d40b94cab52dd4c476b876b58e9e64ea", "fusion_lat": 0.0, "name": "d40b94cab52dd4c476b876b58e9e64ea", "is_reserved": 0, "rental_uris": {"android": "https://dc.lft.to/lastmile_qr_scan", "ios": "https://dc.lft.to/lastmile_qr_scan"}, "fusion_lon": 0.0}, {"lat": 38.92675283333333, "is_disabled": 0, "type": "electric_scooter", "lon": -77.02783883333333, "bike_id": "acdff8a93072c1d05d64c19092f3ff64", "fusion_lat": 0.0, "name": "acdff8a93072c1d05d64c19092f3ff64", "is_reserved": 0, "rental_uris": {"android": "https://dc.lft.to/lastmile_qr_scan", "ios": "https://dc.lft.to/lastmile_qr_scan"}, "fusion_lon": 0.0}, {"lat": 38.910581666666666, "is_disabled": 0, "type": "electric_scooter", "lon": -77.029162, "bike_id": "b52dd9f29fd9d498f4d71baada5748e0", "fusion_lat": 0.0, "name": "b52dd9f29fd9d498f4d71baada5748e0", "is_reserved": 0, "rental_uris": {"android": "https://dc.lft.to/lastmile_qr_scan", "ios": "https://dc.lft.to/lastmile_qr_scan"}, "fusion_lon": 0.0}, {"lat": 38.882648, "is_disabled": 0, "type": "electric_scooter", "lon": -76.98827216666666, "bike_id": "f7fef6bdf7f66956b52db607d49063ae", "fusion_lat": 0.0, "name": "f7fef6bdf7f66956b52db607d49063ae", "is_reserved": 0, "rental_uris": {"android": "https://dc.lft.to/lastmile_qr_scan", "ios": "https://dc.lft.to/lastmile_qr_scan"}, "fusion_lon": 0.0}, {"lat": 38.91807633333333, "is_disabled": 0, "type": "electric_scooter", "lon": -77.02691, "bike_id": "81d4f5767a2941c782d61021d401d726", "fusion_lat": 0.0, "name": "81d4f5767a2941c782d61021d401d726", "is_reserved": 0, "rental_uris": {"android": "https://dc.lft.to/lastmile_qr_scan", "ios": "https://dc.lft.to/lastmile_qr_scan"}, "fusion_lon": 0.0}, {"lat": 38.92973933333333, "is_disabled": 0, "type": "electric_scooter", "lon": -77.03822533333333, "bike_id": "0a1d46fbb5e1d08d45d2ae9fbe53f8af", "fusion_lat": 0.0, "name": "0a1d46fbb5e1d08d45d2ae9fbe53f8af", "is_reserved": 0, "rental_uris": {"android": "https://dc.lft.to/lastmile_qr_scan", "ios": "https://dc.lft.to/lastmile_qr_scan"}, "fusion_lon": 0.0}, {"lat": 38.88366583333333, "is_disabled": 0, "type": "electric_scooter", "lon": -77.02438383333333, "bike_id": "f9581bd213b473d828b9d6661a973c14", "fusion_lat": 0.0, "name": "f9581bd213b473d828b9d6661a973c14", "is_reserved": 0, "rental_uris": {"android": "https://dc.lft.to/lastmile_qr_scan", "ios": "https://dc.lft.to/lastmile_qr_scan"}, "fusion_lon": 0.0}, {"lat": 38.91541133333333, "is_disabled": 0, "type": "electric_scooter", "lon": -77.03206266666666, "bike_id": "c5ea51a66c27a9e7df322e2b2b8bc8f5", "fusion_lat": 0.0, "name": "c5ea51a66c27a9e7df322e2b2b8bc8f5", "is_reserved": 0, "rental_uris": {"android": "https://dc.lft.to/lastmile_qr_scan", "ios": "https://dc.lft.to/lastmile_qr_scan"}, "fusion_lon": 0.0}, {"lat": 38.935988, "is_disabled": 0, "type": "electric_scooter", "lon": -77.056331, "bike_id": "9815346bbf08bb41ddb5a476133d899f", "fusion_lat": 0.0, "name": "9815346bbf08bb41ddb5a476133d899f", "is_reserved": 0, "rental_uris": {"android": "https://dc.lft.to/lastmile_qr_scan", "ios": "https://dc.lft.to/lastmile_qr_scan"}, "fusion_lon": 0.0}, {"lat": 38.90503566666667, "is_disabled": 0, "type": "electric_scooter", "lon": -77.044729, "bike_id": "04e8f2410b283a2f662814bf2bdabb90", "fusion_lat": 0.0, "name": "04e8f2410b283a2f662814bf2bdabb90", "is_reserved": 0, "rental_uris": {"android": "https://dc.lft.to/lastmile_qr_scan", "ios": "https://dc.lft.to/lastmile_qr_scan"}, "fusion_lon": 0.0}, {"lat": 38.91729616666667, "is_disabled": 0, "type": "electric_scooter", "lon": -77.04171066666666, "bike_id": "577b0d4944df2bf33272286dc0f60c75", "fusion_lat": 0.0, "name": "577b0d4944df2bf33272286dc0f60c75", "is_reserved": 0, "rental_uris": {"android": "https://dc.lft.to/lastmile_qr_scan", "ios": "https://dc.lft.to/lastmile_qr_scan"}, "fusion_lon": 0.0}, {"lat": 38.903486666666666, "is_disabled": 0, "type": "electric_scooter", "lon": -77.04110616666667, "bike_id": "39870bbe75ed06b8138fbc31386e96d7", "fusion_lat": 0.0, "name": "39870bbe75ed06b8138fbc31386e96d7", "is_reserved": 0, "rental_uris": {"android": "https://dc.lft.to/lastmile_qr_scan", "ios": "https://dc.lft.to/lastmile_qr_scan"}, "fusion_lon": 0.0}, {"lat": 38.85641566666666, "is_disabled": 0, "type": "electric_bike", "lon": -77.11249233333334, "bike_id": "95c4bf25e8453169c55271ddd1b305e5", "fusion_lat": 0.0, "name": "95c4bf25e8453169c55271ddd1b305e5", "is_reserved": 0, "rental_uris": {"android": "https://dc.lft.to/lastmile_qr_scan", "ios": "https://dc.lft.to/lastmile_qr_scan"}, "fusion_lon": 0.0}, {"lat": 38.895016166666665, "is_disabled": 0, "type": "electric_scooter", "lon": -77.00211816666666, "bike_id": "1ca1a8f06c7beb177dde97532939bc70", "fusion_lat": 0.0, "name": "1ca1a8f06c7beb177dde97532939bc70", "is_reserved": 0, "rental_uris": {"android": "https://dc.lft.to/lastmile_qr_scan", "ios": "https://dc.lft.to/lastmile_qr_scan"}, "fusion_lon": 0.0}, {"lat": 38.91707233333333, "is_disabled": 0, "type": "electric_scooter", "lon": -77.04032533333333, "bike_id": "9a7a73b5a4ff78d19b80443e614ae03f", "fusion_lat": 0.0, "name": "9a7a73b5a4ff78d19b80443e614ae03f", "is_reserved": 0, "rental_uris": {"android": "https://dc.lft.to/lastmile_qr_scan", "ios": "https://dc.lft.to/lastmile_qr_scan"}, "fusion_lon": 0.0}, {"lat": 38.907317666666664, "is_disabled": 0, "type": "electric_scooter", "lon": -77.02376866666667, "bike_id": "9c8375db04da6be79aff9cc97c70eca7", "fusion_lat": 0.0, "name": "9c8375db04da6be79aff9cc97c70eca7", "is_reserved": 0, "rental_uris": {"android": "https://dc.lft.to/lastmile_qr_scan", "ios": "https://dc.lft.to/lastmile_qr_scan"}, "fusion_lon": 0.0}, {"lat": 38.91908866666667, "is_disabled": 0, "type": "electric_scooter", "lon": -77.03183716666666, "bike_id": "b3ade8054e25a7880c5c144a46f8ba4f", "fusion_lat": 0.0, "name": "b3ade8054e25a7880c5c144a46f8ba4f", "is_reserved": 0, "rental_uris": {"android": "https://dc.lft.to/lastmile_qr_scan", "ios": "https://dc.lft.to/lastmile_qr_scan"}, "fusion_lon": 0.0}, {"lat": 38.9118, "is_disabled": 0, "type": "electric_scooter", "lon": -77.0385835, "bike_id": "36eec1a8856f2a0d7c1ea058ee098dfe", "fusion_lat": 0.0, "name": "36eec1a8856f2a0d7c1ea058ee098dfe", "is_reserved": 0, "rental_uris": {"android": "https://dc.lft.to/lastmile_qr_scan", "ios": "https://dc.lft.to/lastmile_qr_scan"}, "fusion_lon": 0.0}, {"lat": 38.85689833333333, "is_disabled": 0, "type": "electric_scooter", "lon": -76.981608, "bike_id": "c131768a9ecc98d389f547761dccf8f2", "fusion_lat": 0.0, "name": "c131768a9ecc98d389f547761dccf8f2", "is_reserved": 0, "rental_uris": {"android": "https://dc.lft.to/lastmile_qr_scan", "ios": "https://dc.lft.to/lastmile_qr_scan"}, "fusion_lon": 0.0}, {"lat": 38.93838066666667, "is_disabled": 0, "type": "electric_scooter", "lon": -77.02548533333334, "bike_id": "614061d0fc72c9191d818237e06d6be5", "fusion_lat": 0.0, "name": "614061d0fc72c9191d818237e06d6be5", "is_reserved": 0, "rental_uris": {"android": "https://dc.lft.to/lastmile_qr_scan", "ios": "https://dc.lft.to/lastmile_qr_scan"}, "fusion_lon": 0.0}, {"lat": 38.8552365, "is_disabled": 0, "type": "electric_bike", "lon": -76.98429433333334, "bike_id": "c8aa5a2e38c3ca527e5b5b32fb95b05b", "fusion_lat": 0.0, "name": "c8aa5a2e38c3ca527e5b5b32fb95b05b", "is_reserved": 0, "rental_uris": {"android": "https://dc.lft.to/lastmile_qr_scan", "ios": "https://dc.lft.to/lastmile_qr_scan"}, "fusion_lon": 0.0}, {"lat": 38.905680833333335, "is_disabled": 0, "type": "electric_scooter", "lon": -77.062748, "bike_id": "7771d19ec8b0b221c9923d0be8ca5b2f", "fusion_lat": 0.0, "name": "7771d19ec8b0b221c9923d0be8ca5b2f", "is_reserved": 0, "rental_uris": {"android": "https://dc.lft.to/lastmile_qr_scan", "ios": "https://dc.lft.to/lastmile_qr_scan"}, "fusion_lon": 0.0}, {"lat": 38.938187666666664, "is_disabled": 0, "type": "electric_bike", "lon": -77.02640483333333, "bike_id": "a9b0fedacd43cd23d3184aa843cffa55", "fusion_lat": 0.0, "name": "a9b0fedacd43cd23d3184aa843cffa55", "is_reserved": 0, "rental_uris": {"android": "https://dc.lft.to/lastmile_qr_scan", "ios": "https://dc.lft.to/lastmile_qr_scan"}, "fusion_lon": 0.0}, {"lat": 38.837238666666664, "is_disabled": 0, "type": "electric_bike", "lon": -76.99762783333334, "bike_id": "86d30088ee7bd63dfea6b00abc6f4251", "fusion_lat": 0.0, "name": "86d30088ee7bd63dfea6b00abc6f4251", "is_reserved": 0, "rental_uris": {"android": "https://dc.lft.to/lastmile_qr_scan", "ios": "https://dc.lft.to/lastmile_qr_scan"}, "fusion_lon": 0.0}, {"lat": 38.889943833333334, "is_disabled": 0, "type": "electric_scooter", "lon": -76.95566633333334, "bike_id": "fbfda6d34a913a949b5179cc34e2a282", "fusion_lat": 0.0, "name": "fbfda6d34a913a949b5179cc34e2a282", "is_reserved": 0, "rental_uris": {"android": "https://dc.lft.to/lastmile_qr_scan", "ios": "https://dc.lft.to/lastmile_qr_scan"}, "fusion_lon": 0.0}, {"lat": 38.93411316666667, "is_disabled": 0, "type": "electric_scooter", "lon": -77.04137583333333, "bike_id": "3be8e2f08b7e138d7a50fae7c88080dc", "fusion_lat": 0.0, "name": "3be8e2f08b7e138d7a50fae7c88080dc", "is_reserved": 0, "rental_uris": {"android": "https://dc.lft.to/lastmile_qr_scan", "ios": "https://dc.lft.to/lastmile_qr_scan"}, "fusion_lon": 0.0}, {"lat": 38.916119333333334, "is_disabled": 0, "type": "electric_scooter", "lon": -77.02553333333333, "bike_id": "123c7ede3d3115fa9abd5b1568956803", "fusion_lat": 0.0, "name": "123c7ede3d3115fa9abd5b1568956803", "is_reserved": 0, "rental_uris": {"android": "https://dc.lft.to/lastmile_qr_scan", "ios": "https://dc.lft.to/lastmile_qr_scan"}, "fusion_lon": 0.0}, {"lat": 38.906787, "is_disabled": 0, "type": "electric_scooter", "lon": -77.07194483333333, "bike_id": "65537a4d567fce0e79b831d70fe3fa29", "fusion_lat": 0.0, "name": "65537a4d567fce0e79b831d70fe3fa29", "is_reserved": 0, "rental_uris": {"android": "https://dc.lft.to/lastmile_qr_scan", "ios": "https://dc.lft.to/lastmile_qr_scan"}, "fusion_lon": 0.0}, {"lat": 38.897328, "is_disabled": 0, "type": "electric_scooter", "lon": -77.00753183333333, "bike_id": "bb12880598f7e6b11bf053704fddc718", "fusion_lat": 0.0, "name": "bb12880598f7e6b11bf053704fddc718", "is_reserved": 0, "rental_uris": {"android": "https://dc.lft.to/lastmile_qr_scan", "ios": "https://dc.lft.to/lastmile_qr_scan"}, "fusion_lon": 0.0}, {"lat": 38.8861575, "is_disabled": 0, "type": "electric_scooter", "lon": -77.00345466666667, "bike_id": "18aa7532072f52f8fb867971cd24e10a", "fusion_lat": 0.0, "name": "18aa7532072f52f8fb867971cd24e10a", "is_reserved": 0, "rental_uris": {"android": "https://dc.lft.to/lastmile_qr_scan", "ios": "https://dc.lft.to/lastmile_qr_scan"}, "fusion_lon": 0.0}, {"lat": 38.921733, "is_disabled": 0, "type": "electric_scooter", "lon": -77.04018283333333, "bike_id": "597bba19f8cc0ad37ecc5d0b83f350ce", "fusion_lat": 0.0, "name": "597bba19f8cc0ad37ecc5d0b83f350ce", "is_reserved": 0, "rental_uris": {"android": "https://dc.lft.to/lastmile_qr_scan", "ios": "https://dc.lft.to/lastmile_qr_scan"}, "fusion_lon": 0.0}, {"lat": 38.91615133333333, "is_disabled": 0, "type": "electric_scooter", "lon": -77.02960233333333, "bike_id": "4bfef45f0f4866ed1f152ccbf38daeba", "fusion_lat": 0.0, "name": "4bfef45f0f4866ed1f152ccbf38daeba", "is_reserved": 0, "rental_uris": {"android": "https://dc.lft.to/lastmile_qr_scan", "ios": "https://dc.lft.to/lastmile_qr_scan"}, "fusion_lon": 0.0}, {"lat": 38.92243166666667, "is_disabled": 0, "type": "electric_scooter", "lon": -77.00262333333333, "bike_id": "48b564ace5dec4b732be752b36d6c642", "fusion_lat": 0.0, "name": "48b564ace5dec4b732be752b36d6c642", "is_reserved": 0, "rental_uris": {"android": "https://dc.lft.to/lastmile_qr_scan", "ios": "https://dc.lft.to/lastmile_qr_scan"}, "fusion_lon": 0.0}, {"lat": 38.922481833333336, "is_disabled": 0, "type": "electric_scooter", "lon": -77.02727383333334, "bike_id": "b481b2d804686da62c0c4f71b8a834ee", "fusion_lat": 0.0, "name": "b481b2d804686da62c0c4f71b8a834ee", "is_reserved": 0, "rental_uris": {"android": "https://dc.lft.to/lastmile_qr_scan", "ios": "https://dc.lft.to/lastmile_qr_scan"}, "fusion_lon": 0.0}, {"lat": 38.910336, "is_disabled": 0, "type": "electric_scooter", "lon": -76.99810183333334, "bike_id": "ccff788566baba4c990b2c16db84ccaf", "fusion_lat": 0.0, "name": "ccff788566baba4c990b2c16db84ccaf", "is_reserved": 0, "rental_uris": {"android": "https://dc.lft.to/lastmile_qr_scan", "ios": "https://dc.lft.to/lastmile_qr_scan"}, "fusion_lon": 0.0}, {"lat": 38.95805716666667, "is_disabled": 0, "type": "electric_scooter", "lon": -77.0316175, "bike_id": "b15c8f72af19b3e202284ea5c636806d", "fusion_lat": 0.0, "name": "b15c8f72af19b3e202284ea5c636806d", "is_reserved": 0, "rental_uris": {"android": "https://dc.lft.to/lastmile_qr_scan", "ios": "https://dc.lft.to/lastmile_qr_scan"}, "fusion_lon": 0.0}, {"lat": 38.8645095, "is_disabled": 0, "type": "electric_bike", "lon": -76.94542466666667, "bike_id": "c5fb2d7a1c9f567156737c911e4b1960", "fusion_lat": 0.0, "name": "c5fb2d7a1c9f567156737c911e4b1960", "is_reserved": 0, "rental_uris": {"android": "https://dc.lft.to/lastmile_qr_scan", "ios": "https://dc.lft.to/lastmile_qr_scan"}, "fusion_lon": 0.0}, {"lat": 38.85450216666667, "is_disabled": 0, "type": "electric_scooter", "lon": -76.98577866666666, "bike_id": "7e9f97b15a29c083faf341b699884f0a", "fusion_lat": 0.0, "name": "7e9f97b15a29c083faf341b699884f0a", "is_reserved": 0, "rental_uris": {"android": "https://dc.lft.to/lastmile_qr_scan", "ios": "https://dc.lft.to/lastmile_qr_scan"}, "fusion_lon": 0.0}, {"lat": 38.9026755, "is_disabled": 0, "type": "electric_scooter", "lon": -77.033648, "bike_id": "4f48a36ffc21398a480057308db8ac61", "fusion_lat": 0.0, "name": "4f48a36ffc21398a480057308db8ac61", "is_reserved": 0, "rental_uris": {"android": "https://dc.lft.to/lastmile_qr_scan", "ios": "https://dc.lft.to/lastmile_qr_scan"}, "fusion_lon": 0.0}, {"lat": 38.918159333333335, "is_disabled": 0, "type": "electric_scooter", "lon": -77.03175183333333, "bike_id": "22f93e7dde5e77373867e9088e6d8b78", "fusion_lat": 0.0, "name": "22f93e7dde5e77373867e9088e6d8b78", "is_reserved": 0, "rental_uris": {"android": "https://dc.lft.to/lastmile_qr_scan", "ios": "https://dc.lft.to/lastmile_qr_scan"}, "fusion_lon": 0.0}, {"lat": 38.901989, "is_disabled": 0, "type": "electric_scooter", "lon": -77.0237105, "bike_id": "24ec6cb082a43957cd4bb68d61add4ee", "fusion_lat": 0.0, "name": "24ec6cb082a43957cd4bb68d61add4ee", "is_reserved": 0, "rental_uris": {"android": "https://dc.lft.to/lastmile_qr_scan", "ios": "https://dc.lft.to/lastmile_qr_scan"}, "fusion_lon": 0.0}, {"lat": 38.871434666666666, "is_disabled": 0, "type": "electric_bike", "lon": -76.937044, "bike_id": "4c9321e8872ee7ff7e4a928c48fe11d3", "fusion_lat": 0.0, "name": "4c9321e8872ee7ff7e4a928c48fe11d3", "is_reserved": 0, "rental_uris": {"android": "https://dc.lft.to/lastmile_qr_scan", "ios": "https://dc.lft.to/lastmile_qr_scan"}, "fusion_lon": 0.0}, {"lat": 38.889654666666665, "is_disabled": 0, "type": "electric_scooter", "lon": -76.97937233333333, "bike_id": "2a490b22a187c0b3169196694a58cab3", "fusion_lat": 0.0, "name": "2a490b22a187c0b3169196694a58cab3", "is_reserved": 0, "rental_uris": {"android": "https://dc.lft.to/lastmile_qr_scan", "ios": "https://dc.lft.to/lastmile_qr_scan"}, "fusion_lon": 0.0}, {"lat": 38.90788383333334, "is_disabled": 0, "type": "electric_scooter", "lon": -77.02285533333334, "bike_id": "288e01a35379a72a029a549e425f65bc", "fusion_lat": 0.0, "name": "288e01a35379a72a029a549e425f65bc", "is_reserved": 0, "rental_uris": {"android": "https://dc.lft.to/lastmile_qr_scan", "ios": "https://dc.lft.to/lastmile_qr_scan"}, "fusion_lon": 0.0}, {"lat": 38.88436266666667, "is_disabled": 0, "type": "electric_scooter", "lon": -77.03036866666666, "bike_id": "498b952dbe0d2392ace0eada72d39bdf", "fusion_lat": 0.0, "name": "498b952dbe0d2392ace0eada72d39bdf", "is_reserved": 0, "rental_uris": {"android": "https://dc.lft.to/lastmile_qr_scan", "ios": "https://dc.lft.to/lastmile_qr_scan"}, "fusion_lon": 0.0}, {"lat": 38.90373566666667, "is_disabled": 0, "type": "electric_scooter", "lon": -77.060204, "bike_id": "c95c3d84261f7af3c3b7efe937b31c75", "fusion_lat": 0.0, "name": "c95c3d84261f7af3c3b7efe937b31c75", "is_reserved": 0, "rental_uris": {"android": "https://dc.lft.to/lastmile_qr_scan", "ios": "https://dc.lft.to/lastmile_qr_scan"}, "fusion_lon": 0.0}, {"lat": 38.92054483333333, "is_disabled": 0, "type": "electric_scooter", "lon": -77.0433995, "bike_id": "d1df6621819c4243086dbb8c95ac79d8", "fusion_lat": 0.0, "name": "d1df6621819c4243086dbb8c95ac79d8", "is_reserved": 0, "rental_uris": {"android": "https://dc.lft.to/lastmile_qr_scan", "ios": "https://dc.lft.to/lastmile_qr_scan"}, "fusion_lon": 0.0}, {"lat": 38.9125345, "is_disabled": 0, "type": "electric_scooter", "lon": -77.03867066666666, "bike_id": "cc4b034c44e5a1a41268e25b90a37598", "fusion_lat": 0.0, "name": "cc4b034c44e5a1a41268e25b90a37598", "is_reserved": 0, "rental_uris": {"android": "https://dc.lft.to/lastmile_qr_scan", "ios": "https://dc.lft.to/lastmile_qr_scan"}, "fusion_lon": 0.0}, {"lat": 38.95955816666667, "is_disabled": 0, "type": "electric_bike", "lon": -77.10090133333334, "bike_id": "f2d5303c8f13f6f8a9a843c42e9dc84c", "fusion_lat": 0.0, "name": "f2d5303c8f13f6f8a9a843c42e9dc84c", "is_reserved": 0, "rental_uris": {"android": "https://dc.lft.to/lastmile_qr_scan", "ios": "https://dc.lft.to/lastmile_qr_scan"}, "fusion_lon": 0.0}, {"lat": 38.8426145, "is_disabled": 0, "type": "electric_scooter", "lon": -77.00239633333334, "bike_id": "7d42d50b625bdb2a4f4d8e39a9ba0dda", "fusion_lat": 0.0, "name": "7d42d50b625bdb2a4f4d8e39a9ba0dda", "is_reserved": 0, "rental_uris": {"android": "https://dc.lft.to/lastmile_qr_scan", "ios": "https://dc.lft.to/lastmile_qr_scan"}, "fusion_lon": 0.0}, {"lat": 38.8986345, "is_disabled": 0, "type": "electric_scooter", "lon": -77.01858966666667, "bike_id": "e44076a07e0e5674230604fda3bb1ce0", "fusion_lat": 0.0, "name": "e44076a07e0e5674230604fda3bb1ce0", "is_reserved": 0, "rental_uris": {"android": "https://dc.lft.to/lastmile_qr_scan", "ios": "https://dc.lft.to/lastmile_qr_scan"}, "fusion_lon": 0.0}, {"lat": 38.90777383333333, "is_disabled": 0, "type": "electric_scooter", "lon": -77.0640215, "bike_id": "33901ed1b71af5b72c8f124b64e6333d", "fusion_lat": 0.0, "name": "33901ed1b71af5b72c8f124b64e6333d", "is_reserved": 0, "rental_uris": {"android": "https://dc.lft.to/lastmile_qr_scan", "ios": "https://dc.lft.to/lastmile_qr_scan"}, "fusion_lon": 0.0}, {"lat": 38.91330983333334, "is_disabled": 0, "type": "electric_scooter", "lon": -77.03263466666667, "bike_id": "185a7066eec3505819fa432ca28b5668", "fusion_lat": 0.0, "name": "185a7066eec3505819fa432ca28b5668", "is_reserved": 0, "rental_uris": {"android": "https://dc.lft.to/lastmile_qr_scan", "ios": "https://dc.lft.to/lastmile_qr_scan"}, "fusion_lon": 0.0}, {"lat": 38.87924816666667, "is_disabled": 0, "type": "electric_scooter", "lon": -76.991538, "bike_id": "747c080da5a3ee6507201a1246c79f48", "fusion_lat": 0.0, "name": "747c080da5a3ee6507201a1246c79f48", "is_reserved": 0, "rental_uris": {"android": "https://dc.lft.to/lastmile_qr_scan", "ios": "https://dc.lft.to/lastmile_qr_scan"}, "fusion_lon": 0.0}, {"lat": 38.903217833333336, "is_disabled": 0, "type": "electric_scooter", "lon": -77.06519633333333, "bike_id": "f71b9ce3ed38dcce3ae53fd6e2e4cc6a", "fusion_lat": 0.0, "name": "f71b9ce3ed38dcce3ae53fd6e2e4cc6a", "is_reserved": 0, "rental_uris": {"android": "https://dc.lft.to/lastmile_qr_scan", "ios": "https://dc.lft.to/lastmile_qr_scan"}, "fusion_lon": 0.0}, {"lat": 38.93141, "is_disabled": 0, "type": "electric_scooter", "lon": -77.03829, "bike_id": "d3d5cf9332673071baeb4b844f822f46", "fusion_lat": 0.0, "name": "d3d5cf9332673071baeb4b844f822f46", "is_reserved": 0, "rental_uris": {"android": "https://dc.lft.to/lastmile_qr_scan", "ios": "https://dc.lft.to/lastmile_qr_scan"}, "fusion_lon": 0.0}, {"lat": 38.91404333333333, "is_disabled": 0, "type": "electric_scooter", "lon": -77.0326135, "bike_id": "4440d3173c054ba4c34ff83b74ae9b0f", "fusion_lat": 0.0, "name": "4440d3173c054ba4c34ff83b74ae9b0f", "is_reserved": 0, "rental_uris": {"android": "https://dc.lft.to/lastmile_qr_scan", "ios": "https://dc.lft.to/lastmile_qr_scan"}, "fusion_lon": 0.0}, {"lat": 38.892246666666665, "is_disabled": 0, "type": "electric_bike", "lon": -77.03326316666667, "bike_id": "b10bbd9947513bf1f6b7a5a01921de48", "fusion_lat": 0.0, "name": "b10bbd9947513bf1f6b7a5a01921de48", "is_reserved": 0, "rental_uris": {"android": "https://dc.lft.to/lastmile_qr_scan", "ios": "https://dc.lft.to/lastmile_qr_scan"}, "fusion_lon": 0.0}, {"lat": 38.88041483333333, "is_disabled": 0, "type": "electric_scooter", "lon": -76.986304, "bike_id": "2efbee987ef95ddd447a2adbf594ce70", "fusion_lat": 0.0, "name": "2efbee987ef95ddd447a2adbf594ce70", "is_reserved": 0, "rental_uris": {"android": "https://dc.lft.to/lastmile_qr_scan", "ios": "https://dc.lft.to/lastmile_qr_scan"}, "fusion_lon": 0.0}, {"lat": 38.96144816666666, "is_disabled": 0, "type": "electric_scooter", "lon": -77.02809783333333, "bike_id": "8a9715663e7e5c0e0e2a0a0fc9743cf7", "fusion_lat": 0.0, "name": "8a9715663e7e5c0e0e2a0a0fc9743cf7", "is_reserved": 0, "rental_uris": {"android": "https://dc.lft.to/lastmile_qr_scan", "ios": "https://dc.lft.to/lastmile_qr_scan"}, "fusion_lon": 0.0}, {"lat": 38.915652, "is_disabled": 0, "type": "electric_scooter", "lon": -77.0315435, "bike_id": "e6dbad382aff8fd499658b9f86109495", "fusion_lat": 0.0, "name": "e6dbad382aff8fd499658b9f86109495", "is_reserved": 0, "rental_uris": {"android": "https://dc.lft.to/lastmile_qr_scan", "ios": "https://dc.lft.to/lastmile_qr_scan"}, "fusion_lon": 0.0},