{"data": {"bikes": [{"bike_id": "423c10b655f5a080c818383e5fd238ac", "is_reserved": 0, "fusion_lon": 0.0, "lat": 38.933531, "is_disabled": 0, "name": "423c10b655f5a080c818383e5fd238ac", "fusion_lat": 0.0, "rental_uris": {"ios": "https://dc.lft.to/lastmile_qr_scan", "android": "https://dc.lft.to/lastmile_qr_scan"}, "lon": -77.05866933333333, "type": "electric_scooter"}, {"bike_id": "115848e6184bf8f4724b7c6b236728e9", "is_reserved": 0, "fusion_lon": 0.0, "lat": 38.90430883333333, "is_disabled": 0, "name": "115848e6184bf8f4724b7c6b236728e9", "fusion_lat": 0.0, "rental_uris": {"ios": "https://dc.lft.to/lastmile_qr_scan", "android": "https://dc.lft.to/lastmile_qr_scan"}, "lon": -77.04011566666667, "type": "electric_scooter"}, {"bike_id": "f175064bb2a703b9eb60178eb950aee9", "is_reserved": 0, "fusion_lon": 0.0, "lat": 38.926445666666666, "is_disabled": 0, "name": "f175064bb2a703b9eb60178eb950aee9", "fusion_lat": 0.0, "rental_uris": {"ios": "https://dc.lft.to/lastmile_qr_scan", "android": "https://dc.lft.to/lastmile_qr_scan"}, "lon": -77.03722566666667, "type": "electric_scooter"}, {"bike_id": "5cc4caeba80b00360dd94f37b7b72f9f", "is_reserved": 0, "fusion_lon": 0.0, "lat": 38.901271, "is_disabled": 0, "name": "5cc4caeba80b00360dd94f37b7b72f9f", "fusion_lat": 0.0, "rental_uris": {"ios": "https://dc.lft.to/lastmile_qr_scan", "android": "https://dc.lft.to/lastmile_qr_scan"}, "lon": -77.04490266666667, "type": "electric_scooter"}, {"bike_id": "35ec8f6c73ce55a0774a145b52b4151b", "is_reserved": 0, "fusion_lon": 0.0, "lat": 38.920912, "is_disabled": 0, "name": "35ec8f6c73ce55a0774a145b52b4151b", "fusion_lat": 0.0, "rental_uris": {"ios": "https://dc.lft.to/lastmile_qr_scan", "android": "https://dc.lft.to/lastmile_qr_scan"}, "lon": -77.07472183333333, "type": "electric_scooter"}, {"bike_id": "984703f9f4fd266c3b01520aa4ef5920", "is_reserved": 0, "fusion_lon": 0.0, "lat": 38.89820616666667, "is_disabled": 0, "name": "984703f9f4fd266c3b01520aa4ef5920", "fusion_lat": 0.0, "rental_uris": {"ios": "https://dc.lft.to/lastmile_qr_scan", "android": "https://dc.lft.to/lastmile_qr_scan"}, "lon": -77.03341733333333, "type": "electric_scooter"}, {"bike_id": "7b838c3f7f5644f9e8f01bcdee5d083e", "is_reserved": 0, "fusion_lon": 0.0, "lat": 38.9051515, "is_disabled": 0, "name": "7b838c3f7f5644f9e8f01bcdee5d083e", "fusion_lat": 0.0, "rental_uris": {"ios": "https://dc.lft.to/lastmile_qr_scan", "android": "https://dc.lft.to/lastmile_qr_scan"}, "lon": -77.04157833333333, "type": "electric_scooter"}, {"bike_id": "95f9cbabc53886c7a3493a095569208c", "is_reserved": 0, "fusion_lon": 0.0, "lat": 38.92640333333333, "is_disabled": 0, "name": "95f9cbabc53886c7a3493a095569208c", "fusion_lat": 0.0, "rental_uris": {"ios": "https://dc.lft.to/lastmile_qr_scan", "android": "https://dc.lft.to/lastmile_qr_scan"}, "lon": -77.0351285, "type": "electric_scooter"}, {"bike_id": "387b602a61f375f60f15b1fd75fc6235", "is_reserved": 0, "fusion_lon": 0.0, "lat": 38.9014275, "is_disabled": 0, "name": "387b602a61f375f60f15b1fd75fc6235", "fusion_lat": 0.0, "rental_uris": {"ios": "https://dc.lft.to/lastmile_qr_scan", "android": "https://dc.lft.to/lastmile_qr_scan"}, "lon": -77.04329316666667, "type": "electric_scooter"}, {"bike_id": "7faf4c0c8915ce12c8cdd9da1d0f1442", "is_reserved": 0, "fusion_lon": 0.0, "lat": 38.922446666666666, "is_disabled": 0, "name": "7faf4c0c8915ce12c8cdd9da1d0f1442", "fusion_lat": 0.0, "rental_uris": {"ios": "https://dc.lft.to/lastmile_qr_scan", "android": "https://dc.lft.to/lastmile_qr_scan"}, "lon": -77.041375, "type": "electric_scooter"}, {"bike_id": "bffc4afb0911f6b6884437a4c20406aa", "is_reserved": 0, "fusion_lon": 0.0, "lat": 38.895626, "is_disabled": 0, "name": "bffc4afb0911f6b6884437a4c20406aa", "fusion_lat": 0.0, "rental_uris": {"ios": "https://dc.lft.to/lastmile_qr_scan", "android": "https://dc.lft.to/lastmile_qr_scan"}, "lon": -77.12733216666666, "type": "electric_bike"}, {"bike_id": "278882bc8e39031fc4e897b8c3d6802a", "is_reserved": 0, "fusion_lon": 0.0, "lat": 38.90806233333333, "is_disabled": 0, "name": "278882bc8e39031fc4e897b8c3d6802a", "fusion_lat": 0.0, "rental_uris": {"ios": "https://dc.lft.to/lastmile_qr_scan", "android": "https://dc.lft.to/lastmile_qr_scan"}, "lon": -77.04881416666667, "type": "electric_scooter"}, {"bike_id": "77a55207515b7e2d47685a5bdef1ce7b", "is_reserved": 0, "fusion_lon": 0.0, "lat": 38.90219666666667, "is_disabled": 0, "name": "77a55207515b7e2d47685a5bdef1ce7b", "fusion_lat": 0.0, "rental_uris": {"ios": "https://dc.lft.to/lastmile_qr_scan", "android": "https://dc.lft.to/lastmile_qr_scan"}, "lon": -76.95050983333333, "type": "electric_bike"}, {"bike_id": "4a6c9fbaab2f4ab14ad2900f3cebdc8d", "is_reserved": 0, "fusion_lon": 0.0, "lat": 38.913395333333334, "is_disabled": 0, "name": "4a6c9fbaab2f4ab14ad2900f3cebdc8d", "fusion_lat": 0.0, "rental_uris": {"ios": "https://dc.lft.to/lastmile_qr_scan", "android": "https://dc.lft.to/lastmile_qr_scan"}, "lon": -77.06317133333333, "type": "electric_bike"}, {"bike_id": "f95702f228ba9c291079b4e4b49c335a", "is_reserved": 0, "fusion_lon": 0.0, "lat": 38.898315833333335, "is_disabled": 0, "name": "f95702f228ba9c291079b4e4b49c335a", "fusion_lat": 0.0, "rental_uris": {"ios": "https://dc.lft.to/lastmile_qr_scan", "android": "https://dc.lft.to/lastmile_qr_scan"}, "lon": -77.05031916666667, "type": "electric_scooter"}, {"bike_id": "fcb63bf08546ba5bce6f42a5a0af4bcd", "is_reserved": 0, "fusion_lon": 0.0, "lat": 38.93613583333333, "is_disabled": 0, "name": "fcb63bf08546ba5bce6f42a5a0af4bcd", "fusion_lat": 0.0, "rental_uris": {"ios": "https://dc.lft.to/lastmile_qr_scan", "android": "https://dc.lft.to/lastmile_qr_scan"}, "lon": -77.05589633333334, "type": "electric_scooter"}, {"bike_id": "443c7dd4c77cbde4964dcf27f11866f6", "is_reserved": 0, "fusion_lon": 0.0, "lat": 38.920912333333334, "is_disabled": 0, "name": "443c7dd4c77cbde4964dcf27f11866f6", "fusion_lat": 0.0, "rental_uris": {"ios": "https://dc.lft.to/lastmile_qr_scan", "android": "https://dc.lft.to/lastmile_qr_scan"}, "lon": -77.0251915, "type": "electric_scooter"}, {"bike_id": "02d61dc446638db1663af6cb8c13b7af", "is_reserved": 0, "fusion_lon": 0.0, "lat": 38.90139633333333, "is_disabled": 0, "name": "02d61dc446638db1663af6cb8c13b7af", "fusion_lat": 0.0, "rental_uris": {"ios": "https://dc.lft.to/lastmile_qr_scan", "android": "https://dc.lft.to/lastmile_qr_scan"}, "lon": -77.039842, "type": "electric_scooter"}, {"bike_id": "644ba6bd448b1245b2c7eb07dde31abb", "is_reserved": 0, "fusion_lon": 0.0, "lat": 38.8919365, "is_disabled": 0, "name": "644ba6bd448b1245b2c7eb07dde31abb", "fusion_lat": 0.0, "rental_uris": {"ios": "https://dc.lft.to/lastmile_qr_scan", "android": "https://dc.lft.to/lastmile_qr_scan"}, "lon": -77.02388216666667, "type": "electric_scooter"}, {"bike_id": "eb07decf3e79ea8f5a6c58cb305de264", "is_reserved": 0, "fusion_lon": 0.0, "lat": 38.89834883333333, "is_disabled": 0, "name": "eb07decf3e79ea8f5a6c58cb305de264", "fusion_lat": 0.0, "rental_uris": {"ios": "https://dc.lft.to/lastmile_qr_scan", "android": "https://dc.lft.to/lastmile_qr_scan"}, "lon": -77.04321316666666, "type": "electric_scooter"}, {"bike_id": "3184d56e4e55ae58829bc6174d6f3363", "is_reserved": 0, "fusion_lon": 0.0, "lat": 38.940713333333335, "is_disabled": 0, "name": "3184d56e4e55ae58829bc6174d6f3363", "fusion_lat": 0.0, "rental_uris": {"ios": "https://dc.lft.to/lastmile_qr_scan", "android": "https://dc.lft.to/lastmile_qr_scan"}, "lon": -76.99469066666667, "type": "electric_scooter"}, {"bike_id": "e61c4821a025610a077d54d019da83ff", "is_reserved": 0, "fusion_lon": 0.0, "lat": 38.922336666666666, "is_disabled": 0, "name": "e61c4821a025610a077d54d019da83ff", "fusion_lat": 0.0, "rental_uris": {"ios": "https://dc.lft.to/lastmile_qr_scan", "android": "https://dc.lft.to/lastmile_qr_scan"}, "lon": -77.03365183333334, "type": "electric_scooter"}, {"bike_id": "40567be39b81dac180c6cfbf0652e69f", "is_reserved": 0, "fusion_lon": 0.0, "lat": 38.90408016666667, "is_disabled": 0, "name": "40567be39b81dac180c6cfbf0652e69f", "fusion_lat": 0.0, "rental_uris": {"ios": "https://dc.lft.to/lastmile_qr_scan", "android": "https://dc.lft.to/lastmile_qr_scan"}, "lon": -77.038228, "type": "electric_scooter"}, {"bike_id": "2e6bc6fc8dd8c1203a28c7f952b54688", "is_reserved": 0, "fusion_lon": 0.0, "lat": 38.90958083333334, "is_disabled": 0, "name": "2e6bc6fc8dd8c1203a28c7f952b54688", "fusion_lat": 0.0, "rental_uris": {"ios": "https://dc.lft.to/lastmile_qr_scan", "android": "https://dc.lft.to/lastmile_qr_scan"}, "lon": -77.031673, "type": "electric_scooter"}, {"bike_id": "a94ee6fdd14d76f051bb3491d91e59ed", "is_reserved": 0, "fusion_lon": 0.0, "lat": 38.905777666666665, "is_disabled": 0, "name": "a94ee6fdd14d76f051bb3491d91e59ed", "fusion_lat": 0.0, "rental_uris": {"ios": "https://dc.lft.to/lastmile_qr_scan", "android": "https://dc.lft.to/lastmile_qr_scan"}, "lon": -77.03836216666667, "type": "electric_scooter"}, {"bike_id": "34370ac3841b699d1004838615fd6ef7", "is_reserved": 0, "fusion_lon": 0.0, "lat": 38.91871966666667, "is_disabled": 0, "name": "34370ac3841b699d1004838615fd6ef7", "fusion_lat": 0.0, "rental_uris": {"ios": "https://dc.lft.to/lastmile_qr_scan", "android": "https://dc.lft.to/lastmile_qr_scan"}, "lon": -77.04381433333333, "type": "electric_scooter"}, {"bike_id": "e45f110171970236e194f2cc1b33f8a1", "is_reserved": 0, "fusion_lon": 0.0, "lat": 38.91568433333333, "is_disabled": 0, "name": "e45f110171970236e194f2cc1b33f8a1", "fusion_lat": 0.0, "rental_uris": {"ios": "https://dc.lft.to/lastmile_qr_scan", "android": "https://dc.lft.to/lastmile_qr_scan"}, "lon": -77.038593, "type": "electric_scooter"}, {"bike_id": "52d26221ab47aaa4b3acafee96b0ea2e", "is_reserved": 0, "fusion_lon": 0.0, "lat": 38.92680933333333, "is_disabled": 0, "name": "52d26221ab47aaa4b3acafee96b0ea2e", "fusion_lat": 0.0, "rental_uris": {"ios": "https://dc.lft.to/lastmile_qr_scan", "android": "https://dc.lft.to/lastmile_qr_scan"}, "lon": -77.09554066666666, "type": "electric_scooter"}, {"bike_id": "a4067db317f29eddbe358eb25bd15d42", "is_reserved": 0, "fusion_lon": 0.0, "lat": 38.881986166666664, "is_disabled": 0, "name": "a4067db317f29eddbe358eb25bd15d42", "fusion_lat": 0.0, "rental_uris": {"ios": "https://dc.lft.to/lastmile_qr_scan", "android": "https://dc.lft.to/lastmile_qr_scan"}, "lon": -77.00609166666666, "type": "electric_scooter"}, {"bike_id": "508c61a71b0a1ead51b9e08df9c8c2ed", "is_reserved": 0, "fusion_lon": 0.0, "lat": 38.9086355, "is_disabled": 0, "name": "508c61a71b0a1ead51b9e08df9c8c2ed", "fusion_lat": 0.0, "rental_uris": {"ios": "https://dc.lft.to/lastmile_qr_scan", "android": "https://dc.lft.to/lastmile_qr_scan"}, "lon": -76.94010933333334, "type": "electric_bike"}, {"bike_id": "5f0642b1f2f3159eba3ade62e24924b0", "is_reserved": 0, "fusion_lon": 0.0, "lat": 38.906633166666666, "is_disabled": 0, "name": "5f0642b1f2f3159eba3ade62e24924b0", "fusion_lat": 0.0, "rental_uris": {"ios": "https://dc.lft.to/lastmile_qr_scan", "android": "https://dc.lft.to/lastmile_qr_scan"}, "lon": -77.03855416666667, "type": "electric_scooter"}, {"bike_id": "691ae1988e9e5f4be4c832bff50327db", "is_reserved": 0, "fusion_lon": 0.0, "lat": 38.8750115, "is_disabled": 0, "name": "691ae1988e9e5f4be4c832bff50327db", "fusion_lat": 0.0, "rental_uris": {"ios": "https://dc.lft.to/lastmile_qr_scan", "android": "https://dc.lft.to/lastmile_qr_scan"}, "lon": -77.025859, "type": "electric_bike"}, {"bike_id": "76da0751645b5dd82e582db6a74ee673", "is_reserved": 0, "fusion_lon": 0.0, "lat": 39.015925333333335, "is_disabled": 0, "name": "76da0751645b5dd82e582db6a74ee673", "fusion_lat": 0.0, "rental_uris": {"ios": "https://dc.lft.to/lastmile_qr_scan", "android": "https://dc.lft.to/lastmile_qr_scan"}, "lon": -77.044331, "type": "electric_bike"}, {"bike_id": "0765ab4cad9625c58429b87bbc80cf80", "is_reserved": 0, "fusion_lon": 0.0, "lat": 38.92059783333333, "is_disabled": 0, "name": "0765ab4cad9625c58429b87bbc80cf80", "fusion_lat": 0.0, "rental_uris": {"ios": "https://dc.lft.to/lastmile_qr_scan", "android": "https://dc.lft.to/lastmile_qr_scan"}, "lon": -77.03464266666667, "type": "electric_scooter"}, {"bike_id": "905b04c6d008d61fe0c6e636f6a71c0b", "is_reserved": 0, "fusion_lon": 0.0, "lat": 38.938881, "is_disabled": 0, "name": "905b04c6d008d61fe0c6e636f6a71c0b", "fusion_lat": 0.0, "rental_uris": {"ios": "https://dc.lft.to/lastmile_qr_scan", "android": "https://dc.lft.to/lastmile_qr_scan"}, "lon": -77.02957816666667, "type": "electric_scooter"}, {"bike_id": "cb4558d605ede36a697ad6681b573ab8", "is_reserved": 0, "fusion_lon": 0.0, "lat": 38.922418, "is_disabled": 0, "name": "cb4558d605ede36a697ad6681b573ab8", "fusion_lat": 0.0, "rental_uris": {"ios": "https://dc.lft.to/lastmile_qr_scan", "android": "https://dc.lft.to/lastmile_qr_scan"}, "lon": -77.03078433333333, "type": "electric_scooter"}, {"bike_id": "d58cb17be1d0d6cb26bf41c2a95da7db", "is_reserved": 0, "fusion_lon": 0.0, "lat": 38.906723, "is_disabled": 0, "name": "d58cb17be1d0d6cb26bf41c2a95da7db", "fusion_lat": 0.0, "rental_uris": {"ios": "https://dc.lft.to/lastmile_qr_scan", "android": "https://dc.lft.to/lastmile_qr_scan"}, "lon": -77.0386005, "type": "electric_scooter"}, {"bike_id": "17f247709f72cc32204bd06942ef22aa", "is_reserved": 0, "fusion_lon": 0.0, "lat": 38.92254283333333, "is_disabled": 0, "name": "17f247709f72cc32204bd06942ef22aa", "fusion_lat": 0.0, "rental_uris": {"ios": "https://dc.lft.to/lastmile_qr_scan", "android": "https://dc.lft.to/lastmile_qr_scan"}, "lon": -77.0420735, "type": "electric_scooter"}, {"bike_id": "28457567219c0ae14455a45990e0935f", "is_reserved": 0, "fusion_lon": 0.0, "lat": 38.908282166666666, "is_disabled": 0, "name": "28457567219c0ae14455a45990e0935f", "fusion_lat": 0.0, "rental_uris": {"ios": "https://dc.lft.to/lastmile_qr_scan", "android": "https://dc.lft.to/lastmile_qr_scan"}, "lon": -77.0425515, "type": "electric_scooter"}, {"bike_id": "4350fc608930207016296f08509a7ffc", "is_reserved": 0, "fusion_lon": 0.0, "lat": 38.90080866666667, "is_disabled": 0, "name": "4350fc608930207016296f08509a7ffc", "fusion_lat": 0.0, "rental_uris": {"ios": "https://dc.lft.to/lastmile_qr_scan", "android": "https://dc.lft.to/lastmile_qr_scan"}, "lon": -77.04782266666666, "type": "electric_scooter"}, {"bike_id": "f7ddfb1534b884201f23b99b60984cdf", "is_reserved": 0, "fusion_lon": 0.0, "lat": 38.88750666666667, "is_disabled": 0, "name": "f7ddfb1534b884201f23b99b60984cdf", "fusion_lat": 0.0, "rental_uris": {"ios": "https://dc.lft.to/lastmile_qr_scan", "android": "https://dc.lft.to/lastmile_qr_scan"}, "lon": -77.02574466666667, "type": "electric_scooter"}, {"bike_id": "25d09f3c6b058b3f7b709d6f9c99128b", "is_reserved": 0, "fusion_lon": 0.0, "lat": 38.881825666666664, "is_disabled": 0, "name": "25d09f3c6b058b3f7b709d6f9c99128b", "fusion_lat": 0.0, "rental_uris": {"ios": "https://dc.lft.to/lastmile_qr_scan", "android": "https://dc.lft.to/lastmile_qr_scan"}, "lon": -77.0357865, "type": "electric_scooter"}, {"bike_id": "83cea451bd82c41ea6b52c9439a87bbd", "is_reserved": 0, "fusion_lon": 0.0, "lat": 38.8919805, "is_disabled": 0, "name": "83cea451bd82c41ea6b52c9439a87bbd", "fusion_lat": 0.0, "rental_uris": {"ios": "https://dc.lft.to/lastmile_qr_scan", "android": "https://dc.lft.to/lastmile_qr_scan"}, "lon": -77.028382, "type": "electric_scooter"}, {"bike_id": "052d8bd24a8977acd24f756f34ecd9d4", "is_reserved": 0, "fusion_lon": 0.0, "lat": 38.905005833333334, "is_disabled": 0, "name": "052d8bd24a8977acd24f756f34ecd9d4", "fusion_lat": 0.0, "rental_uris": {"ios": "https://dc.lft.to/lastmile_qr_scan", "android": "https://dc.lft.to/lastmile_qr_scan"}, "lon": -76.99010033333333, "type": "electric_scooter"}, {"bike_id": "ee66d1a6321423787c7aee1c7bac82b6", "is_reserved": 0, "fusion_lon": 0.0, "lat": 38.920222833333334, "is_disabled": 0, "name": "ee66d1a6321423787c7aee1c7bac82b6", "fusion_lat": 0.0, "rental_uris": {"ios": "https://dc.lft.to/lastmile_qr_scan", "android": "https://dc.lft.to/lastmile_qr_scan"}, "lon": -77.0180675, "type": "electric_scooter"}, {"bike_id": "65de09a03e516263178f4a3d82f4f52c", "is_reserved": 0, "fusion_lon": 0.0, "lat": 38.904791833333334, "is_disabled": 0, "name": "65de09a03e516263178f4a3d82f4f52c", "fusion_lat": 0.0, "rental_uris": {"ios": "https://dc.lft.to/lastmile_qr_scan", "android": "https://dc.lft.to/lastmile_qr_scan"}, "lon": -77.0465445, "type": "electric_scooter"}, {"bike_id": "d6750c5ffa3a605cef9123975f91932e", "is_reserved": 0, "fusion_lon": 0.0, "lat": 38.89222433333333, "is_disabled": 0, "name": "d6750c5ffa3a605cef9123975f91932e", "fusion_lat": 0.0, "rental_uris": {"ios": "https://dc.lft.to/lastmile_qr_scan", "android": "https://dc.lft.to/lastmile_qr_scan"}, "lon": -77.04657866666666, "type": "electric_scooter"}, {"bike_id": "5ed6edfb21c15009d23a9c521d89847a", "is_reserved": 0, "fusion_lon": 0.0, "lat": 38.9203465, "is_disabled": 0, "name": "5ed6edfb21c15009d23a9c521d89847a", "fusion_lat": 0.0, "rental_uris": {"ios": "https://dc.lft.to/lastmile_qr_scan", "android": "https://dc.lft.to/lastmile_qr_scan"}, "lon": -77.03133833333334, "type": "electric_scooter"}, {"bike_id": "a92dd67984dce5555be37a9e64b93c11", "is_reserved": 0, "fusion_lon": 0.0, "lat": 38.92752466666666, "is_disabled": 0, "name": "a92dd67984dce5555be37a9e64b93c11", "fusion_lat": 0.0, "rental_uris": {"ios": "https://dc.lft.to/lastmile_qr_scan", "android": "https://dc.lft.to/lastmile_qr_scan"}, "lon": -77.03278183333333, "type": "electric_scooter"}, {"bike_id": "c345ef06d24aba08457762fe2140e9ed", "is_reserved": 0, "fusion_lon": 0.0, "lat": 38.904054333333335, "is_disabled": 0, "name": "c345ef06d24aba08457762fe2140e9ed", "fusion_lat": 0.0, "rental_uris": {"ios": "https://dc.lft.to/lastmile_qr_scan", "android": "https://dc.lft.to/lastmile_qr_scan"}, "lon": -77.03255716666666, "type": "electric_scooter"}, {"bike_id": "2fabfdf93d57c184525e9d89760c1e00", "is_reserved": 0, "fusion_lon": 0.0, "lat": 38.897337666666665, "is_disabled": 0, "name": "2fabfdf93d57c184525e9d89760c1e00", "fusion_lat": 0.0, "rental_uris": {"ios": "https://dc.lft.to/lastmile_qr_scan", "android": "https://dc.lft.to/lastmile_qr_scan"}, "lon": -77.05479466666667, "type": "electric_scooter"}, {"bike_id": "2032f3d2b1aeb9cae826c83049c35422", "is_reserved": 0, "fusion_lon": 0.0, "lat": 38.9593255, "is_disabled": 0, "name": "2032f3d2b1aeb9cae826c83049c35422", "fusion_lat": 0.0, "rental_uris": {"ios": "https://dc.lft.to/lastmile_qr_scan", "android": "https://dc.lft.to/lastmile_qr_scan"}, "lon": -77.03120833333334, "type": "electric_scooter"}, {"bike_id": "c1364ccaf1e51fa0769a2b657705917a", "is_reserved": 0, "fusion_lon": 0.0, "lat": 38.90242583333333, "is_disabled": 0, "name": "c1364ccaf1e51fa0769a2b657705917a", "fusion_lat": 0.0, "rental_uris": {"ios": "https://dc.lft.to/lastmile_qr_scan", "android": "https://dc.lft.to/lastmile_qr_scan"}, "lon": -77.002037, "type": "electric_scooter"}, {"bike_id": "11b94d7920b674ea603d3546770808f2", "is_reserved": 0, "fusion_lon": 0.0, "lat": 38.93329516666667, "is_disabled": 0, "name": "11b94d7920b674ea603d3546770808f2", "fusion_lat": 0.0, "rental_uris": {"ios": "https://dc.lft.to/lastmile_qr_scan", "android": "https://dc.lft.to/lastmile_qr_scan"}, "lon": -77.0328605, "type": "electric_scooter"}, {"bike_id": "7ba14c9bc2456cc1e09515dce5748daa", "is_reserved": 0, "fusion_lon": 0.0, "lat": 38.90167833333334, "is_disabled": 0, "name": "7ba14c9bc2456cc1e09515dce5748daa", "fusion_lat": 0.0, "rental_uris": {"ios": "https://dc.lft.to/lastmile_qr_scan", "android": "https://dc.lft.to/lastmile_qr_scan"}, "lon": -77.00008716666666, "type": "electric_scooter"}, {"bike_id": "5cafe2f4b7505660f734ab31180fdc2a", "is_reserved": 0, "fusion_lon": 0.0, "lat": 38.8641775, "is_disabled": 0, "name": "5cafe2f4b7505660f734ab31180fdc2a", "fusion_lat": 0.0, "rental_uris": {"ios": "https://dc.lft.to/lastmile_qr_scan", "android": "https://dc.lft.to/lastmile_qr_scan"}, "lon": -77.01364233333334, "type": "electric_scooter"}, {"bike_id": "be4962d739f8d5f1d5e160a7543cdbc6", "is_reserved": 0, "fusion_lon": 0.0, "lat": 38.908627, "is_disabled": 0, "name": "be4962d739f8d5f1d5e160a7543cdbc6", "fusion_lat": 0.0, "rental_uris": {"ios": "https://dc.lft.to/lastmile_qr_scan", "android": "https://dc.lft.to/lastmile_qr_scan"}, "lon": -77.003668, "type": "electric_scooter"}, {"bike_id": "f83a84f6eb7da06d059b166c4db7b82f", "is_reserved": 0, "fusion_lon": 0.0, "lat": 38.892206333333334, "is_disabled": 0, "name": "f83a84f6eb7da06d059b166c4db7b82f", "fusion_lat": 0.0, "rental_uris": {"ios": "https://dc.lft.to/lastmile_qr_scan", "android": "https://dc.lft.to/lastmile_qr_scan"}, "lon": -77.0465325, "type": "electric_scooter"}, {"bike_id": "ae8430c5d0bc1312fa8b36e7123706b9", "is_reserved": 0, "fusion_lon": 0.0, "lat": 38.90450416666667, "is_disabled": 0, "name": "ae8430c5d0bc1312fa8b36e7123706b9", "fusion_lat": 0.0, "rental_uris": {"ios": "https://dc.lft.to/lastmile_qr_scan", "android": "https://dc.lft.to/lastmile_qr_scan"}, "lon": -77.059227, "type": "electric_scooter"}, {"bike_id": "14e9cd4d55b7d95e5ef3859d195672bc", "is_reserved": 0, "fusion_lon": 0.0, "lat": 38.904083, "is_disabled": 0, "name": "14e9cd4d55b7d95e5ef3859d195672bc", "fusion_lat": 0.0, "rental_uris": {"ios": "https://dc.lft.to/lastmile_qr_scan", "android": "https://dc.lft.to/lastmile_qr_scan"}, "lon": -77.0434315, "type": "electric_scooter"}, {"bike_id": "5f32d3281950a38e2ce380715eefa1ad", "is_reserved": 0, "fusion_lon": 0.0, "lat": 38.93710866666667, "is_disabled": 0, "name": "5f32d3281950a38e2ce380715eefa1ad", "fusion_lat": 0.0, "rental_uris": {"ios": "https://dc.lft.to/lastmile_qr_scan", "android": "https://dc.lft.to/lastmile_qr_scan"}, "lon": -77.02941483333333, "type": "electric_scooter"}, {"bike_id": "d2008813d5c09f2b2a29e7099a36e1b8", "is_reserved": 0, "fusion_lon": 0.0, "lat": 38.919206333333335, "is_disabled": 0, "name": "d2008813d5c09f2b2a29e7099a36e1b8", "fusion_lat": 0.0, "rental_uris": {"ios": "https://dc.lft.to/lastmile_qr_scan", "android": "https://dc.lft.to/lastmile_qr_scan"}, "lon": -77.03194733333333, "type": "electric_scooter"}, {"bike_id": "f97f60732191bcdb6f9705b3d9d173d8", "is_reserved": 0, "fusion_lon": 0.0, "lat": 38.9287125, "is_disabled": 0, "name": "f97f60732191bcdb6f9705b3d9d173d8", "fusion_lat": 0.0, "rental_uris": {"ios": "https://dc.lft.to/lastmile_qr_scan", "android": "https://dc.lft.to/lastmile_qr_scan"}, "lon": -77.01394483333333, "type": "electric_scooter"}, {"bike_id": "0cf917f9bd6bb8a09a0f6c562b05bb69", "is_reserved": 0, "fusion_lon": 0.0, "lat": 38.90451516666667, "is_disabled": 0, "name": "0cf917f9bd6bb8a09a0f6c562b05bb69", "fusion_lat": 0.0, "rental_uris": {"ios": "https://dc.lft.to/lastmile_qr_scan", "android": "https://dc.lft.to/lastmile_qr_scan"}, "lon": -77.04027683333334, "type": "electric_scooter"}, {"bike_id": "586c8155045d1f6b2fd391fbd35888db", "is_reserved": 0, "fusion_lon": 0.0, "lat": 38.902462166666666, "is_disabled": 0, "name": "586c8155045d1f6b2fd391fbd35888db", "fusion_lat": 0.0, "rental_uris": {"ios": "https://dc.lft.to/lastmile_qr_scan", "android": "https://dc.lft.to/lastmile_qr_scan"}, "lon": -77.00717416666667, "type": "electric_scooter"}, {"bike_id": "8de7905d15c3b0b38d2c2a8267182768", "is_reserved": 0, "fusion_lon": 0.0, "lat": 38.95080733333333, "is_disabled": 0, "name": "8de7905d15c3b0b38d2c2a8267182768", "fusion_lat": 0.0, "rental_uris": {"ios": "https://dc.lft.to/lastmile_qr_scan", "android": "https://dc.lft.to/lastmile_qr_scan"}, "lon": -77.01232933333333, "type": "electric_bike"}, {"bike_id": "88a54eda29111b8a3f4859b6369a0b1d", "is_reserved": 0, "fusion_lon": 0.0, "lat": 38.89400333333333, "is_disabled": 0, "name": "88a54eda29111b8a3f4859b6369a0b1d", "fusion_lat": 0.0, "rental_uris": {"ios": "https://dc.lft.to/lastmile_qr_scan", "android": "https://dc.lft.to/lastmile_qr_scan"}, "lon": -77.022584, "type": "electric_scooter"}, {"bike_id": "0c876782edc78f217d27537191c91aa3", "is_reserved": 0, "fusion_lon": 0.0, "lat": 38.93970383333333, "is_disabled": 0, "name": "0c876782edc78f217d27537191c91aa3", "fusion_lat": 0.0, "rental_uris": {"ios": "https://dc.lft.to/lastmile_qr_scan", "android": "https://dc.lft.to/lastmile_qr_scan"}, "lon": -77.03254816666667, "type": "electric_scooter"}, {"bike_id": "bec3814c521dd946905d454a9b89cc0e", "is_reserved": 0, "fusion_lon": 0.0, "lat": 38.92485766666667, "is_disabled": 0, "name": "bec3814c521dd946905d454a9b89cc0e", "fusion_lat": 0.0, "rental_uris": {"ios": "https://dc.lft.to/lastmile_qr_scan", "android": "https://dc.lft.to/lastmile_qr_scan"}, "lon": -77.026569, "type": "electric_scooter"}, {"bike_id": "a7d651a0056d443d11d0aee88299b6ac", "is_reserved": 0, "fusion_lon": 0.0, "lat": 38.8851135, "is_disabled": 0, "name": "a7d651a0056d443d11d0aee88299b6ac", "fusion_lat": 0.0, "rental_uris": {"ios": "https://dc.lft.to/lastmile_qr_scan", "android": "https://dc.lft.to/lastmile_qr_scan"}, "lon": -77.00577366666667, "type": "electric_scooter"}, {"bike_id": "4b83ec727db382ed83d30f8066b07989", "is_reserved": 0, "fusion_lon": 0.0, "lat": 38.8899985, "is_disabled": 0, "name": "4b83ec727db382ed83d30f8066b07989", "fusion_lat": 0.0, "rental_uris": {"ios": "https://dc.lft.to/lastmile_qr_scan", "android": "https://dc.lft.to/lastmile_qr_scan"}, "lon": -76.9384165, "type": "electric_scooter"}, {"bike_id": "dc390f3c1d8e86d52a0ecfd28956bc4e", "is_reserved": 0, "fusion_lon": 0.0, "lat": 38.83726583333333, "is_disabled": 0, "name": "dc390f3c1d8e86d52a0ecfd28956bc4e", "fusion_lat": 0.0, "rental_uris": {"ios": "https://dc.lft.to/lastmile_qr_scan", "android": "https://dc.lft.to/lastmile_qr_scan"}, "lon": -76.99770916666667, "type": "electric_bike"}, {"bike_id": "9e0c816a4236823a5c280d600b98d221", "is_reserved": 0, "fusion_lon": 0.0, "lat": 38.85512583333333, "is_disabled": 0, "name": "9e0c816a4236823a5c280d600b98d221", "fusion_lat": 0.0, "rental_uris": {"ios": "https://dc.lft.to/lastmile_qr_scan", "android": "https://dc.lft.to/lastmile_qr_scan"}, "lon": -76.98432116666666, "type": "electric_bike"}, {"bike_id": "6f2df8c75d651bdfe2e0d2610f31f3c0", "is_reserved": 0, "fusion_lon": 0.0, "lat": 38.9342885, "is_disabled": 0, "name": "6f2df8c75d651bdfe2e0d2610f31f3c0", "fusion_lat": 0.0, "rental_uris": {"ios": "https://dc.lft.to/lastmile_qr_scan", "android": "https://dc.lft.to/lastmile_qr_scan"}, "lon": -77.03993616666666, "type": "electric_scooter"}, {"bike_id": "f27404ca7acd52cfdc3bc66f2f01be9b", "is_reserved": 0, "fusion_lon": 0.0, "lat": 38.913852, "is_disabled": 0, "name": "f27404ca7acd52cfdc3bc66f2f01be9b", "fusion_lat": 0.0, "rental_uris": {"ios": "https://dc.lft.to/lastmile_qr_scan", "android": "https://dc.lft.to/lastmile_qr_scan"}, "lon": -77.01702483333334, "type": "electric_scooter"}, {"bike_id": "8489040748d5638bcdfa7013a5636fe4", "is_reserved": 0, "fusion_lon": 0.0, "lat": 38.88493616666667, "is_disabled": 0, "name": "8489040748d5638bcdfa7013a5636fe4", "fusion_lat": 0.0, "rental_uris": {"ios": "https://dc.lft.to/lastmile_qr_scan", "android": "https://dc.lft.to/lastmile_qr_scan"}, "lon": -77.00346216666667, "type": "electric_scooter"}, {"bike_id": "6e2454028c1a8a56a48cc6dfba9abf5e", "is_reserved": 0, "fusion_lon": 0.0, "lat": 38.89837216666667, "is_disabled": 0, "name": "6e2454028c1a8a56a48cc6dfba9abf5e", "fusion_lat": 0.0, "rental_uris": {"ios": "https://dc.lft.to/lastmile_qr_scan", "android": "https://dc.lft.to/lastmile_qr_scan"}, "lon": -77.00746033333333, "type": "electric_scooter"}, {"bike_id": "43b601f7ca589c67669039c9e73ca238", "is_reserved": 0, "fusion_lon": 0.0, "lat": 38.89485333333333, "is_disabled": 0, "name": "43b601f7ca589c67669039c9e73ca238", "fusion_lat": 0.0, "rental_uris": {"ios": "https://dc.lft.to/lastmile_qr_scan", "android": "https://dc.lft.to/lastmile_qr_scan"}, "lon": -77.0022835, "type": "electric_scooter"}, {"bike_id": "6f8ac57f997886e47dc8bc6041fa8e1e", "is_reserved": 0, "fusion_lon": 0.0, "lat": 38.866558, "is_disabled": 0, "name": "6f8ac57f997886e47dc8bc6041fa8e1e", "fusion_lat": 0.0, "rental_uris": {"ios": "https://dc.lft.to/lastmile_qr_scan", "android": "https://dc.lft.to/lastmile_qr_scan"}, "lon": -76.98885783333333, "type": "electric_scooter"}, {"bike_id": "214928bbf932806e62e4bdfa61b150e3", "is_reserved": 0, "fusion_lon": 0.0, "lat": 38.8850855, "is_disabled": 0, "name": "214928bbf932806e62e4bdfa61b150e3", "fusion_lat": 0.0, "rental_uris": {"ios": "https://dc.lft.to/lastmile_qr_scan", "android": "https://dc.lft.to/lastmile_qr_scan"}, "lon": -77.0056695, "type": "electric_scooter"}, {"bike_id": "0fd337c2235c1dad3abb6e67e893574d", "is_reserved": 0, "fusion_lon": 0.0, "lat": 38.869265166666665, "is_disabled": 0, "name": "0fd337c2235c1dad3abb6e67e893574d", "fusion_lat": 0.0, "rental_uris": {"ios": "https://dc.lft.to/lastmile_qr_scan", "android": "https://dc.lft.to/lastmile_qr_scan"}, "lon": -76.983146, "type": "electric_scooter"}, {"bike_id": "1e5a5178055ea8263ff3018616f88a69", "is_reserved": 0, "fusion_lon": 0.0, "lat": 38.9223375, "is_disabled": 0, "name": "1e5a5178055ea8263ff3018616f88a69", "fusion_lat": 0.0, "rental_uris": {"ios": "https://dc.lft.to/lastmile_qr_scan", "android": "https://dc.lft.to/lastmile_qr_scan"}, "lon": -77.043412, "type": "electric_bike"}, {"bike_id": "60e27eb0f513ec3ec02170f10bb9205f", "is_reserved": 0, "fusion_lon": 0.0, "lat": 38.903346, "is_disabled": 0, "name": "60e27eb0f513ec3ec02170f10bb9205f", "fusion_lat": 0.0, "rental_uris": {"ios": "https://dc.lft.to/lastmile_qr_scan", "android": "https://dc.lft.to/lastmile_qr_scan"}, "lon": -77.0432975, "type": "electric_scooter"}, {"bike_id": "824ed1ddc1f4af3008cbd58f11abec2e", "is_reserved": 0, "fusion_lon": 0.0, "lat": 38.9237975, "is_disabled": 0, "name": "824ed1ddc1f4af3008cbd58f11abec2e", "fusion_lat": 0.0, "rental_uris": {"ios": "https://dc.lft.to/lastmile_qr_scan", "android": "https://dc.lft.to/lastmile_qr_scan"}, "lon": -77.035386, "type": "electric_scooter"}, {"bike_id": "c211ed099e2865abcd9c0d7500742bd7", "is_reserved": 0, "fusion_lon": 0.0, "lat": 38.92119833333334, "is_disabled": 0, "name": "c211ed099e2865abcd9c0d7500742bd7", "fusion_lat": 0.0, "rental_uris": {"ios": "https://dc.lft.to/lastmile_qr_scan", "android": "https://dc.lft.to/lastmile_qr_scan"}, "lon": -77.04587183333334, "type": "electric_scooter"}, {"bike_id": "870a0102d0ca5a25a1d1049bf9339353", "is_reserved": 0, "fusion_lon": 0.0, "lat": 38.9059855, "is_disabled": 0, "name": "870a0102d0ca5a25a1d1049bf9339353", "fusion_lat": 0.0, "rental_uris": {"ios": "https://dc.lft.to/lastmile_qr_scan", "android": "https://dc.lft.to/lastmile_qr_scan"}, "lon": -77.0437645, "type": "electric_scooter"}, {"bike_id": "218a997069aa2774bc97772c53a812f1", "is_reserved": 0, "fusion_lon": 0.0, "lat": 38.844283, "is_disabled": 0, "name": "218a997069aa2774bc97772c53a812f1", "fusion_lat": 0.0, "rental_uris": {"ios": "https://dc.lft.to/lastmile_qr_scan", "android": "https://dc.lft.to/lastmile_qr_scan"}, "lon": -76.99781633333333, "type": "electric_scooter"}, {"bike_id": "c438d9079b86b14ef71e3e301cd65756", "is_reserved": 0, "fusion_lon": 0.0, "lat": 38.903896, "is_disabled": 0, "name": "c438d9079b86b14ef71e3e301cd65756", "fusion_lat": 0.0, "rental_uris": {"ios": "https://dc.lft.to/lastmile_qr_scan", "android": "https://dc.lft.to/lastmile_qr_scan"}, "lon": -77.0301285, "type": "electric_scooter"}, {"bike_id": "363c5faf7d5f8570760a519c552a8004", "is_reserved": 0, "fusion_lon": 0.0, "lat": 38.9095405, "is_disabled": 0, "name": "363c5faf7d5f8570760a519c552a8004", "fusion_lat": 0.0, "rental_uris": {"ios": "https://dc.lft.to/lastmile_qr_scan", "android": "https://dc.lft.to/lastmile_qr_scan"}, "lon": -77.03284016666667, "type": "electric_scooter"}, {"bike_id": "0ae58bf0cc2d6596a388a2af1868af6b", "is_reserved": 0, "fusion_lon": 0.0, "lat": 38.872175, "is_disabled": 0, "name": "0ae58bf0cc2d6596a388a2af1868af6b", "fusion_lat": 0.0, "rental_uris": {"ios": "https://dc.lft.to/lastmile_qr_scan", "android": "https://dc.lft.to/lastmile_qr_scan"}, "lon": -77.0057665, "type": "electric_scooter"}, {"bike_id": "de266314a833955e15ea3597e2ba7f2b", "is_reserved": 0, "fusion_lon": 0.0, "lat": 38.898784166666665, "is_disabled": 0, "name": "de266314a833955e15ea3597e2ba7f2b", "fusion_lat": 0.0, "rental_uris": {"ios": "https://dc.lft.to/lastmile_qr_scan", "android": "https://dc.lft.to/lastmile_qr_scan"}, "lon": -76.93186966666667, "type": "electric_scooter"}, {"bike_id": "5e568e8103b4938b7ed2fdd6b089ec10", "is_reserved": 0, "fusion_lon": 0.0, "lat": 38.91703833333333, "is_disabled": 0, "name": "5e568e8103b4938b7ed2fdd6b089ec10", "fusion_lat": 0.0, "rental_uris": {"ios": "https://dc.lft.to/lastmile_qr_scan", "android": "https://dc.lft.to/lastmile_qr_scan"}, "lon": -77.03450833333333, "type": "electric_scooter"}, {"bike_id": "90df58e9c3f465e8c3a17b53c40e8288", "is_reserved": 0, "fusion_lon": 0.0, "lat": 38.92062766666667, "is_disabled": 0, "name": "90df58e9c3f465e8c3a17b53c40e8288", "fusion_lat": 0.0, "rental_uris": {"ios": "https://dc.lft.to/lastmile_qr_scan", "android": "https://dc.lft.to/lastmile_qr_scan"}, "lon": -77.04200866666666, "type": "electric_scooter"}, {"bike_id": "2e2e1d083859e7d688ecce775c949060", "is_reserved": 0, "fusion_lon": 0.0, "lat": 38.933834166666664, "is_disabled": 0, "name": "2e2e1d083859e7d688ecce775c949060", "fusion_lat": 0.0, "rental_uris": {"ios": "https://dc.lft.to/lastmile_qr_scan", "android": "https://dc.lft.to/lastmile_qr_scan"}, "lon": -77.02909516666666, "type": "electric_scooter"}, {"bike_id": "c98a0af336343b288f65b01432b1cb29", "is_reserved": 0, "fusion_lon": 0.0, "lat": 38.908498, "is_disabled": 0, "name": "c98a0af336343b288f65b01432b1cb29", "fusion_lat": 0.0, "rental_uris": {"ios": "https://dc.lft.to/lastmile_qr_scan", "android": "https://dc.lft.to/lastmile_qr_scan"}, "lon": -77.085327, "type": "electric_scooter"}, {"bike_id": "98147a7fe30dc87926ef500146b8de69", "is_reserved": 0, "fusion_lon": 0.0, "lat": 38.8923135, "is_disabled": 0, "name": "98147a7fe30dc87926ef500146b8de69", "fusion_lat": 0.0, "rental_uris": {"ios": "https://dc.lft.to/lastmile_qr_scan", "android": "https://dc.lft.to/lastmile_qr_scan"}, "lon": -77.050014, "type": "electric_scooter"}, {"bike_id": "2652dd794304ec8396e41b752c65da0f", "is_reserved": 0, "fusion_lon": 0.0, "lat": 38.870715, "is_disabled": 0, "name": "2652dd794304ec8396e41b752c65da0f", "fusion_lat": 0.0, "rental_uris": {"ios": "https://dc.lft.to/lastmile_qr_scan", "android": "https://dc.lft.to/lastmile_qr_scan"}, "lon": -76.98237866666666, "type": "electric_scooter"}, {"bike_id": "e0df223a58565f188b10ee9874bd185f", "is_reserved": 0, "fusion_lon": 0.0, "lat": 38.924707833333336, "is_disabled": 0, "name": "e0df223a58565f188b10ee9874bd185f", "fusion_lat": 0.0, "rental_uris": {"ios": "https://dc.lft.to/lastmile_qr_scan", "android": "https://dc.lft.to/lastmile_qr_scan"}, "lon": -77.02270883333334, "type": "electric_scooter"}, {"bike_id": "08d3e30665217ac52239f7cf89063854", "is_reserved": 0, "fusion_lon": 0.0, "lat": 38.883598666666664, "is_disabled": 0, "name": "08d3e30665217ac52239f7cf89063854", "fusion_lat": 0.0, "rental_uris": {"ios": "https://dc.lft.to/lastmile_qr_scan", "android": "https://dc.lft.to/lastmile_qr_scan"}, "lon": -77.031743, "type": "electric_scooter"}, {"bike_id": "1b4265c9a8599f382549586ded166c50", "is_reserved": 0, "fusion_lon": 0.0, "lat": 38.89233766666667, "is_disabled": 0, "name": "1b4265c9a8599f382549586ded166c50", "fusion_lat": 0.0, "rental_uris": {"ios": "https://dc.lft.to/lastmile_qr_scan", "android": "https://dc.lft.to/lastmile_qr_scan"}, "lon": -77.028028, "type": "electric_scooter"}, {"bike_id": "93e71421ebe96e6f92ffb50da20dba13", "is_reserved": 0, "fusion_lon": 0.0, "lat": 38.91790666666667, "is_disabled": 0, "name": "93e71421ebe96e6f92ffb50da20dba13", "fusion_lat": 0.0, "rental_uris": {"ios": "https://dc.lft.to/lastmile_qr_scan", "android": "https://dc.lft.to/lastmile_qr_scan"}, "lon": -77.02324816666666, "type": "electric_scooter"}, {"bike_id": "eb168b07580a3a262205cf784ecb1af2", "is_reserved": 0, "fusion_lon": 0.0, "lat": 38.927499833333336, "is_disabled": 0, "name": "eb168b07580a3a262205cf784ecb1af2", "fusion_lat": 0.0, "rental_uris": {"ios": "https://dc.lft.to/lastmile_qr_scan", "android": "https://dc.lft.to/lastmile_qr_scan"}, "lon": -77.02540783333333, "type": "electric_scooter"}, {"bike_id": "fa3733fa1f845286c1d6faa717317108", "is_reserved": 0, "fusion_lon": 0.0, "lat": 38.9455155, "is_disabled": 0, "name": "fa3733fa1f845286c1d6faa717317108", "fusion_lat": 0.0, "rental_uris": {"ios": "https://dc.lft.to/lastmile_qr_scan", "android": "https://dc.lft.to/lastmile_qr_scan"}, "lon": -76.89536133333333, "type": "electric_bike"}, {"bike_id": "93e5920e1c6e286696d0de116c2a52d0", "is_reserved": 0, "fusion_lon": 0.0, "lat": 38.95250816666667, "is_disabled": 0, "name": "93e5920e1c6e286696d0de116c2a52d0", "fusion_lat": 0.0, "rental_uris": {"ios": "https://dc.lft.to/lastmile_qr_scan", "android": "https://dc.lft.to/lastmile_qr_scan"}, "lon": -77.0699675, "type": "electric_scooter"}, {"bike_id": "908607fd56679bb58b04179d1dcc1e82", "is_reserved": 0, "fusion_lon": 0.0, "lat": 38.89222633333333, "is_disabled": 0, "name": "908607fd56679bb58b04179d1dcc1e82", "fusion_lat": 0.0, "rental_uris": {"ios": "https://dc.lft.to/lastmile_qr_scan", "android": "https://dc.lft.to/lastmile_qr_scan"}, "lon": -77.04363066666667, "type": "electric_scooter"}, {"bike_id": "3f33d8232e74d395775bc08faae7a861", "is_reserved": 0, "fusion_lon": 0.0, "lat": 38.86563433333333, "is_disabled": 0, "name": "3f33d8232e74d395775bc08faae7a861", "fusion_lat": 0.0, "rental_uris": {"ios": "https://dc.lft.to/lastmile_qr_scan", "android": "https://dc.lft.to/lastmile_qr_scan"}, "lon": -76.98949983333333, "type": "electric_scooter"}, {"bike_id": "e6209b3ce75a55cdaea043d6633f3ff7", "is_reserved": 0, "fusion_lon": 0.0, "lat": 38.913907, "is_disabled": 0, "name": "e6209b3ce75a55cdaea043d6633f3ff7", "fusion_lat": 0.0, "rental_uris": {"ios": "https://dc.lft.to/lastmile_qr_scan", "android": "https://dc.lft.to/lastmile_qr_scan"}, "lon": -77.017044, "type": "electric_scooter"}, {"bike_id": "50ec29fa8a3ead3ff5b9a61483af6934", "is_reserved": 0, "fusion_lon": 0.0, "lat": 38.90609716666667, "is_disabled": 0, "name": "50ec29fa8a3ead3ff5b9a61483af6934", "fusion_lat": 0.0, "rental_uris": {"ios": "https://dc.lft.to/lastmile_qr_scan", "android": "https://dc.lft.to/lastmile_qr_scan"}, "lon": -77.06304283333333, "type": "electric_scooter"}, {"bike_id": "4578f7ec2f1f40a2637e421f10b900ef", "is_reserved": 0, "fusion_lon": 0.0, "lat": 38.915148, "is_disabled": 0, "name": "4578f7ec2f1f40a2637e421f10b900ef", "fusion_lat": 0.0, "rental_uris": {"ios": "https://dc.lft.to/lastmile_qr_scan", "android": "https://dc.lft.to/lastmile_qr_scan"}, "lon": -77.01225166666667, "type": "electric_scooter"}, {"bike_id": "d61974bd18928111f9857d72ceea27dd", "is_reserved": 0, "fusion_lon": 0.0, "lat": 38.8618325, "is_disabled": 0, "name": "d61974bd18928111f9857d72ceea27dd", "fusion_lat": 0.0, "rental_uris": {"ios": "https://dc.lft.to/lastmile_qr_scan", "android": "https://dc.lft.to/lastmile_qr_scan"}, "lon": -76.96915183333333, "type": "electric_scooter"}, {"bike_id": "43fd207f2fa567cb40904442846cb059", "is_reserved": 0, "fusion_lon": 0.0, "lat": 38.89829316666667, "is_disabled": 0, "name": "43fd207f2fa567cb40904442846cb059", "fusion_lat": 0.0, "rental_uris": {"ios": "https://dc.lft.to/lastmile_qr_scan", "android": "https://dc.lft.to/lastmile_qr_scan"}, "lon": -77.0334535, "type": "electric_scooter"}, {"bike_id": "8b4e3960898d9c4696338277bb131b8c", "is_reserved": 0, "fusion_lon": 0.0, "lat": 38.90966366666667, "is_disabled": 0, "name": "8b4e3960898d9c4696338277bb131b8c", "fusion_lat": 0.0, "rental_uris": {"ios": "https://dc.lft.to/lastmile_qr_scan", "android": "https://dc.lft.to/lastmile_qr_scan"}, "lon": -77.03268083333333, "type": "electric_scooter"}, {"bike_id": "eb536645069a7d0d9c96d96093495fa0", "is_reserved": 0, "fusion_lon": 0.0, "lat": 38.91703733333333, "is_disabled": 0, "name": "eb536645069a7d0d9c96d96093495fa0", "fusion_lat": 0.0, "rental_uris": {"ios": "https://dc.lft.to/lastmile_qr_scan", "android": "https://dc.lft.to/lastmile_qr_scan"}, "lon": -77.022214, "type": "electric_scooter"}, {"bike_id": "fc75ad23cbdd5d52cb1731508681264b", "is_reserved": 0, "fusion_lon": 0.0, "lat": 38.92037033333333, "is_disabled": 0, "name": "fc75ad23cbdd5d52cb1731508681264b", "fusion_lat": 0.0, "rental_uris": {"ios": "https://dc.lft.to/lastmile_qr_scan", "android": "https://dc.lft.to/lastmile_qr_scan"}, "lon": -77.0259115, "type": "electric_scooter"}, {"bike_id": "35bda1b33bee09b303b41d2ac235b857", "is_reserved": 0, "fusion_lon": 0.0, "lat": 38.9000455, "is_disabled": 0, "name": "35bda1b33bee09b303b41d2ac235b857", "fusion_lat": 0.0, "rental_uris": {"ios": "https://dc.lft.to/lastmile_qr_scan", "android": "https://dc.lft.to/lastmile_qr_scan"}, "lon": -77.046385, "type": "electric_scooter"}, {"bike_id": "68106ee2133a92cbed99f2bae7d2fb6e", "is_reserved": 0, "fusion_lon": 0.0, "lat": 38.907488, "is_disabled": 0, "name": "68106ee2133a92cbed99f2bae7d2fb6e", "fusion_lat": 0.0, "rental_uris": {"ios": "https://dc.lft.to/lastmile_qr_scan", "android": "https://dc.lft.to/lastmile_qr_scan"}, "lon": -77.03470616666667, "type": "electric_scooter"}, {"bike_id": "2c2d60ba5cb2b614b3bbd2f6387a6f49", "is_reserved": 0, "fusion_lon": 0.0, "lat": 38.973297, "is_disabled": 0, "name": "2c2d60ba5cb2b614b3bbd2f6387a6f49", "fusion_lat": 0.0, "rental_uris": {"ios": "https://dc.lft.to/lastmile_qr_scan", "android": "https://dc.lft.to/lastmile_qr_scan"}, "lon": -77.02152166666667, "type": "electric_bike"}, {"bike_id": "67748a989fe93d17bea71f9596f197cf", "is_reserved": 0, "fusion_lon": 0.0, "lat": 38.84420133333333, "is_disabled": 0, "name": "67748a989fe93d17bea71f9596f197cf", "fusion_lat": 0.0, "rental_uris": {"ios": "https://dc.lft.to/lastmile_qr_scan", "android": "https://dc.lft.to/lastmile_qr_scan"}, "lon": -76.99775716666667, "type": "electric_scooter"}, {"bike_id": "70809f9782c1d6c50f7c27e76840b262", "is_reserved": 0, "fusion_lon": 0.0, "lat": 38.898325166666666, "is_disabled": 0, "name": "70809f9782c1d6c50f7c27e76840b262", "fusion_lat": 0.0, "rental_uris": {"ios": "https://dc.lft.to/lastmile_qr_scan", "android": "https://dc.lft.to/lastmile_qr_scan"}, "lon": -76.94634733333334, "type": "electric_scooter"}, {"bike_id": "3ad43fd06935d33ca7082747215ca57a", "is_reserved": 0, "fusion_lon": 0.0, "lat": 38.9024035, "is_disabled": 0, "name": "3ad43fd06935d33ca7082747215ca57a", "fusion_lat": 0.0, "rental_uris": {"ios": "https://dc.lft.to/lastmile_qr_scan", "android": "https://dc.lft.to/lastmile_qr_scan"}, "lon": -77.00202216666666, "type": "electric_scooter"}, {"bike_id": "4c9fe324a86ea37854feb57537c93f02", "is_reserved": 0, "fusion_lon": 0.0, "lat": 38.887448666666664, "is_disabled": 0, "name": "4c9fe324a86ea37854feb57537c93f02", "fusion_lat": 0.0, "rental_uris": {"ios": "https://dc.lft.to/lastmile_qr_scan", "android": "https://dc.lft.to/lastmile_qr_scan"}, "lon": -77.0313145, "type": "electric_scooter"}, {"bike_id": "c7d2c2d98800223ff53973f98c0465d0", "is_reserved": 0, "fusion_lon": 0.0, "lat": 38.90253583333333, "is_disabled": 0, "name": "c7d2c2d98800223ff53973f98c0465d0", "fusion_lat": 0.0, "rental_uris": {"ios": "https://dc.lft.to/lastmile_qr_scan", "android": "https://dc.lft.to/lastmile_qr_scan"}, "lon": -77.0279425, "type": "electric_scooter"}, {"bike_id": "068e66abd6071182219ea809e55604a5", "is_reserved": 0, "fusion_lon": 0.0, "lat": 38.93532183333333, "is_disabled": 0, "name": "068e66abd6071182219ea809e55604a5", "fusion_lat": 0.0, "rental_uris": {"ios": "https://dc.lft.to/lastmile_qr_scan", "android": "https://dc.lft.to/lastmile_qr_scan"}, "lon": -77.02352283333333, "type": "electric_scooter"}, {"bike_id": "60f911819861b9a349bc0715b9836e90", "is_reserved": 0, "fusion_lon": 0.0, "lat": 38.883679666666666, "is_disabled": 0, "name": "60f911819861b9a349bc0715b9836e90", "fusion_lat": 0.0, "rental_uris": {"ios": "https://dc.lft.to/lastmile_qr_scan", "android": "https://dc.lft.to/lastmile_qr_scan"}, "lon": -76.99531083333333, "type": "electric_scooter"}, {"bike_id": "1511cb997167f037a3cf33a9fc1c216a", "is_reserved": 0, "fusion_lon": 0.0, "lat": 38.9125735, "is_disabled": 0, "name": "1511cb997167f037a3cf33a9fc1c216a", "fusion_lat": 0.0, "rental_uris": {"ios": "https://dc.lft.to/lastmile_qr_scan", "android": "https://dc.lft.to/lastmile_qr_scan"}, "lon": -77.01207533333333, "type": "electric_scooter"}, {"bike_id": "fcb55118250a08ab5c6c84cf8b70c7b1", "is_reserved": 0, "fusion_lon": 0.0, "lat": 38.953802833333334, "is_disabled": 0, "name": "fcb55118250a08ab5c6c84cf8b70c7b1", "fusion_lat": 0.0, "rental_uris": {"ios": "https://dc.lft.to/lastmile_qr_scan", "android": "https://dc.lft.to/lastmile_qr_scan"}, "lon": -76.99916566666667, "type": "electric_scooter"}, {"bike_id": "7f93afaa78fdc60bcb4b7a44ddc352d9", "is_reserved": 0, "fusion_lon": 0.0, "lat": 38.88235516666667, "is_disabled": 0, "name": "7f93afaa78fdc60bcb4b7a44ddc352d9", "fusion_lat": 0.0, "rental_uris": {"ios": "https://dc.lft.to/lastmile_qr_scan", "android": "https://dc.lft.to/lastmile_qr_scan"}, "lon": -76.990846, "type": "electric_scooter"}, {"bike_id": "9c4208c6b1a696309e785597be083dfa", "is_reserved": 0, "fusion_lon": 0.0, "lat": 38.919919, "is_disabled": 0, "name": "9c4208c6b1a696309e785597be083dfa", "fusion_lat": 0.0, "rental_uris": {"ios": "https://dc.lft.to/lastmile_qr_scan", "android": "https://dc.lft.to/lastmile_qr_scan"}, "lon": -76.97311033333334, "type": "electric_scooter"}, {"bike_id": "e75e26f20e02c589ff0a372051e1546b", "is_reserved": 0, "fusion_lon": 0.0, "lat": 38.887712, "is_disabled": 0, "name": "e75e26f20e02c589ff0a372051e1546b", "fusion_lat": 0.0, "rental_uris": {"ios": "https://dc.lft.to/lastmile_qr_scan", "android": "https://dc.lft.to/lastmile_qr_scan"}, "lon": -77.02037333333334, "type": "electric_scooter"}, {"bike_id": "d124cdf2c1e566bc9d1fd782492d3d49", "is_reserved": 0, "fusion_lon": 0.0, "lat": 38.9011435, "is_disabled": 0, "name": "d124cdf2c1e566bc9d1fd782492d3d49", "fusion_lat": 0.0, "rental_uris": {"ios": "https://dc.lft.to/lastmile_qr_scan", "android": "https://dc.lft.to/lastmile_qr_scan"}, "lon": -77.02584583333334, "type": "electric_scooter"}, {"bike_id": "ebb725ed2f69677ffe6d3f239f59599b", "is_reserved": 0, "fusion_lon": 0.0, "lat": 38.96497466666667, "is_disabled": 0, "name": "ebb725ed2f69677ffe6d3f239f59599b", "fusion_lat": 0.0, "rental_uris": {"ios": "https://dc.lft.to/lastmile_qr_scan", "android": "https://dc.lft.to/lastmile_qr_scan"}, "lon": -77.0648855, "type": "electric_bike"}, {"bike_id": "4eef5b9a79968cfbf5cbfec8f35e4edf", "is_reserved": 0, "fusion_lon": 0.0, "lat": 38.93692716666666, "is_disabled": 0, "name": "4eef5b9a79968cfbf5cbfec8f35e4edf", "fusion_lat": 0.0, "rental_uris": {"ios": "https://dc.lft.to/lastmile_qr_scan", "android": "https://dc.lft.to/lastmile_qr_scan"}, "lon": -77.02713233333333, "type": "electric_scooter"}, {"bike_id": "fb4cbc71a443afe7541439ba15c26179", "is_reserved": 0, "fusion_lon": 0.0, "lat": 38.918736833333334, "is_disabled": 0, "name": "fb4cbc71a443afe7541439ba15c26179", "fusion_lat": 0.0, "rental_uris": {"ios": "https://dc.lft.to/lastmile_qr_scan", "android": "https://dc.lft.to/lastmile_qr_scan"}, "lon": -77.044719, "type": "electric_scooter"}, {"bike_id": "0bc0591b2b014a9fe410e2c517e36256", "is_reserved": 0, "fusion_lon": 0.0, "lat": 38.907353666666666, "is_disabled": 0, "name": "0bc0591b2b014a9fe410e2c517e36256", "fusion_lat": 0.0, "rental_uris": {"ios": "https://dc.lft.to/lastmile_qr_scan", "android": "https://dc.lft.to/lastmile_qr_scan"}, "lon": -77.00066833333334, "type": "electric_scooter"}, {"bike_id": "58a288dfaba83ae29d9cd63a6d49955f", "is_reserved": 0, "fusion_lon": 0.0, "lat": 38.93110033333333, "is_disabled": 0, "name": "58a288dfaba83ae29d9cd63a6d49955f", "fusion_lat": 0.0, "rental_uris": {"ios": "https://dc.lft.to/lastmile_qr_scan", "android": "https://dc.lft.to/lastmile_qr_scan"}, "lon": -77.02142833333333, "type": "electric_scooter"}, {"bike_id": "b5f7eef811afb1c6426a91f8e21e7af8", "is_reserved": 0, "fusion_lon": 0.0, "lat": 38.888299, "is_disabled": 0, "name": "b5f7eef811afb1c6426a91f8e21e7af8", "fusion_lat": 0.0, "rental_uris": {"ios": "https://dc.lft.to/lastmile_qr_scan", "android": "https://dc.lft.to/lastmile_qr_scan"}, "lon": -77.0495085, "type": "electric_scooter"}, {"bike_id": "19e36de9044f334dba303fe1c6d90291", "is_reserved": 0, "fusion_lon": 0.0, "lat": 38.91721283333333, "is_disabled": 0, "name": "19e36de9044f334dba303fe1c6d90291", "fusion_lat": 0.0, "rental_uris": {"ios": "https://dc.lft.to/lastmile_qr_scan", "android": "https://dc.lft.to/lastmile_qr_scan"}, "lon": -77.036139, "type": "electric_scooter"}, {"bike_id": "245aac5d82ebe3bdb6d5565814aa8fef", "is_reserved": 0, "fusion_lon": 0.0, "lat": 38.90500683333333, "is_disabled": 0, "name": "245aac5d82ebe3bdb6d5565814aa8fef", "fusion_lat": 0.0, "rental_uris": {"ios": "https://dc.lft.to/lastmile_qr_scan", "android": "https://dc.lft.to/lastmile_qr_scan"}, "lon": -77.04348383333334, "type": "electric_scooter"}, {"bike_id": "16b15e2f9db87f74717d3ecbc3832084", "is_reserved": 0, "fusion_lon": 0.0, "lat": 38.8901385, "is_disabled": 0, "name": "16b15e2f9db87f74717d3ecbc3832084", "fusion_lat": 0.0, "rental_uris": {"ios": "https://dc.lft.to/lastmile_qr_scan", "android": "https://dc.lft.to/lastmile_qr_scan"}, "lon": -76.9374, "type": "electric_scooter"}, {"bike_id": "a96d92803dd16e4943ececf2101b3653", "is_reserved": 0, "fusion_lon": 0.0, "lat": 38.912657333333335, "is_disabled": 0, "name": "a96d92803dd16e4943ececf2101b3653", "fusion_lat": 0.0, "rental_uris": {"ios": "https://dc.lft.to/lastmile_qr_scan", "android": "https://dc.lft.to/lastmile_qr_scan"}, "lon": -77.02881183333334, "type": "electric_scooter"}, {"bike_id": "c233e0c9cc77e2faa45a89186c00f2a4", "is_reserved": 0, "fusion_lon": 0.0, "lat": 38.866575166666664, "is_disabled": 0, "name": "c233e0c9cc77e2faa45a89186c00f2a4", "fusion_lat": 0.0, "rental_uris": {"ios": "https://dc.lft.to/lastmile_qr_scan", "android": "https://dc.lft.to/lastmile_qr_scan"}, "lon": -76.98905616666667, "type": "electric_scooter"}, {"bike_id": "a98b19a7d16e40d94747795119689b9a", "is_reserved": 0, "fusion_lon": 0.0, "lat": 38.88433833333333, "is_disabled": 0, "name": "a98b19a7d16e40d94747795119689b9a", "fusion_lat": 0.0, "rental_uris": {"ios": "https://dc.lft.to/lastmile_qr_scan", "android": "https://dc.lft.to/lastmile_qr_scan"}, "lon": -76.957585, "type": "electric_scooter"}, {"bike_id": "a8255a9dfd29c260b6513e5bff8f3226", "is_reserved": 0, "fusion_lon": 0.0, "lat": 38.89833316666667, "is_disabled": 0, "name": "a8255a9dfd29c260b6513e5bff8f3226", "fusion_lat": 0.0, "rental_uris": {"ios": "https://dc.lft.to/lastmile_qr_scan", "android": "https://dc.lft.to/lastmile_qr_scan"}, "lon": -76.94638516666667, "type": "electric_scooter"}, {"bike_id": "966d7a61c23d9157e761fe76d3881184", "is_reserved": 0, "fusion_lon": 0.0, "lat": 38.90979083333333, "is_disabled": 0, "name": "966d7a61c23d9157e761fe76d3881184", "fusion_lat": 0.0, "rental_uris": {"ios": "https://dc.lft.to/lastmile_qr_scan", "android": "https://dc.lft.to/lastmile_qr_scan"}, "lon": -77.04876983333334, "type": "electric_scooter"}, {"bike_id": "07037acdab1711d1a8adf1ba7eebae57", "is_reserved": 0, "fusion_lon": 0.0, "lat": 38.890608666666665, "is_disabled": 0, "name": "07037acdab1711d1a8adf1ba7eebae57", "fusion_lat": 0.0, "rental_uris": {"ios": "https://dc.lft.to/lastmile_qr_scan", "android": "https://dc.lft.to/lastmile_qr_scan"}, "lon": -77.0230385, "type": "electric_scooter"}, {"bike_id": "df65a0d079e5fc4b0268271abe1eb032", "is_reserved": 0, "fusion_lon": 0.0, "lat": 38.910383333333336, "is_disabled": 0, "name": "df65a0d079e5fc4b0268271abe1eb032", "fusion_lat": 0.0, "rental_uris": {"ios": "https://dc.lft.to/lastmile_qr_scan", "android": "https://dc.lft.to/lastmile_qr_scan"}, "lon": -77.04389766666667, "type": "electric_scooter"}, {"bike_id": "a60a7ae62f54ce8f5e5e955503b633b4", "is_reserved": 0, "fusion_lon": 0.0, "lat": 38.8983275, "is_disabled": 0, "name": "a60a7ae62f54ce8f5e5e955503b633b4", "fusion_lat": 0.0, "rental_uris": {"ios": "https://dc.lft.to/lastmile_qr_scan", "android": "https://dc.lft.to/lastmile_qr_scan"}, "lon": -77.02873133333334, "type": "electric_scooter"}, {"bike_id": "524a3837ef3e672f84bf674c4e39cf39", "is_reserved": 0, "fusion_lon": 0.0, "lat": 38.905774666666666, "is_disabled": 0, "name": "524a3837ef3e672f84bf674c4e39cf39", "fusion_lat": 0.0, "rental_uris": {"ios": "https://dc.lft.to/lastmile_qr_scan", "android": "https://dc.lft.to/lastmile_qr_scan"}, "lon": -77.03829433333334, "type": "electric_scooter"}, {"bike_id": "6e71fe1a65c32431397e1e6de0872dd9", "is_reserved": 0, "fusion_lon": 0.0, "lat": 38.9101665, "is_disabled": 0, "name": "6e71fe1a65c32431397e1e6de0872dd9", "fusion_lat": 0.0, "rental_uris": {"ios": "https://dc.lft.to/lastmile_qr_scan", "android": "https://dc.lft.to/lastmile_qr_scan"}, "lon": -77.03452183333333, "type": "electric_scooter"}, {"bike_id": "d841cf7c2498ce706d58699d26043c51", "is_reserved": 0, "fusion_lon": 0.0, "lat": 38.91883983333334, "is_disabled": 0, "name": "d841cf7c2498ce706d58699d26043c51", "fusion_lat": 0.0, "rental_uris": {"ios": "https://dc.lft.to/lastmile_qr_scan", "android": "https://dc.lft.to/lastmile_qr_scan"}, "lon": -77.02958383333333, "type": "electric_scooter"}, {"bike_id": "f83dd1bec632a01f7026dd65f38e2e28", "is_reserved": 0, "fusion_lon": 0.0, "lat": 38.842898166666664, "is_disabled": 0, "name": "f83dd1bec632a01f7026dd65f38e2e28", "fusion_lat": 0.0, "rental_uris": {"ios": "https://dc.lft.to/lastmile_qr_scan", "android": "https://dc.lft.to/lastmile_qr_scan"}, "lon": -76.999465, "type": "electric_scooter"}, {"bike_id": "9ddc2822567e099444b1271bfde87a1f", "is_reserved": 0, "fusion_lon": 0.0, "lat": 38.9234485, "is_disabled": 0, "name": "9ddc2822567e099444b1271bfde87a1f", "fusion_lat": 0.0, "rental_uris": {"ios": "https://dc.lft.to/lastmile_qr_scan", "android": "https://dc.lft.to/lastmile_qr_scan"}, "lon": -77.03513033333333, "type": "electric_scooter"}, {"bike_id": "37d033bb11f2460ac64e8a7ab98ccc9f", "is_reserved": 0, "fusion_lon": 0.0, "lat": 38.88470133333333, "is_disabled": 0, "name": "37d033bb11f2460ac64e8a7ab98ccc9f", "fusion_lat": 0.0, "rental_uris": {"ios": "https://dc.lft.to/lastmile_qr_scan", "android": "https://dc.lft.to/lastmile_qr_scan"}, "lon": -77.01504616666666, "type": "electric_scooter"}, {"bike_id": "69079b99d1465d958a6ce8e6fc4cedf2", "is_reserved": 0, "fusion_lon": 0.0, "lat": 38.899997666666664, "is_disabled": 0, "name": "69079b99d1465d958a6ce8e6fc4cedf2", "fusion_lat": 0.0, "rental_uris": {"ios": "https://dc.lft.to/lastmile_qr_scan", "android": "https://dc.lft.to/lastmile_qr_scan"}, "lon": -77.006644, "type": "electric_scooter"}, {"bike_id": "ff6f1c802f55c1db67c162059ca25a2a", "is_reserved": 0, "fusion_lon": 0.0, "lat": 38.907590666666664, "is_disabled": 0, "name": "ff6f1c802f55c1db67c162059ca25a2a", "fusion_lat": 0.0, "rental_uris": {"ios": "https://dc.lft.to/lastmile_qr_scan", "android": "https://dc.lft.to/lastmile_qr_scan"}, "lon": -77.0308395, "type": "electric_scooter"}, {"bike_id": "6babdac7acb5c856617d73335b3f7150", "is_reserved": 0, "fusion_lon": 0.0, "lat": 38.86625133333333, "is_disabled": 0, "name": "6babdac7acb5c856617d73335b3f7150", "fusion_lat": 0.0, "rental_uris": {"ios": "https://dc.lft.to/lastmile_qr_scan", "android": "https://dc.lft.to/lastmile_qr_scan"}, "lon": -76.98698983333334, "type": "electric_scooter"}, {"bike_id": "0b49a1dbbb6860f09fcd052d418b1601", "is_reserved": 0, "fusion_lon": 0.0, "lat": 38.85748233333333, "is_disabled": 0, "name": "0b49a1dbbb6860f09fcd052d418b1601", "fusion_lat": 0.0, "rental_uris": {"ios": "https://dc.lft.to/lastmile_qr_scan", "android": "https://dc.lft.to/lastmile_qr_scan"}, "lon": -76.98846116666667, "type": "electric_bike"}, {"bike_id": "35e79d32f06407208b2ce0b272696d84", "is_reserved": 0, "fusion_lon": 0.0, "lat": 38.9214655, "is_disabled": 0, "name": "35e79d32f06407208b2ce0b272696d84", "fusion_lat": 0.0, "rental_uris": {"ios": "https://dc.lft.to/lastmile_qr_scan", "android": "https://dc.lft.to/lastmile_qr_scan"}, "lon": -77.01807866666667, "type": "electric_scooter"}, {"bike_id": "d5bff5d6d61d063c71afe144c1e2ae97", "is_reserved": 0, "fusion_lon": 0.0, "lat": 38.96395966666667, "is_disabled": 0, "name": "d5bff5d6d61d063c71afe144c1e2ae97", "fusion_lat": 0.0, "rental_uris": {"ios": "https://dc.lft.to/lastmile_qr_scan", "android": "https://dc.lft.to/lastmile_qr_scan"}, "lon": -77.0259475, "type": "electric_scooter"}, {"bike_id": "dcc323cbb58f4207e8cebb7d149e223a", "is_reserved": 0, "fusion_lon": 0.0, "lat": 38.925584, "is_disabled": 0, "name": "dcc323cbb58f4207e8cebb7d149e223a", "fusion_lat": 0.0, "rental_uris": {"ios": "https://dc.lft.to/lastmile_qr_scan", "android": "https://dc.lft.to/lastmile_qr_scan"}, "lon": -77.07329866666667, "type": "electric_bike"}, {"bike_id": "d7ee5a92821149c9e2afe7edc26ead95", "is_reserved": 0, "fusion_lon": 0.0, "lat": 38.86529816666667, "is_disabled": 0, "name": "d7ee5a92821149c9e2afe7edc26ead95", "fusion_lat": 0.0, "rental_uris": {"ios": "https://dc.lft.to/lastmile_qr_scan", "android": "https://dc.lft.to/lastmile_qr_scan"}, "lon": -76.9904355, "type": "electric_scooter"}, {"bike_id": "c64a8b9f6da797e8ad2db8151e5d4309", "is_reserved": 0, "fusion_lon": 0.0, "lat": 38.9002905, "is_disabled": 0, "name": "c64a8b9f6da797e8ad2db8151e5d4309", "fusion_lat": 0.0, "rental_uris": {"ios": "https://dc.lft.to/lastmile_qr_scan", "android": "https://dc.lft.to/lastmile_qr_scan"}, "lon": -76.99816866666667, "type": "electric_scooter"}, {"bike_id": "7a3b322b75304996c5b89edc697c2fe6", "is_reserved": 0, "fusion_lon": 0.0, "lat": 38.91813783333333, "is_disabled": 0, "name": "7a3b322b75304996c5b89edc697c2fe6", "fusion_lat": 0.0, "rental_uris": {"ios": "https://dc.lft.to/lastmile_qr_scan", "android": "https://dc.lft.to/lastmile_qr_scan"}, "lon": -77.03204216666667, "type": "electric_scooter"}, {"bike_id": "fe9f9fd35336aa01692cef89b5b8a926", "is_reserved": 0, "fusion_lon": 0.0, "lat": 38.910275666666664, "is_disabled": 0, "name": "fe9f9fd35336aa01692cef89b5b8a926", "fusion_lat": 0.0, "rental_uris": {"ios": "https://dc.lft.to/lastmile_qr_scan", "android": "https://dc.lft.to/lastmile_qr_scan"}, "lon": -77.03851916666666, "type": "electric_scooter"}, {"bike_id": "1b88ee7f6551f6a20703027813db4c48", "is_reserved": 0, "fusion_lon": 0.0, "lat": 38.8837325, "is_disabled": 0, "name": "1b88ee7f6551f6a20703027813db4c48", "fusion_lat": 0.0, "rental_uris": {"ios": "https://dc.lft.to/lastmile_qr_scan", "android": "https://dc.lft.to/lastmile_qr_scan"}, "lon": -76.99521516666667, "type": "electric_scooter"}, {"bike_id": "e846a83a8f25cefa90ba6580b17d7589", "is_reserved": 0, "fusion_lon": 0.0, "lat": 38.92872166666667, "is_disabled": 0, "name": "e846a83a8f25cefa90ba6580b17d7589", "fusion_lat": 0.0, "rental_uris": {"ios": "https://dc.lft.to/lastmile_qr_scan", "android": "https://dc.lft.to/lastmile_qr_scan"}, "lon": -77.03259116666666, "type": "electric_scooter"}, {"bike_id": "3281ad1261f07dfe72232b349e51d860", "is_reserved": 0, "fusion_lon": 0.0, "lat": 38.956456833333334, "is_disabled": 0, "name": "3281ad1261f07dfe72232b349e51d860", "fusion_lat": 0.0, "rental_uris": {"ios": "https://dc.lft.to/lastmile_qr_scan", "android": "https://dc.lft.to/lastmile_qr_scan"}, "lon": -77.0225865, "type": "electric_scooter"}, {"bike_id": "1d03a791ffe04e11856a95ba86095a9f", "is_reserved": 0, "fusion_lon": 0.0, "lat": 38.92477566666667, "is_disabled": 0, "name": "1d03a791ffe04e11856a95ba86095a9f", "fusion_lat": 0.0, "rental_uris": {"ios": "https://dc.lft.to/lastmile_qr_scan", "android": "https://dc.lft.to/lastmile_qr_scan"}, "lon": -77.05212333333333, "type": "electric_scooter"}, {"bike_id": "c20fddc0e9742606424a6da21910d92d", "is_reserved": 0, "fusion_lon": 0.0, "lat": 38.85293933333333, "is_disabled": 0, "name": "c20fddc0e9742606424a6da21910d92d", "fusion_lat": 0.0, "rental_uris": {"ios": "https://dc.lft.to/lastmile_qr_scan", "android": "https://dc.lft.to/lastmile_qr_scan"}, "lon": -77.05276866666667, "type": "electric_bike"}, {"bike_id": "c3b479a7acd6c98e51c34492ea6d090a", "is_reserved": 0, "fusion_lon": 0.0, "lat": 38.85682383333334, "is_disabled": 0, "name": "c3b479a7acd6c98e51c34492ea6d090a", "fusion_lat": 0.0, "rental_uris": {"ios": "https://dc.lft.to/lastmile_qr_scan", "android": "https://dc.lft.to/lastmile_qr_scan"}, "lon": -77.08569983333334, "type": "electric_bike"}, {"bike_id": "92cfaa34a8b601c7a4f569f489a0a380", "is_reserved": 0, "fusion_lon": 0.0, "lat": 38.87114416666667, "is_disabled": 0, "name": "92cfaa34a8b601c7a4f569f489a0a380", "fusion_lat": 0.0, "rental_uris": {"ios": "https://dc.lft.to/lastmile_qr_scan", "android": "https://dc.lft.to/lastmile_qr_scan"}, "lon": -76.97748533333333, "type": "electric_scooter"}, {"bike_id": "afeb2a314cdf629782033212b251cb71", "is_reserved": 0, "fusion_lon": 0.0, "lat": 38.86373666666667, "is_disabled": 0, "name": "afeb2a314cdf629782033212b251cb71", "fusion_lat": 0.0, "rental_uris": {"ios": "https://dc.lft.to/lastmile_qr_scan", "android": "https://dc.lft.to/lastmile_qr_scan"}, "lon": -76.99052233333333, "type": "electric_scooter"}, {"bike_id": "9b49f841b73910a7b9182e96455f3b5b", "is_reserved": 0, "fusion_lon": 0.0, "lat": 38.89831083333333, "is_disabled": 0, "name": "9b49f841b73910a7b9182e96455f3b5b", "fusion_lat": 0.0, "rental_uris": {"ios": "https://dc.lft.to/lastmile_qr_scan", "android": "https://dc.lft.to/lastmile_qr_scan"}, "lon": -76.98036366666666, "type": "electric_scooter"}, {"bike_id": "1f559cc79cdab84db293eb1df6d2b029", "is_reserved": 0, "fusion_lon": 0.0, "lat": 38.92312866666666, "is_disabled": 0, "name": "1f559cc79cdab84db293eb1df6d2b029", "fusion_lat": 0.0, "rental_uris": {"ios": "https://dc.lft.to/lastmile_qr_scan", "android": "https://dc.lft.to/lastmile_qr_scan"}, "lon": -77.02128116666667, "type": "electric_scooter"}, {"bike_id": "e54440d675e05471c94a4743daf59969", "is_reserved": 0, "fusion_lon": 0.0, "lat": 38.93346483333333, "is_disabled": 0, "name": "e54440d675e05471c94a4743daf59969", "fusion_lat": 0.0, "rental_uris": {"ios": "https://dc.lft.to/lastmile_qr_scan", "android": "https://dc.lft.to/lastmile_qr_scan"}, "lon": -77.05711983333333, "type": "electric_scooter"}, {"bike_id": "2da844123c3224018bf1f17f5e4108b8", "is_reserved": 0, "fusion_lon": 0.0, "lat": 38.93007733333334, "is_disabled": 0, "name": "2da844123c3224018bf1f17f5e4108b8", "fusion_lat": 0.0, "rental_uris": {"ios": "https://dc.lft.to/lastmile_qr_scan", "android": "https://dc.lft.to/lastmile_qr_scan"}, "lon": -77.0378195, "type": "electric_scooter"}, {"bike_id": "321857cc079515b160854b75b868832b", "is_reserved": 0, "fusion_lon": 0.0, "lat": 38.9016345, "is_disabled": 0, "name": "321857cc079515b160854b75b868832b", "fusion_lat": 0.0, "rental_uris": {"ios": "https://dc.lft.to/lastmile_qr_scan", "android": "https://dc.lft.to/lastmile_qr_scan"}, "lon": -77.03322783333333, "type": "electric_scooter"}, {"bike_id": "3688bc3ef00ee92ebcc45d4543fa6b1f", "is_reserved": 0, "fusion_lon": 0.0, "lat": 38.8870915, "is_disabled": 0, "name": "3688bc3ef00ee92ebcc45d4543fa6b1f", "fusion_lat": 0.0, "rental_uris": {"ios": "https://dc.lft.to/lastmile_qr_scan", "android": "https://dc.lft.to/lastmile_qr_scan"}, "lon": -77.001535, "type": "electric_scooter"}, {"bike_id": "c49f913a187817e4b386b0723e26f153", "is_reserved": 0, "fusion_lon": 0.0, "lat": 39.030604833333335, "is_disabled": 0, "name": "c49f913a187817e4b386b0723e26f153", "fusion_lat": 0.0, "rental_uris": {"ios": "https://dc.lft.to/lastmile_qr_scan", "android": "https://dc.lft.to/lastmile_qr_scan"}, "lon": -77.09489633333334, "type": "electric_bike"}, {"bike_id": "b2c4be168746aaf81436d7e5cbea1cae", "is_reserved": 0, "fusion_lon": 0.0, "lat": 38.917759, "is_disabled": 0, "name": "b2c4be168746aaf81436d7e5cbea1cae", "fusion_lat": 0.0, "rental_uris": {"ios": "https://dc.lft.to/lastmile_qr_scan", "android": "https://dc.lft.to/lastmile_qr_scan"}, "lon": -76.97333516666667, "type": "electric_scooter"}, {"bike_id": "98911612470036688d7560fb2e8d601a", "is_reserved": 0, "fusion_lon": 0.0, "lat": 38.892247833333336, "is_disabled": 0, "name": "98911612470036688d7560fb2e8d601a", "fusion_lat": 0.0, "rental_uris": {"ios": "https://dc.lft.to/lastmile_qr_scan", "android": "https://dc.lft.to/lastmile_qr_scan"}, "lon": -77.00305266666666, "type": "electric_scooter"}, {"bike_id": "c67d8355e443edd38f4b9c7b32343dbb", "is_reserved": 0, "fusion_lon": 0.0, "lat": 38.905263166666664, "is_disabled": 0, "name": "c67d8355e443edd38f4b9c7b32343dbb", "fusion_lat": 0.0, "rental_uris": {"ios": "https://dc.lft.to/lastmile_qr_scan", "android": "https://dc.lft.to/lastmile_qr_scan"}, "lon": -77.06535683333334, "type": "electric_scooter"}, {"bike_id": "f7ba5007110a897e8d4077d9cbdff79e", "is_reserved": 0, "fusion_lon": 0.0, "lat": 38.908229666666664, "is_disabled": 0, "name": "f7ba5007110a897e8d4077d9cbdff79e", "fusion_lat": 0.0, "rental_uris": {"ios": "https://dc.lft.to/lastmile_qr_scan", "android": "https://dc.lft.to/lastmile_qr_scan"}, "lon": -76.9967835, "type": "electric_scooter"}, {"bike_id": "8c5f5ff0347f2bfc3357cbf5deaa1753", "is_reserved": 0, "fusion_lon": 0.0, "lat": 38.889724666666666, "is_disabled": 0, "name": "8c5f5ff0347f2bfc3357cbf5deaa1753", "fusion_lat": 0.0, "rental_uris": {"ios": "https://dc.lft.to/lastmile_qr_scan", "android": "https://dc.lft.to/lastmile_qr_scan"}, "lon": -76.98041666666667, "type": "electric_scooter"}, {"bike_id": "0bbcb38ba18b39d06b039693eee31a6d", "is_reserved": 0, "fusion_lon": 0.0, "lat": 38.91551116666667, "is_disabled": 0, "name": "0bbcb38ba18b39d06b039693eee31a6d", "fusion_lat": 0.0, "rental_uris": {"ios": "https://dc.lft.to/lastmile_qr_scan", "android": "https://dc.lft.to/lastmile_qr_scan"}, "lon": -77.03512166666667, "type": "electric_scooter"}, {"bike_id": "0f82151d75c755a6b11120e9f1341e35", "is_reserved": 0, "fusion_lon": 0.0, "lat": 38.917192, "is_disabled": 0, "name": "0f82151d75c755a6b11120e9f1341e35", "fusion_lat": 0.0, "rental_uris": {"ios": "https://dc.lft.to/lastmile_qr_scan", "android": "https://dc.lft.to/lastmile_qr_scan"}, "lon": -77.02902383333333, "type": "electric_scooter"}, {"bike_id": "c9ac2052ebf3399dc64d495fdf1daf2b", "is_reserved": 0, "fusion_lon": 0.0, "lat": 38.896204833333336, "is_disabled": 0, "name": "c9ac2052ebf3399dc64d495fdf1daf2b", "fusion_lat": 0.0, "rental_uris": {"ios": "https://dc.lft.to/lastmile_qr_scan", "android": "https://dc.lft.to/lastmile_qr_scan"}, "lon": -77.00266366666666, "type": "electric_scooter"}, {"bike_id": "b9467139e007c665fbd4b004bb58a190", "is_reserved": 0, "fusion_lon": 0.0, "lat": 38.92581583333333, "is_disabled": 0, "name": "b9467139e007c665fbd4b004bb58a190", "fusion_lat": 0.0, "rental_uris": {"ios": "https://dc.lft.to/lastmile_qr_scan", "android": "https://dc.lft.to/lastmile_qr_scan"}, "lon": -77.039374, "type": "electric_scooter"}, {"bike_id": "91a72d8724a5ce14bcdda0f34438533d", "is_reserved": 0, "fusion_lon": 0.0, "lat": 38.89806466666667, "is_disabled": 0, "name": "91a72d8724a5ce14bcdda0f34438533d", "fusion_lat": 0.0, "rental_uris": {"ios": "https://dc.lft.to/lastmile_qr_scan", "android": "https://dc.lft.to/lastmile_qr_scan"}, "lon": -77.0293565, "type": "electric_scooter"}, {"bike_id": "f5732efe84a35c9488a222dc19ca3a0a", "is_reserved": 0, "fusion_lon": 0.0, "lat": 38.92794333333333, "is_disabled": 0, "name": "f5732efe84a35c9488a222dc19ca3a0a", "fusion_lat": 0.0, "rental_uris": {"ios": "https://dc.lft.to/lastmile_qr_scan", "android": "https://dc.lft.to/lastmile_qr_scan"}, "lon": -77.0552355, "type": "electric_scooter"}, {"bike_id": "00f0690a6ff86bdbd91d170dcdc04223", "is_reserved": 0, "fusion_lon": 0.0, "lat": 38.89832416666667, "is_disabled": 0, "name": "00f0690a6ff86bdbd91d170dcdc04223", "fusion_lat": 0.0, "rental_uris": {"ios": "https://dc.lft.to/lastmile_qr_scan", "android": "https://dc.lft.to/lastmile_qr_scan"}, "lon": -77.03280133333334, "type": "electric_scooter"}, {"bike_id": "347a7332f93d6a3f5bd0a83a0064b7a9", "is_reserved": 0, "fusion_lon": 0.0, "lat": 38.897616666666664, "is_disabled": 0, "name": "347a7332f93d6a3f5bd0a83a0064b7a9", "fusion_lat": 0.0, "rental_uris": {"ios": "https://dc.lft.to/lastmile_qr_scan", "android": "https://dc.lft.to/lastmile_qr_scan"}, "lon": -77.03031883333334, "type": "electric_scooter"}, {"bike_id": "67b8568cc5f8e00507ffbc5ab8ae2f17", "is_reserved": 0, "fusion_lon": 0.0, "lat": 38.9056165, "is_disabled": 0, "name": "67b8568cc5f8e00507ffbc5ab8ae2f17", "fusion_lat": 0.0, "rental_uris": {"ios": "https://dc.lft.to/lastmile_qr_scan", "android": "https://dc.lft.to/lastmile_qr_scan"}, "lon": -77.03452983333334, "type": "electric_scooter"}, {"bike_id": "5c6a2495c42451ef9c234f889cce917c", "is_reserved": 0, "fusion_lon": 0.0, "lat": 38.915939, "is_disabled": 0, "name": "5c6a2495c42451ef9c234f889cce917c", "fusion_lat": 0.0, "rental_uris": {"ios": "https://dc.lft.to/lastmile_qr_scan", "android": "https://dc.lft.to/lastmile_qr_scan"}, "lon": -76.98374, "type": "electric_scooter"}, {"bike_id": "e68e26996cc647a0799aeb2847232b14", "is_reserved": 0, "fusion_lon": 0.0, "lat": 38.917257166666666, "is_disabled": 0, "name": "e68e26996cc647a0799aeb2847232b14", "fusion_lat": 0.0, "rental_uris": {"ios": "https://dc.lft.to/lastmile_qr_scan", "android": "https://dc.lft.to/lastmile_qr_scan"}, "lon": -77.031126, "type": "electric_scooter"}, {"bike_id": "b457bbf50f3b2d728fb61324425e6f8b", "is_reserved": 0, "fusion_lon": 0.0, "lat": 38.88324266666667, "is_disabled": 0, "name": "b457bbf50f3b2d728fb61324425e6f8b", "fusion_lat": 0.0, "rental_uris": {"ios": "https://dc.lft.to/lastmile_qr_scan", "android": "https://dc.lft.to/lastmile_qr_scan"}, "lon": -77.01772383333333, "type": "electric_scooter"}, {"bike_id": "f3ada88cf57281c5db34e4fb2a3d82ac", "is_reserved": 0, "fusion_lon": 0.0, "lat": 38.925787666666665, "is_disabled": 0, "name": "f3ada88cf57281c5db34e4fb2a3d82ac", "fusion_lat": 0.0, "rental_uris": {"ios": "https://dc.lft.to/lastmile_qr_scan", "android": "https://dc.lft.to/lastmile_qr_scan"}, "lon": -77.03915466666666, "type": "electric_scooter"}, {"bike_id": "1b53a720a95129a89d49b1a308886cbf", "is_reserved": 0, "fusion_lon": 0.0, "lat": 38.8857355, "is_disabled": 0, "name": "1b53a720a95129a89d49b1a308886cbf", "fusion_lat": 0.0, "rental_uris": {"ios": "https://dc.lft.to/lastmile_qr_scan", "android": "https://dc.lft.to/lastmile_qr_scan"}, "lon": -77.01544233333334, "type": "electric_scooter"}, {"bike_id": "b3a189e470a737a67e89a45f6c009db1", "is_reserved": 0, "fusion_lon": 0.0, "lat": 38.90593466666667, "is_disabled": 0, "name": "b3a189e470a737a67e89a45f6c009db1", "fusion_lat": 0.0, "rental_uris": {"ios": "https://dc.lft.to/lastmile_qr_scan", "android": "https://dc.lft.to/lastmile_qr_scan"}, "lon": -77.06274166666667, "type": "electric_scooter"}, {"bike_id": "7e31d6fcd735da039f20d4f93d59de59", "is_reserved": 0, "fusion_lon": 0.0, "lat": 38.917684333333334, "is_disabled": 0, "name": "7e31d6fcd735da039f20d4f93d59de59", "fusion_lat": 0.0, "rental_uris": {"ios": "https://dc.lft.to/lastmile_qr_scan", "android": "https://dc.lft.to/lastmile_qr_scan"}, "lon": -77.02315633333333, "type": "electric_scooter"}, {"bike_id": "6ae02469350fab33fcb8a25fe9c3d076", "is_reserved": 0, "fusion_lon": 0.0, "lat": 38.8922265, "is_disabled": 0, "name": "6ae02469350fab33fcb8a25fe9c3d076", "fusion_lat": 0.0, "rental_uris": {"ios": "https://dc.lft.to/lastmile_qr_scan", "android": "https://dc.lft.to/lastmile_qr_scan"}, "lon": -77.04870766666667, "type": "electric_scooter"}, {"bike_id": "5e7583d7838466498711102234b9d679", "is_reserved": 0, "fusion_lon": 0.0, "lat": 38.897463, "is_disabled": 0, "name": "5e7583d7838466498711102234b9d679", "fusion_lat": 0.0, "rental_uris": {"ios": "https://dc.lft.to/lastmile_qr_scan", "android": "https://dc.lft.to/lastmile_qr_scan"}, "lon": -77.0175605, "type": "electric_scooter"}, {"bike_id": "33aed9cd9c2428e3d4382cf24d8d21f3", "is_reserved": 0, "fusion_lon": 0.0, "lat": 38.89384416666667, "is_disabled": 0, "name": "33aed9cd9c2428e3d4382cf24d8d21f3", "fusion_lat": 0.0, "rental_uris": {"ios": "https://dc.lft.to/lastmile_qr_scan", "android": "https://dc.lft.to/lastmile_qr_scan"}, "lon": -77.00597966666666, "type": "electric_scooter"}, {"bike_id": "22ee06c5983b9ffb925d730a0223a9a6", "is_reserved": 0, "fusion_lon": 0.0, "lat": 38.892188833333336, "is_disabled": 0, "name": "22ee06c5983b9ffb925d730a0223a9a6", "fusion_lat": 0.0, "rental_uris": {"ios": "https://dc.lft.to/lastmile_qr_scan", "android": "https://dc.lft.to/lastmile_qr_scan"}, "lon": -77.046532, "type": "electric_scooter"}, {"bike_id": "3633956148bf2b9f0f1f5bcc09188457", "is_reserved": 0, "fusion_lon": 0.0, "lat": 38.90471483333334, "is_disabled": 0, "name": "3633956148bf2b9f0f1f5bcc09188457", "fusion_lat": 0.0, "rental_uris": {"ios": "https://dc.lft.to/lastmile_qr_scan", "android": "https://dc.lft.to/lastmile_qr_scan"}, "lon": -77.04360283333334, "type": "electric_scooter"}, {"bike_id": "a8c0861d13f1f5ff759eccc1a227953a", "is_reserved": 0, "fusion_lon": 0.0, "lat": 38.9850295, "is_disabled": 0, "name": "a8c0861d13f1f5ff759eccc1a227953a", "fusion_lat": 0.0, "rental_uris": {"ios": "https://dc.lft.to/lastmile_qr_scan", "android": "https://dc.lft.to/lastmile_qr_scan"}, "lon": -76.98201983333334, "type": "electric_bike"}, {"bike_id": "2f12db415b27dc563e7d33b4d5034bba", "is_reserved": 0, "fusion_lon": 0.0, "lat": 38.869861666666665, "is_disabled": 0, "name": "2f12db415b27dc563e7d33b4d5034bba", "fusion_lat": 0.0, "rental_uris": {"ios": "https://dc.lft.to/lastmile_qr_scan", "android": "https://dc.lft.to/lastmile_qr_scan"}, "lon": -76.95986383333333, "type": "electric_bike"}, {"bike_id": "b1a84e89b2fefd49e59a611b60d0ea4b", "is_reserved": 0, "fusion_lon": 0.0, "lat": 38.907873333333335, "is_disabled": 0, "name": "b1a84e89b2fefd49e59a611b60d0ea4b", "fusion_lat": 0.0, "rental_uris": {"ios": "https://dc.lft.to/lastmile_qr_scan", "android": "https://dc.lft.to/lastmile_qr_scan"}, "lon": -77.0366155, "type": "electric_scooter"}, {"bike_id": "9a184a0bab01aef01dcc2511d61789cd", "is_reserved": 0, "fusion_lon": 0.0, "lat": 38.90154066666667, "is_disabled": 0, "name": "9a184a0bab01aef01dcc2511d61789cd", "fusion_lat": 0.0, "rental_uris": {"ios": "https://dc.lft.to/lastmile_qr_scan", "android": "https://dc.lft.to/lastmile_qr_scan"}, "lon": -77.059271, "type": "electric_bike"}, {"bike_id": "336a322e6fedfa5de9cecda6d76b4416", "is_reserved": 0, "fusion_lon": 0.0, "lat": 38.876717166666666, "is_disabled": 0, "name": "336a322e6fedfa5de9cecda6d76b4416", "fusion_lat": 0.0, "rental_uris": {"ios": "https://dc.lft.to/lastmile_qr_scan", "android": "https://dc.lft.to/lastmile_qr_scan"}, "lon": -77.0043355, "type": "electric_scooter"}, {"bike_id": "354882b6987610cd2d3087157d8f0cc2", "is_reserved": 0, "fusion_lon": 0.0, "lat": 38.91665283333333, "is_disabled": 0, "name": "354882b6987610cd2d3087157d8f0cc2", "fusion_lat": 0.0, "rental_uris": {"ios": "https://dc.lft.to/lastmile_qr_scan", "android": "https://dc.lft.to/lastmile_qr_scan"}, "lon": -77.02713716666666, "type": "electric_scooter"}, {"bike_id": "463fda93c7641ed56725f1f1d9021c14", "is_reserved": 0, "fusion_lon": 0.0, "lat": 38.90846033333333, "is_disabled": 0, "name": "463fda93c7641ed56725f1f1d9021c14", "fusion_lat": 0.0, "rental_uris": {"ios": "https://dc.lft.to/lastmile_qr_scan", "android": "https://dc.lft.to/lastmile_qr_scan"}, "lon": -77.05495683333334, "type": "electric_scooter"}, {"bike_id": "c139065022804c4f7021e1c1e0bee188", "is_reserved": 0, "fusion_lon": 0.0, "lat": 38.862518666666666, "is_disabled": 0, "name": "c139065022804c4f7021e1c1e0bee188", "fusion_lat": 0.0, "rental_uris": {"ios": "https://dc.lft.to/lastmile_qr_scan", "android": "https://dc.lft.to/lastmile_qr_scan"}, "lon": -76.99481233333333, "type": "electric_scooter"}, {"bike_id": "976841ca60495958608fe8a892b66e4b", "is_reserved": 0, "fusion_lon": 0.0, "lat": 38.8227255, "is_disabled": 0, "name": "976841ca60495958608fe8a892b66e4b", "fusion_lat": 0.0, "rental_uris": {"ios": "https://dc.lft.to/lastmile_qr_scan", "android": "https://dc.lft.to/lastmile_qr_scan"}, "lon": -77.0581105, "type": "electric_bike"}, {"bike_id": "4ebeafcb2a0c53f80657b33ed5a03707", "is_reserved": 0, "fusion_lon": 0.0, "lat": 38.923364, "is_disabled": 0, "name": "4ebeafcb2a0c53f80657b33ed5a03707", "fusion_lat": 0.0, "rental_uris": {"ios": "https://dc.lft.to/lastmile_qr_scan", "android": "https://dc.lft.to/lastmile_qr_scan"}, "lon": -77.041919, "type": "electric_scooter"}, {"bike_id": "cc219bb02c79dd405d76f3d7c6821274", "is_reserved": 0, "fusion_lon": 0.0, "lat": 38.806226, "is_disabled": 0, "name": "cc219bb02c79dd405d76f3d7c6821274", "fusion_lat": 0.0, "rental_uris": {"ios": "https://dc.lft.to/lastmile_qr_scan", "android": "https://dc.lft.to/lastmile_qr_scan"}, "lon": -77.06348866666667, "type": "electric_bike"}, {"bike_id": "b849a01eadb4b80b29626fe95f9ed0be", "is_reserved": 0, "fusion_lon": 0.0, "lat": 38.901359166666666, "is_disabled": 0, "name": "b849a01eadb4b80b29626fe95f9ed0be", "fusion_lat": 0.0, "rental_uris": {"ios": "https://dc.lft.to/lastmile_qr_scan", "android": "https://dc.lft.to/lastmile_qr_scan"}, "lon": -76.99715533333334, "type": "electric_scooter"}, {"bike_id": "44a93d49724e478477cf5ad65287ea39", "is_reserved": 0, "fusion_lon": 0.0, "lat": 38.91155766666667, "is_disabled": 0, "name": "44a93d49724e478477cf5ad65287ea39", "fusion_lat": 0.0, "rental_uris": {"ios": "https://dc.lft.to/lastmile_qr_scan", "android": "https://dc.lft.to/lastmile_qr_scan"}, "lon": -76.98658633333334, "type": "electric_scooter"}, {"bike_id": "70b163195fa1f36f981ac311e4a857f5", "is_reserved": 0, "fusion_lon": 0.0, "lat": 38.9225385, "is_disabled": 0, "name": "70b163195fa1f36f981ac311e4a857f5", "fusion_lat": 0.0, "rental_uris": {"ios": "https://dc.lft.to/lastmile_qr_scan", "android": "https://dc.lft.to/lastmile_qr_scan"}, "lon": -77.01951616666666, "type": "electric_scooter"}, {"bike_id": "15bb5c306c09eabfbfd18a065cd48b4f", "is_reserved": 0, "fusion_lon": 0.0, "lat": 38.892255, "is_disabled": 0, "name": "15bb5c306c09eabfbfd18a065cd48b4f", "fusion_lat": 0.0, "rental_uris": {"ios": "https://dc.lft.to/lastmile_qr_scan", "android": "https://dc.lft.to/lastmile_qr_scan"}, "lon": -77.04873933333333, "type": "electric_scooter"}, {"bike_id": "14227acf550b669e70cc922bf3f8dd29", "is_reserved": 0, "fusion_lon": 0.0, "lat": 38.9271165, "is_disabled": 0, "name": "14227acf550b669e70cc922bf3f8dd29", "fusion_lat": 0.0, "rental_uris": {"ios": "https://dc.lft.to/lastmile_qr_scan", "android": "https://dc.lft.to/lastmile_qr_scan"}, "lon": -77.040539, "type": "electric_scooter"}, {"bike_id": "d6143f477458870e62dfb35c285cfebb", "is_reserved": 0, "fusion_lon": 0.0, "lat": 38.89193383333333, "is_disabled": 0, "name": "d6143f477458870e62dfb35c285cfebb", "fusion_lat": 0.0, "rental_uris": {"ios": "https://dc.lft.to/lastmile_qr_scan", "android": "https://dc.lft.to/lastmile_qr_scan"}, "lon": -77.022437, "type": "electric_scooter"}, {"bike_id": "c4db2bef95d886b7f6e9d601e3e84dc6", "is_reserved": 0, "fusion_lon": 0.0, "lat": 38.922723833333336, "is_disabled": 0, "name": "c4db2bef95d886b7f6e9d601e3e84dc6", "fusion_lat": 0.0, "rental_uris": {"ios": "https://dc.lft.to/lastmile_qr_scan", "android": "https://dc.lft.to/lastmile_qr_scan"}, "lon": -77.0182645, "type": "electric_scooter"}, {"bike_id": "e3759d69429d8591a9376c240329ac27", "is_reserved": 0, "fusion_lon": 0.0, "lat": 38.905234666666665, "is_disabled": 0, "name": "e3759d69429d8591a9376c240329ac27", "fusion_lat": 0.0, "rental_uris": {"ios": "https://dc.lft.to/lastmile_qr_scan", "android": "https://dc.lft.to/lastmile_qr_scan"}, "lon": -77.06517883333333, "type": "electric_scooter"}, {"bike_id": "630f1ef2a1085482b8b64eaedf7428f0", "is_reserved": 0, "fusion_lon": 0.0, "lat": 38.9032495, "is_disabled": 0, "name": "630f1ef2a1085482b8b64eaedf7428f0", "fusion_lat": 0.0, "rental_uris": {"ios": "https://dc.lft.to/lastmile_qr_scan", "android": "https://dc.lft.to/lastmile_qr_scan"}, "lon": -77.06614066666667, "type": "electric_scooter"}, {"bike_id": "8127363b932fc9a22c7e194d01e059b9", "is_reserved": 0, "fusion_lon": 0.0, "lat": 38.955593666666665, "is_disabled": 0, "name": "8127363b932fc9a22c7e194d01e059b9", "fusion_lat": 0.0, "rental_uris": {"ios": "https://dc.lft.to/lastmile_qr_scan", "android": "https://dc.lft.to/lastmile_qr_scan"}, "lon": -76.93553566666667, "type": "electric_bike"}, {"bike_id": "466e14c54e57dd3f3bd0aa853569cd34", "is_reserved": 0, "fusion_lon": 0.0, "lat": 38.8634375, "is_disabled": 0, "name": "466e14c54e57dd3f3bd0aa853569cd34", "fusion_lat": 0.0, "rental_uris": {"ios": "https://dc.lft.to/lastmile_qr_scan", "android": "https://dc.lft.to/lastmile_qr_scan"}, "lon": -76.9900585, "type": "electric_scooter"}, {"bike_id": "bbaea23ab66c3fede15f85f035c62ad3", "is_reserved": 0, "fusion_lon": 0.0, "lat": 38.8983865, "is_disabled": 0, "name": "bbaea23ab66c3fede15f85f035c62ad3", "fusion_lat": 0.0, "rental_uris": {"ios": "https://dc.lft.to/lastmile_qr_scan", "android": "https://dc.lft.to/lastmile_qr_scan"}, "lon": -77.03307066666666, "type": "electric_scooter"}, {"bike_id": "9f11875e41c33da46832ce6e30d0e6b8", "is_reserved": 0, "fusion_lon": 0.0, "lat": 38.915724, "is_disabled": 0, "name": "9f11875e41c33da46832ce6e30d0e6b8", "fusion_lat": 0.0, "rental_uris": {"ios": "https://dc.lft.to/lastmile_qr_scan", "android": "https://dc.lft.to/lastmile_qr_scan"}, "lon": -77.04621466666667, "type": "electric_scooter"}, {"bike_id": "c4503abb1dc1125bf5baa1c350446a3d", "is_reserved": 0, "fusion_lon": 0.0, "lat": 38.92023583333334, "is_disabled": 0, "name": "c4503abb1dc1125bf5baa1c350446a3d", "fusion_lat": 0.0, "rental_uris": {"ios": "https://dc.lft.to/lastmile_qr_scan", "android": "https://dc.lft.to/lastmile_qr_scan"}, "lon": -77.03974366666667, "type": "electric_scooter"}, {"bike_id": "c725d8fdc4ba049b1673aac3c3c43ca2", "is_reserved": 0, "fusion_lon": 0.0, "lat": 38.842934166666666, "is_disabled": 0, "name": "c725d8fdc4ba049b1673aac3c3c43ca2", "fusion_lat": 0.0, "rental_uris": {"ios": "https://dc.lft.to/lastmile_qr_scan", "android": "https://dc.lft.to/lastmile_qr_scan"}, "lon": -76.99950583333333, "type": "electric_scooter"}, {"bike_id": "c391a4b3518df2256191578b1ed90f2d", "is_reserved": 0, "fusion_lon": 0.0, "lat": 38.89985566666667, "is_disabled": 0, "name": "c391a4b3518df2256191578b1ed90f2d", "fusion_lat": 0.0, "rental_uris": {"ios": "https://dc.lft.to/lastmile_qr_scan", "android": "https://dc.lft.to/lastmile_qr_scan"}, "lon": -77.04632566666666, "type": "electric_bike"}, {"bike_id": "d27340f3f76394cc1fcfca93c8aab54d", "is_reserved": 0, "fusion_lon": 0.0, "lat": 38.937148666666666, "is_disabled": 0, "name": "d27340f3f76394cc1fcfca93c8aab54d", "fusion_lat": 0.0, "rental_uris": {"ios": "https://dc.lft.to/lastmile_qr_scan", "android": "https://dc.lft.to/lastmile_qr_scan"}, "lon": -77.03269466666667, "type": "electric_scooter"}, {"bike_id": "4bfe55ef6feccdeafaf7df0052ea1c3e", "is_reserved": 0, "fusion_lon": 0.0, "lat": 38.9166455, "is_disabled": 0, "name": "4bfe55ef6feccdeafaf7df0052ea1c3e", "fusion_lat": 0.0, "rental_uris": {"ios": "https://dc.lft.to/lastmile_qr_scan", "android": "https://dc.lft.to/lastmile_qr_scan"}, "lon": -77.02366833333333, "type": "electric_scooter"}, {"bike_id": "f82b619f88b87036fc5fbe8cd3f04490", "is_reserved": 0, "fusion_lon": 0.0, "lat": 38.91264866666667, "is_disabled": 0, "name": "f82b619f88b87036fc5fbe8cd3f04490", "fusion_lat": 0.0, "rental_uris": {"ios": "https://dc.lft.to/lastmile_qr_scan", "android": "https://dc.lft.to/lastmile_qr_scan"}, "lon": -77.02562033333334, "type": "electric_scooter"}, {"bike_id": "fc875ce95f0e580adb90377de79dab45", "is_reserved": 0, "fusion_lon": 0.0, "lat": 38.892476333333335, "is_disabled": 0, "name": "fc875ce95f0e580adb90377de79dab45", "fusion_lat": 0.0, "rental_uris": {"ios": "https://dc.lft.to/lastmile_qr_scan", "android": "https://dc.lft.to/lastmile_qr_scan"}, "lon": -77.0395855, "type": "electric_scooter"}, {"bike_id": "0ee18769186d1b105b9ae4c762945220", "is_reserved": 0, "fusion_lon": 0.0, "lat": 38.8971665, "is_disabled": 0, "name": "0ee18769186d1b105b9ae4c762945220", "fusion_lat": 0.0, "rental_uris": {"ios": "https://dc.lft.to/lastmile_qr_scan", "android": "https://dc.lft.to/lastmile_qr_scan"}, "lon": -77.0488595, "type": "electric_scooter"}, {"bike_id": "684c78ebdd906dc0c64a23ffa4917dd5", "is_reserved": 0, "fusion_lon": 0.0, "lat": 38.90389716666667, "is_disabled": 0, "name": "684c78ebdd906dc0c64a23ffa4917dd5", "fusion_lat": 0.0, "rental_uris": {"ios": "https://dc.lft.to/lastmile_qr_scan", "android": "https://dc.lft.to/lastmile_qr_scan"}, "lon": -77.03796366666667, "type": "electric_scooter"}, {"bike_id": "4d2d463fc6866c45c8538d375fbf49ab", "is_reserved": 0, "fusion_lon": 0.0, "lat": 38.909218, "is_disabled": 0, "name": "4d2d463fc6866c45c8538d375fbf49ab", "fusion_lat": 0.0, "rental_uris": {"ios": "https://dc.lft.to/lastmile_qr_scan", "android": "https://dc.lft.to/lastmile_qr_scan"}, "lon": -77.08005133333333, "type": "electric_scooter"}, {"bike_id": "31a7697395055a940949491739eebeec", "is_reserved": 0, "fusion_lon": 0.0, "lat": 38.9202255, "is_disabled": 0, "name": "31a7697395055a940949491739eebeec", "fusion_lat": 0.0, "rental_uris": {"ios": "https://dc.lft.to/lastmile_qr_scan", "android": "https://dc.lft.to/lastmile_qr_scan"}, "lon": -77.02804666666667, "type": "electric_scooter"}, {"bike_id": "f8e84999210f3d96b50a0ebeaae69134", "is_reserved": 0, "fusion_lon": 0.0, "lat": 38.899878666666666, "is_disabled": 0, "name": "f8e84999210f3d96b50a0ebeaae69134", "fusion_lat": 0.0, "rental_uris": {"ios": "https://dc.lft.to/lastmile_qr_scan", "android": "https://dc.lft.to/lastmile_qr_scan"}, "lon": -77.02696783333333, "type": "electric_scooter"}, {"bike_id": "b3eb752423ffff65ab358e8825e47505", "is_reserved": 0, "fusion_lon": 0.0, "lat": 38.905842, "is_disabled": 0, "name": "b3eb752423ffff65ab358e8825e47505", "fusion_lat": 0.0, "rental_uris": {"ios": "https://dc.lft.to/lastmile_qr_scan", "android": "https://dc.lft.to/lastmile_qr_scan"}, "lon": -76.98622366666666, "type": "electric_scooter"}, {"bike_id": "d8f396ab49bff546a91d8548c7290e4c", "is_reserved": 0, "fusion_lon": 0.0, "lat": 38.923686333333336, "is_disabled": 0, "name": "d8f396ab49bff546a91d8548c7290e4c", "fusion_lat": 0.0, "rental_uris": {"ios": "https://dc.lft.to/lastmile_qr_scan", "android": "https://dc.lft.to/lastmile_qr_scan"}, "lon": -77.03199483333333, "type": "electric_scooter"}, {"bike_id": "661d2e40375d3c14e1b80f3f12516d67", "is_reserved": 0, "fusion_lon": 0.0, "lat": 38.90853416666667, "is_disabled": 0, "name": "661d2e40375d3c14e1b80f3f12516d67", "fusion_lat": 0.0, "rental_uris": {"ios": "https://dc.lft.to/lastmile_qr_scan", "android": "https://dc.lft.to/lastmile_qr_scan"}, "lon": -77.02731216666666, "type": "electric_scooter"}, {"bike_id": "35093f1a65159dd8264dd3bb06924102", "is_reserved": 0, "fusion_lon": 0.0, "lat": 38.9147375, "is_disabled": 0, "name": "35093f1a65159dd8264dd3bb06924102", "fusion_lat": 0.0, "rental_uris": {"ios": "https://dc.lft.to/lastmile_qr_scan", "android": "https://dc.lft.to/lastmile_qr_scan"}, "lon": -77.02192216666667, "type": "electric_scooter"}, {"bike_id": "d9a425353b2b4affaec0fa90c8fa10b1", "is_reserved": 0, "fusion_lon": 0.0, "lat": 38.8922205, "is_disabled": 0, "name": "d9a425353b2b4affaec0fa90c8fa10b1", "fusion_lat": 0.0, "rental_uris": {"ios": "https://dc.lft.to/lastmile_qr_scan", "android": "https://dc.lft.to/lastmile_qr_scan"}, "lon": -77.10785966666667, "type": "electric_bike"}, {"bike_id": "5a37465f51e03cd6698e78a97cb04c8d", "is_reserved": 0, "fusion_lon": 0.0, "lat": 38.90262333333333, "is_disabled": 0, "name": "5a37465f51e03cd6698e78a97cb04c8d", "fusion_lat": 0.0, "rental_uris": {"ios": "https://dc.lft.to/lastmile_qr_scan", "android": "https://dc.lft.to/lastmile_qr_scan"}, "lon": -77.033366, "type": "electric_scooter"}, {"bike_id": "165b174450caac0305f518bec2c5528d", "is_reserved": 0, "fusion_lon": 0.0, "lat": 38.896259666666666, "is_disabled": 0, "name": "165b174450caac0305f518bec2c5528d", "fusion_lat": 0.0, "rental_uris": {"ios": "https://dc.lft.to/lastmile_qr_scan", "android": "https://dc.lft.to/lastmile_qr_scan"}, "lon": -76.98498516666666, "type": "electric_scooter"}, {"bike_id": "ee8ca9d15ee39772c669601f57533684", "is_reserved": 0, "fusion_lon": 0.0, "lat": 38.90248233333333, "is_disabled": 0, "name": "ee8ca9d15ee39772c669601f57533684", "fusion_lat": 0.0, "rental_uris": {"ios": "https://dc.lft.to/lastmile_qr_scan", "android": "https://dc.lft.to/lastmile_qr_scan"}, "lon": -77.02697883333333, "type": "electric_scooter"}, {"bike_id": "3818cc1235747569af199851ece89b06", "is_reserved": 0, "fusion_lon": 0.0, "lat": 38.903973, "is_disabled": 0, "name": "3818cc1235747569af199851ece89b06", "fusion_lat": 0.0, "rental_uris": {"ios": "https://dc.lft.to/lastmile_qr_scan", "android": "https://dc.lft.to/lastmile_qr_scan"}, "lon": -77.04208166666666, "type": "electric_scooter"}, {"bike_id": "0cab7813ad4378687ed6a8c05df3356c", "is_reserved": 0, "fusion_lon": 0.0, "lat": 38.844242333333334, "is_disabled": 0, "name": "0cab7813ad4378687ed6a8c05df3356c", "fusion_lat": 0.0, "rental_uris": {"ios": "https://dc.lft.to/lastmile_qr_scan", "android": "https://dc.lft.to/lastmile_qr_scan"}, "lon": -76.99782083333334, "type": "electric_scooter"}, {"bike_id": "0aaff78d53a2377bf4855ba94544834a", "is_reserved": 0, "fusion_lon": 0.0, "lat": 38.903942666666666, "is_disabled": 0, "name": "0aaff78d53a2377bf4855ba94544834a", "fusion_lat": 0.0, "rental_uris": {"ios": "https://dc.lft.to/lastmile_qr_scan", "android": "https://dc.lft.to/lastmile_qr_scan"}, "lon": -77.043853, "type": "electric_scooter"}, {"bike_id": "1d8520ba4b18368996f6aaaee9a0b60b", "is_reserved": 0, "fusion_lon": 0.0, "lat": 38.89547483333333, "is_disabled": 0, "name": "1d8520ba4b18368996f6aaaee9a0b60b", "fusion_lat": 0.0, "rental_uris": {"ios": "https://dc.lft.to/lastmile_qr_scan", "android": "https://dc.lft.to/lastmile_qr_scan"}, "lon": -77.018939, "type": "electric_scooter"}, {"bike_id": "6fe9deb7d8799dc34def4a5aafc848b0", "is_reserved": 0, "fusion_lon": 0.0, "lat": 38.90569633333333, "is_disabled": 0, "name": "6fe9deb7d8799dc34def4a5aafc848b0", "fusion_lat": 0.0, "rental_uris": {"ios": "https://dc.lft.to/lastmile_qr_scan", "android": "https://dc.lft.to/lastmile_qr_scan"}, "lon": -77.036398, "type": "electric_scooter"}, {"bike_id": "84695cab36cc276d5713f0ce92c288a6", "is_reserved": 0, "fusion_lon": 0.0, "lat": 38.92852583333333, "is_disabled": 0, "name": "84695cab36cc276d5713f0ce92c288a6", "fusion_lat": 0.0, "rental_uris": {"ios": "https://dc.lft.to/lastmile_qr_scan", "android": "https://dc.lft.to/lastmile_qr_scan"}, "lon": -77.0138805, "type": "electric_scooter"}, {"bike_id": "2932e8c4aa0de5e98736f86fa1b18029", "is_reserved": 0, "fusion_lon": 0.0, "lat": 38.959567166666666, "is_disabled": 0, "name": "2932e8c4aa0de5e98736f86fa1b18029", "fusion_lat": 0.0, "rental_uris": {"ios": "https://dc.lft.to/lastmile_qr_scan", "android": "https://dc.lft.to/lastmile_qr_scan"}, "lon": -77.10092266666666, "type": "electric_bike"}, {"bike_id": "0721a9a329b688a72cd381b2a10cfa38", "is_reserved": 0, "fusion_lon": 0.0, "lat": 38.8718065, "is_disabled": 0, "name": "0721a9a329b688a72cd381b2a10cfa38", "fusion_lat": 0.0, "rental_uris": {"ios": "https://dc.lft.to/lastmile_qr_scan", "android": "https://dc.lft.to/lastmile_qr_scan"}, "lon": -77.00610983333333, "type": "electric_scooter"}, {"bike_id": "617b551d646e9a4d04b612bcb83e905a", "is_reserved": 0, "fusion_lon": 0.0, "lat": 38.884953333333335, "is_disabled": 0, "name": "617b551d646e9a4d04b612bcb83e905a", "fusion_lat": 0.0, "rental_uris": {"ios": "https://dc.lft.to/lastmile_qr_scan", "android": "https://dc.lft.to/lastmile_qr_scan"}, "lon": -77.00729166666666, "type": "electric_scooter"}, {"bike_id": "8e05422a8086abc911ff69ceb3079573", "is_reserved": 0, "fusion_lon": 0.0, "lat": 38.91953383333333, "is_disabled": 0, "name": "8e05422a8086abc911ff69ceb3079573", "fusion_lat": 0.0, "rental_uris": {"ios": "https://dc.lft.to/lastmile_qr_scan", "android": "https://dc.lft.to/lastmile_qr_scan"}, "lon": -77.02488333333334, "type": "electric_scooter"}, {"bike_id": "29db2237ae78400a8302ecd5d5becc1e", "is_reserved": 0, "fusion_lon": 0.0, "lat": 38.8973245, "is_disabled": 0, "name": "29db2237ae78400a8302ecd5d5becc1e", "fusion_lat": 0.0, "rental_uris": {"ios": "https://dc.lft.to/lastmile_qr_scan", "android": "https://dc.lft.to/lastmile_qr_scan"}, "lon": -77.027394, "type": "electric_scooter"}, {"bike_id": "449cab060ad88fc6c2683ac6012e6f57", "is_reserved": 0, "fusion_lon": 0.0, "lat": 38.9048305, "is_disabled": 0, "name": "449cab060ad88fc6c2683ac6012e6f57", "fusion_lat": 0.0, "rental_uris": {"ios": "https://dc.lft.to/lastmile_qr_scan", "android": "https://dc.lft.to/lastmile_qr_scan"}, "lon": -77.03969866666667, "type": "electric_scooter"}, {"bike_id": "7c81c5c8072f21f2de8baaf8c6e1c472", "is_reserved": 0, "fusion_lon": 0.0, "lat": 38.936839, "is_disabled": 0, "name": "7c81c5c8072f21f2de8baaf8c6e1c472", "fusion_lat": 0.0, "rental_uris": {"ios": "https://dc.lft.to/lastmile_qr_scan", "android": "https://dc.lft.to/lastmile_qr_scan"}, "lon": -77.03630933333334, "type": "electric_scooter"}, {"bike_id": "3c5f55ecc7c324f5dbab1a8651456977", "is_reserved": 0, "fusion_lon": 0.0, "lat": 38.90144566666667, "is_disabled": 0, "name": "3c5f55ecc7c324f5dbab1a8651456977", "fusion_lat": 0.0, "rental_uris": {"ios": "https://dc.lft.to/lastmile_qr_scan", "android": "https://dc.lft.to/lastmile_qr_scan"}, "lon": -77.04466516666666, "type": "electric_scooter"}, {"bike_id": "51428a611e9770e721654e4f8322f3e9", "is_reserved": 0, "fusion_lon": 0.0, "lat": 38.903110833333336, "is_disabled": 0, "name": "51428a611e9770e721654e4f8322f3e9", "fusion_lat": 0.0, "rental_uris": {"ios": "https://dc.lft.to/lastmile_qr_scan", "android": "https://dc.lft.to/lastmile_qr_scan"}, "lon": -77.043303, "type": "electric_scooter"}, {"bike_id": "2bcbe174caeed34bbc893321ea6e5495", "is_reserved": 0, "fusion_lon": 0.0, "lat": 38.923810333333336, "is_disabled": 0, "name": "2bcbe174caeed34bbc893321ea6e5495", "fusion_lat": 0.0, "rental_uris": {"ios": "https://dc.lft.to/lastmile_qr_scan", "android": "https://dc.lft.to/lastmile_qr_scan"}, "lon": -77.03544, "type": "electric_scooter"}, {"bike_id": "7281fbd62aec39e544e19c6e6518d5a4", "is_reserved": 0, "fusion_lon": 0.0, "lat": 38.920015166666666, "is_disabled": 0, "name": "7281fbd62aec39e544e19c6e6518d5a4", "fusion_lat": 0.0, "rental_uris": {"ios": "https://dc.lft.to/lastmile_qr_scan", "android": "https://dc.lft.to/lastmile_qr_scan"}, "lon": -77.03231416666667, "type": "electric_scooter"}, {"bike_id": "03584d005abc0d4b23bf31eb51e9662e", "is_reserved": 0, "fusion_lon": 0.0, "lat": 38.923185, "is_disabled": 0, "name": "03584d005abc0d4b23bf31eb51e9662e", "fusion_lat": 0.0, "rental_uris": {"ios": "https://dc.lft.to/lastmile_qr_scan", "android": "https://dc.lft.to/lastmile_qr_scan"}, "lon": -77.04762683333334, "type": "electric_scooter"}, {"bike_id": "aafed8926eadeff1406d35e7f5f990b0", "is_reserved": 0, "fusion_lon": 0.0, "lat": 38.928553, "is_disabled": 0, "name": "aafed8926eadeff1406d35e7f5f990b0", "fusion_lat": 0.0, "rental_uris": {"ios": "https://dc.lft.to/lastmile_qr_scan", "android": "https://dc.lft.to/lastmile_qr_scan"}, "lon": -77.0544135, "type": "electric_scooter"}, {"bike_id": "55b5e2d36ccf1796de50a4689f91f567", "is_reserved": 0, "fusion_lon": 0.0, "lat": 38.89559666666667, "is_disabled": 0, "name": "55b5e2d36ccf1796de50a4689f91f567", "fusion_lat": 0.0, "rental_uris": {"ios": "https://dc.lft.to/lastmile_qr_scan", "android": "https://dc.lft.to/lastmile_qr_scan"}, "lon": -77.04676133333334, "type": "electric_scooter"}, {"bike_id": "85890a17531aba4c02d656cac07b189a", "is_reserved": 0, "fusion_lon": 0.0, "lat": 38.90473933333333, "is_disabled": 0, "name": "85890a17531aba4c02d656cac07b189a", "fusion_lat": 0.0, "rental_uris": {"ios": "https://dc.lft.to/lastmile_qr_scan", "android": "https://dc.lft.to/lastmile_qr_scan"}, "lon": -77.05339166666667, "type": "electric_scooter"}, {"bike_id": "b85e0d4d60f742d1b031ed393f6acde2", "is_reserved": 0, "fusion_lon": 0.0, "lat": 38.861659333333336, "is_disabled": 0, "name": "b85e0d4d60f742d1b031ed393f6acde2", "fusion_lat": 0.0, "rental_uris": {"ios": "https://dc.lft.to/lastmile_qr_scan", "android": "https://dc.lft.to/lastmile_qr_scan"}, "lon": -76.95068833333333, "type": "electric_bike"}, {"bike_id": "ca193c41beb38607435499e74b24fc94", "is_reserved": 0, "fusion_lon": 0.0, "lat": 38.92341566666666, "is_disabled": 0, "name": "ca193c41beb38607435499e74b24fc94", "fusion_lat": 0.0, "rental_uris": {"ios": "https://dc.lft.to/lastmile_qr_scan", "android": "https://dc.lft.to/lastmile_qr_scan"}, "lon": -77.0414165, "type": "electric_scooter"}, {"bike_id": "2a8a8c0c183c3342dee9407bdbe2b281", "is_reserved": 0, "fusion_lon": 0.0, "lat": 38.9086815, "is_disabled": 0, "name": "2a8a8c0c183c3342dee9407bdbe2b281", "fusion_lat": 0.0, "rental_uris": {"ios": "https://dc.lft.to/lastmile_qr_scan", "android": "https://dc.lft.to/lastmile_qr_scan"}, "lon": -77.00364733333333, "type": "electric_scooter"}, {"bike_id": "8faed051ac6699f36226c335e4c2c1a8", "is_reserved": 0, "fusion_lon": 0.0, "lat": 38.89610533333333, "is_disabled": 0, "name": "8faed051ac6699f36226c335e4c2c1a8", "fusion_lat": 0.0, "rental_uris": {"ios": "https://dc.lft.to/lastmile_qr_scan", "android": "https://dc.lft.to/lastmile_qr_scan"}, "lon": -77.04793983333333, "type": "electric_scooter"}, {"bike_id": "f0132ce1fe30cfe0f6dd33a8673258db", "is_reserved": 0, "fusion_lon": 0.0, "lat": 38.910537, "is_disabled": 0, "name": "f0132ce1fe30cfe0f6dd33a8673258db", "fusion_lat": 0.0, "rental_uris": {"ios": "https://dc.lft.to/lastmile_qr_scan", "android": "https://dc.lft.to/lastmile_qr_scan"}, "lon": -77.05401683333334, "type": "electric_scooter"}, {"bike_id": "31b619c3e9990ca81196b1014bc94d34", "is_reserved": 0, "fusion_lon": 0.0, "lat": 38.9091575, "is_disabled": 0, "name": "31b619c3e9990ca81196b1014bc94d34", "fusion_lat": 0.0, "rental_uris": {"ios": "https://dc.lft.to/lastmile_qr_scan", "android": "https://dc.lft.to/lastmile_qr_scan"}, "lon": -77.02303483333333, "type": "electric_scooter"}, {"bike_id": "a0683ead9c4a252625e6bbd0bbc1546e", "is_reserved": 0, "fusion_lon": 0.0, "lat": 38.92909783333333, "is_disabled": 0, "name": "a0683ead9c4a252625e6bbd0bbc1546e", "fusion_lat": 0.0, "rental_uris": {"ios": "https://dc.lft.to/lastmile_qr_scan", "android": "https://dc.lft.to/lastmile_qr_scan"}, "lon": -77.03208466666666, "type": "electric_scooter"}, {"bike_id": "baadb2a8db728bba53d761ed20753080", "is_reserved": 0, "fusion_lon": 0.0, "lat": 38.8922135, "is_disabled": 0, "name": "baadb2a8db728bba53d761ed20753080", "fusion_lat": 0.0, "rental_uris": {"ios": "https://dc.lft.to/lastmile_qr_scan", "android": "https://dc.lft.to/lastmile_qr_scan"}, "lon": -77.041981, "type": "electric_scooter"}, {"bike_id": "64add868cab8ee60006f088500c68cb7", "is_reserved": 0, "fusion_lon": 0.0, "lat": 38.910337166666665, "is_disabled": 0, "name": "64add868cab8ee60006f088500c68cb7", "fusion_lat": 0.0, "rental_uris": {"ios": "https://dc.lft.to/lastmile_qr_scan", "android": "https://dc.lft.to/lastmile_qr_scan"}, "lon": -77.03434783333333, "type": "electric_scooter"}, {"bike_id": "c13b1ecead082051dea518fa6e332fc3", "is_reserved": 0, "fusion_lon": 0.0, "lat": 38.90434183333333, "is_disabled": 0, "name": "c13b1ecead082051dea518fa6e332fc3", "fusion_lat": 0.0, "rental_uris": {"ios": "https://dc.lft.to/lastmile_qr_scan", "android": "https://dc.lft.to/lastmile_qr_scan"}, "lon": -77.0343215, "type": "electric_scooter"}, {"bike_id": "581220be758c8d725fbf3d8a0bfde42c", "is_reserved": 0, "fusion_lon": 0.0, "lat": 38.898460666666665, "is_disabled": 0, "name": "581220be758c8d725fbf3d8a0bfde42c", "fusion_lat": 0.0, "rental_uris": {"ios": "https://dc.lft.to/lastmile_qr_scan", "android": "https://dc.lft.to/lastmile_qr_scan"}, "lon": -77.0333445, "type": "electric_scooter"}, {"bike_id": "b8ca0589272b68a6054b29f5afca4eb9", "is_reserved": 0, "fusion_lon": 0.0, "lat": 38.89623816666667, "is_disabled": 0, "name": "b8ca0589272b68a6054b29f5afca4eb9", "fusion_lat": 0.0, "rental_uris": {"ios": "https://dc.lft.to/lastmile_qr_scan", "android": "https://dc.lft.to/lastmile_qr_scan"}, "lon": -76.9985225, "type": "electric_scooter"},