{"data": {"bikes": [{"rental_uris": {"android": "https://dc.lft.to/lastmile_qr_scan", "ios": "https://dc.lft.to/lastmile_qr_scan"}, "name": "ffc381bfd86328bfa570437a5a1ffa67", "fusion_lat": 0.0, "lon": -76.9990945, "is_disabled": 0, "is_reserved": 0, "fusion_lon": 0.0, "lat": 38.90747783333333, "type": "electric_scooter", "bike_id": "ffc381bfd86328bfa570437a5a1ffa67"}, {"rental_uris": {"android": "https://dc.lft.to/lastmile_qr_scan", "ios": "https://dc.lft.to/lastmile_qr_scan"}, "name": "d26384433ac0439e3343e8ea3fa6ad68", "fusion_lat": 0.0, "lon": -77.03105816666667, "is_disabled": 0, "is_reserved": 0, "fusion_lon": 0.0, "lat": 38.92573483333334, "type": "electric_scooter", "bike_id": "d26384433ac0439e3343e8ea3fa6ad68"}, {"rental_uris": {"android": "https://dc.lft.to/lastmile_qr_scan", "ios": "https://dc.lft.to/lastmile_qr_scan"}, "name": "4248fcb5579ca1f109350adea5294fbd", "fusion_lat": 0.0, "lon": -77.022227, "is_disabled": 0, "is_reserved": 0, "fusion_lon": 0.0, "lat": 38.89220366666667, "type": "electric_scooter", "bike_id": "4248fcb5579ca1f109350adea5294fbd"}, {"rental_uris": {"android": "https://dc.lft.to/lastmile_qr_scan", "ios": "https://dc.lft.to/lastmile_qr_scan"}, "name": "9d34ae911e4042c024774485ebb7696e", "fusion_lat": 0.0, "lon": -77.013849, "is_disabled": 0, "is_reserved": 0, "fusion_lon": 0.0, "lat": 38.880256333333335, "type": "electric_scooter", "bike_id": "9d34ae911e4042c024774485ebb7696e"}, {"rental_uris": {"android": "https://dc.lft.to/lastmile_qr_scan", "ios": "https://dc.lft.to/lastmile_qr_scan"}, "name": "9b89b079db34fd7f878db9764968617e", "fusion_lat": 0.0, "lon": -77.00545666666666, "is_disabled": 0, "is_reserved": 0, "fusion_lon": 0.0, "lat": 38.87943683333334, "type": "electric_scooter", "bike_id": "9b89b079db34fd7f878db9764968617e"}, {"rental_uris": {"android": "https://dc.lft.to/lastmile_qr_scan", "ios": "https://dc.lft.to/lastmile_qr_scan"}, "name": "3c9caa3ea1a753244b8f92ee5eb806b4", "fusion_lat": 0.0, "lon": -76.97912933333333, "is_disabled": 0, "is_reserved": 0, "fusion_lon": 0.0, "lat": 38.89438483333333, "type": "electric_scooter", "bike_id": "3c9caa3ea1a753244b8f92ee5eb806b4"}, {"rental_uris": {"android": "https://dc.lft.to/lastmile_qr_scan", "ios": "https://dc.lft.to/lastmile_qr_scan"}, "name": "9bfa91b226e5e6db0abb423a1b05a12f", "fusion_lat": 0.0, "lon": -77.00606983333333, "is_disabled": 0, "is_reserved": 0, "fusion_lon": 0.0, "lat": 38.87180333333333, "type": "electric_scooter", "bike_id": "9bfa91b226e5e6db0abb423a1b05a12f"}, {"rental_uris": {"android": "https://dc.lft.to/lastmile_qr_scan", "ios": "https://dc.lft.to/lastmile_qr_scan"}, "name": "f417ea7a09e126f7f552469fbb34b021", "fusion_lat": 0.0, "lon": -77.03840733333334, "is_disabled": 0, "is_reserved": 0, "fusion_lon": 0.0, "lat": 38.9039995, "type": "electric_scooter", "bike_id": "f417ea7a09e126f7f552469fbb34b021"}, {"rental_uris": {"android": "https://dc.lft.to/lastmile_qr_scan", "ios": "https://dc.lft.to/lastmile_qr_scan"}, "name": "7e5dc1769e9f6cc1d35009f89fcd4024", "fusion_lat": 0.0, "lon": -77.10683, "is_disabled": 0, "is_reserved": 0, "fusion_lon": 0.0, "lat": 38.9358095, "type": "electric_bike", "bike_id": "7e5dc1769e9f6cc1d35009f89fcd4024"}, {"rental_uris": {"android": "https://dc.lft.to/lastmile_qr_scan", "ios": "https://dc.lft.to/lastmile_qr_scan"}, "name": "76ef9348b1b3d87f8180daf3e98d7cff", "fusion_lat": 0.0, "lon": -77.0398885, "is_disabled": 0, "is_reserved": 0, "fusion_lon": 0.0, "lat": 38.89223783333333, "type": "electric_scooter", "bike_id": "76ef9348b1b3d87f8180daf3e98d7cff"}, {"rental_uris": {"android": "https://dc.lft.to/lastmile_qr_scan", "ios": "https://dc.lft.to/lastmile_qr_scan"}, "name": "83daf29836cd9480925be723032b0503", "fusion_lat": 0.0, "lon": -77.03606883333333, "is_disabled": 0, "is_reserved": 0, "fusion_lon": 0.0, "lat": 38.923268166666666, "type": "electric_scooter", "bike_id": "83daf29836cd9480925be723032b0503"}, {"rental_uris": {"android": "https://dc.lft.to/lastmile_qr_scan", "ios": "https://dc.lft.to/lastmile_qr_scan"}, "name": "0d5134216a8bf8d9c88eceb02a495276", "fusion_lat": 0.0, "lon": -77.00965366666667, "is_disabled": 0, "is_reserved": 0, "fusion_lon": 0.0, "lat": 38.907878333333336, "type": "electric_scooter", "bike_id": "0d5134216a8bf8d9c88eceb02a495276"}, {"rental_uris": {"android": "https://dc.lft.to/lastmile_qr_scan", "ios": "https://dc.lft.to/lastmile_qr_scan"}, "name": "d4fc7a0ebb1588fe6079bc1542889873", "fusion_lat": 0.0, "lon": -76.9976165, "is_disabled": 0, "is_reserved": 0, "fusion_lon": 0.0, "lat": 38.900230666666666, "type": "electric_scooter", "bike_id": "d4fc7a0ebb1588fe6079bc1542889873"}, {"rental_uris": {"android": "https://dc.lft.to/lastmile_qr_scan", "ios": "https://dc.lft.to/lastmile_qr_scan"}, "name": "5a031466922a038eb24c87d67843b1e2", "fusion_lat": 0.0, "lon": -77.00369566666667, "is_disabled": 0, "is_reserved": 0, "fusion_lon": 0.0, "lat": 38.8972795, "type": "electric_scooter", "bike_id": "5a031466922a038eb24c87d67843b1e2"}, {"rental_uris": {"android": "https://dc.lft.to/lastmile_qr_scan", "ios": "https://dc.lft.to/lastmile_qr_scan"}, "name": "0a3c823de479687c8007c441970c892c", "fusion_lat": 0.0, "lon": -77.010474, "is_disabled": 0, "is_reserved": 0, "fusion_lon": 0.0, "lat": 38.8713945, "type": "electric_scooter", "bike_id": "0a3c823de479687c8007c441970c892c"}, {"rental_uris": {"android": "https://dc.lft.to/lastmile_qr_scan", "ios": "https://dc.lft.to/lastmile_qr_scan"}, "name": "d874b34539b1a2f63c4800d52266bbac", "fusion_lat": 0.0, "lon": -77.02950066666666, "is_disabled": 0, "is_reserved": 0, "fusion_lon": 0.0, "lat": 38.90501366666667, "type": "electric_scooter", "bike_id": "d874b34539b1a2f63c4800d52266bbac"}, {"rental_uris": {"android": "https://dc.lft.to/lastmile_qr_scan", "ios": "https://dc.lft.to/lastmile_qr_scan"}, "name": "2d9b509d384fd3107e69101071eb8bf2", "fusion_lat": 0.0, "lon": -77.02464633333334, "is_disabled": 0, "is_reserved": 0, "fusion_lon": 0.0, "lat": 38.90851166666667, "type": "electric_scooter", "bike_id": "2d9b509d384fd3107e69101071eb8bf2"}, {"rental_uris": {"android": "https://dc.lft.to/lastmile_qr_scan", "ios": "https://dc.lft.to/lastmile_qr_scan"}, "name": "00bb4cbf96fd760150df4536359c4223", "fusion_lat": 0.0, "lon": -76.996092, "is_disabled": 0, "is_reserved": 0, "fusion_lon": 0.0, "lat": 38.92614783333333, "type": "electric_scooter", "bike_id": "00bb4cbf96fd760150df4536359c4223"}, {"rental_uris": {"android": "https://dc.lft.to/lastmile_qr_scan", "ios": "https://dc.lft.to/lastmile_qr_scan"}, "name": "432b267db1c6b59e6d973ff46093254e", "fusion_lat": 0.0, "lon": -76.990568, "is_disabled": 0, "is_reserved": 0, "fusion_lon": 0.0, "lat": 38.86362333333334, "type": "electric_scooter", "bike_id": "432b267db1c6b59e6d973ff46093254e"}, {"rental_uris": {"android": "https://dc.lft.to/lastmile_qr_scan", "ios": "https://dc.lft.to/lastmile_qr_scan"}, "name": "dd10a977ae82ddbcaabeccb837c65df1", "fusion_lat": 0.0, "lon": -77.04370316666666, "is_disabled": 0, "is_reserved": 0, "fusion_lon": 0.0, "lat": 38.911179833333335, "type": "electric_scooter", "bike_id": "dd10a977ae82ddbcaabeccb837c65df1"}, {"rental_uris": {"android": "https://dc.lft.to/lastmile_qr_scan", "ios": "https://dc.lft.to/lastmile_qr_scan"}, "name": "5b96789da1a0acce939a2a6c9ea45fb7", "fusion_lat": 0.0, "lon": -77.02589183333333, "is_disabled": 0, "is_reserved": 0, "fusion_lon": 0.0, "lat": 38.98226983333333, "type": "electric_bike", "bike_id": "5b96789da1a0acce939a2a6c9ea45fb7"}, {"rental_uris": {"android": "https://dc.lft.to/lastmile_qr_scan", "ios": "https://dc.lft.to/lastmile_qr_scan"}, "name": "9fe380473484daf8f859093f69071331", "fusion_lat": 0.0, "lon": -77.01054383333333, "is_disabled": 0, "is_reserved": 0, "fusion_lon": 0.0, "lat": 38.929899, "type": "electric_scooter", "bike_id": "9fe380473484daf8f859093f69071331"}, {"rental_uris": {"android": "https://dc.lft.to/lastmile_qr_scan", "ios": "https://dc.lft.to/lastmile_qr_scan"}, "name": "098e4bd91e3b16036c938aa668278a09", "fusion_lat": 0.0, "lon": -77.06472716666667, "is_disabled": 0, "is_reserved": 0, "fusion_lon": 0.0, "lat": 38.9738355, "type": "electric_bike", "bike_id": "098e4bd91e3b16036c938aa668278a09"}, {"rental_uris": {"android": "https://dc.lft.to/lastmile_qr_scan", "ios": "https://dc.lft.to/lastmile_qr_scan"}, "name": "0edd78c606e99144d64381d13d5244ab", "fusion_lat": 0.0, "lon": -77.04117483333333, "is_disabled": 0, "is_reserved": 0, "fusion_lon": 0.0, "lat": 38.915531333333334, "type": "electric_scooter", "bike_id": "0edd78c606e99144d64381d13d5244ab"}, {"rental_uris": {"android": "https://dc.lft.to/lastmile_qr_scan", "ios": "https://dc.lft.to/lastmile_qr_scan"}, "name": "ace29bf4860198f21510129798cae435", "fusion_lat": 0.0, "lon": -77.02055266666666, "is_disabled": 0, "is_reserved": 0, "fusion_lon": 0.0, "lat": 38.8947475, "type": "electric_scooter", "bike_id": "ace29bf4860198f21510129798cae435"}, {"rental_uris": {"android": "https://dc.lft.to/lastmile_qr_scan", "ios": "https://dc.lft.to/lastmile_qr_scan"}, "name": "64d22957224575080ac0f321681288c3", "fusion_lat": 0.0, "lon": -76.9893525, "is_disabled": 0, "is_reserved": 0, "fusion_lon": 0.0, "lat": 38.92861966666667, "type": "electric_bike", "bike_id": "64d22957224575080ac0f321681288c3"}, {"rental_uris": {"android": "https://dc.lft.to/lastmile_qr_scan", "ios": "https://dc.lft.to/lastmile_qr_scan"}, "name": "5e29a10b09d535bf15546d649d85ee7a", "fusion_lat": 0.0, "lon": -77.03881116666666, "is_disabled": 0, "is_reserved": 0, "fusion_lon": 0.0, "lat": 38.90639516666667, "type": "electric_scooter", "bike_id": "5e29a10b09d535bf15546d649d85ee7a"}, {"rental_uris": {"android": "https://dc.lft.to/lastmile_qr_scan", "ios": "https://dc.lft.to/lastmile_qr_scan"}, "name": "ae2b1893a635552cc7502462be372bf3", "fusion_lat": 0.0, "lon": -77.02342933333334, "is_disabled": 0, "is_reserved": 0, "fusion_lon": 0.0, "lat": 38.922648, "type": "electric_scooter", "bike_id": "ae2b1893a635552cc7502462be372bf3"}, {"rental_uris": {"android": "https://dc.lft.to/lastmile_qr_scan", "ios": "https://dc.lft.to/lastmile_qr_scan"}, "name": "a044853944fda2e97fffa0165a92081e", "fusion_lat": 0.0, "lon": -77.04624616666666, "is_disabled": 0, "is_reserved": 0, "fusion_lon": 0.0, "lat": 38.91809933333333, "type": "electric_scooter", "bike_id": "a044853944fda2e97fffa0165a92081e"}, {"rental_uris": {"android": "https://dc.lft.to/lastmile_qr_scan", "ios": "https://dc.lft.to/lastmile_qr_scan"}, "name": "60404fc8d2ae202d719b51c550122e48", "fusion_lat": 0.0, "lon": -77.02229483333333, "is_disabled": 0, "is_reserved": 0, "fusion_lon": 0.0, "lat": 38.90558016666667, "type": "electric_scooter", "bike_id": "60404fc8d2ae202d719b51c550122e48"}, {"rental_uris": {"android": "https://dc.lft.to/lastmile_qr_scan", "ios": "https://dc.lft.to/lastmile_qr_scan"}, "name": "4bfeea570b0fd7bc00ac61d701957921", "fusion_lat": 0.0, "lon": -77.0030875, "is_disabled": 0, "is_reserved": 0, "fusion_lon": 0.0, "lat": 38.892269, "type": "electric_scooter", "bike_id": "4bfeea570b0fd7bc00ac61d701957921"}, {"rental_uris": {"android": "https://dc.lft.to/lastmile_qr_scan", "ios": "https://dc.lft.to/lastmile_qr_scan"}, "name": "af8ab7789ff4eac6f0ceb2eb2619607a", "fusion_lat": 0.0, "lon": -77.03470216666666, "is_disabled": 0, "is_reserved": 0, "fusion_lon": 0.0, "lat": 38.9064755, "type": "electric_scooter", "bike_id": "af8ab7789ff4eac6f0ceb2eb2619607a"}, {"rental_uris": {"android": "https://dc.lft.to/lastmile_qr_scan", "ios": "https://dc.lft.to/lastmile_qr_scan"}, "name": "2438be767d739f4309b4f8fc6c804e0e", "fusion_lat": 0.0, "lon": -77.010175, "is_disabled": 0, "is_reserved": 0, "fusion_lon": 0.0, "lat": 38.906229833333335, "type": "electric_scooter", "bike_id": "2438be767d739f4309b4f8fc6c804e0e"}, {"rental_uris": {"android": "https://dc.lft.to/lastmile_qr_scan", "ios": "https://dc.lft.to/lastmile_qr_scan"}, "name": "224620b6267af46e870ff1a1047aca9b", "fusion_lat": 0.0, "lon": -77.02858216666667, "is_disabled": 0, "is_reserved": 0, "fusion_lon": 0.0, "lat": 38.9127025, "type": "electric_scooter", "bike_id": "224620b6267af46e870ff1a1047aca9b"}, {"rental_uris": {"android": "https://dc.lft.to/lastmile_qr_scan", "ios": "https://dc.lft.to/lastmile_qr_scan"}, "name": "593a21f8be670055698e0de5e2534f97", "fusion_lat": 0.0, "lon": -77.04337133333334, "is_disabled": 0, "is_reserved": 0, "fusion_lon": 0.0, "lat": 38.898503833333336, "type": "electric_scooter", "bike_id": "593a21f8be670055698e0de5e2534f97"}, {"rental_uris": {"android": "https://dc.lft.to/lastmile_qr_scan", "ios": "https://dc.lft.to/lastmile_qr_scan"}, "name": "bc7668173b44f8c322e86e321d1407d4", "fusion_lat": 0.0, "lon": -77.02495033333334, "is_disabled": 0, "is_reserved": 0, "fusion_lon": 0.0, "lat": 38.920689, "type": "electric_scooter", "bike_id": "bc7668173b44f8c322e86e321d1407d4"}, {"rental_uris": {"android": "https://dc.lft.to/lastmile_qr_scan", "ios": "https://dc.lft.to/lastmile_qr_scan"}, "name": "6594751f05581d8b47f689eac1b1a760", "fusion_lat": 0.0, "lon": -76.98724266666666, "is_disabled": 0, "is_reserved": 0, "fusion_lon": 0.0, "lat": 38.86713566666667, "type": "electric_scooter", "bike_id": "6594751f05581d8b47f689eac1b1a760"}, {"rental_uris": {"android": "https://dc.lft.to/lastmile_qr_scan", "ios": "https://dc.lft.to/lastmile_qr_scan"}, "name": "6f530a2cfeb4666f2a2d48f34f168014", "fusion_lat": 0.0, "lon": -76.95202433333333, "is_disabled": 0, "is_reserved": 0, "fusion_lon": 0.0, "lat": 38.936665, "type": "electric_bike", "bike_id": "6f530a2cfeb4666f2a2d48f34f168014"}, {"rental_uris": {"android": "https://dc.lft.to/lastmile_qr_scan", "ios": "https://dc.lft.to/lastmile_qr_scan"}, "name": "e733090308feca4d48a37ac1cdf6d704", "fusion_lat": 0.0, "lon": -77.04673666666666, "is_disabled": 0, "is_reserved": 0, "fusion_lon": 0.0, "lat": 38.903431166666664, "type": "electric_scooter", "bike_id": "e733090308feca4d48a37ac1cdf6d704"}, {"rental_uris": {"android": "https://dc.lft.to/lastmile_qr_scan", "ios": "https://dc.lft.to/lastmile_qr_scan"}, "name": "26ce76739fb4b6ea1d383d11a56a1d1d", "fusion_lat": 0.0, "lon": -77.03025733333334, "is_disabled": 0, "is_reserved": 0, "fusion_lon": 0.0, "lat": 38.8961315, "type": "electric_scooter", "bike_id": "26ce76739fb4b6ea1d383d11a56a1d1d"}, {"rental_uris": {"android": "https://dc.lft.to/lastmile_qr_scan", "ios": "https://dc.lft.to/lastmile_qr_scan"}, "name": "9b803bf21de8cf4810f5fc2b593600af", "fusion_lat": 0.0, "lon": -77.02426016666666, "is_disabled": 0, "is_reserved": 0, "fusion_lon": 0.0, "lat": 38.927560666666665, "type": "electric_scooter", "bike_id": "9b803bf21de8cf4810f5fc2b593600af"}, {"rental_uris": {"android": "https://dc.lft.to/lastmile_qr_scan", "ios": "https://dc.lft.to/lastmile_qr_scan"}, "name": "fd8dd26291cd00101e1b4d9f796c3762", "fusion_lat": 0.0, "lon": -77.02845883333333, "is_disabled": 0, "is_reserved": 0, "fusion_lon": 0.0, "lat": 38.922367, "type": "electric_scooter", "bike_id": "fd8dd26291cd00101e1b4d9f796c3762"}, {"rental_uris": {"android": "https://dc.lft.to/lastmile_qr_scan", "ios": "https://dc.lft.to/lastmile_qr_scan"}, "name": "fc28e70fb1042ed425326f8717545e25", "fusion_lat": 0.0, "lon": -77.0243615, "is_disabled": 0, "is_reserved": 0, "fusion_lon": 0.0, "lat": 38.89465116666667, "type": "electric_scooter", "bike_id": "fc28e70fb1042ed425326f8717545e25"}, {"rental_uris": {"android": "https://dc.lft.to/lastmile_qr_scan", "ios": "https://dc.lft.to/lastmile_qr_scan"}, "name": "60cacca678156e0ff941f6797d76bf48", "fusion_lat": 0.0, "lon": -77.00231083333334, "is_disabled": 0, "is_reserved": 0, "fusion_lon": 0.0, "lat": 38.87307416666667, "type": "electric_scooter", "bike_id": "60cacca678156e0ff941f6797d76bf48"}, {"rental_uris": {"android": "https://dc.lft.to/lastmile_qr_scan", "ios": "https://dc.lft.to/lastmile_qr_scan"}, "name": "5e8c8e74e80efab57416080da3bded2c", "fusion_lat": 0.0, "lon": -77.00452983333334, "is_disabled": 0, "is_reserved": 0, "fusion_lon": 0.0, "lat": 38.928968, "type": "electric_scooter", "bike_id": "5e8c8e74e80efab57416080da3bded2c"}, {"rental_uris": {"android": "https://dc.lft.to/lastmile_qr_scan", "ios": "https://dc.lft.to/lastmile_qr_scan"}, "name": "c9f9eb532d1dbfe7197513d96136fd56", "fusion_lat": 0.0, "lon": -77.09213533333333, "is_disabled": 0, "is_reserved": 0, "fusion_lon": 0.0, "lat": 38.917177333333335, "type": "electric_scooter", "bike_id": "c9f9eb532d1dbfe7197513d96136fd56"}, {"rental_uris": {"android": "https://dc.lft.to/lastmile_qr_scan", "ios": "https://dc.lft.to/lastmile_qr_scan"}, "name": "b8e382d2f978db2da9c652a6d52a6806", "fusion_lat": 0.0, "lon": -77.038418, "is_disabled": 0, "is_reserved": 0, "fusion_lon": 0.0, "lat": 38.90396833333333, "type": "electric_scooter", "bike_id": "b8e382d2f978db2da9c652a6d52a6806"}, {"rental_uris": {"android": "https://dc.lft.to/lastmile_qr_scan", "ios": "https://dc.lft.to/lastmile_qr_scan"}, "name": "3078f470afe44fbf977fea975904d7c5", "fusion_lat": 0.0, "lon": -77.04693016666667, "is_disabled": 0, "is_reserved": 0, "fusion_lon": 0.0, "lat": 38.915969, "type": "electric_scooter", "bike_id": "3078f470afe44fbf977fea975904d7c5"}, {"rental_uris": {"android": "https://dc.lft.to/lastmile_qr_scan", "ios": "https://dc.lft.to/lastmile_qr_scan"}, "name": "46e9d06de240c4aa6317442c0b34301a", "fusion_lat": 0.0, "lon": -77.01315316666667, "is_disabled": 0, "is_reserved": 0, "fusion_lon": 0.0, "lat": 38.9013265, "type": "electric_scooter", "bike_id": "46e9d06de240c4aa6317442c0b34301a"}, {"rental_uris": {"android": "https://dc.lft.to/lastmile_qr_scan", "ios": "https://dc.lft.to/lastmile_qr_scan"}, "name": "411e9052dcd4bd97393124c6708fa596", "fusion_lat": 0.0, "lon": -77.0213805, "is_disabled": 0, "is_reserved": 0, "fusion_lon": 0.0, "lat": 38.899757666666666, "type": "electric_scooter", "bike_id": "411e9052dcd4bd97393124c6708fa596"}, {"rental_uris": {"android": "https://dc.lft.to/lastmile_qr_scan", "ios": "https://dc.lft.to/lastmile_qr_scan"}, "name": "ef20b1fc45763e02ddd78d9a96cf379a", "fusion_lat": 0.0, "lon": -77.031785, "is_disabled": 0, "is_reserved": 0, "fusion_lon": 0.0, "lat": 38.893436, "type": "electric_scooter", "bike_id": "ef20b1fc45763e02ddd78d9a96cf379a"}, {"rental_uris": {"android": "https://dc.lft.to/lastmile_qr_scan", "ios": "https://dc.lft.to/lastmile_qr_scan"}, "name": "dad8dd853b6a60a23277e11949199828", "fusion_lat": 0.0, "lon": -77.03958816666666, "is_disabled": 0, "is_reserved": 0, "fusion_lon": 0.0, "lat": 38.904241166666665, "type": "electric_scooter", "bike_id": "dad8dd853b6a60a23277e11949199828"}, {"rental_uris": {"android": "https://dc.lft.to/lastmile_qr_scan", "ios": "https://dc.lft.to/lastmile_qr_scan"}, "name": "bdb3efee0fa24c11d23236e13f221965", "fusion_lat": 0.0, "lon": -76.98685683333333, "is_disabled": 0, "is_reserved": 0, "fusion_lon": 0.0, "lat": 38.88534816666667, "type": "electric_scooter", "bike_id": "bdb3efee0fa24c11d23236e13f221965"}, {"rental_uris": {"android": "https://dc.lft.to/lastmile_qr_scan", "ios": "https://dc.lft.to/lastmile_qr_scan"}, "name": "e5dc306196366f626bfc0183ea464759", "fusion_lat": 0.0, "lon": -77.03510316666667, "is_disabled": 0, "is_reserved": 0, "fusion_lon": 0.0, "lat": 38.935762, "type": "electric_scooter", "bike_id": "e5dc306196366f626bfc0183ea464759"}, {"rental_uris": {"android": "https://dc.lft.to/lastmile_qr_scan", "ios": "https://dc.lft.to/lastmile_qr_scan"}, "name": "76c357fe5cb1318244ac9dfb267d0cb4", "fusion_lat": 0.0, "lon": -77.04405533333333, "is_disabled": 0, "is_reserved": 0, "fusion_lon": 0.0, "lat": 38.89399933333333, "type": "electric_scooter", "bike_id": "76c357fe5cb1318244ac9dfb267d0cb4"}, {"rental_uris": {"android": "https://dc.lft.to/lastmile_qr_scan", "ios": "https://dc.lft.to/lastmile_qr_scan"}, "name": "7fe89bbfd3d163d53ea686f8c1d3e669", "fusion_lat": 0.0, "lon": -77.03909383333334, "is_disabled": 0, "is_reserved": 0, "fusion_lon": 0.0, "lat": 38.9047225, "type": "electric_scooter", "bike_id": "7fe89bbfd3d163d53ea686f8c1d3e669"}, {"rental_uris": {"android": "https://dc.lft.to/lastmile_qr_scan", "ios": "https://dc.lft.to/lastmile_qr_scan"}, "name": "dfc51c2f2b2766550c92a6e65255c07e", "fusion_lat": 0.0, "lon": -76.97193266666666, "is_disabled": 0, "is_reserved": 0, "fusion_lon": 0.0, "lat": 38.892495, "type": "electric_bike", "bike_id": "dfc51c2f2b2766550c92a6e65255c07e"}, {"rental_uris": {"android": "https://dc.lft.to/lastmile_qr_scan", "ios": "https://dc.lft.to/lastmile_qr_scan"}, "name": "9a098c1fd1812eb0bbea9bdc24f52ead", "fusion_lat": 0.0, "lon": -77.03183783333333, "is_disabled": 0, "is_reserved": 0, "fusion_lon": 0.0, "lat": 38.90951316666667, "type": "electric_scooter", "bike_id": "9a098c1fd1812eb0bbea9bdc24f52ead"}, {"rental_uris": {"android": "https://dc.lft.to/lastmile_qr_scan", "ios": "https://dc.lft.to/lastmile_qr_scan"}, "name": "46cf192e64b314b490f11fa911b23db4", "fusion_lat": 0.0, "lon": -77.02682016666667, "is_disabled": 0, "is_reserved": 0, "fusion_lon": 0.0, "lat": 38.898342, "type": "electric_scooter", "bike_id": "46cf192e64b314b490f11fa911b23db4"}, {"rental_uris": {"android": "https://dc.lft.to/lastmile_qr_scan", "ios": "https://dc.lft.to/lastmile_qr_scan"}, "name": "ee24df5397760ca8226a94f15c4acd93", "fusion_lat": 0.0, "lon": -77.037949, "is_disabled": 0, "is_reserved": 0, "fusion_lon": 0.0, "lat": 38.9198625, "type": "electric_scooter", "bike_id": "ee24df5397760ca8226a94f15c4acd93"}, {"rental_uris": {"android": "https://dc.lft.to/lastmile_qr_scan", "ios": "https://dc.lft.to/lastmile_qr_scan"}, "name": "662d80b68d4fab2ae92b3f5b652221b6", "fusion_lat": 0.0, "lon": -77.01370033333333, "is_disabled": 0, "is_reserved": 0, "fusion_lon": 0.0, "lat": 38.892233833333336, "type": "electric_scooter", "bike_id": "662d80b68d4fab2ae92b3f5b652221b6"}, {"rental_uris": {"android": "https://dc.lft.to/lastmile_qr_scan", "ios": "https://dc.lft.to/lastmile_qr_scan"}, "name": "ea639423d28f347769b3ba2f95ba2f4d", "fusion_lat": 0.0, "lon": -77.0215525, "is_disabled": 0, "is_reserved": 0, "fusion_lon": 0.0, "lat": 38.92585416666667, "type": "electric_scooter", "bike_id": "ea639423d28f347769b3ba2f95ba2f4d"}, {"rental_uris": {"android": "https://dc.lft.to/lastmile_qr_scan", "ios": "https://dc.lft.to/lastmile_qr_scan"}, "name": "c0f5af9a56f26a85e755bd9f636ba47f", "fusion_lat": 0.0, "lon": -77.04347566666667, "is_disabled": 0, "is_reserved": 0, "fusion_lon": 0.0, "lat": 38.910668666666666, "type": "electric_scooter", "bike_id": "c0f5af9a56f26a85e755bd9f636ba47f"}, {"rental_uris": {"android": "https://dc.lft.to/lastmile_qr_scan", "ios": "https://dc.lft.to/lastmile_qr_scan"}, "name": "a88d50d29082ebbec732ef6a1669bf19", "fusion_lat": 0.0, "lon": -76.98908116666667, "is_disabled": 0, "is_reserved": 0, "fusion_lon": 0.0, "lat": 38.900265166666664, "type": "electric_bike", "bike_id": "a88d50d29082ebbec732ef6a1669bf19"}, {"rental_uris": {"android": "https://dc.lft.to/lastmile_qr_scan", "ios": "https://dc.lft.to/lastmile_qr_scan"}, "name": "df1423d6fd2ee825d1f46102fc5ac7aa", "fusion_lat": 0.0, "lon": -77.0056455, "is_disabled": 0, "is_reserved": 0, "fusion_lon": 0.0, "lat": 38.88501516666667, "type": "electric_scooter", "bike_id": "df1423d6fd2ee825d1f46102fc5ac7aa"}, {"rental_uris": {"android": "https://dc.lft.to/lastmile_qr_scan", "ios": "https://dc.lft.to/lastmile_qr_scan"}, "name": "47039130f4300352f642eb982554f083", "fusion_lat": 0.0, "lon": -77.00579483333334, "is_disabled": 0, "is_reserved": 0, "fusion_lon": 0.0, "lat": 38.885354, "type": "electric_scooter", "bike_id": "47039130f4300352f642eb982554f083"}, {"rental_uris": {"android": "https://dc.lft.to/lastmile_qr_scan", "ios": "https://dc.lft.to/lastmile_qr_scan"}, "name": "a4ac90263d93072bae5badc0f429eef2", "fusion_lat": 0.0, "lon": -76.92402433333334, "is_disabled": 0, "is_reserved": 0, "fusion_lon": 0.0, "lat": 38.889881833333334, "type": "electric_scooter", "bike_id": "a4ac90263d93072bae5badc0f429eef2"}, {"rental_uris": {"android": "https://dc.lft.to/lastmile_qr_scan", "ios": "https://dc.lft.to/lastmile_qr_scan"}, "name": "ed6bb4b4ef33b874bd626dcf7cefbf3a", "fusion_lat": 0.0, "lon": -77.00574716666667, "is_disabled": 0, "is_reserved": 0, "fusion_lon": 0.0, "lat": 38.8853295, "type": "electric_scooter", "bike_id": "ed6bb4b4ef33b874bd626dcf7cefbf3a"}, {"rental_uris": {"android": "https://dc.lft.to/lastmile_qr_scan", "ios": "https://dc.lft.to/lastmile_qr_scan"}, "name": "5a7169d308409dfca84ecee5595343f5", "fusion_lat": 0.0, "lon": -77.032755, "is_disabled": 0, "is_reserved": 0, "fusion_lon": 0.0, "lat": 38.931044666666665, "type": "electric_scooter", "bike_id": "5a7169d308409dfca84ecee5595343f5"}, {"rental_uris": {"android": "https://dc.lft.to/lastmile_qr_scan", "ios": "https://dc.lft.to/lastmile_qr_scan"}, "name": "207053c0c80c55c0361a14e962e86c6a", "fusion_lat": 0.0, "lon": -77.02964533333333, "is_disabled": 0, "is_reserved": 0, "fusion_lon": 0.0, "lat": 38.8932845, "type": "electric_scooter", "bike_id": "207053c0c80c55c0361a14e962e86c6a"}, {"rental_uris": {"android": "https://dc.lft.to/lastmile_qr_scan", "ios": "https://dc.lft.to/lastmile_qr_scan"}, "name": "9a40a526cc8199fb977902a9751b5ee8", "fusion_lat": 0.0, "lon": -76.93411333333333, "is_disabled": 0, "is_reserved": 0, "fusion_lon": 0.0, "lat": 38.94625533333333, "type": "electric_bike", "bike_id": "9a40a526cc8199fb977902a9751b5ee8"}, {"rental_uris": {"android": "https://dc.lft.to/lastmile_qr_scan", "ios": "https://dc.lft.to/lastmile_qr_scan"}, "name": "04494f7fd9a448c432d21ee67de6aefa", "fusion_lat": 0.0, "lon": -77.01258233333333, "is_disabled": 0, "is_reserved": 0, "fusion_lon": 0.0, "lat": 38.876332833333336, "type": "electric_scooter", "bike_id": "04494f7fd9a448c432d21ee67de6aefa"}, {"rental_uris": {"android": "https://dc.lft.to/lastmile_qr_scan", "ios": "https://dc.lft.to/lastmile_qr_scan"}, "name": "4709dce98eac7d7db47dd834bd1a01c1", "fusion_lat": 0.0, "lon": -77.00811933333334, "is_disabled": 0, "is_reserved": 0, "fusion_lon": 0.0, "lat": 38.8764335, "type": "electric_scooter", "bike_id": "4709dce98eac7d7db47dd834bd1a01c1"}, {"rental_uris": {"android": "https://dc.lft.to/lastmile_qr_scan", "ios": "https://dc.lft.to/lastmile_qr_scan"}, "name": "1542561eaa06ae969f954445928cf087", "fusion_lat": 0.0, "lon": -77.1091825, "is_disabled": 0, "is_reserved": 0, "fusion_lon": 0.0, "lat": 39.05205483333334, "type": "electric_bike", "bike_id": "1542561eaa06ae969f954445928cf087"}, {"rental_uris": {"android": "https://dc.lft.to/lastmile_qr_scan", "ios": "https://dc.lft.to/lastmile_qr_scan"}, "name": "1efe5a9757152ebbb04500c10018996d", "fusion_lat": 0.0, "lon": -76.98923466666666, "is_disabled": 0, "is_reserved": 0, "fusion_lon": 0.0, "lat": 38.866328333333335, "type": "electric_scooter", "bike_id": "1efe5a9757152ebbb04500c10018996d"}, {"rental_uris": {"android": "https://dc.lft.to/lastmile_qr_scan", "ios": "https://dc.lft.to/lastmile_qr_scan"}, "name": "9215f63041399f6500dd6594ba46566c", "fusion_lat": 0.0, "lon": -76.97309633333333, "is_disabled": 0, "is_reserved": 0, "fusion_lon": 0.0, "lat": 38.919858, "type": "electric_scooter", "bike_id": "9215f63041399f6500dd6594ba46566c"}, {"rental_uris": {"android": "https://dc.lft.to/lastmile_qr_scan", "ios": "https://dc.lft.to/lastmile_qr_scan"}, "name": "bc546444356debc6ade90d6a80d19d91", "fusion_lat": 0.0, "lon": -77.0237245, "is_disabled": 0, "is_reserved": 0, "fusion_lon": 0.0, "lat": 38.892228833333334, "type": "electric_scooter", "bike_id": "bc546444356debc6ade90d6a80d19d91"}, {"rental_uris": {"android": "https://dc.lft.to/lastmile_qr_scan", "ios": "https://dc.lft.to/lastmile_qr_scan"}, "name": "5867345908e9539dd091873fb3bb8cee", "fusion_lat": 0.0, "lon": -76.96508083333333, "is_disabled": 0, "is_reserved": 0, "fusion_lon": 0.0, "lat": 38.876490833333335, "type": "electric_scooter", "bike_id": "5867345908e9539dd091873fb3bb8cee"}, {"rental_uris": {"android": "https://dc.lft.to/lastmile_qr_scan", "ios": "https://dc.lft.to/lastmile_qr_scan"}, "name": "4115fc46cc6432dfd134c30a3a14b40c", "fusion_lat": 0.0, "lon": -77.0175275, "is_disabled": 0, "is_reserved": 0, "fusion_lon": 0.0, "lat": 38.908698, "type": "electric_scooter", "bike_id": "4115fc46cc6432dfd134c30a3a14b40c"}, {"rental_uris": {"android": "https://dc.lft.to/lastmile_qr_scan", "ios": "https://dc.lft.to/lastmile_qr_scan"}, "name": "ff6c75769b540abc5dc7bfd54abadb44", "fusion_lat": 0.0, "lon": -77.04650166666667, "is_disabled": 0, "is_reserved": 0, "fusion_lon": 0.0, "lat": 38.904315833333335, "type": "electric_scooter", "bike_id": "ff6c75769b540abc5dc7bfd54abadb44"}, {"rental_uris": {"android": "https://dc.lft.to/lastmile_qr_scan", "ios": "https://dc.lft.to/lastmile_qr_scan"}, "name": "fdd091f3ab8794fc3a0c04f41f903135", "fusion_lat": 0.0, "lon": -77.04355583333333, "is_disabled": 0, "is_reserved": 0, "fusion_lon": 0.0, "lat": 38.9041025, "type": "electric_scooter", "bike_id": "fdd091f3ab8794fc3a0c04f41f903135"}, {"rental_uris": {"android": "https://dc.lft.to/lastmile_qr_scan", "ios": "https://dc.lft.to/lastmile_qr_scan"}, "name": "5e9bd416ebccc9b9217fef98c434468e", "fusion_lat": 0.0, "lon": -77.043438, "is_disabled": 0, "is_reserved": 0, "fusion_lon": 0.0, "lat": 38.903495, "type": "electric_scooter", "bike_id": "5e9bd416ebccc9b9217fef98c434468e"}, {"rental_uris": {"android": "https://dc.lft.to/lastmile_qr_scan", "ios": "https://dc.lft.to/lastmile_qr_scan"}, "name": "951bee17283df362d791d1b2628f1727", "fusion_lat": 0.0, "lon": -76.99489616666666, "is_disabled": 0, "is_reserved": 0, "fusion_lon": 0.0, "lat": 38.862444833333335, "type": "electric_scooter", "bike_id": "951bee17283df362d791d1b2628f1727"}, {"rental_uris": {"android": "https://dc.lft.to/lastmile_qr_scan", "ios": "https://dc.lft.to/lastmile_qr_scan"}, "name": "08840bae4865109133734e348ba7f732", "fusion_lat": 0.0, "lon": -77.04386633333333, "is_disabled": 0, "is_reserved": 0, "fusion_lon": 0.0, "lat": 38.922767, "type": "electric_scooter", "bike_id": "08840bae4865109133734e348ba7f732"}, {"rental_uris": {"android": "https://dc.lft.to/lastmile_qr_scan", "ios": "https://dc.lft.to/lastmile_qr_scan"}, "name": "edf6a357bf19ab5518e1c8d2d88aa2d7", "fusion_lat": 0.0, "lon": -77.03272466666667, "is_disabled": 0, "is_reserved": 0, "fusion_lon": 0.0, "lat": 38.915634, "type": "electric_scooter", "bike_id": "edf6a357bf19ab5518e1c8d2d88aa2d7"}, {"rental_uris": {"android": "https://dc.lft.to/lastmile_qr_scan", "ios": "https://dc.lft.to/lastmile_qr_scan"}, "name": "78382ccadaca954be470c14e380bb67f", "fusion_lat": 0.0, "lon": -77.04901483333333, "is_disabled": 0, "is_reserved": 0, "fusion_lon": 0.0, "lat": 38.89251, "type": "electric_scooter", "bike_id": "78382ccadaca954be470c14e380bb67f"}, {"rental_uris": {"android": "https://dc.lft.to/lastmile_qr_scan", "ios": "https://dc.lft.to/lastmile_qr_scan"}, "name": "53bbf6d25f86b21a64ebe9d8b0d66116", "fusion_lat": 0.0, "lon": -77.09561483333333, "is_disabled": 0, "is_reserved": 0, "fusion_lon": 0.0, "lat": 38.9170585, "type": "electric_bike", "bike_id": "53bbf6d25f86b21a64ebe9d8b0d66116"}, {"rental_uris": {"android": "https://dc.lft.to/lastmile_qr_scan", "ios": "https://dc.lft.to/lastmile_qr_scan"}, "name": "6057c9fb01c64a57f51236df3d69cf13", "fusion_lat": 0.0, "lon": -76.98710866666667, "is_disabled": 0, "is_reserved": 0, "fusion_lon": 0.0, "lat": 38.86700483333333, "type": "electric_scooter", "bike_id": "6057c9fb01c64a57f51236df3d69cf13"}, {"rental_uris": {"android": "https://dc.lft.to/lastmile_qr_scan", "ios": "https://dc.lft.to/lastmile_qr_scan"}, "name": "bcbfa1fbd23571e778f43bf67c2ac11b", "fusion_lat": 0.0, "lon": -77.01807916666667, "is_disabled": 0, "is_reserved": 0, "fusion_lon": 0.0, "lat": 38.92167833333333, "type": "electric_scooter", "bike_id": "bcbfa1fbd23571e778f43bf67c2ac11b"}, {"rental_uris": {"android": "https://dc.lft.to/lastmile_qr_scan", "ios": "https://dc.lft.to/lastmile_qr_scan"}, "name": "4681e54bb6a8296f8113dc470abc9a12", "fusion_lat": 0.0, "lon": -77.12503416666667, "is_disabled": 0, "is_reserved": 0, "fusion_lon": 0.0, "lat": 39.0242315, "type": "electric_bike", "bike_id": "4681e54bb6a8296f8113dc470abc9a12"}, {"rental_uris": {"android": "https://dc.lft.to/lastmile_qr_scan", "ios": "https://dc.lft.to/lastmile_qr_scan"}, "name": "7d5259a519310c99e3cee18181f0aa22", "fusion_lat": 0.0, "lon": -77.06352133333333, "is_disabled": 0, "is_reserved": 0, "fusion_lon": 0.0, "lat": 38.94452166666667, "type": "electric_scooter", "bike_id": "7d5259a519310c99e3cee18181f0aa22"}, {"rental_uris": {"android": "https://dc.lft.to/lastmile_qr_scan", "ios": "https://dc.lft.to/lastmile_qr_scan"}, "name": "a2ef905f63e1b9e75c0bfb19bc437ac3", "fusion_lat": 0.0, "lon": -77.03531283333334, "is_disabled": 0, "is_reserved": 0, "fusion_lon": 0.0, "lat": 38.924760166666665, "type": "electric_scooter", "bike_id": "a2ef905f63e1b9e75c0bfb19bc437ac3"}, {"rental_uris": {"android": "https://dc.lft.to/lastmile_qr_scan", "ios": "https://dc.lft.to/lastmile_qr_scan"}, "name": "8bed018dc342fd7fc8fe4d4bf21216cf", "fusion_lat": 0.0, "lon": -77.00884783333333, "is_disabled": 0, "is_reserved": 0, "fusion_lon": 0.0, "lat": 38.873372333333336, "type": "electric_scooter", "bike_id": "8bed018dc342fd7fc8fe4d4bf21216cf"}, {"rental_uris": {"android": "https://dc.lft.to/lastmile_qr_scan", "ios": "https://dc.lft.to/lastmile_qr_scan"}, "name": "5c991d8acfc45d4abf61a45643591d7d", "fusion_lat": 0.0, "lon": -76.99569466666667, "is_disabled": 0, "is_reserved": 0, "fusion_lon": 0.0, "lat": 39.00785916666667, "type": "electric_bike", "bike_id": "5c991d8acfc45d4abf61a45643591d7d"}, {"rental_uris": {"android": "https://dc.lft.to/lastmile_qr_scan", "ios": "https://dc.lft.to/lastmile_qr_scan"}, "name": "4613defc9a2a91ec5764295bc0650332", "fusion_lat": 0.0, "lon": -77.04682916666667, "is_disabled": 0, "is_reserved": 0, "fusion_lon": 0.0, "lat": 38.89515933333333, "type": "electric_scooter", "bike_id": "4613defc9a2a91ec5764295bc0650332"}, {"rental_uris": {"android": "https://dc.lft.to/lastmile_qr_scan", "ios": "https://dc.lft.to/lastmile_qr_scan"}, "name": "a59f3b9b99cfbaee4d8e14dcdac3fa8f", "fusion_lat": 0.0, "lon": -77.03190433333333, "is_disabled": 0, "is_reserved": 0, "fusion_lon": 0.0, "lat": 38.94178183333333, "type": "electric_bike", "bike_id": "a59f3b9b99cfbaee4d8e14dcdac3fa8f"}, {"rental_uris": {"android": "https://dc.lft.to/lastmile_qr_scan", "ios": "https://dc.lft.to/lastmile_qr_scan"}, "name": "dad371b0ac399bc34e76e35fdcfcc6f1", "fusion_lat": 0.0, "lon": -77.0295075, "is_disabled": 0, "is_reserved": 0, "fusion_lon": 0.0, "lat": 38.89885833333334, "type": "electric_scooter", "bike_id": "dad371b0ac399bc34e76e35fdcfcc6f1"}, {"rental_uris": {"android": "https://dc.lft.to/lastmile_qr_scan", "ios": "https://dc.lft.to/lastmile_qr_scan"}, "name": "9ef086884ab1b02232d221fb54e4c9da", "fusion_lat": 0.0, "lon": -77.00292833333333, "is_disabled": 0, "is_reserved": 0, "fusion_lon": 0.0, "lat": 38.89199333333333, "type": "electric_scooter", "bike_id": "9ef086884ab1b02232d221fb54e4c9da"}, {"rental_uris": {"android": "https://dc.lft.to/lastmile_qr_scan", "ios": "https://dc.lft.to/lastmile_qr_scan"}, "name": "8a64ce38d1c1002a1565e4554d99443c", "fusion_lat": 0.0, "lon": -77.04510783333333, "is_disabled": 0, "is_reserved": 0, "fusion_lon": 0.0, "lat": 38.886033833333336, "type": "electric_scooter", "bike_id": "8a64ce38d1c1002a1565e4554d99443c"}, {"rental_uris": {"android": "https://dc.lft.to/lastmile_qr_scan", "ios": "https://dc.lft.to/lastmile_qr_scan"}, "name": "d5627da37c44d24ddb6fdc30110d9fab", "fusion_lat": 0.0, "lon": -76.99495616666667, "is_disabled": 0, "is_reserved": 0, "fusion_lon": 0.0, "lat": 38.862214333333334, "type": "electric_scooter", "bike_id": "d5627da37c44d24ddb6fdc30110d9fab"}, {"rental_uris": {"android": "https://dc.lft.to/lastmile_qr_scan", "ios": "https://dc.lft.to/lastmile_qr_scan"}, "name": "5f41847d27cf0d9e601f795f0b8dc186", "fusion_lat": 0.0, "lon": -77.0352065, "is_disabled": 0, "is_reserved": 0, "fusion_lon": 0.0, "lat": 38.9328, "type": "electric_scooter", "bike_id": "5f41847d27cf0d9e601f795f0b8dc186"}, {"rental_uris": {"android": "https://dc.lft.to/lastmile_qr_scan", "ios": "https://dc.lft.to/lastmile_qr_scan"}, "name": "30242ce058662bda078001f73f3d3e70", "fusion_lat": 0.0, "lon": -77.00822183333334, "is_disabled": 0, "is_reserved": 0, "fusion_lon": 0.0, "lat": 38.8872295, "type": "electric_bike", "bike_id": "30242ce058662bda078001f73f3d3e70"}, {"rental_uris": {"android": "https://dc.lft.to/lastmile_qr_scan", "ios": "https://dc.lft.to/lastmile_qr_scan"}, "name": "1c9de450df57ac712e80cc2691bfc64d", "fusion_lat": 0.0, "lon": -77.0318245, "is_disabled": 0, "is_reserved": 0, "fusion_lon": 0.0, "lat": 38.920238499999996, "type": "electric_scooter", "bike_id": "1c9de450df57ac712e80cc2691bfc64d"}, {"rental_uris": {"android": "https://dc.lft.to/lastmile_qr_scan", "ios": "https://dc.lft.to/lastmile_qr_scan"}, "name": "47700afb2fadd95b9eb0ef56799b29dd", "fusion_lat": 0.0, "lon": -77.0380115, "is_disabled": 0, "is_reserved": 0, "fusion_lon": 0.0, "lat": 38.910371833333336, "type": "electric_scooter", "bike_id": "47700afb2fadd95b9eb0ef56799b29dd"}, {"rental_uris": {"android": "https://dc.lft.to/lastmile_qr_scan", "ios": "https://dc.lft.to/lastmile_qr_scan"}, "name": "4a2714e304d72bba84510859813b9290", "fusion_lat": 0.0, "lon": -77.0333595, "is_disabled": 0, "is_reserved": 0, "fusion_lon": 0.0, "lat": 38.89818833333333, "type": "electric_scooter", "bike_id": "4a2714e304d72bba84510859813b9290"}, {"rental_uris": {"android": "https://dc.lft.to/lastmile_qr_scan", "ios": "https://dc.lft.to/lastmile_qr_scan"}, "name": "85597518748dc68248853c69593e2d58", "fusion_lat": 0.0, "lon": -77.02937416666667, "is_disabled": 0, "is_reserved": 0, "fusion_lon": 0.0, "lat": 38.8998065, "type": "electric_scooter", "bike_id": "85597518748dc68248853c69593e2d58"}, {"rental_uris": {"android": "https://dc.lft.to/lastmile_qr_scan", "ios": "https://dc.lft.to/lastmile_qr_scan"}, "name": "3b90604fd5233ea1dd06dae935aa2dc5", "fusion_lat": 0.0, "lon": -77.03701366666667, "is_disabled": 0, "is_reserved": 0, "fusion_lon": 0.0, "lat": 38.92025833333334, "type": "electric_scooter", "bike_id": "3b90604fd5233ea1dd06dae935aa2dc5"}, {"rental_uris": {"android": "https://dc.lft.to/lastmile_qr_scan", "ios": "https://dc.lft.to/lastmile_qr_scan"}, "name": "fefc744558e6c3668e814132c16ffdb6", "fusion_lat": 0.0, "lon": -77.04593583333333, "is_disabled": 0, "is_reserved": 0, "fusion_lon": 0.0, "lat": 38.896055, "type": "electric_scooter", "bike_id": "fefc744558e6c3668e814132c16ffdb6"}, {"rental_uris": {"android": "https://dc.lft.to/lastmile_qr_scan", "ios": "https://dc.lft.to/lastmile_qr_scan"}, "name": "98c5d2f8cc0bf028fe3af5bb24b04728", "fusion_lat": 0.0, "lon": -77.10126966666667, "is_disabled": 0, "is_reserved": 0, "fusion_lon": 0.0, "lat": 38.852082, "type": "electric_bike", "bike_id": "98c5d2f8cc0bf028fe3af5bb24b04728"}, {"rental_uris": {"android": "https://dc.lft.to/lastmile_qr_scan", "ios": "https://dc.lft.to/lastmile_qr_scan"}, "name": "9289f3d3412c609bce3032f0c5797af0", "fusion_lat": 0.0, "lon": -76.9816315, "is_disabled": 0, "is_reserved": 0, "fusion_lon": 0.0, "lat": 38.959603333333334, "type": "electric_bike", "bike_id": "9289f3d3412c609bce3032f0c5797af0"}, {"rental_uris": {"android": "https://dc.lft.to/lastmile_qr_scan", "ios": "https://dc.lft.to/lastmile_qr_scan"}, "name": "de75bc93673c64d6180a97b77000fc6a", "fusion_lat": 0.0, "lon": -77.04156116666667, "is_disabled": 0, "is_reserved": 0, "fusion_lon": 0.0, "lat": 38.916046333333334, "type": "electric_scooter", "bike_id": "de75bc93673c64d6180a97b77000fc6a"}, {"rental_uris": {"android": "https://dc.lft.to/lastmile_qr_scan", "ios": "https://dc.lft.to/lastmile_qr_scan"}, "name": "edd6588e55a4c8aaadeb501de782d0ee", "fusion_lat": 0.0, "lon": -76.98456816666666, "is_disabled": 0, "is_reserved": 0, "fusion_lon": 0.0, "lat": 38.8801395, "type": "electric_scooter", "bike_id": "edd6588e55a4c8aaadeb501de782d0ee"}, {"rental_uris": {"android": "https://dc.lft.to/lastmile_qr_scan", "ios": "https://dc.lft.to/lastmile_qr_scan"}, "name": "7d3cccf0ab3fa728cce6c87834de5f87", "fusion_lat": 0.0, "lon": -77.02776016666667, "is_disabled": 0, "is_reserved": 0, "fusion_lon": 0.0, "lat": 38.89887433333333, "type": "electric_scooter", "bike_id": "7d3cccf0ab3fa728cce6c87834de5f87"}, {"rental_uris": {"android": "https://dc.lft.to/lastmile_qr_scan", "ios": "https://dc.lft.to/lastmile_qr_scan"}, "name": "0b8e382c459927696c2df25ac810a3c8", "fusion_lat": 0.0, "lon": -77.0120525, "is_disabled": 0, "is_reserved": 0, "fusion_lon": 0.0, "lat": 38.893337833333334, "type": "electric_scooter", "bike_id": "0b8e382c459927696c2df25ac810a3c8"}, {"rental_uris": {"android": "https://dc.lft.to/lastmile_qr_scan", "ios": "https://dc.lft.to/lastmile_qr_scan"}, "name": "a6b58a47f952ac692a5a370d0c57f335", "fusion_lat": 0.0, "lon": -77.03858566666666, "is_disabled": 0, "is_reserved": 0, "fusion_lon": 0.0, "lat": 38.909503666666666, "type": "electric_scooter", "bike_id": "a6b58a47f952ac692a5a370d0c57f335"}, {"rental_uris": {"android": "https://dc.lft.to/lastmile_qr_scan", "ios": "https://dc.lft.to/lastmile_qr_scan"}, "name": "f6ad5d51f47cd59e55d8fe65b18d49ab", "fusion_lat": 0.0, "lon": -77.00184866666666, "is_disabled": 0, "is_reserved": 0, "fusion_lon": 0.0, "lat": 38.90381716666667, "type": "electric_scooter", "bike_id": "f6ad5d51f47cd59e55d8fe65b18d49ab"}, {"rental_uris": {"android": "https://dc.lft.to/lastmile_qr_scan", "ios": "https://dc.lft.to/lastmile_qr_scan"}, "name": "b089721f70b1825b94aad35d412765cd", "fusion_lat": 0.0, "lon": -77.035329, "is_disabled": 0, "is_reserved": 0, "fusion_lon": 0.0, "lat": 38.9360845, "type": "electric_scooter", "bike_id": "b089721f70b1825b94aad35d412765cd"}, {"rental_uris": {"android": "https://dc.lft.to/lastmile_qr_scan", "ios": "https://dc.lft.to/lastmile_qr_scan"}, "name": "14f928edf00283d82594dfe0ae515a99", "fusion_lat": 0.0, "lon": -77.02452516666666, "is_disabled": 0, "is_reserved": 0, "fusion_lon": 0.0, "lat": 38.938546333333335, "type": "electric_scooter", "bike_id": "14f928edf00283d82594dfe0ae515a99"}, {"rental_uris": {"android": "https://dc.lft.to/lastmile_qr_scan", "ios": "https://dc.lft.to/lastmile_qr_scan"}, "name": "f24c016b90bac23e266f78b5109fe5ff", "fusion_lat": 0.0, "lon": -77.02928066666666, "is_disabled": 0, "is_reserved": 0, "fusion_lon": 0.0, "lat": 38.882196, "type": "electric_scooter", "bike_id": "f24c016b90bac23e266f78b5109fe5ff"}, {"rental_uris": {"android": "https://dc.lft.to/lastmile_qr_scan", "ios": "https://dc.lft.to/lastmile_qr_scan"}, "name": "9f8e1ae915663fca07d5b0c0b148f511", "fusion_lat": 0.0, "lon": -77.015205, "is_disabled": 0, "is_reserved": 0, "fusion_lon": 0.0, "lat": 38.894753, "type": "electric_scooter", "bike_id": "9f8e1ae915663fca07d5b0c0b148f511"}, {"rental_uris": {"android": "https://dc.lft.to/lastmile_qr_scan", "ios": "https://dc.lft.to/lastmile_qr_scan"}, "name": "2b7c1628a0a5238890ebfcbb0b562fd1", "fusion_lat": 0.0, "lon": -77.028352, "is_disabled": 0, "is_reserved": 0, "fusion_lon": 0.0, "lat": 38.8979265, "type": "electric_scooter", "bike_id": "2b7c1628a0a5238890ebfcbb0b562fd1"}, {"rental_uris": {"android": "https://dc.lft.to/lastmile_qr_scan", "ios": "https://dc.lft.to/lastmile_qr_scan"}, "name": "6379f48b835b36074db6a03b718ee592", "fusion_lat": 0.0, "lon": -77.00919233333333, "is_disabled": 0, "is_reserved": 0, "fusion_lon": 0.0, "lat": 38.91285383333334, "type": "electric_scooter", "bike_id": "6379f48b835b36074db6a03b718ee592"}, {"rental_uris": {"android": "https://dc.lft.to/lastmile_qr_scan", "ios": "https://dc.lft.to/lastmile_qr_scan"}, "name": "b6620bf533b0af1e4b7d655a8b8ba681", "fusion_lat": 0.0, "lon": -77.0384195, "is_disabled": 0, "is_reserved": 0, "fusion_lon": 0.0, "lat": 38.917315, "type": "electric_scooter", "bike_id": "b6620bf533b0af1e4b7d655a8b8ba681"}, {"rental_uris": {"android": "https://dc.lft.to/lastmile_qr_scan", "ios": "https://dc.lft.to/lastmile_qr_scan"}, "name": "1b5bea9daf15fa16be34cad03ab84f2a", "fusion_lat": 0.0, "lon": -77.0259145, "is_disabled": 0, "is_reserved": 0, "fusion_lon": 0.0, "lat": 38.94200816666667, "type": "electric_scooter", "bike_id": "1b5bea9daf15fa16be34cad03ab84f2a"}, {"rental_uris": {"android": "https://dc.lft.to/lastmile_qr_scan", "ios": "https://dc.lft.to/lastmile_qr_scan"}, "name": "c918f85b0e1ba66ced233a4864c8dec6", "fusion_lat": 0.0, "lon": -77.01050316666667, "is_disabled": 0, "is_reserved": 0, "fusion_lon": 0.0, "lat": 38.90674533333333, "type": "electric_scooter", "bike_id": "c918f85b0e1ba66ced233a4864c8dec6"}, {"rental_uris": {"android": "https://dc.lft.to/lastmile_qr_scan", "ios": "https://dc.lft.to/lastmile_qr_scan"}, "name": "8ce86b9b0c51593a81cee8078a40f66e", "fusion_lat": 0.0, "lon": -77.03349916666667, "is_disabled": 0, "is_reserved": 0, "fusion_lon": 0.0, "lat": 38.8923805, "type": "electric_scooter", "bike_id": "8ce86b9b0c51593a81cee8078a40f66e"}, {"rental_uris": {"android": "https://dc.lft.to/lastmile_qr_scan", "ios": "https://dc.lft.to/lastmile_qr_scan"}, "name": "cd0b4cae6f7d3976ae2dc357d8b3a114", "fusion_lat": 0.0, "lon": -77.0419205, "is_disabled": 0, "is_reserved": 0, "fusion_lon": 0.0, "lat": 38.899797, "type": "electric_scooter", "bike_id": "cd0b4cae6f7d3976ae2dc357d8b3a114"}, {"rental_uris": {"android": "https://dc.lft.to/lastmile_qr_scan", "ios": "https://dc.lft.to/lastmile_qr_scan"}, "name": "705a76da19125a1eeaebd737572ca4c3", "fusion_lat": 0.0, "lon": -77.01983633333333, "is_disabled": 0, "is_reserved": 0, "fusion_lon": 0.0, "lat": 38.900702333333335, "type": "electric_scooter", "bike_id": "705a76da19125a1eeaebd737572ca4c3"}, {"rental_uris": {"android": "https://dc.lft.to/lastmile_qr_scan", "ios": "https://dc.lft.to/lastmile_qr_scan"}, "name": "fdfccbf2273cc24242fc6a6bde21d37c", "fusion_lat": 0.0, "lon": -77.0417825, "is_disabled": 0, "is_reserved": 0, "fusion_lon": 0.0, "lat": 38.91417366666667, "type": "electric_scooter", "bike_id": "fdfccbf2273cc24242fc6a6bde21d37c"}, {"rental_uris": {"android": "https://dc.lft.to/lastmile_qr_scan", "ios": "https://dc.lft.to/lastmile_qr_scan"}, "name": "c3d37f73b8c50ff464ae9d2c24e66994", "fusion_lat": 0.0, "lon": -77.0294495, "is_disabled": 0, "is_reserved": 0, "fusion_lon": 0.0, "lat": 38.902253, "type": "electric_scooter", "bike_id": "c3d37f73b8c50ff464ae9d2c24e66994"}, {"rental_uris": {"android": "https://dc.lft.to/lastmile_qr_scan", "ios": "https://dc.lft.to/lastmile_qr_scan"}, "name": "72a9bffb42932250820d0e66e3a8a1c2", "fusion_lat": 0.0, "lon": -77.01381433333333, "is_disabled": 0, "is_reserved": 0, "fusion_lon": 0.0, "lat": 38.92880383333333, "type": "electric_scooter", "bike_id": "72a9bffb42932250820d0e66e3a8a1c2"}, {"rental_uris": {"android": "https://dc.lft.to/lastmile_qr_scan", "ios": "https://dc.lft.to/lastmile_qr_scan"}, "name": "abec3917c67844f7478fd13dd5026642", "fusion_lat": 0.0, "lon": -76.9832875, "is_disabled": 0, "is_reserved": 0, "fusion_lon": 0.0, "lat": 38.90750883333333, "type": "electric_scooter", "bike_id": "abec3917c67844f7478fd13dd5026642"}, {"rental_uris": {"android": "https://dc.lft.to/lastmile_qr_scan", "ios": "https://dc.lft.to/lastmile_qr_scan"}, "name": "abddb8932099c71dc9d6252cdc5edc95", "fusion_lat": 0.0, "lon": -76.93745133333333, "is_disabled": 0, "is_reserved": 0, "fusion_lon": 0.0, "lat": 38.890079, "type": "electric_scooter", "bike_id": "abddb8932099c71dc9d6252cdc5edc95"}, {"rental_uris": {"android": "https://dc.lft.to/lastmile_qr_scan", "ios": "https://dc.lft.to/lastmile_qr_scan"}, "name": "c537d6ce7ef7426b7a93d693ce366fb7", "fusion_lat": 0.0, "lon": -77.0392615, "is_disabled": 0, "is_reserved": 0, "fusion_lon": 0.0, "lat": 38.9034995, "type": "electric_scooter", "bike_id": "c537d6ce7ef7426b7a93d693ce366fb7"}, {"rental_uris": {"android": "https://dc.lft.to/lastmile_qr_scan", "ios": "https://dc.lft.to/lastmile_qr_scan"}, "name": "cc541d8e191156a02fe3f40df9555246", "fusion_lat": 0.0, "lon": -76.9112435, "is_disabled": 0, "is_reserved": 0, "fusion_lon": 0.0, "lat": 39.010360666666664, "type": "electric_bike", "bike_id": "cc541d8e191156a02fe3f40df9555246"}, {"rental_uris": {"android": "https://dc.lft.to/lastmile_qr_scan", "ios": "https://dc.lft.to/lastmile_qr_scan"}, "name": "df12bae017efaf7484046eaf046ee4cf", "fusion_lat": 0.0, "lon": -77.07618866666667, "is_disabled": 0, "is_reserved": 0, "fusion_lon": 0.0, "lat": 38.9127165, "type": "electric_scooter", "bike_id": "df12bae017efaf7484046eaf046ee4cf"}, {"rental_uris": {"android": "https://dc.lft.to/lastmile_qr_scan", "ios": "https://dc.lft.to/lastmile_qr_scan"}, "name": "009fa10313707437a801ea761fcf470c", "fusion_lat": 0.0, "lon": -77.01043183333333, "is_disabled": 0, "is_reserved": 0, "fusion_lon": 0.0, "lat": 38.88453033333333, "type": "electric_scooter", "bike_id": "009fa10313707437a801ea761fcf470c"}, {"rental_uris": {"android": "https://dc.lft.to/lastmile_qr_scan", "ios": "https://dc.lft.to/lastmile_qr_scan"}, "name": "58edbc533c5bbe824db9c5d9e5a2474d", "fusion_lat": 0.0, "lon": -77.05270183333333, "is_disabled": 0, "is_reserved": 0, "fusion_lon": 0.0, "lat": 38.927602666666665, "type": "electric_scooter", "bike_id": "58edbc533c5bbe824db9c5d9e5a2474d"}, {"rental_uris": {"android": "https://dc.lft.to/lastmile_qr_scan", "ios": "https://dc.lft.to/lastmile_qr_scan"}, "name": "b4df5dcd4405bcde339f6d3064997e61", "fusion_lat": 0.0, "lon": -77.04042316666667, "is_disabled": 0, "is_reserved": 0, "fusion_lon": 0.0, "lat": 38.908564166666665, "type": "electric_bike", "bike_id": "b4df5dcd4405bcde339f6d3064997e61"}, {"rental_uris": {"android": "https://dc.lft.to/lastmile_qr_scan", "ios": "https://dc.lft.to/lastmile_qr_scan"}, "name": "e3604817542675d73515ad1dd5430372", "fusion_lat": 0.0, "lon": -77.04793283333333, "is_disabled": 0, "is_reserved": 0, "fusion_lon": 0.0, "lat": 38.89364883333333, "type": "electric_scooter", "bike_id": "e3604817542675d73515ad1dd5430372"}, {"rental_uris": {"android": "https://dc.lft.to/lastmile_qr_scan", "ios": "https://dc.lft.to/lastmile_qr_scan"}, "name": "d61afc7c086e9c3c7ccc50f2d9563ac7", "fusion_lat": 0.0, "lon": -77.01352133333333, "is_disabled": 0, "is_reserved": 0, "fusion_lon": 0.0, "lat": 38.903793666666665, "type": "electric_scooter", "bike_id": "d61afc7c086e9c3c7ccc50f2d9563ac7"}, {"rental_uris": {"android": "https://dc.lft.to/lastmile_qr_scan", "ios": "https://dc.lft.to/lastmile_qr_scan"}, "name": "5737e431e851e8e7f6b51811693404a6", "fusion_lat": 0.0, "lon": -76.9859765, "is_disabled": 0, "is_reserved": 0, "fusion_lon": 0.0, "lat": 38.8897275, "type": "electric_scooter", "bike_id": "5737e431e851e8e7f6b51811693404a6"}, {"rental_uris": {"android": "https://dc.lft.to/lastmile_qr_scan", "ios": "https://dc.lft.to/lastmile_qr_scan"}, "name": "6b05df9113c301b759028ccdcfcc72c1", "fusion_lat": 0.0, "lon": -76.98559666666667, "is_disabled": 0, "is_reserved": 0, "fusion_lon": 0.0, "lat": 38.920049666666664, "type": "electric_scooter", "bike_id": "6b05df9113c301b759028ccdcfcc72c1"}, {"rental_uris": {"android": "https://dc.lft.to/lastmile_qr_scan", "ios": "https://dc.lft.to/lastmile_qr_scan"}, "name": "4dab0164780bd51b5cc13600706d099a", "fusion_lat": 0.0, "lon": -76.99742516666667, "is_disabled": 0, "is_reserved": 0, "fusion_lon": 0.0, "lat": 38.932589666666665, "type": "electric_scooter", "bike_id": "4dab0164780bd51b5cc13600706d099a"}, {"rental_uris": {"android": "https://dc.lft.to/lastmile_qr_scan", "ios": "https://dc.lft.to/lastmile_qr_scan"}, "name": "70811f6461005ebed9a6d7a251a02c2a", "fusion_lat": 0.0, "lon": -77.048283, "is_disabled": 0, "is_reserved": 0, "fusion_lon": 0.0, "lat": 38.89837266666667, "type": "electric_scooter", "bike_id": "70811f6461005ebed9a6d7a251a02c2a"}, {"rental_uris": {"android": "https://dc.lft.to/lastmile_qr_scan", "ios": "https://dc.lft.to/lastmile_qr_scan"}, "name": "a90b8a44ae7670abe4f81252f62a05b9", "fusion_lat": 0.0, "lon": -77.03998766666666, "is_disabled": 0, "is_reserved": 0, "fusion_lon": 0.0, "lat": 38.91417833333333, "type": "electric_scooter", "bike_id": "a90b8a44ae7670abe4f81252f62a05b9"}, {"rental_uris": {"android": "https://dc.lft.to/lastmile_qr_scan", "ios": "https://dc.lft.to/lastmile_qr_scan"}, "name": "6579a4862745f52cff2fa1dc53ca5626", "fusion_lat": 0.0, "lon": -77.03183, "is_disabled": 0, "is_reserved": 0, "fusion_lon": 0.0, "lat": 38.91928566666667, "type": "electric_scooter", "bike_id": "6579a4862745f52cff2fa1dc53ca5626"}, {"rental_uris": {"android": "https://dc.lft.to/lastmile_qr_scan", "ios": "https://dc.lft.to/lastmile_qr_scan"}, "name": "1cc2a30e8d1f79db51c25f5495b18211", "fusion_lat": 0.0, "lon": -77.3530965, "is_disabled": 0, "is_reserved": 0, "fusion_lon": 0.0, "lat": 38.9500135, "type": "electric_bike", "bike_id": "1cc2a30e8d1f79db51c25f5495b18211"}, {"rental_uris": {"android": "https://dc.lft.to/lastmile_qr_scan", "ios": "https://dc.lft.to/lastmile_qr_scan"}, "name": "9973478cff81389e531e616570430b93", "fusion_lat": 0.0, "lon": -76.99712683333334, "is_disabled": 0, "is_reserved": 0, "fusion_lon": 0.0, "lat": 38.911052166666664, "type": "electric_scooter", "bike_id": "9973478cff81389e531e616570430b93"}, {"rental_uris": {"android": "https://dc.lft.to/lastmile_qr_scan", "ios": "https://dc.lft.to/lastmile_qr_scan"}, "name": "2eebbea2b007f66f3eb3edf8c7341f30", "fusion_lat": 0.0, "lon": -77.06348333333334, "is_disabled": 0, "is_reserved": 0, "fusion_lon": 0.0, "lat": 38.913366333333336, "type": "electric_scooter", "bike_id": "2eebbea2b007f66f3eb3edf8c7341f30"}, {"rental_uris": {"android": "https://dc.lft.to/lastmile_qr_scan", "ios": "https://dc.lft.to/lastmile_qr_scan"}, "name": "6220bc65da1d586f8a0b3ed54e309e1f", "fusion_lat": 0.0, "lon": -76.94653883333334, "is_disabled": 0, "is_reserved": 0, "fusion_lon": 0.0, "lat": 38.89826166666667, "type": "electric_scooter", "bike_id": "6220bc65da1d586f8a0b3ed54e309e1f"}, {"rental_uris": {"android": "https://dc.lft.to/lastmile_qr_scan", "ios": "https://dc.lft.to/lastmile_qr_scan"}, "name": "4daad34dbe567c1004a6c31aa6091f4e", "fusion_lat": 0.0, "lon": -76.9484185, "is_disabled": 0, "is_reserved": 0, "fusion_lon": 0.0, "lat": 38.89485766666667, "type": "electric_scooter", "bike_id": "4daad34dbe567c1004a6c31aa6091f4e"}, {"rental_uris": {"android": "https://dc.lft.to/lastmile_qr_scan", "ios": "https://dc.lft.to/lastmile_qr_scan"}, "name": "f6c671f19e1be001b11aef5764a20fea", "fusion_lat": 0.0, "lon": -77.03208066666667, "is_disabled": 0, "is_reserved": 0, "fusion_lon": 0.0, "lat": 38.91644516666667, "type": "electric_scooter", "bike_id": "f6c671f19e1be001b11aef5764a20fea"}, {"rental_uris": {"android": "https://dc.lft.to/lastmile_qr_scan", "ios": "https://dc.lft.to/lastmile_qr_scan"}, "name": "58612cf46b45ea608585e91f7dd071f9", "fusion_lat": 0.0, "lon": -77.03702266666667, "is_disabled": 0, "is_reserved": 0, "fusion_lon": 0.0, "lat": 38.926464, "type": "electric_scooter", "bike_id": "58612cf46b45ea608585e91f7dd071f9"}, {"rental_uris": {"android": "https://dc.lft.to/lastmile_qr_scan", "ios": "https://dc.lft.to/lastmile_qr_scan"}, "name": "9cc542246d7264419b06f9a36ddd69c4", "fusion_lat": 0.0, "lon": -77.00588, "is_disabled": 0, "is_reserved": 0, "fusion_lon": 0.0, "lat": 38.877291166666666, "type": "electric_scooter", "bike_id": "9cc542246d7264419b06f9a36ddd69c4"}, {"rental_uris": {"android": "https://dc.lft.to/lastmile_qr_scan", "ios": "https://dc.lft.to/lastmile_qr_scan"}, "name": "22d34256ebb3261367c230a0fa1f66b0", "fusion_lat": 0.0, "lon": -77.08527133333334, "is_disabled": 0, "is_reserved": 0, "fusion_lon": 0.0, "lat": 38.856523333333335, "type": "electric_bike", "bike_id": "22d34256ebb3261367c230a0fa1f66b0"}, {"rental_uris": {"android": "https://dc.lft.to/lastmile_qr_scan", "ios": "https://dc.lft.to/lastmile_qr_scan"}, "name": "554dcd50b614719a336811edf719d4b3", "fusion_lat": 0.0, "lon": -77.0033465, "is_disabled": 0, "is_reserved": 0, "fusion_lon": 0.0, "lat": 38.89352266666667, "type": "electric_scooter", "bike_id": "554dcd50b614719a336811edf719d4b3"}, {"rental_uris": {"android": "https://dc.lft.to/lastmile_qr_scan", "ios": "https://dc.lft.to/lastmile_qr_scan"}, "name": "e562a646bddb3e81353a511e4ee81fce", "fusion_lat": 0.0, "lon": -77.01123466666667, "is_disabled": 0, "is_reserved": 0, "fusion_lon": 0.0, "lat": 38.903544333333336, "type": "electric_scooter", "bike_id": "e562a646bddb3e81353a511e4ee81fce"}, {"rental_uris": {"android": "https://dc.lft.to/lastmile_qr_scan", "ios": "https://dc.lft.to/lastmile_qr_scan"}, "name": "b6b430146f91f4ebd561a630d865c79d", "fusion_lat": 0.0, "lon": -77.04839233333334, "is_disabled": 0, "is_reserved": 0, "fusion_lon": 0.0, "lat": 38.913320666666664, "type": "electric_scooter", "bike_id": "b6b430146f91f4ebd561a630d865c79d"}, {"rental_uris": {"android": "https://dc.lft.to/lastmile_qr_scan", "ios": "https://dc.lft.to/lastmile_qr_scan"}, "name": "423a40f439cdea4d79b26381dd02367a", "fusion_lat": 0.0, "lon": -76.99372733333334, "is_disabled": 0, "is_reserved": 0, "fusion_lon": 0.0, "lat": 38.92402, "type": "electric_scooter", "bike_id": "423a40f439cdea4d79b26381dd02367a"}, {"rental_uris": {"android": "https://dc.lft.to/lastmile_qr_scan", "ios": "https://dc.lft.to/lastmile_qr_scan"}, "name": "5b65cbb1750e05d8fb31e64e1098c2f9", "fusion_lat": 0.0, "lon": -77.02538233333334, "is_disabled": 0, "is_reserved": 0, "fusion_lon": 0.0, "lat": 38.900754, "type": "electric_scooter", "bike_id": "5b65cbb1750e05d8fb31e64e1098c2f9"}, {"rental_uris": {"android": "https://dc.lft.to/lastmile_qr_scan", "ios": "https://dc.lft.to/lastmile_qr_scan"}, "name": "b2b2df10ad796509c1f638214cf53839", "fusion_lat": 0.0, "lon": -77.00713516666667, "is_disabled": 0, "is_reserved": 0, "fusion_lon": 0.0, "lat": 38.88493033333334, "type": "electric_scooter", "bike_id": "b2b2df10ad796509c1f638214cf53839"}, {"rental_uris": {"android": "https://dc.lft.to/lastmile_qr_scan", "ios": "https://dc.lft.to/lastmile_qr_scan"}, "name": "1dce3280b1434fc4b04785be263bb853", "fusion_lat": 0.0, "lon": -77.03473783333334, "is_disabled": 0, "is_reserved": 0, "fusion_lon": 0.0, "lat": 38.90795216666667, "type": "electric_scooter", "bike_id": "1dce3280b1434fc4b04785be263bb853"}, {"rental_uris": {"android": "https://dc.lft.to/lastmile_qr_scan", "ios": "https://dc.lft.to/lastmile_qr_scan"}, "name": "91f71b6d42d8e29c964da4e6ac3d5262", "fusion_lat": 0.0, "lon": -77.0086385, "is_disabled": 0, "is_reserved": 0, "fusion_lon": 0.0, "lat": 38.8273025, "type": "electric_bike", "bike_id": "91f71b6d42d8e29c964da4e6ac3d5262"}, {"rental_uris": {"android": "https://dc.lft.to/lastmile_qr_scan", "ios": "https://dc.lft.to/lastmile_qr_scan"}, "name": "abf8f64364de46749c9503794f08e515", "fusion_lat": 0.0, "lon": -77.03189916666666, "is_disabled": 0, "is_reserved": 0, "fusion_lon": 0.0, "lat": 38.9192245, "type": "electric_scooter", "bike_id": "abf8f64364de46749c9503794f08e515"}, {"rental_uris": {"android": "https://dc.lft.to/lastmile_qr_scan", "ios": "https://dc.lft.to/lastmile_qr_scan"}, "name": "249196b37fb64a97b08ace897e40001d", "fusion_lat": 0.0, "lon": -77.05402383333333, "is_disabled": 0, "is_reserved": 0, "fusion_lon": 0.0, "lat": 38.86898583333333, "type": "electric_scooter", "bike_id": "249196b37fb64a97b08ace897e40001d"}, {"rental_uris": {"android": "https://dc.lft.to/lastmile_qr_scan", "ios": "https://dc.lft.to/lastmile_qr_scan"}, "name": "9f2a266076fda6edb35cc12984ebe12d", "fusion_lat": 0.0, "lon": -77.03859233333333, "is_disabled": 0, "is_reserved": 0, "fusion_lon": 0.0, "lat": 38.91174733333333, "type": "electric_scooter", "bike_id": "9f2a266076fda6edb35cc12984ebe12d"}, {"rental_uris": {"android": "https://dc.lft.to/lastmile_qr_scan", "ios": "https://dc.lft.to/lastmile_qr_scan"}, "name": "1a0fa7bd81411230e3c97f5273cf0a51", "fusion_lat": 0.0, "lon": -77.02003766666667, "is_disabled": 0, "is_reserved": 0, "fusion_lon": 0.0, "lat": 38.8793995, "type": "electric_scooter", "bike_id": "1a0fa7bd81411230e3c97f5273cf0a51"}, {"rental_uris": {"android": "https://dc.lft.to/lastmile_qr_scan", "ios": "https://dc.lft.to/lastmile_qr_scan"}, "name": "4dd89d9bdee1ae56a4a90a5b4992dc48", "fusion_lat": 0.0, "lon": -76.98615, "is_disabled": 0, "is_reserved": 0, "fusion_lon": 0.0, "lat": 38.90586966666667, "type": "electric_scooter", "bike_id": "4dd89d9bdee1ae56a4a90a5b4992dc48"}, {"rental_uris": {"android": "https://dc.lft.to/lastmile_qr_scan", "ios": "https://dc.lft.to/lastmile_qr_scan"}, "name": "a3cbcfa0877dee6cc4f6e92ebf436b1f", "fusion_lat": 0.0, "lon": -76.985569, "is_disabled": 0, "is_reserved": 0, "fusion_lon": 0.0, "lat": 38.85587266666667, "type": "electric_scooter", "bike_id": "a3cbcfa0877dee6cc4f6e92ebf436b1f"}, {"rental_uris": {"android": "https://dc.lft.to/lastmile_qr_scan", "ios": "https://dc.lft.to/lastmile_qr_scan"}, "name": "0138354d24a69a2ec4faf3d50a350f24", "fusion_lat": 0.0, "lon": -77.05044333333333, "is_disabled": 0, "is_reserved": 0, "fusion_lon": 0.0, "lat": 38.92364583333333, "type": "electric_scooter", "bike_id": "0138354d24a69a2ec4faf3d50a350f24"}, {"rental_uris": {"android": "https://dc.lft.to/lastmile_qr_scan", "ios": "https://dc.lft.to/lastmile_qr_scan"}, "name": "43e45b8f600c5ae3b677be47915a0112", "fusion_lat": 0.0, "lon": -76.98457016666667, "is_disabled": 0, "is_reserved": 0, "fusion_lon": 0.0, "lat": 38.880085666666666, "type": "electric_scooter", "bike_id": "43e45b8f600c5ae3b677be47915a0112"}, {"rental_uris": {"android": "https://dc.lft.to/lastmile_qr_scan", "ios": "https://dc.lft.to/lastmile_qr_scan"}, "name": "a660602117a18155c170ef4a1c00ec3b", "fusion_lat": 0.0, "lon": -77.00742683333333, "is_disabled": 0, "is_reserved": 0, "fusion_lon": 0.0, "lat": 38.91193883333333, "type": "electric_scooter", "bike_id": "a660602117a18155c170ef4a1c00ec3b"}, {"rental_uris": {"android": "https://dc.lft.to/lastmile_qr_scan", "ios": "https://dc.lft.to/lastmile_qr_scan"}, "name": "0053d0577a17d17ecb55a9836e782da7", "fusion_lat": 0.0, "lon": -77.02488866666667, "is_disabled": 0, "is_reserved": 0, "fusion_lon": 0.0, "lat": 38.917526, "type": "electric_scooter", "bike_id": "0053d0577a17d17ecb55a9836e782da7"}, {"rental_uris": {"android": "https://dc.lft.to/lastmile_qr_scan", "ios": "https://dc.lft.to/lastmile_qr_scan"}, "name": "458e81ce0358fb4779063a6d51aa4343", "fusion_lat": 0.0, "lon": -77.0300135, "is_disabled": 0, "is_reserved": 0, "fusion_lon": 0.0, "lat": 38.90275783333333, "type": "electric_scooter", "bike_id": "458e81ce0358fb4779063a6d51aa4343"}, {"rental_uris": {"android": "https://dc.lft.to/lastmile_qr_scan", "ios": "https://dc.lft.to/lastmile_qr_scan"}, "name": "74fc9b3cb770c326486fa7126457f01a", "fusion_lat": 0.0, "lon": -77.03041716666667, "is_disabled": 0, "is_reserved": 0, "fusion_lon": 0.0, "lat": 38.897153, "type": "electric_scooter", "bike_id": "74fc9b3cb770c326486fa7126457f01a"}, {"rental_uris": {"android": "https://dc.lft.to/lastmile_qr_scan", "ios": "https://dc.lft.to/lastmile_qr_scan"}, "name": "8ac03c3af5e45d792b5ad89976fe48ed", "fusion_lat": 0.0, "lon": -77.00264566666667, "is_disabled": 0, "is_reserved": 0, "fusion_lon": 0.0, "lat": 38.90761, "type": "electric_scooter", "bike_id": "8ac03c3af5e45d792b5ad89976fe48ed"}, {"rental_uris": {"android": "https://dc.lft.to/lastmile_qr_scan", "ios": "https://dc.lft.to/lastmile_qr_scan"}, "name": "00d84fc6ad5384ceb83bb4ee0dc4c39b", "fusion_lat": 0.0, "lon": -77.0288525, "is_disabled": 0, "is_reserved": 0, "fusion_lon": 0.0, "lat": 38.91412166666667, "type": "electric_scooter", "bike_id": "00d84fc6ad5384ceb83bb4ee0dc4c39b"}, {"rental_uris": {"android": "https://dc.lft.to/lastmile_qr_scan", "ios": "https://dc.lft.to/lastmile_qr_scan"}, "name": "72586df353bb9467b64be64aa1ff2474", "fusion_lat": 0.0, "lon": -77.036377, "is_disabled": 0, "is_reserved": 0, "fusion_lon": 0.0, "lat": 38.91222416666667, "type": "electric_scooter", "bike_id": "72586df353bb9467b64be64aa1ff2474"}, {"rental_uris": {"android": "https://dc.lft.to/lastmile_qr_scan", "ios": "https://dc.lft.to/lastmile_qr_scan"}, "name": "07915af62723fa597da1b41c34f17ec5", "fusion_lat": 0.0, "lon": -77.01463233333334, "is_disabled": 0, "is_reserved": 0, "fusion_lon": 0.0, "lat": 38.9103705, "type": "electric_scooter", "bike_id": "07915af62723fa597da1b41c34f17ec5"}, {"rental_uris": {"android": "https://dc.lft.to/lastmile_qr_scan", "ios": "https://dc.lft.to/lastmile_qr_scan"}, "name": "bc7794cb9b10234e6f22d7dddd67509e", "fusion_lat": 0.0, "lon": -77.04426016666666, "is_disabled": 0, "is_reserved": 0, "fusion_lon": 0.0, "lat": 38.9112825, "type": "electric_scooter", "bike_id": "bc7794cb9b10234e6f22d7dddd67509e"}, {"rental_uris": {"android": "https://dc.lft.to/lastmile_qr_scan", "ios": "https://dc.lft.to/lastmile_qr_scan"}, "name": "c0c8995cb1197dbffb19c4c8e2b13c42", "fusion_lat": 0.0, "lon": -77.01996366666667, "is_disabled": 0, "is_reserved": 0, "fusion_lon": 0.0, "lat": 38.966285, "type": "electric_scooter", "bike_id": "c0c8995cb1197dbffb19c4c8e2b13c42"}, {"rental_uris": {"android": "https://dc.lft.to/lastmile_qr_scan", "ios": "https://dc.lft.to/lastmile_qr_scan"}, "name": "feed3476e5ebb91e39572024380b18c8", "fusion_lat": 0.0, "lon": -76.9916565, "is_disabled": 0, "is_reserved": 0, "fusion_lon": 0.0, "lat": 38.8734375, "type": "electric_scooter", "bike_id": "feed3476e5ebb91e39572024380b18c8"}, {"rental_uris": {"android": "https://dc.lft.to/lastmile_qr_scan", "ios": "https://dc.lft.to/lastmile_qr_scan"}, "name": "ba706904451c6befb6757dc87149458c", "fusion_lat": 0.0, "lon": -77.02955066666667, "is_disabled": 0, "is_reserved": 0, "fusion_lon": 0.0, "lat": 38.92238916666667, "type": "electric_scooter", "bike_id": "ba706904451c6befb6757dc87149458c"}, {"rental_uris": {"android": "https://dc.lft.to/lastmile_qr_scan", "ios": "https://dc.lft.to/lastmile_qr_scan"}, "name": "8625677793345c249c310b819b75e6fe", "fusion_lat": 0.0, "lon": -77.02489816666667, "is_disabled": 0, "is_reserved": 0, "fusion_lon": 0.0, "lat": 38.94183966666667, "type": "electric_scooter", "bike_id": "8625677793345c249c310b819b75e6fe"}, {"rental_uris": {"android": "https://dc.lft.to/lastmile_qr_scan", "ios": "https://dc.lft.to/lastmile_qr_scan"}, "name": "8cbe53fc2c9a30a5ae93e8d051644509", "fusion_lat": 0.0, "lon": -77.04746216666666, "is_disabled": 0, "is_reserved": 0, "fusion_lon": 0.0, "lat": 38.90156233333333, "type": "electric_scooter", "bike_id": "8cbe53fc2c9a30a5ae93e8d051644509"}, {"rental_uris": {"android": "https://dc.lft.to/lastmile_qr_scan", "ios": "https://dc.lft.to/lastmile_qr_scan"}, "name": "45ce1c1e02fc1f4dc0f1d52bc032c63d", "fusion_lat": 0.0, "lon": -77.01955516666666, "is_disabled": 0, "is_reserved": 0, "fusion_lon": 0.0, "lat": 38.922578, "type": "electric_scooter", "bike_id": "45ce1c1e02fc1f4dc0f1d52bc032c63d"}, {"rental_uris": {"android": "https://dc.lft.to/lastmile_qr_scan", "ios": "https://dc.lft.to/lastmile_qr_scan"}, "name": "bdee134edb67a638a18a652dad7d5229", "fusion_lat": 0.0, "lon": -77.0271855, "is_disabled": 0, "is_reserved": 0, "fusion_lon": 0.0, "lat": 38.90667766666667, "type": "electric_scooter", "bike_id": "bdee134edb67a638a18a652dad7d5229"}, {"rental_uris": {"android": "https://dc.lft.to/lastmile_qr_scan", "ios": "https://dc.lft.to/lastmile_qr_scan"}, "name": "ad0da712395e4266de3c97d46045f0c4", "fusion_lat": 0.0, "lon": -76.99807416666667, "is_disabled": 0, "is_reserved": 0, "fusion_lon": 0.0, "lat": 38.87664133333333, "type": "electric_scooter", "bike_id": "ad0da712395e4266de3c97d46045f0c4"}, {"rental_uris": {"android": "https://dc.lft.to/lastmile_qr_scan", "ios": "https://dc.lft.to/lastmile_qr_scan"}, "name": "1ed478e75c46d499c68d07701c42eeb2", "fusion_lat": 0.0, "lon": -76.92917033333333, "is_disabled": 0, "is_reserved": 0, "fusion_lon": 0.0, "lat": 38.980292166666665, "type": "electric_bike", "bike_id": "1ed478e75c46d499c68d07701c42eeb2"}, {"rental_uris": {"android": "https://dc.lft.to/lastmile_qr_scan", "ios": "https://dc.lft.to/lastmile_qr_scan"}, "name": "a714e856e178d644adbbe71646b2d1e2", "fusion_lat": 0.0, "lon": -77.00326433333333, "is_disabled": 0, "is_reserved": 0, "fusion_lon": 0.0, "lat": 38.90927816666667, "type": "electric_scooter", "bike_id": "a714e856e178d644adbbe71646b2d1e2"}, {"rental_uris": {"android": "https://dc.lft.to/lastmile_qr_scan", "ios": "https://dc.lft.to/lastmile_qr_scan"}, "name": "a45e9379253d56bcfe1e288d23d92e8f", "fusion_lat": 0.0, "lon": -76.94637233333333, "is_disabled": 0, "is_reserved": 0, "fusion_lon": 0.0, "lat": 38.8984685, "type": "electric_scooter", "bike_id": "a45e9379253d56bcfe1e288d23d92e8f"}, {"rental_uris": {"android": "https://dc.lft.to/lastmile_qr_scan", "ios": "https://dc.lft.to/lastmile_qr_scan"}, "name": "edf133c9bba5e6a58e7c43707a868b8f", "fusion_lat": 0.0, "lon": -77.05055516666667, "is_disabled": 0, "is_reserved": 0, "fusion_lon": 0.0, "lat": 38.90088183333334, "type": "electric_scooter", "bike_id": "edf133c9bba5e6a58e7c43707a868b8f"}, {"rental_uris": {"android": "https://dc.lft.to/lastmile_qr_scan", "ios": "https://dc.lft.to/lastmile_qr_scan"}, "name": "6565a37184681d2434c534b428c32c3a", "fusion_lat": 0.0, "lon": -77.05791566666667, "is_disabled": 0, "is_reserved": 0, "fusion_lon": 0.0, "lat": 38.934792, "type": "electric_scooter", "bike_id": "6565a37184681d2434c534b428c32c3a"}, {"rental_uris": {"android": "https://dc.lft.to/lastmile_qr_scan", "ios": "https://dc.lft.to/lastmile_qr_scan"}, "name": "0eb9273100d2aa6a703c0d809eac7b70", "fusion_lat": 0.0, "lon": -76.92771783333333, "is_disabled": 0, "is_reserved": 0, "fusion_lon": 0.0, "lat": 38.90269933333333, "type": "electric_scooter", "bike_id": "0eb9273100d2aa6a703c0d809eac7b70"}, {"rental_uris": {"android": "https://dc.lft.to/lastmile_qr_scan", "ios": "https://dc.lft.to/lastmile_qr_scan"}, "name": "3e0c8f2ab8668651d84172504df26809", "fusion_lat": 0.0, "lon": -77.045609, "is_disabled": 0, "is_reserved": 0, "fusion_lon": 0.0, "lat": 38.90745366666667, "type": "electric_scooter", "bike_id": "3e0c8f2ab8668651d84172504df26809"}, {"rental_uris": {"android": "https://dc.lft.to/lastmile_qr_scan", "ios": "https://dc.lft.to/lastmile_qr_scan"}, "name": "90262a5078393a2b492188a4331e07d8", "fusion_lat": 0.0, "lon": -77.03197383333334, "is_disabled": 0, "is_reserved": 0, "fusion_lon": 0.0, "lat": 38.91606866666667, "type": "electric_scooter", "bike_id": "90262a5078393a2b492188a4331e07d8"}, {"rental_uris": {"android": "https://dc.lft.to/lastmile_qr_scan", "ios": "https://dc.lft.to/lastmile_qr_scan"}, "name": "69aca751d31fc5a4235c5e638a3484ff", "fusion_lat": 0.0, "lon": -77.0466495, "is_disabled": 0, "is_reserved": 0, "fusion_lon": 0.0, "lat": 38.90383416666667, "type": "electric_scooter", "bike_id": "69aca751d31fc5a4235c5e638a3484ff"}, {"rental_uris": {"android": "https://dc.lft.to/lastmile_qr_scan", "ios": "https://dc.lft.to/lastmile_qr_scan"}, "name": "bf93c25721c5412b7ca5f4561137173e", "fusion_lat": 0.0, "lon": -77.02298483333334, "is_disabled": 0, "is_reserved": 0, "fusion_lon": 0.0, "lat": 38.901774333333336, "type": "electric_scooter", "bike_id": "bf93c25721c5412b7ca5f4561137173e"}, {"rental_uris": {"android": "https://dc.lft.to/lastmile_qr_scan", "ios": "https://dc.lft.to/lastmile_qr_scan"}, "name": "ed6269a9a94be8eefc408891859a660d", "fusion_lat": 0.0, "lon": -77.0201535, "is_disabled": 0, "is_reserved": 0, "fusion_lon": 0.0, "lat": 38.9036405, "type": "electric_scooter", "bike_id": "ed6269a9a94be8eefc408891859a660d"}, {"rental_uris": {"android": "https://dc.lft.to/lastmile_qr_scan", "ios": "https://dc.lft.to/lastmile_qr_scan"}, "name": "3d9114a78ab226aa3d554acd7467837b", "fusion_lat": 0.0, "lon": -76.9944635, "is_disabled": 0, "is_reserved": 0, "fusion_lon": 0.0, "lat": 38.90508283333333, "type": "electric_scooter", "bike_id": "3d9114a78ab226aa3d554acd7467837b"}, {"rental_uris": {"android": "https://dc.lft.to/lastmile_qr_scan", "ios": "https://dc.lft.to/lastmile_qr_scan"}, "name": "5637419de740053a314b124bb513e07e", "fusion_lat": 0.0, "lon": -77.02601516666667, "is_disabled": 0, "is_reserved": 0, "fusion_lon": 0.0, "lat": 38.9142445, "type": "electric_scooter", "bike_id": "5637419de740053a314b124bb513e07e"}, {"rental_uris": {"android": "https://dc.lft.to/lastmile_qr_scan", "ios": "https://dc.lft.to/lastmile_qr_scan"}, "name": "819b2fe1590d5d7b0ac6585ff8ad7aee", "fusion_lat": 0.0, "lon": -76.95519016666667, "is_disabled": 0, "is_reserved": 0, "fusion_lon": 0.0, "lat": 38.890540333333334, "type": "electric_scooter", "bike_id": "819b2fe1590d5d7b0ac6585ff8ad7aee"}, {"rental_uris": {"android": "https://dc.lft.to/lastmile_qr_scan", "ios": "https://dc.lft.to/lastmile_qr_scan"}, "name": "6cda7d55c204ab3e3d678631928a6a04", "fusion_lat": 0.0, "lon": -77.04143533333334, "is_disabled": 0, "is_reserved": 0, "fusion_lon": 0.0, "lat": 38.916853833333334, "type": "electric_scooter", "bike_id": "6cda7d55c204ab3e3d678631928a6a04"}, {"rental_uris": {"android": "https://dc.lft.to/lastmile_qr_scan", "ios": "https://dc.lft.to/lastmile_qr_scan"}, "name": "306a8e10ef3316ae1a7d7d5e3a271107", "fusion_lat": 0.0, "lon": -77.02945616666666, "is_disabled": 0, "is_reserved": 0, "fusion_lon": 0.0, "lat": 38.90421683333334, "type": "electric_scooter", "bike_id": "306a8e10ef3316ae1a7d7d5e3a271107"}, {"rental_uris": {"android": "https://dc.lft.to/lastmile_qr_scan", "ios": "https://dc.lft.to/lastmile_qr_scan"}, "name": "73a2425f79e452bf68eb90c2b39448a5", "fusion_lat": 0.0, "lon": -77.01948, "is_disabled": 0, "is_reserved": 0, "fusion_lon": 0.0, "lat": 38.922620333333334, "type": "electric_scooter", "bike_id": "73a2425f79e452bf68eb90c2b39448a5"}, {"rental_uris": {"android": "https://dc.lft.to/lastmile_qr_scan", "ios": "https://dc.lft.to/lastmile_qr_scan"}, "name": "af91115a44e2a7a85dd0dd6b87daa8b7", "fusion_lat": 0.0, "lon": -77.0294255, "is_disabled": 0, "is_reserved": 0, "fusion_lon": 0.0, "lat": 38.89827316666667, "type": "electric_scooter", "bike_id": "af91115a44e2a7a85dd0dd6b87daa8b7"}, {"rental_uris": {"android": "https://dc.lft.to/lastmile_qr_scan", "ios": "https://dc.lft.to/lastmile_qr_scan"}, "name": "81d82ef7a25d4c02218b790d342d3d51", "fusion_lat": 0.0, "lon": -77.06275166666667, "is_disabled": 0, "is_reserved": 0, "fusion_lon": 0.0, "lat": 38.906212333333336, "type": "electric_scooter", "bike_id": "81d82ef7a25d4c02218b790d342d3d51"}, {"rental_uris": {"android": "https://dc.lft.to/lastmile_qr_scan", "ios": "https://dc.lft.to/lastmile_qr_scan"}, "name": "b4a5c8e9d2f1e38c70703bce9ed63c79", "fusion_lat": 0.0, "lon": -77.04331233333333, "is_disabled": 0, "is_reserved": 0, "fusion_lon": 0.0, "lat": 38.9036555, "type": "electric_scooter", "bike_id": "b4a5c8e9d2f1e38c70703bce9ed63c79"}, {"rental_uris": {"android": "https://dc.lft.to/lastmile_qr_scan", "ios": "https://dc.lft.to/lastmile_qr_scan"}, "name": "57b4cd8abda792d0567c75aedf0f8540", "fusion_lat": 0.0, "lon": -77.0406255, "is_disabled": 0, "is_reserved": 0, "fusion_lon": 0.0, "lat": 38.89856416666667, "type": "electric_scooter", "bike_id": "57b4cd8abda792d0567c75aedf0f8540"}, {"rental_uris": {"android": "https://dc.lft.to/lastmile_qr_scan", "ios": "https://dc.lft.to/lastmile_qr_scan"}, "name": "6ab8701d5afeb2bd4563cfad9df4742b", "fusion_lat": 0.0, "lon": -76.99589783333333, "is_disabled": 0, "is_reserved": 0, "fusion_lon": 0.0, "lat": 38.9001595, "type": "electric_scooter", "bike_id": "6ab8701d5afeb2bd4563cfad9df4742b"}, {"rental_uris": {"android": "https://dc.lft.to/lastmile_qr_scan", "ios": "https://dc.lft.to/lastmile_qr_scan"}, "name": "788cd92a41f01c8fe97cd6adbf97f5be", "fusion_lat": 0.0, "lon": -77.03847266666666, "is_disabled": 0, "is_reserved": 0, "fusion_lon": 0.0, "lat": 38.902931333333335, "type": "electric_scooter", "bike_id": "788cd92a41f01c8fe97cd6adbf97f5be"}, {"rental_uris": {"android": "https://dc.lft.to/lastmile_qr_scan", "ios": "https://dc.lft.to/lastmile_qr_scan"}, "name": "1012e9d33dc6205f9617655e9069d9ed", "fusion_lat": 0.0, "lon": -77.05438633333333, "is_disabled": 0, "is_reserved": 0, "fusion_lon": 0.0, "lat": 38.89601483333333, "type": "electric_scooter", "bike_id": "1012e9d33dc6205f9617655e9069d9ed"}, {"rental_uris": {"android": "https://dc.lft.to/lastmile_qr_scan", "ios": "https://dc.lft.to/lastmile_qr_scan"}, "name": "54a0d6ca8ee93ad464a2644f1d438aad", "fusion_lat": 0.0, "lon": -76.9482355, "is_disabled": 0, "is_reserved": 0, "fusion_lon": 0.0, "lat": 38.8851715, "type": "electric_scooter", "bike_id": "54a0d6ca8ee93ad464a2644f1d438aad"}, {"rental_uris": {"android": "https://dc.lft.to/lastmile_qr_scan", "ios": "https://dc.lft.to/lastmile_qr_scan"}, "name": "2967e11bcd11aad439b190aa9a7af532", "fusion_lat": 0.0, "lon": -77.02298233333333, "is_disabled": 0, "is_reserved": 0, "fusion_lon": 0.0, "lat": 38.916563833333335, "type": "electric_scooter", "bike_id": "2967e11bcd11aad439b190aa9a7af532"}, {"rental_uris": {"android": "https://dc.lft.to/lastmile_qr_scan", "ios": "https://dc.lft.to/lastmile_qr_scan"}, "name": "a923fd1b832ef157cc6c520bc002599b", "fusion_lat": 0.0, "lon": -77.00286983333334, "is_disabled": 0, "is_reserved": 0, "fusion_lon": 0.0, "lat": 38.893541166666665, "type": "electric_scooter", "bike_id": "a923fd1b832ef157cc6c520bc002599b"}, {"rental_uris": {"android": "https://dc.lft.to/lastmile_qr_scan", "ios": "https://dc.lft.to/lastmile_qr_scan"}, "name": "39a0aaf13654f7b74eafed88cb6fbcd8", "fusion_lat": 0.0, "lon": -77.00432616666667, "is_disabled": 0, "is_reserved": 0, "fusion_lon": 0.0, "lat": 38.876744, "type": "electric_scooter", "bike_id": "39a0aaf13654f7b74eafed88cb6fbcd8"}, {"rental_uris": {"android": "https://dc.lft.to/lastmile_qr_scan", "ios": "https://dc.lft.to/lastmile_qr_scan"}, "name": "d88acef2edd5830a959c8d970d97808f", "fusion_lat": 0.0, "lon": -77.04874083333333, "is_disabled": 0, "is_reserved": 0, "fusion_lon": 0.0, "lat": 38.90785966666667, "type": "electric_scooter", "bike_id": "d88acef2edd5830a959c8d970d97808f"}, {"rental_uris": {"android": "https://dc.lft.to/lastmile_qr_scan", "ios": "https://dc.lft.to/lastmile_qr_scan"}, "name": "48ab3c7f0b3e63360d624e1036f9bfe6", "fusion_lat": 0.0, "lon": -77.02302083333333, "is_disabled": 0, "is_reserved": 0, "fusion_lon": 0.0, "lat": 38.9161435, "type": "electric_scooter", "bike_id": "48ab3c7f0b3e63360d624e1036f9bfe6"}, {"rental_uris": {"android": "https://dc.lft.to/lastmile_qr_scan", "ios": "https://dc.lft.to/lastmile_qr_scan"}, "name": "5abb56dc7aa19432bc9942bc6b8dc757", "fusion_lat": 0.0, "lon": -77.03989516666667, "is_disabled": 0, "is_reserved": 0, "fusion_lon": 0.0, "lat": 38.90381283333333, "type": "electric_scooter", "bike_id": "5abb56dc7aa19432bc9942bc6b8dc757"}, {"rental_uris": {"android": "https://dc.lft.to/lastmile_qr_scan", "ios": "https://dc.lft.to/lastmile_qr_scan"}, "name": "3cf8c2056575b290699cb2f165025078", "fusion_lat": 0.0, "lon": -77.01366666666667, "is_disabled": 0, "is_reserved": 0, "fusion_lon": 0.0, "lat": 38.887054, "type": "electric_scooter", "bike_id": "3cf8c2056575b290699cb2f165025078"}, {"rental_uris": {"android": "https://dc.lft.to/lastmile_qr_scan", "ios": "https://dc.lft.to/lastmile_qr_scan"}, "name": "fb1da55b99f1111ec4799bf07b115444", "fusion_lat": 0.0, "lon": -77.00141933333333, "is_disabled": 0, "is_reserved": 0, "fusion_lon": 0.0, "lat": 38.9051145, "type": "electric_scooter", "bike_id": "fb1da55b99f1111ec4799bf07b115444"}, {"rental_uris": {"android": "https://dc.lft.to/lastmile_qr_scan", "ios": "https://dc.lft.to/lastmile_qr_scan"}, "name": "c077df66666cad7a6bfcec8b4b519269", "fusion_lat": 0.0, "lon": -76.99624883333334, "is_disabled": 0, "is_reserved": 0, "fusion_lon": 0.0, "lat": 38.88493583333333, "type": "electric_scooter", "bike_id": "c077df66666cad7a6bfcec8b4b519269"}, {"rental_uris": {"android": "https://dc.lft.to/lastmile_qr_scan", "ios": "https://dc.lft.to/lastmile_qr_scan"}, "name": "af53f9f3096e9e215c7f01f2db25e8b4", "fusion_lat": 0.0, "lon": -77.04361416666667, "is_disabled": 0, "is_reserved": 0, "fusion_lon": 0.0, "lat": 38.8923735, "type": "electric_scooter", "bike_id": "af53f9f3096e9e215c7f01f2db25e8b4"}, {"rental_uris": {"android": "https://dc.lft.to/lastmile_qr_scan", "ios": "https://dc.lft.to/lastmile_qr_scan"}, "name": "ea06a599fd6342b10876d76d150f2b5e", "fusion_lat": 0.0, "lon": -77.01709083333333, "is_disabled": 0, "is_reserved": 0, "fusion_lon": 0.0, "lat": 38.905104666666666, "type": "electric_scooter", "bike_id": "ea06a599fd6342b10876d76d150f2b5e"}, {"rental_uris": {"android": "https://dc.lft.to/lastmile_qr_scan", "ios": "https://dc.lft.to/lastmile_qr_scan"}, "name": "e0729a119a2bba07dd1f6d08e5e2e6c2", "fusion_lat": 0.0, "lon": -76.984964, "is_disabled": 0, "is_reserved": 0, "fusion_lon": 0.0, "lat": 38.88968416666667, "type": "electric_scooter", "bike_id": "e0729a119a2bba07dd1f6d08e5e2e6c2"}, {"rental_uris": {"android": "https://dc.lft.to/lastmile_qr_scan", "ios": "https://dc.lft.to/lastmile_qr_scan"}, "name": "9ae7793d9da22e2d247957ed689bf14b", "fusion_lat": 0.0, "lon": -77.02267233333333, "is_disabled": 0, "is_reserved": 0, "fusion_lon": 0.0, "lat": 38.94721166666667, "type": "electric_scooter", "bike_id": "9ae7793d9da22e2d247957ed689bf14b"}, {"rental_uris": {"android": "https://dc.lft.to/lastmile_qr_scan", "ios": "https://dc.lft.to/lastmile_qr_scan"}, "name": "3ae7a615b9c600d34d48ff3ee7ebeb37", "fusion_lat": 0.0, "lon": -77.03980183333333, "is_disabled": 0, "is_reserved": 0, "fusion_lon": 0.0, "lat": 38.9011995, "type": "electric_scooter", "bike_id": "3ae7a615b9c600d34d48ff3ee7ebeb37"}, {"rental_uris": {"android": "https://dc.lft.to/lastmile_qr_scan", "ios": "https://dc.lft.to/lastmile_qr_scan"}, "name": "d4aafe43358da4cabe451366564db907", "fusion_lat": 0.0, "lon": -77.02203216666666, "is_disabled": 0, "is_reserved": 0, "fusion_lon": 0.0, "lat": 38.91533416666667, "type": "electric_scooter", "bike_id": "d4aafe43358da4cabe451366564db907"}, {"rental_uris": {"android": "https://dc.lft.to/lastmile_qr_scan", "ios": "https://dc.lft.to/lastmile_qr_scan"}, "name": "6b13a7302d76c4d159dfe431dd2ed43a", "fusion_lat": 0.0, "lon": -76.96786283333333, "is_disabled": 0, "is_reserved": 0, "fusion_lon": 0.0, "lat": 38.87338966666667, "type": "electric_scooter", "bike_id": "6b13a7302d76c4d159dfe431dd2ed43a"}, {"rental_uris": {"android": "https://dc.lft.to/lastmile_qr_scan", "ios": "https://dc.lft.to/lastmile_qr_scan"}, "name": "c66df1f66101b2a906cf35135013ab1e", "fusion_lat": 0.0, "lon": -77.0317045, "is_disabled": 0, "is_reserved": 0, "fusion_lon": 0.0, "lat": 38.8866625, "type": "electric_scooter", "bike_id": "c66df1f66101b2a906cf35135013ab1e"}, {"rental_uris": {"android": "https://dc.lft.to/lastmile_qr_scan", "ios": "https://dc.lft.to/lastmile_qr_scan"}, "name": "9d21071b04c5b87f8cdfbd37c82d6834", "fusion_lat": 0.0, "lon": -77.02156183333334, "is_disabled": 0, "is_reserved": 0, "fusion_lon": 0.0, "lat": 38.926053, "type": "electric_scooter", "bike_id": "9d21071b04c5b87f8cdfbd37c82d6834"}, {"rental_uris": {"android": "https://dc.lft.to/lastmile_qr_scan", "ios": "https://dc.lft.to/lastmile_qr_scan"}, "name": "bf43759b33cf210e3b7553460a1cce07", "fusion_lat": 0.0, "lon": -77.01557783333334, "is_disabled": 0, "is_reserved": 0, "fusion_lon": 0.0, "lat": 38.913752833333334, "type": "electric_scooter", "bike_id": "bf43759b33cf210e3b7553460a1cce07"}, {"rental_uris": {"android": "https://dc.lft.to/lastmile_qr_scan", "ios": "https://dc.lft.to/lastmile_qr_scan"}, "name": "0b99c889811691a3f323ff0d8f004674", "fusion_lat": 0.0, "lon": -77.02222783333333, "is_disabled": 0, "is_reserved": 0, "fusion_lon": 0.0, "lat": 38.892210666666664, "type": "electric_scooter", "bike_id": "0b99c889811691a3f323ff0d8f004674"}, {"rental_uris": {"android": "https://dc.lft.to/lastmile_qr_scan", "ios": "https://dc.lft.to/lastmile_qr_scan"}, "name": "562105cb3dd2228f8841fdb4214c90c8", "fusion_lat": 0.0, "lon": -77.03658933333334, "is_disabled": 0, "is_reserved": 0, "fusion_lon": 0.0, "lat": 38.91728533333333, "type": "electric_scooter", "bike_id": "562105cb3dd2228f8841fdb4214c90c8"}, {"rental_uris": {"android": "https://dc.lft.to/lastmile_qr_scan", "ios": "https://dc.lft.to/lastmile_qr_scan"}, "name": "6294bbe06d85710da2fe3a2c83c56708", "fusion_lat": 0.0, "lon": -77.0417065, "is_disabled": 0, "is_reserved": 0, "fusion_lon": 0.0, "lat": 38.90741516666667, "type": "electric_scooter", "bike_id": "6294bbe06d85710da2fe3a2c83c56708"}, {"rental_uris": {"android": "https://dc.lft.to/lastmile_qr_scan", "ios": "https://dc.lft.to/lastmile_qr_scan"}, "name": "f5644e15788f129a62205644307ebe4f", "fusion_lat": 0.0, "lon": -77.00763833333333, "is_disabled": 0, "is_reserved": 0, "fusion_lon": 0.0, "lat": 38.90056233333333, "type": "electric_scooter", "bike_id": "f5644e15788f129a62205644307ebe4f"}, {"rental_uris": {"android": "https://dc.lft.to/lastmile_qr_scan", "ios": "https://dc.lft.to/lastmile_qr_scan"}, "name": "8c534a4a2dd9ab748b61219a9a5bbf12", "fusion_lat": 0.0, "lon": -77.0266925, "is_disabled": 0, "is_reserved": 0, "fusion_lon": 0.0, "lat": 38.954848166666665, "type": "electric_bike", "bike_id": "8c534a4a2dd9ab748b61219a9a5bbf12"}, {"rental_uris": {"android": "https://dc.lft.to/lastmile_qr_scan", "ios": "https://dc.lft.to/lastmile_qr_scan"}, "name": "a98fbe9894558b40fa045f99ba68cb89", "fusion_lat": 0.0, "lon": -76.99215, "is_disabled": 0, "is_reserved": 0, "fusion_lon": 0.0, "lat": 38.895190166666666, "type": "electric_scooter", "bike_id": "a98fbe9894558b40fa045f99ba68cb89"}, {"rental_uris": {"android": "https://dc.lft.to/lastmile_qr_scan", "ios": "https://dc.lft.to/lastmile_qr_scan"}, "name": "3285e4418a149f52ef03a24be68e330d", "fusion_lat": 0.0, "lon": -77.025752, "is_disabled": 0, "is_reserved": 0, "fusion_lon": 0.0, "lat": 38.89976083333333, "type": "electric_scooter", "bike_id": "3285e4418a149f52ef03a24be68e330d"}, {"rental_uris": {"android": "https://dc.lft.to/lastmile_qr_scan", "ios": "https://dc.lft.to/lastmile_qr_scan"}, "name": "c7beac2a66a2983308ef437328ca9bfb", "fusion_lat": 0.0, "lon": -77.04092333333334, "is_disabled": 0, "is_reserved": 0, "fusion_lon": 0.0, "lat": 38.924038, "type": "electric_scooter", "bike_id": "c7beac2a66a2983308ef437328ca9bfb"}, {"rental_uris": {"android": "https://dc.lft.to/lastmile_qr_scan", "ios": "https://dc.lft.to/lastmile_qr_scan"}, "name": "fb2707fa662176e575fed19c94d23eda", "fusion_lat": 0.0, "lon": -77.073243, "is_disabled": 0, "is_reserved": 0, "fusion_lon": 0.0, "lat": 38.91201483333333, "type": "electric_scooter", "bike_id": "fb2707fa662176e575fed19c94d23eda"}, {"rental_uris": {"android": "https://dc.lft.to/lastmile_qr_scan", "ios": "https://dc.lft.to/lastmile_qr_scan"}, "name": "665fee31d9285fca2cc0607f8de10b97", "fusion_lat": 0.0, "lon": -77.090238, "is_disabled": 0, "is_reserved": 0, "fusion_lon": 0.0, "lat": 38.841165333333336, "type": "electric_bike", "bike_id": "665fee31d9285fca2cc0607f8de10b97"}, {"rental_uris": {"android": "https://dc.lft.to/lastmile_qr_scan", "ios": "https://dc.lft.to/lastmile_qr_scan"}, "name": "905d7f7830fcdcb82a7edabb98627f85", "fusion_lat": 0.0, "lon": -76.94885, "is_disabled": 0, "is_reserved": 0, "fusion_lon": 0.0, "lat": 38.895112, "type": "electric_scooter", "bike_id": "905d7f7830fcdcb82a7edabb98627f85"}, {"rental_uris": {"android": "https://dc.lft.to/lastmile_qr_scan", "ios": "https://dc.lft.to/lastmile_qr_scan"}, "name": "99444adac9b3737d0812278e2130ebaa", "fusion_lat": 0.0, "lon": -76.99227866666666, "is_disabled": 0, "is_reserved": 0, "fusion_lon": 0.0, "lat": 38.89885966666667, "type": "electric_scooter", "bike_id": "99444adac9b3737d0812278e2130ebaa"}, {"rental_uris": {"android": "https://dc.lft.to/lastmile_qr_scan", "ios": "https://dc.lft.to/lastmile_qr_scan"}, "name": "6b161e83e7371adf9566481e56beb12a", "fusion_lat": 0.0, "lon": -77.03838583333334, "is_disabled": 0, "is_reserved": 0, "fusion_lon": 0.0, "lat": 38.90391433333333, "type": "electric_scooter", "bike_id": "6b161e83e7371adf9566481e56beb12a"}, {"rental_uris": {"android": "https://dc.lft.to/lastmile_qr_scan", "ios": "https://dc.lft.to/lastmile_qr_scan"}, "name": "e809a5505fa3f1da1b1c940c9bffc74d", "fusion_lat": 0.0, "lon": -76.96550783333333, "is_disabled": 0, "is_reserved": 0, "fusion_lon": 0.0, "lat": 38.9184755, "type": "electric_scooter", "bike_id": "e809a5505fa3f1da1b1c940c9bffc74d"}, {"rental_uris": {"android": "https://dc.lft.to/lastmile_qr_scan", "ios": "https://dc.lft.to/lastmile_qr_scan"}, "name": "fe16a5932eba744185bd1ac44b0cb63f", "fusion_lat": 0.0, "lon": -77.02570366666667, "is_disabled": 0, "is_reserved": 0, "fusion_lon": 0.0, "lat": 38.89515433333333, "type": "electric_scooter", "bike_id": "fe16a5932eba744185bd1ac44b0cb63f"}, {"rental_uris": {"android": "https://dc.lft.to/lastmile_qr_scan", "ios": "https://dc.lft.to/lastmile_qr_scan"}, "name": "487f9a5f5cfcb2baf3e9e19d0922aa19", "fusion_lat": 0.0, "lon": -77.04492566666667, "is_disabled": 0, "is_reserved": 0, "fusion_lon": 0.0, "lat": 38.914271, "type": "electric_scooter", "bike_id": "487f9a5f5cfcb2baf3e9e19d0922aa19"}, {"rental_uris": {"android": "https://dc.lft.to/lastmile_qr_scan", "ios": "https://dc.lft.to/lastmile_qr_scan"}, "name": "9ddefb94cdfa905f295120a3bab1cdb1", "fusion_lat": 0.0, "lon": -77.0466225, "is_disabled": 0, "is_reserved": 0, "fusion_lon": 0.0, "lat": 38.90425183333333, "type": "electric_scooter", "bike_id": "9ddefb94cdfa905f295120a3bab1cdb1"}, {"rental_uris": {"android": "https://dc.lft.to/lastmile_qr_scan", "ios": "https://dc.lft.to/lastmile_qr_scan"}, "name": "c41d166e517d0ff99c987392896a43e4", "fusion_lat": 0.0, "lon": -76.94867516666666, "is_disabled": 0, "is_reserved": 0, "fusion_lon": 0.0, "lat": 38.889685, "type": "electric_bike", "bike_id": "c41d166e517d0ff99c987392896a43e4"}, {"rental_uris": {"android": "https://dc.lft.to/lastmile_qr_scan", "ios": "https://dc.lft.to/lastmile_qr_scan"}, "name": "9906d8b863abe79affe465d255928e70", "fusion_lat": 0.0, "lon": -77.041721, "is_disabled": 0, "is_reserved": 0, "fusion_lon": 0.0, "lat": 38.914568333333335, "type": "electric_scooter", "bike_id": "9906d8b863abe79affe465d255928e70"}, {"rental_uris": {"android": "https://dc.lft.to/lastmile_qr_scan", "ios": "https://dc.lft.to/lastmile_qr_scan"}, "name": "1b462a46c61ba2ef69e324a88d58e38c", "fusion_lat": 0.0, "lon": -77.023744, "is_disabled": 0, "is_reserved": 0, "fusion_lon": 0.0, "lat": 38.9043885, "type": "electric_scooter", "bike_id": "1b462a46c61ba2ef69e324a88d58e38c"}, {"rental_uris": {"android": "https://dc.lft.to/lastmile_qr_scan", "ios": "https://dc.lft.to/lastmile_qr_scan"}, "name": "740c8c3b3d2ffbf84995bce44e5fb634", "fusion_lat": 0.0, "lon": -76.99261616666666, "is_disabled": 0, "is_reserved": 0, "fusion_lon": 0.0, "lat": 38.926589666666665, "type": "electric_bike", "bike_id": "740c8c3b3d2ffbf84995bce44e5fb634"}, {"rental_uris": {"android": "https://dc.lft.to/lastmile_qr_scan", "ios": "https://dc.lft.to/lastmile_qr_scan"}, "name": "79ccc8ca02e74fbbdc00624e46700aea", "fusion_lat": 0.0, "lon": -76.98527533333333, "is_disabled": 0, "is_reserved": 0, "fusion_lon": 0.0, "lat": 38.91995983333333, "type": "electric_bike", "bike_id": "79ccc8ca02e74fbbdc00624e46700aea"}, {"rental_uris": {"android": "https://dc.lft.to/lastmile_qr_scan", "ios": "https://dc.lft.to/lastmile_qr_scan"}, "name": "63e68c93cf7a390a8700f0ad04e20b69", "fusion_lat": 0.0, "lon": -77.06522833333334, "is_disabled": 0, "is_reserved": 0, "fusion_lon": 0.0, "lat": 38.90550833333333, "type": "electric_bike", "bike_id": "63e68c93cf7a390a8700f0ad04e20b69"}, {"rental_uris": {"android": "https://dc.lft.to/lastmile_qr_scan", "ios": "https://dc.lft.to/lastmile_qr_scan"}, "name": "28c0d24aeab0e7a697314b1663722a5f", "fusion_lat": 0.0, "lon": -77.1073405, "is_disabled": 0, "is_reserved": 0, "fusion_lon": 0.0, "lat": 38.855396999999996, "type": "electric_bike", "bike_id": "28c0d24aeab0e7a697314b1663722a5f"}, {"rental_uris": {"android": "https://dc.lft.to/lastmile_qr_scan", "ios": "https://dc.lft.to/lastmile_qr_scan"}, "name": "5e2834f7119802ec184829c31aa983bc", "fusion_lat": 0.0, "lon": -76.87770316666666, "is_disabled": 0, "is_reserved": 0, "fusion_lon": 0.0, "lat": 38.99225366666667, "type": "electric_bike", "bike_id": "5e2834f7119802ec184829c31aa983bc"}, {"rental_uris": {"android": "https://dc.lft.to/lastmile_qr_scan", "ios": "https://dc.lft.to/lastmile_qr_scan"}, "name": "c5b9d40671eb4bdbde7ff70ae48a5b32", "fusion_lat": 0.0, "lon": -77.03295283333334, "is_disabled": 0, "is_reserved": 0, "fusion_lon": 0.0, "lat": 38.898952333333334, "type": "electric_scooter", "bike_id": "c5b9d40671eb4bdbde7ff70ae48a5b32"}, {"rental_uris": {"android": "https://dc.lft.to/lastmile_qr_scan", "ios": "https://dc.lft.to/lastmile_qr_scan"}, "name": "10934eaf84bdd56642254855cf5faf3f", "fusion_lat": 0.0, "lon": -76.96387416666667, "is_disabled": 0, "is_reserved": 0, "fusion_lon": 0.0, "lat": 38.975789666666664, "type": "electric_bike", "bike_id": "10934eaf84bdd56642254855cf5faf3f"}, {"rental_uris": {"android": "https://dc.lft.to/lastmile_qr_scan", "ios": "https://dc.lft.to/lastmile_qr_scan"}, "name": "855569de3ec4f0b9cca0fb6459a692e9", "fusion_lat": 0.0, "lon": -77.0330305, "is_disabled": 0, "is_reserved": 0, "fusion_lon": 0.0, "lat": 38.89646783333333, "type": "electric_scooter", "bike_id": "855569de3ec4f0b9cca0fb6459a692e9"}, {"rental_uris": {"android": "https://dc.lft.to/lastmile_qr_scan", "ios": "https://dc.lft.to/lastmile_qr_scan"}, "name": "919175342460313c3e2b731dba4132da", "fusion_lat": 0.0, "lon": -77.029509, "is_disabled": 0, "is_reserved": 0, "fusion_lon": 0.0, "lat": 38.93242166666667, "type": "electric_scooter", "bike_id": "919175342460313c3e2b731dba4132da"}, {"rental_uris": {"android": "https://dc.lft.to/lastmile_qr_scan", "ios": "https://dc.lft.to/lastmile_qr_scan"}, "name": "533631c854a46e9e2547eb8aceacff2d", "fusion_lat": 0.0, "lon": -77.08943716666667, "is_disabled": 0, "is_reserved": 0, "fusion_lon": 0.0, "lat": 38.84108783333333, "type": "electric_bike", "bike_id": "533631c854a46e9e2547eb8aceacff2d"}, {"rental_uris": {"android": "https://dc.lft.to/lastmile_qr_scan", "ios": "https://dc.lft.to/lastmile_qr_scan"}, "name": "d1aebfa9f8d5e13af441061bb2ae140b", "fusion_lat": 0.0, "lon": -77.02999966666667, "is_disabled": 0, "is_reserved": 0, "fusion_lon": 0.0, "lat": 38.924807, "type": "electric_scooter", "bike_id": "d1aebfa9f8d5e13af441061bb2ae140b"}, {"rental_uris": {"android": "https://dc.lft.to/lastmile_qr_scan", "ios": "https://dc.lft.to/lastmile_qr_scan"}, "name": "ff78091256a963fd010e404dfd863c2c", "fusion_lat": 0.0, "lon": -76.976185, "is_disabled": 0, "is_reserved": 0, "fusion_lon": 0.0, "lat": 38.892912333333335, "type": "electric_bike", "bike_id": "ff78091256a963fd010e404dfd863c2c"}, {"rental_uris": {"android": "https://dc.lft.to/lastmile_qr_scan", "ios": "https://dc.lft.to/lastmile_qr_scan"}, "name": "27787b563252b59e61af450ac085e591", "fusion_lat": 0.0, "lon": -77.0435615, "is_disabled": 0, "is_reserved": 0, "fusion_lon": 0.0, "lat": 38.9072325, "type": "electric_scooter", "bike_id": "27787b563252b59e61af450ac085e591"}, {"rental_uris": {"android": "https://dc.lft.to/lastmile_qr_scan", "ios": "https://dc.lft.to/lastmile_qr_scan"}, "name": "d9d0c1d0addab53fd2f25baf2800238d", "fusion_lat": 0.0, "lon": -76.94762083333333, "is_disabled": 0, "is_reserved": 0, "fusion_lon": 0.0, "lat": 38.89630016666667, "type": "electric_scooter", "bike_id": "d9d0c1d0addab53fd2f25baf2800238d"}, {"rental_uris": {"android": "https://dc.lft.to/lastmile_qr_scan", "ios": "https://dc.lft.to/lastmile_qr_scan"}, "name": "de48071c956bc37cd6127832cdb02b0c", "fusion_lat": 0.0, "lon": -77.03287716666667, "is_disabled": 0, "is_reserved": 0, "fusion_lon": 0.0, "lat": 38.95655933333333, "type": "electric_scooter", "bike_id": "de48071c956bc37cd6127832cdb02b0c"}, {"rental_uris": {"android": "https://dc.lft.to/lastmile_qr_scan", "ios": "https://dc.lft.to/lastmile_qr_scan"}, "name": "efa64ae22c2f890f481df04df32b3290", "fusion_lat": 0.0, "lon": -77.00447533333333, "is_disabled": 0, "is_reserved": 0, "fusion_lon": 0.0, "lat": 38.90737466666667, "type": "electric_scooter", "bike_id": "efa64ae22c2f890f481df04df32b3290"}, {"rental_uris": {"android": "https://dc.lft.to/lastmile_qr_scan", "ios": "https://dc.lft.to/lastmile_qr_scan"}, "name": "0a937fa2172b2646167a45c681b10ee2", "fusion_lat": 0.0, "lon": -76.988398, "is_disabled": 0, "is_reserved": 0, "fusion_lon": 0.0, "lat": 38.84269466666667, "type": "electric_bike", "bike_id": "0a937fa2172b2646167a45c681b10ee2"}, {"rental_uris": {"android": "https://dc.lft.to/lastmile_qr_scan", "ios": "https://dc.lft.to/lastmile_qr_scan"}, "name": "9f7be846d4824c410b69f377b02dcc0d", "fusion_lat": 0.0, "lon": -76.9494055, "is_disabled": 0, "is_reserved": 0, "fusion_lon": 0.0, "lat": 38.883184666666665, "type": "electric_scooter", "bike_id": "9f7be846d4824c410b69f377b02dcc0d"}, {"rental_uris": {"android": "https://dc.lft.to/lastmile_qr_scan", "ios": "https://dc.lft.to/lastmile_qr_scan"}, "name": "042280fe806f63e037d278389a49fec0", "fusion_lat": 0.0, "lon": -77.02292, "is_disabled": 0, "is_reserved": 0, "fusion_lon": 0.0, "lat": 38.937631, "type": "electric_scooter", "bike_id": "042280fe806f63e037d278389a49fec0"}, {"rental_uris": {"android": "https://dc.lft.to/lastmile_qr_scan", "ios": "https://dc.lft.to/lastmile_qr_scan"}, "name": "9c71254b96f048836f7754a00905e934", "fusion_lat": 0.0, "lon": -77.02389116666667, "is_disabled": 0, "is_reserved": 0, "fusion_lon": 0.0, "lat": 38.90745416666667, "type": "electric_scooter", "bike_id": "9c71254b96f048836f7754a00905e934"}, {"rental_uris": {"android": "https://dc.lft.to/lastmile_qr_scan", "ios": "https://dc.lft.to/lastmile_qr_scan"}, "name": "254855e832acc4ff6c94bacd3a57f51e", "fusion_lat": 0.0, "lon": -77.025519, "is_disabled": 0, "is_reserved": 0, "fusion_lon": 0.0, "lat": 38.89712566666667, "type": "electric_scooter", "bike_id": "254855e832acc4ff6c94bacd3a57f51e"}, {"rental_uris": {"android": "https://dc.lft.to/lastmile_qr_scan", "ios": "https://dc.lft.to/lastmile_qr_scan"}, "name": "11934a3b18e30246ceeef37b5ba7b8f6", "fusion_lat": 0.0, "lon": -77.02007066666667, "is_disabled": 0, "is_reserved": 0, "fusion_lon": 0.0, "lat": 38.92418583333333, "type": "electric_scooter", "bike_id": "11934a3b18e30246ceeef37b5ba7b8f6"}, {"rental_uris": {"android": "https://dc.lft.to/lastmile_qr_scan", "ios": "https://dc.lft.to/lastmile_qr_scan"}, "name": "8af9925f90da2ba596cbea1edf52a850", "fusion_lat": 0.0, "lon": -77.00969033333334, "is_disabled": 0, "is_reserved": 0, "fusion_lon": 0.0, "lat": 38.881297333333336, "type": "electric_scooter", "bike_id": "8af9925f90da2ba596cbea1edf52a850"}, {"rental_uris": {"android": "https://dc.lft.to/lastmile_qr_scan", "ios": "https://dc.lft.to/lastmile_qr_scan"}, "name": "97478d26369eb5ca300e02c9e17e3cde", "fusion_lat": 0.0, "lon": -77.04392616666667, "is_disabled": 0, "is_reserved": 0, "fusion_lon": 0.0, "lat": 38.91116016666667, "type": "electric_scooter", "bike_id": "97478d26369eb5ca300e02c9e17e3cde"}, {"rental_uris": {"android": "https://dc.lft.to/lastmile_qr_scan", "ios": "https://dc.lft.to/lastmile_qr_scan"}, "name": "6c598fca4e7d560af33fdde53ba9db2b", "fusion_lat": 0.0, "lon": -77.022905, "is_disabled": 0, "is_reserved": 0, "fusion_lon": 0.0, "lat": 38.9018295, "type": "electric_scooter", "bike_id": "6c598fca4e7d560af33fdde53ba9db2b"}, {"rental_uris": {"android": "https://dc.lft.to/lastmile_qr_scan", "ios": "https://dc.lft.to/lastmile_qr_scan"}, "name": "414383353ccd0e605be6fa8adb008c50", "fusion_lat": 0.0, "lon": -77.027827, "is_disabled": 0, "is_reserved": 0, "fusion_lon": 0.0, "lat": 38.89222, "type": "electric_scooter", "bike_id": "414383353ccd0e605be6fa8adb008c50"}, {"rental_uris": {"android": "https://dc.lft.to/lastmile_qr_scan", "ios": "https://dc.lft.to/lastmile_qr_scan"}, "name": "dbc85a2b3a080c7e2b319061be2004f0", "fusion_lat": 0.0, "lon": -77.06348216666666, "is_disabled": 0, "is_reserved": 0, "fusion_lon": 0.0, "lat": 38.944524, "type": "electric_scooter", "bike_id": "dbc85a2b3a080c7e2b319061be2004f0"}, {"rental_uris": {"android": "https://dc.lft.to/lastmile_qr_scan", "ios": "https://dc.lft.to/lastmile_qr_scan"}, "name": "c90aeb3eb2ab6596a6a220a7b7dc3c54", "fusion_lat": 0.0, "lon": -77.0278825, "is_disabled": 0, "is_reserved": 0, "fusion_lon": 0.0, "lat": 38.96137083333333, "type": "electric_scooter", "bike_id": "c90aeb3eb2ab6596a6a220a7b7dc3c54"}, {"rental_uris": {"android": "https://dc.lft.to/lastmile_qr_scan", "ios": "https://dc.lft.to/lastmile_qr_scan"}, "name": "5796f19f38fed962947abcf83e703f54", "fusion_lat": 0.0, "lon": -76.996312, "is_disabled": 0, "is_reserved": 0, "fusion_lon": 0.0, "lat": 38.846194, "type": "electric_scooter", "bike_id": "5796f19f38fed962947abcf83e703f54"}, {"rental_uris": {"android": "https://dc.lft.to/lastmile_qr_scan", "ios": "https://dc.lft.to/lastmile_qr_scan"},