{"data": {"bikes": [{"rental_uris": {"android": "https://dc.lft.to/lastmile_qr_scan", "ios": "https://dc.lft.to/lastmile_qr_scan"}, "lon": -77.0172705, "name": "b8d24cc8ecefbcefc90205ccbd6b8654", "lat": 38.90079333333333, "is_reserved": 0, "fusion_lat": 0.0, "bike_id": "b8d24cc8ecefbcefc90205ccbd6b8654", "type": "electric_scooter", "is_disabled": 0, "fusion_lon": 0.0}, {"rental_uris": {"android": "https://dc.lft.to/lastmile_qr_scan", "ios": "https://dc.lft.to/lastmile_qr_scan"}, "lon": -77.0144225, "name": "d1471d95aa5449c7347420e307a2d2a3", "lat": 38.975081833333334, "is_reserved": 0, "fusion_lat": 0.0, "bike_id": "d1471d95aa5449c7347420e307a2d2a3", "type": "electric_scooter", "is_disabled": 0, "fusion_lon": 0.0}, {"rental_uris": {"android": "https://dc.lft.to/lastmile_qr_scan", "ios": "https://dc.lft.to/lastmile_qr_scan"}, "lon": -76.98193566666667, "name": "a1c69aaf96fd56b1d353ab392e22aad5", "lat": 38.920618, "is_reserved": 0, "fusion_lat": 0.0, "bike_id": "a1c69aaf96fd56b1d353ab392e22aad5", "type": "electric_scooter", "is_disabled": 0, "fusion_lon": 0.0}, {"rental_uris": {"android": "https://dc.lft.to/lastmile_qr_scan", "ios": "https://dc.lft.to/lastmile_qr_scan"}, "lon": -77.036374, "name": "c7330ed3f2cbe80d5cfb2e484b656e37", "lat": 38.932876666666665, "is_reserved": 0, "fusion_lat": 0.0, "bike_id": "c7330ed3f2cbe80d5cfb2e484b656e37", "type": "electric_bike", "is_disabled": 0, "fusion_lon": 0.0}, {"rental_uris": {"android": "https://dc.lft.to/lastmile_qr_scan", "ios": "https://dc.lft.to/lastmile_qr_scan"}, "lon": -76.96562216666666, "name": "6ac1efdfa756e788f9c02408c154bd18", "lat": 38.9184625, "is_reserved": 0, "fusion_lat": 0.0, "bike_id": "6ac1efdfa756e788f9c02408c154bd18", "type": "electric_scooter", "is_disabled": 0, "fusion_lon": 0.0}, {"rental_uris": {"android": "https://dc.lft.to/lastmile_qr_scan", "ios": "https://dc.lft.to/lastmile_qr_scan"}, "lon": -77.00057516666666, "name": "7859f878b2156f0a878f6e5878794d02", "lat": 38.894304, "is_reserved": 0, "fusion_lat": 0.0, "bike_id": "7859f878b2156f0a878f6e5878794d02", "type": "electric_scooter", "is_disabled": 0, "fusion_lon": 0.0}, {"rental_uris": {"android": "https://dc.lft.to/lastmile_qr_scan", "ios": "https://dc.lft.to/lastmile_qr_scan"}, "lon": -76.98563666666666, "name": "13e0d02394d1c2b978af2577c15c20bc", "lat": 38.86681, "is_reserved": 0, "fusion_lat": 0.0, "bike_id": "13e0d02394d1c2b978af2577c15c20bc", "type": "electric_scooter", "is_disabled": 0, "fusion_lon": 0.0}, {"rental_uris": {"android": "https://dc.lft.to/lastmile_qr_scan", "ios": "https://dc.lft.to/lastmile_qr_scan"}, "lon": -77.02489366666667, "name": "178cd6a061fdf6a86b5e11aaf0879ed4", "lat": 38.9388585, "is_reserved": 0, "fusion_lat": 0.0, "bike_id": "178cd6a061fdf6a86b5e11aaf0879ed4", "type": "electric_scooter", "is_disabled": 0, "fusion_lon": 0.0}, {"rental_uris": {"android": "https://dc.lft.to/lastmile_qr_scan", "ios": "https://dc.lft.to/lastmile_qr_scan"}, "lon": -76.980508, "name": "e8ae31962892bfb0c91119996e63eadc", "lat": 38.88528316666667, "is_reserved": 0, "fusion_lat": 0.0, "bike_id": "e8ae31962892bfb0c91119996e63eadc", "type": "electric_scooter", "is_disabled": 0, "fusion_lon": 0.0}, {"rental_uris": {"android": "https://dc.lft.to/lastmile_qr_scan", "ios": "https://dc.lft.to/lastmile_qr_scan"}, "lon": -77.02490583333334, "name": "d773cf9e0307db137b324a33ef3aaf51", "lat": 38.941818, "is_reserved": 0, "fusion_lat": 0.0, "bike_id": "d773cf9e0307db137b324a33ef3aaf51", "type": "electric_bike", "is_disabled": 0, "fusion_lon": 0.0}, {"rental_uris": {"android": "https://dc.lft.to/lastmile_qr_scan", "ios": "https://dc.lft.to/lastmile_qr_scan"}, "lon": -76.993722, "name": "64ab5082a80c44d19f7cb5492028e14e", "lat": 38.990964, "is_reserved": 0, "fusion_lat": 0.0, "bike_id": "64ab5082a80c44d19f7cb5492028e14e", "type": "electric_bike", "is_disabled": 0, "fusion_lon": 0.0}, {"rental_uris": {"android": "https://dc.lft.to/lastmile_qr_scan", "ios": "https://dc.lft.to/lastmile_qr_scan"}, "lon": -77.018734, "name": "631f2068542c9467d5f4c972bbca3a75", "lat": 38.900627, "is_reserved": 0, "fusion_lat": 0.0, "bike_id": "631f2068542c9467d5f4c972bbca3a75", "type": "electric_scooter", "is_disabled": 0, "fusion_lon": 0.0}, {"rental_uris": {"android": "https://dc.lft.to/lastmile_qr_scan", "ios": "https://dc.lft.to/lastmile_qr_scan"}, "lon": -77.00400683333334, "name": "3f15c701f505724283d87abddf85c05e", "lat": 38.8770055, "is_reserved": 0, "fusion_lat": 0.0, "bike_id": "3f15c701f505724283d87abddf85c05e", "type": "electric_scooter", "is_disabled": 0, "fusion_lon": 0.0}, {"rental_uris": {"android": "https://dc.lft.to/lastmile_qr_scan", "ios": "https://dc.lft.to/lastmile_qr_scan"}, "lon": -77.022082, "name": "d13060ebb24f209c16afa1fb9bc5a3ed", "lat": 38.892276333333335, "is_reserved": 0, "fusion_lat": 0.0, "bike_id": "d13060ebb24f209c16afa1fb9bc5a3ed", "type": "electric_scooter", "is_disabled": 0, "fusion_lon": 0.0}, {"rental_uris": {"android": "https://dc.lft.to/lastmile_qr_scan", "ios": "https://dc.lft.to/lastmile_qr_scan"}, "lon": -77.02661883333333, "name": "c823c7dd4a57fed1c3a28779de2fee3f", "lat": 38.93097216666666, "is_reserved": 0, "fusion_lat": 0.0, "bike_id": "c823c7dd4a57fed1c3a28779de2fee3f", "type": "electric_scooter", "is_disabled": 0, "fusion_lon": 0.0}, {"rental_uris": {"android": "https://dc.lft.to/lastmile_qr_scan", "ios": "https://dc.lft.to/lastmile_qr_scan"}, "lon": -77.02786383333333, "name": "d93a2e7866b43bfadcf52338db030245", "lat": 38.9386405, "is_reserved": 0, "fusion_lat": 0.0, "bike_id": "d93a2e7866b43bfadcf52338db030245", "type": "electric_scooter", "is_disabled": 0, "fusion_lon": 0.0}, {"rental_uris": {"android": "https://dc.lft.to/lastmile_qr_scan", "ios": "https://dc.lft.to/lastmile_qr_scan"}, "lon": -77.07246166666667, "name": "8d8e4b6c7e90bbcd31ed74aa7277fc35", "lat": 38.934567, "is_reserved": 0, "fusion_lat": 0.0, "bike_id": "8d8e4b6c7e90bbcd31ed74aa7277fc35", "type": "electric_scooter", "is_disabled": 0, "fusion_lon": 0.0}, {"rental_uris": {"android": "https://dc.lft.to/lastmile_qr_scan", "ios": "https://dc.lft.to/lastmile_qr_scan"}, "lon": -76.94148083333333, "name": "df2df555f7a4084eb3236d5f12e28ef0", "lat": 38.90179466666667, "is_reserved": 0, "fusion_lat": 0.0, "bike_id": "df2df555f7a4084eb3236d5f12e28ef0", "type": "electric_scooter", "is_disabled": 0, "fusion_lon": 0.0}, {"rental_uris": {"android": "https://dc.lft.to/lastmile_qr_scan", "ios": "https://dc.lft.to/lastmile_qr_scan"}, "lon": -77.02187516666666, "name": "44d4e05d71874529c39a0f0705ddacbc", "lat": 38.90970433333333, "is_reserved": 0, "fusion_lat": 0.0, "bike_id": "44d4e05d71874529c39a0f0705ddacbc", "type": "electric_scooter", "is_disabled": 0, "fusion_lon": 0.0}, {"rental_uris": {"android": "https://dc.lft.to/lastmile_qr_scan", "ios": "https://dc.lft.to/lastmile_qr_scan"}, "lon": -77.00227666666666, "name": "6d294c0ed6f03d2906911ec60409b902", "lat": 38.894838166666666, "is_reserved": 0, "fusion_lat": 0.0, "bike_id": "6d294c0ed6f03d2906911ec60409b902", "type": "electric_scooter", "is_disabled": 0, "fusion_lon": 0.0}, {"rental_uris": {"android": "https://dc.lft.to/lastmile_qr_scan", "ios": "https://dc.lft.to/lastmile_qr_scan"}, "lon": -77.02491216666667, "name": "ec0fad0861f12e1c569568bb6bf7e77f", "lat": 38.941841333333336, "is_reserved": 0, "fusion_lat": 0.0, "bike_id": "ec0fad0861f12e1c569568bb6bf7e77f", "type": "electric_scooter", "is_disabled": 0, "fusion_lon": 0.0}, {"rental_uris": {"android": "https://dc.lft.to/lastmile_qr_scan", "ios": "https://dc.lft.to/lastmile_qr_scan"}, "lon": -77.02361183333333, "name": "ec6fe9762d86b5b28da03bba59cbe5f6", "lat": 38.92052566666667, "is_reserved": 0, "fusion_lat": 0.0, "bike_id": "ec6fe9762d86b5b28da03bba59cbe5f6", "type": "electric_scooter", "is_disabled": 0, "fusion_lon": 0.0}, {"rental_uris": {"android": "https://dc.lft.to/lastmile_qr_scan", "ios": "https://dc.lft.to/lastmile_qr_scan"}, "lon": -76.9823255, "name": "761366a22be96ab4c3f1e8f829e77c5f", "lat": 38.864729, "is_reserved": 0, "fusion_lat": 0.0, "bike_id": "761366a22be96ab4c3f1e8f829e77c5f", "type": "electric_scooter", "is_disabled": 0, "fusion_lon": 0.0}, {"rental_uris": {"android": "https://dc.lft.to/lastmile_qr_scan", "ios": "https://dc.lft.to/lastmile_qr_scan"}, "lon": -77.0402085, "name": "e951b82f782f54abc379450d28efcc21", "lat": 38.921664, "is_reserved": 0, "fusion_lat": 0.0, "bike_id": "e951b82f782f54abc379450d28efcc21", "type": "electric_scooter", "is_disabled": 0, "fusion_lon": 0.0}, {"rental_uris": {"android": "https://dc.lft.to/lastmile_qr_scan", "ios": "https://dc.lft.to/lastmile_qr_scan"}, "lon": -77.00752116666666, "name": "f0cb8b9f75f65d17161249bc060e0eba", "lat": 38.89838016666667, "is_reserved": 0, "fusion_lat": 0.0, "bike_id": "f0cb8b9f75f65d17161249bc060e0eba", "type": "electric_scooter", "is_disabled": 0, "fusion_lon": 0.0}, {"rental_uris": {"android": "https://dc.lft.to/lastmile_qr_scan", "ios": "https://dc.lft.to/lastmile_qr_scan"}, "lon": -76.9868025, "name": "daf59196310ad45126233bde1c4ba11b", "lat": 38.89361616666667, "is_reserved": 0, "fusion_lat": 0.0, "bike_id": "daf59196310ad45126233bde1c4ba11b", "type": "electric_scooter", "is_disabled": 0, "fusion_lon": 0.0}, {"rental_uris": {"android": "https://dc.lft.to/lastmile_qr_scan", "ios": "https://dc.lft.to/lastmile_qr_scan"}, "lon": -76.98828566666667, "name": "f47d375893b5563d7306caff1978def1", "lat": 38.890789833333336, "is_reserved": 0, "fusion_lat": 0.0, "bike_id": "f47d375893b5563d7306caff1978def1", "type": "electric_scooter", "is_disabled": 0, "fusion_lon": 0.0}, {"rental_uris": {"android": "https://dc.lft.to/lastmile_qr_scan", "ios": "https://dc.lft.to/lastmile_qr_scan"}, "lon": -77.03745833333333, "name": "93d068bb58cb44df8c32b69a46150e6d", "lat": 38.91614966666667, "is_reserved": 0, "fusion_lat": 0.0, "bike_id": "93d068bb58cb44df8c32b69a46150e6d", "type": "electric_scooter", "is_disabled": 0, "fusion_lon": 0.0}, {"rental_uris": {"android": "https://dc.lft.to/lastmile_qr_scan", "ios": "https://dc.lft.to/lastmile_qr_scan"}, "lon": -77.0257605, "name": "65aa1f2cb8079720c96655006c7f3385", "lat": 38.92045916666667, "is_reserved": 0, "fusion_lat": 0.0, "bike_id": "65aa1f2cb8079720c96655006c7f3385", "type": "electric_scooter", "is_disabled": 0, "fusion_lon": 0.0}, {"rental_uris": {"android": "https://dc.lft.to/lastmile_qr_scan", "ios": "https://dc.lft.to/lastmile_qr_scan"}, "lon": -76.98408016666667, "name": "8bb8f44e07c02516aad4b3e2833c72da", "lat": 38.90820183333334, "is_reserved": 0, "fusion_lat": 0.0, "bike_id": "8bb8f44e07c02516aad4b3e2833c72da", "type": "electric_scooter", "is_disabled": 0, "fusion_lon": 0.0}, {"rental_uris": {"android": "https://dc.lft.to/lastmile_qr_scan", "ios": "https://dc.lft.to/lastmile_qr_scan"}, "lon": -76.99743016666666, "name": "cffc42ee1b90cecb65d9a157c4da2e28", "lat": 38.86161366666666, "is_reserved": 0, "fusion_lat": 0.0, "bike_id": "cffc42ee1b90cecb65d9a157c4da2e28", "type": "electric_scooter", "is_disabled": 0, "fusion_lon": 0.0}, {"rental_uris": {"android": "https://dc.lft.to/lastmile_qr_scan", "ios": "https://dc.lft.to/lastmile_qr_scan"}, "lon": -77.03784533333334, "name": "25f339e6c7520c236a70f2e7155a5e63", "lat": 38.926996333333335, "is_reserved": 0, "fusion_lat": 0.0, "bike_id": "25f339e6c7520c236a70f2e7155a5e63", "type": "electric_scooter", "is_disabled": 0, "fusion_lon": 0.0}, {"rental_uris": {"android": "https://dc.lft.to/lastmile_qr_scan", "ios": "https://dc.lft.to/lastmile_qr_scan"}, "lon": -77.03661983333333, "name": "5fe8fe34306290af7fd9e000c820c596", "lat": 38.9012195, "is_reserved": 0, "fusion_lat": 0.0, "bike_id": "5fe8fe34306290af7fd9e000c820c596", "type": "electric_scooter", "is_disabled": 0, "fusion_lon": 0.0}, {"rental_uris": {"android": "https://dc.lft.to/lastmile_qr_scan", "ios": "https://dc.lft.to/lastmile_qr_scan"}, "lon": -77.009461, "name": "c32bb40c67343e5b6fbdaaa3e583f886", "lat": 38.9212495, "is_reserved": 0, "fusion_lat": 0.0, "bike_id": "c32bb40c67343e5b6fbdaaa3e583f886", "type": "electric_bike", "is_disabled": 0, "fusion_lon": 0.0}, {"rental_uris": {"android": "https://dc.lft.to/lastmile_qr_scan", "ios": "https://dc.lft.to/lastmile_qr_scan"}, "lon": -76.9902775, "name": "f8369cce7cba1c7526b0aaa5f53a8df2", "lat": 38.90150466666667, "is_reserved": 0, "fusion_lat": 0.0, "bike_id": "f8369cce7cba1c7526b0aaa5f53a8df2", "type": "electric_scooter", "is_disabled": 0, "fusion_lon": 0.0}, {"rental_uris": {"android": "https://dc.lft.to/lastmile_qr_scan", "ios": "https://dc.lft.to/lastmile_qr_scan"}, "lon": -77.22893816666667, "name": "02636e11f1705d881510f84c2d8c7d12", "lat": 38.90956716666667, "is_reserved": 0, "fusion_lat": 0.0, "bike_id": "02636e11f1705d881510f84c2d8c7d12", "type": "electric_bike", "is_disabled": 0, "fusion_lon": 0.0}, {"rental_uris": {"android": "https://dc.lft.to/lastmile_qr_scan", "ios": "https://dc.lft.to/lastmile_qr_scan"}, "lon": -77.01505633333333, "name": "767bd6c2f804e0c916278222f019aa84", "lat": 38.890146333333334, "is_reserved": 0, "fusion_lat": 0.0, "bike_id": "767bd6c2f804e0c916278222f019aa84", "type": "electric_scooter", "is_disabled": 0, "fusion_lon": 0.0}, {"rental_uris": {"android": "https://dc.lft.to/lastmile_qr_scan", "ios": "https://dc.lft.to/lastmile_qr_scan"}, "lon": -76.98965466666667, "name": "bde500f908fdfe3cca5984c1494084be", "lat": 38.90139766666667, "is_reserved": 0, "fusion_lat": 0.0, "bike_id": "bde500f908fdfe3cca5984c1494084be", "type": "electric_scooter", "is_disabled": 0, "fusion_lon": 0.0}, {"rental_uris": {"android": "https://dc.lft.to/lastmile_qr_scan", "ios": "https://dc.lft.to/lastmile_qr_scan"}, "lon": -77.01781616666666, "name": "d8c63a85a41b646405ec864f3de35010", "lat": 38.94417766666667, "is_reserved": 0, "fusion_lat": 0.0, "bike_id": "d8c63a85a41b646405ec864f3de35010", "type": "electric_scooter", "is_disabled": 0, "fusion_lon": 0.0}, {"rental_uris": {"android": "https://dc.lft.to/lastmile_qr_scan", "ios": "https://dc.lft.to/lastmile_qr_scan"}, "lon": -76.988846, "name": "ef3d471603c45172933fc7dea6439e0c", "lat": 38.866602, "is_reserved": 0, "fusion_lat": 0.0, "bike_id": "ef3d471603c45172933fc7dea6439e0c", "type": "electric_scooter", "is_disabled": 0, "fusion_lon": 0.0}, {"rental_uris": {"android": "https://dc.lft.to/lastmile_qr_scan", "ios": "https://dc.lft.to/lastmile_qr_scan"}, "lon": -77.01209233333333, "name": "3007bf2dd3c46a88d9aa28be61470ac4", "lat": 38.92119133333333, "is_reserved": 0, "fusion_lat": 0.0, "bike_id": "3007bf2dd3c46a88d9aa28be61470ac4", "type": "electric_scooter", "is_disabled": 0, "fusion_lon": 0.0}, {"rental_uris": {"android": "https://dc.lft.to/lastmile_qr_scan", "ios": "https://dc.lft.to/lastmile_qr_scan"}, "lon": -77.04411983333334, "name": "f9a479a045fe6eb1ca2a801f8e558f37", "lat": 38.93418483333333, "is_reserved": 0, "fusion_lat": 0.0, "bike_id": "f9a479a045fe6eb1ca2a801f8e558f37", "type": "electric_scooter", "is_disabled": 0, "fusion_lon": 0.0}, {"rental_uris": {"android": "https://dc.lft.to/lastmile_qr_scan", "ios": "https://dc.lft.to/lastmile_qr_scan"}, "lon": -77.031015, "name": "7f47120a48d1f11364b1ffc5763d9a6d", "lat": 38.923877, "is_reserved": 0, "fusion_lat": 0.0, "bike_id": "7f47120a48d1f11364b1ffc5763d9a6d", "type": "electric_scooter", "is_disabled": 0, "fusion_lon": 0.0}, {"rental_uris": {"android": "https://dc.lft.to/lastmile_qr_scan", "ios": "https://dc.lft.to/lastmile_qr_scan"}, "lon": -77.033231, "name": "aaaeb3d1b01d0449d31449e3f84c2802", "lat": 38.89817383333333, "is_reserved": 0, "fusion_lat": 0.0, "bike_id": "aaaeb3d1b01d0449d31449e3f84c2802", "type": "electric_scooter", "is_disabled": 0, "fusion_lon": 0.0}, {"rental_uris": {"android": "https://dc.lft.to/lastmile_qr_scan", "ios": "https://dc.lft.to/lastmile_qr_scan"}, "lon": -77.02965433333334, "name": "d8d21b5a13f7d6565990e9cd872c45d0", "lat": 38.906155, "is_reserved": 0, "fusion_lat": 0.0, "bike_id": "d8d21b5a13f7d6565990e9cd872c45d0", "type": "electric_scooter", "is_disabled": 0, "fusion_lon": 0.0}, {"rental_uris": {"android": "https://dc.lft.to/lastmile_qr_scan", "ios": "https://dc.lft.to/lastmile_qr_scan"}, "lon": -77.0380785, "name": "c007a9512cfe7b9294b246becfb5c772", "lat": 38.93116366666667, "is_reserved": 0, "fusion_lat": 0.0, "bike_id": "c007a9512cfe7b9294b246becfb5c772", "type": "electric_scooter", "is_disabled": 0, "fusion_lon": 0.0}, {"rental_uris": {"android": "https://dc.lft.to/lastmile_qr_scan", "ios": "https://dc.lft.to/lastmile_qr_scan"}, "lon": -77.05137383333333, "name": "31fc1edf9cc2171b19e86c3c167f74a5", "lat": 38.90510183333333, "is_reserved": 0, "fusion_lat": 0.0, "bike_id": "31fc1edf9cc2171b19e86c3c167f74a5", "type": "electric_scooter", "is_disabled": 0, "fusion_lon": 0.0}, {"rental_uris": {"android": "https://dc.lft.to/lastmile_qr_scan", "ios": "https://dc.lft.to/lastmile_qr_scan"}, "lon": -77.02960266666666, "name": "39992dc3c289f81a3cd52e1d04ff2ff7", "lat": 38.90495583333333, "is_reserved": 0, "fusion_lat": 0.0, "bike_id": "39992dc3c289f81a3cd52e1d04ff2ff7", "type": "electric_scooter", "is_disabled": 0, "fusion_lon": 0.0}, {"rental_uris": {"android": "https://dc.lft.to/lastmile_qr_scan", "ios": "https://dc.lft.to/lastmile_qr_scan"}, "lon": -77.02536166666667, "name": "7c0ac711e26fd7b27141dae6958004e0", "lat": 38.9309455, "is_reserved": 0, "fusion_lat": 0.0, "bike_id": "7c0ac711e26fd7b27141dae6958004e0", "type": "electric_scooter", "is_disabled": 0, "fusion_lon": 0.0}, {"rental_uris": {"android": "https://dc.lft.to/lastmile_qr_scan", "ios": "https://dc.lft.to/lastmile_qr_scan"}, "lon": -77.028301, "name": "c084d9f293c74fa795d8d0b3981a7691", "lat": 38.91707916666667, "is_reserved": 0, "fusion_lat": 0.0, "bike_id": "c084d9f293c74fa795d8d0b3981a7691", "type": "electric_scooter", "is_disabled": 0, "fusion_lon": 0.0}, {"rental_uris": {"android": "https://dc.lft.to/lastmile_qr_scan", "ios": "https://dc.lft.to/lastmile_qr_scan"}, "lon": -77.04517133333333, "name": "acbe19ee24aeeb807a8ca26af53eda2e", "lat": 38.89611466666667, "is_reserved": 0, "fusion_lat": 0.0, "bike_id": "acbe19ee24aeeb807a8ca26af53eda2e", "type": "electric_scooter", "is_disabled": 0, "fusion_lon": 0.0}, {"rental_uris": {"android": "https://dc.lft.to/lastmile_qr_scan", "ios": "https://dc.lft.to/lastmile_qr_scan"}, "lon": -77.03867083333333, "name": "5f46a08e5f978244d174cd6b7ec4abee", "lat": 38.9155115, "is_reserved": 0, "fusion_lat": 0.0, "bike_id": "5f46a08e5f978244d174cd6b7ec4abee", "type": "electric_scooter", "is_disabled": 0, "fusion_lon": 0.0}, {"rental_uris": {"android": "https://dc.lft.to/lastmile_qr_scan", "ios": "https://dc.lft.to/lastmile_qr_scan"}, "lon": -76.9809045, "name": "e2a9bcb1934c22317fe78faeb1d97962", "lat": 38.957527, "is_reserved": 0, "fusion_lat": 0.0, "bike_id": "e2a9bcb1934c22317fe78faeb1d97962", "type": "electric_bike", "is_disabled": 0, "fusion_lon": 0.0}, {"rental_uris": {"android": "https://dc.lft.to/lastmile_qr_scan", "ios": "https://dc.lft.to/lastmile_qr_scan"}, "lon": -76.969411, "name": "79e27a068bdab4c7b0d4edf846a0a5b8", "lat": 38.959807833333336, "is_reserved": 0, "fusion_lat": 0.0, "bike_id": "79e27a068bdab4c7b0d4edf846a0a5b8", "type": "electric_bike", "is_disabled": 0, "fusion_lon": 0.0}, {"rental_uris": {"android": "https://dc.lft.to/lastmile_qr_scan", "ios": "https://dc.lft.to/lastmile_qr_scan"}, "lon": -77.01508816666667, "name": "1087eabf6ce8b7155fa96d40ed491b2b", "lat": 38.90998316666666, "is_reserved": 0, "fusion_lat": 0.0, "bike_id": "1087eabf6ce8b7155fa96d40ed491b2b", "type": "electric_scooter", "is_disabled": 0, "fusion_lon": 0.0}, {"rental_uris": {"android": "https://dc.lft.to/lastmile_qr_scan", "ios": "https://dc.lft.to/lastmile_qr_scan"}, "lon": -77.03909666666667, "name": "6b5b20f0675f2bcf9e1fcde363f1f286", "lat": 38.913999833333335, "is_reserved": 0, "fusion_lat": 0.0, "bike_id": "6b5b20f0675f2bcf9e1fcde363f1f286", "type": "electric_scooter", "is_disabled": 0, "fusion_lon": 0.0}, {"rental_uris": {"android": "https://dc.lft.to/lastmile_qr_scan", "ios": "https://dc.lft.to/lastmile_qr_scan"}, "lon": -77.03104633333334, "name": "9d93c1f38c84afa7dd363d8c7013fbd2", "lat": 38.9318435, "is_reserved": 0, "fusion_lat": 0.0, "bike_id": "9d93c1f38c84afa7dd363d8c7013fbd2", "type": "electric_scooter", "is_disabled": 0, "fusion_lon": 0.0}, {"rental_uris": {"android": "https://dc.lft.to/lastmile_qr_scan", "ios": "https://dc.lft.to/lastmile_qr_scan"}, "lon": -77.04250633333334, "name": "099733bdf2615a7f6a149ecd99844386", "lat": 38.92218033333333, "is_reserved": 0, "fusion_lat": 0.0, "bike_id": "099733bdf2615a7f6a149ecd99844386", "type": "electric_scooter", "is_disabled": 0, "fusion_lon": 0.0}, {"rental_uris": {"android": "https://dc.lft.to/lastmile_qr_scan", "ios": "https://dc.lft.to/lastmile_qr_scan"}, "lon": -77.0425235, "name": "f2554849d4a9ec428a433034a2edbbc7", "lat": 38.9219775, "is_reserved": 0, "fusion_lat": 0.0, "bike_id": "f2554849d4a9ec428a433034a2edbbc7", "type": "electric_scooter", "is_disabled": 0, "fusion_lon": 0.0}, {"rental_uris": {"android": "https://dc.lft.to/lastmile_qr_scan", "ios": "https://dc.lft.to/lastmile_qr_scan"}, "lon": -77.00217616666667, "name": "25cef06e80d3c57b2a1e8bd067d45118", "lat": 38.920004, "is_reserved": 0, "fusion_lat": 0.0, "bike_id": "25cef06e80d3c57b2a1e8bd067d45118", "type": "electric_scooter", "is_disabled": 0, "fusion_lon": 0.0}, {"rental_uris": {"android": "https://dc.lft.to/lastmile_qr_scan", "ios": "https://dc.lft.to/lastmile_qr_scan"}, "lon": -77.00197933333334, "name": "db3e9e21e9601fdb146450ba84c3dc02", "lat": 38.91225816666667, "is_reserved": 0, "fusion_lat": 0.0, "bike_id": "db3e9e21e9601fdb146450ba84c3dc02", "type": "electric_scooter", "is_disabled": 0, "fusion_lon": 0.0}, {"rental_uris": {"android": "https://dc.lft.to/lastmile_qr_scan", "ios": "https://dc.lft.to/lastmile_qr_scan"}, "lon": -77.021635, "name": "7708163b8fdedca6ebe7ecedad3e739a", "lat": 38.89485633333334, "is_reserved": 0, "fusion_lat": 0.0, "bike_id": "7708163b8fdedca6ebe7ecedad3e739a", "type": "electric_scooter", "is_disabled": 0, "fusion_lon": 0.0}, {"rental_uris": {"android": "https://dc.lft.to/lastmile_qr_scan", "ios": "https://dc.lft.to/lastmile_qr_scan"}, "lon": -77.03210483333334, "name": "26d89bfb2e79faf3c54f57f07942f1ed", "lat": 38.91625033333333, "is_reserved": 0, "fusion_lat": 0.0, "bike_id": "26d89bfb2e79faf3c54f57f07942f1ed", "type": "electric_scooter", "is_disabled": 0, "fusion_lon": 0.0}, {"rental_uris": {"android": "https://dc.lft.to/lastmile_qr_scan", "ios": "https://dc.lft.to/lastmile_qr_scan"}, "lon": -77.03877383333334, "name": "d2d7c9d9b06d57bfe6d95828e2541b0d", "lat": 38.906542333333334, "is_reserved": 0, "fusion_lat": 0.0, "bike_id": "d2d7c9d9b06d57bfe6d95828e2541b0d", "type": "electric_scooter", "is_disabled": 0, "fusion_lon": 0.0}, {"rental_uris": {"android": "https://dc.lft.to/lastmile_qr_scan", "ios": "https://dc.lft.to/lastmile_qr_scan"}, "lon": -77.01213933333334, "name": "7158cfec042962f978f958adc02c8cfe", "lat": 38.91469566666667, "is_reserved": 0, "fusion_lat": 0.0, "bike_id": "7158cfec042962f978f958adc02c8cfe", "type": "electric_scooter", "is_disabled": 0, "fusion_lon": 0.0}, {"rental_uris": {"android": "https://dc.lft.to/lastmile_qr_scan", "ios": "https://dc.lft.to/lastmile_qr_scan"}, "lon": -77.00702116666666, "name": "5caf4778280faedff368f91f73d24784", "lat": 38.9524545, "is_reserved": 0, "fusion_lat": 0.0, "bike_id": "5caf4778280faedff368f91f73d24784", "type": "electric_scooter", "is_disabled": 0, "fusion_lon": 0.0}, {"rental_uris": {"android": "https://dc.lft.to/lastmile_qr_scan", "ios": "https://dc.lft.to/lastmile_qr_scan"}, "lon": -77.01205233333333, "name": "25c36ff7db65af2b1696dc2eadb4e515", "lat": 38.900035833333334, "is_reserved": 0, "fusion_lat": 0.0, "bike_id": "25c36ff7db65af2b1696dc2eadb4e515", "type": "electric_scooter", "is_disabled": 0, "fusion_lon": 0.0}, {"rental_uris": {"android": "https://dc.lft.to/lastmile_qr_scan", "ios": "https://dc.lft.to/lastmile_qr_scan"}, "lon": -77.026024, "name": "add016fa06f0aa461e3287e8904c6afe", "lat": 38.9440765, "is_reserved": 0, "fusion_lat": 0.0, "bike_id": "add016fa06f0aa461e3287e8904c6afe", "type": "electric_scooter", "is_disabled": 0, "fusion_lon": 0.0}, {"rental_uris": {"android": "https://dc.lft.to/lastmile_qr_scan", "ios": "https://dc.lft.to/lastmile_qr_scan"}, "lon": -76.997861, "name": "ed7eb8ff41fa20aa4fd7abc0cd74a705", "lat": 38.84182333333333, "is_reserved": 0, "fusion_lat": 0.0, "bike_id": "ed7eb8ff41fa20aa4fd7abc0cd74a705", "type": "electric_scooter", "is_disabled": 0, "fusion_lon": 0.0}, {"rental_uris": {"android": "https://dc.lft.to/lastmile_qr_scan", "ios": "https://dc.lft.to/lastmile_qr_scan"}, "lon": -77.02705416666667, "name": "31439d366b770d07224d3db5e77a8842", "lat": 38.9254925, "is_reserved": 0, "fusion_lat": 0.0, "bike_id": "31439d366b770d07224d3db5e77a8842", "type": "electric_scooter", "is_disabled": 0, "fusion_lon": 0.0}, {"rental_uris": {"android": "https://dc.lft.to/lastmile_qr_scan", "ios": "https://dc.lft.to/lastmile_qr_scan"}, "lon": -76.98898783333334, "name": "d2e6508cf0bc5f9d9f88caf757da9d62", "lat": 38.866614166666665, "is_reserved": 0, "fusion_lat": 0.0, "bike_id": "d2e6508cf0bc5f9d9f88caf757da9d62", "type": "electric_scooter", "is_disabled": 0, "fusion_lon": 0.0}, {"rental_uris": {"android": "https://dc.lft.to/lastmile_qr_scan", "ios": "https://dc.lft.to/lastmile_qr_scan"}, "lon": -77.02951016666667, "name": "dabb2714e963235243b658624ada22d7", "lat": 38.916837, "is_reserved": 0, "fusion_lat": 0.0, "bike_id": "dabb2714e963235243b658624ada22d7", "type": "electric_scooter", "is_disabled": 0, "fusion_lon": 0.0}, {"rental_uris": {"android": "https://dc.lft.to/lastmile_qr_scan", "ios": "https://dc.lft.to/lastmile_qr_scan"}, "lon": -77.034824, "name": "5f983f13fc4993f2dbe33710c0166a38", "lat": 38.90568066666667, "is_reserved": 0, "fusion_lat": 0.0, "bike_id": "5f983f13fc4993f2dbe33710c0166a38", "type": "electric_scooter", "is_disabled": 0, "fusion_lon": 0.0}, {"rental_uris": {"android": "https://dc.lft.to/lastmile_qr_scan", "ios": "https://dc.lft.to/lastmile_qr_scan"}, "lon": -77.04326483333334, "name": "fa81a900650a3290be1544d22680bb7a", "lat": 38.90361583333333, "is_reserved": 0, "fusion_lat": 0.0, "bike_id": "fa81a900650a3290be1544d22680bb7a", "type": "electric_scooter", "is_disabled": 0, "fusion_lon": 0.0}, {"rental_uris": {"android": "https://dc.lft.to/lastmile_qr_scan", "ios": "https://dc.lft.to/lastmile_qr_scan"}, "lon": -77.02831666666667, "name": "0f6894158b8ea6e58350c789b23fa44b", "lat": 38.887319, "is_reserved": 0, "fusion_lat": 0.0, "bike_id": "0f6894158b8ea6e58350c789b23fa44b", "type": "electric_scooter", "is_disabled": 0, "fusion_lon": 0.0}, {"rental_uris": {"android": "https://dc.lft.to/lastmile_qr_scan", "ios": "https://dc.lft.to/lastmile_qr_scan"}, "lon": -77.023727, "name": "6c4b916db8c27a0b3b1de6c831578d0f", "lat": 38.9196925, "is_reserved": 0, "fusion_lat": 0.0, "bike_id": "6c4b916db8c27a0b3b1de6c831578d0f", "type": "electric_scooter", "is_disabled": 0, "fusion_lon": 0.0}, {"rental_uris": {"android": "https://dc.lft.to/lastmile_qr_scan", "ios": "https://dc.lft.to/lastmile_qr_scan"}, "lon": -77.02277716666667, "name": "fada829570640f56327f506c2b5944c5", "lat": 38.89515266666667, "is_reserved": 0, "fusion_lat": 0.0, "bike_id": "fada829570640f56327f506c2b5944c5", "type": "electric_scooter", "is_disabled": 0, "fusion_lon": 0.0}, {"rental_uris": {"android": "https://dc.lft.to/lastmile_qr_scan", "ios": "https://dc.lft.to/lastmile_qr_scan"}, "lon": -77.0223645, "name": "8ee367be1e9d144d3c5bc550a447a20c", "lat": 38.9111535, "is_reserved": 0, "fusion_lat": 0.0, "bike_id": "8ee367be1e9d144d3c5bc550a447a20c", "type": "electric_scooter", "is_disabled": 0, "fusion_lon": 0.0}, {"rental_uris": {"android": "https://dc.lft.to/lastmile_qr_scan", "ios": "https://dc.lft.to/lastmile_qr_scan"}, "lon": -77.01351983333333, "name": "00b3d06ee31d9e9e9bb58beff4ceb939", "lat": 38.912803833333335, "is_reserved": 0, "fusion_lat": 0.0, "bike_id": "00b3d06ee31d9e9e9bb58beff4ceb939", "type": "electric_scooter", "is_disabled": 0, "fusion_lon": 0.0}, {"rental_uris": {"android": "https://dc.lft.to/lastmile_qr_scan", "ios": "https://dc.lft.to/lastmile_qr_scan"}, "lon": -77.026016, "name": "71c7bf352395883522d307bcaea86832", "lat": 38.9442945, "is_reserved": 0, "fusion_lat": 0.0, "bike_id": "71c7bf352395883522d307bcaea86832", "type": "electric_bike", "is_disabled": 0, "fusion_lon": 0.0}, {"rental_uris": {"android": "https://dc.lft.to/lastmile_qr_scan", "ios": "https://dc.lft.to/lastmile_qr_scan"}, "lon": -77.06306916666666, "name": "d1a12f915b40c939965a8f30c154fc45", "lat": 38.79856266666667, "is_reserved": 0, "fusion_lat": 0.0, "bike_id": "d1a12f915b40c939965a8f30c154fc45", "type": "electric_bike", "is_disabled": 0, "fusion_lon": 0.0}, {"rental_uris": {"android": "https://dc.lft.to/lastmile_qr_scan", "ios": "https://dc.lft.to/lastmile_qr_scan"}, "lon": -76.97726433333334, "name": "fe0b140de1ebef0f4a7790e0ce1709a9", "lat": 38.872439666666665, "is_reserved": 0, "fusion_lat": 0.0, "bike_id": "fe0b140de1ebef0f4a7790e0ce1709a9", "type": "electric_scooter", "is_disabled": 0, "fusion_lon": 0.0}, {"rental_uris": {"android": "https://dc.lft.to/lastmile_qr_scan", "ios": "https://dc.lft.to/lastmile_qr_scan"}, "lon": -76.98750733333333, "name": "e68316f86af85a400e4f76e6ad241a5a", "lat": 38.857694333333335, "is_reserved": 0, "fusion_lat": 0.0, "bike_id": "e68316f86af85a400e4f76e6ad241a5a", "type": "electric_bike", "is_disabled": 0, "fusion_lon": 0.0}, {"rental_uris": {"android": "https://dc.lft.to/lastmile_qr_scan", "ios": "https://dc.lft.to/lastmile_qr_scan"}, "lon": -77.04515916666666, "name": "6ac0836800a4588afc0cb7d250806e96", "lat": 38.896072833333335, "is_reserved": 0, "fusion_lat": 0.0, "bike_id": "6ac0836800a4588afc0cb7d250806e96", "type": "electric_scooter", "is_disabled": 0, "fusion_lon": 0.0}, {"rental_uris": {"android": "https://dc.lft.to/lastmile_qr_scan", "ios": "https://dc.lft.to/lastmile_qr_scan"}, "lon": -77.03833016666667, "name": "a61906fcffb3ee855836f4c9c70d23f2", "lat": 38.902833, "is_reserved": 0, "fusion_lat": 0.0, "bike_id": "a61906fcffb3ee855836f4c9c70d23f2", "type": "electric_scooter", "is_disabled": 0, "fusion_lon": 0.0}, {"rental_uris": {"android": "https://dc.lft.to/lastmile_qr_scan", "ios": "https://dc.lft.to/lastmile_qr_scan"}, "lon": -77.03231433333333, "name": "f9eb5cf4db441d97b0edf510894d09b6", "lat": 38.9268635, "is_reserved": 0, "fusion_lat": 0.0, "bike_id": "f9eb5cf4db441d97b0edf510894d09b6", "type": "electric_scooter", "is_disabled": 0, "fusion_lon": 0.0}, {"rental_uris": {"android": "https://dc.lft.to/lastmile_qr_scan", "ios": "https://dc.lft.to/lastmile_qr_scan"}, "lon": -77.022204, "name": "bc54887e801300fa70d13a870ea19fb8", "lat": 38.912565666666666, "is_reserved": 0, "fusion_lat": 0.0, "bike_id": "bc54887e801300fa70d13a870ea19fb8", "type": "electric_scooter", "is_disabled": 0, "fusion_lon": 0.0}, {"rental_uris": {"android": "https://dc.lft.to/lastmile_qr_scan", "ios": "https://dc.lft.to/lastmile_qr_scan"}, "lon": -77.03987533333333, "name": "613c88267578e675157a2e81bcf5d8e7", "lat": 38.903141833333336, "is_reserved": 0, "fusion_lat": 0.0, "bike_id": "613c88267578e675157a2e81bcf5d8e7", "type": "electric_scooter", "is_disabled": 0, "fusion_lon": 0.0}, {"rental_uris": {"android": "https://dc.lft.to/lastmile_qr_scan", "ios": "https://dc.lft.to/lastmile_qr_scan"}, "lon": -76.970503, "name": "0326b09348765b82ded866f1ada60dc4", "lat": 38.958696333333336, "is_reserved": 0, "fusion_lat": 0.0, "bike_id": "0326b09348765b82ded866f1ada60dc4", "type": "electric_bike", "is_disabled": 0, "fusion_lon": 0.0}, {"rental_uris": {"android": "https://dc.lft.to/lastmile_qr_scan", "ios": "https://dc.lft.to/lastmile_qr_scan"}, "lon": -77.04389616666667, "name": "7369c6220c5fcc063455929b867ae494", "lat": 38.900199, "is_reserved": 0, "fusion_lat": 0.0, "bike_id": "7369c6220c5fcc063455929b867ae494", "type": "electric_scooter", "is_disabled": 0, "fusion_lon": 0.0}, {"rental_uris": {"android": "https://dc.lft.to/lastmile_qr_scan", "ios": "https://dc.lft.to/lastmile_qr_scan"}, "lon": -77.0317015, "name": "641c606c2671d5e15a2ad54c957a8a2c", "lat": 38.92081483333333, "is_reserved": 0, "fusion_lat": 0.0, "bike_id": "641c606c2671d5e15a2ad54c957a8a2c", "type": "electric_scooter", "is_disabled": 0, "fusion_lon": 0.0}, {"rental_uris": {"android": "https://dc.lft.to/lastmile_qr_scan", "ios": "https://dc.lft.to/lastmile_qr_scan"}, "lon": -77.0270165, "name": "6fe8b9aec6da7ccb38a11c3a58b287dd", "lat": 38.97310566666667, "is_reserved": 0, "fusion_lat": 0.0, "bike_id": "6fe8b9aec6da7ccb38a11c3a58b287dd", "type": "electric_scooter", "is_disabled": 0, "fusion_lon": 0.0}, {"rental_uris": {"android": "https://dc.lft.to/lastmile_qr_scan", "ios": "https://dc.lft.to/lastmile_qr_scan"}, "lon": -77.02958116666667, "name": "c27d5094f31a2b593fa407b379e159be", "lat": 38.9049885, "is_reserved": 0, "fusion_lat": 0.0, "bike_id": "c27d5094f31a2b593fa407b379e159be", "type": "electric_scooter", "is_disabled": 0, "fusion_lon": 0.0}, {"rental_uris": {"android": "https://dc.lft.to/lastmile_qr_scan", "ios": "https://dc.lft.to/lastmile_qr_scan"}, "lon": -77.01375533333334, "name": "b03a5a6b00df7fd73fbd295f102e4a92", "lat": 38.878986833333336, "is_reserved": 0, "fusion_lat": 0.0, "bike_id": "b03a5a6b00df7fd73fbd295f102e4a92", "type": "electric_scooter", "is_disabled": 0, "fusion_lon": 0.0}, {"rental_uris": {"android": "https://dc.lft.to/lastmile_qr_scan", "ios": "https://dc.lft.to/lastmile_qr_scan"}, "lon": -77.04004883333333, "name": "9e828cae9d2cffe8525bf48066d36ba0", "lat": 38.93429483333333, "is_reserved": 0, "fusion_lat": 0.0, "bike_id": "9e828cae9d2cffe8525bf48066d36ba0", "type": "electric_scooter", "is_disabled": 0, "fusion_lon": 0.0}, {"rental_uris": {"android": "https://dc.lft.to/lastmile_qr_scan", "ios": "https://dc.lft.to/lastmile_qr_scan"}, "lon": -77.03676266666666, "name": "e8569d47e71ffa29325332728bdbf37b", "lat": 38.92158, "is_reserved": 0, "fusion_lat": 0.0, "bike_id": "e8569d47e71ffa29325332728bdbf37b", "type": "electric_scooter", "is_disabled": 0, "fusion_lon": 0.0}, {"rental_uris": {"android": "https://dc.lft.to/lastmile_qr_scan", "ios": "https://dc.lft.to/lastmile_qr_scan"}, "lon": -77.026894, "name": "527b11df9b31f036ded160f55c779221", "lat": 38.9094725, "is_reserved": 0, "fusion_lat": 0.0, "bike_id": "527b11df9b31f036ded160f55c779221", "type": "electric_scooter", "is_disabled": 0, "fusion_lon": 0.0}, {"rental_uris": {"android": "https://dc.lft.to/lastmile_qr_scan", "ios": "https://dc.lft.to/lastmile_qr_scan"}, "lon": -77.02980583333333, "name": "ecb993548334db963ccf407983d4ad59", "lat": 38.94604616666667, "is_reserved": 0, "fusion_lat": 0.0, "bike_id": "ecb993548334db963ccf407983d4ad59", "type": "electric_scooter", "is_disabled": 0, "fusion_lon": 0.0}, {"rental_uris": {"android": "https://dc.lft.to/lastmile_qr_scan", "ios": "https://dc.lft.to/lastmile_qr_scan"}, "lon": -77.07892783333334, "name": "582951817e6fb5b9ef770ce4f79edd65", "lat": 38.842484666666664, "is_reserved": 0, "fusion_lat": 0.0, "bike_id": "582951817e6fb5b9ef770ce4f79edd65", "type": "electric_bike", "is_disabled": 0, "fusion_lon": 0.0}, {"rental_uris": {"android": "https://dc.lft.to/lastmile_qr_scan", "ios": "https://dc.lft.to/lastmile_qr_scan"}, "lon": -77.03179, "name": "8afd42a164bd620f53343c79a7dbf37b", "lat": 38.917586166666666, "is_reserved": 0, "fusion_lat": 0.0, "bike_id": "8afd42a164bd620f53343c79a7dbf37b", "type": "electric_scooter", "is_disabled": 0, "fusion_lon": 0.0}, {"rental_uris": {"android": "https://dc.lft.to/lastmile_qr_scan", "ios": "https://dc.lft.to/lastmile_qr_scan"}, "lon": -77.0345255, "name": "2993bd2c175d69605d20f6584b334644", "lat": 38.909453166666665, "is_reserved": 0, "fusion_lat": 0.0, "bike_id": "2993bd2c175d69605d20f6584b334644", "type": "electric_scooter", "is_disabled": 0, "fusion_lon": 0.0}, {"rental_uris": {"android": "https://dc.lft.to/lastmile_qr_scan", "ios": "https://dc.lft.to/lastmile_qr_scan"}, "lon": -76.9865765, "name": "98fbeb3bc05c1ae2091ca8bd19d09899", "lat": 38.85810083333333, "is_reserved": 0, "fusion_lat": 0.0, "bike_id": "98fbeb3bc05c1ae2091ca8bd19d09899", "type": "electric_scooter", "is_disabled": 0, "fusion_lon": 0.0}, {"rental_uris": {"android": "https://dc.lft.to/lastmile_qr_scan", "ios": "https://dc.lft.to/lastmile_qr_scan"}, "lon": -77.0429535, "name": "21d3ebb0d9b799fcce563c6babf61ae9", "lat": 38.90731483333333, "is_reserved": 0, "fusion_lat": 0.0, "bike_id": "21d3ebb0d9b799fcce563c6babf61ae9", "type": "electric_scooter", "is_disabled": 0, "fusion_lon": 0.0}, {"rental_uris": {"android": "https://dc.lft.to/lastmile_qr_scan", "ios": "https://dc.lft.to/lastmile_qr_scan"}, "lon": -77.0221575, "name": "eb4f68766bf038bde7b4fa827ca72a55", "lat": 38.91269416666667, "is_reserved": 0, "fusion_lat": 0.0, "bike_id": "eb4f68766bf038bde7b4fa827ca72a55", "type": "electric_scooter", "is_disabled": 0, "fusion_lon": 0.0}, {"rental_uris": {"android": "https://dc.lft.to/lastmile_qr_scan", "ios": "https://dc.lft.to/lastmile_qr_scan"}, "lon": -77.04354816666667, "name": "a0c4e037da1bccfeb1fe117e764b0bf3", "lat": 38.9087875, "is_reserved": 0, "fusion_lat": 0.0, "bike_id": "a0c4e037da1bccfeb1fe117e764b0bf3", "type": "electric_scooter", "is_disabled": 0, "fusion_lon": 0.0}, {"rental_uris": {"android": "https://dc.lft.to/lastmile_qr_scan", "ios": "https://dc.lft.to/lastmile_qr_scan"}, "lon": -76.99968266666667, "name": "f9af7c386fa07bfbafbda6ca5e19d097", "lat": 38.87418983333333, "is_reserved": 0, "fusion_lat": 0.0, "bike_id": "f9af7c386fa07bfbafbda6ca5e19d097", "type": "electric_scooter", "is_disabled": 0, "fusion_lon": 0.0}, {"rental_uris": {"android": "https://dc.lft.to/lastmile_qr_scan", "ios": "https://dc.lft.to/lastmile_qr_scan"}, "lon": -77.043484, "name": "0e675a06d7c00425071bf3d6ff6509c2", "lat": 38.908748, "is_reserved": 0, "fusion_lat": 0.0, "bike_id": "0e675a06d7c00425071bf3d6ff6509c2", "type": "electric_scooter", "is_disabled": 0, "fusion_lon": 0.0}, {"rental_uris": {"android": "https://dc.lft.to/lastmile_qr_scan", "ios": "https://dc.lft.to/lastmile_qr_scan"}, "lon": -77.08232166666667, "name": "b09d0bfd4fc1ecbfcbdcc5eeaf11cb39", "lat": 38.933152, "is_reserved": 0, "fusion_lat": 0.0, "bike_id": "b09d0bfd4fc1ecbfcbdcc5eeaf11cb39", "type": "electric_scooter", "is_disabled": 0, "fusion_lon": 0.0}, {"rental_uris": {"android": "https://dc.lft.to/lastmile_qr_scan", "ios": "https://dc.lft.to/lastmile_qr_scan"}, "lon": -77.0263505, "name": "9bc75169847ada9f9ce7f5ea668b04be", "lat": 38.894459499999996, "is_reserved": 0, "fusion_lat": 0.0, "bike_id": "9bc75169847ada9f9ce7f5ea668b04be", "type": "electric_scooter", "is_disabled": 0, "fusion_lon": 0.0}, {"rental_uris": {"android": "https://dc.lft.to/lastmile_qr_scan", "ios": "https://dc.lft.to/lastmile_qr_scan"}, "lon": -77.03849683333334, "name": "849504f487802afc4ce43bc25cd00549", "lat": 38.917736166666664, "is_reserved": 0, "fusion_lat": 0.0, "bike_id": "849504f487802afc4ce43bc25cd00549", "type": "electric_scooter", "is_disabled": 0, "fusion_lon": 0.0}, {"rental_uris": {"android": "https://dc.lft.to/lastmile_qr_scan", "ios": "https://dc.lft.to/lastmile_qr_scan"}, "lon": -77.008031, "name": "f3a7471f3bbd08c7d1e125d4e7e94a57", "lat": 38.94926983333333, "is_reserved": 0, "fusion_lat": 0.0, "bike_id": "f3a7471f3bbd08c7d1e125d4e7e94a57", "type": "electric_bike", "is_disabled": 0, "fusion_lon": 0.0}, {"rental_uris": {"android": "https://dc.lft.to/lastmile_qr_scan", "ios": "https://dc.lft.to/lastmile_qr_scan"}, "lon": -76.9725385, "name": "285037c5634cb308efe9df2879b6765f", "lat": 38.957458833333334, "is_reserved": 0, "fusion_lat": 0.0, "bike_id": "285037c5634cb308efe9df2879b6765f", "type": "electric_bike", "is_disabled": 0, "fusion_lon": 0.0}, {"rental_uris": {"android": "https://dc.lft.to/lastmile_qr_scan", "ios": "https://dc.lft.to/lastmile_qr_scan"}, "lon": -77.0317925, "name": "615a3c544907b3634b3ca2b6cd95e89c", "lat": 38.92056633333333, "is_reserved": 0, "fusion_lat": 0.0, "bike_id": "615a3c544907b3634b3ca2b6cd95e89c", "type": "electric_scooter", "is_disabled": 0, "fusion_lon": 0.0}, {"rental_uris": {"android": "https://dc.lft.to/lastmile_qr_scan", "ios": "https://dc.lft.to/lastmile_qr_scan"}, "lon": -76.99836683333334, "name": "53c9fce6d874bcce4e8210190754cc3c", "lat": 38.9037925, "is_reserved": 0, "fusion_lat": 0.0, "bike_id": "53c9fce6d874bcce4e8210190754cc3c", "type": "electric_scooter", "is_disabled": 0, "fusion_lon": 0.0}, {"rental_uris": {"android": "https://dc.lft.to/lastmile_qr_scan", "ios": "https://dc.lft.to/lastmile_qr_scan"}, "lon": -77.01483933333333, "name": "8ab0eb3afea667259d402dfc2862bb96", "lat": 38.914106833333335, "is_reserved": 0, "fusion_lat": 0.0, "bike_id": "8ab0eb3afea667259d402dfc2862bb96", "type": "electric_scooter", "is_disabled": 0, "fusion_lon": 0.0}, {"rental_uris": {"android": "https://dc.lft.to/lastmile_qr_scan", "ios": "https://dc.lft.to/lastmile_qr_scan"}, "lon": -77.00070466666666, "name": "f3753552641adcf9722f08a4d05ad324", "lat": 38.92547666666667, "is_reserved": 0, "fusion_lat": 0.0, "bike_id": "f3753552641adcf9722f08a4d05ad324", "type": "electric_scooter", "is_disabled": 0, "fusion_lon": 0.0}, {"rental_uris": {"android": "https://dc.lft.to/lastmile_qr_scan", "ios": "https://dc.lft.to/lastmile_qr_scan"}, "lon": -77.03503566666667, "name": "7d8c08475d5c70410e4a8ec38ff12601", "lat": 38.92152683333333, "is_reserved": 0, "fusion_lat": 0.0, "bike_id": "7d8c08475d5c70410e4a8ec38ff12601", "type": "electric_scooter", "is_disabled": 0, "fusion_lon": 0.0}, {"rental_uris": {"android": "https://dc.lft.to/lastmile_qr_scan", "ios": "https://dc.lft.to/lastmile_qr_scan"}, "lon": -77.01063133333334, "name": "5ceee1a0d58cc1aefda240589bf7152a", "lat": 38.9095485, "is_reserved": 0, "fusion_lat": 0.0, "bike_id": "5ceee1a0d58cc1aefda240589bf7152a", "type": "electric_scooter", "is_disabled": 0, "fusion_lon": 0.0}, {"rental_uris": {"android": "https://dc.lft.to/lastmile_qr_scan", "ios": "https://dc.lft.to/lastmile_qr_scan"}, "lon": -76.97252666666667, "name": "a686647ff9c79f4fd12ffada50d41a04", "lat": 38.95739916666667, "is_reserved": 0, "fusion_lat": 0.0, "bike_id": "a686647ff9c79f4fd12ffada50d41a04", "type": "electric_bike", "is_disabled": 0, "fusion_lon": 0.0}, {"rental_uris": {"android": "https://dc.lft.to/lastmile_qr_scan", "ios": "https://dc.lft.to/lastmile_qr_scan"}, "lon": -76.99002966666667, "name": "c016bdc2ba620cd174e3491611e3edd8", "lat": 38.865034333333334, "is_reserved": 0, "fusion_lat": 0.0, "bike_id": "c016bdc2ba620cd174e3491611e3edd8", "type": "electric_scooter", "is_disabled": 0, "fusion_lon": 0.0}, {"rental_uris": {"android": "https://dc.lft.to/lastmile_qr_scan", "ios": "https://dc.lft.to/lastmile_qr_scan"}, "lon": -77.02438116666667, "name": "0746a35ff2dbb53793aea04db11ef598", "lat": 38.92053333333333, "is_reserved": 0, "fusion_lat": 0.0, "bike_id": "0746a35ff2dbb53793aea04db11ef598", "type": "electric_scooter", "is_disabled": 0, "fusion_lon": 0.0}, {"rental_uris": {"android": "https://dc.lft.to/lastmile_qr_scan", "ios": "https://dc.lft.to/lastmile_qr_scan"}, "lon": -77.0218865, "name": "5dda05c7005351786b2ed4ef32eaefe5", "lat": 38.91566, "is_reserved": 0, "fusion_lat": 0.0, "bike_id": "5dda05c7005351786b2ed4ef32eaefe5", "type": "electric_scooter", "is_disabled": 0, "fusion_lon": 0.0}, {"rental_uris": {"android": "https://dc.lft.to/lastmile_qr_scan", "ios": "https://dc.lft.to/lastmile_qr_scan"}, "lon": -76.98831166666666, "name": "46eaa88ff7fae10c522f2a9ef15d868b", "lat": 38.90035366666667, "is_reserved": 0, "fusion_lat": 0.0, "bike_id": "46eaa88ff7fae10c522f2a9ef15d868b", "type": "electric_scooter", "is_disabled": 0, "fusion_lon": 0.0}, {"rental_uris": {"android": "https://dc.lft.to/lastmile_qr_scan", "ios": "https://dc.lft.to/lastmile_qr_scan"}, "lon": -77.03184483333334, "name": "ca1fcae02911eb9ea1118ec5ba5e348c", "lat": 38.90354466666667, "is_reserved": 0, "fusion_lat": 0.0, "bike_id": "ca1fcae02911eb9ea1118ec5ba5e348c", "type": "electric_scooter", "is_disabled": 0, "fusion_lon": 0.0}, {"rental_uris": {"android": "https://dc.lft.to/lastmile_qr_scan", "ios": "https://dc.lft.to/lastmile_qr_scan"}, "lon": -77.04159466666667, "name": "51ce759b88e129ffbdbb9331075c9bcc", "lat": 38.892307, "is_reserved": 0, "fusion_lat": 0.0, "bike_id": "51ce759b88e129ffbdbb9331075c9bcc", "type": "electric_scooter", "is_disabled": 0, "fusion_lon": 0.0}, {"rental_uris": {"android": "https://dc.lft.to/lastmile_qr_scan", "ios": "https://dc.lft.to/lastmile_qr_scan"}, "lon": -77.03284683333334, "name": "59ecb18a8838217550e35c47abecdb94", "lat": 38.936869333333334, "is_reserved": 0, "fusion_lat": 0.0, "bike_id": "59ecb18a8838217550e35c47abecdb94", "type": "electric_scooter", "is_disabled": 0, "fusion_lon": 0.0}, {"rental_uris": {"android": "https://dc.lft.to/lastmile_qr_scan", "ios": "https://dc.lft.to/lastmile_qr_scan"}, "lon": -77.0320135, "name": "3869341e7e870649b9e5eaf84ef96710", "lat": 38.8923135, "is_reserved": 0, "fusion_lat": 0.0, "bike_id": "3869341e7e870649b9e5eaf84ef96710", "type": "electric_scooter", "is_disabled": 0, "fusion_lon": 0.0}, {"rental_uris": {"android": "https://dc.lft.to/lastmile_qr_scan", "ios": "https://dc.lft.to/lastmile_qr_scan"}, "lon": -77.04706, "name": "418c53d40c0144d4296fbf366dcf6ad4", "lat": 38.92108283333334, "is_reserved": 0, "fusion_lat": 0.0, "bike_id": "418c53d40c0144d4296fbf366dcf6ad4", "type": "electric_scooter", "is_disabled": 0, "fusion_lon": 0.0}, {"rental_uris": {"android": "https://dc.lft.to/lastmile_qr_scan", "ios": "https://dc.lft.to/lastmile_qr_scan"}, "lon": -76.94775833333334, "name": "2536f25c6bb8125f2f388d9609f4e52b", "lat": 38.8960375, "is_reserved": 0, "fusion_lat": 0.0, "bike_id": "2536f25c6bb8125f2f388d9609f4e52b", "type": "electric_scooter", "is_disabled": 0, "fusion_lon": 0.0}, {"rental_uris": {"android": "https://dc.lft.to/lastmile_qr_scan", "ios": "https://dc.lft.to/lastmile_qr_scan"}, "lon": -76.94854466666666, "name": "5f4309368db676bbd3e55f6ae1f28a4b", "lat": 38.88298783333333, "is_reserved": 0, "fusion_lat": 0.0, "bike_id": "5f4309368db676bbd3e55f6ae1f28a4b", "type": "electric_scooter", "is_disabled": 0, "fusion_lon": 0.0}, {"rental_uris": {"android": "https://dc.lft.to/lastmile_qr_scan", "ios": "https://dc.lft.to/lastmile_qr_scan"}, "lon": -76.94894466666666, "name": "15d8b5b3575fd33ec618e3e239f5f275", "lat": 38.89532466666667, "is_reserved": 0, "fusion_lat": 0.0, "bike_id": "15d8b5b3575fd33ec618e3e239f5f275", "type": "electric_scooter", "is_disabled": 0, "fusion_lon": 0.0}, {"rental_uris": {"android": "https://dc.lft.to/lastmile_qr_scan", "ios": "https://dc.lft.to/lastmile_qr_scan"}, "lon": -76.9516105, "name": "04505d3605794b6b3b3bbc9b44467713", "lat": 38.8852165, "is_reserved": 0, "fusion_lat": 0.0, "bike_id": "04505d3605794b6b3b3bbc9b44467713", "type": "electric_bike", "is_disabled": 0, "fusion_lon": 0.0}, {"rental_uris": {"android": "https://dc.lft.to/lastmile_qr_scan", "ios": "https://dc.lft.to/lastmile_qr_scan"}, "lon": -76.998402, "name": "3540520f9ae58898658e268949199a40", "lat": 38.899925333333336, "is_reserved": 0, "fusion_lat": 0.0, "bike_id": "3540520f9ae58898658e268949199a40", "type": "electric_bike", "is_disabled": 0, "fusion_lon": 0.0}, {"rental_uris": {"android": "https://dc.lft.to/lastmile_qr_scan", "ios": "https://dc.lft.to/lastmile_qr_scan"}, "lon": -77.0068365, "name": "5878a752ea18a6ee3a5f3d9ede9cf730", "lat": 38.8717, "is_reserved": 0, "fusion_lat": 0.0, "bike_id": "5878a752ea18a6ee3a5f3d9ede9cf730", "type": "electric_scooter", "is_disabled": 0, "fusion_lon": 0.0}, {"rental_uris": {"android": "https://dc.lft.to/lastmile_qr_scan", "ios": "https://dc.lft.to/lastmile_qr_scan"}, "lon": -77.02186416666666, "name": "83084ab576a033139bb80ddb7e1a32c7", "lat": 38.910432666666665, "is_reserved": 0, "fusion_lat": 0.0, "bike_id": "83084ab576a033139bb80ddb7e1a32c7", "type": "electric_scooter", "is_disabled": 0, "fusion_lon": 0.0}, {"rental_uris": {"android": "https://dc.lft.to/lastmile_qr_scan", "ios": "https://dc.lft.to/lastmile_qr_scan"}, "lon": -77.01797616666667, "name": "862adc84997677e72810a9ffdee4913d", "lat": 38.920299166666666, "is_reserved": 0, "fusion_lat": 0.0, "bike_id": "862adc84997677e72810a9ffdee4913d", "type": "electric_scooter", "is_disabled": 0, "fusion_lon": 0.0}, {"rental_uris": {"android": "https://dc.lft.to/lastmile_qr_scan", "ios": "https://dc.lft.to/lastmile_qr_scan"}, "lon": -77.007094, "name": "cc20519626b8498ccb57d5f85ebfec2c", "lat": 38.9061305, "is_reserved": 0, "fusion_lat": 0.0, "bike_id": "cc20519626b8498ccb57d5f85ebfec2c", "type": "electric_scooter", "is_disabled": 0, "fusion_lon": 0.0}, {"rental_uris": {"android": "https://dc.lft.to/lastmile_qr_scan", "ios": "https://dc.lft.to/lastmile_qr_scan"}, "lon": -77.039598, "name": "62ffd4b4244cc47264e1d4de7b05582c", "lat": 38.9024135, "is_reserved": 0, "fusion_lat": 0.0, "bike_id": "62ffd4b4244cc47264e1d4de7b05582c", "type": "electric_scooter", "is_disabled": 0, "fusion_lon": 0.0}, {"rental_uris": {"android": "https://dc.lft.to/lastmile_qr_scan", "ios": "https://dc.lft.to/lastmile_qr_scan"}, "lon": -77.03405733333334, "name": "804e869887821e88e688c37a151e3b85", "lat": 38.92267183333333, "is_reserved": 0, "fusion_lat": 0.0, "bike_id": "804e869887821e88e688c37a151e3b85", "type": "electric_scooter", "is_disabled": 0, "fusion_lon": 0.0}, {"rental_uris": {"android": "https://dc.lft.to/lastmile_qr_scan", "ios": "https://dc.lft.to/lastmile_qr_scan"}, "lon": -77.0237495, "name": "df130852cfd5f433d51ad4fe0b4f56a0", "lat": 38.907323166666664, "is_reserved": 0, "fusion_lat": 0.0, "bike_id": "df130852cfd5f433d51ad4fe0b4f56a0", "type": "electric_scooter", "is_disabled": 0, "fusion_lon": 0.0}, {"rental_uris": {"android": "https://dc.lft.to/lastmile_qr_scan", "ios": "https://dc.lft.to/lastmile_qr_scan"}, "lon": -77.03944566666667, "name": "ba8a834fa0dc70d27833242ce6b20fa2", "lat": 38.902508166666664, "is_reserved": 0, "fusion_lat": 0.0, "bike_id": "ba8a834fa0dc70d27833242ce6b20fa2", "type": "electric_scooter", "is_disabled": 0, "fusion_lon": 0.0}, {"rental_uris": {"android": "https://dc.lft.to/lastmile_qr_scan", "ios": "https://dc.lft.to/lastmile_qr_scan"}, "lon": -77.0249435, "name": "c5599027c802be4d1989dcb8b3cbbaed", "lat": 38.905687, "is_reserved": 0, "fusion_lat": 0.0, "bike_id": "c5599027c802be4d1989dcb8b3cbbaed", "type": "electric_scooter", "is_disabled": 0, "fusion_lon": 0.0}, {"rental_uris": {"android": "https://dc.lft.to/lastmile_qr_scan", "ios": "https://dc.lft.to/lastmile_qr_scan"}, "lon": -76.93968166666667, "name": "de414d6e0abad33ad8bbb733b57fa6e2", "lat": 38.89344666666667, "is_reserved": 0, "fusion_lat": 0.0, "bike_id": "de414d6e0abad33ad8bbb733b57fa6e2", "type": "electric_scooter", "is_disabled": 0, "fusion_lon": 0.0}, {"rental_uris": {"android": "https://dc.lft.to/lastmile_qr_scan", "ios": "https://dc.lft.to/lastmile_qr_scan"}, "lon": -77.038726, "name": "879d6ff6abbfb834493098d71af94759", "lat": 38.9326705, "is_reserved": 0, "fusion_lat": 0.0, "bike_id": "879d6ff6abbfb834493098d71af94759", "type": "electric_scooter", "is_disabled": 0, "fusion_lon": 0.0}, {"rental_uris": {"android": "https://dc.lft.to/lastmile_qr_scan", "ios": "https://dc.lft.to/lastmile_qr_scan"}, "lon": -77.02052016666667, "name": "a47ec7227ce7afa3acc63c987e0e36a9", "lat": 38.91556683333334, "is_reserved": 0, "fusion_lat": 0.0, "bike_id": "a47ec7227ce7afa3acc63c987e0e36a9", "type": "electric_scooter", "is_disabled": 0, "fusion_lon": 0.0}, {"rental_uris": {"android": "https://dc.lft.to/lastmile_qr_scan", "ios": "https://dc.lft.to/lastmile_qr_scan"}, "lon": -77.06411033333333, "name": "244ddcad468a1c882c5327d5a9720341", "lat": 38.9444525, "is_reserved": 0, "fusion_lat": 0.0, "bike_id": "244ddcad468a1c882c5327d5a9720341", "type": "electric_scooter", "is_disabled": 0, "fusion_lon": 0.0}, {"rental_uris": {"android": "https://dc.lft.to/lastmile_qr_scan", "ios": "https://dc.lft.to/lastmile_qr_scan"}, "lon": -77.02222383333333, "name": "2d93fee7da252b18d2d772294acedde3", "lat": 38.9552515, "is_reserved": 0, "fusion_lat": 0.0, "bike_id": "2d93fee7da252b18d2d772294acedde3", "type": "electric_bike", "is_disabled": 0, "fusion_lon": 0.0}, {"rental_uris": {"android": "https://dc.lft.to/lastmile_qr_scan", "ios": "https://dc.lft.to/lastmile_qr_scan"}, "lon": -77.01508883333334, "name": "21ef414c9bbd8ed087cfd7177c7cec22", "lat": 38.9132565, "is_reserved": 0, "fusion_lat": 0.0, "bike_id": "21ef414c9bbd8ed087cfd7177c7cec22", "type": "electric_scooter", "is_disabled": 0, "fusion_lon": 0.0}, {"rental_uris": {"android": "https://dc.lft.to/lastmile_qr_scan", "ios": "https://dc.lft.to/lastmile_qr_scan"}, "lon": -77.02062016666666, "name": "64d761a0d793087d64d224cabd1ea732", "lat": 38.89479016666667, "is_reserved": 0, "fusion_lat": 0.0, "bike_id": "64d761a0d793087d64d224cabd1ea732", "type": "electric_scooter", "is_disabled": 0, "fusion_lon": 0.0}, {"rental_uris": {"android": "https://dc.lft.to/lastmile_qr_scan", "ios": "https://dc.lft.to/lastmile_qr_scan"}, "lon": -77.00700133333333, "name": "6538b49a78804410b61bbd9c207e9466", "lat": 38.91739366666667, "is_reserved": 0, "fusion_lat": 0.0, "bike_id": "6538b49a78804410b61bbd9c207e9466", "type": "electric_scooter", "is_disabled": 0, "fusion_lon": 0.0}, {"rental_uris": {"android": "https://dc.lft.to/lastmile_qr_scan", "ios": "https://dc.lft.to/lastmile_qr_scan"}, "lon": -76.91801433333333, "name": "7810ec463b86aa2912c11cc42344a7e7", "lat": 38.999999, "is_reserved": 0, "fusion_lat": 0.0, "bike_id": "7810ec463b86aa2912c11cc42344a7e7", "type": "electric_bike", "is_disabled": 0, "fusion_lon": 0.0}, {"rental_uris": {"android": "https://dc.lft.to/lastmile_qr_scan", "ios": "https://dc.lft.to/lastmile_qr_scan"}, "lon": -77.02624366666667, "name": "a8c4da271db18607655928eb944e4235", "lat": 38.93339266666667, "is_reserved": 0, "fusion_lat": 0.0, "bike_id": "a8c4da271db18607655928eb944e4235", "type": "electric_scooter", "is_disabled": 0, "fusion_lon": 0.0}, {"rental_uris": {"android": "https://dc.lft.to/lastmile_qr_scan", "ios": "https://dc.lft.to/lastmile_qr_scan"}, "lon": -77.02854983333333, "name": "1103e5df37575ef3655d3d8e0de07413", "lat": 38.9358995, "is_reserved": 0, "fusion_lat": 0.0, "bike_id": "1103e5df37575ef3655d3d8e0de07413", "type": "electric_scooter", "is_disabled": 0, "fusion_lon": 0.0}, {"rental_uris": {"android": "https://dc.lft.to/lastmile_qr_scan", "ios": "https://dc.lft.to/lastmile_qr_scan"}, "lon": -77.02223933333333, "name": "ebf4001e858b8540d1ae0ea35d489afa", "lat": 38.91257566666667, "is_reserved": 0, "fusion_lat": 0.0, "bike_id": "ebf4001e858b8540d1ae0ea35d489afa", "type": "electric_scooter", "is_disabled": 0, "fusion_lon": 0.0}, {"rental_uris": {"android": "https://dc.lft.to/lastmile_qr_scan", "ios": "https://dc.lft.to/lastmile_qr_scan"}, "lon": -76.94641233333333, "name": "ac1a861d432fb076e3123407db648afb", "lat": 38.8986235, "is_reserved": 0, "fusion_lat": 0.0, "bike_id": "ac1a861d432fb076e3123407db648afb", "type": "electric_scooter", "is_disabled": 0, "fusion_lon": 0.0}, {"rental_uris": {"android": "https://dc.lft.to/lastmile_qr_scan", "ios": "https://dc.lft.to/lastmile_qr_scan"}, "lon": -77.02827833333333, "name": "47c54737ad5dbc7993c702f4c1899da9", "lat": 38.8985155, "is_reserved": 0, "fusion_lat": 0.0, "bike_id": "47c54737ad5dbc7993c702f4c1899da9", "type": "electric_scooter", "is_disabled": 0, "fusion_lon": 0.0}, {"rental_uris": {"android": "https://dc.lft.to/lastmile_qr_scan", "ios": "https://dc.lft.to/lastmile_qr_scan"}, "lon": -77.044809, "name": "6db0bbbf6f35543a80b99a5b347df5c1", "lat": 38.91881266666667, "is_reserved": 0, "fusion_lat": 0.0, "bike_id": "6db0bbbf6f35543a80b99a5b347df5c1", "type": "electric_scooter", "is_disabled": 0, "fusion_lon": 0.0}, {"rental_uris": {"android": "https://dc.lft.to/lastmile_qr_scan", "ios": "https://dc.lft.to/lastmile_qr_scan"}, "lon": -76.9717115, "name": "2f5fd21b3ad6f240ec334297533c9b54", "lat": 38.861385166666665, "is_reserved": 0, "fusion_lat": 0.0, "bike_id": "2f5fd21b3ad6f240ec334297533c9b54", "type": "electric_scooter", "is_disabled": 0, "fusion_lon": 0.0}, {"rental_uris": {"android": "https://dc.lft.to/lastmile_qr_scan", "ios": "https://dc.lft.to/lastmile_qr_scan"}, "lon": -77.032086, "name": "484000b6f0ab923c4ca0bbcfd422df26", "lat": 38.9214855, "is_reserved": 0, "fusion_lat": 0.0, "bike_id": "484000b6f0ab923c4ca0bbcfd422df26", "type": "electric_scooter", "is_disabled": 0, "fusion_lon": 0.0}, {"rental_uris": {"android": "https://dc.lft.to/lastmile_qr_scan", "ios": "https://dc.lft.to/lastmile_qr_scan"}, "lon": -77.00584633333334, "name": "5a7206c1fa8ef345c55830f564eb745d", "lat": 38.90563683333333, "is_reserved": 0, "fusion_lat": 0.0, "bike_id": "5a7206c1fa8ef345c55830f564eb745d", "type": "electric_scooter", "is_disabled": 0, "fusion_lon": 0.0}, {"rental_uris": {"android": "https://dc.lft.to/lastmile_qr_scan", "ios": "https://dc.lft.to/lastmile_qr_scan"}, "lon": -77.02978033333333, "name": "b559393d1e0439772789e9a36273b418", "lat": 38.93103383333333, "is_reserved": 0, "fusion_lat": 0.0, "bike_id": "b559393d1e0439772789e9a36273b418", "type": "electric_scooter", "is_disabled": 0, "fusion_lon": 0.0}, {"rental_uris": {"android": "https://dc.lft.to/lastmile_qr_scan", "ios": "https://dc.lft.to/lastmile_qr_scan"}, "lon": -77.00225283333333, "name": "5787805af5e5c3a49db28bff15448a76", "lat": 38.925090833333336, "is_reserved": 0, "fusion_lat": 0.0, "bike_id": "5787805af5e5c3a49db28bff15448a76", "type": "electric_scooter", "is_disabled": 0, "fusion_lon": 0.0}, {"rental_uris": {"android": "https://dc.lft.to/lastmile_qr_scan", "ios": "https://dc.lft.to/lastmile_qr_scan"}, "lon": -77.04514166666667, "name": "a6412282f0328c3527fc79f83c162021", "lat": 38.8960865, "is_reserved": 0, "fusion_lat": 0.0, "bike_id": "a6412282f0328c3527fc79f83c162021", "type": "electric_scooter", "is_disabled": 0, "fusion_lon": 0.0}, {"rental_uris": {"android": "https://dc.lft.to/lastmile_qr_scan", "ios": "https://dc.lft.to/lastmile_qr_scan"}, "lon": -77.12527116666666, "name": "7179eefb1c3170816f279acf39a83fee", "lat": 39.05635133333333, "is_reserved": 0, "fusion_lat": 0.0, "bike_id": "7179eefb1c3170816f279acf39a83fee", "type": "electric_bike", "is_disabled": 0, "fusion_lon": 0.0}, {"rental_uris": {"android": "https://dc.lft.to/lastmile_qr_scan", "ios": "https://dc.lft.to/lastmile_qr_scan"}, "lon": -77.0151115, "name": "b9dc88e7cca59c0fe077ffd03c1437ce", "lat": 38.890543666666666, "is_reserved": 0, "fusion_lat": 0.0, "bike_id": "b9dc88e7cca59c0fe077ffd03c1437ce", "type": "electric_scooter", "is_disabled": 0, "fusion_lon": 0.0}, {"rental_uris": {"android": "https://dc.lft.to/lastmile_qr_scan", "ios": "https://dc.lft.to/lastmile_qr_scan"}, "lon": -77.04189933333333, "name": "6e0499162e17484387a93ffa4e6e854b", "lat": 38.920870666666666, "is_reserved": 0, "fusion_lat": 0.0, "bike_id": "6e0499162e17484387a93ffa4e6e854b", "type": "electric_scooter", "is_disabled": 0, "fusion_lon": 0.0}, {"rental_uris": {"android": "https://dc.lft.to/lastmile_qr_scan", "ios": "https://dc.lft.to/lastmile_qr_scan"}, "lon": -77.0437225, "name": "6b9b507ff767bb0301252598792aa8ce", "lat": 38.89222016666667, "is_reserved": 0, "fusion_lat": 0.0, "bike_id": "6b9b507ff767bb0301252598792aa8ce", "type": "electric_scooter", "is_disabled": 0, "fusion_lon": 0.0}, {"rental_uris": {"android": "https://dc.lft.to/lastmile_qr_scan", "ios": "https://dc.lft.to/lastmile_qr_scan"}, "lon": -77.06379533333333, "name": "3d026156b8ed1e43c3c28cbb66475e2f", "lat": 38.9441085, "is_reserved": 0, "fusion_lat": 0.0, "bike_id": "3d026156b8ed1e43c3c28cbb66475e2f", "type": "electric_scooter", "is_disabled": 0, "fusion_lon": 0.0}, {"rental_uris": {"android": "https://dc.lft.to/lastmile_qr_scan", "ios": "https://dc.lft.to/lastmile_qr_scan"}, "lon": -77.038097, "name": "2af1ed33310b68df4cd87e790eee8fec", "lat": 38.93220383333333, "is_reserved": 0, "fusion_lat": 0.0, "bike_id": "2af1ed33310b68df4cd87e790eee8fec", "type": "electric_scooter", "is_disabled": 0, "fusion_lon": 0.0}, {"rental_uris": {"android": "https://dc.lft.to/lastmile_qr_scan", "ios": "https://dc.lft.to/lastmile_qr_scan"}, "lon": -77.026951, "name": "72ea202375ae276ab1097153791e9efb", "lat": 38.90660733333333, "is_reserved": 0, "fusion_lat": 0.0, "bike_id": "72ea202375ae276ab1097153791e9efb", "type": "electric_scooter", "is_disabled": 0, "fusion_lon": 0.0}, {"rental_uris": {"android": "https://dc.lft.to/lastmile_qr_scan", "ios": "https://dc.lft.to/lastmile_qr_scan"}, "lon": -77.073312, "name": "a588e376447a4c4a3c4cf3cbb3e44c7c", "lat": 38.925615, "is_reserved": 0, "fusion_lat": 0.0, "bike_id": "a588e376447a4c4a3c4cf3cbb3e44c7c", "type": "electric_scooter", "is_disabled": 0, "fusion_lon": 0.0}, {"rental_uris": {"android": "https://dc.lft.to/lastmile_qr_scan", "ios": "https://dc.lft.to/lastmile_qr_scan"}, "lon": -77.0121355, "name": "0a0e7229288c5fbfa31da4fc19300784", "lat": 38.89330233333333, "is_reserved": 0, "fusion_lat": 0.0, "bike_id": "0a0e7229288c5fbfa31da4fc19300784", "type": "electric_scooter", "is_disabled": 0, "fusion_lon": 0.0}, {"rental_uris": {"android": "https://dc.lft.to/lastmile_qr_scan", "ios": "https://dc.lft.to/lastmile_qr_scan"}, "lon": -77.00562, "name": "bf2c9947e9197b26d3f7841bfcae6078", "lat": 38.906508333333335, "is_reserved": 0, "fusion_lat": 0.0, "bike_id": "bf2c9947e9197b26d3f7841bfcae6078", "type": "electric_scooter", "is_disabled": 0, "fusion_lon": 0.0}, {"rental_uris": {"android": "https://dc.lft.to/lastmile_qr_scan", "ios": "https://dc.lft.to/lastmile_qr_scan"}, "lon": -77.0486025, "name": "5a70e6945cd881714baf4db987683762", "lat": 38.91334716666667, "is_reserved": 0, "fusion_lat": 0.0, "bike_id": "5a70e6945cd881714baf4db987683762", "type": "electric_scooter", "is_disabled": 0, "fusion_lon": 0.0}, {"rental_uris": {"android": "https://dc.lft.to/lastmile_qr_scan", "ios": "https://dc.lft.to/lastmile_qr_scan"}, "lon": -77.07230166666666, "name": "c8cdabcd90e56a99c5b7367ad386f3eb", "lat": 38.9319135, "is_reserved": 0, "fusion_lat": 0.0, "bike_id": "c8cdabcd90e56a99c5b7367ad386f3eb", "type": "electric_scooter", "is_disabled": 0, "fusion_lon": 0.0}, {"rental_uris": {"android": "https://dc.lft.to/lastmile_qr_scan", "ios": "https://dc.lft.to/lastmile_qr_scan"}, "lon": -77.0211865, "name": "28648ee0078c1762e80a461505613789", "lat": 38.92270333333333, "is_reserved": 0, "fusion_lat": 0.0, "bike_id": "28648ee0078c1762e80a461505613789", "type": "electric_scooter", "is_disabled": 0, "fusion_lon": 0.0}, {"rental_uris": {"android": "https://dc.lft.to/lastmile_qr_scan", "ios": "https://dc.lft.to/lastmile_qr_scan"}, "lon": -77.02792883333333, "name": "a1e0267015f730f1dfb92130c904117e", "lat": 38.9297335, "is_reserved": 0, "fusion_lat": 0.0, "bike_id": "a1e0267015f730f1dfb92130c904117e", "type": "electric_scooter", "is_disabled": 0, "fusion_lon": 0.0}, {"rental_uris": {"android": "https://dc.lft.to/lastmile_qr_scan", "ios": "https://dc.lft.to/lastmile_qr_scan"}, "lon": -77.0067335, "name": "8f852b4a82e58bc98d3978f9ae246492", "lat": 38.945087666666666, "is_reserved": 0, "fusion_lat": 0.0, "bike_id": "8f852b4a82e58bc98d3978f9ae246492", "type": "electric_bike", "is_disabled": 0, "fusion_lon": 0.0}, {"rental_uris": {"android": "https://dc.lft.to/lastmile_qr_scan", "ios": "https://dc.lft.to/lastmile_qr_scan"}, "lon": -77.03543766666667, "name": "2d3992601c24e943f177cbc3563aa57a", "lat": 38.9234415, "is_reserved": 0, "fusion_lat": 0.0, "bike_id": "2d3992601c24e943f177cbc3563aa57a", "type": "electric_scooter", "is_disabled": 0, "fusion_lon": 0.0}, {"rental_uris": {"android": "https://dc.lft.to/lastmile_qr_scan", "ios": "https://dc.lft.to/lastmile_qr_scan"}, "lon": -77.03363683333333, "name": "79290a1a4483bc891559686457e2b996", "lat": 38.932182, "is_reserved": 0, "fusion_lat": 0.0, "bike_id": "79290a1a4483bc891559686457e2b996", "type": "electric_scooter", "is_disabled": 0, "fusion_lon": 0.0}, {"rental_uris": {"android": "https://dc.lft.to/lastmile_qr_scan", "ios": "https://dc.lft.to/lastmile_qr_scan"}, "lon": -76.9985595, "name": "5e5cdd0614b451092e5c7964aa9485bb", "lat": 38.90768766666667, "is_reserved": 0, "fusion_lat": 0.0, "bike_id": "5e5cdd0614b451092e5c7964aa9485bb", "type": "electric_scooter", "is_disabled": 0, "fusion_lon": 0.0}, {"rental_uris": {"android": "https://dc.lft.to/lastmile_qr_scan", "ios": "https://dc.lft.to/lastmile_qr_scan"}, "lon": -77.04698066666667, "name": "5f127cb1dfab938fc9293da90a37ecfc", "lat": 38.9217795, "is_reserved": 0, "fusion_lat": 0.0, "bike_id": "5f127cb1dfab938fc9293da90a37ecfc", "type": "electric_scooter", "is_disabled": 0, "fusion_lon": 0.0}, {"rental_uris": {"android": "https://dc.lft.to/lastmile_qr_scan", "ios": "https://dc.lft.to/lastmile_qr_scan"}, "lon": -77.0218365, "name": "decafc65d69b7fc8f2c4b9398a5642e2", "lat": 38.91473383333334, "is_reserved": 0, "fusion_lat": 0.0, "bike_id": "decafc65d69b7fc8f2c4b9398a5642e2", "type": "electric_scooter", "is_disabled": 0, "fusion_lon": 0.0}, {"rental_uris": {"android": "https://dc.lft.to/lastmile_qr_scan", "ios": "https://dc.lft.to/lastmile_qr_scan"}, "lon": -77.02677683333333, "name": "752da997c165ffbb55846350608e20ac", "lat": 38.9072115, "is_reserved": 0, "fusion_lat": 0.0, "bike_id": "752da997c165ffbb55846350608e20ac", "type": "electric_scooter", "is_disabled": 0, "fusion_lon": 0.0}, {"rental_uris": {"android": "https://dc.lft.to/lastmile_qr_scan", "ios": "https://dc.lft.to/lastmile_qr_scan"}, "lon": -77.06331, "name": "9619d118073cd451e5ead8c22d25f7a1", "lat": 38.921079666666664, "is_reserved": 0, "fusion_lat": 0.0, "bike_id": "9619d118073cd451e5ead8c22d25f7a1", "type": "electric_scooter", "is_disabled": 0, "fusion_lon": 0.0}, {"rental_uris": {"android": "https://dc.lft.to/lastmile_qr_scan", "ios": "https://dc.lft.to/lastmile_qr_scan"}, "lon": -77.03175383333334, "name": "542522da051edc1e885a2a973a35be56", "lat": 38.89328183333333, "is_reserved": 0, "fusion_lat": 0.0, "bike_id": "542522da051edc1e885a2a973a35be56", "type": "electric_scooter", "is_disabled": 0, "fusion_lon": 0.0}, {"rental_uris": {"android": "https://dc.lft.to/lastmile_qr_scan", "ios": "https://dc.lft.to/lastmile_qr_scan"}, "lon": -77.02340183333334, "name": "a0d2626c8f4c3ef6f37ab6bf6090326c", "lat": 38.931127333333336, "is_reserved": 0, "fusion_lat": 0.0, "bike_id": "a0d2626c8f4c3ef6f37ab6bf6090326c", "type": "electric_scooter", "is_disabled": 0, "fusion_lon": 0.0}, {"rental_uris": {"android": "https://dc.lft.to/lastmile_qr_scan", "ios": "https://dc.lft.to/lastmile_qr_scan"}, "lon": -77.06879766666667, "name": "251d8dc7ad75430bf92421dc4411cb2d", "lat": 38.90500316666667, "is_reserved": 0, "fusion_lat": 0.0, "bike_id": "251d8dc7ad75430bf92421dc4411cb2d", "type": "electric_scooter", "is_disabled": 0, "fusion_lon": 0.0}, {"rental_uris": {"android": "https://dc.lft.to/lastmile_qr_scan", "ios": "https://dc.lft.to/lastmile_qr_scan"}, "lon": -77.01211366666666, "name": "9c28f668610b827e5b22d0ff62c2c83d", "lat": 38.91898833333333, "is_reserved": 0, "fusion_lat": 0.0, "bike_id": "9c28f668610b827e5b22d0ff62c2c83d", "type": "electric_scooter", "is_disabled": 0, "fusion_lon": 0.0}, {"rental_uris": {"android": "https://dc.lft.to/lastmile_qr_scan", "ios": "https://dc.lft.to/lastmile_qr_scan"}, "lon": -77.03175516666667, "name": "6df0040e43f6467aa502be1c8b7a748b", "lat": 38.907292, "is_reserved": 0, "fusion_lat": 0.0, "bike_id": "6df0040e43f6467aa502be1c8b7a748b", "type": "electric_scooter", "is_disabled": 0, "fusion_lon": 0.0}, {"rental_uris": {"android": "https://dc.lft.to/lastmile_qr_scan", "ios": "https://dc.lft.to/lastmile_qr_scan"}, "lon": -77.024856, "name": "cbe49f66a3a84b31be7b31f6380cc39d", "lat": 38.9388145, "is_reserved": 0, "fusion_lat": 0.0, "bike_id": "cbe49f66a3a84b31be7b31f6380cc39d", "type": "electric_scooter", "is_disabled": 0, "fusion_lon": 0.0}, {"rental_uris": {"android": "https://dc.lft.to/lastmile_qr_scan", "ios": "https://dc.lft.to/lastmile_qr_scan"}, "lon": -77.02196933333333, "name": "639427ac7692b3b7ea2a1873b21bce2a", "lat": 38.910409666666666, "is_reserved": 0, "fusion_lat": 0.0, "bike_id": "639427ac7692b3b7ea2a1873b21bce2a", "type": "electric_scooter", "is_disabled": 0, "fusion_lon": 0.0}, {"rental_uris": {"android": "https://dc.lft.to/lastmile_qr_scan", "ios": "https://dc.lft.to/lastmile_qr_scan"}, "lon": -77.00925483333333, "name": "1e85d7a61c63b09079d80e7557054fe4", "lat": 38.89606833333333, "is_reserved": 0, "fusion_lat": 0.0, "bike_id": "1e85d7a61c63b09079d80e7557054fe4", "type": "electric_scooter", "is_disabled": 0, "fusion_lon": 0.0}, {"rental_uris": {"android": "https://dc.lft.to/lastmile_qr_scan", "ios": "https://dc.lft.to/lastmile_qr_scan"}, "lon": -76.992503, "name": "4a92d6c24a2805d74d850b77bcf33022", "lat": 38.79468966666666, "is_reserved": 0, "fusion_lat": 0.0, "bike_id": "4a92d6c24a2805d74d850b77bcf33022", "type": "electric_bike", "is_disabled": 0, "fusion_lon": 0.0}, {"rental_uris": {"android": "https://dc.lft.to/lastmile_qr_scan", "ios": "https://dc.lft.to/lastmile_qr_scan"}, "lon": -77.03443216666666, "name": "9cacc48f067e9292a1003c5333262026", "lat": 38.906352, "is_reserved": 0, "fusion_lat": 0.0, "bike_id": "9cacc48f067e9292a1003c5333262026", "type": "electric_scooter", "is_disabled": 0, "fusion_lon": 0.0}, {"rental_uris": {"android": "https://dc.lft.to/lastmile_qr_scan", "ios": "https://dc.lft.to/lastmile_qr_scan"}, "lon": -77.07697116666667, "name": "3e746121a14350b002547827d2cf0399", "lat": 38.943827, "is_reserved": 0, "fusion_lat": 0.0, "bike_id": "3e746121a14350b002547827d2cf0399", "type": "electric_scooter", "is_disabled": 0, "fusion_lon": 0.0}, {"rental_uris": {"android": "https://dc.lft.to/lastmile_qr_scan", "ios": "https://dc.lft.to/lastmile_qr_scan"}, "lon": -77.03340266666666, "name": "37ceeabf64d1071481b3f0b91332b03f", "lat": 38.93509016666667, "is_reserved": 0, "fusion_lat": 0.0, "bike_id": "37ceeabf64d1071481b3f0b91332b03f", "type": "electric_scooter", "is_disabled": 0, "fusion_lon": 0.0}, {"rental_uris": {"android": "https://dc.lft.to/lastmile_qr_scan", "ios": "https://dc.lft.to/lastmile_qr_scan"}, "lon": -77.03139216666666, "name": "aff83d175f6d1413cf0118b1a284b1a1", "lat": 38.91702866666667, "is_reserved": 0, "fusion_lat": 0.0, "bike_id": "aff83d175f6d1413cf0118b1a284b1a1", "type": "electric_scooter", "is_disabled": 0, "fusion_lon": 0.0}, {"rental_uris": {"android": "https://dc.lft.to/lastmile_qr_scan", "ios": "https://dc.lft.to/lastmile_qr_scan"}, "lon": -77.0240375, "name": "53b165f209130fe714ccdee35d5fa3b0", "lat": 38.90856183333333, "is_reserved": 0, "fusion_lat": 0.0, "bike_id": "53b165f209130fe714ccdee35d5fa3b0", "type": "electric_scooter", "is_disabled": 0, "fusion_lon": 0.0}, {"rental_uris": {"android": "https://dc.lft.to/lastmile_qr_scan", "ios": "https://dc.lft.to/lastmile_qr_scan"}, "lon": -76.98395466666666, "name": "a67c6a09f2049f3848869e9b248694f1", "lat": 38.8667105, "is_reserved": 0, "fusion_lat": 0.0, "bike_id": "a67c6a09f2049f3848869e9b248694f1", "type": "electric_scooter", "is_disabled": 0, "fusion_lon": 0.0}, {"rental_uris": {"android": "https://dc.lft.to/lastmile_qr_scan", "ios": "https://dc.lft.to/lastmile_qr_scan"}, "lon": -77.022014, "name": "5d19395efffff11f985ba753bcb2398e", "lat": 38.919812666666665, "is_reserved": 0, "fusion_lat": 0.0, "bike_id": "5d19395efffff11f985ba753bcb2398e", "type": "electric_scooter", "is_disabled": 0, "fusion_lon": 0.0}, {"rental_uris": {"android": "https://dc.lft.to/lastmile_qr_scan", "ios": "https://dc.lft.to/lastmile_qr_scan"}, "lon": -77.05465916666667, "name": "864382aa88ae3c9d3689a2e07d399166", "lat": 38.89669, "is_reserved": 0, "fusion_lat": 0.0, "bike_id": "864382aa88ae3c9d3689a2e07d399166", "type": "electric_scooter", "is_disabled": 0, "fusion_lon": 0.0}, {"rental_uris": {"android": "https://dc.lft.to/lastmile_qr_scan", "ios": "https://dc.lft.to/lastmile_qr_scan"}, "lon": -76.9854355, "name": "b06a6ba2fd7a8a873e85fe527e18d5e6", "lat": 38.8669165, "is_reserved": 0, "fusion_lat": 0.0, "bike_id": "b06a6ba2fd7a8a873e85fe527e18d5e6", "type": "electric_scooter", "is_disabled": 0, "fusion_lon": 0.0}, {"rental_uris": {"android": "https://dc.lft.to/lastmile_qr_scan", "ios": "https://dc.lft.to/lastmile_qr_scan"}, "lon": -77.01432733333333, "name": "2c9aa08e43dff58803e8dcc4a4cc7ce5", "lat": 38.972181, "is_reserved": 0, "fusion_lat": 0.0, "bike_id": "2c9aa08e43dff58803e8dcc4a4cc7ce5", "type": "electric_bike", "is_disabled": 0, "fusion_lon": 0.0}, {"rental_uris": {"android": "https://dc.lft.to/lastmile_qr_scan", "ios": "https://dc.lft.to/lastmile_qr_scan"}, "lon": -77.03298433333333, "name": "8251729be789b7a64051d45ee4be2ddb", "lat": 38.920723, "is_reserved": 0, "fusion_lat": 0.0, "bike_id": "8251729be789b7a64051d45ee4be2ddb", "type": "electric_scooter", "is_disabled": 0, "fusion_lon": 0.0}, {"rental_uris": {"android": "https://dc.lft.to/lastmile_qr_scan", "ios": "https://dc.lft.to/lastmile_qr_scan"}, "lon": -77.0296305, "name": "9c0542760d307eb56662b5f61ea1c5e7", "lat": 38.908701, "is_reserved": 0, "fusion_lat": 0.0, "bike_id": "9c0542760d307eb56662b5f61ea1c5e7", "type": "electric_scooter", "is_disabled": 0, "fusion_lon": 0.0}, {"rental_uris": {"android": "https://dc.lft.to/lastmile_qr_scan", "ios": "https://dc.lft.to/lastmile_qr_scan"}, "lon": -77.01761483333334, "name": "a5b5b854561c74a0ac2b9530a229efb9", "lat": 38.902586666666664, "is_reserved": 0, "fusion_lat": 0.0, "bike_id": "a5b5b854561c74a0ac2b9530a229efb9", "type": "electric_scooter", "is_disabled": 0, "fusion_lon": 0.0}, {"rental_uris": {"android": "https://dc.lft.to/lastmile_qr_scan", "ios": "https://dc.lft.to/lastmile_qr_scan"}, "lon": -77.02684333333333, "name": "c558c08b16104d6281cf20686b2d75ed", "lat": 38.89714033333333, "is_reserved": 0, "fusion_lat": 0.0, "bike_id": "c558c08b16104d6281cf20686b2d75ed", "type": "electric_scooter", "is_disabled": 0, "fusion_lon": 0.0}, {"rental_uris": {"android": "https://dc.lft.to/lastmile_qr_scan", "ios": "https://dc.lft.to/lastmile_qr_scan"}, "lon": -77.01376066666667, "name": "9fb86d22512d854cabb9e26c136d7eea", "lat": 38.8870505, "is_reserved": 0, "fusion_lat": 0.0, "bike_id": "9fb86d22512d854cabb9e26c136d7eea", "type": "electric_scooter", "is_disabled": 0, "fusion_lon": 0.0}, {"rental_uris": {"android": "https://dc.lft.to/lastmile_qr_scan", "ios": "https://dc.lft.to/lastmile_qr_scan"}, "lon": -77.03794416666666, "name": "2e784ff7a2e70867145039b5a10e590f", "lat": 38.93598033333333, "is_reserved": 0, "fusion_lat": 0.0, "bike_id": "2e784ff7a2e70867145039b5a10e590f", "type": "electric_scooter", "is_disabled": 0, "fusion_lon": 0.0}, {"rental_uris": {"android": "https://dc.lft.to/lastmile_qr_scan", "ios": "https://dc.lft.to/lastmile_qr_scan"}, "lon": -77.01759083333333, "name": "c23e3ef518811e897dee227f95584796", "lat": 38.90259916666667, "is_reserved": 0, "fusion_lat": 0.0, "bike_id": "c23e3ef518811e897dee227f95584796", "type": "electric_scooter", "is_disabled": 0, "fusion_lon": 0.0}, {"rental_uris": {"android": "https://dc.lft.to/lastmile_qr_scan", "ios": "https://dc.lft.to/lastmile_qr_scan"}, "lon": -77.02579683333333, "name": "ddd603589207823c9514ac8bf94ba3c4", "lat": 38.92045066666667, "is_reserved": 0, "fusion_lat": 0.0, "bike_id": "ddd603589207823c9514ac8bf94ba3c4", "type": "electric_scooter", "is_disabled": 0, "fusion_lon": 0.0}, {"rental_uris": {"android": "https://dc.lft.to/lastmile_qr_scan", "ios": "https://dc.lft.to/lastmile_qr_scan"}, "lon": -76.987236, "name": "9740a0f5c1e44981c5e005448a31201b", "lat": 38.85591266666667, "is_reserved": 0, "fusion_lat": 0.0, "bike_id": "9740a0f5c1e44981c5e005448a31201b", "type": "electric_scooter", "is_disabled": 0, "fusion_lon": 0.0}, {"rental_uris": {"android": "https://dc.lft.to/lastmile_qr_scan", "ios": "https://dc.lft.to/lastmile_qr_scan"}, "lon": -77.0350275, "name": "45039cdc41cfe67212308f436447417f", "lat": 38.921508833333334, "is_reserved": 0, "fusion_lat": 0.0, "bike_id": "45039cdc41cfe67212308f436447417f", "type": "electric_scooter", "is_disabled": 0, "fusion_lon": 0.0}, {"rental_uris": {"android": "https://dc.lft.to/lastmile_qr_scan", "ios": "https://dc.lft.to/lastmile_qr_scan"}, "lon": -77.00616283333333, "name": "4f75789bf7e6003c890ca14a799c034e", "lat": 38.87565033333333, "is_reserved": 0, "fusion_lat": 0.0, "bike_id": "4f75789bf7e6003c890ca14a799c034e", "type": "electric_scooter", "is_disabled": 0, "fusion_lon": 0.0}, {"rental_uris": {"android": "https://dc.lft.to/lastmile_qr_scan", "ios": "https://dc.lft.to/lastmile_qr_scan"}, "lon": -77.0216585, "name": "f2677d1a4f7a52bfebcaba402d52c691", "lat": 38.92506866666667, "is_reserved": 0, "fusion_lat": 0.0, "bike_id": "f2677d1a4f7a52bfebcaba402d52c691", "type": "electric_scooter", "is_disabled": 0, "fusion_lon": 0.0}, {"rental_uris": {"android": "https://dc.lft.to/lastmile_qr_scan", "ios": "https://dc.lft.to/lastmile_qr_scan"}, "lon": -77.0328505, "name": "9e84da0eda3b4dd20e77b64484bd0af8", "lat": 38.93755383333333, "is_reserved": 0, "fusion_lat": 0.0, "bike_id": "9e84da0eda3b4dd20e77b64484bd0af8", "type": "electric_scooter", "is_disabled": 0, "fusion_lon": 0.0}, {"rental_uris": {"android": "https://dc.lft.to/lastmile_qr_scan", "ios": "https://dc.lft.to/lastmile_qr_scan"}, "lon": -77.04728466666667, "name": "ec57848a34abe518dd19b39781211a98", "lat": 38.901659, "is_reserved": 0, "fusion_lat": 0.0, "bike_id": "ec57848a34abe518dd19b39781211a98", "type": "electric_scooter", "is_disabled": 0, "fusion_lon": 0.0}, {"rental_uris": {"android": "https://dc.lft.to/lastmile_qr_scan", "ios": "https://dc.lft.to/lastmile_qr_scan"}, "lon": -76.93210783333333, "name": "f509ad595d38e773a654da0c78dcb3c2", "lat": 38.89669833333333, "is_reserved": 0, "fusion_lat": 0.0, "bike_id": "f509ad595d38e773a654da0c78dcb3c2", "type": "electric_scooter", "is_disabled": 0, "fusion_lon": 0.0}, {"rental_uris": {"android": "https://dc.lft.to/lastmile_qr_scan", "ios": "https://dc.lft.to/lastmile_qr_scan"}, "lon": -77.02325733333333, "name": "504c90fbda48ca6c171398afb6d60789", "lat": 38.90723666666667, "is_reserved": 0, "fusion_lat": 0.0, "bike_id": "504c90fbda48ca6c171398afb6d60789", "type": "electric_scooter", "is_disabled": 0, "fusion_lon": 0.0}, {"rental_uris": {"android": "https://dc.lft.to/lastmile_qr_scan", "ios": "https://dc.lft.to/lastmile_qr_scan"}, "lon": -76.99625066666667, "name": "f3942da26d7fd7ab52f42e9ba1587583", "lat": 38.9006595, "is_reserved": 0, "fusion_lat": 0.0, "bike_id": "f3942da26d7fd7ab52f42e9ba1587583", "type": "electric_scooter", "is_disabled": 0, "fusion_lon": 0.0}, {"rental_uris": {"android": "https://dc.lft.to/lastmile_qr_scan", "ios": "https://dc.lft.to/lastmile_qr_scan"}, "lon": -77.04083633333333, "name": "7f9997e53bdd6cedba72c71dfb514beb", "lat": 38.89640283333333, "is_reserved": 0, "fusion_lat": 0.0, "bike_id": "7f9997e53bdd6cedba72c71dfb514beb", "type": "electric_scooter", "is_disabled": 0, "fusion_lon": 0.0}, {"rental_uris": {"android": "https://dc.lft.to/lastmile_qr_scan", "ios": "https://dc.lft.to/lastmile_qr_scan"}, "lon": -76.98540233333334, "name": "d10661a05cfb208363c0b54c8d89a2c5", "lat": 38.899776, "is_reserved": 0, "fusion_lat": 0.0, "bike_id": "d10661a05cfb208363c0b54c8d89a2c5", "type": "electric_scooter", "is_disabled": 0, "fusion_lon": 0.0}, {"rental_uris": {"android": "https://dc.lft.to/lastmile_qr_scan", "ios": "https://dc.lft.to/lastmile_qr_scan"}, "lon": -77.04255466666666, "name": "769b0f88666aab6e58f32495e9e0c97c", "lat": 38.90720616666667, "is_reserved": 0, "fusion_lat": 0.0, "bike_id": "769b0f88666aab6e58f32495e9e0c97c", "type": "electric_scooter", "is_disabled": 0, "fusion_lon": 0.0}, {"rental_uris": {"android": "https://dc.lft.to/lastmile_qr_scan", "ios": "https://dc.lft.to/lastmile_qr_scan"}, "lon": -77.025078, "name": "c918fa4b2d644b59249946f847ba2169", "lat": 38.91809116666667, "is_reserved": 0, "fusion_lat": 0.0, "bike_id": "c918fa4b2d644b59249946f847ba2169", "type": "electric_scooter", "is_disabled": 0, "fusion_lon": 0.0}, {"rental_uris": {"android": "https://dc.lft.to/lastmile_qr_scan", "ios": "https://dc.lft.to/lastmile_qr_scan"}, "lon": -77.021025, "name": "c78c726f0c4a9c7517ac64a453cae5cc", "lat": 38.93013583333333, "is_reserved": 0, "fusion_lat": 0.0, "bike_id": "c78c726f0c4a9c7517ac64a453cae5cc", "type": "electric_scooter", "is_disabled": 0, "fusion_lon": 0.0}, {"rental_uris": {"android": "https://dc.lft.to/lastmile_qr_scan", "ios": "https://dc.lft.to/lastmile_qr_scan"}, "lon": -77.04013116666667, "name": "25fc6a671b0294f0f458780c6d04f5d6", "lat": 38.921935, "is_reserved": 0, "fusion_lat": 0.0, "bike_id": "25fc6a671b0294f0f458780c6d04f5d6", "type": "electric_scooter", "is_disabled": 0, "fusion_lon": 0.0}, {"rental_uris": {"android": "https://dc.lft.to/lastmile_qr_scan", "ios": "https://dc.lft.to/lastmile_qr_scan"}, "lon": -77.03841316666667, "name": "f367d60eac7cf24207a1cf2db1db9c27", "lat": 38.9098035, "is_reserved": 0, "fusion_lat": 0.0, "bike_id": "f367d60eac7cf24207a1cf2db1db9c27", "type": "electric_scooter", "is_disabled": 0, "fusion_lon": 0.0}, {"rental_uris": {"android": "https://dc.lft.to/lastmile_qr_scan", "ios": "https://dc.lft.to/lastmile_qr_scan"}, "lon": -77.03279283333333, "name": "e08b30957724c57baa5ba17d78096071", "lat": 38.922637333333334, "is_reserved": 0, "fusion_lat": 0.0, "bike_id": "e08b30957724c57baa5ba17d78096071", "type": "electric_scooter", "is_disabled": 0, "fusion_lon": 0.0}, {"rental_uris": {"android": "https://dc.lft.to/lastmile_qr_scan", "ios": "https://dc.lft.to/lastmile_qr_scan"}, "lon": -77.02342466666667, "name": "90881a037ffe0d75084e922e6ccd9c76", "lat": 38.927168333333334, "is_reserved": 0, "fusion_lat": 0.0, "bike_id": "90881a037ffe0d75084e922e6ccd9c76", "type": "electric_scooter", "is_disabled": 0, "fusion_lon": 0.0}, {"rental_uris": {"android": "https://dc.lft.to/lastmile_qr_scan", "ios": "https://dc.lft.to/lastmile_qr_scan"}, "lon": -77.03242816666666, "name": "8e4aedc3896e104af054a5afa1712a70", "lat": 38.9272635, "is_reserved": 0, "fusion_lat": 0.0, "bike_id": "8e4aedc3896e104af054a5afa1712a70", "type": "electric_scooter", "is_disabled": 0, "fusion_lon": 0.0}, {"rental_uris": {"android": "https://dc.lft.to/lastmile_qr_scan", "ios": "https://dc.lft.to/lastmile_qr_scan"}, "lon": -77.033524, "name": "14d2f59ecce85638845499cd882d254a", "lat": 38.935741166666666, "is_reserved": 0, "fusion_lat": 0.0, "bike_id": "14d2f59ecce85638845499cd882d254a", "type": "electric_scooter", "is_disabled": 0, "fusion_lon": 0.0}, {"rental_uris": {"android": "https://dc.lft.to/lastmile_qr_scan", "ios": "https://dc.lft.to/lastmile_qr_scan"}, "lon": -77.0456295, "name": "2d10ebb17a84afe796f6eb7b1ecda790", "lat": 38.90854233333334, "is_reserved": 0, "fusion_lat": 0.0, "bike_id": "2d10ebb17a84afe796f6eb7b1ecda790", "type": "electric_scooter", "is_disabled": 0, "fusion_lon": 0.0}, {"rental_uris": {"android": "https://dc.lft.to/lastmile_qr_scan", "ios": "https://dc.lft.to/lastmile_qr_scan"}, "lon": -77.03831516666666, "name": "84585b4261685418e62261f0f8c5e75e", "lat": 38.902719833333336, "is_reserved": 0, "fusion_lat": 0.0, "bike_id": "84585b4261685418e62261f0f8c5e75e", "type": "electric_scooter", "is_disabled": 0, "fusion_lon": 0.0}, {"rental_uris": {"android": "https://dc.lft.to/lastmile_qr_scan", "ios": "https://dc.lft.to/lastmile_qr_scan"}, "lon": -77.04766916666667, "name": "f66ed73bb8bd4235091aa51710974b6b", "lat": 38.917541166666666, "is_reserved": 0, "fusion_lat": 0.0, "bike_id": "f66ed73bb8bd4235091aa51710974b6b", "type": "electric_scooter", "is_disabled": 0, "fusion_lon": 0.0}, {"rental_uris": {"android": "https://dc.lft.to/lastmile_qr_scan", "ios": "https://dc.lft.to/lastmile_qr_scan"}, "lon": -77.04323583333333, "name": "8673a35aea4ea41b6a45983609fe1901", "lat": 38.923086, "is_reserved": 0, "fusion_lat": 0.0, "bike_id": "8673a35aea4ea41b6a45983609fe1901", "type": "electric_scooter", "is_disabled": 0, "fusion_lon": 0.0}, {"rental_uris": {"android": "https://dc.lft.to/lastmile_qr_scan", "ios": "https://dc.lft.to/lastmile_qr_scan"}, "lon": -77.05258566666667, "name": "876264cae424d98b70614d6c78fbfe17", "lat": 38.91012383333333, "is_reserved": 0, "fusion_lat": 0.0, "bike_id": "876264cae424d98b70614d6c78fbfe17", "type": "electric_scooter", "is_disabled": 0, "fusion_lon": 0.0}, {"rental_uris": {"android": "https://dc.lft.to/lastmile_qr_scan", "ios": "https://dc.lft.to/lastmile_qr_scan"}, "lon": -77.04326233333333, "name": "db68d9a160b51393420034f26ccc82a1", "lat": 38.903887, "is_reserved": 0, "fusion_lat": 0.0, "bike_id": "db68d9a160b51393420034f26ccc82a1", "type": "electric_scooter", "is_disabled": 0, "fusion_lon": 0.0}, {"rental_uris": {"android": "https://dc.lft.to/lastmile_qr_scan", "ios": "https://dc.lft.to/lastmile_qr_scan"}, "lon": -77.0447395, "name": "e6536b037b64b436b5864a701899b976", "lat": 38.90274483333334, "is_reserved": 0, "fusion_lat": 0.0, "bike_id": "e6536b037b64b436b5864a701899b976", "type": "electric_scooter", "is_disabled": 0, "fusion_lon": 0.0}, {"rental_uris": {"android": "https://dc.lft.to/lastmile_qr_scan", "ios": "https://dc.lft.to/lastmile_qr_scan"}, "lon": -76.99621933333333, "name": "38dd62f67ab4050f76dbdf0d48f54e55", "lat": 38.9507065, "is_reserved": 0, "fusion_lat": 0.0, "bike_id": "38dd62f67ab4050f76dbdf0d48f54e55", "type": "electric_scooter", "is_disabled": 0, "fusion_lon": 0.0}, {"rental_uris": {"android": "https://dc.lft.to/lastmile_qr_scan", "ios": "https://dc.lft.to/lastmile_qr_scan"}, "lon": -76.99277233333333, "name": "0ac2ebb94f3d59e64a8891ed195141ef", "lat": 38.97256383333333, "is_reserved": 0, "fusion_lat": 0.0, "bike_id": "0ac2ebb94f3d59e64a8891ed195141ef", "type": "electric_bike", "is_disabled": 0, "fusion_lon": 0.0}, {"rental_uris": {"android": "https://dc.lft.to/lastmile_qr_scan", "ios": "https://dc.lft.to/lastmile_qr_scan"}, "lon": -77.03382033333334, "name": "263d9ca622bf4d49816633b9778c941d", "lat": 38.92538233333333, "is_reserved": 0, "fusion_lat": 0.0, "bike_id": "263d9ca622bf4d49816633b9778c941d", "type": "electric_scooter", "is_disabled": 0, "fusion_lon": 0.0}, {"rental_uris": {"android": "https://dc.lft.to/lastmile_qr_scan", "ios": "https://dc.lft.to/lastmile_qr_scan"}, "lon": -77.05336466666667, "name": "0c85ae1f9f96dd51caea14d13137167b", "lat": 39.04078233333333, "is_reserved": 0, "fusion_lat": 0.0, "bike_id": "0c85ae1f9f96dd51caea14d13137167b", "type": "electric_bike", "is_disabled": 0, "fusion_lon": 0.0}, {"rental_uris": {"android": "https://dc.lft.to/lastmile_qr_scan", "ios": "https://dc.lft.to/lastmile_qr_scan"}, "lon": -77.0075595, "name": "5ec8b914f3e534a3f71d5ed233c951e1", "lat": 38.87114716666667, "is_reserved": 0, "fusion_lat": 0.0, "bike_id": "5ec8b914f3e534a3f71d5ed233c951e1", "type": "electric_scooter", "is_disabled": 0, "fusion_lon": 0.0}, {"rental_uris": {"android": "https://dc.lft.to/lastmile_qr_scan", "ios": "https://dc.lft.to/lastmile_qr_scan"}, "lon": -77.0862835, "name": "bb367ba59ca31c21e7f9a0edb1f34c3e", "lat": 38.88067566666667, "is_reserved": 0, "fusion_lat": 0.0, "bike_id": "bb367ba59ca31c21e7f9a0edb1f34c3e", "type": "electric_bike", "is_disabled": 0, "fusion_lon": 0.0}, {"rental_uris": {"android": "https://dc.lft.to/lastmile_qr_scan", "ios": "https://dc.lft.to/lastmile_qr_scan"}, "lon": -77.01185933333333, "name": "8c860412730d012dd99af938a9c47914", "lat": 38.90029166666667, "is_reserved": 0, "fusion_lat": 0.0, "bike_id": "8c860412730d012dd99af938a9c47914", "type": "electric_scooter", "is_disabled": 0, "fusion_lon": 0.0}, {"rental_uris": {"android": "https://dc.lft.to/lastmile_qr_scan", "ios": "https://dc.lft.to/lastmile_qr_scan"}, "lon": -77.03210816666666, "name": "1f9faca0e6b9c9296ba5ee6d65075715", "lat": 38.919421166666666, "is_reserved": 0, "fusion_lat": 0.0, "bike_id": "1f9faca0e6b9c9296ba5ee6d65075715", "type": "electric_scooter", "is_disabled": 0, "fusion_lon": 0.0}, {"rental_uris": {"android": "https://dc.lft.to/lastmile_qr_scan", "ios": "https://dc.lft.to/lastmile_qr_scan"}, "lon": -76.99905566666666, "name": "f52d64877998b78ec30ab3139da4aa9f", "lat": 38.92455566666667, "is_reserved": 0, "fusion_lat": 0.0, "bike_id": "f52d64877998b78ec30ab3139da4aa9f", "type": "electric_scooter", "is_disabled": 0, "fusion_lon": 0.0}, {"rental_uris": {"android": "https://dc.lft.to/lastmile_qr_scan", "ios": "https://dc.lft.to/lastmile_qr_scan"}, "lon": -77.0395285, "name": "f96ff6e8a9a1494d7d9c28cdc558e3f1", "lat": 38.92467166666667, "is_reserved": 0, "fusion_lat": 0.0, "bike_id": "f96ff6e8a9a1494d7d9c28cdc558e3f1", "type": "electric_scooter", "is_disabled": 0, "fusion_lon": 0.0}, {"rental_uris": {"android": "https://dc.lft.to/lastmile_qr_scan", "ios": "https://dc.lft.to/lastmile_qr_scan"}, "lon": -77.03614483333334, "name": "e7626da7a15b2d5be8641619bea2a779", "lat": 38.9375045, "is_reserved": 0, "fusion_lat": 0.0, "bike_id": "e7626da7a15b2d5be8641619bea2a779", "type": "electric_scooter", "is_disabled": 0, "fusion_lon": 0.0}, {"rental_uris": {"android": "https://dc.lft.to/lastmile_qr_scan", "ios": "https://dc.lft.to/lastmile_qr_scan"}, "lon": -77.03214883333334, "name": "2506b097fc7030f59dd814703a6cf3f4", "lat": 38.92788933333333, "is_reserved": 0, "fusion_lat": 0.0, "bike_id": "2506b097fc7030f59dd814703a6cf3f4", "type": "electric_scooter", "is_disabled": 0, "fusion_lon": 0.0}, {"rental_uris": {"android": "https://dc.lft.to/lastmile_qr_scan", "ios": "https://dc.lft.to/lastmile_qr_scan"}, "lon": -76.989166, "name": "bd9e54dd089070e0b48dd5cff03de831", "lat": 38.90021766666667, "is_reserved": 0, "fusion_lat": 0.0, "bike_id": "bd9e54dd089070e0b48dd5cff03de831", "type": "electric_scooter", "is_disabled": 0, "fusion_lon": 0.0}, {"rental_uris": {"android": "https://dc.lft.to/lastmile_qr_scan", "ios": "https://dc.lft.to/lastmile_qr_scan"}, "lon": -77.02676216666667, "name": "4d680837d59cf4d15cdd62c34672e9ec", "lat": 38.8972745, "is_reserved": 0, "fusion_lat": 0.0, "bike_id": "4d680837d59cf4d15cdd62c34672e9ec", "type": "electric_scooter", "is_disabled": 0, "fusion_lon": 0.0}, {"rental_uris": {"android": "https://dc.lft.to/lastmile_qr_scan", "ios": "https://dc.lft.to/lastmile_qr_scan"}, "lon": -77.02690416666667, "name": "ec2a390ba75874cdb292c2ee486e2b7b", "lat": 38.906826833333334, "is_reserved": 0, "fusion_lat": 0.0, "bike_id": "ec2a390ba75874cdb292c2ee486e2b7b", "type": "electric_scooter", "is_disabled": 0, "fusion_lon": 0.0}, {"rental_uris": {"android": "https://dc.lft.to/lastmile_qr_scan", "ios": "https://dc.lft.to/lastmile_qr_scan"}, "lon": -77.01187283333333, "name": "aa30ab299e8ecb8b500095b4123ef914", "lat": 38.900347, "is_reserved": 0, "fusion_lat": 0.0, "bike_id": "aa30ab299e8ecb8b500095b4123ef914", "type": "electric_scooter", "is_disabled": 0, "fusion_lon": 0.0}, {"rental_uris": {"android": "https://dc.lft.to/lastmile_qr_scan", "ios": "https://dc.lft.to/lastmile_qr_scan"}, "lon": -77.05121316666667, "name": "54bcb23de518527354e57d434e206537", "lat": 38.925179, "is_reserved": 0, "fusion_lat": 0.0, "bike_id": "54bcb23de518527354e57d434e206537", "type": "electric_scooter", "is_disabled": 0, "fusion_lon": 0.0}, {"rental_uris": {"android": "https://dc.lft.to/lastmile_qr_scan", "ios": "https://dc.lft.to/lastmile_qr_scan"}, "lon": -77.02818633333334, "name": "c4d1a9cda2380e977c4a2b53720134e7", "lat": 38.90936033333333, "is_reserved": 0, "fusion_lat": 0.0, "bike_id": "c4d1a9cda2380e977c4a2b53720134e7", "type": "electric_scooter", "is_disabled": 0, "fusion_lon": 0.0}, {"rental_uris": {"android": "https://dc.lft.to/lastmile_qr_scan", "ios": "https://dc.lft.to/lastmile_qr_scan"}, "lon": -76.96560533333333, "name": "bd603e36778de665c8c06ee47e93f9a2", "lat": 38.918417166666664, "is_reserved": 0, "fusion_lat": 0.0, "bike_id": "bd603e36778de665c8c06ee47e93f9a2", "type": "electric_scooter", "is_disabled": 0, "fusion_lon": 0.0}, {"rental_uris": {"android": "https://dc.lft.to/lastmile_qr_scan", "ios": "https://dc.lft.to/lastmile_qr_scan"}, "lon": -77.14053866666667, "name": "f314e25c4d091c7601cc60e36da6f86d", "lat": 38.98767566666667, "is_reserved": 0, "fusion_lat": 0.0, "bike_id": "f314e25c4d091c7601cc60e36da6f86d", "type": "electric_bike", "is_disabled": 0, "fusion_lon": 0.0}, {"rental_uris": {"android": "https://dc.lft.to/lastmile_qr_scan", "ios": "https://dc.lft.to/lastmile_qr_scan"}, "lon": -77.00306233333333, "name": "6c5ed02e11f0b0223070eecf9af0fa0f", "lat": 38.9203135, "is_reserved": 0, "fusion_lat": 0.0, "bike_id": "6c5ed02e11f0b0223070eecf9af0fa0f", "type": "electric_scooter", "is_disabled": 0, "fusion_lon": 0.0}, {"rental_uris": {"android": "https://dc.lft.to/lastmile_qr_scan", "ios": "https://dc.lft.to/lastmile_qr_scan"}, "lon": -77.02502933333334, "name": "3a85a7967e3c5a55b2cfc8384f5044b5", "lat": 38.91945183333333, "is_reserved": 0, "fusion_lat": 0.0, "bike_id": "3a85a7967e3c5a55b2cfc8384f5044b5", "type": "electric_scooter", "is_disabled": 0, "fusion_lon": 0.0}, {"rental_uris": {"android": "https://dc.lft.to/lastmile_qr_scan", "ios": "https://dc.lft.to/lastmile_qr_scan"}, "lon": -76.9869535, "name": "331e0a4caeeb0dc5ad96a2947158627d", "lat": 38.8671755, "is_reserved": 0, "fusion_lat": 0.0, "bike_id": "331e0a4caeeb0dc5ad96a2947158627d", "type": "electric_scooter", "is_disabled": 0, "fusion_lon": 0.0}, {"rental_uris": {"android": "https://dc.lft.to/lastmile_qr_scan", "ios": "https://dc.lft.to/lastmile_qr_scan"}, "lon": -76.90087266666667, "name": "d3854ee91ed26cf467a9c298590e3aca", "lat": 38.887606, "is_reserved": 0, "fusion_lat": 0.0, "bike_id": "d3854ee91ed26cf467a9c298590e3aca", "type": "electric_bike", "is_disabled": 0, "fusion_lon": 0.0}, {"rental_uris": {"android": "https://dc.lft.to/lastmile_qr_scan", "ios": "https://dc.lft.to/lastmile_qr_scan"}, "lon": -77.0071255, "name": "82c3da7937e0638d4ee2d9e20260aed6", "lat": 38.884882833333336, "is_reserved": 0, "fusion_lat": 0.0, "bike_id": "82c3da7937e0638d4ee2d9e20260aed6", "type": "electric_scooter", "is_disabled": 0, "fusion_lon": 0.0}, {"rental_uris": {"android": "https://dc.lft.to/lastmile_qr_scan", "ios": "https://dc.lft.to/lastmile_qr_scan"}, "lon": -77.03284083333334, "name": "b026d23f1d8047a13b380719f652d06b", "lat": 38.93752666666666, "is_reserved": 0, "fusion_lat": 0.0, "bike_id": "b026d23f1d8047a13b380719f652d06b", "type": "electric_scooter", "is_disabled": 0, "fusion_lon": 0.0}, {"rental_uris": {"android": "https://dc.lft.to/lastmile_qr_scan", "ios": "https://dc.lft.to/lastmile_qr_scan"}, "lon": -77.04696416666667, "name": "2758e0dc0be8c356942448563b2b433f", "lat": 38.921552, "is_reserved": 0, "fusion_lat": 0.0, "bike_id": "2758e0dc0be8c356942448563b2b433f", "type": "electric_scooter", "is_disabled": 0, "fusion_lon": 0.0}, {"rental_uris": {"android": "https://dc.lft.to/lastmile_qr_scan", "ios": "https://dc.lft.to/lastmile_qr_scan"}, "lon": -77.03867033333333, "name": "15441efcf77a58ebe8c5b539aa096ed5", "lat": 38.912566166666664, "is_reserved": 0, "fusion_lat": 0.0, "bike_id": "15441efcf77a58ebe8c5b539aa096ed5", "type": "electric_scooter", "is_disabled": 0, "fusion_lon": 0.0}, {"rental_uris": {"android": "https://dc.lft.to/lastmile_qr_scan", "ios": "https://dc.lft.to/lastmile_qr_scan"}, "lon": -77.0260555, "name": "7954a62a0281f0638c4cfcd7a6dbb995", "lat": 38.90230433333333, "is_reserved": 0, "fusion_lat": 0.0, "bike_id": "7954a62a0281f0638c4cfcd7a6dbb995", "type": "electric_scooter", "is_disabled": 0, "fusion_lon": 0.0}, {"rental_uris": {"android": "https://dc.lft.to/lastmile_qr_scan", "ios": "https://dc.lft.to/lastmile_qr_scan"}, "lon": -77.024272, "name": "179cf631ec3bab4b2e2f414bdb6c421a", "lat": 38.92658183333333, "is_reserved": 0, "fusion_lat": 0.0, "bike_id": "179cf631ec3bab4b2e2f414bdb6c421a", "type": "electric_scooter", "is_disabled": 0, "fusion_lon": 0.0}, {"rental_uris": {"android": "https://dc.lft.to/lastmile_qr_scan", "ios": "https://dc.lft.to/lastmile_qr_scan"}, "lon": -77.0000675, "name": "d93008e9fdbde1e18406764294dcd6b2", "lat": 38.902467333333334, "is_reserved": 0, "fusion_lat": 0.0, "bike_id": "d93008e9fdbde1e18406764294dcd6b2", "type": "electric_scooter", "is_disabled": 0, "fusion_lon": 0.0}, {"rental_uris": {"android": "https://dc.lft.to/lastmile_qr_scan", "ios": "https://dc.lft.to/lastmile_qr_scan"}, "lon": -77.02376316666667, "name": "0ecd12cf088657114d9ab45f1d73e3ae", "lat": 38.90730816666667, "is_reserved": 0, "fusion_lat": 0.0, "bike_id": "0ecd12cf088657114d9ab45f1d73e3ae", "type": "electric_scooter", "is_disabled": 0, "fusion_lon": 0.0}, {"rental_uris": {"android": "https://dc.lft.to/lastmile_qr_scan", "ios": "https://dc.lft.to/lastmile_qr_scan"}, "lon": -77.02654183333334, "name": "bacf25bea853f8df21e83cb9b651dddf", "lat": 38.894876, "is_reserved": 0, "fusion_lat": 0.0, "bike_id": "bacf25bea853f8df21e83cb9b651dddf", "type": "electric_scooter", "is_disabled": 0, "fusion_lon": 0.0}, {"rental_uris": {"android": "https://dc.lft.to/lastmile_qr_scan", "ios": "https://dc.lft.to/lastmile_qr_scan"}, "lon": -77.0224525, "name": "dedd69c0ccfad0fbb4a724b7c0c4409e", "lat": 38.90867316666667, "is_reserved": 0, "fusion_lat": 0.0, "bike_id": "dedd69c0ccfad0fbb4a724b7c0c4409e", "type": "electric_scooter", "is_disabled": 0, "fusion_lon": 0.0}, {"rental_uris": {"android": "https://dc.lft.to/lastmile_qr_scan", "ios": "https://dc.lft.to/lastmile_qr_scan"}, "lon": -77.04746283333333, "name": "5ad61eb8725edddd4587a7b7174919b1", "lat": 38.897420833333335, "is_reserved": 0, "fusion_lat": 0.0, "bike_id": "5ad61eb8725edddd4587a7b7174919b1", "type": "electric_scooter", "is_disabled": 0, "fusion_lon": 0.0}, {"rental_uris": {"android": "https://dc.lft.to/lastmile_qr_scan", "ios": "https://dc.lft.to/lastmile_qr_scan"}, "lon": -77.00452983333334, "name": "0f10ba350ebc183b2d940fe69faf36a9", "lat": 38.912395833333335, "is_reserved": 0, "fusion_lat": 0.0, "bike_id": "0f10ba350ebc183b2d940fe69faf36a9", "type": "electric_scooter", "is_disabled": 0, "fusion_lon": 0.0}, {"rental_uris": {"android": "https://dc.lft.to/lastmile_qr_scan", "ios": "https://dc.lft.to/lastmile_qr_scan"}, "lon": -77.0021875, "name": "78f8c679ecb4889a6b0fcea078652bf1", "lat": 38.900183166666665, "is_reserved": 0, "fusion_lat": 0.0, "bike_id": "78f8c679ecb4889a6b0fcea078652bf1", "type": "electric_scooter", "is_disabled": 0, "fusion_lon": 0.0}, {"rental_uris": {"android": "https://dc.lft.to/lastmile_qr_scan", "ios": "https://dc.lft.to/lastmile_qr_scan"}, "lon": -77.03850783333333, "name": "438c8d24dc45ae063462b1c18dd781a1", "lat": 38.926485666666665, "is_reserved": 0, "fusion_lat": 0.0, "bike_id": "438c8d24dc45ae063462b1c18dd781a1", "type": "electric_scooter", "is_disabled": 0, "fusion_lon": 0.0}, {"rental_uris": {"android": "https://dc.lft.to/lastmile_qr_scan", "ios": "https://dc.lft.to/lastmile_qr_scan"}, "lon": -76.9955795, "name": "26b33f4d4175a5464238042bb4293627", "lat": 38.90032333333333, "is_reserved": 0, "fusion_lat": 0.0, "bike_id": "26b33f4d4175a5464238042bb4293627", "type": "electric_scooter", "is_disabled": 0, "fusion_lon": 0.0}, {"rental_uris": {"android": "https://dc.lft.to/lastmile_qr_scan", "ios": "https://dc.lft.to/lastmile_qr_scan"}, "lon": -77.03842683333333, "name": "38e5a0b5a7c80232442624eacbb37933", "lat": 38.912113166666664, "is_reserved": 0, "fusion_lat": 0.0, "bike_id": "38e5a0b5a7c80232442624eacbb37933", "type": "electric_scooter", "is_disabled": 0, "fusion_lon": 0.0}, {"rental_uris": {"android": "https://dc.lft.to/lastmile_qr_scan", "ios": "https://dc.lft.to/lastmile_qr_scan"}, "lon": -76.98360283333334, "name": "8c66204b7cb66f3729c1bf8ec6db23c2", "lat": 38.894371166666666, "is_reserved": 0, "fusion_lat": 0.0, "bike_id": "8c66204b7cb66f3729c1bf8ec6db23c2", "type": "electric_scooter", "is_disabled": 0, "fusion_lon": 0.0}, {"rental_uris": {"android": "https://dc.lft.to/lastmile_qr_scan", "ios": "https://dc.lft.to/lastmile_qr_scan"}, "lon": -77.0195905, "name": "c2f0358f919150bc005e03d36cf8affa", "lat": 38.892535, "is_reserved": 0, "fusion_lat": 0.0, "bike_id": "c2f0358f919150bc005e03d36cf8affa", "type": "electric_scooter", "is_disabled": 0, "fusion_lon": 0.0}, {"rental_uris": {"android": "https://dc.lft.to/lastmile_qr_scan", "ios": "https://dc.lft.to/lastmile_qr_scan"}, "lon": -77.03190266666667, "name": "d173a47a86af18285df80e4ef64944a4", "lat": 38.909763166666664, "is_reserved": 0, "fusion_lat": 0.0, "bike_id": "d173a47a86af18285df80e4ef64944a4", "type": "electric_scooter", "is_disabled": 0, "fusion_lon": 0.0}, {"rental_uris": {"android": "https://dc.lft.to/lastmile_qr_scan", "ios": "https://dc.lft.to/lastmile_qr_scan"},