{"data": {"bikes": [{"lon": -77.06655083333334, "is_disabled": 0, "lat": 38.9506765, "fusion_lat": 0.0, "is_reserved": 0, "rental_uris": {"ios": "https://dc.lft.to/lastmile_qr_scan", "android": "https://dc.lft.to/lastmile_qr_scan"}, "fusion_lon": 0.0, "type": "electric_bike", "bike_id": "aa4a946a0f83f0d53b14430870489f25", "name": "aa4a946a0f83f0d53b14430870489f25"}, {"lon": -76.9853535, "is_disabled": 0, "lat": 38.866727833333336, "fusion_lat": 0.0, "is_reserved": 0, "rental_uris": {"ios": "https://dc.lft.to/lastmile_qr_scan", "android": "https://dc.lft.to/lastmile_qr_scan"}, "fusion_lon": 0.0, "type": "electric_scooter", "bike_id": "d3674230476fd2377ceca64fa42705cc", "name": "d3674230476fd2377ceca64fa42705cc"}, {"lon": -76.93074533333333, "is_disabled": 0, "lat": 38.901664, "fusion_lat": 0.0, "is_reserved": 0, "rental_uris": {"ios": "https://dc.lft.to/lastmile_qr_scan", "android": "https://dc.lft.to/lastmile_qr_scan"}, "fusion_lon": 0.0, "type": "electric_scooter", "bike_id": "fbbdeb196b570df09bafec2d1061a2d7", "name": "fbbdeb196b570df09bafec2d1061a2d7"}, {"lon": -77.02183233333334, "is_disabled": 0, "lat": 38.913003, "fusion_lat": 0.0, "is_reserved": 0, "rental_uris": {"ios": "https://dc.lft.to/lastmile_qr_scan", "android": "https://dc.lft.to/lastmile_qr_scan"}, "fusion_lon": 0.0, "type": "electric_scooter", "bike_id": "f0d9b466568851cb26ff2afc03721977", "name": "f0d9b466568851cb26ff2afc03721977"}, {"lon": -76.995708, "is_disabled": 0, "lat": 38.94012333333333, "fusion_lat": 0.0, "is_reserved": 0, "rental_uris": {"ios": "https://dc.lft.to/lastmile_qr_scan", "android": "https://dc.lft.to/lastmile_qr_scan"}, "fusion_lon": 0.0, "type": "electric_bike", "bike_id": "1b1e70c9efed39c90f1a79404a77aa57", "name": "1b1e70c9efed39c90f1a79404a77aa57"}, {"lon": -77.06118883333333, "is_disabled": 0, "lat": 38.943552833333335, "fusion_lat": 0.0, "is_reserved": 0, "rental_uris": {"ios": "https://dc.lft.to/lastmile_qr_scan", "android": "https://dc.lft.to/lastmile_qr_scan"}, "fusion_lon": 0.0, "type": "electric_scooter", "bike_id": "042bfde5c2efce8fde6885060269fea8", "name": "042bfde5c2efce8fde6885060269fea8"}, {"lon": -77.06275083333334, "is_disabled": 0, "lat": 38.905812833333336, "fusion_lat": 0.0, "is_reserved": 0, "rental_uris": {"ios": "https://dc.lft.to/lastmile_qr_scan", "android": "https://dc.lft.to/lastmile_qr_scan"}, "fusion_lon": 0.0, "type": "electric_scooter", "bike_id": "89533169ab750a1ae3db344e86d40d2b", "name": "89533169ab750a1ae3db344e86d40d2b"}, {"lon": -77.0568, "is_disabled": 0, "lat": 38.9516115, "fusion_lat": 0.0, "is_reserved": 0, "rental_uris": {"ios": "https://dc.lft.to/lastmile_qr_scan", "android": "https://dc.lft.to/lastmile_qr_scan"}, "fusion_lon": 0.0, "type": "electric_scooter", "bike_id": "6225af4a8a00dd109a2e2e24432ffb6a", "name": "6225af4a8a00dd109a2e2e24432ffb6a"}, {"lon": -77.0366215, "is_disabled": 0, "lat": 38.90259783333333, "fusion_lat": 0.0, "is_reserved": 0, "rental_uris": {"ios": "https://dc.lft.to/lastmile_qr_scan", "android": "https://dc.lft.to/lastmile_qr_scan"}, "fusion_lon": 0.0, "type": "electric_scooter", "bike_id": "f478f05c2c467d4d7534078030baea3e", "name": "f478f05c2c467d4d7534078030baea3e"}, {"lon": -77.00597933333333, "is_disabled": 0, "lat": 38.875938166666664, "fusion_lat": 0.0, "is_reserved": 0, "rental_uris": {"ios": "https://dc.lft.to/lastmile_qr_scan", "android": "https://dc.lft.to/lastmile_qr_scan"}, "fusion_lon": 0.0, "type": "electric_scooter", "bike_id": "91c7a243e9ea2b02e898896cb56f2d5b", "name": "91c7a243e9ea2b02e898896cb56f2d5b"}, {"lon": -77.01348716666666, "is_disabled": 0, "lat": 38.87120733333333, "fusion_lat": 0.0, "is_reserved": 0, "rental_uris": {"ios": "https://dc.lft.to/lastmile_qr_scan", "android": "https://dc.lft.to/lastmile_qr_scan"}, "fusion_lon": 0.0, "type": "electric_scooter", "bike_id": "7e744686a74268a971e5edd8b0534e41", "name": "7e744686a74268a971e5edd8b0534e41"}, {"lon": -77.03182933333333, "is_disabled": 0, "lat": 38.9171455, "fusion_lat": 0.0, "is_reserved": 0, "rental_uris": {"ios": "https://dc.lft.to/lastmile_qr_scan", "android": "https://dc.lft.to/lastmile_qr_scan"}, "fusion_lon": 0.0, "type": "electric_scooter", "bike_id": "8b55279f30d3336681f4891ac2bd2223", "name": "8b55279f30d3336681f4891ac2bd2223"}, {"lon": -77.033991, "is_disabled": 0, "lat": 38.91246966666667, "fusion_lat": 0.0, "is_reserved": 0, "rental_uris": {"ios": "https://dc.lft.to/lastmile_qr_scan", "android": "https://dc.lft.to/lastmile_qr_scan"}, "fusion_lon": 0.0, "type": "electric_scooter", "bike_id": "3c595343e5a59e8fad4a8c0dbd90d2c8", "name": "3c595343e5a59e8fad4a8c0dbd90d2c8"}, {"lon": -77.06273033333333, "is_disabled": 0, "lat": 38.905695333333334, "fusion_lat": 0.0, "is_reserved": 0, "rental_uris": {"ios": "https://dc.lft.to/lastmile_qr_scan", "android": "https://dc.lft.to/lastmile_qr_scan"}, "fusion_lon": 0.0, "type": "electric_scooter", "bike_id": "2464a429007f843d948cb26b457d880b", "name": "2464a429007f843d948cb26b457d880b"}, {"lon": -77.02851866666667, "is_disabled": 0, "lat": 38.89338016666667, "fusion_lat": 0.0, "is_reserved": 0, "rental_uris": {"ios": "https://dc.lft.to/lastmile_qr_scan", "android": "https://dc.lft.to/lastmile_qr_scan"}, "fusion_lon": 0.0, "type": "electric_scooter", "bike_id": "0e6f6d89924e73cc4db7fe2d8c277380", "name": "0e6f6d89924e73cc4db7fe2d8c277380"}, {"lon": -77.00943483333333, "is_disabled": 0, "lat": 38.90665, "fusion_lat": 0.0, "is_reserved": 0, "rental_uris": {"ios": "https://dc.lft.to/lastmile_qr_scan", "android": "https://dc.lft.to/lastmile_qr_scan"}, "fusion_lon": 0.0, "type": "electric_scooter", "bike_id": "928729a92c01f39b0ac42f9d2784eb1b", "name": "928729a92c01f39b0ac42f9d2784eb1b"}, {"lon": -77.03840933333333, "is_disabled": 0, "lat": 38.94189333333333, "fusion_lat": 0.0, "is_reserved": 0, "rental_uris": {"ios": "https://dc.lft.to/lastmile_qr_scan", "android": "https://dc.lft.to/lastmile_qr_scan"}, "fusion_lon": 0.0, "type": "electric_scooter", "bike_id": "049df5fdcdeb7d51fde681a37bc7440b", "name": "049df5fdcdeb7d51fde681a37bc7440b"}, {"lon": -77.02819333333333, "is_disabled": 0, "lat": 38.886556, "fusion_lat": 0.0, "is_reserved": 0, "rental_uris": {"ios": "https://dc.lft.to/lastmile_qr_scan", "android": "https://dc.lft.to/lastmile_qr_scan"}, "fusion_lon": 0.0, "type": "electric_scooter", "bike_id": "de4f420a7a0f7056e09f6c4b4165522d", "name": "de4f420a7a0f7056e09f6c4b4165522d"}, {"lon": -77.02550216666667, "is_disabled": 0, "lat": 38.89748516666667, "fusion_lat": 0.0, "is_reserved": 0, "rental_uris": {"ios": "https://dc.lft.to/lastmile_qr_scan", "android": "https://dc.lft.to/lastmile_qr_scan"}, "fusion_lon": 0.0, "type": "electric_scooter", "bike_id": "4cbdb02c1e3b261c8dcfc3554a77c40a", "name": "4cbdb02c1e3b261c8dcfc3554a77c40a"}, {"lon": -77.03222983333333, "is_disabled": 0, "lat": 38.90711916666667, "fusion_lat": 0.0, "is_reserved": 0, "rental_uris": {"ios": "https://dc.lft.to/lastmile_qr_scan", "android": "https://dc.lft.to/lastmile_qr_scan"}, "fusion_lon": 0.0, "type": "electric_scooter", "bike_id": "f3032ac2ddda77657461e408b60a292e", "name": "f3032ac2ddda77657461e408b60a292e"}, {"lon": -77.03107316666667, "is_disabled": 0, "lat": 38.898331666666664, "fusion_lat": 0.0, "is_reserved": 0, "rental_uris": {"ios": "https://dc.lft.to/lastmile_qr_scan", "android": "https://dc.lft.to/lastmile_qr_scan"}, "fusion_lon": 0.0, "type": "electric_scooter", "bike_id": "06a639f26b45d9abb8b507d4979e8012", "name": "06a639f26b45d9abb8b507d4979e8012"}, {"lon": -77.00237183333333, "is_disabled": 0, "lat": 38.874877, "fusion_lat": 0.0, "is_reserved": 0, "rental_uris": {"ios": "https://dc.lft.to/lastmile_qr_scan", "android": "https://dc.lft.to/lastmile_qr_scan"}, "fusion_lon": 0.0, "type": "electric_scooter", "bike_id": "c4b7332ec390fc4e420a55da7345f1fc", "name": "c4b7332ec390fc4e420a55da7345f1fc"}, {"lon": -77.02847316666667, "is_disabled": 0, "lat": 38.916895833333335, "fusion_lat": 0.0, "is_reserved": 0, "rental_uris": {"ios": "https://dc.lft.to/lastmile_qr_scan", "android": "https://dc.lft.to/lastmile_qr_scan"}, "fusion_lon": 0.0, "type": "electric_scooter", "bike_id": "8e90735668d02b8f7cb775819e69693f", "name": "8e90735668d02b8f7cb775819e69693f"}, {"lon": -76.97028416666667, "is_disabled": 0, "lat": 38.87362666666667, "fusion_lat": 0.0, "is_reserved": 0, "rental_uris": {"ios": "https://dc.lft.to/lastmile_qr_scan", "android": "https://dc.lft.to/lastmile_qr_scan"}, "fusion_lon": 0.0, "type": "electric_scooter", "bike_id": "e2d960d54eb294ef939dc56458a5a967", "name": "e2d960d54eb294ef939dc56458a5a967"}, {"lon": -77.04344866666666, "is_disabled": 0, "lat": 38.92190466666667, "fusion_lat": 0.0, "is_reserved": 0, "rental_uris": {"ios": "https://dc.lft.to/lastmile_qr_scan", "android": "https://dc.lft.to/lastmile_qr_scan"}, "fusion_lon": 0.0, "type": "electric_scooter", "bike_id": "7f8efe30e7eeeff03d22f8a1f2273511", "name": "7f8efe30e7eeeff03d22f8a1f2273511"}, {"lon": -77.0487145, "is_disabled": 0, "lat": 38.9064795, "fusion_lat": 0.0, "is_reserved": 0, "rental_uris": {"ios": "https://dc.lft.to/lastmile_qr_scan", "android": "https://dc.lft.to/lastmile_qr_scan"}, "fusion_lon": 0.0, "type": "electric_scooter", "bike_id": "6b197de522a7990516f1cc2f73854ae0", "name": "6b197de522a7990516f1cc2f73854ae0"}, {"lon": -77.04104866666667, "is_disabled": 0, "lat": 38.923143333333336, "fusion_lat": 0.0, "is_reserved": 0, "rental_uris": {"ios": "https://dc.lft.to/lastmile_qr_scan", "android": "https://dc.lft.to/lastmile_qr_scan"}, "fusion_lon": 0.0, "type": "electric_scooter", "bike_id": "a4fa0add3ea60107160267c3a54841b7", "name": "a4fa0add3ea60107160267c3a54841b7"}, {"lon": -77.0244965, "is_disabled": 0, "lat": 38.91833283333333, "fusion_lat": 0.0, "is_reserved": 0, "rental_uris": {"ios": "https://dc.lft.to/lastmile_qr_scan", "android": "https://dc.lft.to/lastmile_qr_scan"}, "fusion_lon": 0.0, "type": "electric_scooter", "bike_id": "ab5cf51fdcdb1220e97753634175497a", "name": "ab5cf51fdcdb1220e97753634175497a"}, {"lon": -77.05350783333333, "is_disabled": 0, "lat": 38.9272, "fusion_lat": 0.0, "is_reserved": 0, "rental_uris": {"ios": "https://dc.lft.to/lastmile_qr_scan", "android": "https://dc.lft.to/lastmile_qr_scan"}, "fusion_lon": 0.0, "type": "electric_scooter", "bike_id": "9a5321de508effdda44b40d977aebebb", "name": "9a5321de508effdda44b40d977aebebb"}, {"lon": -77.01546083333334, "is_disabled": 0, "lat": 38.885721, "fusion_lat": 0.0, "is_reserved": 0, "rental_uris": {"ios": "https://dc.lft.to/lastmile_qr_scan", "android": "https://dc.lft.to/lastmile_qr_scan"}, "fusion_lon": 0.0, "type": "electric_scooter", "bike_id": "ef986cdd861265c0a44f69066b8ad4d4", "name": "ef986cdd861265c0a44f69066b8ad4d4"}, {"lon": -76.93369966666667, "is_disabled": 0, "lat": 38.89915533333333, "fusion_lat": 0.0, "is_reserved": 0, "rental_uris": {"ios": "https://dc.lft.to/lastmile_qr_scan", "android": "https://dc.lft.to/lastmile_qr_scan"}, "fusion_lon": 0.0, "type": "electric_scooter", "bike_id": "8be50e9f0d8e6aff8c425dc0529a06b5", "name": "8be50e9f0d8e6aff8c425dc0529a06b5"}, {"lon": -77.03758933333333, "is_disabled": 0, "lat": 38.92933283333333, "fusion_lat": 0.0, "is_reserved": 0, "rental_uris": {"ios": "https://dc.lft.to/lastmile_qr_scan", "android": "https://dc.lft.to/lastmile_qr_scan"}, "fusion_lon": 0.0, "type": "electric_scooter", "bike_id": "7e0e099157fc979a311598d0328b1055", "name": "7e0e099157fc979a311598d0328b1055"}, {"lon": -77.13923683333333, "is_disabled": 0, "lat": 38.873005666666664, "fusion_lat": 0.0, "is_reserved": 0, "rental_uris": {"ios": "https://dc.lft.to/lastmile_qr_scan", "android": "https://dc.lft.to/lastmile_qr_scan"}, "fusion_lon": 0.0, "type": "electric_bike", "bike_id": "abfdc6f50547772496faa9a3eae6f380", "name": "abfdc6f50547772496faa9a3eae6f380"}, {"lon": -76.98842233333333, "is_disabled": 0, "lat": 38.84280183333333, "fusion_lat": 0.0, "is_reserved": 0, "rental_uris": {"ios": "https://dc.lft.to/lastmile_qr_scan", "android": "https://dc.lft.to/lastmile_qr_scan"}, "fusion_lon": 0.0, "type": "electric_bike", "bike_id": "f1cf064f6535b46eb9cfeee85519dead", "name": "f1cf064f6535b46eb9cfeee85519dead"}, {"lon": -77.02023666666666, "is_disabled": 0, "lat": 38.924368, "fusion_lat": 0.0, "is_reserved": 0, "rental_uris": {"ios": "https://dc.lft.to/lastmile_qr_scan", "android": "https://dc.lft.to/lastmile_qr_scan"}, "fusion_lon": 0.0, "type": "electric_scooter", "bike_id": "4629e7d45e1fdb6f4b58403cf4b4917f", "name": "4629e7d45e1fdb6f4b58403cf4b4917f"}, {"lon": -77.03839766666667, "is_disabled": 0, "lat": 38.92167966666667, "fusion_lat": 0.0, "is_reserved": 0, "rental_uris": {"ios": "https://dc.lft.to/lastmile_qr_scan", "android": "https://dc.lft.to/lastmile_qr_scan"}, "fusion_lon": 0.0, "type": "electric_scooter", "bike_id": "74e2d8b0cb5416944e0956267d5de8fd", "name": "74e2d8b0cb5416944e0956267d5de8fd"}, {"lon": -77.022863, "is_disabled": 0, "lat": 38.915679833333336, "fusion_lat": 0.0, "is_reserved": 0, "rental_uris": {"ios": "https://dc.lft.to/lastmile_qr_scan", "android": "https://dc.lft.to/lastmile_qr_scan"}, "fusion_lon": 0.0, "type": "electric_scooter", "bike_id": "450fae70204aae248492af5337e9425c", "name": "450fae70204aae248492af5337e9425c"}, {"lon": -76.960561, "is_disabled": 0, "lat": 38.88325283333333, "fusion_lat": 0.0, "is_reserved": 0, "rental_uris": {"ios": "https://dc.lft.to/lastmile_qr_scan", "android": "https://dc.lft.to/lastmile_qr_scan"}, "fusion_lon": 0.0, "type": "electric_bike", "bike_id": "b3c5e3691641353f1873462e85e6c2d9", "name": "b3c5e3691641353f1873462e85e6c2d9"}, {"lon": -77.02961733333333, "is_disabled": 0, "lat": 38.927492, "fusion_lat": 0.0, "is_reserved": 0, "rental_uris": {"ios": "https://dc.lft.to/lastmile_qr_scan", "android": "https://dc.lft.to/lastmile_qr_scan"}, "fusion_lon": 0.0, "type": "electric_scooter", "bike_id": "f09bad803c20b78510a7f1b2134d8a44", "name": "f09bad803c20b78510a7f1b2134d8a44"}, {"lon": -77.02950766666666, "is_disabled": 0, "lat": 38.9048325, "fusion_lat": 0.0, "is_reserved": 0, "rental_uris": {"ios": "https://dc.lft.to/lastmile_qr_scan", "android": "https://dc.lft.to/lastmile_qr_scan"}, "fusion_lon": 0.0, "type": "electric_scooter", "bike_id": "40b3d727dc4937b56313f3defb9422d8", "name": "40b3d727dc4937b56313f3defb9422d8"}, {"lon": -77.025591, "is_disabled": 0, "lat": 38.919105, "fusion_lat": 0.0, "is_reserved": 0, "rental_uris": {"ios": "https://dc.lft.to/lastmile_qr_scan", "android": "https://dc.lft.to/lastmile_qr_scan"}, "fusion_lon": 0.0, "type": "electric_scooter", "bike_id": "3aea7ce603922e8a9ac55c8ec7703f66", "name": "3aea7ce603922e8a9ac55c8ec7703f66"}, {"lon": -76.98844433333333, "is_disabled": 0, "lat": 38.90026783333333, "fusion_lat": 0.0, "is_reserved": 0, "rental_uris": {"ios": "https://dc.lft.to/lastmile_qr_scan", "android": "https://dc.lft.to/lastmile_qr_scan"}, "fusion_lon": 0.0, "type": "electric_scooter", "bike_id": "6253a50ec479828162cf0e6c1c7b8c87", "name": "6253a50ec479828162cf0e6c1c7b8c87"}, {"lon": -77.02373583333333, "is_disabled": 0, "lat": 38.92049316666667, "fusion_lat": 0.0, "is_reserved": 0, "rental_uris": {"ios": "https://dc.lft.to/lastmile_qr_scan", "android": "https://dc.lft.to/lastmile_qr_scan"}, "fusion_lon": 0.0, "type": "electric_scooter", "bike_id": "0154f895d096d13878b8d6290c6aa905", "name": "0154f895d096d13878b8d6290c6aa905"}, {"lon": -77.00346966666666, "is_disabled": 0, "lat": 38.89461716666667, "fusion_lat": 0.0, "is_reserved": 0, "rental_uris": {"ios": "https://dc.lft.to/lastmile_qr_scan", "android": "https://dc.lft.to/lastmile_qr_scan"}, "fusion_lon": 0.0, "type": "electric_scooter", "bike_id": "5965a72397bbf96df8b6d9305f83568a", "name": "5965a72397bbf96df8b6d9305f83568a"}, {"lon": -76.9980395, "is_disabled": 0, "lat": 38.9086905, "fusion_lat": 0.0, "is_reserved": 0, "rental_uris": {"ios": "https://dc.lft.to/lastmile_qr_scan", "android": "https://dc.lft.to/lastmile_qr_scan"}, "fusion_lon": 0.0, "type": "electric_scooter", "bike_id": "61dde2ae43f92e2b61681ae347c6bb09", "name": "61dde2ae43f92e2b61681ae347c6bb09"}, {"lon": -77.04140116666666, "is_disabled": 0, "lat": 38.900141833333336, "fusion_lat": 0.0, "is_reserved": 0, "rental_uris": {"ios": "https://dc.lft.to/lastmile_qr_scan", "android": "https://dc.lft.to/lastmile_qr_scan"}, "fusion_lon": 0.0, "type": "electric_scooter", "bike_id": "32d0a5264bab06f535e5e8191d6cae59", "name": "32d0a5264bab06f535e5e8191d6cae59"}, {"lon": -77.02709633333333, "is_disabled": 0, "lat": 38.89739816666667, "fusion_lat": 0.0, "is_reserved": 0, "rental_uris": {"ios": "https://dc.lft.to/lastmile_qr_scan", "android": "https://dc.lft.to/lastmile_qr_scan"}, "fusion_lon": 0.0, "type": "electric_scooter", "bike_id": "b9efcf9abec9472a2a14be234710d713", "name": "b9efcf9abec9472a2a14be234710d713"}, {"lon": -76.98509633333333, "is_disabled": 0, "lat": 38.90345766666667, "fusion_lat": 0.0, "is_reserved": 0, "rental_uris": {"ios": "https://dc.lft.to/lastmile_qr_scan", "android": "https://dc.lft.to/lastmile_qr_scan"}, "fusion_lon": 0.0, "type": "electric_scooter", "bike_id": "0e9c72a7bbfa2abe009a6f94b3bee127", "name": "0e9c72a7bbfa2abe009a6f94b3bee127"}, {"lon": -77.03312416666667, "is_disabled": 0, "lat": 38.921539333333335, "fusion_lat": 0.0, "is_reserved": 0, "rental_uris": {"ios": "https://dc.lft.to/lastmile_qr_scan", "android": "https://dc.lft.to/lastmile_qr_scan"}, "fusion_lon": 0.0, "type": "electric_scooter", "bike_id": "fb731fe2db75a23e596524b1798df127", "name": "fb731fe2db75a23e596524b1798df127"}, {"lon": -77.04282516666666, "is_disabled": 0, "lat": 38.91560783333333, "fusion_lat": 0.0, "is_reserved": 0, "rental_uris": {"ios": "https://dc.lft.to/lastmile_qr_scan", "android": "https://dc.lft.to/lastmile_qr_scan"}, "fusion_lon": 0.0, "type": "electric_scooter", "bike_id": "e8cd80367349fa80f27fd9f26ccac043", "name": "e8cd80367349fa80f27fd9f26ccac043"}, {"lon": -77.03192233333333, "is_disabled": 0, "lat": 38.92009383333333, "fusion_lat": 0.0, "is_reserved": 0, "rental_uris": {"ios": "https://dc.lft.to/lastmile_qr_scan", "android": "https://dc.lft.to/lastmile_qr_scan"}, "fusion_lon": 0.0, "type": "electric_scooter", "bike_id": "fa1dc50bb6f99ef316e97c79c0593350", "name": "fa1dc50bb6f99ef316e97c79c0593350"}, {"lon": -77.00566633333334, "is_disabled": 0, "lat": 38.90565, "fusion_lat": 0.0, "is_reserved": 0, "rental_uris": {"ios": "https://dc.lft.to/lastmile_qr_scan", "android": "https://dc.lft.to/lastmile_qr_scan"}, "fusion_lon": 0.0, "type": "electric_scooter", "bike_id": "4b9ba4edc86b629d544ccff5133811d4", "name": "4b9ba4edc86b629d544ccff5133811d4"}, {"lon": -77.02279783333333, "is_disabled": 0, "lat": 38.914128166666664, "fusion_lat": 0.0, "is_reserved": 0, "rental_uris": {"ios": "https://dc.lft.to/lastmile_qr_scan", "android": "https://dc.lft.to/lastmile_qr_scan"}, "fusion_lon": 0.0, "type": "electric_scooter", "bike_id": "3da091fdcb28041024822c58014e34a5", "name": "3da091fdcb28041024822c58014e34a5"}, {"lon": -77.02835966666666, "is_disabled": 0, "lat": 38.887329666666666, "fusion_lat": 0.0, "is_reserved": 0, "rental_uris": {"ios": "https://dc.lft.to/lastmile_qr_scan", "android": "https://dc.lft.to/lastmile_qr_scan"}, "fusion_lon": 0.0, "type": "electric_scooter", "bike_id": "1d07b394bfc036aa9ab253d4fffd5330", "name": "1d07b394bfc036aa9ab253d4fffd5330"}, {"lon": -77.03183116666666, "is_disabled": 0, "lat": 38.91351016666667, "fusion_lat": 0.0, "is_reserved": 0, "rental_uris": {"ios": "https://dc.lft.to/lastmile_qr_scan", "android": "https://dc.lft.to/lastmile_qr_scan"}, "fusion_lon": 0.0, "type": "electric_scooter", "bike_id": "58e95195d208a05614b85bb4fc0250af", "name": "58e95195d208a05614b85bb4fc0250af"}, {"lon": -77.03176666666667, "is_disabled": 0, "lat": 38.91925033333333, "fusion_lat": 0.0, "is_reserved": 0, "rental_uris": {"ios": "https://dc.lft.to/lastmile_qr_scan", "android": "https://dc.lft.to/lastmile_qr_scan"}, "fusion_lon": 0.0, "type": "electric_scooter", "bike_id": "2d019624284782c9adc10da18f445cbe", "name": "2d019624284782c9adc10da18f445cbe"}, {"lon": -77.05884433333334, "is_disabled": 0, "lat": 38.93636, "fusion_lat": 0.0, "is_reserved": 0, "rental_uris": {"ios": "https://dc.lft.to/lastmile_qr_scan", "android": "https://dc.lft.to/lastmile_qr_scan"}, "fusion_lon": 0.0, "type": "electric_scooter", "bike_id": "dc5e5955280154beaa4d21dbf94fe5ab", "name": "dc5e5955280154beaa4d21dbf94fe5ab"}, {"lon": -77.03843666666667, "is_disabled": 0, "lat": 38.9115645, "fusion_lat": 0.0, "is_reserved": 0, "rental_uris": {"ios": "https://dc.lft.to/lastmile_qr_scan", "android": "https://dc.lft.to/lastmile_qr_scan"}, "fusion_lon": 0.0, "type": "electric_scooter", "bike_id": "efdfb3e60dee39fff5369f785bde7fdd", "name": "efdfb3e60dee39fff5369f785bde7fdd"}, {"lon": -77.0012785, "is_disabled": 0, "lat": 38.835812, "fusion_lat": 0.0, "is_reserved": 0, "rental_uris": {"ios": "https://dc.lft.to/lastmile_qr_scan", "android": "https://dc.lft.to/lastmile_qr_scan"}, "fusion_lon": 0.0, "type": "electric_scooter", "bike_id": "f09f32d61c1e253283010db699d551d0", "name": "f09f32d61c1e253283010db699d551d0"}, {"lon": -76.9979965, "is_disabled": 0, "lat": 38.908540333333335, "fusion_lat": 0.0, "is_reserved": 0, "rental_uris": {"ios": "https://dc.lft.to/lastmile_qr_scan", "android": "https://dc.lft.to/lastmile_qr_scan"}, "fusion_lon": 0.0, "type": "electric_scooter", "bike_id": "73d06ce1ca079f276cf7f4632f5d2f4d", "name": "73d06ce1ca079f276cf7f4632f5d2f4d"}, {"lon": -77.0269925, "is_disabled": 0, "lat": 38.90666566666667, "fusion_lat": 0.0, "is_reserved": 0, "rental_uris": {"ios": "https://dc.lft.to/lastmile_qr_scan", "android": "https://dc.lft.to/lastmile_qr_scan"}, "fusion_lon": 0.0, "type": "electric_scooter", "bike_id": "e892eeb237bb6b764c5a10f171b09b41", "name": "e892eeb237bb6b764c5a10f171b09b41"}, {"lon": -77.03611016666666, "is_disabled": 0, "lat": 38.934828, "fusion_lat": 0.0, "is_reserved": 0, "rental_uris": {"ios": "https://dc.lft.to/lastmile_qr_scan", "android": "https://dc.lft.to/lastmile_qr_scan"}, "fusion_lon": 0.0, "type": "electric_scooter", "bike_id": "13d778158f0099ab21c4aba1c4ac026f", "name": "13d778158f0099ab21c4aba1c4ac026f"}, {"lon": -77.0383455, "is_disabled": 0, "lat": 38.911439666666666, "fusion_lat": 0.0, "is_reserved": 0, "rental_uris": {"ios": "https://dc.lft.to/lastmile_qr_scan", "android": "https://dc.lft.to/lastmile_qr_scan"}, "fusion_lon": 0.0, "type": "electric_scooter", "bike_id": "dabc24a5d9a2083d4b607a1fd0887b0e", "name": "dabc24a5d9a2083d4b607a1fd0887b0e"}, {"lon": -77.0075615, "is_disabled": 0, "lat": 38.871116, "fusion_lat": 0.0, "is_reserved": 0, "rental_uris": {"ios": "https://dc.lft.to/lastmile_qr_scan", "android": "https://dc.lft.to/lastmile_qr_scan"}, "fusion_lon": 0.0, "type": "electric_scooter", "bike_id": "5579f83d7610e3d3d9e14bbf422c9c8e", "name": "5579f83d7610e3d3d9e14bbf422c9c8e"}, {"lon": -77.02979533333334, "is_disabled": 0, "lat": 38.934463666666666, "fusion_lat": 0.0, "is_reserved": 0, "rental_uris": {"ios": "https://dc.lft.to/lastmile_qr_scan", "android": "https://dc.lft.to/lastmile_qr_scan"}, "fusion_lon": 0.0, "type": "electric_scooter", "bike_id": "cc2fb1c5012daf78b9670e32ee54054d", "name": "cc2fb1c5012daf78b9670e32ee54054d"}, {"lon": -76.99652816666666, "is_disabled": 0, "lat": 38.8600675, "fusion_lat": 0.0, "is_reserved": 0, "rental_uris": {"ios": "https://dc.lft.to/lastmile_qr_scan", "android": "https://dc.lft.to/lastmile_qr_scan"}, "fusion_lon": 0.0, "type": "electric_scooter", "bike_id": "18ff83ea9c98de499c5c1970fab14ff2", "name": "18ff83ea9c98de499c5c1970fab14ff2"}, {"lon": -77.03389516666667, "is_disabled": 0, "lat": 38.938752, "fusion_lat": 0.0, "is_reserved": 0, "rental_uris": {"ios": "https://dc.lft.to/lastmile_qr_scan", "android": "https://dc.lft.to/lastmile_qr_scan"}, "fusion_lon": 0.0, "type": "electric_scooter", "bike_id": "1b2d1c075b3e6caab0e790ddf6f099ca", "name": "1b2d1c075b3e6caab0e790ddf6f099ca"}, {"lon": -77.03180183333333, "is_disabled": 0, "lat": 38.9248735, "fusion_lat": 0.0, "is_reserved": 0, "rental_uris": {"ios": "https://dc.lft.to/lastmile_qr_scan", "android": "https://dc.lft.to/lastmile_qr_scan"}, "fusion_lon": 0.0, "type": "electric_scooter", "bike_id": "b26c0fe83be736868f10308a6ba49e66", "name": "b26c0fe83be736868f10308a6ba49e66"}, {"lon": -77.05485416666667, "is_disabled": 0, "lat": 38.908621833333335, "fusion_lat": 0.0, "is_reserved": 0, "rental_uris": {"ios": "https://dc.lft.to/lastmile_qr_scan", "android": "https://dc.lft.to/lastmile_qr_scan"}, "fusion_lon": 0.0, "type": "electric_scooter", "bike_id": "ccb243e2fc526ca4872f9ba461182a67", "name": "ccb243e2fc526ca4872f9ba461182a67"}, {"lon": -77.02374116666667, "is_disabled": 0, "lat": 38.90728466666667, "fusion_lat": 0.0, "is_reserved": 0, "rental_uris": {"ios": "https://dc.lft.to/lastmile_qr_scan", "android": "https://dc.lft.to/lastmile_qr_scan"}, "fusion_lon": 0.0, "type": "electric_scooter", "bike_id": "baf57f39c941905e5c86fa41392264f2", "name": "baf57f39c941905e5c86fa41392264f2"}, {"lon": -77.02247533333333, "is_disabled": 0, "lat": 38.8962015, "fusion_lat": 0.0, "is_reserved": 0, "rental_uris": {"ios": "https://dc.lft.to/lastmile_qr_scan", "android": "https://dc.lft.to/lastmile_qr_scan"}, "fusion_lon": 0.0, "type": "electric_scooter", "bike_id": "87e7cc7322944b8dc96cbcecdf63d18f", "name": "87e7cc7322944b8dc96cbcecdf63d18f"}, {"lon": -77.00051483333333, "is_disabled": 0, "lat": 38.88860316666667, "fusion_lat": 0.0, "is_reserved": 0, "rental_uris": {"ios": "https://dc.lft.to/lastmile_qr_scan", "android": "https://dc.lft.to/lastmile_qr_scan"}, "fusion_lon": 0.0, "type": "electric_scooter", "bike_id": "e0ddb1f04ba9ca74d27df533eca1a9d7", "name": "e0ddb1f04ba9ca74d27df533eca1a9d7"}, {"lon": -76.93134766666667, "is_disabled": 0, "lat": 38.87647883333333, "fusion_lat": 0.0, "is_reserved": 0, "rental_uris": {"ios": "https://dc.lft.to/lastmile_qr_scan", "android": "https://dc.lft.to/lastmile_qr_scan"}, "fusion_lon": 0.0, "type": "electric_scooter", "bike_id": "7a974dfbba8ad2fec8516276b1806e64", "name": "7a974dfbba8ad2fec8516276b1806e64"}, {"lon": -77.00843766666667, "is_disabled": 0, "lat": 38.8768595, "fusion_lat": 0.0, "is_reserved": 0, "rental_uris": {"ios": "https://dc.lft.to/lastmile_qr_scan", "android": "https://dc.lft.to/lastmile_qr_scan"}, "fusion_lon": 0.0, "type": "electric_scooter", "bike_id": "3f7004dae25707f9861ee9ae459db5d7", "name": "3f7004dae25707f9861ee9ae459db5d7"}, {"lon": -77.0060565, "is_disabled": 0, "lat": 38.90248916666667, "fusion_lat": 0.0, "is_reserved": 0, "rental_uris": {"ios": "https://dc.lft.to/lastmile_qr_scan", "android": "https://dc.lft.to/lastmile_qr_scan"}, "fusion_lon": 0.0, "type": "electric_scooter", "bike_id": "860a3812f931f09d18032e9e036896ad", "name": "860a3812f931f09d18032e9e036896ad"}, {"lon": -77.117889, "is_disabled": 0, "lat": 39.054963666666666, "fusion_lat": 0.0, "is_reserved": 0, "rental_uris": {"ios": "https://dc.lft.to/lastmile_qr_scan", "android": "https://dc.lft.to/lastmile_qr_scan"}, "fusion_lon": 0.0, "type": "electric_bike", "bike_id": "78ef47784bd1d565886e20aaf32e091b", "name": "78ef47784bd1d565886e20aaf32e091b"}, {"lon": -76.95251383333333, "is_disabled": 0, "lat": 38.90696783333333, "fusion_lat": 0.0, "is_reserved": 0, "rental_uris": {"ios": "https://dc.lft.to/lastmile_qr_scan", "android": "https://dc.lft.to/lastmile_qr_scan"}, "fusion_lon": 0.0, "type": "electric_bike", "bike_id": "79192caeff547ecf2a90389d5a002bdd", "name": "79192caeff547ecf2a90389d5a002bdd"}, {"lon": -77.028505, "is_disabled": 0, "lat": 38.893361666666664, "fusion_lat": 0.0, "is_reserved": 0, "rental_uris": {"ios": "https://dc.lft.to/lastmile_qr_scan", "android": "https://dc.lft.to/lastmile_qr_scan"}, "fusion_lon": 0.0, "type": "electric_scooter", "bike_id": "a605b499f5cc6947a355b53f200ce7c6", "name": "a605b499f5cc6947a355b53f200ce7c6"}, {"lon": -77.025054, "is_disabled": 0, "lat": 38.94172916666667, "fusion_lat": 0.0, "is_reserved": 0, "rental_uris": {"ios": "https://dc.lft.to/lastmile_qr_scan", "android": "https://dc.lft.to/lastmile_qr_scan"}, "fusion_lon": 0.0, "type": "electric_bike", "bike_id": "552c259f1d909c533c004fd3c2135021", "name": "552c259f1d909c533c004fd3c2135021"}, {"lon": -77.02376783333334, "is_disabled": 0, "lat": 38.909560166666665, "fusion_lat": 0.0, "is_reserved": 0, "rental_uris": {"ios": "https://dc.lft.to/lastmile_qr_scan", "android": "https://dc.lft.to/lastmile_qr_scan"}, "fusion_lon": 0.0, "type": "electric_scooter", "bike_id": "e59aa6d4b971e3ab935af420d1adba1a", "name": "e59aa6d4b971e3ab935af420d1adba1a"}, {"lon": -77.00610816666666, "is_disabled": 0, "lat": 38.871777, "fusion_lat": 0.0, "is_reserved": 0, "rental_uris": {"ios": "https://dc.lft.to/lastmile_qr_scan", "android": "https://dc.lft.to/lastmile_qr_scan"}, "fusion_lon": 0.0, "type": "electric_scooter", "bike_id": "0f0a29948353a62562ebc96a2f6c3abf", "name": "0f0a29948353a62562ebc96a2f6c3abf"}, {"lon": -77.099601, "is_disabled": 0, "lat": 38.85786866666667, "fusion_lat": 0.0, "is_reserved": 0, "rental_uris": {"ios": "https://dc.lft.to/lastmile_qr_scan", "android": "https://dc.lft.to/lastmile_qr_scan"}, "fusion_lon": 0.0, "type": "electric_bike", "bike_id": "10e1302d7f5b970afdd99fac7eb4a9da", "name": "10e1302d7f5b970afdd99fac7eb4a9da"}, {"lon": -77.04368833333334, "is_disabled": 0, "lat": 38.89222, "fusion_lat": 0.0, "is_reserved": 0, "rental_uris": {"ios": "https://dc.lft.to/lastmile_qr_scan", "android": "https://dc.lft.to/lastmile_qr_scan"}, "fusion_lon": 0.0, "type": "electric_scooter", "bike_id": "e4b59790871ef3424e19ecce75caec6f", "name": "e4b59790871ef3424e19ecce75caec6f"}, {"lon": -77.01764566666667, "is_disabled": 0, "lat": 38.9204655, "fusion_lat": 0.0, "is_reserved": 0, "rental_uris": {"ios": "https://dc.lft.to/lastmile_qr_scan", "android": "https://dc.lft.to/lastmile_qr_scan"}, "fusion_lon": 0.0, "type": "electric_scooter", "bike_id": "5eca2daa90ba87500dbaf7c0f9441d2d", "name": "5eca2daa90ba87500dbaf7c0f9441d2d"}, {"lon": -76.94637966666667, "is_disabled": 0, "lat": 38.898610833333336, "fusion_lat": 0.0, "is_reserved": 0, "rental_uris": {"ios": "https://dc.lft.to/lastmile_qr_scan", "android": "https://dc.lft.to/lastmile_qr_scan"}, "fusion_lon": 0.0, "type": "electric_scooter", "bike_id": "fe97fce1e66da25679d02d533c0ecea2", "name": "fe97fce1e66da25679d02d533c0ecea2"}, {"lon": -77.02315416666667, "is_disabled": 0, "lat": 38.907296333333335, "fusion_lat": 0.0, "is_reserved": 0, "rental_uris": {"ios": "https://dc.lft.to/lastmile_qr_scan", "android": "https://dc.lft.to/lastmile_qr_scan"}, "fusion_lon": 0.0, "type": "electric_scooter", "bike_id": "c4776fca02aef896b431df9474b60082", "name": "c4776fca02aef896b431df9474b60082"}, {"lon": -77.00809183333334, "is_disabled": 0, "lat": 38.8785315, "fusion_lat": 0.0, "is_reserved": 0, "rental_uris": {"ios": "https://dc.lft.to/lastmile_qr_scan", "android": "https://dc.lft.to/lastmile_qr_scan"}, "fusion_lon": 0.0, "type": "electric_scooter", "bike_id": "15f72d12f40ce1344882a8c5304b85f0", "name": "15f72d12f40ce1344882a8c5304b85f0"}, {"lon": -77.0705845, "is_disabled": 0, "lat": 38.901058166666665, "fusion_lat": 0.0, "is_reserved": 0, "rental_uris": {"ios": "https://dc.lft.to/lastmile_qr_scan", "android": "https://dc.lft.to/lastmile_qr_scan"}, "fusion_lon": 0.0, "type": "electric_scooter", "bike_id": "b6eeb110e381c89f88da23eb62e8d265", "name": "b6eeb110e381c89f88da23eb62e8d265"}, {"lon": -77.03979083333333, "is_disabled": 0, "lat": 38.89219283333333, "fusion_lat": 0.0, "is_reserved": 0, "rental_uris": {"ios": "https://dc.lft.to/lastmile_qr_scan", "android": "https://dc.lft.to/lastmile_qr_scan"}, "fusion_lon": 0.0, "type": "electric_scooter", "bike_id": "fbd5ce2aa6b96ae95dbb2ab943fd7a52", "name": "fbd5ce2aa6b96ae95dbb2ab943fd7a52"}, {"lon": -77.02195983333333, "is_disabled": 0, "lat": 38.950090833333334, "fusion_lat": 0.0, "is_reserved": 0, "rental_uris": {"ios": "https://dc.lft.to/lastmile_qr_scan", "android": "https://dc.lft.to/lastmile_qr_scan"}, "fusion_lon": 0.0, "type": "electric_scooter", "bike_id": "6b3aa3561f5be900e8f09303a7da12ea", "name": "6b3aa3561f5be900e8f09303a7da12ea"}, {"lon": -77.05026166666667, "is_disabled": 0, "lat": 38.892463, "fusion_lat": 0.0, "is_reserved": 0, "rental_uris": {"ios": "https://dc.lft.to/lastmile_qr_scan", "android": "https://dc.lft.to/lastmile_qr_scan"}, "fusion_lon": 0.0, "type": "electric_scooter", "bike_id": "04df991af983a03b63ad7537e3b7459a", "name": "04df991af983a03b63ad7537e3b7459a"}, {"lon": -76.96529816666667, "is_disabled": 0, "lat": 38.87481233333333, "fusion_lat": 0.0, "is_reserved": 0, "rental_uris": {"ios": "https://dc.lft.to/lastmile_qr_scan", "android": "https://dc.lft.to/lastmile_qr_scan"}, "fusion_lon": 0.0, "type": "electric_bike", "bike_id": "b504ad03f93974caf2f09607a9e0d5da", "name": "b504ad03f93974caf2f09607a9e0d5da"}, {"lon": -77.02308433333333, "is_disabled": 0, "lat": 38.915987333333334, "fusion_lat": 0.0, "is_reserved": 0, "rental_uris": {"ios": "https://dc.lft.to/lastmile_qr_scan", "android": "https://dc.lft.to/lastmile_qr_scan"}, "fusion_lon": 0.0, "type": "electric_scooter", "bike_id": "8db4d90e8b4d7af23d35368fc9dda905", "name": "8db4d90e8b4d7af23d35368fc9dda905"}, {"lon": -77.02294483333333, "is_disabled": 0, "lat": 38.901287833333335, "fusion_lat": 0.0, "is_reserved": 0, "rental_uris": {"ios": "https://dc.lft.to/lastmile_qr_scan", "android": "https://dc.lft.to/lastmile_qr_scan"}, "fusion_lon": 0.0, "type": "electric_scooter", "bike_id": "606a6b575786e7cd631e535f6ce4cb27", "name": "606a6b575786e7cd631e535f6ce4cb27"}, {"lon": -77.03329583333333, "is_disabled": 0, "lat": 38.9287245, "fusion_lat": 0.0, "is_reserved": 0, "rental_uris": {"ios": "https://dc.lft.to/lastmile_qr_scan", "android": "https://dc.lft.to/lastmile_qr_scan"}, "fusion_lon": 0.0, "type": "electric_scooter", "bike_id": "c60d06f7e39b14188953563d935917b5", "name": "c60d06f7e39b14188953563d935917b5"}, {"lon": -76.9790555, "is_disabled": 0, "lat": 38.904271, "fusion_lat": 0.0, "is_reserved": 0, "rental_uris": {"ios": "https://dc.lft.to/lastmile_qr_scan", "android": "https://dc.lft.to/lastmile_qr_scan"}, "fusion_lon": 0.0, "type": "electric_scooter", "bike_id": "7a1dd45b5fbe772309e8fbda016b41ae", "name": "7a1dd45b5fbe772309e8fbda016b41ae"}, {"lon": -77.01694933333333, "is_disabled": 0, "lat": 38.90755933333333, "fusion_lat": 0.0, "is_reserved": 0, "rental_uris": {"ios": "https://dc.lft.to/lastmile_qr_scan", "android": "https://dc.lft.to/lastmile_qr_scan"}, "fusion_lon": 0.0, "type": "electric_scooter", "bike_id": "f2267d1c9aa70f1d7ec0a3a8c3ad38a5", "name": "f2267d1c9aa70f1d7ec0a3a8c3ad38a5"}, {"lon": -76.988421, "is_disabled": 0, "lat": 38.900240833333335, "fusion_lat": 0.0, "is_reserved": 0, "rental_uris": {"ios": "https://dc.lft.to/lastmile_qr_scan", "android": "https://dc.lft.to/lastmile_qr_scan"}, "fusion_lon": 0.0, "type": "electric_scooter", "bike_id": "cb42779378ec227493702657f2d89f82", "name": "cb42779378ec227493702657f2d89f82"}, {"lon": -77.04226333333334, "is_disabled": 0, "lat": 38.901253833333335, "fusion_lat": 0.0, "is_reserved": 0, "rental_uris": {"ios": "https://dc.lft.to/lastmile_qr_scan", "android": "https://dc.lft.to/lastmile_qr_scan"}, "fusion_lon": 0.0, "type": "electric_scooter", "bike_id": "32be82bf019e7f0a77605d6f12474a43", "name": "32be82bf019e7f0a77605d6f12474a43"}, {"lon": -77.0285475, "is_disabled": 0, "lat": 38.92678683333333, "fusion_lat": 0.0, "is_reserved": 0, "rental_uris": {"ios": "https://dc.lft.to/lastmile_qr_scan", "android": "https://dc.lft.to/lastmile_qr_scan"}, "fusion_lon": 0.0, "type": "electric_scooter", "bike_id": "9ebd33e50682f4d369693a93c57a3857", "name": "9ebd33e50682f4d369693a93c57a3857"}, {"lon": -77.0365655, "is_disabled": 0, "lat": 38.941952, "fusion_lat": 0.0, "is_reserved": 0, "rental_uris": {"ios": "https://dc.lft.to/lastmile_qr_scan", "android": "https://dc.lft.to/lastmile_qr_scan"}, "fusion_lon": 0.0, "type": "electric_scooter", "bike_id": "1b7113d93b2b67ecd684fa1cfde4ddc2", "name": "1b7113d93b2b67ecd684fa1cfde4ddc2"}, {"lon": -77.03337716666667, "is_disabled": 0, "lat": 38.8982795, "fusion_lat": 0.0, "is_reserved": 0, "rental_uris": {"ios": "https://dc.lft.to/lastmile_qr_scan", "android": "https://dc.lft.to/lastmile_qr_scan"}, "fusion_lon": 0.0, "type": "electric_scooter", "bike_id": "30603f1268753b0287ae02eb90167035", "name": "30603f1268753b0287ae02eb90167035"}, {"lon": -77.03262433333333, "is_disabled": 0, "lat": 38.93575233333333, "fusion_lat": 0.0, "is_reserved": 0, "rental_uris": {"ios": "https://dc.lft.to/lastmile_qr_scan", "android": "https://dc.lft.to/lastmile_qr_scan"}, "fusion_lon": 0.0, "type": "electric_scooter", "bike_id": "dcace5da52b9042a17d3c1228f5a591e", "name": "dcace5da52b9042a17d3c1228f5a591e"}, {"lon": -77.06948916666667, "is_disabled": 0, "lat": 38.9953175, "fusion_lat": 0.0, "is_reserved": 0, "rental_uris": {"ios": "https://dc.lft.to/lastmile_qr_scan", "android": "https://dc.lft.to/lastmile_qr_scan"}, "fusion_lon": 0.0, "type": "electric_bike", "bike_id": "b915ac81292c3019b499bf8945369dec", "name": "b915ac81292c3019b499bf8945369dec"}, {"lon": -76.98222566666666, "is_disabled": 0, "lat": 38.866221833333334, "fusion_lat": 0.0, "is_reserved": 0, "rental_uris": {"ios": "https://dc.lft.to/lastmile_qr_scan", "android": "https://dc.lft.to/lastmile_qr_scan"}, "fusion_lon": 0.0, "type": "electric_scooter", "bike_id": "086719e511aaebcdb1c3419d0cbf6af5", "name": "086719e511aaebcdb1c3419d0cbf6af5"}, {"lon": -77.01239266666667, "is_disabled": 0, "lat": 38.915715166666665, "fusion_lat": 0.0, "is_reserved": 0, "rental_uris": {"ios": "https://dc.lft.to/lastmile_qr_scan", "android": "https://dc.lft.to/lastmile_qr_scan"}, "fusion_lon": 0.0, "type": "electric_scooter", "bike_id": "62df3a7eb8705a88a1b5f5f0ecf04f77", "name": "62df3a7eb8705a88a1b5f5f0ecf04f77"}, {"lon": -77.02481566666667, "is_disabled": 0, "lat": 38.938816, "fusion_lat": 0.0, "is_reserved": 0, "rental_uris": {"ios": "https://dc.lft.to/lastmile_qr_scan", "android": "https://dc.lft.to/lastmile_qr_scan"}, "fusion_lon": 0.0, "type": "electric_scooter", "bike_id": "24f0e57b41867ec5f31494468625711c", "name": "24f0e57b41867ec5f31494468625711c"}, {"lon": -76.99451183333333, "is_disabled": 0, "lat": 38.90027516666667, "fusion_lat": 0.0, "is_reserved": 0, "rental_uris": {"ios": "https://dc.lft.to/lastmile_qr_scan", "android": "https://dc.lft.to/lastmile_qr_scan"}, "fusion_lon": 0.0, "type": "electric_scooter", "bike_id": "97f820b12880e9620acf1abfa8346878", "name": "97f820b12880e9620acf1abfa8346878"}, {"lon": -77.04531833333333, "is_disabled": 0, "lat": 38.89950866666667, "fusion_lat": 0.0, "is_reserved": 0, "rental_uris": {"ios": "https://dc.lft.to/lastmile_qr_scan", "android": "https://dc.lft.to/lastmile_qr_scan"}, "fusion_lon": 0.0, "type": "electric_scooter", "bike_id": "6d08b5aac3aa0db201dd9750c90db1c6", "name": "6d08b5aac3aa0db201dd9750c90db1c6"}, {"lon": -77.036239, "is_disabled": 0, "lat": 38.914719166666664, "fusion_lat": 0.0, "is_reserved": 0, "rental_uris": {"ios": "https://dc.lft.to/lastmile_qr_scan", "android": "https://dc.lft.to/lastmile_qr_scan"}, "fusion_lon": 0.0, "type": "electric_scooter", "bike_id": "9def40f61c1df8d888ccf0d80e664092", "name": "9def40f61c1df8d888ccf0d80e664092"}, {"lon": -76.955402, "is_disabled": 0, "lat": 38.94797416666667, "fusion_lat": 0.0, "is_reserved": 0, "rental_uris": {"ios": "https://dc.lft.to/lastmile_qr_scan", "android": "https://dc.lft.to/lastmile_qr_scan"}, "fusion_lon": 0.0, "type": "electric_bike", "bike_id": "83428f24607d40445ae2611ab629590f", "name": "83428f24607d40445ae2611ab629590f"}, {"lon": -77.04662783333333, "is_disabled": 0, "lat": 38.898779, "fusion_lat": 0.0, "is_reserved": 0, "rental_uris": {"ios": "https://dc.lft.to/lastmile_qr_scan", "android": "https://dc.lft.to/lastmile_qr_scan"}, "fusion_lon": 0.0, "type": "electric_scooter", "bike_id": "f7e5dc123d5352be3f66a3cfcff4723c", "name": "f7e5dc123d5352be3f66a3cfcff4723c"}, {"lon": -77.03204133333334, "is_disabled": 0, "lat": 38.913275666666664, "fusion_lat": 0.0, "is_reserved": 0, "rental_uris": {"ios": "https://dc.lft.to/lastmile_qr_scan", "android": "https://dc.lft.to/lastmile_qr_scan"}, "fusion_lon": 0.0, "type": "electric_scooter", "bike_id": "c60a1c93a646c367d97761dafb4fbd7e", "name": "c60a1c93a646c367d97761dafb4fbd7e"}, {"lon": -77.03635083333333, "is_disabled": 0, "lat": 38.93059133333333, "fusion_lat": 0.0, "is_reserved": 0, "rental_uris": {"ios": "https://dc.lft.to/lastmile_qr_scan", "android": "https://dc.lft.to/lastmile_qr_scan"}, "fusion_lon": 0.0, "type": "electric_scooter", "bike_id": "f687d86a149e114b1ee7aa20d59395bf", "name": "f687d86a149e114b1ee7aa20d59395bf"}, {"lon": -77.02722616666667, "is_disabled": 0, "lat": 38.898361333333334, "fusion_lat": 0.0, "is_reserved": 0, "rental_uris": {"ios": "https://dc.lft.to/lastmile_qr_scan", "android": "https://dc.lft.to/lastmile_qr_scan"}, "fusion_lon": 0.0, "type": "electric_scooter", "bike_id": "68049182515220edb4ee4531bb038398", "name": "68049182515220edb4ee4531bb038398"}, {"lon": -77.02727533333334, "is_disabled": 0, "lat": 38.955826333333334, "fusion_lat": 0.0, "is_reserved": 0, "rental_uris": {"ios": "https://dc.lft.to/lastmile_qr_scan", "android": "https://dc.lft.to/lastmile_qr_scan"}, "fusion_lon": 0.0, "type": "electric_scooter", "bike_id": "e83635590e6e3c860da07b3b45f4efdc", "name": "e83635590e6e3c860da07b3b45f4efdc"}, {"lon": -76.9900415, "is_disabled": 0, "lat": 38.865055, "fusion_lat": 0.0, "is_reserved": 0, "rental_uris": {"ios": "https://dc.lft.to/lastmile_qr_scan", "android": "https://dc.lft.to/lastmile_qr_scan"}, "fusion_lon": 0.0, "type": "electric_scooter", "bike_id": "af589258da9437f694d54d4a3a2545db", "name": "af589258da9437f694d54d4a3a2545db"}, {"lon": -77.02981516666667, "is_disabled": 0, "lat": 38.9278385, "fusion_lat": 0.0, "is_reserved": 0, "rental_uris": {"ios": "https://dc.lft.to/lastmile_qr_scan", "android": "https://dc.lft.to/lastmile_qr_scan"}, "fusion_lon": 0.0, "type": "electric_bike", "bike_id": "c0237f0e3c803918fe132d19d10a0504", "name": "c0237f0e3c803918fe132d19d10a0504"}, {"lon": -77.02609466666667, "is_disabled": 0, "lat": 38.91416383333333, "fusion_lat": 0.0, "is_reserved": 0, "rental_uris": {"ios": "https://dc.lft.to/lastmile_qr_scan", "android": "https://dc.lft.to/lastmile_qr_scan"}, "fusion_lon": 0.0, "type": "electric_scooter", "bike_id": "757d64020409ac0370960e1a23728ed3", "name": "757d64020409ac0370960e1a23728ed3"}, {"lon": -77.08305883333334, "is_disabled": 0, "lat": 38.854363, "fusion_lat": 0.0, "is_reserved": 0, "rental_uris": {"ios": "https://dc.lft.to/lastmile_qr_scan", "android": "https://dc.lft.to/lastmile_qr_scan"}, "fusion_lon": 0.0, "type": "electric_bike", "bike_id": "ead346a9b00e2334c3750c903376e290", "name": "ead346a9b00e2334c3750c903376e290"}, {"lon": -77.02419616666667, "is_disabled": 0, "lat": 38.920471, "fusion_lat": 0.0, "is_reserved": 0, "rental_uris": {"ios": "https://dc.lft.to/lastmile_qr_scan", "android": "https://dc.lft.to/lastmile_qr_scan"}, "fusion_lon": 0.0, "type": "electric_scooter", "bike_id": "ac13d07e873cf821350e562b677d845c", "name": "ac13d07e873cf821350e562b677d845c"}, {"lon": -77.02646683333333, "is_disabled": 0, "lat": 38.93007566666667, "fusion_lat": 0.0, "is_reserved": 0, "rental_uris": {"ios": "https://dc.lft.to/lastmile_qr_scan", "android": "https://dc.lft.to/lastmile_qr_scan"}, "fusion_lon": 0.0, "type": "electric_scooter", "bike_id": "88e9fa5202e13fe09317aea48cd04578", "name": "88e9fa5202e13fe09317aea48cd04578"}, {"lon": -77.0296075, "is_disabled": 0, "lat": 38.904757333333336, "fusion_lat": 0.0, "is_reserved": 0, "rental_uris": {"ios": "https://dc.lft.to/lastmile_qr_scan", "android": "https://dc.lft.to/lastmile_qr_scan"}, "fusion_lon": 0.0, "type": "electric_scooter", "bike_id": "9b6acfef225e48ef018a7711ad3a4a02", "name": "9b6acfef225e48ef018a7711ad3a4a02"}, {"lon": -77.22925283333333, "is_disabled": 0, "lat": 38.93194866666666, "fusion_lat": 0.0, "is_reserved": 0, "rental_uris": {"ios": "https://dc.lft.to/lastmile_qr_scan", "android": "https://dc.lft.to/lastmile_qr_scan"}, "fusion_lon": 0.0, "type": "electric_bike", "bike_id": "ea67248976f8caa3cf1d2ea3d81e83c3", "name": "ea67248976f8caa3cf1d2ea3d81e83c3"}, {"lon": -77.02712083333333, "is_disabled": 0, "lat": 38.9276285, "fusion_lat": 0.0, "is_reserved": 0, "rental_uris": {"ios": "https://dc.lft.to/lastmile_qr_scan", "android": "https://dc.lft.to/lastmile_qr_scan"}, "fusion_lon": 0.0, "type": "electric_scooter", "bike_id": "4b0af3d3608c6d77ab2926fa36b25837", "name": "4b0af3d3608c6d77ab2926fa36b25837"}, {"lon": -77.03758533333334, "is_disabled": 0, "lat": 38.92317216666667, "fusion_lat": 0.0, "is_reserved": 0, "rental_uris": {"ios": "https://dc.lft.to/lastmile_qr_scan", "android": "https://dc.lft.to/lastmile_qr_scan"}, "fusion_lon": 0.0, "type": "electric_scooter", "bike_id": "9f684841eecde4d6ff77b8bee43489f5", "name": "9f684841eecde4d6ff77b8bee43489f5"}, {"lon": -77.024055, "is_disabled": 0, "lat": 38.91401116666667, "fusion_lat": 0.0, "is_reserved": 0, "rental_uris": {"ios": "https://dc.lft.to/lastmile_qr_scan", "android": "https://dc.lft.to/lastmile_qr_scan"}, "fusion_lon": 0.0, "type": "electric_scooter", "bike_id": "0811a36726acd3a165f44bfd09a00bd0", "name": "0811a36726acd3a165f44bfd09a00bd0"}, {"lon": -77.02763933333334, "is_disabled": 0, "lat": 38.916908166666666, "fusion_lat": 0.0, "is_reserved": 0, "rental_uris": {"ios": "https://dc.lft.to/lastmile_qr_scan", "android": "https://dc.lft.to/lastmile_qr_scan"}, "fusion_lon": 0.0, "type": "electric_scooter", "bike_id": "dda45b14a129d32337cf157a23d889de", "name": "dda45b14a129d32337cf157a23d889de"}, {"lon": -77.04283416666667, "is_disabled": 0, "lat": 38.906494, "fusion_lat": 0.0, "is_reserved": 0, "rental_uris": {"ios": "https://dc.lft.to/lastmile_qr_scan", "android": "https://dc.lft.to/lastmile_qr_scan"}, "fusion_lon": 0.0, "type": "electric_scooter", "bike_id": "680bfd43dc855065f39e9128c9dbc024", "name": "680bfd43dc855065f39e9128c9dbc024"}, {"lon": -76.951891, "is_disabled": 0, "lat": 38.8913385, "fusion_lat": 0.0, "is_reserved": 0, "rental_uris": {"ios": "https://dc.lft.to/lastmile_qr_scan", "android": "https://dc.lft.to/lastmile_qr_scan"}, "fusion_lon": 0.0, "type": "electric_scooter", "bike_id": "0ab89a0160fab38e6422dd2d55720f6b", "name": "0ab89a0160fab38e6422dd2d55720f6b"}, {"lon": -77.02384716666667, "is_disabled": 0, "lat": 38.89852316666666, "fusion_lat": 0.0, "is_reserved": 0, "rental_uris": {"ios": "https://dc.lft.to/lastmile_qr_scan", "android": "https://dc.lft.to/lastmile_qr_scan"}, "fusion_lon": 0.0, "type": "electric_scooter", "bike_id": "ae5638ccf4ffd103d52a241d27e9386d", "name": "ae5638ccf4ffd103d52a241d27e9386d"}, {"lon": -77.02384766666667, "is_disabled": 0, "lat": 38.9114585, "fusion_lat": 0.0, "is_reserved": 0, "rental_uris": {"ios": "https://dc.lft.to/lastmile_qr_scan", "android": "https://dc.lft.to/lastmile_qr_scan"}, "fusion_lon": 0.0, "type": "electric_scooter", "bike_id": "d11eb39c33d495a6eb176295c7b94e9b", "name": "d11eb39c33d495a6eb176295c7b94e9b"}, {"lon": -77.04141866666667, "is_disabled": 0, "lat": 38.9168135, "fusion_lat": 0.0, "is_reserved": 0, "rental_uris": {"ios": "https://dc.lft.to/lastmile_qr_scan", "android": "https://dc.lft.to/lastmile_qr_scan"}, "fusion_lon": 0.0, "type": "electric_scooter", "bike_id": "9e2333a6e1553690946daecc02777bb9", "name": "9e2333a6e1553690946daecc02777bb9"}, {"lon": -77.01890116666667, "is_disabled": 0, "lat": 38.9398925, "fusion_lat": 0.0, "is_reserved": 0, "rental_uris": {"ios": "https://dc.lft.to/lastmile_qr_scan", "android": "https://dc.lft.to/lastmile_qr_scan"}, "fusion_lon": 0.0, "type": "electric_scooter", "bike_id": "1054af909b966766cc769fabc77b05e6", "name": "1054af909b966766cc769fabc77b05e6"}, {"lon": -76.98236316666667, "is_disabled": 0, "lat": 38.908885, "fusion_lat": 0.0, "is_reserved": 0, "rental_uris": {"ios": "https://dc.lft.to/lastmile_qr_scan", "android": "https://dc.lft.to/lastmile_qr_scan"}, "fusion_lon": 0.0, "type": "electric_scooter", "bike_id": "9de0096449caf43dc631be66b76bda4a", "name": "9de0096449caf43dc631be66b76bda4a"}, {"lon": -77.00710266666667, "is_disabled": 0, "lat": 38.879029333333335, "fusion_lat": 0.0, "is_reserved": 0, "rental_uris": {"ios": "https://dc.lft.to/lastmile_qr_scan", "android": "https://dc.lft.to/lastmile_qr_scan"}, "fusion_lon": 0.0, "type": "electric_scooter", "bike_id": "fad8ff763709051c4b168ae375773f9f", "name": "fad8ff763709051c4b168ae375773f9f"}, {"lon": -77.00051283333333, "is_disabled": 0, "lat": 38.900310833333336, "fusion_lat": 0.0, "is_reserved": 0, "rental_uris": {"ios": "https://dc.lft.to/lastmile_qr_scan", "android": "https://dc.lft.to/lastmile_qr_scan"}, "fusion_lon": 0.0, "type": "electric_scooter", "bike_id": "5a4349c0c4122c30ab42f54c50f7594d", "name": "5a4349c0c4122c30ab42f54c50f7594d"}, {"lon": -77.044536, "is_disabled": 0, "lat": 38.897284166666665, "fusion_lat": 0.0, "is_reserved": 0, "rental_uris": {"ios": "https://dc.lft.to/lastmile_qr_scan", "android": "https://dc.lft.to/lastmile_qr_scan"}, "fusion_lon": 0.0, "type": "electric_scooter", "bike_id": "bd8c7ce32884957c38c429408ae7b475", "name": "bd8c7ce32884957c38c429408ae7b475"}, {"lon": -77.0254555, "is_disabled": 0, "lat": 38.920825, "fusion_lat": 0.0, "is_reserved": 0, "rental_uris": {"ios": "https://dc.lft.to/lastmile_qr_scan", "android": "https://dc.lft.to/lastmile_qr_scan"}, "fusion_lon": 0.0, "type": "electric_scooter", "bike_id": "14e1a677c980d2f537a33fa64db1f129", "name": "14e1a677c980d2f537a33fa64db1f129"}, {"lon": -77.00718066666667, "is_disabled": 0, "lat": 38.90366433333333, "fusion_lat": 0.0, "is_reserved": 0, "rental_uris": {"ios": "https://dc.lft.to/lastmile_qr_scan", "android": "https://dc.lft.to/lastmile_qr_scan"}, "fusion_lon": 0.0, "type": "electric_scooter", "bike_id": "15273f423b4ef23947886fa24b31f2ea", "name": "15273f423b4ef23947886fa24b31f2ea"}, {"lon": -77.04017033333334, "is_disabled": 0, "lat": 38.9224035, "fusion_lat": 0.0, "is_reserved": 0, "rental_uris": {"ios": "https://dc.lft.to/lastmile_qr_scan", "android": "https://dc.lft.to/lastmile_qr_scan"}, "fusion_lon": 0.0, "type": "electric_scooter", "bike_id": "5e51481dace35d7d7992e4635197c9a0", "name": "5e51481dace35d7d7992e4635197c9a0"}, {"lon": -77.00624733333333, "is_disabled": 0, "lat": 38.8717375, "fusion_lat": 0.0, "is_reserved": 0, "rental_uris": {"ios": "https://dc.lft.to/lastmile_qr_scan", "android": "https://dc.lft.to/lastmile_qr_scan"}, "fusion_lon": 0.0, "type": "electric_scooter", "bike_id": "2b128f7a5378302415e62d730ff94d0f", "name": "2b128f7a5378302415e62d730ff94d0f"}, {"lon": -77.033736, "is_disabled": 0, "lat": 38.92153316666667, "fusion_lat": 0.0, "is_reserved": 0, "rental_uris": {"ios": "https://dc.lft.to/lastmile_qr_scan", "android": "https://dc.lft.to/lastmile_qr_scan"}, "fusion_lon": 0.0, "type": "electric_scooter", "bike_id": "b633b1e14705c5e0c58e3bf4b78e97a1", "name": "b633b1e14705c5e0c58e3bf4b78e97a1"}, {"lon": -77.03196283333334, "is_disabled": 0, "lat": 38.920585, "fusion_lat": 0.0, "is_reserved": 0, "rental_uris": {"ios": "https://dc.lft.to/lastmile_qr_scan", "android": "https://dc.lft.to/lastmile_qr_scan"}, "fusion_lon": 0.0, "type": "electric_scooter", "bike_id": "7f70375772650b8c1dec20731725eeba", "name": "7f70375772650b8c1dec20731725eeba"}, {"lon": -77.0245825, "is_disabled": 0, "lat": 38.90862083333333, "fusion_lat": 0.0, "is_reserved": 0, "rental_uris": {"ios": "https://dc.lft.to/lastmile_qr_scan", "android": "https://dc.lft.to/lastmile_qr_scan"}, "fusion_lon": 0.0, "type": "electric_scooter", "bike_id": "891c5915a29e586a1436186affea849a", "name": "891c5915a29e586a1436186affea849a"}, {"lon": -77.0601775, "is_disabled": 0, "lat": 38.94453, "fusion_lat": 0.0, "is_reserved": 0, "rental_uris": {"ios": "https://dc.lft.to/lastmile_qr_scan", "android": "https://dc.lft.to/lastmile_qr_scan"}, "fusion_lon": 0.0, "type": "electric_scooter", "bike_id": "96092cb0a5d23067cf1847c137f80e69", "name": "96092cb0a5d23067cf1847c137f80e69"}, {"lon": -77.0349725, "is_disabled": 0, "lat": 38.932706833333334, "fusion_lat": 0.0, "is_reserved": 0, "rental_uris": {"ios": "https://dc.lft.to/lastmile_qr_scan", "android": "https://dc.lft.to/lastmile_qr_scan"}, "fusion_lon": 0.0, "type": "electric_scooter", "bike_id": "1193187c74092f32613cb72214045cf3", "name": "1193187c74092f32613cb72214045cf3"}, {"lon": -77.03165916666667, "is_disabled": 0, "lat": 38.89227316666667, "fusion_lat": 0.0, "is_reserved": 0, "rental_uris": {"ios": "https://dc.lft.to/lastmile_qr_scan", "android": "https://dc.lft.to/lastmile_qr_scan"}, "fusion_lon": 0.0, "type": "electric_scooter", "bike_id": "04464d4c52263bdf36063c04390748c0", "name": "04464d4c52263bdf36063c04390748c0"}, {"lon": -77.02955416666667, "is_disabled": 0, "lat": 38.91177183333333, "fusion_lat": 0.0, "is_reserved": 0, "rental_uris": {"ios": "https://dc.lft.to/lastmile_qr_scan", "android": "https://dc.lft.to/lastmile_qr_scan"}, "fusion_lon": 0.0, "type": "electric_scooter", "bike_id": "654e0ecdeda44ea34df3dde0f139ee9e", "name": "654e0ecdeda44ea34df3dde0f139ee9e"}, {"lon": -77.07161983333333, "is_disabled": 0, "lat": 38.93821633333334, "fusion_lat": 0.0, "is_reserved": 0, "rental_uris": {"ios": "https://dc.lft.to/lastmile_qr_scan", "android": "https://dc.lft.to/lastmile_qr_scan"}, "fusion_lon": 0.0, "type": "electric_scooter", "bike_id": "dcb0b60cd42c42af65496f13318dc364", "name": "dcb0b60cd42c42af65496f13318dc364"}, {"lon": -77.12526266666667, "is_disabled": 0, "lat": 39.056334666666665, "fusion_lat": 0.0, "is_reserved": 0, "rental_uris": {"ios": "https://dc.lft.to/lastmile_qr_scan", "android": "https://dc.lft.to/lastmile_qr_scan"}, "fusion_lon": 0.0, "type": "electric_bike", "bike_id": "ef97559b0206eb0169fa3f55d76af456", "name": "ef97559b0206eb0169fa3f55d76af456"}, {"lon": -77.06507216666667, "is_disabled": 0, "lat": 38.90401383333333, "fusion_lat": 0.0, "is_reserved": 0, "rental_uris": {"ios": "https://dc.lft.to/lastmile_qr_scan", "android": "https://dc.lft.to/lastmile_qr_scan"}, "fusion_lon": 0.0, "type": "electric_scooter", "bike_id": "9c0f9a490a60fa952ccbfb65d9946b4a", "name": "9c0f9a490a60fa952ccbfb65d9946b4a"}, {"lon": -77.03866566666666, "is_disabled": 0, "lat": 38.911796833333334, "fusion_lat": 0.0, "is_reserved": 0, "rental_uris": {"ios": "https://dc.lft.to/lastmile_qr_scan", "android": "https://dc.lft.to/lastmile_qr_scan"}, "fusion_lon": 0.0, "type": "electric_scooter", "bike_id": "0acbb9cc07694c924106e51a5a1acdce", "name": "0acbb9cc07694c924106e51a5a1acdce"}, {"lon": -77.05716983333333, "is_disabled": 0, "lat": 38.93374416666666, "fusion_lat": 0.0, "is_reserved": 0, "rental_uris": {"ios": "https://dc.lft.to/lastmile_qr_scan", "android": "https://dc.lft.to/lastmile_qr_scan"}, "fusion_lon": 0.0, "type": "electric_scooter", "bike_id": "ce5c4b9851ba478145f8dae3753b3fb6", "name": "ce5c4b9851ba478145f8dae3753b3fb6"}, {"lon": -77.03658133333333, "is_disabled": 0, "lat": 38.921606833333335, "fusion_lat": 0.0, "is_reserved": 0, "rental_uris": {"ios": "https://dc.lft.to/lastmile_qr_scan", "android": "https://dc.lft.to/lastmile_qr_scan"}, "fusion_lon": 0.0, "type": "electric_scooter", "bike_id": "21072384d3a0578b5614c7c6cf91cb7f", "name": "21072384d3a0578b5614c7c6cf91cb7f"}, {"lon": -77.0235715, "is_disabled": 0, "lat": 38.90959816666667, "fusion_lat": 0.0, "is_reserved": 0, "rental_uris": {"ios": "https://dc.lft.to/lastmile_qr_scan", "android": "https://dc.lft.to/lastmile_qr_scan"}, "fusion_lon": 0.0, "type": "electric_scooter", "bike_id": "e823ab948ae01733ab582dde1c891c4e", "name": "e823ab948ae01733ab582dde1c891c4e"}, {"lon": -77.03860566666667, "is_disabled": 0, "lat": 38.9171275, "fusion_lat": 0.0, "is_reserved": 0, "rental_uris": {"ios": "https://dc.lft.to/lastmile_qr_scan", "android": "https://dc.lft.to/lastmile_qr_scan"}, "fusion_lon": 0.0, "type": "electric_scooter", "bike_id": "531cc386d4adbb8a7805779e3844bc11", "name": "531cc386d4adbb8a7805779e3844bc11"}, {"lon": -77.0208765, "is_disabled": 0, "lat": 38.92703983333333, "fusion_lat": 0.0, "is_reserved": 0, "rental_uris": {"ios": "https://dc.lft.to/lastmile_qr_scan", "android": "https://dc.lft.to/lastmile_qr_scan"}, "fusion_lon": 0.0, "type": "electric_scooter", "bike_id": "013dfb86ca2fcbbf4a3731ad1c31f800", "name": "013dfb86ca2fcbbf4a3731ad1c31f800"}, {"lon": -77.03521883333333, "is_disabled": 0, "lat": 38.922367, "fusion_lat": 0.0, "is_reserved": 0, "rental_uris": {"ios": "https://dc.lft.to/lastmile_qr_scan", "android": "https://dc.lft.to/lastmile_qr_scan"}, "fusion_lon": 0.0, "type": "electric_scooter", "bike_id": "b058ab798e0887662a44761369803a15", "name": "b058ab798e0887662a44761369803a15"}, {"lon": -77.0417475, "is_disabled": 0, "lat": 38.91124716666667, "fusion_lat": 0.0, "is_reserved": 0, "rental_uris": {"ios": "https://dc.lft.to/lastmile_qr_scan", "android": "https://dc.lft.to/lastmile_qr_scan"}, "fusion_lon": 0.0, "type": "electric_scooter", "bike_id": "577e6e8d1ff00d10837e288467972931", "name": "577e6e8d1ff00d10837e288467972931"}, {"lon": -76.978601, "is_disabled": 0, "lat": 38.867458, "fusion_lat": 0.0, "is_reserved": 0, "rental_uris": {"ios": "https://dc.lft.to/lastmile_qr_scan", "android": "https://dc.lft.to/lastmile_qr_scan"}, "fusion_lon": 0.0, "type": "electric_scooter", "bike_id": "bd4e0028f02db5c0e7e154e4b24ae2c3", "name": "bd4e0028f02db5c0e7e154e4b24ae2c3"}, {"lon": -77.02209833333333, "is_disabled": 0, "lat": 38.91561083333333, "fusion_lat": 0.0, "is_reserved": 0, "rental_uris": {"ios": "https://dc.lft.to/lastmile_qr_scan", "android": "https://dc.lft.to/lastmile_qr_scan"}, "fusion_lon": 0.0, "type": "electric_scooter", "bike_id": "88f0da63c52a99f5b5281708f6df312d", "name": "88f0da63c52a99f5b5281708f6df312d"}, {"lon": -77.03941016666667, "is_disabled": 0, "lat": 38.91414316666667, "fusion_lat": 0.0, "is_reserved": 0, "rental_uris": {"ios": "https://dc.lft.to/lastmile_qr_scan", "android": "https://dc.lft.to/lastmile_qr_scan"}, "fusion_lon": 0.0, "type": "electric_scooter", "bike_id": "a14b2426c48866d27788c62da364f970", "name": "a14b2426c48866d27788c62da364f970"}, {"lon": -76.99080833333333, "is_disabled": 0, "lat": 38.89814666666667, "fusion_lat": 0.0, "is_reserved": 0, "rental_uris": {"ios": "https://dc.lft.to/lastmile_qr_scan", "android": "https://dc.lft.to/lastmile_qr_scan"}, "fusion_lon": 0.0, "type": "electric_bike", "bike_id": "34dbe67b4156686eb5380cb7605ee006", "name": "34dbe67b4156686eb5380cb7605ee006"}, {"lon": -77.0364845, "is_disabled": 0, "lat": 38.918631166666664, "fusion_lat": 0.0, "is_reserved": 0, "rental_uris": {"ios": "https://dc.lft.to/lastmile_qr_scan", "android": "https://dc.lft.to/lastmile_qr_scan"}, "fusion_lon": 0.0, "type": "electric_scooter", "bike_id": "154a8072432232dda03b4b53f8f3084e", "name": "154a8072432232dda03b4b53f8f3084e"}, {"lon": -76.980838, "is_disabled": 0, "lat": 38.92631083333333, "fusion_lat": 0.0, "is_reserved": 0, "rental_uris": {"ios": "https://dc.lft.to/lastmile_qr_scan", "android": "https://dc.lft.to/lastmile_qr_scan"}, "fusion_lon": 0.0, "type": "electric_scooter", "bike_id": "cdb00e42a4466c8aa06b25b956f094b5", "name": "cdb00e42a4466c8aa06b25b956f094b5"}, {"lon": -77.032745, "is_disabled": 0, "lat": 38.927926666666664, "fusion_lat": 0.0, "is_reserved": 0, "rental_uris": {"ios": "https://dc.lft.to/lastmile_qr_scan", "android": "https://dc.lft.to/lastmile_qr_scan"}, "fusion_lon": 0.0, "type": "electric_scooter", "bike_id": "48dd19180e70fcd642db222d8823917f", "name": "48dd19180e70fcd642db222d8823917f"}, {"lon": -77.00115766666667, "is_disabled": 0, "lat": 38.87372083333333, "fusion_lat": 0.0, "is_reserved": 0, "rental_uris": {"ios": "https://dc.lft.to/lastmile_qr_scan", "android": "https://dc.lft.to/lastmile_qr_scan"}, "fusion_lon": 0.0, "type": "electric_scooter", "bike_id": "5e5d8e18d4f328b5263ab8bac9df2288", "name": "5e5d8e18d4f328b5263ab8bac9df2288"}, {"lon": -77.01223233333333, "is_disabled": 0, "lat": 38.924029, "fusion_lat": 0.0, "is_reserved": 0, "rental_uris": {"ios": "https://dc.lft.to/lastmile_qr_scan", "android": "https://dc.lft.to/lastmile_qr_scan"}, "fusion_lon": 0.0, "type": "electric_scooter", "bike_id": "15d0f70769d9b879866b17cd078559fa", "name": "15d0f70769d9b879866b17cd078559fa"}, {"lon": -77.03321033333333, "is_disabled": 0, "lat": 38.921487166666665, "fusion_lat": 0.0, "is_reserved": 0, "rental_uris": {"ios": "https://dc.lft.to/lastmile_qr_scan", "android": "https://dc.lft.to/lastmile_qr_scan"}, "fusion_lon": 0.0, "type": "electric_scooter", "bike_id": "0d35a38d7e435192863b8b857d1d8aaf", "name": "0d35a38d7e435192863b8b857d1d8aaf"}, {"lon": -77.01774216666666, "is_disabled": 0, "lat": 38.88713383333333, "fusion_lat": 0.0, "is_reserved": 0, "rental_uris": {"ios": "https://dc.lft.to/lastmile_qr_scan", "android": "https://dc.lft.to/lastmile_qr_scan"}, "fusion_lon": 0.0, "type": "electric_scooter", "bike_id": "1bc4a5c7b4ae93bebc565466701aa6f0", "name": "1bc4a5c7b4ae93bebc565466701aa6f0"}, {"lon": -76.98339483333334, "is_disabled": 0, "lat": 38.900688833333334, "fusion_lat": 0.0, "is_reserved": 0, "rental_uris": {"ios": "https://dc.lft.to/lastmile_qr_scan", "android": "https://dc.lft.to/lastmile_qr_scan"}, "fusion_lon": 0.0, "type": "electric_scooter", "bike_id": "14bc669921e8072b2cd793570efa98fc", "name": "14bc669921e8072b2cd793570efa98fc"}, {"lon": -77.054357, "is_disabled": 0, "lat": 38.92846, "fusion_lat": 0.0, "is_reserved": 0, "rental_uris": {"ios": "https://dc.lft.to/lastmile_qr_scan", "android": "https://dc.lft.to/lastmile_qr_scan"}, "fusion_lon": 0.0, "type": "electric_scooter", "bike_id": "97bb734d1eed43a5410fcfcbdca1640c", "name": "97bb734d1eed43a5410fcfcbdca1640c"}, {"lon": -77.03207966666666, "is_disabled": 0, "lat": 38.9181385, "fusion_lat": 0.0, "is_reserved": 0, "rental_uris": {"ios": "https://dc.lft.to/lastmile_qr_scan", "android": "https://dc.lft.to/lastmile_qr_scan"}, "fusion_lon": 0.0, "type": "electric_scooter", "bike_id": "3673b0a339fe712638c7a2750697c76f", "name": "3673b0a339fe712638c7a2750697c76f"}, {"lon": -77.0244255, "is_disabled": 0, "lat": 38.89725416666667, "fusion_lat": 0.0, "is_reserved": 0, "rental_uris": {"ios": "https://dc.lft.to/lastmile_qr_scan", "android": "https://dc.lft.to/lastmile_qr_scan"}, "fusion_lon": 0.0, "type": "electric_scooter", "bike_id": "f0f40bd6315a7e1e8aef0f238da9e755", "name": "f0f40bd6315a7e1e8aef0f238da9e755"}, {"lon": -77.0176295, "is_disabled": 0, "lat": 38.87757116666667, "fusion_lat": 0.0, "is_reserved": 0, "rental_uris": {"ios": "https://dc.lft.to/lastmile_qr_scan", "android": "https://dc.lft.to/lastmile_qr_scan"}, "fusion_lon": 0.0, "type": "electric_scooter", "bike_id": "cd1e474247a92199eb2fba0fb9620ff5", "name": "cd1e474247a92199eb2fba0fb9620ff5"}, {"lon": -77.04161933333333, "is_disabled": 0, "lat": 38.91192483333333, "fusion_lat": 0.0, "is_reserved": 0, "rental_uris": {"ios": "https://dc.lft.to/lastmile_qr_scan", "android": "https://dc.lft.to/lastmile_qr_scan"}, "fusion_lon": 0.0, "type": "electric_scooter", "bike_id": "e078a34e0c5a6a8abe4463920cfb2565", "name": "e078a34e0c5a6a8abe4463920cfb2565"}, {"lon": -77.03250966666667, "is_disabled": 0, "lat": 38.9396475, "fusion_lat": 0.0, "is_reserved": 0, "rental_uris": {"ios": "https://dc.lft.to/lastmile_qr_scan", "android": "https://dc.lft.to/lastmile_qr_scan"}, "fusion_lon": 0.0, "type": "electric_scooter", "bike_id": "2e305dbe7d1edb01ab40e04451ad8e94", "name": "2e305dbe7d1edb01ab40e04451ad8e94"}, {"lon": -77.02368383333334, "is_disabled": 0, "lat": 38.9315335, "fusion_lat": 0.0, "is_reserved": 0, "rental_uris": {"ios": "https://dc.lft.to/lastmile_qr_scan", "android": "https://dc.lft.to/lastmile_qr_scan"}, "fusion_lon": 0.0, "type": "electric_scooter", "bike_id": "629e17c41f6f2dbbca4a7aba97d8db01", "name": "629e17c41f6f2dbbca4a7aba97d8db01"}, {"lon": -77.038226, "is_disabled": 0, "lat": 38.915038833333334, "fusion_lat": 0.0, "is_reserved": 0, "rental_uris": {"ios": "https://dc.lft.to/lastmile_qr_scan", "android": "https://dc.lft.to/lastmile_qr_scan"}, "fusion_lon": 0.0, "type": "electric_scooter", "bike_id": "95ecd1d555857d998560fe27f9c314d3", "name": "95ecd1d555857d998560fe27f9c314d3"}, {"lon": -77.00920916666666, "is_disabled": 0, "lat": 38.9106265, "fusion_lat": 0.0, "is_reserved": 0, "rental_uris": {"ios": "https://dc.lft.to/lastmile_qr_scan", "android": "https://dc.lft.to/lastmile_qr_scan"}, "fusion_lon": 0.0, "type": "electric_scooter", "bike_id": "5ce6978aeb6c1bc20828a5569659d6b8", "name": "5ce6978aeb6c1bc20828a5569659d6b8"}, {"lon": -77.0724925, "is_disabled": 0, "lat": 38.9330675, "fusion_lat": 0.0, "is_reserved": 0, "rental_uris": {"ios": "https://dc.lft.to/lastmile_qr_scan", "android": "https://dc.lft.to/lastmile_qr_scan"}, "fusion_lon": 0.0, "type": "electric_scooter", "bike_id": "d7d6412c475533657403f70369fb6a3a", "name": "d7d6412c475533657403f70369fb6a3a"}, {"lon": -77.056055, "is_disabled": 0, "lat": 38.9370315, "fusion_lat": 0.0, "is_reserved": 0, "rental_uris": {"ios": "https://dc.lft.to/lastmile_qr_scan", "android": "https://dc.lft.to/lastmile_qr_scan"}, "fusion_lon": 0.0, "type": "electric_bike", "bike_id": "8339776d4cb64a5ed89d93dfc509d52d", "name": "8339776d4cb64a5ed89d93dfc509d52d"}, {"lon": -77.043532, "is_disabled": 0, "lat": 38.91785266666667, "fusion_lat": 0.0, "is_reserved": 0, "rental_uris": {"ios": "https://dc.lft.to/lastmile_qr_scan", "android": "https://dc.lft.to/lastmile_qr_scan"}, "fusion_lon": 0.0, "type": "electric_scooter", "bike_id": "16a7e60b841d695d18b6478a85318d1f", "name": "16a7e60b841d695d18b6478a85318d1f"}, {"lon": -77.023071, "is_disabled": 0, "lat": 38.89484916666667, "fusion_lat": 0.0, "is_reserved": 0, "rental_uris": {"ios": "https://dc.lft.to/lastmile_qr_scan", "android": "https://dc.lft.to/lastmile_qr_scan"}, "fusion_lon": 0.0, "type": "electric_bike", "bike_id": "9cd61adbfe279ca2635b875a391b6438", "name": "9cd61adbfe279ca2635b875a391b6438"}, {"lon": -77.0328575, "is_disabled": 0, "lat": 38.922566, "fusion_lat": 0.0, "is_reserved": 0, "rental_uris": {"ios": "https://dc.lft.to/lastmile_qr_scan", "android": "https://dc.lft.to/lastmile_qr_scan"}, "fusion_lon": 0.0, "type": "electric_scooter", "bike_id": "828535016e24fe12e8ffef078f7a65a8", "name": "828535016e24fe12e8ffef078f7a65a8"}, {"lon": -77.03158166666667, "is_disabled": 0, "lat": 38.96437783333333, "fusion_lat": 0.0, "is_reserved": 0, "rental_uris": {"ios": "https://dc.lft.to/lastmile_qr_scan", "android": "https://dc.lft.to/lastmile_qr_scan"}, "fusion_lon": 0.0, "type": "electric_bike", "bike_id": "78d3a73026fb911cc85a18fb2a3e396d", "name": "78d3a73026fb911cc85a18fb2a3e396d"}, {"lon": -77.02586683333334, "is_disabled": 0, "lat": 38.94208616666667, "fusion_lat": 0.0, "is_reserved": 0, "rental_uris": {"ios": "https://dc.lft.to/lastmile_qr_scan", "android": "https://dc.lft.to/lastmile_qr_scan"}, "fusion_lon": 0.0, "type": "electric_scooter", "bike_id": "3952288a17ccc3dc731f5df560293791", "name": "3952288a17ccc3dc731f5df560293791"}, {"lon": -77.02208116666667, "is_disabled": 0, "lat": 38.91563, "fusion_lat": 0.0, "is_reserved": 0, "rental_uris": {"ios": "https://dc.lft.to/lastmile_qr_scan", "android": "https://dc.lft.to/lastmile_qr_scan"}, "fusion_lon": 0.0, "type": "electric_scooter", "bike_id": "68886c6583deca07522409b4a60ce41b", "name": "68886c6583deca07522409b4a60ce41b"}, {"lon": -77.04745633333333, "is_disabled": 0, "lat": 38.91868683333333, "fusion_lat": 0.0, "is_reserved": 0, "rental_uris": {"ios": "https://dc.lft.to/lastmile_qr_scan", "android": "https://dc.lft.to/lastmile_qr_scan"}, "fusion_lon": 0.0, "type": "electric_scooter", "bike_id": "6b863b53d54524543c836e149ff83e38", "name": "6b863b53d54524543c836e149ff83e38"}, {"lon": -77.05737933333333, "is_disabled": 0, "lat": 38.93389416666667, "fusion_lat": 0.0, "is_reserved": 0, "rental_uris": {"ios": "https://dc.lft.to/lastmile_qr_scan", "android": "https://dc.lft.to/lastmile_qr_scan"}, "fusion_lon": 0.0, "type": "electric_scooter", "bike_id": "d533dbba8ec28e703c2ba42268d01029", "name": "d533dbba8ec28e703c2ba42268d01029"}, {"lon": -77.04672716666667, "is_disabled": 0, "lat": 38.8932645, "fusion_lat": 0.0, "is_reserved": 0, "rental_uris": {"ios": "https://dc.lft.to/lastmile_qr_scan", "android": "https://dc.lft.to/lastmile_qr_scan"}, "fusion_lon": 0.0, "type": "electric_scooter", "bike_id": "05fcc4a2e03ab57d43140b421c66c98b", "name": "05fcc4a2e03ab57d43140b421c66c98b"}, {"lon": -77.02408266666667, "is_disabled": 0, "lat": 38.91761, "fusion_lat": 0.0, "is_reserved": 0, "rental_uris": {"ios": "https://dc.lft.to/lastmile_qr_scan", "android": "https://dc.lft.to/lastmile_qr_scan"}, "fusion_lon": 0.0, "type": "electric_scooter", "bike_id": "a61309d703db15419b5698b898860a0b", "name": "a61309d703db15419b5698b898860a0b"}, {"lon": -76.97099633333333, "is_disabled": 0, "lat": 38.870617, "fusion_lat": 0.0, "is_reserved": 0, "rental_uris": {"ios": "https://dc.lft.to/lastmile_qr_scan", "android": "https://dc.lft.to/lastmile_qr_scan"}, "fusion_lon": 0.0, "type": "electric_scooter", "bike_id": "3cde5f2baf069473d4548d7a7fffc094", "name": "3cde5f2baf069473d4548d7a7fffc094"}, {"lon": -76.946375, "is_disabled": 0, "lat": 38.898672, "fusion_lat": 0.0, "is_reserved": 0, "rental_uris": {"ios": "https://dc.lft.to/lastmile_qr_scan", "android": "https://dc.lft.to/lastmile_qr_scan"}, "fusion_lon": 0.0, "type": "electric_scooter", "bike_id": "bb92f61efa472d5e5cd432b170431973", "name": "bb92f61efa472d5e5cd432b170431973"}, {"lon": -77.02231233333333, "is_disabled": 0, "lat": 38.9347565, "fusion_lat": 0.0, "is_reserved": 0, "rental_uris": {"ios": "https://dc.lft.to/lastmile_qr_scan", "android": "https://dc.lft.to/lastmile_qr_scan"}, "fusion_lon": 0.0, "type": "electric_scooter", "bike_id": "d2656943d4198f54f9b9dde5dbe6bd86", "name": "d2656943d4198f54f9b9dde5dbe6bd86"}, {"lon": -77.20139133333333, "is_disabled": 0, "lat": 38.9221915, "fusion_lat": 0.0, "is_reserved": 0, "rental_uris": {"ios": "https://dc.lft.to/lastmile_qr_scan", "android": "https://dc.lft.to/lastmile_qr_scan"}, "fusion_lon": 0.0, "type": "electric_bike", "bike_id": "98c944db35edca0201527bb4c7e5d310", "name": "98c944db35edca0201527bb4c7e5d310"}, {"lon": -77.09139483333334, "is_disabled": 0, "lat": 38.8615195, "fusion_lat": 0.0, "is_reserved": 0, "rental_uris": {"ios": "https://dc.lft.to/lastmile_qr_scan", "android": "https://dc.lft.to/lastmile_qr_scan"}, "fusion_lon": 0.0, "type": "electric_bike", "bike_id": "b2d46b1f1565342c718f658ee3e90d91", "name": "b2d46b1f1565342c718f658ee3e90d91"}, {"lon": -77.04585433333334, "is_disabled": 0, "lat": 38.914724666666665, "fusion_lat": 0.0, "is_reserved": 0, "rental_uris": {"ios": "https://dc.lft.to/lastmile_qr_scan", "android": "https://dc.lft.to/lastmile_qr_scan"}, "fusion_lon": 0.0, "type": "electric_scooter", "bike_id": "848b77f75e2d1d601e7174d6ec38097f", "name": "848b77f75e2d1d601e7174d6ec38097f"}, {"lon": -76.93173283333333, "is_disabled": 0, "lat": 38.898862333333334, "fusion_lat": 0.0, "is_reserved": 0, "rental_uris": {"ios": "https://dc.lft.to/lastmile_qr_scan", "android": "https://dc.lft.to/lastmile_qr_scan"}, "fusion_lon": 0.0, "type": "electric_scooter", "bike_id": "631309de674c5594dcecf68ad122880f", "name": "631309de674c5594dcecf68ad122880f"}, {"lon": -76.97626033333333, "is_disabled": 0, "lat": 38.901535833333334, "fusion_lat": 0.0, "is_reserved": 0, "rental_uris": {"ios": "https://dc.lft.to/lastmile_qr_scan", "android": "https://dc.lft.to/lastmile_qr_scan"}, "fusion_lon": 0.0, "type": "electric_scooter", "bike_id": "9df6b8a6bfaead0c81c3fd474da89cd7", "name": "9df6b8a6bfaead0c81c3fd474da89cd7"}, {"lon": -77.03281483333333, "is_disabled": 0, "lat": 38.909719333333335, "fusion_lat": 0.0, "is_reserved": 0, "rental_uris": {"ios": "https://dc.lft.to/lastmile_qr_scan", "android": "https://dc.lft.to/lastmile_qr_scan"}, "fusion_lon": 0.0, "type": "electric_scooter", "bike_id": "6ddb67d460c0b5b15b901ce813de4020", "name": "6ddb67d460c0b5b15b901ce813de4020"}, {"lon": -77.02482416666666, "is_disabled": 0, "lat": 38.938796833333335, "fusion_lat": 0.0, "is_reserved": 0, "rental_uris": {"ios": "https://dc.lft.to/lastmile_qr_scan", "android": "https://dc.lft.to/lastmile_qr_scan"}, "fusion_lon": 0.0, "type": "electric_scooter", "bike_id": "18f65b27dca5bb98e8021880c39b534d", "name": "18f65b27dca5bb98e8021880c39b534d"}, {"lon": -77.03166933333334, "is_disabled": 0, "lat": 38.88742233333333, "fusion_lat": 0.0, "is_reserved": 0, "rental_uris": {"ios": "https://dc.lft.to/lastmile_qr_scan", "android": "https://dc.lft.to/lastmile_qr_scan"}, "fusion_lon": 0.0, "type": "electric_scooter", "bike_id": "da025e87d3190a9995a4205fb5e10d15", "name": "da025e87d3190a9995a4205fb5e10d15"}, {"lon": -77.04866183333333, "is_disabled": 0, "lat": 38.906322, "fusion_lat": 0.0, "is_reserved": 0, "rental_uris": {"ios": "https://dc.lft.to/lastmile_qr_scan", "android": "https://dc.lft.to/lastmile_qr_scan"}, "fusion_lon": 0.0, "type": "electric_scooter", "bike_id": "1b1b9a06486c8fd868cfffcc2bc6f6be", "name": "1b1b9a06486c8fd868cfffcc2bc6f6be"}, {"lon": -77.04107216666667, "is_disabled": 0, "lat": 38.90884033333333, "fusion_lat": 0.0, "is_reserved": 0, "rental_uris": {"ios": "https://dc.lft.to/lastmile_qr_scan", "android": "https://dc.lft.to/lastmile_qr_scan"}, "fusion_lon": 0.0, "type": "electric_scooter", "bike_id": "caad0fb7a72d86a0393b22ad14cf92a2", "name": "caad0fb7a72d86a0393b22ad14cf92a2"}, {"lon": -77.04787133333333, "is_disabled": 0, "lat": 38.897702, "fusion_lat": 0.0, "is_reserved": 0, "rental_uris": {"ios": "https://dc.lft.to/lastmile_qr_scan", "android": "https://dc.lft.to/lastmile_qr_scan"}, "fusion_lon": 0.0, "type": "electric_scooter", "bike_id": "5f4c8884f299a213d48502d06abdd6df", "name": "5f4c8884f299a213d48502d06abdd6df"}, {"lon": -77.00726433333334, "is_disabled": 0, "lat": 38.884936, "fusion_lat": 0.0, "is_reserved": 0, "rental_uris": {"ios": "https://dc.lft.to/lastmile_qr_scan", "android": "https://dc.lft.to/lastmile_qr_scan"}, "fusion_lon": 0.0, "type": "electric_scooter", "bike_id": "9292fde37f95959dc801705fc4cd43a7", "name": "9292fde37f95959dc801705fc4cd43a7"}, {"lon": -77.06158616666667, "is_disabled": 0, "lat": 38.9052745, "fusion_lat": 0.0, "is_reserved": 0, "rental_uris": {"ios": "https://dc.lft.to/lastmile_qr_scan", "android": "https://dc.lft.to/lastmile_qr_scan"}, "fusion_lon": 0.0, "type": "electric_scooter", "bike_id": "bab963fada2291682dd5b8b2dbdc6851", "name": "bab963fada2291682dd5b8b2dbdc6851"}, {"lon": -77.02214433333333, "is_disabled": 0, "lat": 38.9055935, "fusion_lat": 0.0, "is_reserved": 0, "rental_uris": {"ios": "https://dc.lft.to/lastmile_qr_scan", "android": "https://dc.lft.to/lastmile_qr_scan"}, "fusion_lon": 0.0, "type": "electric_scooter", "bike_id": "63dfc19e2758a37703b73506792f2960", "name": "63dfc19e2758a37703b73506792f2960"}, {"lon": -77.02287066666666, "is_disabled": 0, "lat": 38.89511566666667, "fusion_lat": 0.0, "is_reserved": 0, "rental_uris": {"ios": "https://dc.lft.to/lastmile_qr_scan", "android": "https://dc.lft.to/lastmile_qr_scan"}, "fusion_lon": 0.0, "type": "electric_scooter", "bike_id": "09b8b3e6fbbf8b578a2cb8f7ade50d78", "name": "09b8b3e6fbbf8b578a2cb8f7ade50d78"}, {"lon": -77.02229633333333, "is_disabled": 0, "lat": 38.880258166666664, "fusion_lat": 0.0, "is_reserved": 0, "rental_uris": {"ios": "https://dc.lft.to/lastmile_qr_scan", "android": "https://dc.lft.to/lastmile_qr_scan"}, "fusion_lon": 0.0, "type": "electric_scooter", "bike_id": "840a325a3fedb9d520f61b3ec2888863", "name": "840a325a3fedb9d520f61b3ec2888863"}, {"lon": -76.9702965, "is_disabled": 0, "lat": 38.8736155, "fusion_lat": 0.0, "is_reserved": 0, "rental_uris": {"ios": "https://dc.lft.to/lastmile_qr_scan", "android": "https://dc.lft.to/lastmile_qr_scan"}, "fusion_lon": 0.0, "type": "electric_scooter", "bike_id": "df6548e6957d9a7f928010fea9302bd2", "name": "df6548e6957d9a7f928010fea9302bd2"}, {"lon": -77.06175633333334, "is_disabled": 0, "lat": 38.807067, "fusion_lat": 0.0, "is_reserved": 0, "rental_uris": {"ios": "https://dc.lft.to/lastmile_qr_scan", "android": "https://dc.lft.to/lastmile_qr_scan"}, "fusion_lon": 0.0, "type": "electric_bike", "bike_id": "59743a58ef8c9e39c2863261199040c6", "name": "59743a58ef8c9e39c2863261199040c6"}, {"lon": -77.04401866666667, "is_disabled": 0, "lat": 38.9111605, "fusion_lat": 0.0, "is_reserved": 0, "rental_uris": {"ios": "https://dc.lft.to/lastmile_qr_scan", "android": "https://dc.lft.to/lastmile_qr_scan"}, "fusion_lon": 0.0, "type": "electric_scooter", "bike_id": "0b3eee42b18aa45f274a02465e639a1c", "name": "0b3eee42b18aa45f274a02465e639a1c"}, {"lon": -76.97966833333334, "is_disabled": 0, "lat": 38.953736166666665, "fusion_lat": 0.0, "is_reserved": 0, "rental_uris": {"ios": "https://dc.lft.to/lastmile_qr_scan", "android": "https://dc.lft.to/lastmile_qr_scan"}, "fusion_lon": 0.0, "type": "electric_bike", "bike_id": "d805244e2bbf75fab9b4ed69fabff40d", "name": "d805244e2bbf75fab9b4ed69fabff40d"}, {"lon": -77.01978866666667, "is_disabled": 0, "lat": 38.966056333333334, "fusion_lat": 0.0, "is_reserved": 0, "rental_uris": {"ios": "https://dc.lft.to/lastmile_qr_scan", "android": "https://dc.lft.to/lastmile_qr_scan"}, "fusion_lon": 0.0, "type": "electric_scooter", "bike_id": "49ef3abb6e8fba43b6f7ee28332e332f", "name": "49ef3abb6e8fba43b6f7ee28332e332f"}, {"lon": -77.044888, "is_disabled": 0, "lat": 38.89619916666667, "fusion_lat": 0.0, "is_reserved": 0, "rental_uris": {"ios": "https://dc.lft.to/lastmile_qr_scan", "android": "https://dc.lft.to/lastmile_qr_scan"}, "fusion_lon": 0.0, "type": "electric_scooter", "bike_id": "8f29c4d36a96921e4e31e864e199edde", "name": "8f29c4d36a96921e4e31e864e199edde"}, {"lon": -76.93985833333333, "is_disabled": 0, "lat": 38.893015, "fusion_lat": 0.0, "is_reserved": 0, "rental_uris": {"ios": "https://dc.lft.to/lastmile_qr_scan", "android": "https://dc.lft.to/lastmile_qr_scan"}, "fusion_lon": 0.0, "type": "electric_scooter", "bike_id": "86e74dc9aba2ff98d0c7682b32b2dffe", "name": "86e74dc9aba2ff98d0c7682b32b2dffe"}, {"lon": -77.02659316666667, "is_disabled": 0, "lat": 38.91691433333333, "fusion_lat": 0.0, "is_reserved": 0, "rental_uris": {"ios": "https://dc.lft.to/lastmile_qr_scan", "android": "https://dc.lft.to/lastmile_qr_scan"}, "fusion_lon": 0.0, "type": "electric_scooter", "bike_id": "71222510e575a30dbd40119ff9859693", "name": "71222510e575a30dbd40119ff9859693"}, {"lon": -77.04876683333333, "is_disabled": 0, "lat": 38.90622716666667, "fusion_lat": 0.0, "is_reserved": 0, "rental_uris": {"ios": "https://dc.lft.to/lastmile_qr_scan", "android": "https://dc.lft.to/lastmile_qr_scan"}, "fusion_lon": 0.0, "type": "electric_scooter", "bike_id": "cfea89e3d943a72118cd9d530020be21", "name": "cfea89e3d943a72118cd9d530020be21"}, {"lon": -77.04186666666666, "is_disabled": 0, "lat": 38.92621183333333, "fusion_lat": 0.0, "is_reserved": 0, "rental_uris": {"ios": "https://dc.lft.to/lastmile_qr_scan", "android": "https://dc.lft.to/lastmile_qr_scan"}, "fusion_lon": 0.0, "type": "electric_scooter", "bike_id": "4659d2ca2d369c0a7a1314bed3ad3678", "name": "4659d2ca2d369c0a7a1314bed3ad3678"}, {"lon": -76.93367183333334, "is_disabled": 0, "lat": 38.89915083333333, "fusion_lat": 0.0, "is_reserved": 0, "rental_uris": {"ios": "https://dc.lft.to/lastmile_qr_scan", "android": "https://dc.lft.to/lastmile_qr_scan"}, "fusion_lon": 0.0, "type": "electric_scooter", "bike_id": "ba1e35dca804fd77d0d7a82ce1d7cae9", "name": "ba1e35dca804fd77d0d7a82ce1d7cae9"}, {"lon": -77.04369566666666, "is_disabled": 0, "lat": 38.892231833333334, "fusion_lat": 0.0, "is_reserved": 0, "rental_uris": {"ios": "https://dc.lft.to/lastmile_qr_scan", "android": "https://dc.lft.to/lastmile_qr_scan"}, "fusion_lon": 0.0, "type": "electric_scooter", "bike_id": "dc3bb89c010ca923a36607cf41be8aed", "name": "dc3bb89c010ca923a36607cf41be8aed"}, {"lon": -77.024439, "is_disabled": 0, "lat": 38.91847166666667, "fusion_lat": 0.0, "is_reserved": 0, "rental_uris": {"ios": "https://dc.lft.to/lastmile_qr_scan", "android": "https://dc.lft.to/lastmile_qr_scan"}, "fusion_lon": 0.0, "type": "electric_scooter", "bike_id": "01ae8d91484745d08da0556799457fa7", "name": "01ae8d91484745d08da0556799457fa7"}, {"lon": -77.0395435, "is_disabled": 0, "lat": 38.903430166666666, "fusion_lat": 0.0, "is_reserved": 0, "rental_uris": {"ios": "https://dc.lft.to/lastmile_qr_scan", "android": "https://dc.lft.to/lastmile_qr_scan"}, "fusion_lon": 0.0, "type": "electric_scooter", "bike_id": "7d95df29556d27e6d05a68423f454cf4", "name": "7d95df29556d27e6d05a68423f454cf4"}, {"lon": -77.01586333333333, "is_disabled": 0, "lat": 38.90356466666667, "fusion_lat": 0.0, "is_reserved": 0, "rental_uris": {"ios": "https://dc.lft.to/lastmile_qr_scan", "android": "https://dc.lft.to/lastmile_qr_scan"}, "fusion_lon": 0.0, "type": "electric_scooter", "bike_id": "43b3f80ab62c91c7e2d2ba40e8cbb1b3", "name": "43b3f80ab62c91c7e2d2ba40e8cbb1b3"}, {"lon": -77.0485835, "is_disabled": 0, "lat": 38.906321166666665, "fusion_lat": 0.0, "is_reserved": 0, "rental_uris": {"ios": "https://dc.lft.to/lastmile_qr_scan", "android": "https://dc.lft.to/lastmile_qr_scan"}, "fusion_lon": 0.0, "type": "electric_scooter", "bike_id": "0de1fdc9be11a4caf73d65812b247a54", "name": "0de1fdc9be11a4caf73d65812b247a54"}, {"lon": -76.9885475, "is_disabled": 0, "lat": 38.84432483333333, "fusion_lat": 0.0, "is_reserved": 0, "rental_uris": {"ios": "https://dc.lft.to/lastmile_qr_scan", "android": "https://dc.lft.to/lastmile_qr_scan"}, "fusion_lon": 0.0, "type": "electric_scooter", "bike_id": "075bb998f9922b23c51062764d463dd1", "name": "075bb998f9922b23c51062764d463dd1"}, {"lon": -77.0320905, "is_disabled": 0, "lat": 38.89212, "fusion_lat": 0.0, "is_reserved": 0, "rental_uris": {"ios": "https://dc.lft.to/lastmile_qr_scan", "android": "https://dc.lft.to/lastmile_qr_scan"}, "fusion_lon": 0.0, "type": "electric_scooter", "bike_id": "d9c719829298e3ed37fccd3732ac2931", "name": "d9c719829298e3ed37fccd3732ac2931"}, {"lon": -76.948611, "is_disabled": 0, "lat": 38.894775, "fusion_lat": 0.0, "is_reserved": 0, "rental_uris": {"ios": "https://dc.lft.to/lastmile_qr_scan", "android": "https://dc.lft.to/lastmile_qr_scan"}, "fusion_lon": 0.0, "type": "electric_scooter", "bike_id": "da73b8817ea457eff6dddf306a27f398", "name": "da73b8817ea457eff6dddf306a27f398"}, {"lon": -77.07724433333334, "is_disabled": 0, "lat": 38.92524016666667, "fusion_lat": 0.0, "is_reserved": 0, "rental_uris": {"ios": "https://dc.lft.to/lastmile_qr_scan", "android": "https://dc.lft.to/lastmile_qr_scan"}, "fusion_lon": 0.0, "type": "electric_scooter", "bike_id": "07d255de1b48d68c5e36d2bb3a5b22f4", "name": "07d255de1b48d68c5e36d2bb3a5b22f4"}, {"lon": -76.97606383333333, "is_disabled": 0, "lat": 38.94022483333333, "fusion_lat": 0.0, "is_reserved": 0, "rental_uris": {"ios": "https://dc.lft.to/lastmile_qr_scan", "android": "https://dc.lft.to/lastmile_qr_scan"}, "fusion_lon": 0.0, "type": "electric_scooter", "bike_id": "220823c2b78448b0bd3e8217c58d0f78", "name": "220823c2b78448b0bd3e8217c58d0f78"}, {"lon": -77.05005183333333, "is_disabled": 0, "lat": 38.892276333333335, "fusion_lat": 0.0, "is_reserved": 0, "rental_uris": {"ios": "https://dc.lft.to/lastmile_qr_scan", "android": "https://dc.lft.to/lastmile_qr_scan"}, "fusion_lon": 0.0, "type": "electric_scooter", "bike_id": "dde02d99f50db585c320ed62574934bd", "name": "dde02d99f50db585c320ed62574934bd"}, {"lon": -77.01097183333333, "is_disabled": 0, "lat": 38.89514833333333, "fusion_lat": 0.0, "is_reserved": 0, "rental_uris": {"ios": "https://dc.lft.to/lastmile_qr_scan", "android": "https://dc.lft.to/lastmile_qr_scan"}, "fusion_lon": 0.0, "type": "electric_scooter", "bike_id": "d322d9d49d40cadea3ca549a6d8c8dd2", "name": "d322d9d49d40cadea3ca549a6d8c8dd2"}, {"lon": -77.04880783333333, "is_disabled": 0, "lat": 38.906586, "fusion_lat": 0.0, "is_reserved": 0, "rental_uris": {"ios": "https://dc.lft.to/lastmile_qr_scan", "android": "https://dc.lft.to/lastmile_qr_scan"}, "fusion_lon": 0.0, "type": "electric_scooter", "bike_id": "ef3512757a7f96207b4f379550395117", "name": "ef3512757a7f96207b4f379550395117"}, {"lon": -77.04122666666666, "is_disabled": 0, "lat": 38.91708233333333, "fusion_lat": 0.0, "is_reserved": 0, "rental_uris": {"ios": "https://dc.lft.to/lastmile_qr_scan", "android": "https://dc.lft.to/lastmile_qr_scan"}, "fusion_lon": 0.0, "type": "electric_scooter", "bike_id": "d9849bf41755727309531fc8a2d2c1ce", "name": "d9849bf41755727309531fc8a2d2c1ce"}, {"lon": -77.03442783333334, "is_disabled": 0, "lat": 38.913267833333336, "fusion_lat": 0.0, "is_reserved": 0, "rental_uris": {"ios": "https://dc.lft.to/lastmile_qr_scan", "android": "https://dc.lft.to/lastmile_qr_scan"}, "fusion_lon": 0.0, "type": "electric_scooter", "bike_id": "99e89a9e155384a0adc53c67c1febf19", "name": "99e89a9e155384a0adc53c67c1febf19"}, {"lon": -77.03349966666667, "is_disabled": 0, "lat": 38.892399, "fusion_lat": 0.0, "is_reserved": 0, "rental_uris": {"ios": "https://dc.lft.to/lastmile_qr_scan", "android": "https://dc.lft.to/lastmile_qr_scan"}, "fusion_lon": 0.0, "type": "electric_scooter", "bike_id": "84409b8c25697679b5a690a2ab560bd7", "name": "84409b8c25697679b5a690a2ab560bd7"}, {"lon": -77.0180585, "is_disabled": 0, "lat": 38.920998833333336, "fusion_lat": 0.0, "is_reserved": 0, "rental_uris": {"ios": "https://dc.lft.to/lastmile_qr_scan", "android": "https://dc.lft.to/lastmile_qr_scan"}, "fusion_lon": 0.0, "type": "electric_scooter", "bike_id": "09df4456eda18f1f023422c2c7ab225e", "name": "09df4456eda18f1f023422c2c7ab225e"}, {"lon": -77.02189866666667, "is_disabled": 0, "lat": 38.909683333333334, "fusion_lat": 0.0, "is_reserved": 0, "rental_uris": {"ios": "https://dc.lft.to/lastmile_qr_scan", "android": "https://dc.lft.to/lastmile_qr_scan"}, "fusion_lon": 0.0, "type": "electric_scooter", "bike_id": "7e806dd4ee8ef73f2b11244c17b84cb3", "name": "7e806dd4ee8ef73f2b11244c17b84cb3"}, {"lon": -77.00528183333333, "is_disabled": 0, "lat": 38.87715216666667, "fusion_lat": 0.0, "is_reserved": 0, "rental_uris": {"ios": "https://dc.lft.to/lastmile_qr_scan", "android": "https://dc.lft.to/lastmile_qr_scan"}, "fusion_lon": 0.0, "type": "electric_scooter", "bike_id": "35692b7202241ea5f9de5af1f6a5a96f", "name": "35692b7202241ea5f9de5af1f6a5a96f"}, {"lon": -76.99637716666666, "is_disabled": 0, "lat": 38.90527066666667, "fusion_lat": 0.0, "is_reserved": 0, "rental_uris": {"ios": "https://dc.lft.to/lastmile_qr_scan", "android": "https://dc.lft.to/lastmile_qr_scan"}, "fusion_lon": 0.0, "type": "electric_scooter", "bike_id": "d89c1a0491a747feb8ec47d5b9c69909", "name": "d89c1a0491a747feb8ec47d5b9c69909"}, {"lon": -77.03179433333334, "is_disabled": 0, "lat": 38.91740633333333, "fusion_lat": 0.0, "is_reserved": 0, "rental_uris": {"ios": "https://dc.lft.to/lastmile_qr_scan", "android": "https://dc.lft.to/lastmile_qr_scan"}, "fusion_lon": 0.0, "type": "electric_scooter", "bike_id": "42ceb075e170bd36e654c75ba3a35368", "name": "42ceb075e170bd36e654c75ba3a35368"}, {"lon": -76.93008866666666, "is_disabled": 0, "lat": 38.88819733333333, "fusion_lat": 0.0, "is_reserved": 0, "rental_uris": {"ios": "https://dc.lft.to/lastmile_qr_scan", "android": "https://dc.lft.to/lastmile_qr_scan"}, "fusion_lon": 0.0, "type": "electric_scooter", "bike_id": "7923335f7a4a85ca8542aa64fc73db48", "name": "7923335f7a4a85ca8542aa64fc73db48"}, {"lon": -76.99925583333334, "is_disabled": 0, "lat": 39.039913, "fusion_lat": 0.0, "is_reserved": 0, "rental_uris": {"ios": "https://dc.lft.to/lastmile_qr_scan", "android": "https://dc.lft.to/lastmile_qr_scan"}, "fusion_lon": 0.0, "type": "electric_bike", "bike_id": "c8db36aaa9719d66cc3dcb818f43da6f", "name": "c8db36aaa9719d66cc3dcb818f43da6f"}, {"lon": -77.04224666666667, "is_disabled": 0, "lat": 38.92049683333333, "fusion_lat": 0.0, "is_reserved": 0, "rental_uris": {"ios": "https://dc.lft.to/lastmile_qr_scan", "android": "https://dc.lft.to/lastmile_qr_scan"}, "fusion_lon": 0.0, "type": "electric_scooter", "bike_id": "78f24ec95bbbfe33a7e05a1972ce5d8c", "name": "78f24ec95bbbfe33a7e05a1972ce5d8c"}, {"lon": -77.0329725, "is_disabled": 0, "lat": 38.92353716666667, "fusion_lat": 0.0, "is_reserved": 0, "rental_uris": {"ios": "https://dc.lft.to/lastmile_qr_scan", "android": "https://dc.lft.to/lastmile_qr_scan"}, "fusion_lon": 0.0, "type": "electric_scooter", "bike_id": "bf9be44ac0457aed44f80dbb9b40ce73", "name": "bf9be44ac0457aed44f80dbb9b40ce73"}, {"lon": -77.03458116666667, "is_disabled": 0, "lat": 38.922201, "fusion_lat": 0.0, "is_reserved": 0, "rental_uris": {"ios": "https://dc.lft.to/lastmile_qr_scan", "android": "https://dc.lft.to/lastmile_qr_scan"}, "fusion_lon": 0.0, "type": "electric_scooter", "bike_id": "c904e4d04c5f605b55cb8131fd5244c7", "name": "c904e4d04c5f605b55cb8131fd5244c7"}, {"lon": -77.042261, "is_disabled": 0, "lat": 38.921763166666665, "fusion_lat": 0.0, "is_reserved": 0, "rental_uris": {"ios": "https://dc.lft.to/lastmile_qr_scan", "android": "https://dc.lft.to/lastmile_qr_scan"}, "fusion_lon": 0.0, "type": "electric_scooter", "bike_id": "188189bc123a42304c51a14a2759fe0f", "name": "188189bc123a42304c51a14a2759fe0f"}, {"lon": -77.02447633333334, "is_disabled": 0, "lat": 38.935892333333335, "fusion_lat": 0.0, "is_reserved": 0, "rental_uris": {"ios": "https://dc.lft.to/lastmile_qr_scan", "android": "https://dc.lft.to/lastmile_qr_scan"}, "fusion_lon": 0.0, "type": "electric_scooter", "bike_id": "6d41c21c122e223ed07b0fbfa1d772b4", "name": "6d41c21c122e223ed07b0fbfa1d772b4"}, {"lon": -77.02814183333334, "is_disabled": 0, "lat": 38.905483333333336, "fusion_lat": 0.0, "is_reserved": 0, "rental_uris": {"ios": "https://dc.lft.to/lastmile_qr_scan", "android": "https://dc.lft.to/lastmile_qr_scan"}, "fusion_lon": 0.0, "type": "electric_scooter", "bike_id": "321dd0f12da5a7373e56e2df63893402", "name": "321dd0f12da5a7373e56e2df63893402"}, {"lon": -76.98553316666667, "is_disabled": 0, "lat": 38.91032633333333, "fusion_lat": 0.0, "is_reserved": 0, "rental_uris": {"ios": "https://dc.lft.to/lastmile_qr_scan", "android": "https://dc.lft.to/lastmile_qr_scan"}, "fusion_lon": 0.0, "type": "electric_scooter", "bike_id": "f5139a10333372dbc98375331cc5d2df", "name": "f5139a10333372dbc98375331cc5d2df"}, {"lon": -77.05393733333334, "is_disabled": 0, "lat": 38.80445666666667, "fusion_lat": 0.0, "is_reserved": 0, "rental_uris": {"ios": "https://dc.lft.to/lastmile_qr_scan", "android": "https://dc.lft.to/lastmile_qr_scan"}, "fusion_lon": 0.0, "type": "electric_bike", "bike_id": "6a9d621f381fd9bab96d9e0d170a8603", "name": "6a9d621f381fd9bab96d9e0d170a8603"}, {"lon": -76.99582283333334, "is_disabled": 0, "lat": 38.9473765, "fusion_lat": 0.0, "is_reserved": 0, "rental_uris": {"ios": "https://dc.lft.to/lastmile_qr_scan", "android": "https://dc.lft.to/lastmile_qr_scan"}, "fusion_lon": 0.0, "type": "electric_bike", "bike_id": "8694a2ea8237e29fff03538c1a6185d0", "name": "8694a2ea8237e29fff03538c1a6185d0"}, {"lon": -77.013037, "is_disabled": 0, "lat": 38.9018545, "fusion_lat": 0.0, "is_reserved": 0, "rental_uris": {"ios": "https://dc.lft.to/lastmile_qr_scan", "android": "https://dc.lft.to/lastmile_qr_scan"}, "fusion_lon": 0.0, "type": "electric_scooter", "bike_id": "fbb8f727513b012a29c01b947452de37", "name": "fbb8f727513b012a29c01b947452de37"}, {"lon": -76.97523133333334, "is_disabled": 0, "lat": 38.8987595, "fusion_lat": 0.0, "is_reserved": 0, "rental_uris": {"ios": "https://dc.lft.to/lastmile_qr_scan", "android": "https://dc.lft.to/lastmile_qr_scan"}, "fusion_lon": 0.0, "type": "electric_scooter", "bike_id": "84a881c7765e7ed5d4f257810a29a05b", "name": "84a881c7765e7ed5d4f257810a29a05b"}, {"lon": -77.02335916666667, "is_disabled": 0, "lat": 38.91191933333333, "fusion_lat": 0.0, "is_reserved": 0, "rental_uris": {"ios": "https://dc.lft.to/lastmile_qr_scan", "android": "https://dc.lft.to/lastmile_qr_scan"}, "fusion_lon": 0.0, "type": "electric_scooter", "bike_id": "7a9fb0bf55d32165b2ba08540ab7594d", "name": "7a9fb0bf55d32165b2ba08540ab7594d"}, {"lon": -77.0474565, "is_disabled": 0, "lat": 38.90097883333333, "fusion_lat": 0.0, "is_reserved": 0, "rental_uris": {"ios": "https://dc.lft.to/lastmile_qr_scan", "android": "https://dc.lft.to/lastmile_qr_scan"}, "fusion_lon": 0.0, "type": "electric_scooter", "bike_id": "e6a40f509f036f134a6e094910629aa6", "name": "e6a40f509f036f134a6e094910629aa6"}, {"lon": -77.0177475, "is_disabled": 0, "lat": 38.915035, "fusion_lat": 0.0, "is_reserved": 0, "rental_uris": {"ios": "https://dc.lft.to/lastmile_qr_scan", "android": "https://dc.lft.to/lastmile_qr_scan"}, "fusion_lon": 0.0, "type": "electric_scooter", "bike_id": "dea32da54e67c67bbd8b67cf1695e0dc", "name": "dea32da54e67c67bbd8b67cf1695e0dc"}, {"lon": -77.02406833333333, "is_disabled": 0, "lat": 38.914162166666664, "fusion_lat": 0.0, "is_reserved": 0, "rental_uris": {"ios": "https://dc.lft.to/lastmile_qr_scan", "android": "https://dc.lft.to/lastmile_qr_scan"}, "fusion_lon": 0.0, "type": "electric_scooter", "bike_id": "77fc7466b557123716d484dcafe9b0e3", "name": "77fc7466b557123716d484dcafe9b0e3"}, {"lon": -77.023859, "is_disabled": 0, "lat": 38.91658416666667, "fusion_lat": 0.0, "is_reserved": 0, "rental_uris": {"ios": "https://dc.lft.to/lastmile_qr_scan", "android": "https://dc.lft.to/lastmile_qr_scan"}, "fusion_lon": 0.0, "type": "electric_scooter", "bike_id": "00cbf82fcf8cc106ecb387530e3f052c", "name": "00cbf82fcf8cc106ecb387530e3f052c"}, {"lon": -77.04475683333334, "is_disabled": 0, "lat": 38.899068, "fusion_lat": 0.0, "is_reserved": 0, "rental_uris": {"ios": "https://dc.lft.to/lastmile_qr_scan", "android": "https://dc.lft.to/lastmile_qr_scan"}, "fusion_lon": 0.0, "type": "electric_scooter", "bike_id": "de433ee300cd7194871fc8f93ecd2eb1", "name": "de433ee300cd7194871fc8f93ecd2eb1"}, {"lon": -77.02045083333333, "is_disabled": 0, "lat": 38.9211105, "fusion_lat": 0.0, "is_reserved": 0, "rental_uris": {"ios": "https://dc.lft.to/lastmile_qr_scan", "android": "https://dc.lft.to/lastmile_qr_scan"}, "fusion_lon": 0.0, "type": "electric_scooter", "bike_id": "62507c61f0a9257b2c269800b26fe294", "name": "62507c61f0a9257b2c269800b26fe294"}, {"lon": -77.02992816666666, "is_disabled": 0, "lat": 38.9012835, "fusion_lat": 0.0, "is_reserved": 0, "rental_uris": {"ios": "https://dc.lft.to/lastmile_qr_scan", "android": "https://dc.lft.to/lastmile_qr_scan"}, "fusion_lon": 0.0, "type": "electric_scooter", "bike_id": "b38b654675e1b398834e5026228e8ca7", "name": "b38b654675e1b398834e5026228e8ca7"}, {"lon": -77.03289466666666, "is_disabled": 0, "lat": 38.934401, "fusion_lat": 0.0, "is_reserved": 0, "rental_uris": {"ios": "https://dc.lft.to/lastmile_qr_scan", "android": "https://dc.lft.to/lastmile_qr_scan"}, "fusion_lon": 0.0, "type": "electric_scooter", "bike_id": "dd0bab851d01f3a80e3bbdc662efda1f", "name": "dd0bab851d01f3a80e3bbdc662efda1f"}, {"lon": -77.03728233333334, "is_disabled": 0, "lat": 38.926545, "fusion_lat": 0.0, "is_reserved": 0, "rental_uris": {"ios": "https://dc.lft.to/lastmile_qr_scan", "android": "https://dc.lft.to/lastmile_qr_scan"}, "fusion_lon": 0.0, "type": "electric_scooter", "bike_id": "ddc65a1bcda56366489957d83c2c16b0", "name": "ddc65a1bcda56366489957d83c2c16b0"}, {"lon": -77.09983583333333, "is_disabled": 0, "lat": 38.88396133333333, "fusion_lat": 0.0, "is_reserved": 0, "rental_uris": {"ios": "https://dc.lft.to/lastmile_qr_scan", "android": "https://dc.lft.to/lastmile_qr_scan"}, "fusion_lon": 0.0, "type": "electric_bike", "bike_id": "bea16210514c3565bed5c958c40de934", "name": "bea16210514c3565bed5c958c40de934"}, {"lon": -77.04333266666667, "is_disabled": 0, "lat": 38.922168, "fusion_lat": 0.0, "is_reserved": 0, "rental_uris": {"ios": "https://dc.lft.to/lastmile_qr_scan", "android": "https://dc.lft.to/lastmile_qr_scan"}, "fusion_lon": 0.0, "type": "electric_scooter", "bike_id": "d3ac768f3ce8fae13bcb48961cd2fffd", "name": "d3ac768f3ce8fae13bcb48961cd2fffd"}, {"lon": -77.01635566666667, "is_disabled": 0, "lat": 38.88127816666667, "fusion_lat": 0.0, "is_reserved": 0, "rental_uris": {"ios": "https://dc.lft.to/lastmile_qr_scan", "android": "https://dc.lft.to/lastmile_qr_scan"}, "fusion_lon": 0.0, "type": "electric_scooter", "bike_id": "5e86d48d12d2b29b6ce80663d28f19d4", "name": "5e86d48d12d2b29b6ce80663d28f19d4"}, {"lon": -77.04156866666666, "is_disabled": 0, "lat": 38.91420766666667, "fusion_lat": 0.0, "is_reserved": 0, "rental_uris": {"ios": "https://dc.lft.to/lastmile_qr_scan", "android": "https://dc.lft.to/lastmile_qr_scan"}, "fusion_lon": 0.0, "type": "electric_scooter", "bike_id": "9f4e099e7b2e6b4181b7fcf94bacbcdb", "name": "9f4e099e7b2e6b4181b7fcf94bacbcdb"}, {"lon": -77.037833, "is_disabled": 0, "lat": 38.92578233333333, "fusion_lat": 0.0, "is_reserved": 0, "rental_uris": {"ios": "https://dc.lft.to/lastmile_qr_scan", "android": "https://dc.lft.to/lastmile_qr_scan"}, "fusion_lon": 0.0, "type": "electric_scooter", "bike_id": "0538b97d4742d34036f381754b1cab7d", "name": "0538b97d4742d34036f381754b1cab7d"}, {"lon": -77.0054665, "is_disabled": 0, "lat": 38.88007016666667, "fusion_lat": 0.0, "is_reserved": 0, "rental_uris": {"ios": "https://dc.lft.to/lastmile_qr_scan", "android": "https://dc.lft.to/lastmile_qr_scan"}, "fusion_lon": 0.0, "type": "electric_scooter", "bike_id": "3722d2e3e57ce6d3a6890f704e2251ae", "name": "3722d2e3e57ce6d3a6890f704e2251ae"}, {"lon": -76.98339216666666, "is_disabled": 0, "lat": 38.90089416666667, "fusion_lat": 0.0, "is_reserved": 0, "rental_uris": {"ios": "https://dc.lft.to/lastmile_qr_scan", "android": "https://dc.lft.to/lastmile_qr_scan"}, "fusion_lon": 0.0, "type": "electric_scooter", "bike_id": "65c37dfa1ab9922344aeb33a420b40b5", "name": "65c37dfa1ab9922344aeb33a420b40b5"}, {"lon": -76.9533035, "is_disabled": 0, "lat": 38.89240316666667, "fusion_lat": 0.0, "is_reserved": 0, "rental_uris": {"ios": "https://dc.lft.to/lastmile_qr_scan", "android": "https://dc.lft.to/lastmile_qr_scan"}, "fusion_lon": 0.0, "type": "electric_scooter", "bike_id": "e91eee517d3db09a78d8da1e9aff3626", "name": "e91eee517d3db09a78d8da1e9aff3626"}, {"lon": -76.990072, "is_disabled": 0, "lat": 38.865071666666665, "fusion_lat": 0.0, "is_reserved": 0, "rental_uris": {"ios": "https://dc.lft.to/lastmile_qr_scan", "android": "https://dc.lft.to/lastmile_qr_scan"}, "fusion_lon": 0.0, "type": "electric_scooter", "bike_id": "87c36517f7e70e67c0e76ab3ce1c8a5d", "name": "87c36517f7e70e67c0e76ab3ce1c8a5d"}, {"lon": -77.0191035, "is_disabled": 0, "lat": 38.92334783333333, "fusion_lat": 0.0, "is_reserved": 0, "rental_uris": {"ios": "https://dc.lft.to/lastmile_qr_scan", "android": "https://dc.lft.to/lastmile_qr_scan"}, "fusion_lon": 0.0, "type": "electric_scooter", "bike_id": "016f19acbb40c0ce092de2438a36e108", "name": "016f19acbb40c0ce092de2438a36e108"}, {"lon": -77.029541, "is_disabled": 0, "lat": 38.917628666666666, "fusion_lat": 0.0, "is_reserved": 0, "rental_uris": {"ios": "https://dc.lft.to/lastmile_qr_scan", "android": "https://dc.lft.to/lastmile_qr_scan"}, "fusion_lon": 0.0, "type": "electric_scooter", "bike_id": "2dc2869256a00581c14873df2c078a3d", "name": "2dc2869256a00581c14873df2c078a3d"}, {"lon": -77.04402266666666, "is_disabled": 0, "lat": 38.89741633333333, "fusion_lat": 0.0, "is_reserved": 0, "rental_uris": {"ios": "https://dc.lft.to/lastmile_qr_scan", "android": "https://dc.lft.to/lastmile_qr_scan"}, "fusion_lon": 0.0, "type": "electric_scooter", "bike_id": "b661445dc31c82af96552340ae66c5f1", "name": "b661445dc31c82af96552340ae66c5f1"}, {"lon": -77.0297195, "is_disabled": 0, "lat": 38.933165333333335, "fusion_lat": 0.0, "is_reserved": 0, "rental_uris": {"ios": "https://dc.lft.to/lastmile_qr_scan", "android": "https://dc.lft.to/lastmile_qr_scan"}, "fusion_lon": 0.0, "type": "electric_scooter", "bike_id": "dedc096deea55e598c48ab52b3905405", "name": "dedc096deea55e598c48ab52b3905405"}, {"lon": -77.02766466666667, "is_disabled": 0, "lat": 38.89630916666667, "fusion_lat": 0.0, "is_reserved": 0, "rental_uris": {"ios": "https://dc.lft.to/lastmile_qr_scan", "android": "https://dc.lft.to/lastmile_qr_scan"}, "fusion_lon": 0.0, "type": "electric_scooter", "bike_id": "a66675a7fcbbfd50c2adbd2c9b45bc5b", "name": "a66675a7fcbbfd50c2adbd2c9b45bc5b"}, {"lon": -77.05342166666667, "is_disabled": 0, "lat": 38.90230783333333, "fusion_lat": 0.0, "is_reserved": 0, "rental_uris": {"ios": "https://dc.lft.to/lastmile_qr_scan", "android": "https://dc.lft.to/lastmile_qr_scan"}, "fusion_lon": 0.0, "type": "electric_scooter", "bike_id": "faecc8460a26c41d8596a710c3e6c98a", "name": "faecc8460a26c41d8596a710c3e6c98a"},