{"data": {"bikes": [{"is_disabled": 0, "fusion_lon": 0.0, "fusion_lat": 0.0, "lat": 38.975422333333334, "type": "electric_bike", "lon": -76.99531516666667, "bike_id": "2cd865ecef4a19ef7b72d10a882431c2", "rental_uris": {"android": "https://dc.lft.to/lastmile_qr_scan", "ios": "https://dc.lft.to/lastmile_qr_scan"}, "name": "2cd865ecef4a19ef7b72d10a882431c2", "is_reserved": 0}, {"is_disabled": 0, "fusion_lon": 0.0, "fusion_lat": 0.0, "lat": 38.908645, "type": "electric_scooter", "lon": -77.003586, "bike_id": "6de023e162a148c6cd1fca9d2cf64257", "rental_uris": {"android": "https://dc.lft.to/lastmile_qr_scan", "ios": "https://dc.lft.to/lastmile_qr_scan"}, "name": "6de023e162a148c6cd1fca9d2cf64257", "is_reserved": 0}, {"is_disabled": 0, "fusion_lon": 0.0, "fusion_lat": 0.0, "lat": 38.87469633333333, "type": "electric_scooter", "lon": -77.0051845, "bike_id": "b2861209d6097d864daed6b74adc2412", "rental_uris": {"android": "https://dc.lft.to/lastmile_qr_scan", "ios": "https://dc.lft.to/lastmile_qr_scan"}, "name": "b2861209d6097d864daed6b74adc2412", "is_reserved": 0}, {"is_disabled": 0, "fusion_lon": 0.0, "fusion_lat": 0.0, "lat": 38.914824833333334, "type": "electric_scooter", "lon": -77.04160066666667, "bike_id": "9f376c6897bceda997a7bf0534d56a84", "rental_uris": {"android": "https://dc.lft.to/lastmile_qr_scan", "ios": "https://dc.lft.to/lastmile_qr_scan"}, "name": "9f376c6897bceda997a7bf0534d56a84", "is_reserved": 0}, {"is_disabled": 0, "fusion_lon": 0.0, "fusion_lat": 0.0, "lat": 38.90253416666667, "type": "electric_scooter", "lon": -77.033842, "bike_id": "4b1e4871da73c22fe26c8345643de015", "rental_uris": {"android": "https://dc.lft.to/lastmile_qr_scan", "ios": "https://dc.lft.to/lastmile_qr_scan"}, "name": "4b1e4871da73c22fe26c8345643de015", "is_reserved": 0}, {"is_disabled": 0, "fusion_lon": 0.0, "fusion_lat": 0.0, "lat": 38.9046735, "type": "electric_scooter", "lon": -77.0356385, "bike_id": "3b4df94b7a3918f47d87647f2203cab5", "rental_uris": {"android": "https://dc.lft.to/lastmile_qr_scan", "ios": "https://dc.lft.to/lastmile_qr_scan"}, "name": "3b4df94b7a3918f47d87647f2203cab5", "is_reserved": 0}, {"is_disabled": 0, "fusion_lon": 0.0, "fusion_lat": 0.0, "lat": 38.91586266666667, "type": "electric_bike", "lon": -76.97152316666667, "bike_id": "4fbc54fc677182e7a5656e228cb743b2", "rental_uris": {"android": "https://dc.lft.to/lastmile_qr_scan", "ios": "https://dc.lft.to/lastmile_qr_scan"}, "name": "4fbc54fc677182e7a5656e228cb743b2", "is_reserved": 0}, {"is_disabled": 0, "fusion_lon": 0.0, "fusion_lat": 0.0, "lat": 38.9058075, "type": "electric_scooter", "lon": -77.041894, "bike_id": "0266d91929778040e28e5577c36f5128", "rental_uris": {"android": "https://dc.lft.to/lastmile_qr_scan", "ios": "https://dc.lft.to/lastmile_qr_scan"}, "name": "0266d91929778040e28e5577c36f5128", "is_reserved": 0}, {"is_disabled": 0, "fusion_lon": 0.0, "fusion_lat": 0.0, "lat": 38.907404166666666, "type": "electric_scooter", "lon": -77.02274916666667, "bike_id": "7c1cc5b600e22664ae4d4a8035349fe2", "rental_uris": {"android": "https://dc.lft.to/lastmile_qr_scan", "ios": "https://dc.lft.to/lastmile_qr_scan"}, "name": "7c1cc5b600e22664ae4d4a8035349fe2", "is_reserved": 0}, {"is_disabled": 0, "fusion_lon": 0.0, "fusion_lat": 0.0, "lat": 38.89631266666667, "type": "electric_scooter", "lon": -77.009004, "bike_id": "364e338f2bcde5c8c6b7cea8f6a35b01", "rental_uris": {"android": "https://dc.lft.to/lastmile_qr_scan", "ios": "https://dc.lft.to/lastmile_qr_scan"}, "name": "364e338f2bcde5c8c6b7cea8f6a35b01", "is_reserved": 0}, {"is_disabled": 0, "fusion_lon": 0.0, "fusion_lat": 0.0, "lat": 38.919904333333335, "type": "electric_bike", "lon": -76.97317883333334, "bike_id": "f77abc0ec2c1180658b5e84e9a874b3f", "rental_uris": {"android": "https://dc.lft.to/lastmile_qr_scan", "ios": "https://dc.lft.to/lastmile_qr_scan"}, "name": "f77abc0ec2c1180658b5e84e9a874b3f", "is_reserved": 0}, {"is_disabled": 0, "fusion_lon": 0.0, "fusion_lat": 0.0, "lat": 38.91447183333333, "type": "electric_scooter", "lon": -77.01059083333334, "bike_id": "a24c89b5a11851e83cbf7df280f3b6e1", "rental_uris": {"android": "https://dc.lft.to/lastmile_qr_scan", "ios": "https://dc.lft.to/lastmile_qr_scan"}, "name": "a24c89b5a11851e83cbf7df280f3b6e1", "is_reserved": 0}, {"is_disabled": 0, "fusion_lon": 0.0, "fusion_lat": 0.0, "lat": 38.905682166666665, "type": "electric_scooter", "lon": -76.9762815, "bike_id": "ec64146f33412ce0ab9391294385e570", "rental_uris": {"android": "https://dc.lft.to/lastmile_qr_scan", "ios": "https://dc.lft.to/lastmile_qr_scan"}, "name": "ec64146f33412ce0ab9391294385e570", "is_reserved": 0}, {"is_disabled": 0, "fusion_lon": 0.0, "fusion_lat": 0.0, "lat": 38.935823666666664, "type": "electric_bike", "lon": -77.0826825, "bike_id": "a29a2e5b7230daca42595edfd8766489", "rental_uris": {"android": "https://dc.lft.to/lastmile_qr_scan", "ios": "https://dc.lft.to/lastmile_qr_scan"}, "name": "a29a2e5b7230daca42595edfd8766489", "is_reserved": 0}, {"is_disabled": 0, "fusion_lon": 0.0, "fusion_lat": 0.0, "lat": 38.892505666666665, "type": "electric_scooter", "lon": -77.0321505, "bike_id": "833ab905a3b6ab7a359b5590c6115c87", "rental_uris": {"android": "https://dc.lft.to/lastmile_qr_scan", "ios": "https://dc.lft.to/lastmile_qr_scan"}, "name": "833ab905a3b6ab7a359b5590c6115c87", "is_reserved": 0}, {"is_disabled": 0, "fusion_lon": 0.0, "fusion_lat": 0.0, "lat": 38.8975165, "type": "electric_scooter", "lon": -77.03033266666667, "bike_id": "e12d4f8977b28a380bb0ca19d71613e4", "rental_uris": {"android": "https://dc.lft.to/lastmile_qr_scan", "ios": "https://dc.lft.to/lastmile_qr_scan"}, "name": "e12d4f8977b28a380bb0ca19d71613e4", "is_reserved": 0}, {"is_disabled": 0, "fusion_lon": 0.0, "fusion_lat": 0.0, "lat": 38.89726816666666, "type": "electric_scooter", "lon": -77.02149633333333, "bike_id": "4531980ab6f7d1bb4240f90c977f6bf9", "rental_uris": {"android": "https://dc.lft.to/lastmile_qr_scan", "ios": "https://dc.lft.to/lastmile_qr_scan"}, "name": "4531980ab6f7d1bb4240f90c977f6bf9", "is_reserved": 0}, {"is_disabled": 0, "fusion_lon": 0.0, "fusion_lat": 0.0, "lat": 38.9107165, "type": "electric_scooter", "lon": -77.04397383333334, "bike_id": "10b5a3b64b5c995712d6845e47d8247c", "rental_uris": {"android": "https://dc.lft.to/lastmile_qr_scan", "ios": "https://dc.lft.to/lastmile_qr_scan"}, "name": "10b5a3b64b5c995712d6845e47d8247c", "is_reserved": 0}, {"is_disabled": 0, "fusion_lon": 0.0, "fusion_lat": 0.0, "lat": 38.914776333333336, "type": "electric_scooter", "lon": -77.0394265, "bike_id": "04fcfc195d90160fb2b5460e1a8e401c", "rental_uris": {"android": "https://dc.lft.to/lastmile_qr_scan", "ios": "https://dc.lft.to/lastmile_qr_scan"}, "name": "04fcfc195d90160fb2b5460e1a8e401c", "is_reserved": 0}, {"is_disabled": 0, "fusion_lon": 0.0, "fusion_lat": 0.0, "lat": 38.895309, "type": "electric_scooter", "lon": -76.94920233333333, "bike_id": "2a669d1a3be0ad49c1dd33f64498aec6", "rental_uris": {"android": "https://dc.lft.to/lastmile_qr_scan", "ios": "https://dc.lft.to/lastmile_qr_scan"}, "name": "2a669d1a3be0ad49c1dd33f64498aec6", "is_reserved": 0}, {"is_disabled": 0, "fusion_lon": 0.0, "fusion_lat": 0.0, "lat": 38.90680566666666, "type": "electric_scooter", "lon": -77.03770583333333, "bike_id": "d8d8599ca568189f39eab9462efbaf08", "rental_uris": {"android": "https://dc.lft.to/lastmile_qr_scan", "ios": "https://dc.lft.to/lastmile_qr_scan"}, "name": "d8d8599ca568189f39eab9462efbaf08", "is_reserved": 0}, {"is_disabled": 0, "fusion_lon": 0.0, "fusion_lat": 0.0, "lat": 38.910472166666665, "type": "electric_scooter", "lon": -77.04250516666667, "bike_id": "3408cf021f74bfb9a47476f67f563021", "rental_uris": {"android": "https://dc.lft.to/lastmile_qr_scan", "ios": "https://dc.lft.to/lastmile_qr_scan"}, "name": "3408cf021f74bfb9a47476f67f563021", "is_reserved": 0}, {"is_disabled": 0, "fusion_lon": 0.0, "fusion_lat": 0.0, "lat": 38.869549166666665, "type": "electric_scooter", "lon": -76.97595216666667, "bike_id": "f960bc44544a602560550420c0ef5b47", "rental_uris": {"android": "https://dc.lft.to/lastmile_qr_scan", "ios": "https://dc.lft.to/lastmile_qr_scan"}, "name": "f960bc44544a602560550420c0ef5b47", "is_reserved": 0}, {"is_disabled": 0, "fusion_lon": 0.0, "fusion_lat": 0.0, "lat": 38.936343666666666, "type": "electric_scooter", "lon": -77.0269845, "bike_id": "f4ecf1dafb3f03d8d3e3588709dec11b", "rental_uris": {"android": "https://dc.lft.to/lastmile_qr_scan", "ios": "https://dc.lft.to/lastmile_qr_scan"}, "name": "f4ecf1dafb3f03d8d3e3588709dec11b", "is_reserved": 0}, {"is_disabled": 0, "fusion_lon": 0.0, "fusion_lat": 0.0, "lat": 38.909706166666666, "type": "electric_scooter", "lon": -77.02312466666666, "bike_id": "24ee25ec18278d0c52f24310fb167ce2", "rental_uris": {"android": "https://dc.lft.to/lastmile_qr_scan", "ios": "https://dc.lft.to/lastmile_qr_scan"}, "name": "24ee25ec18278d0c52f24310fb167ce2", "is_reserved": 0}, {"is_disabled": 0, "fusion_lon": 0.0, "fusion_lat": 0.0, "lat": 38.873759, "type": "electric_scooter", "lon": -77.00095566666667, "bike_id": "a250c112b99817932d18fe75c2884184", "rental_uris": {"android": "https://dc.lft.to/lastmile_qr_scan", "ios": "https://dc.lft.to/lastmile_qr_scan"}, "name": "a250c112b99817932d18fe75c2884184", "is_reserved": 0}, {"is_disabled": 0, "fusion_lon": 0.0, "fusion_lat": 0.0, "lat": 38.92456416666667, "type": "electric_bike", "lon": -76.99950666666666, "bike_id": "75f10276504d3bba3fafa4df6b0610a5", "rental_uris": {"android": "https://dc.lft.to/lastmile_qr_scan", "ios": "https://dc.lft.to/lastmile_qr_scan"}, "name": "75f10276504d3bba3fafa4df6b0610a5", "is_reserved": 0}, {"is_disabled": 0, "fusion_lon": 0.0, "fusion_lat": 0.0, "lat": 38.90526416666667, "type": "electric_scooter", "lon": -77.021388, "bike_id": "376f98a7e1621e29198907138d51651d", "rental_uris": {"android": "https://dc.lft.to/lastmile_qr_scan", "ios": "https://dc.lft.to/lastmile_qr_scan"}, "name": "376f98a7e1621e29198907138d51651d", "is_reserved": 0}, {"is_disabled": 0, "fusion_lon": 0.0, "fusion_lat": 0.0, "lat": 38.901808333333335, "type": "electric_scooter", "lon": -77.052717, "bike_id": "645856736cb26e7ba099cb19a204d9ad", "rental_uris": {"android": "https://dc.lft.to/lastmile_qr_scan", "ios": "https://dc.lft.to/lastmile_qr_scan"}, "name": "645856736cb26e7ba099cb19a204d9ad", "is_reserved": 0}, {"is_disabled": 0, "fusion_lon": 0.0, "fusion_lat": 0.0, "lat": 38.915578833333335, "type": "electric_scooter", "lon": -77.03248283333333, "bike_id": "bd013a0a1183651874be2752a72fb2fe", "rental_uris": {"android": "https://dc.lft.to/lastmile_qr_scan", "ios": "https://dc.lft.to/lastmile_qr_scan"}, "name": "bd013a0a1183651874be2752a72fb2fe", "is_reserved": 0}, {"is_disabled": 0, "fusion_lon": 0.0, "fusion_lat": 0.0, "lat": 38.902886, "type": "electric_scooter", "lon": -77.03856183333333, "bike_id": "faea222a920c0be1d0a3cda6f0d97d7d", "rental_uris": {"android": "https://dc.lft.to/lastmile_qr_scan", "ios": "https://dc.lft.to/lastmile_qr_scan"}, "name": "faea222a920c0be1d0a3cda6f0d97d7d", "is_reserved": 0}, {"is_disabled": 0, "fusion_lon": 0.0, "fusion_lat": 0.0, "lat": 38.885991833333335, "type": "electric_scooter", "lon": -76.9978145, "bike_id": "6183570f040310138f49340df9d49450", "rental_uris": {"android": "https://dc.lft.to/lastmile_qr_scan", "ios": "https://dc.lft.to/lastmile_qr_scan"}, "name": "6183570f040310138f49340df9d49450", "is_reserved": 0}, {"is_disabled": 0, "fusion_lon": 0.0, "fusion_lat": 0.0, "lat": 38.89241233333333, "type": "electric_scooter", "lon": -77.0335855, "bike_id": "37518ef77e1e1a5e0a17e5ebdc78ccd2", "rental_uris": {"android": "https://dc.lft.to/lastmile_qr_scan", "ios": "https://dc.lft.to/lastmile_qr_scan"}, "name": "37518ef77e1e1a5e0a17e5ebdc78ccd2", "is_reserved": 0}, {"is_disabled": 0, "fusion_lon": 0.0, "fusion_lat": 0.0, "lat": 38.9530075, "type": "electric_scooter", "lon": -77.0697845, "bike_id": "2e27a97fb0ab82f02464c62b64a84d3d", "rental_uris": {"android": "https://dc.lft.to/lastmile_qr_scan", "ios": "https://dc.lft.to/lastmile_qr_scan"}, "name": "2e27a97fb0ab82f02464c62b64a84d3d", "is_reserved": 0}, {"is_disabled": 0, "fusion_lon": 0.0, "fusion_lat": 0.0, "lat": 38.937075166666666, "type": "electric_scooter", "lon": -77.05599133333334, "bike_id": "96373f9024116471d45cc7119bb61020", "rental_uris": {"android": "https://dc.lft.to/lastmile_qr_scan", "ios": "https://dc.lft.to/lastmile_qr_scan"}, "name": "96373f9024116471d45cc7119bb61020", "is_reserved": 0}, {"is_disabled": 0, "fusion_lon": 0.0, "fusion_lat": 0.0, "lat": 38.91707133333333, "type": "electric_scooter", "lon": -77.03395633333334, "bike_id": "f3156968cbf8842d397352614de14957", "rental_uris": {"android": "https://dc.lft.to/lastmile_qr_scan", "ios": "https://dc.lft.to/lastmile_qr_scan"}, "name": "f3156968cbf8842d397352614de14957", "is_reserved": 0}, {"is_disabled": 0, "fusion_lon": 0.0, "fusion_lat": 0.0, "lat": 38.885045, "type": "electric_scooter", "lon": -77.02082483333334, "bike_id": "97b5cf30d9f172d3bf82422006e577a8", "rental_uris": {"android": "https://dc.lft.to/lastmile_qr_scan", "ios": "https://dc.lft.to/lastmile_qr_scan"}, "name": "97b5cf30d9f172d3bf82422006e577a8", "is_reserved": 0}, {"is_disabled": 0, "fusion_lon": 0.0, "fusion_lat": 0.0, "lat": 38.897168, "type": "electric_scooter", "lon": -77.02165483333333, "bike_id": "d37cc4cfe71fa259e6b9c422bb7a24b7", "rental_uris": {"android": "https://dc.lft.to/lastmile_qr_scan", "ios": "https://dc.lft.to/lastmile_qr_scan"}, "name": "d37cc4cfe71fa259e6b9c422bb7a24b7", "is_reserved": 0}, {"is_disabled": 0, "fusion_lon": 0.0, "fusion_lat": 0.0, "lat": 38.948134, "type": "electric_bike", "lon": -77.02980683333334, "bike_id": "693180336017a52b84a5142d9671aea0", "rental_uris": {"android": "https://dc.lft.to/lastmile_qr_scan", "ios": "https://dc.lft.to/lastmile_qr_scan"}, "name": "693180336017a52b84a5142d9671aea0", "is_reserved": 0}, {"is_disabled": 0, "fusion_lon": 0.0, "fusion_lat": 0.0, "lat": 38.94890816666667, "type": "electric_bike", "lon": -76.96379016666667, "bike_id": "8903730827b625d4cdfa453138ce6244", "rental_uris": {"android": "https://dc.lft.to/lastmile_qr_scan", "ios": "https://dc.lft.to/lastmile_qr_scan"}, "name": "8903730827b625d4cdfa453138ce6244", "is_reserved": 0}, {"is_disabled": 0, "fusion_lon": 0.0, "fusion_lat": 0.0, "lat": 38.888353, "type": "electric_scooter", "lon": -76.91774, "bike_id": "a4e8b4192f90870c43b0097a31588d6f", "rental_uris": {"android": "https://dc.lft.to/lastmile_qr_scan", "ios": "https://dc.lft.to/lastmile_qr_scan"}, "name": "a4e8b4192f90870c43b0097a31588d6f", "is_reserved": 0}, {"is_disabled": 0, "fusion_lon": 0.0, "fusion_lat": 0.0, "lat": 38.905553, "type": "electric_scooter", "lon": -77.04652133333333, "bike_id": "89b76148d530560fa467517ad34029bc", "rental_uris": {"android": "https://dc.lft.to/lastmile_qr_scan", "ios": "https://dc.lft.to/lastmile_qr_scan"}, "name": "89b76148d530560fa467517ad34029bc", "is_reserved": 0}, {"is_disabled": 0, "fusion_lon": 0.0, "fusion_lat": 0.0, "lat": 38.91047916666667, "type": "electric_scooter", "lon": -77.0220825, "bike_id": "cac575af0587e1bc0f3fc1b763762677", "rental_uris": {"android": "https://dc.lft.to/lastmile_qr_scan", "ios": "https://dc.lft.to/lastmile_qr_scan"}, "name": "cac575af0587e1bc0f3fc1b763762677", "is_reserved": 0}, {"is_disabled": 0, "fusion_lon": 0.0, "fusion_lat": 0.0, "lat": 38.91810666666667, "type": "electric_scooter", "lon": -77.0140415, "bike_id": "36440476a875e40f3a34427ef288e81e", "rental_uris": {"android": "https://dc.lft.to/lastmile_qr_scan", "ios": "https://dc.lft.to/lastmile_qr_scan"}, "name": "36440476a875e40f3a34427ef288e81e", "is_reserved": 0}, {"is_disabled": 0, "fusion_lon": 0.0, "fusion_lat": 0.0, "lat": 38.92033133333334, "type": "electric_scooter", "lon": -77.025851, "bike_id": "5cc4ceedfc9b34efcd78b5598aaf2066", "rental_uris": {"android": "https://dc.lft.to/lastmile_qr_scan", "ios": "https://dc.lft.to/lastmile_qr_scan"}, "name": "5cc4ceedfc9b34efcd78b5598aaf2066", "is_reserved": 0}, {"is_disabled": 0, "fusion_lon": 0.0, "fusion_lat": 0.0, "lat": 38.91856116666666, "type": "electric_bike", "lon": -76.960948, "bike_id": "c1d4b9a056bb5bc074a87e4b16d5576a", "rental_uris": {"android": "https://dc.lft.to/lastmile_qr_scan", "ios": "https://dc.lft.to/lastmile_qr_scan"}, "name": "c1d4b9a056bb5bc074a87e4b16d5576a", "is_reserved": 0}, {"is_disabled": 0, "fusion_lon": 0.0, "fusion_lat": 0.0, "lat": 38.868436333333335, "type": "electric_bike", "lon": -77.09734466666667, "bike_id": "d0ed64b346f085642fd9aef96226d539", "rental_uris": {"android": "https://dc.lft.to/lastmile_qr_scan", "ios": "https://dc.lft.to/lastmile_qr_scan"}, "name": "d0ed64b346f085642fd9aef96226d539", "is_reserved": 0}, {"is_disabled": 0, "fusion_lon": 0.0, "fusion_lat": 0.0, "lat": 38.91090966666667, "type": "electric_scooter", "lon": -77.04258183333333, "bike_id": "11435ccc588ffa963409ec99b0773a89", "rental_uris": {"android": "https://dc.lft.to/lastmile_qr_scan", "ios": "https://dc.lft.to/lastmile_qr_scan"}, "name": "11435ccc588ffa963409ec99b0773a89", "is_reserved": 0}, {"is_disabled": 0, "fusion_lon": 0.0, "fusion_lat": 0.0, "lat": 38.89852466666667, "type": "electric_bike", "lon": -76.93190166666666, "bike_id": "8391bc7d30960d42b1e6a28676364de1", "rental_uris": {"android": "https://dc.lft.to/lastmile_qr_scan", "ios": "https://dc.lft.to/lastmile_qr_scan"}, "name": "8391bc7d30960d42b1e6a28676364de1", "is_reserved": 0}, {"is_disabled": 0, "fusion_lon": 0.0, "fusion_lat": 0.0, "lat": 38.90769516666667, "type": "electric_scooter", "lon": -77.03463133333334, "bike_id": "25b57b612d4fcf554a27c70b6d65649a", "rental_uris": {"android": "https://dc.lft.to/lastmile_qr_scan", "ios": "https://dc.lft.to/lastmile_qr_scan"}, "name": "25b57b612d4fcf554a27c70b6d65649a", "is_reserved": 0}, {"is_disabled": 0, "fusion_lon": 0.0, "fusion_lat": 0.0, "lat": 38.9141945, "type": "electric_scooter", "lon": -77.02566733333333, "bike_id": "0e01d004d7c685b7ecc4de8e7e73825a", "rental_uris": {"android": "https://dc.lft.to/lastmile_qr_scan", "ios": "https://dc.lft.to/lastmile_qr_scan"}, "name": "0e01d004d7c685b7ecc4de8e7e73825a", "is_reserved": 0}, {"is_disabled": 0, "fusion_lon": 0.0, "fusion_lat": 0.0, "lat": 38.9391125, "type": "electric_bike", "lon": -77.06045466666667, "bike_id": "a5c6d61a1471ba8778eda759f65df799", "rental_uris": {"android": "https://dc.lft.to/lastmile_qr_scan", "ios": "https://dc.lft.to/lastmile_qr_scan"}, "name": "a5c6d61a1471ba8778eda759f65df799", "is_reserved": 0}, {"is_disabled": 0, "fusion_lon": 0.0, "fusion_lat": 0.0, "lat": 38.91808066666667, "type": "electric_scooter", "lon": -77.02689066666667, "bike_id": "68342e56824f7291bedcce5ad7508a42", "rental_uris": {"android": "https://dc.lft.to/lastmile_qr_scan", "ios": "https://dc.lft.to/lastmile_qr_scan"}, "name": "68342e56824f7291bedcce5ad7508a42", "is_reserved": 0}, {"is_disabled": 0, "fusion_lon": 0.0, "fusion_lat": 0.0, "lat": 38.916947, "type": "electric_scooter", "lon": -77.01216583333333, "bike_id": "e2f583164415b031261f109b4df7ff31", "rental_uris": {"android": "https://dc.lft.to/lastmile_qr_scan", "ios": "https://dc.lft.to/lastmile_qr_scan"}, "name": "e2f583164415b031261f109b4df7ff31", "is_reserved": 0}, {"is_disabled": 0, "fusion_lon": 0.0, "fusion_lat": 0.0, "lat": 38.870532, "type": "electric_bike", "lon": -77.01357633333333, "bike_id": "343fd825db431b615b7b04c4ae51d51d", "rental_uris": {"android": "https://dc.lft.to/lastmile_qr_scan", "ios": "https://dc.lft.to/lastmile_qr_scan"}, "name": "343fd825db431b615b7b04c4ae51d51d", "is_reserved": 0}, {"is_disabled": 0, "fusion_lon": 0.0, "fusion_lat": 0.0, "lat": 38.89814416666667, "type": "electric_scooter", "lon": -77.002195, "bike_id": "73fd1a7ad10f3d8f5385e9d3469877ac", "rental_uris": {"android": "https://dc.lft.to/lastmile_qr_scan", "ios": "https://dc.lft.to/lastmile_qr_scan"}, "name": "73fd1a7ad10f3d8f5385e9d3469877ac", "is_reserved": 0}, {"is_disabled": 0, "fusion_lon": 0.0, "fusion_lat": 0.0, "lat": 38.91815283333333, "type": "electric_scooter", "lon": -77.02481233333333, "bike_id": "e905e1c07de73f6fd3c3541c89112e19", "rental_uris": {"android": "https://dc.lft.to/lastmile_qr_scan", "ios": "https://dc.lft.to/lastmile_qr_scan"}, "name": "e905e1c07de73f6fd3c3541c89112e19", "is_reserved": 0}, {"is_disabled": 0, "fusion_lon": 0.0, "fusion_lat": 0.0, "lat": 38.899089000000004, "type": "electric_scooter", "lon": -76.93393233333333, "bike_id": "31eca2254dedc836933d84680c957f56", "rental_uris": {"android": "https://dc.lft.to/lastmile_qr_scan", "ios": "https://dc.lft.to/lastmile_qr_scan"}, "name": "31eca2254dedc836933d84680c957f56", "is_reserved": 0}, {"is_disabled": 0, "fusion_lon": 0.0, "fusion_lat": 0.0, "lat": 38.901528, "type": "electric_scooter", "lon": -77.05899416666666, "bike_id": "d0d1dba5ffc243bc2af4b9d079501861", "rental_uris": {"android": "https://dc.lft.to/lastmile_qr_scan", "ios": "https://dc.lft.to/lastmile_qr_scan"}, "name": "d0d1dba5ffc243bc2af4b9d079501861", "is_reserved": 0}, {"is_disabled": 0, "fusion_lon": 0.0, "fusion_lat": 0.0, "lat": 38.90562, "type": "electric_scooter", "lon": -77.0408805, "bike_id": "7fa1cb96aa8a3408e379a7ec1de4f4ac", "rental_uris": {"android": "https://dc.lft.to/lastmile_qr_scan", "ios": "https://dc.lft.to/lastmile_qr_scan"}, "name": "7fa1cb96aa8a3408e379a7ec1de4f4ac", "is_reserved": 0}, {"is_disabled": 0, "fusion_lon": 0.0, "fusion_lat": 0.0, "lat": 38.9030855, "type": "electric_scooter", "lon": -77.02366183333334, "bike_id": "cd372031ba0b215265ddaa3690b6c8e6", "rental_uris": {"android": "https://dc.lft.to/lastmile_qr_scan", "ios": "https://dc.lft.to/lastmile_qr_scan"}, "name": "cd372031ba0b215265ddaa3690b6c8e6", "is_reserved": 0}, {"is_disabled": 0, "fusion_lon": 0.0, "fusion_lat": 0.0, "lat": 38.905535, "type": "electric_scooter", "lon": -77.04650933333333, "bike_id": "909bfeb34738d856bd08d6ab2b1c1d5e", "rental_uris": {"android": "https://dc.lft.to/lastmile_qr_scan", "ios": "https://dc.lft.to/lastmile_qr_scan"}, "name": "909bfeb34738d856bd08d6ab2b1c1d5e", "is_reserved": 0}, {"is_disabled": 0, "fusion_lon": 0.0, "fusion_lat": 0.0, "lat": 38.90249683333333, "type": "electric_scooter", "lon": -77.03635466666667, "bike_id": "b41951e27ad5a018e5f51c376ae417d5", "rental_uris": {"android": "https://dc.lft.to/lastmile_qr_scan", "ios": "https://dc.lft.to/lastmile_qr_scan"}, "name": "b41951e27ad5a018e5f51c376ae417d5", "is_reserved": 0}, {"is_disabled": 0, "fusion_lon": 0.0, "fusion_lat": 0.0, "lat": 38.9201145, "type": "electric_scooter", "lon": -77.03155033333333, "bike_id": "b940e663d704de886da8ef55203dd056", "rental_uris": {"android": "https://dc.lft.to/lastmile_qr_scan", "ios": "https://dc.lft.to/lastmile_qr_scan"}, "name": "b940e663d704de886da8ef55203dd056", "is_reserved": 0}, {"is_disabled": 0, "fusion_lon": 0.0, "fusion_lat": 0.0, "lat": 38.8426915, "type": "electric_bike", "lon": -76.9884595, "bike_id": "69f8400730fd9ec7c99ca4432f97ed1d", "rental_uris": {"android": "https://dc.lft.to/lastmile_qr_scan", "ios": "https://dc.lft.to/lastmile_qr_scan"}, "name": "69f8400730fd9ec7c99ca4432f97ed1d", "is_reserved": 0}, {"is_disabled": 0, "fusion_lon": 0.0, "fusion_lat": 0.0, "lat": 38.90636833333333, "type": "electric_scooter", "lon": -77.00597216666667, "bike_id": "fe9377eb01bd4dd9469590aa6ce1fb7a", "rental_uris": {"android": "https://dc.lft.to/lastmile_qr_scan", "ios": "https://dc.lft.to/lastmile_qr_scan"}, "name": "fe9377eb01bd4dd9469590aa6ce1fb7a", "is_reserved": 0}, {"is_disabled": 0, "fusion_lon": 0.0, "fusion_lat": 0.0, "lat": 38.90290383333333, "type": "electric_scooter", "lon": -77.03440166666667, "bike_id": "dae41d35e9698c6c589c3338cac89b9a", "rental_uris": {"android": "https://dc.lft.to/lastmile_qr_scan", "ios": "https://dc.lft.to/lastmile_qr_scan"}, "name": "dae41d35e9698c6c589c3338cac89b9a", "is_reserved": 0}, {"is_disabled": 0, "fusion_lon": 0.0, "fusion_lat": 0.0, "lat": 38.89709, "type": "electric_scooter", "lon": -77.024405, "bike_id": "7293adc752ba6a8e2ea27c8367c289a3", "rental_uris": {"android": "https://dc.lft.to/lastmile_qr_scan", "ios": "https://dc.lft.to/lastmile_qr_scan"}, "name": "7293adc752ba6a8e2ea27c8367c289a3", "is_reserved": 0}, {"is_disabled": 0, "fusion_lon": 0.0, "fusion_lat": 0.0, "lat": 38.927366166666665, "type": "electric_scooter", "lon": -77.05356283333333, "bike_id": "22e7be5262106bb817e53944c83a5620", "rental_uris": {"android": "https://dc.lft.to/lastmile_qr_scan", "ios": "https://dc.lft.to/lastmile_qr_scan"}, "name": "22e7be5262106bb817e53944c83a5620", "is_reserved": 0}, {"is_disabled": 0, "fusion_lon": 0.0, "fusion_lat": 0.0, "lat": 38.8994515, "type": "electric_scooter", "lon": -77.03184883333333, "bike_id": "48f8bc8153eb72991eb2dfe56f771b90", "rental_uris": {"android": "https://dc.lft.to/lastmile_qr_scan", "ios": "https://dc.lft.to/lastmile_qr_scan"}, "name": "48f8bc8153eb72991eb2dfe56f771b90", "is_reserved": 0}, {"is_disabled": 0, "fusion_lon": 0.0, "fusion_lat": 0.0, "lat": 38.93486383333333, "type": "electric_scooter", "lon": -77.02417483333333, "bike_id": "46f7347ce9d2f1778b69fd0c824edfb4", "rental_uris": {"android": "https://dc.lft.to/lastmile_qr_scan", "ios": "https://dc.lft.to/lastmile_qr_scan"}, "name": "46f7347ce9d2f1778b69fd0c824edfb4", "is_reserved": 0}, {"is_disabled": 0, "fusion_lon": 0.0, "fusion_lat": 0.0, "lat": 38.95785166666667, "type": "electric_scooter", "lon": -77.02469416666666, "bike_id": "4e4403e71773a861a8b6fed3e5b52a40", "rental_uris": {"android": "https://dc.lft.to/lastmile_qr_scan", "ios": "https://dc.lft.to/lastmile_qr_scan"}, "name": "4e4403e71773a861a8b6fed3e5b52a40", "is_reserved": 0}, {"is_disabled": 0, "fusion_lon": 0.0, "fusion_lat": 0.0, "lat": 38.9128305, "type": "electric_scooter", "lon": -76.9869355, "bike_id": "ced987dc98b899bc00834901e92885d7", "rental_uris": {"android": "https://dc.lft.to/lastmile_qr_scan", "ios": "https://dc.lft.to/lastmile_qr_scan"}, "name": "ced987dc98b899bc00834901e92885d7", "is_reserved": 0}, {"is_disabled": 0, "fusion_lon": 0.0, "fusion_lat": 0.0, "lat": 38.945364833333336, "type": "electric_bike", "lon": -77.34463833333334, "bike_id": "ee48b798b68faa2b974f28bd072aee1b", "rental_uris": {"android": "https://dc.lft.to/lastmile_qr_scan", "ios": "https://dc.lft.to/lastmile_qr_scan"}, "name": "ee48b798b68faa2b974f28bd072aee1b", "is_reserved": 0}, {"is_disabled": 0, "fusion_lon": 0.0, "fusion_lat": 0.0, "lat": 38.8874905, "type": "electric_scooter", "lon": -77.02226833333333, "bike_id": "1123739e5a9b9e38dfa76f7351f60d50", "rental_uris": {"android": "https://dc.lft.to/lastmile_qr_scan", "ios": "https://dc.lft.to/lastmile_qr_scan"}, "name": "1123739e5a9b9e38dfa76f7351f60d50", "is_reserved": 0}, {"is_disabled": 0, "fusion_lon": 0.0, "fusion_lat": 0.0, "lat": 38.908084833333334, "type": "electric_scooter", "lon": -77.03945833333333, "bike_id": "e87353732833354e4188eccd4b205bd7", "rental_uris": {"android": "https://dc.lft.to/lastmile_qr_scan", "ios": "https://dc.lft.to/lastmile_qr_scan"}, "name": "e87353732833354e4188eccd4b205bd7", "is_reserved": 0}, {"is_disabled": 0, "fusion_lon": 0.0, "fusion_lat": 0.0, "lat": 38.9654015, "type": "electric_bike", "lon": -76.9706375, "bike_id": "1ac692b2b8c4c8d9b93079988e9f4664", "rental_uris": {"android": "https://dc.lft.to/lastmile_qr_scan", "ios": "https://dc.lft.to/lastmile_qr_scan"}, "name": "1ac692b2b8c4c8d9b93079988e9f4664", "is_reserved": 0}, {"is_disabled": 0, "fusion_lon": 0.0, "fusion_lat": 0.0, "lat": 38.91875916666667, "type": "electric_scooter", "lon": -77.02446366666666, "bike_id": "02026505154974a2c78e2fc5a87a0232", "rental_uris": {"android": "https://dc.lft.to/lastmile_qr_scan", "ios": "https://dc.lft.to/lastmile_qr_scan"}, "name": "02026505154974a2c78e2fc5a87a0232", "is_reserved": 0}, {"is_disabled": 0, "fusion_lon": 0.0, "fusion_lat": 0.0, "lat": 38.949748166666666, "type": "electric_scooter", "lon": -77.09443233333333, "bike_id": "3557b75d08f611de4d92f2a90122c381", "rental_uris": {"android": "https://dc.lft.to/lastmile_qr_scan", "ios": "https://dc.lft.to/lastmile_qr_scan"}, "name": "3557b75d08f611de4d92f2a90122c381", "is_reserved": 0}, {"is_disabled": 0, "fusion_lon": 0.0, "fusion_lat": 0.0, "lat": 38.87667866666666, "type": "electric_scooter", "lon": -76.93195716666666, "bike_id": "4cea7d2b3310cf42cb8b8f916cccbd50", "rental_uris": {"android": "https://dc.lft.to/lastmile_qr_scan", "ios": "https://dc.lft.to/lastmile_qr_scan"}, "name": "4cea7d2b3310cf42cb8b8f916cccbd50", "is_reserved": 0}, {"is_disabled": 0, "fusion_lon": 0.0, "fusion_lat": 0.0, "lat": 38.900237833333335, "type": "electric_scooter", "lon": -77.024099, "bike_id": "a96d65e660afd6d6c3aeb24b1e6f1654", "rental_uris": {"android": "https://dc.lft.to/lastmile_qr_scan", "ios": "https://dc.lft.to/lastmile_qr_scan"}, "name": "a96d65e660afd6d6c3aeb24b1e6f1654", "is_reserved": 0}, {"is_disabled": 0, "fusion_lon": 0.0, "fusion_lat": 0.0, "lat": 38.92219383333333, "type": "electric_scooter", "lon": -77.04242066666667, "bike_id": "77bf311495152fec47000dafa7ff1801", "rental_uris": {"android": "https://dc.lft.to/lastmile_qr_scan", "ios": "https://dc.lft.to/lastmile_qr_scan"}, "name": "77bf311495152fec47000dafa7ff1801", "is_reserved": 0}, {"is_disabled": 0, "fusion_lon": 0.0, "fusion_lat": 0.0, "lat": 38.93388683333333, "type": "electric_scooter", "lon": -77.04546183333333, "bike_id": "c07df2614d15884905f30b5ff678c94d", "rental_uris": {"android": "https://dc.lft.to/lastmile_qr_scan", "ios": "https://dc.lft.to/lastmile_qr_scan"}, "name": "c07df2614d15884905f30b5ff678c94d", "is_reserved": 0}, {"is_disabled": 0, "fusion_lon": 0.0, "fusion_lat": 0.0, "lat": 38.917048333333334, "type": "electric_scooter", "lon": -77.02828383333333, "bike_id": "ce828823ba38755a39641710dcb803df", "rental_uris": {"android": "https://dc.lft.to/lastmile_qr_scan", "ios": "https://dc.lft.to/lastmile_qr_scan"}, "name": "ce828823ba38755a39641710dcb803df", "is_reserved": 0}, {"is_disabled": 0, "fusion_lon": 0.0, "fusion_lat": 0.0, "lat": 38.87826616666667, "type": "electric_scooter", "lon": -76.9631835, "bike_id": "8ab7bb4217c10ab7618baa22fbe933b5", "rental_uris": {"android": "https://dc.lft.to/lastmile_qr_scan", "ios": "https://dc.lft.to/lastmile_qr_scan"}, "name": "8ab7bb4217c10ab7618baa22fbe933b5", "is_reserved": 0}, {"is_disabled": 0, "fusion_lon": 0.0, "fusion_lat": 0.0, "lat": 38.8657615, "type": "electric_scooter", "lon": -76.9871685, "bike_id": "3000bc9ad1ce23c22f1f6e744e995bb8", "rental_uris": {"android": "https://dc.lft.to/lastmile_qr_scan", "ios": "https://dc.lft.to/lastmile_qr_scan"}, "name": "3000bc9ad1ce23c22f1f6e744e995bb8", "is_reserved": 0}, {"is_disabled": 0, "fusion_lon": 0.0, "fusion_lat": 0.0, "lat": 38.934750333333334, "type": "electric_scooter", "lon": -77.07271766666666, "bike_id": "e6df29d336da7e37dc2f87becebe9a52", "rental_uris": {"android": "https://dc.lft.to/lastmile_qr_scan", "ios": "https://dc.lft.to/lastmile_qr_scan"}, "name": "e6df29d336da7e37dc2f87becebe9a52", "is_reserved": 0}, {"is_disabled": 0, "fusion_lon": 0.0, "fusion_lat": 0.0, "lat": 38.92783033333333, "type": "electric_scooter", "lon": -77.0320245, "bike_id": "2fa8b63f383b6125acc2580fa78e6316", "rental_uris": {"android": "https://dc.lft.to/lastmile_qr_scan", "ios": "https://dc.lft.to/lastmile_qr_scan"}, "name": "2fa8b63f383b6125acc2580fa78e6316", "is_reserved": 0}, {"is_disabled": 0, "fusion_lon": 0.0, "fusion_lat": 0.0, "lat": 38.94150233333333, "type": "electric_bike", "lon": -77.0019705, "bike_id": "bd006ba244ff0004fa688090f73b945c", "rental_uris": {"android": "https://dc.lft.to/lastmile_qr_scan", "ios": "https://dc.lft.to/lastmile_qr_scan"}, "name": "bd006ba244ff0004fa688090f73b945c", "is_reserved": 0}, {"is_disabled": 0, "fusion_lon": 0.0, "fusion_lat": 0.0, "lat": 38.93528233333333, "type": "electric_scooter", "lon": -77.0235715, "bike_id": "dc7eb76f763577b749be1119c29351ec", "rental_uris": {"android": "https://dc.lft.to/lastmile_qr_scan", "ios": "https://dc.lft.to/lastmile_qr_scan"}, "name": "dc7eb76f763577b749be1119c29351ec", "is_reserved": 0}, {"is_disabled": 0, "fusion_lon": 0.0, "fusion_lat": 0.0, "lat": 38.929717, "type": "electric_scooter", "lon": -77.0329435, "bike_id": "1aa4adda5a7b857c55f6c24d1b90fbf3", "rental_uris": {"android": "https://dc.lft.to/lastmile_qr_scan", "ios": "https://dc.lft.to/lastmile_qr_scan"}, "name": "1aa4adda5a7b857c55f6c24d1b90fbf3", "is_reserved": 0}, {"is_disabled": 0, "fusion_lon": 0.0, "fusion_lat": 0.0, "lat": 38.91464666666667, "type": "electric_scooter", "lon": -76.98359116666667, "bike_id": "d3079e659a797c76189b04562ad6b383", "rental_uris": {"android": "https://dc.lft.to/lastmile_qr_scan", "ios": "https://dc.lft.to/lastmile_qr_scan"}, "name": "d3079e659a797c76189b04562ad6b383", "is_reserved": 0}, {"is_disabled": 0, "fusion_lon": 0.0, "fusion_lat": 0.0, "lat": 38.932018, "type": "electric_bike", "lon": -77.03301733333333, "bike_id": "0d137262005a86eb35cb6a0e9a3880f8", "rental_uris": {"android": "https://dc.lft.to/lastmile_qr_scan", "ios": "https://dc.lft.to/lastmile_qr_scan"}, "name": "0d137262005a86eb35cb6a0e9a3880f8", "is_reserved": 0}, {"is_disabled": 0, "fusion_lon": 0.0, "fusion_lat": 0.0, "lat": 38.933847666666665, "type": "electric_scooter", "lon": -77.02465533333333, "bike_id": "660d189bd54f51ba365d27f9a5674875", "rental_uris": {"android": "https://dc.lft.to/lastmile_qr_scan", "ios": "https://dc.lft.to/lastmile_qr_scan"}, "name": "660d189bd54f51ba365d27f9a5674875", "is_reserved": 0}, {"is_disabled": 0, "fusion_lon": 0.0, "fusion_lat": 0.0, "lat": 38.9218705, "type": "electric_scooter", "lon": -77.0380585, "bike_id": "8e8338ad5efa6188237fde6d9496105a", "rental_uris": {"android": "https://dc.lft.to/lastmile_qr_scan", "ios": "https://dc.lft.to/lastmile_qr_scan"}, "name": "8e8338ad5efa6188237fde6d9496105a", "is_reserved": 0}, {"is_disabled": 0, "fusion_lon": 0.0, "fusion_lat": 0.0, "lat": 38.9190905, "type": "electric_scooter", "lon": -77.07052016666667, "bike_id": "e48bf0e3ea012d651a71ca0ce936f000", "rental_uris": {"android": "https://dc.lft.to/lastmile_qr_scan", "ios": "https://dc.lft.to/lastmile_qr_scan"}, "name": "e48bf0e3ea012d651a71ca0ce936f000", "is_reserved": 0}, {"is_disabled": 0, "fusion_lon": 0.0, "fusion_lat": 0.0, "lat": 38.90895533333333, "type": "electric_scooter", "lon": -76.99856366666667, "bike_id": "f6b9bce7248447ac3aabd1391ccf2014", "rental_uris": {"android": "https://dc.lft.to/lastmile_qr_scan", "ios": "https://dc.lft.to/lastmile_qr_scan"}, "name": "f6b9bce7248447ac3aabd1391ccf2014", "is_reserved": 0}, {"is_disabled": 0, "fusion_lon": 0.0, "fusion_lat": 0.0, "lat": 38.98825633333333, "type": "electric_bike", "lon": -76.98756583333333, "bike_id": "8157a0b4fa1385616122109617d3aef1", "rental_uris": {"android": "https://dc.lft.to/lastmile_qr_scan", "ios": "https://dc.lft.to/lastmile_qr_scan"}, "name": "8157a0b4fa1385616122109617d3aef1", "is_reserved": 0}, {"is_disabled": 0, "fusion_lon": 0.0, "fusion_lat": 0.0, "lat": 38.89882933333333, "type": "electric_scooter", "lon": -76.98681083333334, "bike_id": "915d717615801b01c7f2776be360f50e", "rental_uris": {"android": "https://dc.lft.to/lastmile_qr_scan", "ios": "https://dc.lft.to/lastmile_qr_scan"}, "name": "915d717615801b01c7f2776be360f50e", "is_reserved": 0}, {"is_disabled": 0, "fusion_lon": 0.0, "fusion_lat": 0.0, "lat": 38.92254783333333, "type": "electric_scooter", "lon": -77.03530583333334, "bike_id": "572c93fab0b3efbd2b5533978fc579f7", "rental_uris": {"android": "https://dc.lft.to/lastmile_qr_scan", "ios": "https://dc.lft.to/lastmile_qr_scan"}, "name": "572c93fab0b3efbd2b5533978fc579f7", "is_reserved": 0}, {"is_disabled": 0, "fusion_lon": 0.0, "fusion_lat": 0.0, "lat": 38.90168033333333, "type": "electric_scooter", "lon": -77.05316816666667, "bike_id": "042062a8f8c546dc10d5d321b5172823", "rental_uris": {"android": "https://dc.lft.to/lastmile_qr_scan", "ios": "https://dc.lft.to/lastmile_qr_scan"}, "name": "042062a8f8c546dc10d5d321b5172823", "is_reserved": 0}, {"is_disabled": 0, "fusion_lon": 0.0, "fusion_lat": 0.0, "lat": 38.9275245, "type": "electric_scooter", "lon": -77.0335375, "bike_id": "90ad3096ac8cc743f4423890fec61beb", "rental_uris": {"android": "https://dc.lft.to/lastmile_qr_scan", "ios": "https://dc.lft.to/lastmile_qr_scan"}, "name": "90ad3096ac8cc743f4423890fec61beb", "is_reserved": 0}, {"is_disabled": 0, "fusion_lon": 0.0, "fusion_lat": 0.0, "lat": 38.88278616666667, "type": "electric_scooter", "lon": -76.987807, "bike_id": "7e887435958031155423097a9aface1c", "rental_uris": {"android": "https://dc.lft.to/lastmile_qr_scan", "ios": "https://dc.lft.to/lastmile_qr_scan"}, "name": "7e887435958031155423097a9aface1c", "is_reserved": 0}, {"is_disabled": 0, "fusion_lon": 0.0, "fusion_lat": 0.0, "lat": 38.92577516666667, "type": "electric_scooter", "lon": -76.99492683333334, "bike_id": "d2cea6e0dc9dfabc4e89018f7e7450de", "rental_uris": {"android": "https://dc.lft.to/lastmile_qr_scan", "ios": "https://dc.lft.to/lastmile_qr_scan"}, "name": "d2cea6e0dc9dfabc4e89018f7e7450de", "is_reserved": 0}, {"is_disabled": 0, "fusion_lon": 0.0, "fusion_lat": 0.0, "lat": 38.907330333333334, "type": "electric_scooter", "lon": -77.034475, "bike_id": "8d04a44c0100e8b11ead2585274fad0d", "rental_uris": {"android": "https://dc.lft.to/lastmile_qr_scan", "ios": "https://dc.lft.to/lastmile_qr_scan"}, "name": "8d04a44c0100e8b11ead2585274fad0d", "is_reserved": 0}, {"is_disabled": 0, "fusion_lon": 0.0, "fusion_lat": 0.0, "lat": 38.941978166666665, "type": "electric_scooter", "lon": -77.02577866666667, "bike_id": "965f96169a9d4877da795cdab0bde226", "rental_uris": {"android": "https://dc.lft.to/lastmile_qr_scan", "ios": "https://dc.lft.to/lastmile_qr_scan"}, "name": "965f96169a9d4877da795cdab0bde226", "is_reserved": 0}, {"is_disabled": 0, "fusion_lon": 0.0, "fusion_lat": 0.0, "lat": 38.91933383333333, "type": "electric_scooter", "lon": -77.025939, "bike_id": "b3bef974491106d18b8140260b92e957", "rental_uris": {"android": "https://dc.lft.to/lastmile_qr_scan", "ios": "https://dc.lft.to/lastmile_qr_scan"}, "name": "b3bef974491106d18b8140260b92e957", "is_reserved": 0}, {"is_disabled": 0, "fusion_lon": 0.0, "fusion_lat": 0.0, "lat": 38.805246833333335, "type": "electric_bike", "lon": -77.04992883333334, "bike_id": "d359722d8c92fbfc32fe96c32e9e259f", "rental_uris": {"android": "https://dc.lft.to/lastmile_qr_scan", "ios": "https://dc.lft.to/lastmile_qr_scan"}, "name": "d359722d8c92fbfc32fe96c32e9e259f", "is_reserved": 0}, {"is_disabled": 0, "fusion_lon": 0.0, "fusion_lat": 0.0, "lat": 38.912614833333336, "type": "electric_scooter", "lon": -77.03911833333333, "bike_id": "b44fc5e4fd122fcf21322c517883f29b", "rental_uris": {"android": "https://dc.lft.to/lastmile_qr_scan", "ios": "https://dc.lft.to/lastmile_qr_scan"}, "name": "b44fc5e4fd122fcf21322c517883f29b", "is_reserved": 0}, {"is_disabled": 0, "fusion_lon": 0.0, "fusion_lat": 0.0, "lat": 38.91243033333333, "type": "electric_scooter", "lon": -77.0122625, "bike_id": "bf5c14ea8ef1306976710f48d4593a25", "rental_uris": {"android": "https://dc.lft.to/lastmile_qr_scan", "ios": "https://dc.lft.to/lastmile_qr_scan"}, "name": "bf5c14ea8ef1306976710f48d4593a25", "is_reserved": 0}, {"is_disabled": 0, "fusion_lon": 0.0, "fusion_lat": 0.0, "lat": 38.88428366666667, "type": "electric_scooter", "lon": -76.99805316666666, "bike_id": "21d354eb4ad55ab749f232db225adf1b", "rental_uris": {"android": "https://dc.lft.to/lastmile_qr_scan", "ios": "https://dc.lft.to/lastmile_qr_scan"}, "name": "21d354eb4ad55ab749f232db225adf1b", "is_reserved": 0}, {"is_disabled": 0, "fusion_lon": 0.0, "fusion_lat": 0.0, "lat": 38.876573666666665, "type": "electric_scooter", "lon": -77.009042, "bike_id": "742c470840419eb4e8183c01f1d94950", "rental_uris": {"android": "https://dc.lft.to/lastmile_qr_scan", "ios": "https://dc.lft.to/lastmile_qr_scan"}, "name": "742c470840419eb4e8183c01f1d94950", "is_reserved": 0}, {"is_disabled": 0, "fusion_lon": 0.0, "fusion_lat": 0.0, "lat": 38.892225833333335, "type": "electric_scooter", "lon": -77.048057, "bike_id": "36f329d8ccea74352bd87dc163a76f00", "rental_uris": {"android": "https://dc.lft.to/lastmile_qr_scan", "ios": "https://dc.lft.to/lastmile_qr_scan"}, "name": "36f329d8ccea74352bd87dc163a76f00", "is_reserved": 0}, {"is_disabled": 0, "fusion_lon": 0.0, "fusion_lat": 0.0, "lat": 38.88396433333333, "type": "electric_scooter", "lon": -76.9541785, "bike_id": "8fe5ebbc82dcedf7478dbf46568a0a4c", "rental_uris": {"android": "https://dc.lft.to/lastmile_qr_scan", "ios": "https://dc.lft.to/lastmile_qr_scan"}, "name": "8fe5ebbc82dcedf7478dbf46568a0a4c", "is_reserved": 0}, {"is_disabled": 0, "fusion_lon": 0.0, "fusion_lat": 0.0, "lat": 39.088437666666664, "type": "electric_bike", "lon": -77.17803516666666, "bike_id": "b32b6bcd44fd3c1b4e76bb9fa8d51038", "rental_uris": {"android": "https://dc.lft.to/lastmile_qr_scan", "ios": "https://dc.lft.to/lastmile_qr_scan"}, "name": "b32b6bcd44fd3c1b4e76bb9fa8d51038", "is_reserved": 0}, {"is_disabled": 0, "fusion_lon": 0.0, "fusion_lat": 0.0, "lat": 38.90637, "type": "electric_scooter", "lon": -77.00607283333333, "bike_id": "64023ff76ae753946c3f4e6a7bed462e", "rental_uris": {"android": "https://dc.lft.to/lastmile_qr_scan", "ios": "https://dc.lft.to/lastmile_qr_scan"}, "name": "64023ff76ae753946c3f4e6a7bed462e", "is_reserved": 0}, {"is_disabled": 0, "fusion_lon": 0.0, "fusion_lat": 0.0, "lat": 38.87747483333333, "type": "electric_scooter", "lon": -77.00667533333333, "bike_id": "f1fc0304eae55d249e58231799cc6b66", "rental_uris": {"android": "https://dc.lft.to/lastmile_qr_scan", "ios": "https://dc.lft.to/lastmile_qr_scan"}, "name": "f1fc0304eae55d249e58231799cc6b66", "is_reserved": 0}, {"is_disabled": 0, "fusion_lon": 0.0, "fusion_lat": 0.0, "lat": 38.882153833333334, "type": "electric_scooter", "lon": -76.92704016666667, "bike_id": "2b11a0bc7c0a1bba893f6ece0eb1489a", "rental_uris": {"android": "https://dc.lft.to/lastmile_qr_scan", "ios": "https://dc.lft.to/lastmile_qr_scan"}, "name": "2b11a0bc7c0a1bba893f6ece0eb1489a", "is_reserved": 0}, {"is_disabled": 0, "fusion_lon": 0.0, "fusion_lat": 0.0, "lat": 38.901663166666665, "type": "electric_scooter", "lon": -77.02014883333334, "bike_id": "414f40be01cbef058284994d05e4ac62", "rental_uris": {"android": "https://dc.lft.to/lastmile_qr_scan", "ios": "https://dc.lft.to/lastmile_qr_scan"}, "name": "414f40be01cbef058284994d05e4ac62", "is_reserved": 0}, {"is_disabled": 0, "fusion_lon": 0.0, "fusion_lat": 0.0, "lat": 38.903341833333336, "type": "electric_scooter", "lon": -76.97576183333334, "bike_id": "aa87c163a8db9b740f18d544d40218aa", "rental_uris": {"android": "https://dc.lft.to/lastmile_qr_scan", "ios": "https://dc.lft.to/lastmile_qr_scan"}, "name": "aa87c163a8db9b740f18d544d40218aa", "is_reserved": 0}, {"is_disabled": 0, "fusion_lon": 0.0, "fusion_lat": 0.0, "lat": 38.91407233333334, "type": "electric_scooter", "lon": -77.02175616666666, "bike_id": "8ee2b3ea009a071bc3217894927bba71", "rental_uris": {"android": "https://dc.lft.to/lastmile_qr_scan", "ios": "https://dc.lft.to/lastmile_qr_scan"}, "name": "8ee2b3ea009a071bc3217894927bba71", "is_reserved": 0}, {"is_disabled": 0, "fusion_lon": 0.0, "fusion_lat": 0.0, "lat": 38.909637000000004, "type": "electric_scooter", "lon": -77.03837866666667, "bike_id": "018db0bc3ddb08afb279dd2c506dc5e5", "rental_uris": {"android": "https://dc.lft.to/lastmile_qr_scan", "ios": "https://dc.lft.to/lastmile_qr_scan"}, "name": "018db0bc3ddb08afb279dd2c506dc5e5", "is_reserved": 0}, {"is_disabled": 0, "fusion_lon": 0.0, "fusion_lat": 0.0, "lat": 38.9555815, "type": "electric_scooter", "lon": -77.06996816666667, "bike_id": "3bcca7e652c46a0a79538bd610b798e6", "rental_uris": {"android": "https://dc.lft.to/lastmile_qr_scan", "ios": "https://dc.lft.to/lastmile_qr_scan"}, "name": "3bcca7e652c46a0a79538bd610b798e6", "is_reserved": 0}, {"is_disabled": 0, "fusion_lon": 0.0, "fusion_lat": 0.0, "lat": 38.912697, "type": "electric_scooter", "lon": -77.02239816666666, "bike_id": "8eca18d0a9988b483e4c906a7cfb5070", "rental_uris": {"android": "https://dc.lft.to/lastmile_qr_scan", "ios": "https://dc.lft.to/lastmile_qr_scan"}, "name": "8eca18d0a9988b483e4c906a7cfb5070", "is_reserved": 0}, {"is_disabled": 0, "fusion_lon": 0.0, "fusion_lat": 0.0, "lat": 38.913281833333336, "type": "electric_scooter", "lon": -77.03207083333334, "bike_id": "c0492021267bd33dfb389304fee6ee4b", "rental_uris": {"android": "https://dc.lft.to/lastmile_qr_scan", "ios": "https://dc.lft.to/lastmile_qr_scan"}, "name": "c0492021267bd33dfb389304fee6ee4b", "is_reserved": 0}, {"is_disabled": 0, "fusion_lon": 0.0, "fusion_lat": 0.0, "lat": 38.917980166666666, "type": "electric_scooter", "lon": -77.0343995, "bike_id": "458feffe9875c6e9f551cd761692a427", "rental_uris": {"android": "https://dc.lft.to/lastmile_qr_scan", "ios": "https://dc.lft.to/lastmile_qr_scan"}, "name": "458feffe9875c6e9f551cd761692a427", "is_reserved": 0}, {"is_disabled": 0, "fusion_lon": 0.0, "fusion_lat": 0.0, "lat": 38.908516, "type": "electric_scooter", "lon": -77.0476955, "bike_id": "bdc9d6cdecb04343340964400fa14ce0", "rental_uris": {"android": "https://dc.lft.to/lastmile_qr_scan", "ios": "https://dc.lft.to/lastmile_qr_scan"}, "name": "bdc9d6cdecb04343340964400fa14ce0", "is_reserved": 0}, {"is_disabled": 0, "fusion_lon": 0.0, "fusion_lat": 0.0, "lat": 38.91614833333333, "type": "electric_scooter", "lon": -77.0325725, "bike_id": "8db066426d749d2ddc2c4dbc86fdd18a", "rental_uris": {"android": "https://dc.lft.to/lastmile_qr_scan", "ios": "https://dc.lft.to/lastmile_qr_scan"}, "name": "8db066426d749d2ddc2c4dbc86fdd18a", "is_reserved": 0}, {"is_disabled": 0, "fusion_lon": 0.0, "fusion_lat": 0.0, "lat": 38.91100866666667, "type": "electric_scooter", "lon": -77.02421966666667, "bike_id": "d37d53acd4511e4f35414c2ed1fc7238", "rental_uris": {"android": "https://dc.lft.to/lastmile_qr_scan", "ios": "https://dc.lft.to/lastmile_qr_scan"}, "name": "d37d53acd4511e4f35414c2ed1fc7238", "is_reserved": 0}, {"is_disabled": 0, "fusion_lon": 0.0, "fusion_lat": 0.0, "lat": 38.9197835, "type": "electric_scooter", "lon": -77.0327465, "bike_id": "89900a5893c8537080f6b4e9242beaf6", "rental_uris": {"android": "https://dc.lft.to/lastmile_qr_scan", "ios": "https://dc.lft.to/lastmile_qr_scan"}, "name": "89900a5893c8537080f6b4e9242beaf6", "is_reserved": 0}, {"is_disabled": 0, "fusion_lon": 0.0, "fusion_lat": 0.0, "lat": 38.94603383333333, "type": "electric_scooter", "lon": -77.029798, "bike_id": "3f34e6dae68f064dd816c529d3939b59", "rental_uris": {"android": "https://dc.lft.to/lastmile_qr_scan", "ios": "https://dc.lft.to/lastmile_qr_scan"}, "name": "3f34e6dae68f064dd816c529d3939b59", "is_reserved": 0}, {"is_disabled": 0, "fusion_lon": 0.0, "fusion_lat": 0.0, "lat": 38.989905666666665, "type": "electric_scooter", "lon": -77.03365766666667, "bike_id": "0b5af00dbbd6fc5dcba28bf3da45b70b", "rental_uris": {"android": "https://dc.lft.to/lastmile_qr_scan", "ios": "https://dc.lft.to/lastmile_qr_scan"}, "name": "0b5af00dbbd6fc5dcba28bf3da45b70b", "is_reserved": 0}, {"is_disabled": 0, "fusion_lon": 0.0, "fusion_lat": 0.0, "lat": 38.88495983333333, "type": "electric_scooter", "lon": -77.0172545, "bike_id": "1d041786cdf8472791b0e6b6138b84ea", "rental_uris": {"android": "https://dc.lft.to/lastmile_qr_scan", "ios": "https://dc.lft.to/lastmile_qr_scan"}, "name": "1d041786cdf8472791b0e6b6138b84ea", "is_reserved": 0}, {"is_disabled": 0, "fusion_lon": 0.0, "fusion_lat": 0.0, "lat": 38.8971005, "type": "electric_scooter", "lon": -77.021484, "bike_id": "76a47924e3f88c84548fc56ae7c44273", "rental_uris": {"android": "https://dc.lft.to/lastmile_qr_scan", "ios": "https://dc.lft.to/lastmile_qr_scan"}, "name": "76a47924e3f88c84548fc56ae7c44273", "is_reserved": 0}, {"is_disabled": 0, "fusion_lon": 0.0, "fusion_lat": 0.0, "lat": 38.90199883333333, "type": "electric_scooter", "lon": -77.024307, "bike_id": "50ebf018260dda5a76933154b46ca306", "rental_uris": {"android": "https://dc.lft.to/lastmile_qr_scan", "ios": "https://dc.lft.to/lastmile_qr_scan"}, "name": "50ebf018260dda5a76933154b46ca306", "is_reserved": 0}, {"is_disabled": 0, "fusion_lon": 0.0, "fusion_lat": 0.0, "lat": 38.894853166666664, "type": "electric_scooter", "lon": -77.00950916666666, "bike_id": "c14f9a37048838a597949a68b903a3c7", "rental_uris": {"android": "https://dc.lft.to/lastmile_qr_scan", "ios": "https://dc.lft.to/lastmile_qr_scan"}, "name": "c14f9a37048838a597949a68b903a3c7", "is_reserved": 0}, {"is_disabled": 0, "fusion_lon": 0.0, "fusion_lat": 0.0, "lat": 38.94588616666667, "type": "electric_bike", "lon": -77.34413633333334, "bike_id": "e42c698d8de3f1a9cc2d9a9b9160fedb", "rental_uris": {"android": "https://dc.lft.to/lastmile_qr_scan", "ios": "https://dc.lft.to/lastmile_qr_scan"}, "name": "e42c698d8de3f1a9cc2d9a9b9160fedb", "is_reserved": 0}, {"is_disabled": 0, "fusion_lon": 0.0, "fusion_lat": 0.0, "lat": 38.90550616666667, "type": "electric_scooter", "lon": -76.9814585, "bike_id": "f0395ae4d42fbfcb72ccffe5726f1484", "rental_uris": {"android": "https://dc.lft.to/lastmile_qr_scan", "ios": "https://dc.lft.to/lastmile_qr_scan"}, "name": "f0395ae4d42fbfcb72ccffe5726f1484", "is_reserved": 0}, {"is_disabled": 0, "fusion_lon": 0.0, "fusion_lat": 0.0, "lat": 38.881856666666664, "type": "electric_scooter", "lon": -76.99507, "bike_id": "fdfef1794f21cfb0411461de996b8ac5", "rental_uris": {"android": "https://dc.lft.to/lastmile_qr_scan", "ios": "https://dc.lft.to/lastmile_qr_scan"}, "name": "fdfef1794f21cfb0411461de996b8ac5", "is_reserved": 0}, {"is_disabled": 0, "fusion_lon": 0.0, "fusion_lat": 0.0, "lat": 38.903301666666664, "type": "electric_scooter", "lon": -76.99233916666667, "bike_id": "62f8fcdc47d887a781131696e871bac7", "rental_uris": {"android": "https://dc.lft.to/lastmile_qr_scan", "ios": "https://dc.lft.to/lastmile_qr_scan"}, "name": "62f8fcdc47d887a781131696e871bac7", "is_reserved": 0}, {"is_disabled": 0, "fusion_lon": 0.0, "fusion_lat": 0.0, "lat": 38.893885, "type": "electric_scooter", "lon": -76.95001816666667, "bike_id": "763c2125b3f0510972553854956a78a6", "rental_uris": {"android": "https://dc.lft.to/lastmile_qr_scan", "ios": "https://dc.lft.to/lastmile_qr_scan"}, "name": "763c2125b3f0510972553854956a78a6", "is_reserved": 0}, {"is_disabled": 0, "fusion_lon": 0.0, "fusion_lat": 0.0, "lat": 38.91709933333333, "type": "electric_scooter", "lon": -77.032389, "bike_id": "47dd9b89511c794c49bcbe498d359a28", "rental_uris": {"android": "https://dc.lft.to/lastmile_qr_scan", "ios": "https://dc.lft.to/lastmile_qr_scan"}, "name": "47dd9b89511c794c49bcbe498d359a28", "is_reserved": 0}, {"is_disabled": 0, "fusion_lon": 0.0, "fusion_lat": 0.0, "lat": 39.05457466666667, "type": "electric_bike", "lon": -77.143279, "bike_id": "3a1c00ef1c7f64535e9cb1922fe6a175", "rental_uris": {"android": "https://dc.lft.to/lastmile_qr_scan", "ios": "https://dc.lft.to/lastmile_qr_scan"}, "name": "3a1c00ef1c7f64535e9cb1922fe6a175", "is_reserved": 0}, {"is_disabled": 0, "fusion_lon": 0.0, "fusion_lat": 0.0, "lat": 38.7761965, "type": "electric_bike", "lon": -77.08352633333334, "bike_id": "e8c3acdf1b8e934248ed4aba8d5bff17", "rental_uris": {"android": "https://dc.lft.to/lastmile_qr_scan", "ios": "https://dc.lft.to/lastmile_qr_scan"}, "name": "e8c3acdf1b8e934248ed4aba8d5bff17", "is_reserved": 0}, {"is_disabled": 0, "fusion_lon": 0.0, "fusion_lat": 0.0, "lat": 38.8842225, "type": "electric_scooter", "lon": -77.02968983333334, "bike_id": "4259464ef8c061ed00bd554cf27b0417", "rental_uris": {"android": "https://dc.lft.to/lastmile_qr_scan", "ios": "https://dc.lft.to/lastmile_qr_scan"}, "name": "4259464ef8c061ed00bd554cf27b0417", "is_reserved": 0}, {"is_disabled": 0, "fusion_lon": 0.0, "fusion_lat": 0.0, "lat": 38.91183816666667, "type": "electric_scooter", "lon": -77.038666, "bike_id": "a59e6ed0e3d38e6856e34de40ba6a89d", "rental_uris": {"android": "https://dc.lft.to/lastmile_qr_scan", "ios": "https://dc.lft.to/lastmile_qr_scan"}, "name": "a59e6ed0e3d38e6856e34de40ba6a89d", "is_reserved": 0}, {"is_disabled": 0, "fusion_lon": 0.0, "fusion_lat": 0.0, "lat": 38.905195666666664, "type": "electric_scooter", "lon": -77.01723283333334, "bike_id": "aa7d4a7fe58b6f3cd9c37bd210a003bc", "rental_uris": {"android": "https://dc.lft.to/lastmile_qr_scan", "ios": "https://dc.lft.to/lastmile_qr_scan"}, "name": "aa7d4a7fe58b6f3cd9c37bd210a003bc", "is_reserved": 0}, {"is_disabled": 0, "fusion_lon": 0.0, "fusion_lat": 0.0, "lat": 38.89625083333333, "type": "electric_scooter", "lon": -77.0269125, "bike_id": "58c580be81d0a8482b0383c815a2f964", "rental_uris": {"android": "https://dc.lft.to/lastmile_qr_scan", "ios": "https://dc.lft.to/lastmile_qr_scan"}, "name": "58c580be81d0a8482b0383c815a2f964", "is_reserved": 0}, {"is_disabled": 0, "fusion_lon": 0.0, "fusion_lat": 0.0, "lat": 38.942672, "type": "electric_scooter", "lon": -77.0325985, "bike_id": "bfcf9b1c4b7798166dc37c60ea7de6d9", "rental_uris": {"android": "https://dc.lft.to/lastmile_qr_scan", "ios": "https://dc.lft.to/lastmile_qr_scan"}, "name": "bfcf9b1c4b7798166dc37c60ea7de6d9", "is_reserved": 0}, {"is_disabled": 0, "fusion_lon": 0.0, "fusion_lat": 0.0, "lat": 38.90018416666667, "type": "electric_scooter", "lon": -77.00476483333334, "bike_id": "a1e2e1915ef3dad8cb8c22d6fee0c2a9", "rental_uris": {"android": "https://dc.lft.to/lastmile_qr_scan", "ios": "https://dc.lft.to/lastmile_qr_scan"}, "name": "a1e2e1915ef3dad8cb8c22d6fee0c2a9", "is_reserved": 0}, {"is_disabled": 0, "fusion_lon": 0.0, "fusion_lat": 0.0, "lat": 38.850893, "type": "electric_bike", "lon": -76.9570165, "bike_id": "5b2a95598b98fe9d21b3f7f3aa6133a1", "rental_uris": {"android": "https://dc.lft.to/lastmile_qr_scan", "ios": "https://dc.lft.to/lastmile_qr_scan"}, "name": "5b2a95598b98fe9d21b3f7f3aa6133a1", "is_reserved": 0}, {"is_disabled": 0, "fusion_lon": 0.0, "fusion_lat": 0.0, "lat": 39.02997933333333, "type": "electric_bike", "lon": -77.10654333333333, "bike_id": "c6ca7af6454c3726c095d96c5ecc771e", "rental_uris": {"android": "https://dc.lft.to/lastmile_qr_scan", "ios": "https://dc.lft.to/lastmile_qr_scan"}, "name": "c6ca7af6454c3726c095d96c5ecc771e", "is_reserved": 0}, {"is_disabled": 0, "fusion_lon": 0.0, "fusion_lat": 0.0, "lat": 38.90959, "type": "electric_scooter", "lon": -77.0227925, "bike_id": "b17112e6444ba9a1ed7c8fdc9beb2ae9", "rental_uris": {"android": "https://dc.lft.to/lastmile_qr_scan", "ios": "https://dc.lft.to/lastmile_qr_scan"}, "name": "b17112e6444ba9a1ed7c8fdc9beb2ae9", "is_reserved": 0}, {"is_disabled": 0, "fusion_lon": 0.0, "fusion_lat": 0.0, "lat": 38.964444, "type": "electric_bike", "lon": -76.97727616666667, "bike_id": "0e59ad9d193caa8bee9da327a036e16c", "rental_uris": {"android": "https://dc.lft.to/lastmile_qr_scan", "ios": "https://dc.lft.to/lastmile_qr_scan"}, "name": "0e59ad9d193caa8bee9da327a036e16c", "is_reserved": 0}, {"is_disabled": 0, "fusion_lon": 0.0, "fusion_lat": 0.0, "lat": 38.9214135, "type": "electric_scooter", "lon": -77.029788, "bike_id": "d41f6f0a875bb4904461ddd4eaebed13", "rental_uris": {"android": "https://dc.lft.to/lastmile_qr_scan", "ios": "https://dc.lft.to/lastmile_qr_scan"}, "name": "d41f6f0a875bb4904461ddd4eaebed13", "is_reserved": 0}, {"is_disabled": 0, "fusion_lon": 0.0, "fusion_lat": 0.0, "lat": 38.95198366666666, "type": "electric_scooter", "lon": -77.02734966666667, "bike_id": "7ccb55b8f97502ca77a4f457422ca011", "rental_uris": {"android": "https://dc.lft.to/lastmile_qr_scan", "ios": "https://dc.lft.to/lastmile_qr_scan"}, "name": "7ccb55b8f97502ca77a4f457422ca011", "is_reserved": 0}, {"is_disabled": 0, "fusion_lon": 0.0, "fusion_lat": 0.0, "lat": 38.89906, "type": "electric_scooter", "lon": -76.93394083333334, "bike_id": "75542469133e7398735f2fbf98a173cc", "rental_uris": {"android": "https://dc.lft.to/lastmile_qr_scan", "ios": "https://dc.lft.to/lastmile_qr_scan"}, "name": "75542469133e7398735f2fbf98a173cc", "is_reserved": 0}, {"is_disabled": 0, "fusion_lon": 0.0, "fusion_lat": 0.0, "lat": 38.90584583333333, "type": "electric_scooter", "lon": -77.04194333333334, "bike_id": "0f9cd0e722d8c0e56b67cb379b6215f0", "rental_uris": {"android": "https://dc.lft.to/lastmile_qr_scan", "ios": "https://dc.lft.to/lastmile_qr_scan"}, "name": "0f9cd0e722d8c0e56b67cb379b6215f0", "is_reserved": 0}, {"is_disabled": 0, "fusion_lon": 0.0, "fusion_lat": 0.0, "lat": 38.878507166666665, "type": "electric_scooter", "lon": -77.00795816666667, "bike_id": "e152074390dc974f28c5a7495a799716", "rental_uris": {"android": "https://dc.lft.to/lastmile_qr_scan", "ios": "https://dc.lft.to/lastmile_qr_scan"}, "name": "e152074390dc974f28c5a7495a799716", "is_reserved": 0}, {"is_disabled": 0, "fusion_lon": 0.0, "fusion_lat": 0.0, "lat": 38.8652395, "type": "electric_scooter", "lon": -76.98970766666666, "bike_id": "46c9f8fb39c894dd9710855335447eeb", "rental_uris": {"android": "https://dc.lft.to/lastmile_qr_scan", "ios": "https://dc.lft.to/lastmile_qr_scan"}, "name": "46c9f8fb39c894dd9710855335447eeb", "is_reserved": 0}, {"is_disabled": 0, "fusion_lon": 0.0, "fusion_lat": 0.0, "lat": 38.90198266666667, "type": "electric_scooter", "lon": -77.0470965, "bike_id": "00ae861359ebe5be49843c5af6b81971", "rental_uris": {"android": "https://dc.lft.to/lastmile_qr_scan", "ios": "https://dc.lft.to/lastmile_qr_scan"}, "name": "00ae861359ebe5be49843c5af6b81971", "is_reserved": 0}, {"is_disabled": 0, "fusion_lon": 0.0, "fusion_lat": 0.0, "lat": 38.83046016666667, "type": "electric_scooter", "lon": -77.01241233333333, "bike_id": "88f8f4cc0cc17984520fa3c39681b15f", "rental_uris": {"android": "https://dc.lft.to/lastmile_qr_scan", "ios": "https://dc.lft.to/lastmile_qr_scan"}, "name": "88f8f4cc0cc17984520fa3c39681b15f", "is_reserved": 0}, {"is_disabled": 0, "fusion_lon": 0.0, "fusion_lat": 0.0, "lat": 38.911864666666666, "type": "electric_scooter", "lon": -77.04157916666666, "bike_id": "e7ae48648a6e6e124196fdfc31751229", "rental_uris": {"android": "https://dc.lft.to/lastmile_qr_scan", "ios": "https://dc.lft.to/lastmile_qr_scan"}, "name": "e7ae48648a6e6e124196fdfc31751229", "is_reserved": 0}, {"is_disabled": 0, "fusion_lon": 0.0, "fusion_lat": 0.0, "lat": 38.8968345, "type": "electric_scooter", "lon": -76.93712216666667, "bike_id": "4bfb82f831f1dc6637b17de6ac1aa2ca", "rental_uris": {"android": "https://dc.lft.to/lastmile_qr_scan", "ios": "https://dc.lft.to/lastmile_qr_scan"}, "name": "4bfb82f831f1dc6637b17de6ac1aa2ca", "is_reserved": 0}, {"is_disabled": 0, "fusion_lon": 0.0, "fusion_lat": 0.0, "lat": 38.896338, "type": "electric_bike", "lon": -77.03336283333333, "bike_id": "287916258d52f8d09ff4ee2d9250d133", "rental_uris": {"android": "https://dc.lft.to/lastmile_qr_scan", "ios": "https://dc.lft.to/lastmile_qr_scan"}, "name": "287916258d52f8d09ff4ee2d9250d133", "is_reserved": 0}, {"is_disabled": 0, "fusion_lon": 0.0, "fusion_lat": 0.0, "lat": 38.904315, "type": "electric_scooter", "lon": -77.05144133333333, "bike_id": "d182503f70ba8b7bce7b64dfac83da66", "rental_uris": {"android": "https://dc.lft.to/lastmile_qr_scan", "ios": "https://dc.lft.to/lastmile_qr_scan"}, "name": "d182503f70ba8b7bce7b64dfac83da66", "is_reserved": 0}, {"is_disabled": 0, "fusion_lon": 0.0, "fusion_lat": 0.0, "lat": 38.9001285, "type": "electric_scooter", "lon": -77.04485833333334, "bike_id": "4967ea0de04990cc1e046df1b97d5183", "rental_uris": {"android": "https://dc.lft.to/lastmile_qr_scan", "ios": "https://dc.lft.to/lastmile_qr_scan"}, "name": "4967ea0de04990cc1e046df1b97d5183", "is_reserved": 0}, {"is_disabled": 0, "fusion_lon": 0.0, "fusion_lat": 0.0, "lat": 38.89738, "type": "electric_scooter", "lon": -77.00938616666667, "bike_id": "6f449ad26e3dfe1bbd79601e8be82e60", "rental_uris": {"android": "https://dc.lft.to/lastmile_qr_scan", "ios": "https://dc.lft.to/lastmile_qr_scan"}, "name": "6f449ad26e3dfe1bbd79601e8be82e60", "is_reserved": 0}, {"is_disabled": 0, "fusion_lon": 0.0, "fusion_lat": 0.0, "lat": 38.91405866666667, "type": "electric_scooter", "lon": -77.02979983333333, "bike_id": "490885b6e4b2e18b3a98b9ac1b674df6", "rental_uris": {"android": "https://dc.lft.to/lastmile_qr_scan", "ios": "https://dc.lft.to/lastmile_qr_scan"}, "name": "490885b6e4b2e18b3a98b9ac1b674df6", "is_reserved": 0}, {"is_disabled": 0, "fusion_lon": 0.0, "fusion_lat": 0.0, "lat": 38.91540166666667, "type": "electric_scooter", "lon": -77.01268533333334, "bike_id": "940951b0cbce649221893144fa15e6b5", "rental_uris": {"android": "https://dc.lft.to/lastmile_qr_scan", "ios": "https://dc.lft.to/lastmile_qr_scan"}, "name": "940951b0cbce649221893144fa15e6b5", "is_reserved": 0}, {"is_disabled": 0, "fusion_lon": 0.0, "fusion_lat": 0.0, "lat": 38.8984365, "type": "electric_scooter", "lon": -76.94494516666667, "bike_id": "c1ab614fbca1384b52c11ca4ddd33a07", "rental_uris": {"android": "https://dc.lft.to/lastmile_qr_scan", "ios": "https://dc.lft.to/lastmile_qr_scan"}, "name": "c1ab614fbca1384b52c11ca4ddd33a07", "is_reserved": 0}, {"is_disabled": 0, "fusion_lon": 0.0, "fusion_lat": 0.0, "lat": 39.022984666666666, "type": "electric_bike", "lon": -77.021022, "bike_id": "a9dfa6682f2d4274601ee44fc562c1ef", "rental_uris": {"android": "https://dc.lft.to/lastmile_qr_scan", "ios": "https://dc.lft.to/lastmile_qr_scan"}, "name": "a9dfa6682f2d4274601ee44fc562c1ef", "is_reserved": 0}, {"is_disabled": 0, "fusion_lon": 0.0, "fusion_lat": 0.0, "lat": 38.935467333333335, "type": "electric_scooter", "lon": -77.059067, "bike_id": "d81515188285c89963eeb8ea7469b80e", "rental_uris": {"android": "https://dc.lft.to/lastmile_qr_scan", "ios": "https://dc.lft.to/lastmile_qr_scan"}, "name": "d81515188285c89963eeb8ea7469b80e", "is_reserved": 0}, {"is_disabled": 0, "fusion_lon": 0.0, "fusion_lat": 0.0, "lat": 38.8949585, "type": "electric_scooter", "lon": -77.022822, "bike_id": "86ae42f6789c30e6529e1798d52d4a5e", "rental_uris": {"android": "https://dc.lft.to/lastmile_qr_scan", "ios": "https://dc.lft.to/lastmile_qr_scan"}, "name": "86ae42f6789c30e6529e1798d52d4a5e", "is_reserved": 0}, {"is_disabled": 0, "fusion_lon": 0.0, "fusion_lat": 0.0, "lat": 38.89741333333333, "type": "electric_scooter", "lon": -77.05151566666666, "bike_id": "646988901a4b07f5b6ee01c88a42c521", "rental_uris": {"android": "https://dc.lft.to/lastmile_qr_scan", "ios": "https://dc.lft.to/lastmile_qr_scan"}, "name": "646988901a4b07f5b6ee01c88a42c521", "is_reserved": 0}, {"is_disabled": 0, "fusion_lon": 0.0, "fusion_lat": 0.0, "lat": 38.887411, "type": "electric_scooter", "lon": -77.01379316666667, "bike_id": "2b34fbce11fa5b328a632f64c21bb7b8", "rental_uris": {"android": "https://dc.lft.to/lastmile_qr_scan", "ios": "https://dc.lft.to/lastmile_qr_scan"}, "name": "2b34fbce11fa5b328a632f64c21bb7b8", "is_reserved": 0}, {"is_disabled": 0, "fusion_lon": 0.0, "fusion_lat": 0.0, "lat": 38.92170183333333, "type": "electric_scooter", "lon": -77.04236666666667, "bike_id": "7bf5d22e587d1854a221f8bef1145d2b", "rental_uris": {"android": "https://dc.lft.to/lastmile_qr_scan", "ios": "https://dc.lft.to/lastmile_qr_scan"}, "name": "7bf5d22e587d1854a221f8bef1145d2b", "is_reserved": 0}, {"is_disabled": 0, "fusion_lon": 0.0, "fusion_lat": 0.0, "lat": 38.912084, "type": "electric_scooter", "lon": -77.03844583333333, "bike_id": "5541051cd243667420bf0f795b4c39e6", "rental_uris": {"android": "https://dc.lft.to/lastmile_qr_scan", "ios": "https://dc.lft.to/lastmile_qr_scan"}, "name": "5541051cd243667420bf0f795b4c39e6", "is_reserved": 0}, {"is_disabled": 0, "fusion_lon": 0.0, "fusion_lat": 0.0, "lat": 38.88635466666667, "type": "electric_scooter", "lon": -77.0153465, "bike_id": "0e652c2866a5d2c783d370cdaf11b052", "rental_uris": {"android": "https://dc.lft.to/lastmile_qr_scan", "ios": "https://dc.lft.to/lastmile_qr_scan"}, "name": "0e652c2866a5d2c783d370cdaf11b052", "is_reserved": 0}, {"is_disabled": 0, "fusion_lon": 0.0, "fusion_lat": 0.0, "lat": 38.93896266666667, "type": "electric_scooter", "lon": -77.03340466666667, "bike_id": "50084196230ed7fb71d0463e5670d82a", "rental_uris": {"android": "https://dc.lft.to/lastmile_qr_scan", "ios": "https://dc.lft.to/lastmile_qr_scan"}, "name": "50084196230ed7fb71d0463e5670d82a", "is_reserved": 0}, {"is_disabled": 0, "fusion_lon": 0.0, "fusion_lat": 0.0, "lat": 38.89137083333333, "type": "electric_bike", "lon": -77.01427733333334, "bike_id": "e1f3e700a9b7c94705a53bb2eef09037", "rental_uris": {"android": "https://dc.lft.to/lastmile_qr_scan", "ios": "https://dc.lft.to/lastmile_qr_scan"}, "name": "e1f3e700a9b7c94705a53bb2eef09037", "is_reserved": 0}, {"is_disabled": 0, "fusion_lon": 0.0, "fusion_lat": 0.0, "lat": 38.924324, "type": "electric_scooter", "lon": -77.03174283333334, "bike_id": "39ef2f211f354ce36a2961fb1d8fd6e5", "rental_uris": {"android": "https://dc.lft.to/lastmile_qr_scan", "ios": "https://dc.lft.to/lastmile_qr_scan"}, "name": "39ef2f211f354ce36a2961fb1d8fd6e5", "is_reserved": 0}, {"is_disabled": 0, "fusion_lon": 0.0, "fusion_lat": 0.0, "lat": 38.9180025, "type": "electric_scooter", "lon": -77.03422616666667, "bike_id": "ecdfa0226daf69e8498de0f02bac5446", "rental_uris": {"android": "https://dc.lft.to/lastmile_qr_scan", "ios": "https://dc.lft.to/lastmile_qr_scan"}, "name": "ecdfa0226daf69e8498de0f02bac5446", "is_reserved": 0}, {"is_disabled": 0, "fusion_lon": 0.0, "fusion_lat": 0.0, "lat": 38.8831135, "type": "electric_scooter", "lon": -77.04528766666667, "bike_id": "cdcc3b150d2a81f6b73cbd32a3645cb7", "rental_uris": {"android": "https://dc.lft.to/lastmile_qr_scan", "ios": "https://dc.lft.to/lastmile_qr_scan"}, "name": "cdcc3b150d2a81f6b73cbd32a3645cb7", "is_reserved": 0}, {"is_disabled": 0, "fusion_lon": 0.0, "fusion_lat": 0.0, "lat": 38.88439416666667, "type": "electric_scooter", "lon": -77.0296365, "bike_id": "4756f8ee9f9a6adc68dc6184bba9d757", "rental_uris": {"android": "https://dc.lft.to/lastmile_qr_scan", "ios": "https://dc.lft.to/lastmile_qr_scan"}, "name": "4756f8ee9f9a6adc68dc6184bba9d757", "is_reserved": 0}, {"is_disabled": 0, "fusion_lon": 0.0, "fusion_lat": 0.0, "lat": 38.91184, "type": "electric_scooter", "lon": -77.02975616666667, "bike_id": "dd18668572d8d7fd515cef1158501e78", "rental_uris": {"android": "https://dc.lft.to/lastmile_qr_scan", "ios": "https://dc.lft.to/lastmile_qr_scan"}, "name": "dd18668572d8d7fd515cef1158501e78", "is_reserved": 0}, {"is_disabled": 0, "fusion_lon": 0.0, "fusion_lat": 0.0, "lat": 38.907174833333336, "type": "electric_scooter", "lon": -77.02545783333333, "bike_id": "661ec877860870e02ea61b4452e77910", "rental_uris": {"android": "https://dc.lft.to/lastmile_qr_scan", "ios": "https://dc.lft.to/lastmile_qr_scan"}, "name": "661ec877860870e02ea61b4452e77910", "is_reserved": 0}, {"is_disabled": 0, "fusion_lon": 0.0, "fusion_lat": 0.0, "lat": 38.897265166666664, "type": "electric_scooter", "lon": -77.049874, "bike_id": "43516bfdc0191b6ee9407287428e0ea5", "rental_uris": {"android": "https://dc.lft.to/lastmile_qr_scan", "ios": "https://dc.lft.to/lastmile_qr_scan"}, "name": "43516bfdc0191b6ee9407287428e0ea5", "is_reserved": 0}, {"is_disabled": 0, "fusion_lon": 0.0, "fusion_lat": 0.0, "lat": 38.897966333333336, "type": "electric_scooter", "lon": -76.930556, "bike_id": "a99d3f2c7817a6fe77162df29e34b01e", "rental_uris": {"android": "https://dc.lft.to/lastmile_qr_scan", "ios": "https://dc.lft.to/lastmile_qr_scan"}, "name": "a99d3f2c7817a6fe77162df29e34b01e", "is_reserved": 0}, {"is_disabled": 0, "fusion_lon": 0.0, "fusion_lat": 0.0, "lat": 38.93541183333333, "type": "electric_scooter", "lon": -77.05769366666667, "bike_id": "d229693036182cbb910a0f4321f9bb55", "rental_uris": {"android": "https://dc.lft.to/lastmile_qr_scan", "ios": "https://dc.lft.to/lastmile_qr_scan"}, "name": "d229693036182cbb910a0f4321f9bb55", "is_reserved": 0}, {"is_disabled": 0, "fusion_lon": 0.0, "fusion_lat": 0.0, "lat": 38.9211845, "type": "electric_bike", "lon": -77.01212433333333, "bike_id": "9777c0848c58d8a86d48cd2e2b34a322", "rental_uris": {"android": "https://dc.lft.to/lastmile_qr_scan", "ios": "https://dc.lft.to/lastmile_qr_scan"}, "name": "9777c0848c58d8a86d48cd2e2b34a322", "is_reserved": 0}, {"is_disabled": 0, "fusion_lon": 0.0, "fusion_lat": 0.0, "lat": 38.90843366666667, "type": "electric_scooter", "lon": -77.0271165, "bike_id": "9e95d2a09fc81c8bf9bdaab0792b37dd", "rental_uris": {"android": "https://dc.lft.to/lastmile_qr_scan", "ios": "https://dc.lft.to/lastmile_qr_scan"}, "name": "9e95d2a09fc81c8bf9bdaab0792b37dd", "is_reserved": 0}, {"is_disabled": 0, "fusion_lon": 0.0, "fusion_lat": 0.0, "lat": 38.9428995, "type": "electric_scooter", "lon": -77.02176816666666, "bike_id": "3533052a686287a55db62c174d2b4891", "rental_uris": {"android": "https://dc.lft.to/lastmile_qr_scan", "ios": "https://dc.lft.to/lastmile_qr_scan"}, "name": "3533052a686287a55db62c174d2b4891", "is_reserved": 0}, {"is_disabled": 0, "fusion_lon": 0.0, "fusion_lat": 0.0, "lat": 38.86732133333334, "type": "electric_scooter", "lon": -76.988518, "bike_id": "ed4b8ea4a9de7af7e18ca09f722467c1", "rental_uris": {"android": "https://dc.lft.to/lastmile_qr_scan", "ios": "https://dc.lft.to/lastmile_qr_scan"}, "name": "ed4b8ea4a9de7af7e18ca09f722467c1", "is_reserved": 0}, {"is_disabled": 0, "fusion_lon": 0.0, "fusion_lat": 0.0, "lat": 38.94980866666667, "type": "electric_scooter", "lon": -77.02704583333333, "bike_id": "e4d7b91be9cbad4c5f49789a8e4f16f7", "rental_uris": {"android": "https://dc.lft.to/lastmile_qr_scan", "ios": "https://dc.lft.to/lastmile_qr_scan"}, "name": "e4d7b91be9cbad4c5f49789a8e4f16f7", "is_reserved": 0}, {"is_disabled": 0, "fusion_lon": 0.0, "fusion_lat": 0.0, "lat": 38.9062375, "type": "electric_scooter", "lon": -77.03725633333333, "bike_id": "f9ebf4a48a3f91861d6a48ccd860d4ca", "rental_uris": {"android": "https://dc.lft.to/lastmile_qr_scan", "ios": "https://dc.lft.to/lastmile_qr_scan"}, "name": "f9ebf4a48a3f91861d6a48ccd860d4ca", "is_reserved": 0}, {"is_disabled": 0, "fusion_lon": 0.0, "fusion_lat": 0.0, "lat": 38.92093783333333, "type": "electric_scooter", "lon": -77.0259425, "bike_id": "62a92872dd90f7fe877e5216a3c5d822", "rental_uris": {"android": "https://dc.lft.to/lastmile_qr_scan", "ios": "https://dc.lft.to/lastmile_qr_scan"}, "name": "62a92872dd90f7fe877e5216a3c5d822", "is_reserved": 0}, {"is_disabled": 0, "fusion_lon": 0.0, "fusion_lat": 0.0, "lat": 38.887466, "type": "electric_scooter", "lon": -76.9789465, "bike_id": "ec5e3331e3dee2c30b5860890f09035b", "rental_uris": {"android": "https://dc.lft.to/lastmile_qr_scan", "ios": "https://dc.lft.to/lastmile_qr_scan"}, "name": "ec5e3331e3dee2c30b5860890f09035b", "is_reserved": 0}, {"is_disabled": 0, "fusion_lon": 0.0, "fusion_lat": 0.0, "lat": 38.926691, "type": "electric_scooter", "lon": -77.04320633333333, "bike_id": "129d71a8e50869bd7db995cccbcf9fbb", "rental_uris": {"android": "https://dc.lft.to/lastmile_qr_scan", "ios": "https://dc.lft.to/lastmile_qr_scan"}, "name": "129d71a8e50869bd7db995cccbcf9fbb", "is_reserved": 0}, {"is_disabled": 0, "fusion_lon": 0.0, "fusion_lat": 0.0, "lat": 38.915457333333336, "type": "electric_scooter", "lon": -77.03082066666667, "bike_id": "2b1f6b01f29c3e31a5917fa2504d6c95", "rental_uris": {"android": "https://dc.lft.to/lastmile_qr_scan", "ios": "https://dc.lft.to/lastmile_qr_scan"}, "name": "2b1f6b01f29c3e31a5917fa2504d6c95", "is_reserved": 0}, {"is_disabled": 0, "fusion_lon": 0.0, "fusion_lat": 0.0, "lat": 38.905583, "type": "electric_scooter", "lon": -77.018841, "bike_id": "4852f27be71a0d220185e3aa8aa36758", "rental_uris": {"android": "https://dc.lft.to/lastmile_qr_scan", "ios": "https://dc.lft.to/lastmile_qr_scan"}, "name": "4852f27be71a0d220185e3aa8aa36758", "is_reserved": 0}, {"is_disabled": 0, "fusion_lon": 0.0, "fusion_lat": 0.0, "lat": 38.89012866666667, "type": "electric_scooter", "lon": -76.93734133333334, "bike_id": "b19106baeca312b59fed95dda69ae1f9", "rental_uris": {"android": "https://dc.lft.to/lastmile_qr_scan", "ios": "https://dc.lft.to/lastmile_qr_scan"}, "name": "b19106baeca312b59fed95dda69ae1f9", "is_reserved": 0}, {"is_disabled": 0, "fusion_lon": 0.0, "fusion_lat": 0.0, "lat": 38.844347666666664, "type": "electric_scooter", "lon": -76.99786433333334, "bike_id": "2c7757e0232a3b02c9666a45092bfd64", "rental_uris": {"android": "https://dc.lft.to/lastmile_qr_scan", "ios": "https://dc.lft.to/lastmile_qr_scan"}, "name": "2c7757e0232a3b02c9666a45092bfd64", "is_reserved": 0}, {"is_disabled": 0, "fusion_lon": 0.0, "fusion_lat": 0.0, "lat": 38.92123766666667, "type": "electric_scooter", "lon": -77.04420816666666, "bike_id": "70e37a25c733d970d4972de324fdd6a4", "rental_uris": {"android": "https://dc.lft.to/lastmile_qr_scan", "ios": "https://dc.lft.to/lastmile_qr_scan"}, "name": "70e37a25c733d970d4972de324fdd6a4", "is_reserved": 0}, {"is_disabled": 0, "fusion_lon": 0.0, "fusion_lat": 0.0, "lat": 38.90952516666667, "type": "electric_scooter", "lon": -77.02493333333334, "bike_id": "13b0331aa5254488c859f118599b625d", "rental_uris": {"android": "https://dc.lft.to/lastmile_qr_scan", "ios": "https://dc.lft.to/lastmile_qr_scan"}, "name": "13b0331aa5254488c859f118599b625d", "is_reserved": 0}, {"is_disabled": 0, "fusion_lon": 0.0, "fusion_lat": 0.0, "lat": 38.9234, "type": "electric_scooter", "lon": -77.05050716666666, "bike_id": "c7fe844e9460d17f594293de06e34ddb", "rental_uris": {"android": "https://dc.lft.to/lastmile_qr_scan", "ios": "https://dc.lft.to/lastmile_qr_scan"}, "name": "c7fe844e9460d17f594293de06e34ddb", "is_reserved": 0}, {"is_disabled": 0, "fusion_lon": 0.0, "fusion_lat": 0.0, "lat": 38.917148833333336, "type": "electric_scooter", "lon": -77.09812916666667, "bike_id": "4526e138cb791cf491d717fcff50b127", "rental_uris": {"android": "https://dc.lft.to/lastmile_qr_scan", "ios": "https://dc.lft.to/lastmile_qr_scan"}, "name": "4526e138cb791cf491d717fcff50b127", "is_reserved": 0}, {"is_disabled": 0, "fusion_lon": 0.0, "fusion_lat": 0.0, "lat": 38.9200675, "type": "electric_scooter", "lon": -77.031546, "bike_id": "e4f51d2d7bdf4b1d30f59d4b572344e8", "rental_uris": {"android": "https://dc.lft.to/lastmile_qr_scan", "ios": "https://dc.lft.to/lastmile_qr_scan"}, "name": "e4f51d2d7bdf4b1d30f59d4b572344e8", "is_reserved": 0}, {"is_disabled": 0, "fusion_lon": 0.0, "fusion_lat": 0.0, "lat": 38.89479216666667, "type": "electric_scooter", "lon": -76.9951935, "bike_id": "dc2489730158b83c1bb6c92f0a6f8155", "rental_uris": {"android": "https://dc.lft.to/lastmile_qr_scan", "ios": "https://dc.lft.to/lastmile_qr_scan"}, "name": "dc2489730158b83c1bb6c92f0a6f8155", "is_reserved": 0}, {"is_disabled": 0, "fusion_lon": 0.0, "fusion_lat": 0.0, "lat": 38.92358216666667, "type": "electric_scooter", "lon": -77.05064366666667, "bike_id": "afad9a8edd7cee5239fd5d4ec96fc4f6", "rental_uris": {"android": "https://dc.lft.to/lastmile_qr_scan", "ios": "https://dc.lft.to/lastmile_qr_scan"}, "name": "afad9a8edd7cee5239fd5d4ec96fc4f6", "is_reserved": 0}, {"is_disabled": 0, "fusion_lon": 0.0, "fusion_lat": 0.0, "lat": 38.90736316666667, "type": "electric_scooter", "lon": -77.03447516666667, "bike_id": "6ee33d720b3017ed0fbc7de5a4347fc0", "rental_uris": {"android": "https://dc.lft.to/lastmile_qr_scan", "ios": "https://dc.lft.to/lastmile_qr_scan"}, "name": "6ee33d720b3017ed0fbc7de5a4347fc0", "is_reserved": 0}, {"is_disabled": 0, "fusion_lon": 0.0, "fusion_lat": 0.0, "lat": 38.902556833333335, "type": "electric_scooter", "lon": -77.001978, "bike_id": "7d19d4925a9ed8459d57e37d8c9d75ae", "rental_uris": {"android": "https://dc.lft.to/lastmile_qr_scan", "ios": "https://dc.lft.to/lastmile_qr_scan"}, "name": "7d19d4925a9ed8459d57e37d8c9d75ae", "is_reserved": 0}, {"is_disabled": 0, "fusion_lon": 0.0, "fusion_lat": 0.0, "lat": 38.94970583333333, "type": "electric_scooter", "lon": -77.037655, "bike_id": "efd337218fa609e6dd406a7e94bf69fe", "rental_uris": {"android": "https://dc.lft.to/lastmile_qr_scan", "ios": "https://dc.lft.to/lastmile_qr_scan"}, "name": "efd337218fa609e6dd406a7e94bf69fe", "is_reserved": 0}, {"is_disabled": 0, "fusion_lon": 0.0, "fusion_lat": 0.0, "lat": 38.903985166666665, "type": "electric_scooter", "lon": -77.04032716666667, "bike_id": "81fc546c1d6e2f203431bbddca9afb4b", "rental_uris": {"android": "https://dc.lft.to/lastmile_qr_scan", "ios": "https://dc.lft.to/lastmile_qr_scan"}, "name": "81fc546c1d6e2f203431bbddca9afb4b", "is_reserved": 0}, {"is_disabled": 0, "fusion_lon": 0.0, "fusion_lat": 0.0, "lat": 39.026838833333336, "type": "electric_bike", "lon": -77.12598533333333, "bike_id": "1d6970eb60154eadd368cd002c88b22c", "rental_uris": {"android": "https://dc.lft.to/lastmile_qr_scan", "ios": "https://dc.lft.to/lastmile_qr_scan"}, "name": "1d6970eb60154eadd368cd002c88b22c", "is_reserved": 0}, {"is_disabled": 0, "fusion_lon": 0.0, "fusion_lat": 0.0, "lat": 38.90213266666667, "type": "electric_scooter", "lon": -77.05140016666667, "bike_id": "f350a980592f0e02b957d6b2d4b6b87d", "rental_uris": {"android": "https://dc.lft.to/lastmile_qr_scan", "ios": "https://dc.lft.to/lastmile_qr_scan"}, "name": "f350a980592f0e02b957d6b2d4b6b87d", "is_reserved": 0}, {"is_disabled": 0, "fusion_lon": 0.0, "fusion_lat": 0.0, "lat": 38.90486666666666, "type": "electric_scooter", "lon": -77.02965233333333, "bike_id": "15b1637cc7e1c29703a6962949f34ffc", "rental_uris": {"android": "https://dc.lft.to/lastmile_qr_scan", "ios": "https://dc.lft.to/lastmile_qr_scan"}, "name": "15b1637cc7e1c29703a6962949f34ffc", "is_reserved": 0}, {"is_disabled": 0, "fusion_lon": 0.0, "fusion_lat": 0.0, "lat": 38.93170216666667, "type": "electric_scooter", "lon": -77.072837, "bike_id": "4814ee01fe491f64ccb262ad9211b4a5", "rental_uris": {"android": "https://dc.lft.to/lastmile_qr_scan", "ios": "https://dc.lft.to/lastmile_qr_scan"}, "name": "4814ee01fe491f64ccb262ad9211b4a5", "is_reserved": 0}, {"is_disabled": 0, "fusion_lon": 0.0, "fusion_lat": 0.0, "lat": 38.92071416666667, "type": "electric_scooter", "lon": -77.02440666666666, "bike_id": "b3646c06a9deea274229aca04031c5c9", "rental_uris": {"android": "https://dc.lft.to/lastmile_qr_scan", "ios": "https://dc.lft.to/lastmile_qr_scan"}, "name": "b3646c06a9deea274229aca04031c5c9", "is_reserved": 0}, {"is_disabled": 0, "fusion_lon": 0.0, "fusion_lat": 0.0, "lat": 39.0308955, "type": "electric_bike", "lon": -77.104022, "bike_id": "6b8312675a36b0b1dc0c5afa87c0444e", "rental_uris": {"android": "https://dc.lft.to/lastmile_qr_scan", "ios": "https://dc.lft.to/lastmile_qr_scan"}, "name": "6b8312675a36b0b1dc0c5afa87c0444e", "is_reserved": 0}, {"is_disabled": 0, "fusion_lon": 0.0, "fusion_lat": 0.0, "lat": 38.820839, "type": "electric_bike", "lon": -77.05366166666667, "bike_id": "a4826921d378913f866a61da18a10750", "rental_uris": {"android": "https://dc.lft.to/lastmile_qr_scan", "ios": "https://dc.lft.to/lastmile_qr_scan"}, "name": "a4826921d378913f866a61da18a10750", "is_reserved": 0}, {"is_disabled": 0, "fusion_lon": 0.0, "fusion_lat": 0.0, "lat": 38.90972033333333, "type": "electric_scooter", "lon": -77.02182666666667, "bike_id": "0a655bb734c2233d82a92aa407216c9c", "rental_uris": {"android": "https://dc.lft.to/lastmile_qr_scan", "ios": "https://dc.lft.to/lastmile_qr_scan"}, "name": "0a655bb734c2233d82a92aa407216c9c", "is_reserved": 0}, {"is_disabled": 0, "fusion_lon": 0.0, "fusion_lat": 0.0, "lat": 38.95356116666667, "type": "electric_bike", "lon": -76.9809485, "bike_id": "dc42074fc5498c84b2489a0eb7c552ed", "rental_uris": {"android": "https://dc.lft.to/lastmile_qr_scan", "ios": "https://dc.lft.to/lastmile_qr_scan"}, "name": "dc42074fc5498c84b2489a0eb7c552ed", "is_reserved": 0}, {"is_disabled": 0, "fusion_lon": 0.0, "fusion_lat": 0.0, "lat": 38.89843233333333, "type": "electric_scooter", "lon": -76.94633466666667, "bike_id": "053a9c29f2a9908bb8766f43fa783595", "rental_uris": {"android": "https://dc.lft.to/lastmile_qr_scan", "ios": "https://dc.lft.to/lastmile_qr_scan"}, "name": "053a9c29f2a9908bb8766f43fa783595", "is_reserved": 0}, {"is_disabled": 0, "fusion_lon": 0.0, "fusion_lat": 0.0, "lat": 38.92152, "type": "electric_scooter", "lon": -77.03506783333333, "bike_id": "b96a1cfee58fbe48dacfca34b1db916f", "rental_uris": {"android": "https://dc.lft.to/lastmile_qr_scan", "ios": "https://dc.lft.to/lastmile_qr_scan"}, "name": "b96a1cfee58fbe48dacfca34b1db916f", "is_reserved": 0}, {"is_disabled": 0, "fusion_lon": 0.0, "fusion_lat": 0.0, "lat": 38.916815666666665, "type": "electric_scooter", "lon": -77.03768033333333, "bike_id": "b5a453155057ffa202e48a7b65fad84b", "rental_uris": {"android": "https://dc.lft.to/lastmile_qr_scan", "ios": "https://dc.lft.to/lastmile_qr_scan"}, "name": "b5a453155057ffa202e48a7b65fad84b", "is_reserved": 0}, {"is_disabled": 0, "fusion_lon": 0.0, "fusion_lat": 0.0, "lat": 38.931699, "type": "electric_scooter", "lon": -77.07254733333333, "bike_id": "a5a1a1c2c1eb588849b6518429cdc9bc", "rental_uris": {"android": "https://dc.lft.to/lastmile_qr_scan", "ios": "https://dc.lft.to/lastmile_qr_scan"}, "name": "a5a1a1c2c1eb588849b6518429cdc9bc", "is_reserved": 0}, {"is_disabled": 0, "fusion_lon": 0.0, "fusion_lat": 0.0, "lat": 38.89953216666667, "type": "electric_scooter", "lon": -77.05049183333334, "bike_id": "19a81959488e1c6be8b9e255c5508a63", "rental_uris": {"android": "https://dc.lft.to/lastmile_qr_scan", "ios": "https://dc.lft.to/lastmile_qr_scan"}, "name": "19a81959488e1c6be8b9e255c5508a63", "is_reserved": 0}, {"is_disabled": 0, "fusion_lon": 0.0, "fusion_lat": 0.0, "lat": 38.88479266666667, "type": "electric_scooter", "lon": -77.019904, "bike_id": "ef0c52a4d5ddbff3a91865310777016d", "rental_uris": {"android": "https://dc.lft.to/lastmile_qr_scan", "ios": "https://dc.lft.to/lastmile_qr_scan"}, "name": "ef0c52a4d5ddbff3a91865310777016d", "is_reserved": 0}, {"is_disabled": 0, "fusion_lon": 0.0, "fusion_lat": 0.0, "lat": 38.89510416666667, "type": "electric_scooter", "lon": -77.02291666666666, "bike_id": "71be93c83ab20e4771ab5a8f6f13d981", "rental_uris": {"android": "https://dc.lft.to/lastmile_qr_scan", "ios": "https://dc.lft.to/lastmile_qr_scan"}, "name": "71be93c83ab20e4771ab5a8f6f13d981", "is_reserved": 0}, {"is_disabled": 0, "fusion_lon": 0.0, "fusion_lat": 0.0, "lat": 38.924712166666666, "type": "electric_scooter", "lon": -77.02202733333333, "bike_id": "f898859f4c5d7a62239d35716965791a", "rental_uris": {"android": "https://dc.lft.to/lastmile_qr_scan", "ios": "https://dc.lft.to/lastmile_qr_scan"}, "name": "f898859f4c5d7a62239d35716965791a", "is_reserved": 0}, {"is_disabled": 0, "fusion_lon": 0.0, "fusion_lat": 0.0, "lat": 38.961886666666665, "type": "electric_scooter", "lon": -77.02786016666667, "bike_id": "2248b24f7f37670fbd541d8b955fff5a", "rental_uris": {"android": "https://dc.lft.to/lastmile_qr_scan", "ios": "https://dc.lft.to/lastmile_qr_scan"}, "name": "2248b24f7f37670fbd541d8b955fff5a", "is_reserved": 0}, {"is_disabled": 0, "fusion_lon": 0.0, "fusion_lat": 0.0, "lat": 38.87830016666667, "type": "electric_scooter", "lon": -76.96308266666666, "bike_id": "40e4e3b3c90e90b75e4524f133ad15c9", "rental_uris": {"android": "https://dc.lft.to/lastmile_qr_scan", "ios": "https://dc.lft.to/lastmile_qr_scan"}, "name": "40e4e3b3c90e90b75e4524f133ad15c9", "is_reserved": 0}, {"is_disabled": 0, "fusion_lon": 0.0, "fusion_lat": 0.0, "lat": 38.90964183333333, "type": "electric_scooter", "lon": -77.02309916666667, "bike_id": "c5e6133120a21ca79c58bd00e5dbfe95", "rental_uris": {"android": "https://dc.lft.to/lastmile_qr_scan", "ios": "https://dc.lft.to/lastmile_qr_scan"}, "name": "c5e6133120a21ca79c58bd00e5dbfe95", "is_reserved": 0}, {"is_disabled": 0, "fusion_lon": 0.0, "fusion_lat": 0.0, "lat": 38.9024655, "type": "electric_scooter", "lon": -77.03466466666667, "bike_id": "839d89ae7fcc3463ddd6d1049e584afb", "rental_uris": {"android": "https://dc.lft.to/lastmile_qr_scan", "ios": "https://dc.lft.to/lastmile_qr_scan"}, "name": "839d89ae7fcc3463ddd6d1049e584afb", "is_reserved": 0}, {"is_disabled": 0, "fusion_lon": 0.0, "fusion_lat": 0.0, "lat": 38.902545, "type": "electric_scooter", "lon": -77.01738933333333, "bike_id": "4fc5751b251a9c114bbba6227ed837fd", "rental_uris": {"android": "https://dc.lft.to/lastmile_qr_scan", "ios": "https://dc.lft.to/lastmile_qr_scan"}, "name": "4fc5751b251a9c114bbba6227ed837fd", "is_reserved": 0}, {"is_disabled": 0, "fusion_lon": 0.0, "fusion_lat": 0.0, "lat": 38.86041816666667, "type": "electric_scooter", "lon": -76.98378283333334, "bike_id": "b1953ba8defcc51eb94a733484f5fd35", "rental_uris": {"android": "https://dc.lft.to/lastmile_qr_scan", "ios": "https://dc.lft.to/lastmile_qr_scan"}, "name": "b1953ba8defcc51eb94a733484f5fd35", "is_reserved": 0}, {"is_disabled": 0, "fusion_lon": 0.0, "fusion_lat": 0.0, "lat": 38.865134, "type": "electric_scooter", "lon": -76.97345616666667, "bike_id": "aebe3f6525a71634aeffc5a00ffe57a2", "rental_uris": {"android": "https://dc.lft.to/lastmile_qr_scan", "ios": "https://dc.lft.to/lastmile_qr_scan"}, "name": "aebe3f6525a71634aeffc5a00ffe57a2", "is_reserved": 0}, {"is_disabled": 0, "fusion_lon": 0.0, "fusion_lat": 0.0, "lat": 38.858346166666664, "type": "electric_scooter", "lon": -76.99071066666667, "bike_id": "3065325be265e8847ff0d4c46d96464d", "rental_uris": {"android": "https://dc.lft.to/lastmile_qr_scan", "ios": "https://dc.lft.to/lastmile_qr_scan"}, "name": "3065325be265e8847ff0d4c46d96464d", "is_reserved": 0}, {"is_disabled": 0, "fusion_lon": 0.0, "fusion_lat": 0.0, "lat": 38.962173166666666, "type": "electric_scooter", "lon": -77.02804466666667, "bike_id": "b88468616f2bef60d39d299bf14fc026", "rental_uris": {"android": "https://dc.lft.to/lastmile_qr_scan", "ios": "https://dc.lft.to/lastmile_qr_scan"}, "name": "b88468616f2bef60d39d299bf14fc026", "is_reserved": 0}, {"is_disabled": 0, "fusion_lon": 0.0, "fusion_lat": 0.0, "lat": 38.94986466666667, "type": "electric_scooter", "lon": -77.027011, "bike_id": "f2cb6b18577d28a0c9db1808a9b0a693", "rental_uris": {"android": "https://dc.lft.to/lastmile_qr_scan", "ios": "https://dc.lft.to/lastmile_qr_scan"}, "name": "f2cb6b18577d28a0c9db1808a9b0a693", "is_reserved": 0}, {"is_disabled": 0, "fusion_lon": 0.0, "fusion_lat": 0.0, "lat": 38.9110825, "type": "electric_scooter", "lon": -77.02308566666666, "bike_id": "66923949ee699bab2c43bcf44ab0dca8", "rental_uris": {"android": "https://dc.lft.to/lastmile_qr_scan", "ios": "https://dc.lft.to/lastmile_qr_scan"}, "name": "66923949ee699bab2c43bcf44ab0dca8", "is_reserved": 0}, {"is_disabled": 0, "fusion_lon": 0.0, "fusion_lat": 0.0, "lat": 38.91912383333333, "type": "electric_scooter", "lon": -77.03625533333333, "bike_id": "d2dacf9b183249f03b7b0efff9f1a33c", "rental_uris": {"android": "https://dc.lft.to/lastmile_qr_scan", "ios": "https://dc.lft.to/lastmile_qr_scan"}, "name": "d2dacf9b183249f03b7b0efff9f1a33c", "is_reserved": 0}, {"is_disabled": 0, "fusion_lon": 0.0, "fusion_lat": 0.0, "lat": 38.879067166666665, "type": "electric_scooter", "lon": -77.00858783333334, "bike_id": "3d114d6dbe6952d68081511a2dba4087", "rental_uris": {"android": "https://dc.lft.to/lastmile_qr_scan", "ios": "https://dc.lft.to/lastmile_qr_scan"}, "name": "3d114d6dbe6952d68081511a2dba4087", "is_reserved": 0}, {"is_disabled": 0, "fusion_lon": 0.0, "fusion_lat": 0.0, "lat": 39.00783083333334, "type": "electric_bike", "lon": -76.995717, "bike_id": "37dd6ecbc4b96ad0613c67ac4a53eca8", "rental_uris": {"android": "https://dc.lft.to/lastmile_qr_scan", "ios": "https://dc.lft.to/lastmile_qr_scan"}, "name": "37dd6ecbc4b96ad0613c67ac4a53eca8", "is_reserved": 0}, {"is_disabled": 0, "fusion_lon": 0.0, "fusion_lat": 0.0, "lat": 38.90057566666667, "type": "electric_scooter", "lon": -77.002184, "bike_id": "693180c8df5c9af82c022f885aaaaf89", "rental_uris": {"android": "https://dc.lft.to/lastmile_qr_scan", "ios": "https://dc.lft.to/lastmile_qr_scan"}, "name": "693180c8df5c9af82c022f885aaaaf89", "is_reserved": 0}, {"is_disabled": 0, "fusion_lon": 0.0, "fusion_lat": 0.0, "lat": 38.942868833333335, "type": "electric_bike", "lon": -77.02803283333333, "bike_id": "bedb394a88cf33736574cc887660c3e6", "rental_uris": {"android": "https://dc.lft.to/lastmile_qr_scan", "ios": "https://dc.lft.to/lastmile_qr_scan"}, "name": "bedb394a88cf33736574cc887660c3e6", "is_reserved": 0}, {"is_disabled": 0, "fusion_lon": 0.0, "fusion_lat": 0.0, "lat": 38.905097833333336, "type": "electric_scooter", "lon": -76.98250483333334, "bike_id": "7b594ca97e5747a920f3d51f2c482975", "rental_uris": {"android": "https://dc.lft.to/lastmile_qr_scan", "ios": "https://dc.lft.to/lastmile_qr_scan"}, "name": "7b594ca97e5747a920f3d51f2c482975", "is_reserved": 0}, {"is_disabled": 0, "fusion_lon": 0.0, "fusion_lat": 0.0, "lat": 38.91971016666667, "type": "electric_scooter", "lon": -77.02372733333333, "bike_id": "265ea430d6de546c0acfb38a619ae064", "rental_uris": {"android": "https://dc.lft.to/lastmile_qr_scan", "ios": "https://dc.lft.to/lastmile_qr_scan"}, "name": "265ea430d6de546c0acfb38a619ae064", "is_reserved": 0}, {"is_disabled": 0, "fusion_lon": 0.0, "fusion_lat": 0.0, "lat": 38.92159683333333, "type": "electric_scooter", "lon": -77.03384566666666, "bike_id": "8fb9744a1f2d2cfdcddb5e97567b066d", "rental_uris": {"android": "https://dc.lft.to/lastmile_qr_scan", "ios": "https://dc.lft.to/lastmile_qr_scan"}, "name": "8fb9744a1f2d2cfdcddb5e97567b066d", "is_reserved": 0}, {"is_disabled": 0, "fusion_lon": 0.0, "fusion_lat": 0.0, "lat": 38.8342545, "type": "electric_bike", "lon": -77.103633, "bike_id": "0e613c106ae81782698d538fab297f7d", "rental_uris": {"android": "https://dc.lft.to/lastmile_qr_scan", "ios": "https://dc.lft.to/lastmile_qr_scan"}, "name": "0e613c106ae81782698d538fab297f7d", "is_reserved": 0}, {"is_disabled": 0, "fusion_lon": 0.0, "fusion_lat": 0.0, "lat": 38.90786, "type": "electric_scooter", "lon": -77.03447566666667, "bike_id": "d1fe4bf1859f952ac4de1c9d10819e86", "rental_uris": {"android": "https://dc.lft.to/lastmile_qr_scan", "ios": "https://dc.lft.to/lastmile_qr_scan"}, "name": "d1fe4bf1859f952ac4de1c9d10819e86", "is_reserved": 0}, {"is_disabled": 0, "fusion_lon": 0.0, "fusion_lat": 0.0, "lat": 38.91693716666666, "type": "electric_bike", "lon": -77.09177866666667, "bike_id": "c806a5cd16ad7f5e8f8b7aff7afbe121", "rental_uris": {"android": "https://dc.lft.to/lastmile_qr_scan", "ios": "https://dc.lft.to/lastmile_qr_scan"}, "name": "c806a5cd16ad7f5e8f8b7aff7afbe121", "is_reserved": 0}, {"is_disabled": 0, "fusion_lon": 0.0, "fusion_lat": 0.0, "lat": 38.90879316666667, "type": "electric_scooter", "lon": -76.99837383333333, "bike_id": "f1b04c923810cb1d496fff3b72d4889b", "rental_uris": {"android": "https://dc.lft.to/lastmile_qr_scan", "ios": "https://dc.lft.to/lastmile_qr_scan"}, "name": "f1b04c923810cb1d496fff3b72d4889b", "is_reserved": 0}, {"is_disabled": 0, "fusion_lon": 0.0, "fusion_lat": 0.0, "lat": 38.91820166666667, "type": "electric_scooter", "lon": -77.02270666666666, "bike_id": "91d86c62404ea30db7b6f9c91e5b50d5", "rental_uris": {"android": "https://dc.lft.to/lastmile_qr_scan", "ios": "https://dc.lft.to/lastmile_qr_scan"}, "name": "91d86c62404ea30db7b6f9c91e5b50d5", "is_reserved": 0}, {"is_disabled": 0, "fusion_lon": 0.0, "fusion_lat": 0.0, "lat": 38.962710333333334, "type": "electric_scooter", "lon": -77.03350083333333, "bike_id": "eb0c6db1021634937951b701914a1836", "rental_uris": {"android": "https://dc.lft.to/lastmile_qr_scan", "ios": "https://dc.lft.to/lastmile_qr_scan"}, "name": "eb0c6db1021634937951b701914a1836", "is_reserved": 0}, {"is_disabled": 0, "fusion_lon": 0.0, "fusion_lat": 0.0, "lat": 38.933159833333335, "type": "electric_scooter", "lon": -77.0820295, "bike_id": "03d46e838e0b47601291a337b27cd9cd", "rental_uris": {"android": "https://dc.lft.to/lastmile_qr_scan", "ios": "https://dc.lft.to/lastmile_qr_scan"}, "name": "03d46e838e0b47601291a337b27cd9cd", "is_reserved": 0}, {"is_disabled": 0, "fusion_lon": 0.0, "fusion_lat": 0.0, "lat": 38.904776166666664, "type": "electric_scooter", "lon": -77.028785, "bike_id": "af5d5d44c088778ffc50364a897b05a1", "rental_uris": {"android": "https://dc.lft.to/lastmile_qr_scan", "ios": "https://dc.lft.to/lastmile_qr_scan"}, "name": "af5d5d44c088778ffc50364a897b05a1", "is_reserved": 0}, {"is_disabled": 0, "fusion_lon": 0.0, "fusion_lat": 0.0, "lat": 38.9040935, "type": "electric_scooter", "lon": -77.04370033333333, "bike_id": "c79dd748c73169a73023beb7195ab60f", "rental_uris": {"android": "https://dc.lft.to/lastmile_qr_scan", "ios": "https://dc.lft.to/lastmile_qr_scan"}, "name": "c79dd748c73169a73023beb7195ab60f", "is_reserved": 0}, {"is_disabled": 0, "fusion_lon": 0.0, "fusion_lat": 0.0, "lat": 38.9664535, "type": "electric_bike", "lon": -76.930245, "bike_id": "b6ae60ace7b19f5433e11b97b8e81f02", "rental_uris": {"android": "https://dc.lft.to/lastmile_qr_scan", "ios": "https://dc.lft.to/lastmile_qr_scan"}, "name": "b6ae60ace7b19f5433e11b97b8e81f02", "is_reserved": 0}, {"is_disabled": 0, "fusion_lon": 0.0, "fusion_lat": 0.0, "lat": 38.85799566666667, "type": "electric_bike", "lon": -76.98756266666666, "bike_id": "86b7c9d17680d59ea1e201c2824d4372", "rental_uris": {"android": "https://dc.lft.to/lastmile_qr_scan", "ios": "https://dc.lft.to/lastmile_qr_scan"}, "name": "86b7c9d17680d59ea1e201c2824d4372", "is_reserved": 0}, {"is_disabled": 0, "fusion_lon": 0.0, "fusion_lat": 0.0, "lat": 38.893524666666664, "type": "electric_scooter", "lon": -77.022193, "bike_id": "1525c0b4c5899aefbce1f785ffbc7614", "rental_uris": {"android": "https://dc.lft.to/lastmile_qr_scan", "ios": "https://dc.lft.to/lastmile_qr_scan"}, "name": "1525c0b4c5899aefbce1f785ffbc7614", "is_reserved": 0}, {"is_disabled": 0, "fusion_lon": 0.0, "fusion_lat": 0.0, "lat": 38.920365833333335, "type": "electric_scooter", "lon": -77.04194216666667, "bike_id": "578daaf4f4309b0da475fde40c714ec5", "rental_uris": {"android": "https://dc.lft.to/lastmile_qr_scan", "ios": "https://dc.lft.to/lastmile_qr_scan"}, "name": "578daaf4f4309b0da475fde40c714ec5", "is_reserved": 0}, {"is_disabled": 0, "fusion_lon": 0.0, "fusion_lat": 0.0, "lat": 38.9056275, "type": "electric_scooter", "lon": -77.005601, "bike_id": "17072b63db9aa79fb5c8e55b8293f4b3", "rental_uris": {"android": "https://dc.lft.to/lastmile_qr_scan", "ios": "https://dc.lft.to/lastmile_qr_scan"}, "name": "17072b63db9aa79fb5c8e55b8293f4b3", "is_reserved": 0}, {"is_disabled": 0, "fusion_lon": 0.0, "fusion_lat": 0.0, "lat": 38.9193925, "type": "electric_scooter", "lon": -77.01389166666667, "bike_id": "9f58f1b0902b88e93e13689d1fa6343d", "rental_uris": {"android": "https://dc.lft.to/lastmile_qr_scan", "ios": "https://dc.lft.to/lastmile_qr_scan"}, "name": "9f58f1b0902b88e93e13689d1fa6343d", "is_reserved": 0}, {"is_disabled": 0, "fusion_lon": 0.0, "fusion_lat": 0.0, "lat": 38.87981083333333, "type": "electric_bike", "lon": -76.91601133333333, "bike_id": "20f3b32b479c7cc11eaa0fc18610b82a", "rental_uris": {"android": "https://dc.lft.to/lastmile_qr_scan", "ios": "https://dc.lft.to/lastmile_qr_scan"}, "name": "20f3b32b479c7cc11eaa0fc18610b82a", "is_reserved": 0}, {"is_disabled": 0, "fusion_lon": 0.0, "fusion_lat": 0.0, "lat": 38.896105666666664, "type": "electric_scooter", "lon": -77.02978366666666, "bike_id": "acbee8c5fe7556077bd14b19c87e693e", "rental_uris": {"android": "https://dc.lft.to/lastmile_qr_scan", "ios": "https://dc.lft.to/lastmile_qr_scan"}, "name": "acbee8c5fe7556077bd14b19c87e693e", "is_reserved": 0}, {"is_disabled": 0, "fusion_lon": 0.0, "fusion_lat": 0.0, "lat": 38.916708166666666, "type": "electric_scooter", "lon": -77.02980216666667, "bike_id": "ebb2631987ceee45ae02b1170a5f3e93", "rental_uris": {"android": "https://dc.lft.to/lastmile_qr_scan", "ios": "https://dc.lft.to/lastmile_qr_scan"}, "name": "ebb2631987ceee45ae02b1170a5f3e93", "is_reserved": 0}, {"is_disabled": 0, "fusion_lon": 0.0, "fusion_lat": 0.0, "lat": 38.9224205, "type": "electric_scooter", "lon": -77.0224285, "bike_id": "4d4a1e4f09491ffa26a11ec0e923f80e", "rental_uris": {"android": "https://dc.lft.to/lastmile_qr_scan", "ios": "https://dc.lft.to/lastmile_qr_scan"}, "name": "4d4a1e4f09491ffa26a11ec0e923f80e", "is_reserved": 0}, {"is_disabled": 0, "fusion_lon": 0.0, "fusion_lat": 0.0, "lat": 38.885123666666665, "type": "electric_scooter", "lon": -77.01583966666666, "bike_id": "1022c084e4002bd5ec4907f25f9396e0", "rental_uris": {"android": "https://dc.lft.to/lastmile_qr_scan", "ios": "https://dc.lft.to/lastmile_qr_scan"}, "name": "1022c084e4002bd5ec4907f25f9396e0", "is_reserved": 0}, {"is_disabled": 0, "fusion_lon": 0.0, "fusion_lat": 0.0, "lat": 38.917174333333335, "type": "electric_scooter", "lon": -77.03207416666666, "bike_id": "352764028a881ee530edd7912fc442b9", "rental_uris": {"android": "https://dc.lft.to/lastmile_qr_scan", "ios": "https://dc.lft.to/lastmile_qr_scan"}, "name": "352764028a881ee530edd7912fc442b9", "is_reserved": 0}, {"is_disabled": 0, "fusion_lon": 0.0, "fusion_lat": 0.0, "lat": 38.91151166666667, "type": "electric_scooter", "lon": -77.08790833333333, "bike_id": "297bae9f3d26e28ad13b07230a6b914d", "rental_uris": {"android": "https://dc.lft.to/lastmile_qr_scan", "ios": "https://dc.lft.to/lastmile_qr_scan"}, "name": "297bae9f3d26e28ad13b07230a6b914d", "is_reserved": 0}, {"is_disabled": 0, "fusion_lon": 0.0, "fusion_lat": 0.0, "lat": 38.91082433333333, "type": "electric_scooter", "lon": -77.02194583333333, "bike_id": "d627f86ef98f9f1ca90368ff2db2f0d4", "rental_uris": {"android": "https://dc.lft.to/lastmile_qr_scan", "ios": "https://dc.lft.to/lastmile_qr_scan"}, "name": "d627f86ef98f9f1ca90368ff2db2f0d4", "is_reserved": 0}, {"is_disabled": 0, "fusion_lon": 0.0, "fusion_lat": 0.0, "lat": 38.904392, "type": "electric_scooter", "lon": -77.02702233333333, "bike_id": "c83e5c037c97af2624e2aa337bd12cc2", "rental_uris": {"android": "https://dc.lft.to/lastmile_qr_scan", "ios": "https://dc.lft.to/lastmile_qr_scan"}, "name": "c83e5c037c97af2624e2aa337bd12cc2", "is_reserved": 0}, {"is_disabled": 0, "fusion_lon": 0.0, "fusion_lat": 0.0, "lat": 38.95732483333333, "type": "electric_scooter", "lon": -77.02422216666666, "bike_id": "62ea7101e89771d9e29fdd542963edff", "rental_uris": {"android": "https://dc.lft.to/lastmile_qr_scan", "ios": "https://dc.lft.to/lastmile_qr_scan"}, "name": "62ea7101e89771d9e29fdd542963edff", "is_reserved": 0}, {"is_disabled": 0, "fusion_lon": 0.0, "fusion_lat": 0.0, "lat": 38.984784833333336, "type": "electric_scooter", "lon": -77.02651466666667, "bike_id": "b92a1dccc9adf2b6f01d36a584be0a70", "rental_uris": {"android": "https://dc.lft.to/lastmile_qr_scan", "ios": "https://dc.lft.to/lastmile_qr_scan"}, "name": "b92a1dccc9adf2b6f01d36a584be0a70", "is_reserved": 0}, {"is_disabled": 0, "fusion_lon": 0.0, "fusion_lat": 0.0, "lat": 38.940914666666664, "type": "electric_scooter", "lon": -77.01782233333333, "bike_id": "1e4f13071dff3f2ca572a5cab8bb3f2c", "rental_uris": {"android": "https://dc.lft.to/lastmile_qr_scan", "ios": "https://dc.lft.to/lastmile_qr_scan"}, "name": "1e4f13071dff3f2ca572a5cab8bb3f2c", "is_reserved": 0}, {"is_disabled": 0, "fusion_lon": 0.0, "fusion_lat": 0.0, "lat": 38.88458333333333, "type": "electric_scooter", "lon": -76.95408666666667, "bike_id": "d87b003662add68716f97d0d7701448a", "rental_uris": {"android": "https://dc.lft.to/lastmile_qr_scan", "ios": "https://dc.lft.to/lastmile_qr_scan"}, "name": "d87b003662add68716f97d0d7701448a", "is_reserved": 0}, {"is_disabled": 0, "fusion_lon": 0.0, "fusion_lat": 0.0, "lat": 38.896709666666666, "type": "electric_scooter", "lon": -77.02315766666666, "bike_id": "5b2ea0d90b4105f15276a6423bba4fc0", "rental_uris": {"android": "https://dc.lft.to/lastmile_qr_scan", "ios": "https://dc.lft.to/lastmile_qr_scan"}, "name": "5b2ea0d90b4105f15276a6423bba4fc0", "is_reserved": 0}, {"is_disabled": 0, "fusion_lon": 0.0, "fusion_lat": 0.0, "lat": 38.91339716666667, "type": "electric_scooter", "lon": -77.052192, "bike_id": "e74e167ba2e3736fc5bda79cc731edda", "rental_uris": {"android": "https://dc.lft.to/lastmile_qr_scan", "ios": "https://dc.lft.to/lastmile_qr_scan"}, "name": "e74e167ba2e3736fc5bda79cc731edda", "is_reserved": 0}, {"is_disabled": 0, "fusion_lon": 0.0, "fusion_lat": 0.0, "lat": 38.92939333333333, "type": "electric_scooter", "lon": -77.016356, "bike_id": "2a43f1d42c293f5c330f59443d00bd8f", "rental_uris": {"android": "https://dc.lft.to/lastmile_qr_scan", "ios": "https://dc.lft.to/lastmile_qr_scan"}, "name": "2a43f1d42c293f5c330f59443d00bd8f", "is_reserved": 0}, {"is_disabled": 0, "fusion_lon": 0.0, "fusion_lat": 0.0, "lat": 38.93288033333333, "type": "electric_scooter", "lon": -77.02452216666667, "bike_id": "8dc7c1528194eb1cd4b64b65fc884a9d", "rental_uris": {"android": "https://dc.lft.to/lastmile_qr_scan", "ios": "https://dc.lft.to/lastmile_qr_scan"}, "name": "8dc7c1528194eb1cd4b64b65fc884a9d", "is_reserved": 0},