{"data": {"bikes": [{"name": "22a4e63838590a9fb3166f2237716426", "fusion_lon": 0.0, "lat": 38.916741333333334, "is_reserved": 0, "type": "electric_scooter", "bike_id": "22a4e63838590a9fb3166f2237716426", "is_disabled": 0, "rental_uris": {"android": "https://dc.lft.to/lastmile_qr_scan", "ios": "https://dc.lft.to/lastmile_qr_scan"}, "lon": -77.02975466666666, "fusion_lat": 0.0}, {"name": "7a31630be5224854f163a5135986a687", "fusion_lon": 0.0, "lat": 38.951542833333335, "is_reserved": 0, "type": "electric_scooter", "bike_id": "7a31630be5224854f163a5135986a687", "is_disabled": 0, "rental_uris": {"android": "https://dc.lft.to/lastmile_qr_scan", "ios": "https://dc.lft.to/lastmile_qr_scan"}, "lon": -77.01868166666667, "fusion_lat": 0.0}, {"name": "0c55c768d8dfa5babdcbf21869150139", "fusion_lon": 0.0, "lat": 38.9021695, "is_reserved": 0, "type": "electric_scooter", "bike_id": "0c55c768d8dfa5babdcbf21869150139", "is_disabled": 0, "rental_uris": {"android": "https://dc.lft.to/lastmile_qr_scan", "ios": "https://dc.lft.to/lastmile_qr_scan"}, "lon": -77.02368566666667, "fusion_lat": 0.0}, {"name": "7498d181828cd7a2ec6ecbe71a27709a", "fusion_lon": 0.0, "lat": 38.90221866666667, "is_reserved": 0, "type": "electric_scooter", "bike_id": "7498d181828cd7a2ec6ecbe71a27709a", "is_disabled": 0, "rental_uris": {"android": "https://dc.lft.to/lastmile_qr_scan", "ios": "https://dc.lft.to/lastmile_qr_scan"}, "lon": -77.0237685, "fusion_lat": 0.0}, {"name": "b5b8e070e7f815632cf2b8983b55c682", "fusion_lon": 0.0, "lat": 38.92646933333333, "is_reserved": 0, "type": "electric_scooter", "bike_id": "b5b8e070e7f815632cf2b8983b55c682", "is_disabled": 0, "rental_uris": {"android": "https://dc.lft.to/lastmile_qr_scan", "ios": "https://dc.lft.to/lastmile_qr_scan"}, "lon": -77.04142666666667, "fusion_lat": 0.0}, {"name": "a9cc18bf633d8d291becfe2a65cb9c65", "fusion_lon": 0.0, "lat": 38.92172716666666, "is_reserved": 0, "type": "electric_scooter", "bike_id": "a9cc18bf633d8d291becfe2a65cb9c65", "is_disabled": 0, "rental_uris": {"android": "https://dc.lft.to/lastmile_qr_scan", "ios": "https://dc.lft.to/lastmile_qr_scan"}, "lon": -77.04358833333333, "fusion_lat": 0.0}, {"name": "459504e040cbc5acbc34d52c7eb8ce60", "fusion_lon": 0.0, "lat": 38.874218, "is_reserved": 0, "type": "electric_scooter", "bike_id": "459504e040cbc5acbc34d52c7eb8ce60", "is_disabled": 0, "rental_uris": {"android": "https://dc.lft.to/lastmile_qr_scan", "ios": "https://dc.lft.to/lastmile_qr_scan"}, "lon": -76.97118916666666, "fusion_lat": 0.0}, {"name": "1708a04c715b725ff9330d70a100221d", "fusion_lon": 0.0, "lat": 38.916708666666665, "is_reserved": 0, "type": "electric_scooter", "bike_id": "1708a04c715b725ff9330d70a100221d", "is_disabled": 0, "rental_uris": {"android": "https://dc.lft.to/lastmile_qr_scan", "ios": "https://dc.lft.to/lastmile_qr_scan"}, "lon": -77.02979216666667, "fusion_lat": 0.0}, {"name": "e8eda30bc02fd51c4679eab9095224d7", "fusion_lon": 0.0, "lat": 38.900343666666664, "is_reserved": 0, "type": "electric_scooter", "bike_id": "e8eda30bc02fd51c4679eab9095224d7", "is_disabled": 0, "rental_uris": {"android": "https://dc.lft.to/lastmile_qr_scan", "ios": "https://dc.lft.to/lastmile_qr_scan"}, "lon": -76.99902816666666, "fusion_lat": 0.0}, {"name": "cca651bbe62d5d8f2bfcca439bb06a67", "fusion_lon": 0.0, "lat": 38.893272, "is_reserved": 0, "type": "electric_scooter", "bike_id": "cca651bbe62d5d8f2bfcca439bb06a67", "is_disabled": 0, "rental_uris": {"android": "https://dc.lft.to/lastmile_qr_scan", "ios": "https://dc.lft.to/lastmile_qr_scan"}, "lon": -77.04872583333334, "fusion_lat": 0.0}, {"name": "b6f3efc24c8b8321d3a068264f504503", "fusion_lon": 0.0, "lat": 38.9836695, "is_reserved": 0, "type": "electric_bike", "bike_id": "b6f3efc24c8b8321d3a068264f504503", "is_disabled": 0, "rental_uris": {"android": "https://dc.lft.to/lastmile_qr_scan", "ios": "https://dc.lft.to/lastmile_qr_scan"}, "lon": -76.972109, "fusion_lat": 0.0}, {"name": "45d22176fc7a998192d91b10aee1e2f2", "fusion_lon": 0.0, "lat": 38.92422966666667, "is_reserved": 0, "type": "electric_scooter", "bike_id": "45d22176fc7a998192d91b10aee1e2f2", "is_disabled": 0, "rental_uris": {"android": "https://dc.lft.to/lastmile_qr_scan", "ios": "https://dc.lft.to/lastmile_qr_scan"}, "lon": -77.0505845, "fusion_lat": 0.0}, {"name": "579e2e70796ac43f661bbee746d88bc6", "fusion_lon": 0.0, "lat": 38.862485166666666, "is_reserved": 0, "type": "electric_scooter", "bike_id": "579e2e70796ac43f661bbee746d88bc6", "is_disabled": 0, "rental_uris": {"android": "https://dc.lft.to/lastmile_qr_scan", "ios": "https://dc.lft.to/lastmile_qr_scan"}, "lon": -76.99493116666666, "fusion_lat": 0.0}, {"name": "ca9fa50526d9cd84fa2c0684ab302a79", "fusion_lon": 0.0, "lat": 38.936725, "is_reserved": 0, "type": "electric_scooter", "bike_id": "ca9fa50526d9cd84fa2c0684ab302a79", "is_disabled": 0, "rental_uris": {"android": "https://dc.lft.to/lastmile_qr_scan", "ios": "https://dc.lft.to/lastmile_qr_scan"}, "lon": -77.0356425, "fusion_lat": 0.0}, {"name": "f3af49f61c2ba47ddb1acd2b502c0188", "fusion_lon": 0.0, "lat": 38.902191, "is_reserved": 0, "type": "electric_scooter", "bike_id": "f3af49f61c2ba47ddb1acd2b502c0188", "is_disabled": 0, "rental_uris": {"android": "https://dc.lft.to/lastmile_qr_scan", "ios": "https://dc.lft.to/lastmile_qr_scan"}, "lon": -77.04385966666666, "fusion_lat": 0.0}, {"name": "c1bba119539a0d61786f0b5be651de1b", "fusion_lon": 0.0, "lat": 38.95752816666667, "is_reserved": 0, "type": "electric_scooter", "bike_id": "c1bba119539a0d61786f0b5be651de1b", "is_disabled": 0, "rental_uris": {"android": "https://dc.lft.to/lastmile_qr_scan", "ios": "https://dc.lft.to/lastmile_qr_scan"}, "lon": -77.02064733333333, "fusion_lat": 0.0}, {"name": "26b408935efdb8b7f41560757124d4d0", "fusion_lon": 0.0, "lat": 38.83149433333333, "is_reserved": 0, "type": "electric_scooter", "bike_id": "26b408935efdb8b7f41560757124d4d0", "is_disabled": 0, "rental_uris": {"android": "https://dc.lft.to/lastmile_qr_scan", "ios": "https://dc.lft.to/lastmile_qr_scan"}, "lon": -77.05122716666666, "fusion_lat": 0.0}, {"name": "03b5cdcd87a950f635d62ef4d56374ee", "fusion_lon": 0.0, "lat": 38.917453333333334, "is_reserved": 0, "type": "electric_scooter", "bike_id": "03b5cdcd87a950f635d62ef4d56374ee", "is_disabled": 0, "rental_uris": {"android": "https://dc.lft.to/lastmile_qr_scan", "ios": "https://dc.lft.to/lastmile_qr_scan"}, "lon": -77.014657, "fusion_lat": 0.0}, {"name": "9ba40f4b0f615b3efb410f714480d230", "fusion_lon": 0.0, "lat": 38.9182655, "is_reserved": 0, "type": "electric_scooter", "bike_id": "9ba40f4b0f615b3efb410f714480d230", "is_disabled": 0, "rental_uris": {"android": "https://dc.lft.to/lastmile_qr_scan", "ios": "https://dc.lft.to/lastmile_qr_scan"}, "lon": -77.02713666666666, "fusion_lat": 0.0}, {"name": "96753c64c6f1eb5269273311786e9fa0", "fusion_lon": 0.0, "lat": 38.89723566666667, "is_reserved": 0, "type": "electric_scooter", "bike_id": "96753c64c6f1eb5269273311786e9fa0", "is_disabled": 0, "rental_uris": {"android": "https://dc.lft.to/lastmile_qr_scan", "ios": "https://dc.lft.to/lastmile_qr_scan"}, "lon": -76.9734625, "fusion_lat": 0.0}, {"name": "20cff017428eff98ad0693e3cbce6d41", "fusion_lon": 0.0, "lat": 38.907581, "is_reserved": 0, "type": "electric_scooter", "bike_id": "20cff017428eff98ad0693e3cbce6d41", "is_disabled": 0, "rental_uris": {"android": "https://dc.lft.to/lastmile_qr_scan", "ios": "https://dc.lft.to/lastmile_qr_scan"}, "lon": -77.03204, "fusion_lat": 0.0}, {"name": "f938c4a69c00e106292658d6f265c09d", "fusion_lon": 0.0, "lat": 38.884386166666665, "is_reserved": 0, "type": "electric_scooter", "bike_id": "f938c4a69c00e106292658d6f265c09d", "is_disabled": 0, "rental_uris": {"android": "https://dc.lft.to/lastmile_qr_scan", "ios": "https://dc.lft.to/lastmile_qr_scan"}, "lon": -77.02961366666666, "fusion_lat": 0.0}, {"name": "3a4aad57226d1457ae76293ea2455da8", "fusion_lon": 0.0, "lat": 38.923593, "is_reserved": 0, "type": "electric_scooter", "bike_id": "3a4aad57226d1457ae76293ea2455da8", "is_disabled": 0, "rental_uris": {"android": "https://dc.lft.to/lastmile_qr_scan", "ios": "https://dc.lft.to/lastmile_qr_scan"}, "lon": -77.05086016666667, "fusion_lat": 0.0}, {"name": "d2dc7d33bee4ceb54a1e925779d3c822", "fusion_lon": 0.0, "lat": 38.902860833333335, "is_reserved": 0, "type": "electric_scooter", "bike_id": "d2dc7d33bee4ceb54a1e925779d3c822", "is_disabled": 0, "rental_uris": {"android": "https://dc.lft.to/lastmile_qr_scan", "ios": "https://dc.lft.to/lastmile_qr_scan"}, "lon": -77.05808366666666, "fusion_lat": 0.0}, {"name": "a7b4eacbf2f1c976dbf197f7e4156a15", "fusion_lon": 0.0, "lat": 39.057931833333335, "is_reserved": 0, "type": "electric_bike", "bike_id": "a7b4eacbf2f1c976dbf197f7e4156a15", "is_disabled": 0, "rental_uris": {"android": "https://dc.lft.to/lastmile_qr_scan", "ios": "https://dc.lft.to/lastmile_qr_scan"}, "lon": -77.15024516666666, "fusion_lat": 0.0}, {"name": "f50b151bdea4483f0c39f3c10a713d65", "fusion_lon": 0.0, "lat": 38.92329866666667, "is_reserved": 0, "type": "electric_scooter", "bike_id": "f50b151bdea4483f0c39f3c10a713d65", "is_disabled": 0, "rental_uris": {"android": "https://dc.lft.to/lastmile_qr_scan", "ios": "https://dc.lft.to/lastmile_qr_scan"}, "lon": -77.02140966666667, "fusion_lat": 0.0}, {"name": "be027aff8c448affb814e8d04801e3bd", "fusion_lon": 0.0, "lat": 38.9212, "is_reserved": 0, "type": "electric_scooter", "bike_id": "be027aff8c448affb814e8d04801e3bd", "is_disabled": 0, "rental_uris": {"android": "https://dc.lft.to/lastmile_qr_scan", "ios": "https://dc.lft.to/lastmile_qr_scan"}, "lon": -77.04420933333333, "fusion_lat": 0.0}, {"name": "60da3e804825aaa50772b3b2f32fcf66", "fusion_lon": 0.0, "lat": 38.926743, "is_reserved": 0, "type": "electric_scooter", "bike_id": "60da3e804825aaa50772b3b2f32fcf66", "is_disabled": 0, "rental_uris": {"android": "https://dc.lft.to/lastmile_qr_scan", "ios": "https://dc.lft.to/lastmile_qr_scan"}, "lon": -77.015134, "fusion_lat": 0.0}, {"name": "f85830d10a624a1cc927f812ac8625fe", "fusion_lon": 0.0, "lat": 38.930074166666664, "is_reserved": 0, "type": "electric_scooter", "bike_id": "f85830d10a624a1cc927f812ac8625fe", "is_disabled": 0, "rental_uris": {"android": "https://dc.lft.to/lastmile_qr_scan", "ios": "https://dc.lft.to/lastmile_qr_scan"}, "lon": -77.0143145, "fusion_lat": 0.0}, {"name": "5947c4062dbdef0a05ea62824c584071", "fusion_lon": 0.0, "lat": 38.85698983333333, "is_reserved": 0, "type": "electric_scooter", "bike_id": "5947c4062dbdef0a05ea62824c584071", "is_disabled": 0, "rental_uris": {"android": "https://dc.lft.to/lastmile_qr_scan", "ios": "https://dc.lft.to/lastmile_qr_scan"}, "lon": -76.98970916666667, "fusion_lat": 0.0}, {"name": "9164f0697c0cafc3cb9ca641d53186d9", "fusion_lon": 0.0, "lat": 38.90058366666667, "is_reserved": 0, "type": "electric_scooter", "bike_id": "9164f0697c0cafc3cb9ca641d53186d9", "is_disabled": 0, "rental_uris": {"android": "https://dc.lft.to/lastmile_qr_scan", "ios": "https://dc.lft.to/lastmile_qr_scan"}, "lon": -76.934721, "fusion_lat": 0.0}, {"name": "ac35bc01483386537bf178186b9a3859", "fusion_lon": 0.0, "lat": 38.92102783333333, "is_reserved": 0, "type": "electric_scooter", "bike_id": "ac35bc01483386537bf178186b9a3859", "is_disabled": 0, "rental_uris": {"android": "https://dc.lft.to/lastmile_qr_scan", "ios": "https://dc.lft.to/lastmile_qr_scan"}, "lon": -77.01761283333333, "fusion_lat": 0.0}, {"name": "4db855c6a7ddccbb6cfc31566baa7c02", "fusion_lon": 0.0, "lat": 38.844312333333335, "is_reserved": 0, "type": "electric_scooter", "bike_id": "4db855c6a7ddccbb6cfc31566baa7c02", "is_disabled": 0, "rental_uris": {"android": "https://dc.lft.to/lastmile_qr_scan", "ios": "https://dc.lft.to/lastmile_qr_scan"}, "lon": -76.9978045, "fusion_lat": 0.0}, {"name": "b5ef507d6475c564882eb08f1d666796", "fusion_lon": 0.0, "lat": 38.909043833333335, "is_reserved": 0, "type": "electric_scooter", "bike_id": "b5ef507d6475c564882eb08f1d666796", "is_disabled": 0, "rental_uris": {"android": "https://dc.lft.to/lastmile_qr_scan", "ios": "https://dc.lft.to/lastmile_qr_scan"}, "lon": -77.07274666666666, "fusion_lat": 0.0}, {"name": "f694d841587a6dc1b6c5763bb4c2aa6f", "fusion_lon": 0.0, "lat": 38.917314, "is_reserved": 0, "type": "electric_scooter", "bike_id": "f694d841587a6dc1b6c5763bb4c2aa6f", "is_disabled": 0, "rental_uris": {"android": "https://dc.lft.to/lastmile_qr_scan", "ios": "https://dc.lft.to/lastmile_qr_scan"}, "lon": -77.0321285, "fusion_lat": 0.0}, {"name": "bdc8e8177425ff80d966a72c7c79d59a", "fusion_lon": 0.0, "lat": 38.92497916666667, "is_reserved": 0, "type": "electric_scooter", "bike_id": "bdc8e8177425ff80d966a72c7c79d59a", "is_disabled": 0, "rental_uris": {"android": "https://dc.lft.to/lastmile_qr_scan", "ios": "https://dc.lft.to/lastmile_qr_scan"}, "lon": -77.05257, "fusion_lat": 0.0}, {"name": "15790256e24c948ef6be845a4a7bd9d0", "fusion_lon": 0.0, "lat": 38.908736166666664, "is_reserved": 0, "type": "electric_bike", "bike_id": "15790256e24c948ef6be845a4a7bd9d0", "is_disabled": 0, "rental_uris": {"android": "https://dc.lft.to/lastmile_qr_scan", "ios": "https://dc.lft.to/lastmile_qr_scan"}, "lon": -76.9914175, "fusion_lat": 0.0}, {"name": "5850c5c08cc5fb90ec196d681407d438", "fusion_lon": 0.0, "lat": 38.879438, "is_reserved": 0, "type": "electric_scooter", "bike_id": "5850c5c08cc5fb90ec196d681407d438", "is_disabled": 0, "rental_uris": {"android": "https://dc.lft.to/lastmile_qr_scan", "ios": "https://dc.lft.to/lastmile_qr_scan"}, "lon": -77.00403833333333, "fusion_lat": 0.0}, {"name": "10a660f4c08bb568f0791ab722e2ea45", "fusion_lon": 0.0, "lat": 38.91275516666666, "is_reserved": 0, "type": "electric_scooter", "bike_id": "10a660f4c08bb568f0791ab722e2ea45", "is_disabled": 0, "rental_uris": {"android": "https://dc.lft.to/lastmile_qr_scan", "ios": "https://dc.lft.to/lastmile_qr_scan"}, "lon": -77.026912, "fusion_lat": 0.0}, {"name": "86f82c10b21c6d3509bb1b17e6d68854", "fusion_lon": 0.0, "lat": 38.88821983333333, "is_reserved": 0, "type": "electric_scooter", "bike_id": "86f82c10b21c6d3509bb1b17e6d68854", "is_disabled": 0, "rental_uris": {"android": "https://dc.lft.to/lastmile_qr_scan", "ios": "https://dc.lft.to/lastmile_qr_scan"}, "lon": -76.95099966666666, "fusion_lat": 0.0}, {"name": "59afa0e1cac38f15c1d0d3dcf15bd878", "fusion_lon": 0.0, "lat": 38.921481666666665, "is_reserved": 0, "type": "electric_scooter", "bike_id": "59afa0e1cac38f15c1d0d3dcf15bd878", "is_disabled": 0, "rental_uris": {"android": "https://dc.lft.to/lastmile_qr_scan", "ios": "https://dc.lft.to/lastmile_qr_scan"}, "lon": -77.01824216666667, "fusion_lat": 0.0}, {"name": "26acf747eb463ea2833a62de35d48a00", "fusion_lon": 0.0, "lat": 38.90033966666667, "is_reserved": 0, "type": "electric_scooter", "bike_id": "26acf747eb463ea2833a62de35d48a00", "is_disabled": 0, "rental_uris": {"android": "https://dc.lft.to/lastmile_qr_scan", "ios": "https://dc.lft.to/lastmile_qr_scan"}, "lon": -77.02399916666667, "fusion_lat": 0.0}, {"name": "7165de4a174af8a2e17203f34166c257", "fusion_lon": 0.0, "lat": 38.902503, "is_reserved": 0, "type": "electric_scooter", "bike_id": "7165de4a174af8a2e17203f34166c257", "is_disabled": 0, "rental_uris": {"android": "https://dc.lft.to/lastmile_qr_scan", "ios": "https://dc.lft.to/lastmile_qr_scan"}, "lon": -77.039611, "fusion_lat": 0.0}, {"name": "77bf6037020c1177f93ca1f4ba9b21d7", "fusion_lon": 0.0, "lat": 38.915702833333334, "is_reserved": 0, "type": "electric_scooter", "bike_id": "77bf6037020c1177f93ca1f4ba9b21d7", "is_disabled": 0, "rental_uris": {"android": "https://dc.lft.to/lastmile_qr_scan", "ios": "https://dc.lft.to/lastmile_qr_scan"}, "lon": -77.01034683333333, "fusion_lat": 0.0}, {"name": "5603f11cb5f2cc78f20e6a787f733a4e", "fusion_lon": 0.0, "lat": 38.898493, "is_reserved": 0, "type": "electric_scooter", "bike_id": "5603f11cb5f2cc78f20e6a787f733a4e", "is_disabled": 0, "rental_uris": {"android": "https://dc.lft.to/lastmile_qr_scan", "ios": "https://dc.lft.to/lastmile_qr_scan"}, "lon": -77.02380016666666, "fusion_lat": 0.0}, {"name": "5e76846e1eb04c1d5a89e4c64af58084", "fusion_lon": 0.0, "lat": 38.90628666666667, "is_reserved": 0, "type": "electric_scooter", "bike_id": "5e76846e1eb04c1d5a89e4c64af58084", "is_disabled": 0, "rental_uris": {"android": "https://dc.lft.to/lastmile_qr_scan", "ios": "https://dc.lft.to/lastmile_qr_scan"}, "lon": -77.0434975, "fusion_lat": 0.0}, {"name": "23ec655bf2ac5bd4dd7db97c9bf8dd55", "fusion_lon": 0.0, "lat": 38.916425833333335, "is_reserved": 0, "type": "electric_scooter", "bike_id": "23ec655bf2ac5bd4dd7db97c9bf8dd55", "is_disabled": 0, "rental_uris": {"android": "https://dc.lft.to/lastmile_qr_scan", "ios": "https://dc.lft.to/lastmile_qr_scan"}, "lon": -77.02392816666666, "fusion_lat": 0.0}, {"name": "9e87c524b0d69e7080809c0e52753ee1", "fusion_lon": 0.0, "lat": 38.9141675, "is_reserved": 0, "type": "electric_scooter", "bike_id": "9e87c524b0d69e7080809c0e52753ee1", "is_disabled": 0, "rental_uris": {"android": "https://dc.lft.to/lastmile_qr_scan", "ios": "https://dc.lft.to/lastmile_qr_scan"}, "lon": -77.03716966666667, "fusion_lat": 0.0}, {"name": "059fa2007af648174a41c9b5af3a4e88", "fusion_lon": 0.0, "lat": 38.91108716666667, "is_reserved": 0, "type": "electric_scooter", "bike_id": "059fa2007af648174a41c9b5af3a4e88", "is_disabled": 0, "rental_uris": {"android": "https://dc.lft.to/lastmile_qr_scan", "ios": "https://dc.lft.to/lastmile_qr_scan"}, "lon": -77.03830616666667, "fusion_lat": 0.0}, {"name": "0140d05a3d4e3af9b483fe7994d81e7e", "fusion_lon": 0.0, "lat": 38.905596833333334, "is_reserved": 0, "type": "electric_scooter", "bike_id": "0140d05a3d4e3af9b483fe7994d81e7e", "is_disabled": 0, "rental_uris": {"android": "https://dc.lft.to/lastmile_qr_scan", "ios": "https://dc.lft.to/lastmile_qr_scan"}, "lon": -77.04760683333333, "fusion_lat": 0.0}, {"name": "ea4eae3f4abb696faaf3ed9cc77c9bf2", "fusion_lon": 0.0, "lat": 38.897071833333335, "is_reserved": 0, "type": "electric_scooter", "bike_id": "ea4eae3f4abb696faaf3ed9cc77c9bf2", "is_disabled": 0, "rental_uris": {"android": "https://dc.lft.to/lastmile_qr_scan", "ios": "https://dc.lft.to/lastmile_qr_scan"}, "lon": -76.92996366666667, "fusion_lat": 0.0}, {"name": "01362dc397b0f40bb9478885c203cb67", "fusion_lon": 0.0, "lat": 38.92707466666667, "is_reserved": 0, "type": "electric_scooter", "bike_id": "01362dc397b0f40bb9478885c203cb67", "is_disabled": 0, "rental_uris": {"android": "https://dc.lft.to/lastmile_qr_scan", "ios": "https://dc.lft.to/lastmile_qr_scan"}, "lon": -77.01548033333333, "fusion_lat": 0.0}, {"name": "ffcdc3498ff95449e28c7a0626504b3d", "fusion_lon": 0.0, "lat": 38.916823666666666, "is_reserved": 0, "type": "electric_bike", "bike_id": "ffcdc3498ff95449e28c7a0626504b3d", "is_disabled": 0, "rental_uris": {"android": "https://dc.lft.to/lastmile_qr_scan", "ios": "https://dc.lft.to/lastmile_qr_scan"}, "lon": -77.06946633333334, "fusion_lat": 0.0}, {"name": "09481e4c6a7817acc06fba09deb7b227", "fusion_lon": 0.0, "lat": 38.9162615, "is_reserved": 0, "type": "electric_scooter", "bike_id": "09481e4c6a7817acc06fba09deb7b227", "is_disabled": 0, "rental_uris": {"android": "https://dc.lft.to/lastmile_qr_scan", "ios": "https://dc.lft.to/lastmile_qr_scan"}, "lon": -77.0385595, "fusion_lat": 0.0}, {"name": "58699eeef987917fb0af6c7e99639138", "fusion_lon": 0.0, "lat": 38.899620666666664, "is_reserved": 0, "type": "electric_bike", "bike_id": "58699eeef987917fb0af6c7e99639138", "is_disabled": 0, "rental_uris": {"android": "https://dc.lft.to/lastmile_qr_scan", "ios": "https://dc.lft.to/lastmile_qr_scan"}, "lon": -76.98565916666666, "fusion_lat": 0.0}, {"name": "13b1bc67de06105d2e3cc36e9b9784ca", "fusion_lon": 0.0, "lat": 38.89922216666667, "is_reserved": 0, "type": "electric_scooter", "bike_id": "13b1bc67de06105d2e3cc36e9b9784ca", "is_disabled": 0, "rental_uris": {"android": "https://dc.lft.to/lastmile_qr_scan", "ios": "https://dc.lft.to/lastmile_qr_scan"}, "lon": -77.07077383333333, "fusion_lat": 0.0}, {"name": "a77b4a19bd64f3b471331d75af779749", "fusion_lon": 0.0, "lat": 38.92381666666667, "is_reserved": 0, "type": "electric_scooter", "bike_id": "a77b4a19bd64f3b471331d75af779749", "is_disabled": 0, "rental_uris": {"android": "https://dc.lft.to/lastmile_qr_scan", "ios": "https://dc.lft.to/lastmile_qr_scan"}, "lon": -77.03092783333334, "fusion_lat": 0.0}, {"name": "a00c5b39d78575a7eedce99a9a018681", "fusion_lon": 0.0, "lat": 38.866406166666664, "is_reserved": 0, "type": "electric_scooter", "bike_id": "a00c5b39d78575a7eedce99a9a018681", "is_disabled": 0, "rental_uris": {"android": "https://dc.lft.to/lastmile_qr_scan", "ios": "https://dc.lft.to/lastmile_qr_scan"}, "lon": -76.98903, "fusion_lat": 0.0}, {"name": "3dbc8f9825a70af6179e5c183b199245", "fusion_lon": 0.0, "lat": 38.903681666666664, "is_reserved": 0, "type": "electric_scooter", "bike_id": "3dbc8f9825a70af6179e5c183b199245", "is_disabled": 0, "rental_uris": {"android": "https://dc.lft.to/lastmile_qr_scan", "ios": "https://dc.lft.to/lastmile_qr_scan"}, "lon": -77.04479216666667, "fusion_lat": 0.0}, {"name": "928f4aeebc5fac1e164f969f6795834b", "fusion_lon": 0.0, "lat": 38.9236705, "is_reserved": 0, "type": "electric_scooter", "bike_id": "928f4aeebc5fac1e164f969f6795834b", "is_disabled": 0, "rental_uris": {"android": "https://dc.lft.to/lastmile_qr_scan", "ios": "https://dc.lft.to/lastmile_qr_scan"}, "lon": -77.05082666666667, "fusion_lat": 0.0}, {"name": "6be0c8089e9ef7511433fa4e245fe4e1", "fusion_lon": 0.0, "lat": 38.925085, "is_reserved": 0, "type": "electric_scooter", "bike_id": "6be0c8089e9ef7511433fa4e245fe4e1", "is_disabled": 0, "rental_uris": {"android": "https://dc.lft.to/lastmile_qr_scan", "ios": "https://dc.lft.to/lastmile_qr_scan"}, "lon": -77.00888866666666, "fusion_lat": 0.0}, {"name": "d42e7f0928fcf44e941ca6694b3431e1", "fusion_lon": 0.0, "lat": 38.90803016666667, "is_reserved": 0, "type": "electric_scooter", "bike_id": "d42e7f0928fcf44e941ca6694b3431e1", "is_disabled": 0, "rental_uris": {"android": "https://dc.lft.to/lastmile_qr_scan", "ios": "https://dc.lft.to/lastmile_qr_scan"}, "lon": -77.03816816666667, "fusion_lat": 0.0}, {"name": "bc988dc042daa24c4f476165adb66e24", "fusion_lon": 0.0, "lat": 38.907817, "is_reserved": 0, "type": "electric_scooter", "bike_id": "bc988dc042daa24c4f476165adb66e24", "is_disabled": 0, "rental_uris": {"android": "https://dc.lft.to/lastmile_qr_scan", "ios": "https://dc.lft.to/lastmile_qr_scan"}, "lon": -77.03828966666667, "fusion_lat": 0.0}, {"name": "5221c570c64751cc197e7c12ca78ceeb", "fusion_lon": 0.0, "lat": 38.90236816666667, "is_reserved": 0, "type": "electric_scooter", "bike_id": "5221c570c64751cc197e7c12ca78ceeb", "is_disabled": 0, "rental_uris": {"android": "https://dc.lft.to/lastmile_qr_scan", "ios": "https://dc.lft.to/lastmile_qr_scan"}, "lon": -76.97410083333334, "fusion_lat": 0.0}, {"name": "58401ffa2a72ae5cc9a4c5a07d8d1174", "fusion_lon": 0.0, "lat": 38.92116016666667, "is_reserved": 0, "type": "electric_scooter", "bike_id": "58401ffa2a72ae5cc9a4c5a07d8d1174", "is_disabled": 0, "rental_uris": {"android": "https://dc.lft.to/lastmile_qr_scan", "ios": "https://dc.lft.to/lastmile_qr_scan"}, "lon": -77.03328616666667, "fusion_lat": 0.0}, {"name": "1cfd48e6b34dd3b46916b61c129c0760", "fusion_lon": 0.0, "lat": 38.91990716666667, "is_reserved": 0, "type": "electric_scooter", "bike_id": "1cfd48e6b34dd3b46916b61c129c0760", "is_disabled": 0, "rental_uris": {"android": "https://dc.lft.to/lastmile_qr_scan", "ios": "https://dc.lft.to/lastmile_qr_scan"}, "lon": -76.97304683333333, "fusion_lat": 0.0}, {"name": "9a5d9fc0123eeffd2a322c050da0d41b", "fusion_lon": 0.0, "lat": 38.851820000000004, "is_reserved": 0, "type": "electric_scooter", "bike_id": "9a5d9fc0123eeffd2a322c050da0d41b", "is_disabled": 0, "rental_uris": {"android": "https://dc.lft.to/lastmile_qr_scan", "ios": "https://dc.lft.to/lastmile_qr_scan"}, "lon": -76.9957995, "fusion_lat": 0.0}, {"name": "e93795634f09e8a407074a726a7e6a15", "fusion_lon": 0.0, "lat": 38.935338333333334, "is_reserved": 0, "type": "electric_scooter", "bike_id": "e93795634f09e8a407074a726a7e6a15", "is_disabled": 0, "rental_uris": {"android": "https://dc.lft.to/lastmile_qr_scan", "ios": "https://dc.lft.to/lastmile_qr_scan"}, "lon": -77.05446016666667, "fusion_lat": 0.0}, {"name": "d9fdc61777a6a79d1cb6a1b24d96d075", "fusion_lon": 0.0, "lat": 38.892246666666665, "is_reserved": 0, "type": "electric_scooter", "bike_id": "d9fdc61777a6a79d1cb6a1b24d96d075", "is_disabled": 0, "rental_uris": {"android": "https://dc.lft.to/lastmile_qr_scan", "ios": "https://dc.lft.to/lastmile_qr_scan"}, "lon": -77.04376883333333, "fusion_lat": 0.0}, {"name": "117d08be0dc75bc914494f578aba2ace", "fusion_lon": 0.0, "lat": 38.911938166666665, "is_reserved": 0, "type": "electric_scooter", "bike_id": "117d08be0dc75bc914494f578aba2ace", "is_disabled": 0, "rental_uris": {"android": "https://dc.lft.to/lastmile_qr_scan", "ios": "https://dc.lft.to/lastmile_qr_scan"}, "lon": -77.03833466666667, "fusion_lat": 0.0}, {"name": "8f26181638247eb7c05d98dd16366367", "fusion_lon": 0.0, "lat": 38.895200333333335, "is_reserved": 0, "type": "electric_scooter", "bike_id": "8f26181638247eb7c05d98dd16366367", "is_disabled": 0, "rental_uris": {"android": "https://dc.lft.to/lastmile_qr_scan", "ios": "https://dc.lft.to/lastmile_qr_scan"}, "lon": -76.98830366666667, "fusion_lat": 0.0}, {"name": "2a09820ae468a12893530562b6aa6074", "fusion_lon": 0.0, "lat": 38.91782216666667, "is_reserved": 0, "type": "electric_scooter", "bike_id": "2a09820ae468a12893530562b6aa6074", "is_disabled": 0, "rental_uris": {"android": "https://dc.lft.to/lastmile_qr_scan", "ios": "https://dc.lft.to/lastmile_qr_scan"}, "lon": -77.0321005, "fusion_lat": 0.0}, {"name": "d102341a7381c3ba3557266c6318ae82", "fusion_lon": 0.0, "lat": 38.874582, "is_reserved": 0, "type": "electric_scooter", "bike_id": "d102341a7381c3ba3557266c6318ae82", "is_disabled": 0, "rental_uris": {"android": "https://dc.lft.to/lastmile_qr_scan", "ios": "https://dc.lft.to/lastmile_qr_scan"}, "lon": -77.0054415, "fusion_lat": 0.0}, {"name": "13d8c4602ba272bbf583be657baeca1b", "fusion_lon": 0.0, "lat": 38.914869, "is_reserved": 0, "type": "electric_scooter", "bike_id": "13d8c4602ba272bbf583be657baeca1b", "is_disabled": 0, "rental_uris": {"android": "https://dc.lft.to/lastmile_qr_scan", "ios": "https://dc.lft.to/lastmile_qr_scan"}, "lon": -76.9857475, "fusion_lat": 0.0}, {"name": "e32f237da93fe47eb8e307542adadb30", "fusion_lon": 0.0, "lat": 38.90652216666667, "is_reserved": 0, "type": "electric_scooter", "bike_id": "e32f237da93fe47eb8e307542adadb30", "is_disabled": 0, "rental_uris": {"android": "https://dc.lft.to/lastmile_qr_scan", "ios": "https://dc.lft.to/lastmile_qr_scan"}, "lon": -77.0249085, "fusion_lat": 0.0}, {"name": "74a2d045bec7e06da631e61eea285de8", "fusion_lon": 0.0, "lat": 38.906956, "is_reserved": 0, "type": "electric_scooter", "bike_id": "74a2d045bec7e06da631e61eea285de8", "is_disabled": 0, "rental_uris": {"android": "https://dc.lft.to/lastmile_qr_scan", "ios": "https://dc.lft.to/lastmile_qr_scan"}, "lon": -77.03510016666667, "fusion_lat": 0.0}, {"name": "30e7eef5bf61294518fee169ffeb9508", "fusion_lon": 0.0, "lat": 38.901171, "is_reserved": 0, "type": "electric_scooter", "bike_id": "30e7eef5bf61294518fee169ffeb9508", "is_disabled": 0, "rental_uris": {"android": "https://dc.lft.to/lastmile_qr_scan", "ios": "https://dc.lft.to/lastmile_qr_scan"}, "lon": -77.04405216666666, "fusion_lat": 0.0}, {"name": "987726508952027b3062511d7cd7204e", "fusion_lon": 0.0, "lat": 38.87599983333333, "is_reserved": 0, "type": "electric_scooter", "bike_id": "987726508952027b3062511d7cd7204e", "is_disabled": 0, "rental_uris": {"android": "https://dc.lft.to/lastmile_qr_scan", "ios": "https://dc.lft.to/lastmile_qr_scan"}, "lon": -77.00078366666666, "fusion_lat": 0.0}, {"name": "ece279fcc19c7c4fbcd6208778e6135e", "fusion_lon": 0.0, "lat": 38.920290666666666, "is_reserved": 0, "type": "electric_scooter", "bike_id": "ece279fcc19c7c4fbcd6208778e6135e", "is_disabled": 0, "rental_uris": {"android": "https://dc.lft.to/lastmile_qr_scan", "ios": "https://dc.lft.to/lastmile_qr_scan"}, "lon": -77.03120316666667, "fusion_lat": 0.0}, {"name": "4a256b524f7d9609dd69fda06a8e15f9", "fusion_lon": 0.0, "lat": 38.91826366666667, "is_reserved": 0, "type": "electric_scooter", "bike_id": "4a256b524f7d9609dd69fda06a8e15f9", "is_disabled": 0, "rental_uris": {"android": "https://dc.lft.to/lastmile_qr_scan", "ios": "https://dc.lft.to/lastmile_qr_scan"}, "lon": -77.03180866666666, "fusion_lat": 0.0}, {"name": "6d04716dc528565df088c4883a67e0a6", "fusion_lon": 0.0, "lat": 38.927737, "is_reserved": 0, "type": "electric_scooter", "bike_id": "6d04716dc528565df088c4883a67e0a6", "is_disabled": 0, "rental_uris": {"android": "https://dc.lft.to/lastmile_qr_scan", "ios": "https://dc.lft.to/lastmile_qr_scan"}, "lon": -77.027103, "fusion_lat": 0.0}, {"name": "8ef02407e8aeebb803436961df4e3101", "fusion_lon": 0.0, "lat": 38.9001535, "is_reserved": 0, "type": "electric_scooter", "bike_id": "8ef02407e8aeebb803436961df4e3101", "is_disabled": 0, "rental_uris": {"android": "https://dc.lft.to/lastmile_qr_scan", "ios": "https://dc.lft.to/lastmile_qr_scan"}, "lon": -77.00683616666667, "fusion_lat": 0.0}, {"name": "56dfe969ca4bac09cfcee5344e5cee27", "fusion_lon": 0.0, "lat": 38.92875016666667, "is_reserved": 0, "type": "electric_scooter", "bike_id": "56dfe969ca4bac09cfcee5344e5cee27", "is_disabled": 0, "rental_uris": {"android": "https://dc.lft.to/lastmile_qr_scan", "ios": "https://dc.lft.to/lastmile_qr_scan"}, "lon": -77.0217475, "fusion_lat": 0.0}, {"name": "1b2cd7ed1b5beffe5adba1ef9d1a1c89", "fusion_lon": 0.0, "lat": 38.85442, "is_reserved": 0, "type": "electric_bike", "bike_id": "1b2cd7ed1b5beffe5adba1ef9d1a1c89", "is_disabled": 0, "rental_uris": {"android": "https://dc.lft.to/lastmile_qr_scan", "ios": "https://dc.lft.to/lastmile_qr_scan"}, "lon": -77.08307716666667, "fusion_lat": 0.0}, {"name": "7eafa4f7241885bfeb9357eb26bf2c0f", "fusion_lon": 0.0, "lat": 38.88530516666667, "is_reserved": 0, "type": "electric_scooter", "bike_id": "7eafa4f7241885bfeb9357eb26bf2c0f", "is_disabled": 0, "rental_uris": {"android": "https://dc.lft.to/lastmile_qr_scan", "ios": "https://dc.lft.to/lastmile_qr_scan"}, "lon": -77.01138883333333, "fusion_lat": 0.0}, {"name": "973939c406bef87db82dec5c8386dda9", "fusion_lon": 0.0, "lat": 38.9051895, "is_reserved": 0, "type": "electric_scooter", "bike_id": "973939c406bef87db82dec5c8386dda9", "is_disabled": 0, "rental_uris": {"android": "https://dc.lft.to/lastmile_qr_scan", "ios": "https://dc.lft.to/lastmile_qr_scan"}, "lon": -77.0013865, "fusion_lat": 0.0}, {"name": "0e35890a1813cd20c73eec82b476b3a3", "fusion_lon": 0.0, "lat": 38.945962333333334, "is_reserved": 0, "type": "electric_scooter", "bike_id": "0e35890a1813cd20c73eec82b476b3a3", "is_disabled": 0, "rental_uris": {"android": "https://dc.lft.to/lastmile_qr_scan", "ios": "https://dc.lft.to/lastmile_qr_scan"}, "lon": -77.064741, "fusion_lat": 0.0}, {"name": "17845afa86bf1a74673bb1030e85e4e8", "fusion_lon": 0.0, "lat": 38.919191, "is_reserved": 0, "type": "electric_scooter", "bike_id": "17845afa86bf1a74673bb1030e85e4e8", "is_disabled": 0, "rental_uris": {"android": "https://dc.lft.to/lastmile_qr_scan", "ios": "https://dc.lft.to/lastmile_qr_scan"}, "lon": -77.03188533333334, "fusion_lat": 0.0}, {"name": "482f8f1e29e1511a71c1957538ab09c8", "fusion_lon": 0.0, "lat": 38.90273366666667, "is_reserved": 0, "type": "electric_scooter", "bike_id": "482f8f1e29e1511a71c1957538ab09c8", "is_disabled": 0, "rental_uris": {"android": "https://dc.lft.to/lastmile_qr_scan", "ios": "https://dc.lft.to/lastmile_qr_scan"}, "lon": -77.0397255, "fusion_lat": 0.0}, {"name": "4451d53ef89acec43b7fce3298f949b6", "fusion_lon": 0.0, "lat": 38.9616505, "is_reserved": 0, "type": "electric_scooter", "bike_id": "4451d53ef89acec43b7fce3298f949b6", "is_disabled": 0, "rental_uris": {"android": "https://dc.lft.to/lastmile_qr_scan", "ios": "https://dc.lft.to/lastmile_qr_scan"}, "lon": -77.03237616666667, "fusion_lat": 0.0}, {"name": "c077048cc481e9aa0f84df38a1ca05f0", "fusion_lon": 0.0, "lat": 38.87684466666666, "is_reserved": 0, "type": "electric_scooter", "bike_id": "c077048cc481e9aa0f84df38a1ca05f0", "is_disabled": 0, "rental_uris": {"android": "https://dc.lft.to/lastmile_qr_scan", "ios": "https://dc.lft.to/lastmile_qr_scan"}, "lon": -76.99825816666667, "fusion_lat": 0.0}, {"name": "12bd0ce3ad99768ce4d41a4734e72ea3", "fusion_lon": 0.0, "lat": 38.897011166666665, "is_reserved": 0, "type": "electric_scooter", "bike_id": "12bd0ce3ad99768ce4d41a4734e72ea3", "is_disabled": 0, "rental_uris": {"android": "https://dc.lft.to/lastmile_qr_scan", "ios": "https://dc.lft.to/lastmile_qr_scan"}, "lon": -77.02659066666666, "fusion_lat": 0.0}, {"name": "dfe0d2aaf42aafe5fa01df74d77dd034", "fusion_lon": 0.0, "lat": 38.90338166666667, "is_reserved": 0, "type": "electric_scooter", "bike_id": "dfe0d2aaf42aafe5fa01df74d77dd034", "is_disabled": 0, "rental_uris": {"android": "https://dc.lft.to/lastmile_qr_scan", "ios": "https://dc.lft.to/lastmile_qr_scan"}, "lon": -77.0272805, "fusion_lat": 0.0}, {"name": "eff181d3f4fcfb0d4647e75b099afe55", "fusion_lon": 0.0, "lat": 38.92359066666667, "is_reserved": 0, "type": "electric_scooter", "bike_id": "eff181d3f4fcfb0d4647e75b099afe55", "is_disabled": 0, "rental_uris": {"android": "https://dc.lft.to/lastmile_qr_scan", "ios": "https://dc.lft.to/lastmile_qr_scan"}, "lon": -77.04163216666667, "fusion_lat": 0.0}, {"name": "631e12447ed6290dda6173ff5699f9bc", "fusion_lon": 0.0, "lat": 38.9376725, "is_reserved": 0, "type": "electric_scooter", "bike_id": "631e12447ed6290dda6173ff5699f9bc", "is_disabled": 0, "rental_uris": {"android": "https://dc.lft.to/lastmile_qr_scan", "ios": "https://dc.lft.to/lastmile_qr_scan"}, "lon": -77.0251895, "fusion_lat": 0.0}, {"name": "0f539ad1be5e48e76038752f8f847b6c", "fusion_lon": 0.0, "lat": 38.899028666666666, "is_reserved": 0, "type": "electric_scooter", "bike_id": "0f539ad1be5e48e76038752f8f847b6c", "is_disabled": 0, "rental_uris": {"android": "https://dc.lft.to/lastmile_qr_scan", "ios": "https://dc.lft.to/lastmile_qr_scan"}, "lon": -77.04890316666666, "fusion_lat": 0.0}, {"name": "ea9ca7358792864ee87ff444ce0be00f", "fusion_lon": 0.0, "lat": 39.039962833333334, "is_reserved": 0, "type": "electric_bike", "bike_id": "ea9ca7358792864ee87ff444ce0be00f", "is_disabled": 0, "rental_uris": {"android": "https://dc.lft.to/lastmile_qr_scan", "ios": "https://dc.lft.to/lastmile_qr_scan"}, "lon": -76.99934616666667, "fusion_lat": 0.0}, {"name": "0728696972abe9447d0d2b109bc12324", "fusion_lon": 0.0, "lat": 38.893692333333334, "is_reserved": 0, "type": "electric_scooter", "bike_id": "0728696972abe9447d0d2b109bc12324", "is_disabled": 0, "rental_uris": {"android": "https://dc.lft.to/lastmile_qr_scan", "ios": "https://dc.lft.to/lastmile_qr_scan"}, "lon": -77.04675533333334, "fusion_lat": 0.0}, {"name": "0d14e9e2befa9c1efefe743785c058b2", "fusion_lon": 0.0, "lat": 38.90060166666667, "is_reserved": 0, "type": "electric_scooter", "bike_id": "0d14e9e2befa9c1efefe743785c058b2", "is_disabled": 0, "rental_uris": {"android": "https://dc.lft.to/lastmile_qr_scan", "ios": "https://dc.lft.to/lastmile_qr_scan"}, "lon": -77.01301516666666, "fusion_lat": 0.0}, {"name": "7b38d270649950316158d6c4f133b9e9", "fusion_lon": 0.0, "lat": 38.90606966666667, "is_reserved": 0, "type": "electric_scooter", "bike_id": "7b38d270649950316158d6c4f133b9e9", "is_disabled": 0, "rental_uris": {"android": "https://dc.lft.to/lastmile_qr_scan", "ios": "https://dc.lft.to/lastmile_qr_scan"}, "lon": -77.0653115, "fusion_lat": 0.0}, {"name": "afbf849cd19318d960df4f8920ef2adc", "fusion_lon": 0.0, "lat": 38.95689866666667, "is_reserved": 0, "type": "electric_bike", "bike_id": "afbf849cd19318d960df4f8920ef2adc", "is_disabled": 0, "rental_uris": {"android": "https://dc.lft.to/lastmile_qr_scan", "ios": "https://dc.lft.to/lastmile_qr_scan"}, "lon": -77.022315, "fusion_lat": 0.0}, {"name": "bb7e2c92fdff924280926bf827e873fc", "fusion_lon": 0.0, "lat": 38.9066965, "is_reserved": 0, "type": "electric_scooter", "bike_id": "bb7e2c92fdff924280926bf827e873fc", "is_disabled": 0, "rental_uris": {"android": "https://dc.lft.to/lastmile_qr_scan", "ios": "https://dc.lft.to/lastmile_qr_scan"}, "lon": -77.038722, "fusion_lat": 0.0}, {"name": "3c7daf374399a9af157c6f96adef2e2e", "fusion_lon": 0.0, "lat": 38.905421833333335, "is_reserved": 0, "type": "electric_scooter", "bike_id": "3c7daf374399a9af157c6f96adef2e2e", "is_disabled": 0, "rental_uris": {"android": "https://dc.lft.to/lastmile_qr_scan", "ios": "https://dc.lft.to/lastmile_qr_scan"}, "lon": -77.050535, "fusion_lat": 0.0}, {"name": "c7435623b9e758f0483719fcce8ac5cb", "fusion_lon": 0.0, "lat": 38.908743, "is_reserved": 0, "type": "electric_scooter", "bike_id": "c7435623b9e758f0483719fcce8ac5cb", "is_disabled": 0, "rental_uris": {"android": "https://dc.lft.to/lastmile_qr_scan", "ios": "https://dc.lft.to/lastmile_qr_scan"}, "lon": -77.08595333333334, "fusion_lat": 0.0}, {"name": "5d400e9485b7b2c7ba99e9e933322f70", "fusion_lon": 0.0, "lat": 38.904119333333334, "is_reserved": 0, "type": "electric_scooter", "bike_id": "5d400e9485b7b2c7ba99e9e933322f70", "is_disabled": 0, "rental_uris": {"android": "https://dc.lft.to/lastmile_qr_scan", "ios": "https://dc.lft.to/lastmile_qr_scan"}, "lon": -76.97330216666667, "fusion_lat": 0.0}, {"name": "a652fe3f56d3885ef0ba3cd83b83b0bb", "fusion_lon": 0.0, "lat": 38.921816166666666, "is_reserved": 0, "type": "electric_scooter", "bike_id": "a652fe3f56d3885ef0ba3cd83b83b0bb", "is_disabled": 0, "rental_uris": {"android": "https://dc.lft.to/lastmile_qr_scan", "ios": "https://dc.lft.to/lastmile_qr_scan"}, "lon": -77.0191615, "fusion_lat": 0.0}, {"name": "7a18c6eccd65c48384a0a139bfd76157", "fusion_lon": 0.0, "lat": 38.892271, "is_reserved": 0, "type": "electric_scooter", "bike_id": "7a18c6eccd65c48384a0a139bfd76157", "is_disabled": 0, "rental_uris": {"android": "https://dc.lft.to/lastmile_qr_scan", "ios": "https://dc.lft.to/lastmile_qr_scan"}, "lon": -77.04866966666667, "fusion_lat": 0.0}, {"name": "d0fa3d43977ae4d23bf7f23519e5da03", "fusion_lon": 0.0, "lat": 38.951570333333336, "is_reserved": 0, "type": "electric_scooter", "bike_id": "d0fa3d43977ae4d23bf7f23519e5da03", "is_disabled": 0, "rental_uris": {"android": "https://dc.lft.to/lastmile_qr_scan", "ios": "https://dc.lft.to/lastmile_qr_scan"}, "lon": -77.0186155, "fusion_lat": 0.0}, {"name": "90b561bdb98e579d63ab5f5481e1c5df", "fusion_lon": 0.0, "lat": 38.89850883333333, "is_reserved": 0, "type": "electric_scooter", "bike_id": "90b561bdb98e579d63ab5f5481e1c5df", "is_disabled": 0, "rental_uris": {"android": "https://dc.lft.to/lastmile_qr_scan", "ios": "https://dc.lft.to/lastmile_qr_scan"}, "lon": -77.02278733333333, "fusion_lat": 0.0}, {"name": "23eafbc71dd27715c970fa15f4b09448", "fusion_lon": 0.0, "lat": 38.9574025, "is_reserved": 0, "type": "electric_scooter", "bike_id": "23eafbc71dd27715c970fa15f4b09448", "is_disabled": 0, "rental_uris": {"android": "https://dc.lft.to/lastmile_qr_scan", "ios": "https://dc.lft.to/lastmile_qr_scan"}, "lon": -77.02404066666666, "fusion_lat": 0.0}, {"name": "890857f60a229a3bcbe9aeeacf31f028", "fusion_lon": 0.0, "lat": 38.91899183333334, "is_reserved": 0, "type": "electric_scooter", "bike_id": "890857f60a229a3bcbe9aeeacf31f028", "is_disabled": 0, "rental_uris": {"android": "https://dc.lft.to/lastmile_qr_scan", "ios": "https://dc.lft.to/lastmile_qr_scan"}, "lon": -77.02300866666667, "fusion_lat": 0.0}, {"name": "aff08ebd138cec6b8fd4c941c03cf728", "fusion_lon": 0.0, "lat": 38.89957666666667, "is_reserved": 0, "type": "electric_scooter", "bike_id": "aff08ebd138cec6b8fd4c941c03cf728", "is_disabled": 0, "rental_uris": {"android": "https://dc.lft.to/lastmile_qr_scan", "ios": "https://dc.lft.to/lastmile_qr_scan"}, "lon": -77.02191, "fusion_lat": 0.0}, {"name": "7c7c41256ea649295a8cd87c35e6a96a", "fusion_lon": 0.0, "lat": 38.90065, "is_reserved": 0, "type": "electric_scooter", "bike_id": "7c7c41256ea649295a8cd87c35e6a96a", "is_disabled": 0, "rental_uris": {"android": "https://dc.lft.to/lastmile_qr_scan", "ios": "https://dc.lft.to/lastmile_qr_scan"}, "lon": -76.98710233333334, "fusion_lat": 0.0}, {"name": "d44a342672d28ac8c15af5e56001b2c7", "fusion_lon": 0.0, "lat": 38.917907, "is_reserved": 0, "type": "electric_scooter", "bike_id": "d44a342672d28ac8c15af5e56001b2c7", "is_disabled": 0, "rental_uris": {"android": "https://dc.lft.to/lastmile_qr_scan", "ios": "https://dc.lft.to/lastmile_qr_scan"}, "lon": -77.04216833333334, "fusion_lat": 0.0}, {"name": "b765cbdd90b38d0a9d99339f582bbff7", "fusion_lon": 0.0, "lat": 38.920824333333336, "is_reserved": 0, "type": "electric_scooter", "bike_id": "b765cbdd90b38d0a9d99339f582bbff7", "is_disabled": 0, "rental_uris": {"android": "https://dc.lft.to/lastmile_qr_scan", "ios": "https://dc.lft.to/lastmile_qr_scan"}, "lon": -77.0228965, "fusion_lat": 0.0}, {"name": "086c3a628cf27e22211034cd594e7f54", "fusion_lon": 0.0, "lat": 38.907900166666664, "is_reserved": 0, "type": "electric_scooter", "bike_id": "086c3a628cf27e22211034cd594e7f54", "is_disabled": 0, "rental_uris": {"android": "https://dc.lft.to/lastmile_qr_scan", "ios": "https://dc.lft.to/lastmile_qr_scan"}, "lon": -77.031912, "fusion_lat": 0.0}, {"name": "357fc21acb3ee681c9c68b26df7785ca", "fusion_lon": 0.0, "lat": 38.90945383333333, "is_reserved": 0, "type": "electric_scooter", "bike_id": "357fc21acb3ee681c9c68b26df7785ca", "is_disabled": 0, "rental_uris": {"android": "https://dc.lft.to/lastmile_qr_scan", "ios": "https://dc.lft.to/lastmile_qr_scan"}, "lon": -77.04940583333334, "fusion_lat": 0.0}, {"name": "8bba03bdba6acd8e020e96d5bb41941b", "fusion_lon": 0.0, "lat": 38.906649333333334, "is_reserved": 0, "type": "electric_scooter", "bike_id": "8bba03bdba6acd8e020e96d5bb41941b", "is_disabled": 0, "rental_uris": {"android": "https://dc.lft.to/lastmile_qr_scan", "ios": "https://dc.lft.to/lastmile_qr_scan"}, "lon": -77.03748483333334, "fusion_lat": 0.0}, {"name": "97440d970602a167f9f53e8b6192c018", "fusion_lon": 0.0, "lat": 38.91139916666667, "is_reserved": 0, "type": "electric_scooter", "bike_id": "97440d970602a167f9f53e8b6192c018", "is_disabled": 0, "rental_uris": {"android": "https://dc.lft.to/lastmile_qr_scan", "ios": "https://dc.lft.to/lastmile_qr_scan"}, "lon": -77.03846533333333, "fusion_lat": 0.0}, {"name": "a9dd2290878bf318c2b58dd311f97d48", "fusion_lon": 0.0, "lat": 38.88482166666667, "is_reserved": 0, "type": "electric_scooter", "bike_id": "a9dd2290878bf318c2b58dd311f97d48", "is_disabled": 0, "rental_uris": {"android": "https://dc.lft.to/lastmile_qr_scan", "ios": "https://dc.lft.to/lastmile_qr_scan"}, "lon": -77.032134, "fusion_lat": 0.0}, {"name": "e6be204e17aeb8ed528ed16fc220ec8d", "fusion_lon": 0.0, "lat": 38.92228683333333, "is_reserved": 0, "type": "electric_scooter", "bike_id": "e6be204e17aeb8ed528ed16fc220ec8d", "is_disabled": 0, "rental_uris": {"android": "https://dc.lft.to/lastmile_qr_scan", "ios": "https://dc.lft.to/lastmile_qr_scan"}, "lon": -77.044918, "fusion_lat": 0.0}, {"name": "e25ba01da6350c5824a8b2baf3b343dc", "fusion_lon": 0.0, "lat": 38.928821666666664, "is_reserved": 0, "type": "electric_scooter", "bike_id": "e25ba01da6350c5824a8b2baf3b343dc", "is_disabled": 0, "rental_uris": {"android": "https://dc.lft.to/lastmile_qr_scan", "ios": "https://dc.lft.to/lastmile_qr_scan"}, "lon": -77.01363733333334, "fusion_lat": 0.0}, {"name": "c2d3169999e43d0505c9c96e1e71488a", "fusion_lon": 0.0, "lat": 38.91115816666667, "is_reserved": 0, "type": "electric_scooter", "bike_id": "c2d3169999e43d0505c9c96e1e71488a", "is_disabled": 0, "rental_uris": {"android": "https://dc.lft.to/lastmile_qr_scan", "ios": "https://dc.lft.to/lastmile_qr_scan"}, "lon": -77.00606283333333, "fusion_lat": 0.0}, {"name": "6a4439dbd63205c99607f5d9fc709136", "fusion_lon": 0.0, "lat": 38.884943, "is_reserved": 0, "type": "electric_scooter", "bike_id": "6a4439dbd63205c99607f5d9fc709136", "is_disabled": 0, "rental_uris": {"android": "https://dc.lft.to/lastmile_qr_scan", "ios": "https://dc.lft.to/lastmile_qr_scan"}, "lon": -77.00711683333333, "fusion_lat": 0.0}, {"name": "639537b038cd9ba3d9783d797f69c85a", "fusion_lon": 0.0, "lat": 38.91566183333333, "is_reserved": 0, "type": "electric_scooter", "bike_id": "639537b038cd9ba3d9783d797f69c85a", "is_disabled": 0, "rental_uris": {"android": "https://dc.lft.to/lastmile_qr_scan", "ios": "https://dc.lft.to/lastmile_qr_scan"}, "lon": -77.04278616666667, "fusion_lat": 0.0}, {"name": "cb36cb5db9f3b70fd4a03482f623e64d", "fusion_lon": 0.0, "lat": 38.9056635, "is_reserved": 0, "type": "electric_scooter", "bike_id": "cb36cb5db9f3b70fd4a03482f623e64d", "is_disabled": 0, "rental_uris": {"android": "https://dc.lft.to/lastmile_qr_scan", "ios": "https://dc.lft.to/lastmile_qr_scan"}, "lon": -77.03440083333334, "fusion_lat": 0.0}, {"name": "8ecc8aca9cabad1ec053788272c6a1c1", "fusion_lon": 0.0, "lat": 38.892953166666665, "is_reserved": 0, "type": "electric_bike", "bike_id": "8ecc8aca9cabad1ec053788272c6a1c1", "is_disabled": 0, "rental_uris": {"android": "https://dc.lft.to/lastmile_qr_scan", "ios": "https://dc.lft.to/lastmile_qr_scan"}, "lon": -76.97622233333334, "fusion_lat": 0.0}, {"name": "4b8bd07adcf8634964d10b23fb32a417", "fusion_lon": 0.0, "lat": 38.92465166666667, "is_reserved": 0, "type": "electric_scooter", "bike_id": "4b8bd07adcf8634964d10b23fb32a417", "is_disabled": 0, "rental_uris": {"android": "https://dc.lft.to/lastmile_qr_scan", "ios": "https://dc.lft.to/lastmile_qr_scan"}, "lon": -77.02712983333333, "fusion_lat": 0.0}, {"name": "2292520139767e16aaa90bf1ee579206", "fusion_lon": 0.0, "lat": 38.896211, "is_reserved": 0, "type": "electric_scooter", "bike_id": "2292520139767e16aaa90bf1ee579206", "is_disabled": 0, "rental_uris": {"android": "https://dc.lft.to/lastmile_qr_scan", "ios": "https://dc.lft.to/lastmile_qr_scan"}, "lon": -77.02216133333333, "fusion_lat": 0.0}, {"name": "3f770d26217f23deb6162987050d70a4", "fusion_lon": 0.0, "lat": 38.897194, "is_reserved": 0, "type": "electric_scooter", "bike_id": "3f770d26217f23deb6162987050d70a4", "is_disabled": 0, "rental_uris": {"android": "https://dc.lft.to/lastmile_qr_scan", "ios": "https://dc.lft.to/lastmile_qr_scan"}, "lon": -77.02132216666666, "fusion_lat": 0.0}, {"name": "0258bfc6835273394bda97543fefe4a3", "fusion_lon": 0.0, "lat": 38.92701683333333, "is_reserved": 0, "type": "electric_scooter", "bike_id": "0258bfc6835273394bda97543fefe4a3", "is_disabled": 0, "rental_uris": {"android": "https://dc.lft.to/lastmile_qr_scan", "ios": "https://dc.lft.to/lastmile_qr_scan"}, "lon": -77.02107, "fusion_lat": 0.0}, {"name": "c0186b069d73fd61e2878efa3decf2cc", "fusion_lon": 0.0, "lat": 38.99532633333333, "is_reserved": 0, "type": "electric_bike", "bike_id": "c0186b069d73fd61e2878efa3decf2cc", "is_disabled": 0, "rental_uris": {"android": "https://dc.lft.to/lastmile_qr_scan", "ios": "https://dc.lft.to/lastmile_qr_scan"}, "lon": -77.069453, "fusion_lat": 0.0}, {"name": "13b1c144fcf4570b8594818e58d82c8f", "fusion_lon": 0.0, "lat": 38.866890166666664, "is_reserved": 0, "type": "electric_scooter", "bike_id": "13b1c144fcf4570b8594818e58d82c8f", "is_disabled": 0, "rental_uris": {"android": "https://dc.lft.to/lastmile_qr_scan", "ios": "https://dc.lft.to/lastmile_qr_scan"}, "lon": -76.98572583333333, "fusion_lat": 0.0}, {"name": "0f424bdc67a10d29f7bf67a8653c8561", "fusion_lon": 0.0, "lat": 38.8950825, "is_reserved": 0, "type": "electric_scooter", "bike_id": "0f424bdc67a10d29f7bf67a8653c8561", "is_disabled": 0, "rental_uris": {"android": "https://dc.lft.to/lastmile_qr_scan", "ios": "https://dc.lft.to/lastmile_qr_scan"}, "lon": -76.93474166666667, "fusion_lat": 0.0}, {"name": "232a6784ea1c4b20fc29bb222ae1a2f1", "fusion_lon": 0.0, "lat": 38.9111815, "is_reserved": 0, "type": "electric_scooter", "bike_id": "232a6784ea1c4b20fc29bb222ae1a2f1", "is_disabled": 0, "rental_uris": {"android": "https://dc.lft.to/lastmile_qr_scan", "ios": "https://dc.lft.to/lastmile_qr_scan"}, "lon": -77.038376, "fusion_lat": 0.0}, {"name": "7835e5535c3c6d4b8c3c8b4a73a152ab", "fusion_lon": 0.0, "lat": 38.88216416666667, "is_reserved": 0, "type": "electric_bike", "bike_id": "7835e5535c3c6d4b8c3c8b4a73a152ab", "is_disabled": 0, "rental_uris": {"android": "https://dc.lft.to/lastmile_qr_scan", "ios": "https://dc.lft.to/lastmile_qr_scan"}, "lon": -77.11737683333334, "fusion_lat": 0.0}, {"name": "63052f5f2fa140041924116680568c19", "fusion_lon": 0.0, "lat": 38.92627683333333, "is_reserved": 0, "type": "electric_scooter", "bike_id": "63052f5f2fa140041924116680568c19", "is_disabled": 0, "rental_uris": {"android": "https://dc.lft.to/lastmile_qr_scan", "ios": "https://dc.lft.to/lastmile_qr_scan"}, "lon": -77.04322966666666, "fusion_lat": 0.0}, {"name": "3f9e7c550aa7dd20183eb54ec3243d3e", "fusion_lon": 0.0, "lat": 38.892236833333335, "is_reserved": 0, "type": "electric_scooter", "bike_id": "3f9e7c550aa7dd20183eb54ec3243d3e", "is_disabled": 0, "rental_uris": {"android": "https://dc.lft.to/lastmile_qr_scan", "ios": "https://dc.lft.to/lastmile_qr_scan"}, "lon": -77.02229283333334, "fusion_lat": 0.0}, {"name": "54ee4fc941b1bc97c6995675dbec9551", "fusion_lon": 0.0, "lat": 38.922356666666666, "is_reserved": 0, "type": "electric_scooter", "bike_id": "54ee4fc941b1bc97c6995675dbec9551", "is_disabled": 0, "rental_uris": {"android": "https://dc.lft.to/lastmile_qr_scan", "ios": "https://dc.lft.to/lastmile_qr_scan"}, "lon": -77.03352633333333, "fusion_lat": 0.0}, {"name": "e0cf022ff4a73ba0d58cfba6e49227d0", "fusion_lon": 0.0, "lat": 38.90239433333333, "is_reserved": 0, "type": "electric_scooter", "bike_id": "e0cf022ff4a73ba0d58cfba6e49227d0", "is_disabled": 0, "rental_uris": {"android": "https://dc.lft.to/lastmile_qr_scan", "ios": "https://dc.lft.to/lastmile_qr_scan"}, "lon": -77.04348683333333, "fusion_lat": 0.0}, {"name": "2c8d8877d8826346816bb5a031f82f46", "fusion_lon": 0.0, "lat": 38.922521833333334, "is_reserved": 0, "type": "electric_scooter", "bike_id": "2c8d8877d8826346816bb5a031f82f46", "is_disabled": 0, "rental_uris": {"android": "https://dc.lft.to/lastmile_qr_scan", "ios": "https://dc.lft.to/lastmile_qr_scan"}, "lon": -77.04275066666666, "fusion_lat": 0.0}, {"name": "01f12cc5730daa0db48ea9d5cbe5e093", "fusion_lon": 0.0, "lat": 38.92510083333333, "is_reserved": 0, "type": "electric_scooter", "bike_id": "01f12cc5730daa0db48ea9d5cbe5e093", "is_disabled": 0, "rental_uris": {"android": "https://dc.lft.to/lastmile_qr_scan", "ios": "https://dc.lft.to/lastmile_qr_scan"}, "lon": -77.0388195, "fusion_lat": 0.0}, {"name": "af808c59d45d216626e532dc1dc74fdb", "fusion_lon": 0.0, "lat": 38.9036345, "is_reserved": 0, "type": "electric_scooter", "bike_id": "af808c59d45d216626e532dc1dc74fdb", "is_disabled": 0, "rental_uris": {"android": "https://dc.lft.to/lastmile_qr_scan", "ios": "https://dc.lft.to/lastmile_qr_scan"}, "lon": -77.04011583333333, "fusion_lat": 0.0}, {"name": "7f11f4efb508392d4de7c815b2982870", "fusion_lon": 0.0, "lat": 38.9155955, "is_reserved": 0, "type": "electric_scooter", "bike_id": "7f11f4efb508392d4de7c815b2982870", "is_disabled": 0, "rental_uris": {"android": "https://dc.lft.to/lastmile_qr_scan", "ios": "https://dc.lft.to/lastmile_qr_scan"}, "lon": -77.04181233333334, "fusion_lat": 0.0}, {"name": "8bd2f235f37555e970c5dbae0ee010bb", "fusion_lon": 0.0, "lat": 38.90635833333333, "is_reserved": 0, "type": "electric_scooter", "bike_id": "8bd2f235f37555e970c5dbae0ee010bb", "is_disabled": 0, "rental_uris": {"android": "https://dc.lft.to/lastmile_qr_scan", "ios": "https://dc.lft.to/lastmile_qr_scan"}, "lon": -77.04142416666667, "fusion_lat": 0.0}, {"name": "808846d5d9c8f58c9d46cabf98ada270", "fusion_lon": 0.0, "lat": 38.885393666666666, "is_reserved": 0, "type": "electric_scooter", "bike_id": "808846d5d9c8f58c9d46cabf98ada270", "is_disabled": 0, "rental_uris": {"android": "https://dc.lft.to/lastmile_qr_scan", "ios": "https://dc.lft.to/lastmile_qr_scan"}, "lon": -76.99624916666667, "fusion_lat": 0.0}, {"name": "4025440eff7fea8574cdb4ef31a9711f", "fusion_lon": 0.0, "lat": 38.957368, "is_reserved": 0, "type": "electric_scooter", "bike_id": "4025440eff7fea8574cdb4ef31a9711f", "is_disabled": 0, "rental_uris": {"android": "https://dc.lft.to/lastmile_qr_scan", "ios": "https://dc.lft.to/lastmile_qr_scan"}, "lon": -77.02405616666667, "fusion_lat": 0.0}, {"name": "3bfafaa5f606be36fc6d1311f2cdb183", "fusion_lon": 0.0, "lat": 38.908288666666664, "is_reserved": 0, "type": "electric_scooter", "bike_id": "3bfafaa5f606be36fc6d1311f2cdb183", "is_disabled": 0, "rental_uris": {"android": "https://dc.lft.to/lastmile_qr_scan", "ios": "https://dc.lft.to/lastmile_qr_scan"}, "lon": -77.03856866666666, "fusion_lat": 0.0}, {"name": "032f5654fb00de6ae80033b26e3d3187", "fusion_lon": 0.0, "lat": 38.92087316666667, "is_reserved": 0, "type": "electric_scooter", "bike_id": "032f5654fb00de6ae80033b26e3d3187", "is_disabled": 0, "rental_uris": {"android": "https://dc.lft.to/lastmile_qr_scan", "ios": "https://dc.lft.to/lastmile_qr_scan"}, "lon": -77.02294483333333, "fusion_lat": 0.0}, {"name": "64f3c3203453fea0bd94ac43bb8fec23", "fusion_lon": 0.0, "lat": 38.907176, "is_reserved": 0, "type": "electric_scooter", "bike_id": "64f3c3203453fea0bd94ac43bb8fec23", "is_disabled": 0, "rental_uris": {"android": "https://dc.lft.to/lastmile_qr_scan", "ios": "https://dc.lft.to/lastmile_qr_scan"}, "lon": -77.07612, "fusion_lat": 0.0}, {"name": "b598f86211ce8f0abc525d50199bca0e", "fusion_lon": 0.0, "lat": 38.933761833333335, "is_reserved": 0, "type": "electric_scooter", "bike_id": "b598f86211ce8f0abc525d50199bca0e", "is_disabled": 0, "rental_uris": {"android": "https://dc.lft.to/lastmile_qr_scan", "ios": "https://dc.lft.to/lastmile_qr_scan"}, "lon": -77.032593, "fusion_lat": 0.0}, {"name": "1e2a7aba6bcd692207a0ce58b7106e96", "fusion_lon": 0.0, "lat": 38.91988883333333, "is_reserved": 0, "type": "electric_scooter", "bike_id": "1e2a7aba6bcd692207a0ce58b7106e96", "is_disabled": 0, "rental_uris": {"android": "https://dc.lft.to/lastmile_qr_scan", "ios": "https://dc.lft.to/lastmile_qr_scan"}, "lon": -77.04175666666667, "fusion_lat": 0.0}, {"name": "5260b9332fb3f16a6afa2cd800dc3d3b", "fusion_lon": 0.0, "lat": 38.90411433333333, "is_reserved": 0, "type": "electric_scooter", "bike_id": "5260b9332fb3f16a6afa2cd800dc3d3b", "is_disabled": 0, "rental_uris": {"android": "https://dc.lft.to/lastmile_qr_scan", "ios": "https://dc.lft.to/lastmile_qr_scan"}, "lon": -76.97333133333333, "fusion_lat": 0.0}, {"name": "efa4c856c0d8f55b3326df0107b1276a", "fusion_lon": 0.0, "lat": 38.905201166666664, "is_reserved": 0, "type": "electric_scooter", "bike_id": "efa4c856c0d8f55b3326df0107b1276a", "is_disabled": 0, "rental_uris": {"android": "https://dc.lft.to/lastmile_qr_scan", "ios": "https://dc.lft.to/lastmile_qr_scan"}, "lon": -77.04872016666667, "fusion_lat": 0.0}, {"name": "a1144cc6d3c694f529197c849dad9724", "fusion_lon": 0.0, "lat": 38.88248766666667, "is_reserved": 0, "type": "electric_scooter", "bike_id": "a1144cc6d3c694f529197c849dad9724", "is_disabled": 0, "rental_uris": {"android": "https://dc.lft.to/lastmile_qr_scan", "ios": "https://dc.lft.to/lastmile_qr_scan"}, "lon": -76.99120066666667, "fusion_lat": 0.0}, {"name": "ea345984a5de6e32dced71642de17d59", "fusion_lon": 0.0, "lat": 38.908020666666665, "is_reserved": 0, "type": "electric_scooter", "bike_id": "ea345984a5de6e32dced71642de17d59", "is_disabled": 0, "rental_uris": {"android": "https://dc.lft.to/lastmile_qr_scan", "ios": "https://dc.lft.to/lastmile_qr_scan"}, "lon": -77.0342045, "fusion_lat": 0.0}, {"name": "99316160f02cd2ff45b91f91b1ade805", "fusion_lon": 0.0, "lat": 38.8961425, "is_reserved": 0, "type": "electric_scooter", "bike_id": "99316160f02cd2ff45b91f91b1ade805", "is_disabled": 0, "rental_uris": {"android": "https://dc.lft.to/lastmile_qr_scan", "ios": "https://dc.lft.to/lastmile_qr_scan"}, "lon": -77.04561333333334, "fusion_lat": 0.0}, {"name": "bef9dae6fe73352ddc4254a80ac9d6d5", "fusion_lon": 0.0, "lat": 38.918751, "is_reserved": 0, "type": "electric_scooter", "bike_id": "bef9dae6fe73352ddc4254a80ac9d6d5", "is_disabled": 0, "rental_uris": {"android": "https://dc.lft.to/lastmile_qr_scan", "ios": "https://dc.lft.to/lastmile_qr_scan"}, "lon": -77.04763233333334, "fusion_lat": 0.0}, {"name": "1638a95bff4d0ebd62540b9bacc9570c", "fusion_lon": 0.0, "lat": 38.911795166666664, "is_reserved": 0, "type": "electric_scooter", "bike_id": "1638a95bff4d0ebd62540b9bacc9570c", "is_disabled": 0, "rental_uris": {"android": "https://dc.lft.to/lastmile_qr_scan", "ios": "https://dc.lft.to/lastmile_qr_scan"}, "lon": -77.038344, "fusion_lat": 0.0}, {"name": "bf8b6c8ea105463642b3f977ec442189", "fusion_lon": 0.0, "lat": 38.939686, "is_reserved": 0, "type": "electric_scooter", "bike_id": "bf8b6c8ea105463642b3f977ec442189", "is_disabled": 0, "rental_uris": {"android": "https://dc.lft.to/lastmile_qr_scan", "ios": "https://dc.lft.to/lastmile_qr_scan"}, "lon": -77.0275015, "fusion_lat": 0.0}, {"name": "4e685767fbf2422c3170ba68f0d37af2", "fusion_lon": 0.0, "lat": 38.915002333333334, "is_reserved": 0, "type": "electric_scooter", "bike_id": "4e685767fbf2422c3170ba68f0d37af2", "is_disabled": 0, "rental_uris": {"android": "https://dc.lft.to/lastmile_qr_scan", "ios": "https://dc.lft.to/lastmile_qr_scan"}, "lon": -76.98375533333333, "fusion_lat": 0.0}, {"name": "49178876982856999efd44404dbc1bfa", "fusion_lon": 0.0, "lat": 38.88599933333333, "is_reserved": 0, "type": "electric_scooter", "bike_id": "49178876982856999efd44404dbc1bfa", "is_disabled": 0, "rental_uris": {"android": "https://dc.lft.to/lastmile_qr_scan", "ios": "https://dc.lft.to/lastmile_qr_scan"}, "lon": -76.9962365, "fusion_lat": 0.0}, {"name": "eac451b1d5c64e6891de2dce267c394e", "fusion_lon": 0.0, "lat": 38.89224316666667, "is_reserved": 0, "type": "electric_scooter", "bike_id": "eac451b1d5c64e6891de2dce267c394e", "is_disabled": 0, "rental_uris": {"android": "https://dc.lft.to/lastmile_qr_scan", "ios": "https://dc.lft.to/lastmile_qr_scan"}, "lon": -77.04265, "fusion_lat": 0.0}, {"name": "b35c389bfb74f48eee2a480d1bce1ab1", "fusion_lon": 0.0, "lat": 38.91202333333333, "is_reserved": 0, "type": "electric_scooter", "bike_id": "b35c389bfb74f48eee2a480d1bce1ab1", "is_disabled": 0, "rental_uris": {"android": "https://dc.lft.to/lastmile_qr_scan", "ios": "https://dc.lft.to/lastmile_qr_scan"}, "lon": -77.04520166666667, "fusion_lat": 0.0}, {"name": "6d9ea0854b7bf6f757bf3fad7293cf50", "fusion_lon": 0.0, "lat": 38.94434116666667, "is_reserved": 0, "type": "electric_scooter", "bike_id": "6d9ea0854b7bf6f757bf3fad7293cf50", "is_disabled": 0, "rental_uris": {"android": "https://dc.lft.to/lastmile_qr_scan", "ios": "https://dc.lft.to/lastmile_qr_scan"}, "lon": -77.063487, "fusion_lat": 0.0}, {"name": "34b3f57aa2335520b2273a5b77a348f0", "fusion_lon": 0.0, "lat": 38.917423166666666, "is_reserved": 0, "type": "electric_scooter", "bike_id": "34b3f57aa2335520b2273a5b77a348f0", "is_disabled": 0, "rental_uris": {"android": "https://dc.lft.to/lastmile_qr_scan", "ios": "https://dc.lft.to/lastmile_qr_scan"}, "lon": -77.03644666666666, "fusion_lat": 0.0}, {"name": "e4aa7a3b413b333e735636f0ba786e0e", "fusion_lon": 0.0, "lat": 38.87809383333333, "is_reserved": 0, "type": "electric_scooter", "bike_id": "e4aa7a3b413b333e735636f0ba786e0e", "is_disabled": 0, "rental_uris": {"android": "https://dc.lft.to/lastmile_qr_scan", "ios": "https://dc.lft.to/lastmile_qr_scan"}, "lon": -76.9309145, "fusion_lat": 0.0}, {"name": "b6943880b29055bca6eabed88896aa37", "fusion_lon": 0.0, "lat": 38.93102666666667, "is_reserved": 0, "type": "electric_scooter", "bike_id": "b6943880b29055bca6eabed88896aa37", "is_disabled": 0, "rental_uris": {"android": "https://dc.lft.to/lastmile_qr_scan", "ios": "https://dc.lft.to/lastmile_qr_scan"}, "lon": -77.0266305, "fusion_lat": 0.0}, {"name": "f7a910654012993a09db233e62276b3d", "fusion_lon": 0.0, "lat": 38.92592916666667, "is_reserved": 0, "type": "electric_scooter", "bike_id": "f7a910654012993a09db233e62276b3d", "is_disabled": 0, "rental_uris": {"android": "https://dc.lft.to/lastmile_qr_scan", "ios": "https://dc.lft.to/lastmile_qr_scan"}, "lon": -77.04412483333333, "fusion_lat": 0.0}, {"name": "e26ed0dbbe69a4cda78439c030182bca", "fusion_lon": 0.0, "lat": 38.91932283333333, "is_reserved": 0, "type": "electric_scooter", "bike_id": "e26ed0dbbe69a4cda78439c030182bca", "is_disabled": 0, "rental_uris": {"android": "https://dc.lft.to/lastmile_qr_scan", "ios": "https://dc.lft.to/lastmile_qr_scan"}, "lon": -77.04557066666666, "fusion_lat": 0.0}, {"name": "1fe5703eeb10b30e18bed805ab7295bb", "fusion_lon": 0.0, "lat": 38.905679666666664, "is_reserved": 0, "type": "electric_scooter", "bike_id": "1fe5703eeb10b30e18bed805ab7295bb", "is_disabled": 0, "rental_uris": {"android": "https://dc.lft.to/lastmile_qr_scan", "ios": "https://dc.lft.to/lastmile_qr_scan"}, "lon": -77.00589466666666, "fusion_lat": 0.0}, {"name": "19258bf992c8e8785d681861fd8cef15", "fusion_lon": 0.0, "lat": 38.925094, "is_reserved": 0, "type": "electric_scooter", "bike_id": "19258bf992c8e8785d681861fd8cef15", "is_disabled": 0, "rental_uris": {"android": "https://dc.lft.to/lastmile_qr_scan", "ios": "https://dc.lft.to/lastmile_qr_scan"}, "lon": -77.02281583333334, "fusion_lat": 0.0}, {"name": "ed0bbce949bf93000f785edcddd89409", "fusion_lon": 0.0, "lat": 38.9179315, "is_reserved": 0, "type": "electric_scooter", "bike_id": "ed0bbce949bf93000f785edcddd89409", "is_disabled": 0, "rental_uris": {"android": "https://dc.lft.to/lastmile_qr_scan", "ios": "https://dc.lft.to/lastmile_qr_scan"}, "lon": -77.04217133333333, "fusion_lat": 0.0}, {"name": "5a3d79d4bc7da46c1d91d905135ddafa", "fusion_lon": 0.0, "lat": 38.919261, "is_reserved": 0, "type": "electric_scooter", "bike_id": "5a3d79d4bc7da46c1d91d905135ddafa", "is_disabled": 0, "rental_uris": {"android": "https://dc.lft.to/lastmile_qr_scan", "ios": "https://dc.lft.to/lastmile_qr_scan"}, "lon": -77.02575483333334, "fusion_lat": 0.0}, {"name": "2b4a8e0a59c9cde056609d1b83868553", "fusion_lon": 0.0, "lat": 38.90582533333333, "is_reserved": 0, "type": "electric_scooter", "bike_id": "2b4a8e0a59c9cde056609d1b83868553", "is_disabled": 0, "rental_uris": {"android": "https://dc.lft.to/lastmile_qr_scan", "ios": "https://dc.lft.to/lastmile_qr_scan"}, "lon": -77.039818, "fusion_lat": 0.0}, {"name": "e6b13ccf591ae064d3d72d8639677b13", "fusion_lon": 0.0, "lat": 38.907888, "is_reserved": 0, "type": "electric_scooter", "bike_id": "e6b13ccf591ae064d3d72d8639677b13", "is_disabled": 0, "rental_uris": {"android": "https://dc.lft.to/lastmile_qr_scan", "ios": "https://dc.lft.to/lastmile_qr_scan"}, "lon": -77.009704, "fusion_lat": 0.0}, {"name": "b915625b696adb891ed6106fa6b78a07", "fusion_lon": 0.0, "lat": 38.907207166666666, "is_reserved": 0, "type": "electric_scooter", "bike_id": "b915625b696adb891ed6106fa6b78a07", "is_disabled": 0, "rental_uris": {"android": "https://dc.lft.to/lastmile_qr_scan", "ios": "https://dc.lft.to/lastmile_qr_scan"}, "lon": -77.02548, "fusion_lat": 0.0}, {"name": "30893d8bb7e0ef501ba773f73aff73d8", "fusion_lon": 0.0, "lat": 38.906608166666665, "is_reserved": 0, "type": "electric_bike", "bike_id": "30893d8bb7e0ef501ba773f73aff73d8", "is_disabled": 0, "rental_uris": {"android": "https://dc.lft.to/lastmile_qr_scan", "ios": "https://dc.lft.to/lastmile_qr_scan"}, "lon": -77.0434125, "fusion_lat": 0.0}, {"name": "b01e2705e1864c32028dbc74693f3f6e", "fusion_lon": 0.0, "lat": 38.91247033333333, "is_reserved": 0, "type": "electric_scooter", "bike_id": "b01e2705e1864c32028dbc74693f3f6e", "is_disabled": 0, "rental_uris": {"android": "https://dc.lft.to/lastmile_qr_scan", "ios": "https://dc.lft.to/lastmile_qr_scan"}, "lon": -77.034108, "fusion_lat": 0.0}, {"name": "b3a70b4388c44408ed1c3908599d56be", "fusion_lon": 0.0, "lat": 38.906992333333335, "is_reserved": 0, "type": "electric_scooter", "bike_id": "b3a70b4388c44408ed1c3908599d56be", "is_disabled": 0, "rental_uris": {"android": "https://dc.lft.to/lastmile_qr_scan", "ios": "https://dc.lft.to/lastmile_qr_scan"}, "lon": -77.026038, "fusion_lat": 0.0}, {"name": "86a8147d6a07b1bea814f75617676b66", "fusion_lon": 0.0, "lat": 38.97883066666667, "is_reserved": 0, "type": "electric_bike", "bike_id": "86a8147d6a07b1bea814f75617676b66", "is_disabled": 0, "rental_uris": {"android": "https://dc.lft.to/lastmile_qr_scan", "ios": "https://dc.lft.to/lastmile_qr_scan"}, "lon": -77.06032733333333, "fusion_lat": 0.0}, {"name": "f20d2466836c8c11ec1fdf0083d20105", "fusion_lon": 0.0, "lat": 38.92343866666667, "is_reserved": 0, "type": "electric_scooter", "bike_id": "f20d2466836c8c11ec1fdf0083d20105", "is_disabled": 0, "rental_uris": {"android": "https://dc.lft.to/lastmile_qr_scan", "ios": "https://dc.lft.to/lastmile_qr_scan"}, "lon": -77.05073916666667, "fusion_lat": 0.0}, {"name": "5f6b0921ab3ead1cd0ac0f770d3aa20a", "fusion_lon": 0.0, "lat": 38.923449166666664, "is_reserved": 0, "type": "electric_scooter", "bike_id": "5f6b0921ab3ead1cd0ac0f770d3aa20a", "is_disabled": 0, "rental_uris": {"android": "https://dc.lft.to/lastmile_qr_scan", "ios": "https://dc.lft.to/lastmile_qr_scan"}, "lon": -77.0508045, "fusion_lat": 0.0}, {"name": "e9e529e16fb9621632c078aae7538843", "fusion_lon": 0.0, "lat": 39.01373866666667, "is_reserved": 0, "type": "electric_bike", "bike_id": "e9e529e16fb9621632c078aae7538843", "is_disabled": 0, "rental_uris": {"android": "https://dc.lft.to/lastmile_qr_scan", "ios": "https://dc.lft.to/lastmile_qr_scan"}, "lon": -76.92137083333333, "fusion_lat": 0.0}, {"name": "857923073cb372c0b834078afd3a680d", "fusion_lon": 0.0, "lat": 38.91918866666666, "is_reserved": 0, "type": "electric_scooter", "bike_id": "857923073cb372c0b834078afd3a680d", "is_disabled": 0, "rental_uris": {"android": "https://dc.lft.to/lastmile_qr_scan", "ios": "https://dc.lft.to/lastmile_qr_scan"}, "lon": -77.02148116666666, "fusion_lat": 0.0}, {"name": "a1fc2c44d3b55570f0559872da808876", "fusion_lon": 0.0, "lat": 38.892227166666665, "is_reserved": 0, "type": "electric_scooter", "bike_id": "a1fc2c44d3b55570f0559872da808876", "is_disabled": 0, "rental_uris": {"android": "https://dc.lft.to/lastmile_qr_scan", "ios": "https://dc.lft.to/lastmile_qr_scan"}, "lon": -77.04803583333333, "fusion_lat": 0.0}, {"name": "00680ecbd946d87c06bcbd624a2be6ed", "fusion_lon": 0.0, "lat": 38.89662916666666, "is_reserved": 0, "type": "electric_scooter", "bike_id": "00680ecbd946d87c06bcbd624a2be6ed", "is_disabled": 0, "rental_uris": {"android": "https://dc.lft.to/lastmile_qr_scan", "ios": "https://dc.lft.to/lastmile_qr_scan"}, "lon": -77.02721066666666, "fusion_lat": 0.0}, {"name": "c60bbdced3e50d96eb0dcca0cc4e73bb", "fusion_lon": 0.0, "lat": 38.91778766666667, "is_reserved": 0, "type": "electric_scooter", "bike_id": "c60bbdced3e50d96eb0dcca0cc4e73bb", "is_disabled": 0, "rental_uris": {"android": "https://dc.lft.to/lastmile_qr_scan", "ios": "https://dc.lft.to/lastmile_qr_scan"}, "lon": -77.017923, "fusion_lat": 0.0}, {"name": "3bff519c0c23e721514a87cb01c0e262", "fusion_lon": 0.0, "lat": 38.92318733333333, "is_reserved": 0, "type": "electric_scooter", "bike_id": "3bff519c0c23e721514a87cb01c0e262", "is_disabled": 0, "rental_uris": {"android": "https://dc.lft.to/lastmile_qr_scan", "ios": "https://dc.lft.to/lastmile_qr_scan"}, "lon": -77.0417975, "fusion_lat": 0.0}, {"name": "da3a9b0311772ededb3a4a21b0b8d129", "fusion_lon": 0.0, "lat": 38.942811166666665, "is_reserved": 0, "type": "electric_bike", "bike_id": "da3a9b0311772ededb3a4a21b0b8d129", "is_disabled": 0, "rental_uris": {"android": "https://dc.lft.to/lastmile_qr_scan", "ios": "https://dc.lft.to/lastmile_qr_scan"}, "lon": -76.9878585, "fusion_lat": 0.0}, {"name": "c6a891f0ad7324929c9ba351e671b195", "fusion_lon": 0.0, "lat": 38.888725666666666, "is_reserved": 0, "type": "electric_scooter", "bike_id": "c6a891f0ad7324929c9ba351e671b195", "is_disabled": 0, "rental_uris": {"android": "https://dc.lft.to/lastmile_qr_scan", "ios": "https://dc.lft.to/lastmile_qr_scan"}, "lon": -76.99030016666667, "fusion_lat": 0.0}, {"name": "b32b91ba0344b1b83b9189eb1e3e9dc7", "fusion_lon": 0.0, "lat": 38.91970216666667, "is_reserved": 0, "type": "electric_scooter", "bike_id": "b32b91ba0344b1b83b9189eb1e3e9dc7", "is_disabled": 0, "rental_uris": {"android": "https://dc.lft.to/lastmile_qr_scan", "ios": "https://dc.lft.to/lastmile_qr_scan"}, "lon": -77.038553, "fusion_lat": 0.0}, {"name": "31f91d428d48615173aea6c1c3dc4e67", "fusion_lon": 0.0, "lat": 38.8825045, "is_reserved": 0, "type": "electric_scooter", "bike_id": "31f91d428d48615173aea6c1c3dc4e67", "is_disabled": 0, "rental_uris": {"android": "https://dc.lft.to/lastmile_qr_scan", "ios": "https://dc.lft.to/lastmile_qr_scan"}, "lon": -77.008598, "fusion_lat": 0.0}, {"name": "bf4f3b05e5d5740a0bbc6a70ed3b71cb", "fusion_lon": 0.0, "lat": 38.90968083333333, "is_reserved": 0, "type": "electric_scooter", "bike_id": "bf4f3b05e5d5740a0bbc6a70ed3b71cb", "is_disabled": 0, "rental_uris": {"android": "https://dc.lft.to/lastmile_qr_scan", "ios": "https://dc.lft.to/lastmile_qr_scan"}, "lon": -77.04239983333333, "fusion_lat": 0.0}, {"name": "e10ca62af0de913da364801b68266541", "fusion_lon": 0.0, "lat": 38.900882, "is_reserved": 0, "type": "electric_scooter", "bike_id": "e10ca62af0de913da364801b68266541", "is_disabled": 0, "rental_uris": {"android": "https://dc.lft.to/lastmile_qr_scan", "ios": "https://dc.lft.to/lastmile_qr_scan"}, "lon": -77.047431, "fusion_lat": 0.0}, {"name": "d8bc5a08fd71b5a490518d58f0c0fe08", "fusion_lon": 0.0, "lat": 38.9169455, "is_reserved": 0, "type": "electric_scooter", "bike_id": "d8bc5a08fd71b5a490518d58f0c0fe08", "is_disabled": 0, "rental_uris": {"android": "https://dc.lft.to/lastmile_qr_scan", "ios": "https://dc.lft.to/lastmile_qr_scan"}, "lon": -77.023519, "fusion_lat": 0.0}, {"name": "f6ab9771b532dabc88797862b5d767a6", "fusion_lon": 0.0, "lat": 38.902676666666665, "is_reserved": 0, "type": "electric_scooter", "bike_id": "f6ab9771b532dabc88797862b5d767a6", "is_disabled": 0, "rental_uris": {"android": "https://dc.lft.to/lastmile_qr_scan", "ios": "https://dc.lft.to/lastmile_qr_scan"}, "lon": -77.01753, "fusion_lat": 0.0}, {"name": "0f1c33f4c1aeb8fe01e4996a5816ae95", "fusion_lon": 0.0, "lat": 38.884621, "is_reserved": 0, "type": "electric_scooter", "bike_id": "0f1c33f4c1aeb8fe01e4996a5816ae95", "is_disabled": 0, "rental_uris": {"android": "https://dc.lft.to/lastmile_qr_scan", "ios": "https://dc.lft.to/lastmile_qr_scan"}, "lon": -76.92623683333333, "fusion_lat": 0.0}, {"name": "620e0beb45f56a5e07896b024e67a346", "fusion_lon": 0.0, "lat": 38.902442666666666, "is_reserved": 0, "type": "electric_scooter", "bike_id": "620e0beb45f56a5e07896b024e67a346", "is_disabled": 0, "rental_uris": {"android": "https://dc.lft.to/lastmile_qr_scan", "ios": "https://dc.lft.to/lastmile_qr_scan"}, "lon": -77.002119, "fusion_lat": 0.0}, {"name": "24852dfe556b3e1c98cd488b0bbd97e6", "fusion_lon": 0.0, "lat": 38.900162333333334, "is_reserved": 0, "type": "electric_scooter", "bike_id": "24852dfe556b3e1c98cd488b0bbd97e6", "is_disabled": 0, "rental_uris": {"android": "https://dc.lft.to/lastmile_qr_scan", "ios": "https://dc.lft.to/lastmile_qr_scan"}, "lon": -77.0449905, "fusion_lat": 0.0}, {"name": "d6535c8b5b3c3313deee79ae3a02d265", "fusion_lon": 0.0, "lat": 38.906063833333334, "is_reserved": 0, "type": "electric_scooter", "bike_id": "d6535c8b5b3c3313deee79ae3a02d265", "is_disabled": 0, "rental_uris": {"android": "https://dc.lft.to/lastmile_qr_scan", "ios": "https://dc.lft.to/lastmile_qr_scan"}, "lon": -77.02107683333334, "fusion_lat": 0.0}, {"name": "62f1a1c2338388ac83c52c043e833ff0", "fusion_lon": 0.0, "lat": 38.892395, "is_reserved": 0, "type": "electric_scooter", "bike_id": "62f1a1c2338388ac83c52c043e833ff0", "is_disabled": 0, "rental_uris": {"android": "https://dc.lft.to/lastmile_qr_scan", "ios": "https://dc.lft.to/lastmile_qr_scan"}, "lon": -77.032126, "fusion_lat": 0.0}, {"name": "5c0a348ca8b200134e54810142586a51", "fusion_lon": 0.0, "lat": 38.83849633333333, "is_reserved": 0, "type": "electric_bike", "bike_id": "5c0a348ca8b200134e54810142586a51", "is_disabled": 0, "rental_uris": {"android": "https://dc.lft.to/lastmile_qr_scan", "ios": "https://dc.lft.to/lastmile_qr_scan"}, "lon": -77.00229833333333, "fusion_lat": 0.0}, {"name": "0dc4b60c9fe5766c4c1cc3396cf0b2b6", "fusion_lon": 0.0, "lat": 38.906673833333336, "is_reserved": 0, "type": "electric_scooter", "bike_id": "0dc4b60c9fe5766c4c1cc3396cf0b2b6", "is_disabled": 0, "rental_uris": {"android": "https://dc.lft.to/lastmile_qr_scan", "ios": "https://dc.lft.to/lastmile_qr_scan"}, "lon": -77.03864116666666, "fusion_lat": 0.0}, {"name": "80c527123e71baffa06d636ee99a21b6", "fusion_lon": 0.0, "lat": 38.89239583333333, "is_reserved": 0, "type": "electric_scooter", "bike_id": "80c527123e71baffa06d636ee99a21b6", "is_disabled": 0, "rental_uris": {"android": "https://dc.lft.to/lastmile_qr_scan", "ios": "https://dc.lft.to/lastmile_qr_scan"}, "lon": -77.00209616666666, "fusion_lat": 0.0}, {"name": "ed52c570f5f03a9efea9ece10f9ae028", "fusion_lon": 0.0, "lat": 38.9324695, "is_reserved": 0, "type": "electric_scooter", "bike_id": "ed52c570f5f03a9efea9ece10f9ae028", "is_disabled": 0, "rental_uris": {"android": "https://dc.lft.to/lastmile_qr_scan", "ios": "https://dc.lft.to/lastmile_qr_scan"}, "lon": -77.03852083333334, "fusion_lat": 0.0}, {"name": "232f563c3cab8e1674e207a5b35ca178", "fusion_lon": 0.0, "lat": 38.91702983333333, "is_reserved": 0, "type": "electric_scooter", "bike_id": "232f563c3cab8e1674e207a5b35ca178", "is_disabled": 0, "rental_uris": {"android": "https://dc.lft.to/lastmile_qr_scan", "ios": "https://dc.lft.to/lastmile_qr_scan"}, "lon": -77.03765233333333, "fusion_lat": 0.0}, {"name": "53ece88a854a0461ed765adde778c005", "fusion_lon": 0.0, "lat": 38.908594666666666, "is_reserved": 0, "type": "electric_scooter", "bike_id": "53ece88a854a0461ed765adde778c005", "is_disabled": 0, "rental_uris": {"android": "https://dc.lft.to/lastmile_qr_scan", "ios": "https://dc.lft.to/lastmile_qr_scan"}, "lon": -77.02543633333333, "fusion_lat": 0.0}, {"name": "5651e351f7403a37d929b10fddb28269", "fusion_lon": 0.0, "lat": 38.91196516666667, "is_reserved": 0, "type": "electric_scooter", "bike_id": "5651e351f7403a37d929b10fddb28269", "is_disabled": 0, "rental_uris": {"android": "https://dc.lft.to/lastmile_qr_scan", "ios": "https://dc.lft.to/lastmile_qr_scan"}, "lon": -77.03834283333333, "fusion_lat": 0.0}, {"name": "4f1a76fcf5f1b35f3fd746d6d20d408b", "fusion_lon": 0.0, "lat": 38.924709166666666, "is_reserved": 0, "type": "electric_scooter", "bike_id": "4f1a76fcf5f1b35f3fd746d6d20d408b", "is_disabled": 0, "rental_uris": {"android": "https://dc.lft.to/lastmile_qr_scan", "ios": "https://dc.lft.to/lastmile_qr_scan"}, "lon": -77.039055, "fusion_lat": 0.0}, {"name": "3da197b56f22d60c0d3bab86225d21e0", "fusion_lon": 0.0, "lat": 38.87089316666667, "is_reserved": 0, "type": "electric_scooter", "bike_id": "3da197b56f22d60c0d3bab86225d21e0", "is_disabled": 0, "rental_uris": {"android": "https://dc.lft.to/lastmile_qr_scan", "ios": "https://dc.lft.to/lastmile_qr_scan"}, "lon": -77.0135435, "fusion_lat": 0.0}, {"name": "ed2d1e628f61fcda380d82edd5681a05", "fusion_lon": 0.0, "lat": 38.9622415, "is_reserved": 0, "type": "electric_bike", "bike_id": "ed2d1e628f61fcda380d82edd5681a05", "is_disabled": 0, "rental_uris": {"android": "https://dc.lft.to/lastmile_qr_scan", "ios": "https://dc.lft.to/lastmile_qr_scan"}, "lon": -77.02624166666666, "fusion_lat": 0.0}, {"name": "bd3115eb3d77e72d7fa5a097ea967754", "fusion_lon": 0.0, "lat": 38.905864333333334, "is_reserved": 0, "type": "electric_scooter", "bike_id": "bd3115eb3d77e72d7fa5a097ea967754", "is_disabled": 0, "rental_uris": {"android": "https://dc.lft.to/lastmile_qr_scan", "ios": "https://dc.lft.to/lastmile_qr_scan"}, "lon": -77.041617, "fusion_lat": 0.0}, {"name": "888c319440fa8f0b52e2e19e8fa7d5c4", "fusion_lon": 0.0, "lat": 38.92157433333333, "is_reserved": 0, "type": "electric_scooter", "bike_id": "888c319440fa8f0b52e2e19e8fa7d5c4", "is_disabled": 0, "rental_uris": {"android": "https://dc.lft.to/lastmile_qr_scan", "ios": "https://dc.lft.to/lastmile_qr_scan"}, "lon": -77.03467266666667, "fusion_lat": 0.0}, {"name": "8c7623302faa0a8ec4da157ae5165030", "fusion_lon": 0.0, "lat": 38.9155505, "is_reserved": 0, "type": "electric_scooter", "bike_id": "8c7623302faa0a8ec4da157ae5165030", "is_disabled": 0, "rental_uris": {"android": "https://dc.lft.to/lastmile_qr_scan", "ios": "https://dc.lft.to/lastmile_qr_scan"}, "lon": -77.04180416666667, "fusion_lat": 0.0}, {"name": "7589a7e41bbc15f2b82efe0eb2081dbf", "fusion_lon": 0.0, "lat": 38.925123666666664, "is_reserved": 0, "type": "electric_scooter", "bike_id": "7589a7e41bbc15f2b82efe0eb2081dbf", "is_disabled": 0, "rental_uris": {"android": "https://dc.lft.to/lastmile_qr_scan", "ios": "https://dc.lft.to/lastmile_qr_scan"}, "lon": -77.0235425, "fusion_lat": 0.0}, {"name": "4d8547de6c1484ca867716bf18ad5af0", "fusion_lon": 0.0, "lat": 38.91740566666667, "is_reserved": 0, "type": "electric_scooter", "bike_id": "4d8547de6c1484ca867716bf18ad5af0", "is_disabled": 0, "rental_uris": {"android": "https://dc.lft.to/lastmile_qr_scan", "ios": "https://dc.lft.to/lastmile_qr_scan"}, "lon": -77.021159, "fusion_lat": 0.0}, {"name": "71a695c1e3d541d702815969bc146c4e", "fusion_lon": 0.0, "lat": 38.917709333333335, "is_reserved": 0, "type": "electric_scooter", "bike_id": "71a695c1e3d541d702815969bc146c4e", "is_disabled": 0, "rental_uris": {"android": "https://dc.lft.to/lastmile_qr_scan", "ios": "https://dc.lft.to/lastmile_qr_scan"}, "lon": -77.040611, "fusion_lat": 0.0}, {"name": "d3e0ef9059d48aed126e3b1a8b6e1231", "fusion_lon": 0.0, "lat": 38.916966333333335, "is_reserved": 0, "type": "electric_scooter", "bike_id": "d3e0ef9059d48aed126e3b1a8b6e1231", "is_disabled": 0, "rental_uris": {"android": "https://dc.lft.to/lastmile_qr_scan", "ios": "https://dc.lft.to/lastmile_qr_scan"}, "lon": -77.04261483333333, "fusion_lat": 0.0}, {"name": "6268d771eb99e013915f087a61acdddd", "fusion_lon": 0.0, "lat": 38.8788815, "is_reserved": 0, "type": "electric_bike", "bike_id": "6268d771eb99e013915f087a61acdddd", "is_disabled": 0, "rental_uris": {"android": "https://dc.lft.to/lastmile_qr_scan", "ios": "https://dc.lft.to/lastmile_qr_scan"}, "lon": -77.09615983333333, "fusion_lat": 0.0}, {"name": "e6899d04916f8064ec7c21cc740bb768", "fusion_lon": 0.0, "lat": 38.89797, "is_reserved": 0, "type": "electric_scooter", "bike_id": "e6899d04916f8064ec7c21cc740bb768", "is_disabled": 0, "rental_uris": {"android": "https://dc.lft.to/lastmile_qr_scan", "ios": "https://dc.lft.to/lastmile_qr_scan"}, "lon": -77.00915816666667, "fusion_lat": 0.0}, {"name": "f10e1856542d978233b446b25c7c439d", "fusion_lon": 0.0, "lat": 38.924554666666666, "is_reserved": 0, "type": "electric_scooter", "bike_id": "f10e1856542d978233b446b25c7c439d", "is_disabled": 0, "rental_uris": {"android": "https://dc.lft.to/lastmile_qr_scan", "ios": "https://dc.lft.to/lastmile_qr_scan"}, "lon": -77.04110766666666, "fusion_lat": 0.0}, {"name": "b53f61cf359b7eb22e7cfca2f29800f7", "fusion_lon": 0.0, "lat": 38.912781333333335, "is_reserved": 0, "type": "electric_scooter", "bike_id": "b53f61cf359b7eb22e7cfca2f29800f7", "is_disabled": 0, "rental_uris": {"android": "https://dc.lft.to/lastmile_qr_scan", "ios": "https://dc.lft.to/lastmile_qr_scan"}, "lon": -77.04501666666667, "fusion_lat": 0.0}, {"name": "f0a9ba42c6907e1c6c760767ff674e01", "fusion_lon": 0.0, "lat": 38.90354766666667, "is_reserved": 0, "type": "electric_scooter", "bike_id": "f0a9ba42c6907e1c6c760767ff674e01", "is_disabled": 0, "rental_uris": {"android": "https://dc.lft.to/lastmile_qr_scan", "ios": "https://dc.lft.to/lastmile_qr_scan"}, "lon": -77.0502235, "fusion_lat": 0.0}, {"name": "f8cf76b979b66e310df4dc518b7e98b9", "fusion_lon": 0.0, "lat": 38.88817366666667, "is_reserved": 0, "type": "electric_scooter", "bike_id": "f8cf76b979b66e310df4dc518b7e98b9", "is_disabled": 0, "rental_uris": {"android": "https://dc.lft.to/lastmile_qr_scan", "ios": "https://dc.lft.to/lastmile_qr_scan"}, "lon": -77.01491316666667, "fusion_lat": 0.0}, {"name": "ebfdfec882297cfd69696c5a9987f826", "fusion_lon": 0.0, "lat": 38.898484, "is_reserved": 0, "type": "electric_scooter", "bike_id": "ebfdfec882297cfd69696c5a9987f826", "is_disabled": 0, "rental_uris": {"android": "https://dc.lft.to/lastmile_qr_scan", "ios": "https://dc.lft.to/lastmile_qr_scan"}, "lon": -77.04381383333333, "fusion_lat": 0.0}, {"name": "0d3889879ae8c5e94009e8599f700127", "fusion_lon": 0.0, "lat": 38.95297516666667, "is_reserved": 0, "type": "electric_bike", "bike_id": "0d3889879ae8c5e94009e8599f700127", "is_disabled": 0, "rental_uris": {"android": "https://dc.lft.to/lastmile_qr_scan", "ios": "https://dc.lft.to/lastmile_qr_scan"}, "lon": -77.023993, "fusion_lat": 0.0}, {"name": "2f9a26d44a90577a89c7a1a826beaa42", "fusion_lon": 0.0, "lat": 38.895414333333335, "is_reserved": 0, "type": "electric_scooter", "bike_id": "2f9a26d44a90577a89c7a1a826beaa42", "is_disabled": 0, "rental_uris": {"android": "https://dc.lft.to/lastmile_qr_scan", "ios": "https://dc.lft.to/lastmile_qr_scan"}, "lon": -76.92951033333334, "fusion_lat": 0.0}, {"name": "5d9d91fd756b2da79fa5d87ed0b6dc47", "fusion_lon": 0.0, "lat": 38.91652633333333, "is_reserved": 0, "type": "electric_scooter", "bike_id": "5d9d91fd756b2da79fa5d87ed0b6dc47", "is_disabled": 0, "rental_uris": {"android": "https://dc.lft.to/lastmile_qr_scan", "ios": "https://dc.lft.to/lastmile_qr_scan"}, "lon": -77.02426233333334, "fusion_lat": 0.0}, {"name": "e6b3f7ba6af9b5e1b54f2a93cbc85b80", "fusion_lon": 0.0, "lat": 38.8579125, "is_reserved": 0, "type": "electric_bike", "bike_id": "e6b3f7ba6af9b5e1b54f2a93cbc85b80", "is_disabled": 0, "rental_uris": {"android": "https://dc.lft.to/lastmile_qr_scan", "ios": "https://dc.lft.to/lastmile_qr_scan"}, "lon": -77.12017916666667, "fusion_lat": 0.0}, {"name": "7b7e6fd6de115a589797252d0f6993f4", "fusion_lon": 0.0, "lat": 38.862636, "is_reserved": 0, "type": "electric_bike", "bike_id": "7b7e6fd6de115a589797252d0f6993f4", "is_disabled": 0, "rental_uris": {"android": "https://dc.lft.to/lastmile_qr_scan", "ios": "https://dc.lft.to/lastmile_qr_scan"}, "lon": -76.983469, "fusion_lat": 0.0}, {"name": "222d7edc4936f6599f13dff39a5dd7cc", "fusion_lon": 0.0, "lat": 38.916903, "is_reserved": 0, "type": "electric_scooter", "bike_id": "222d7edc4936f6599f13dff39a5dd7cc", "is_disabled": 0, "rental_uris": {"android": "https://dc.lft.to/lastmile_qr_scan", "ios": "https://dc.lft.to/lastmile_qr_scan"}, "lon": -77.02324816666666, "fusion_lat": 0.0}, {"name": "bc370bed9fa5c7c93bd35a203645623e", "fusion_lon": 0.0, "lat": 38.90014866666667, "is_reserved": 0, "type": "electric_scooter", "bike_id": "bc370bed9fa5c7c93bd35a203645623e", "is_disabled": 0, "rental_uris": {"android": "https://dc.lft.to/lastmile_qr_scan", "ios": "https://dc.lft.to/lastmile_qr_scan"}, "lon": -77.02603216666667, "fusion_lat": 0.0}, {"name": "2d9e81940cc7aeb4fb3446b1f052b583", "fusion_lon": 0.0, "lat": 38.89932833333334, "is_reserved": 0, "type": "electric_scooter", "bike_id": "2d9e81940cc7aeb4fb3446b1f052b583", "is_disabled": 0, "rental_uris": {"android": "https://dc.lft.to/lastmile_qr_scan", "ios": "https://dc.lft.to/lastmile_qr_scan"}, "lon": -77.00366683333333, "fusion_lat": 0.0}, {"name": "f288c1666b635301e96738a238bae719", "fusion_lon": 0.0, "lat": 38.929710666666665, "is_reserved": 0, "type": "electric_scooter", "bike_id": "f288c1666b635301e96738a238bae719", "is_disabled": 0, "rental_uris": {"android": "https://dc.lft.to/lastmile_qr_scan", "ios": "https://dc.lft.to/lastmile_qr_scan"}, "lon": -77.05518583333334, "fusion_lat": 0.0}, {"name": "048a9daca28992d1e38aa7bc441b710a", "fusion_lon": 0.0, "lat": 38.909392, "is_reserved": 0, "type": "electric_scooter", "bike_id": "048a9daca28992d1e38aa7bc441b710a", "is_disabled": 0, "rental_uris": {"android": "https://dc.lft.to/lastmile_qr_scan", "ios": "https://dc.lft.to/lastmile_qr_scan"}, "lon": -77.026972, "fusion_lat": 0.0}, {"name": "344afcf6afea8491130a6646b480c5bb", "fusion_lon": 0.0, "lat": 38.92321866666666, "is_reserved": 0, "type": "electric_scooter", "bike_id": "344afcf6afea8491130a6646b480c5bb", "is_disabled": 0, "rental_uris": {"android": "https://dc.lft.to/lastmile_qr_scan", "ios": "https://dc.lft.to/lastmile_qr_scan"}, "lon": -77.04174, "fusion_lat": 0.0}, {"name": "3ec8933e5c4be2f42482581e07d5c44b", "fusion_lon": 0.0, "lat": 38.90547816666667, "is_reserved": 0, "type": "electric_scooter", "bike_id": "3ec8933e5c4be2f42482581e07d5c44b", "is_disabled": 0, "rental_uris": {"android": "https://dc.lft.to/lastmile_qr_scan", "ios": "https://dc.lft.to/lastmile_qr_scan"}, "lon": -76.9810675, "fusion_lat": 0.0}, {"name": "ce5c228850aa53dbbc653810bde52790", "fusion_lon": 0.0, "lat": 38.935188833333335, "is_reserved": 0, "type": "electric_scooter", "bike_id": "ce5c228850aa53dbbc653810bde52790", "is_disabled": 0, "rental_uris": {"android": "https://dc.lft.to/lastmile_qr_scan", "ios": "https://dc.lft.to/lastmile_qr_scan"}, "lon": -77.0328485, "fusion_lat": 0.0}, {"name": "58102c358a75170ee762a12cea5be28e", "fusion_lon": 0.0, "lat": 38.90654333333333, "is_reserved": 0, "type": "electric_scooter", "bike_id": "58102c358a75170ee762a12cea5be28e", "is_disabled": 0, "rental_uris": {"android": "https://dc.lft.to/lastmile_qr_scan", "ios": "https://dc.lft.to/lastmile_qr_scan"}, "lon": -77.03844183333334, "fusion_lat": 0.0}, {"name": "4369dfe77a18022b0ccebfeb1b6052f2", "fusion_lon": 0.0, "lat": 38.9236095, "is_reserved": 0, "type": "electric_scooter", "bike_id": "4369dfe77a18022b0ccebfeb1b6052f2", "is_disabled": 0, "rental_uris": {"android": "https://dc.lft.to/lastmile_qr_scan", "ios": "https://dc.lft.to/lastmile_qr_scan"}, "lon": -77.05276133333334, "fusion_lat": 0.0}, {"name": "881887a9922a70bc42ec646b89ec1ba6", "fusion_lon": 0.0, "lat": 38.86507183333333, "is_reserved": 0, "type": "electric_scooter", "bike_id": "881887a9922a70bc42ec646b89ec1ba6", "is_disabled": 0, "rental_uris": {"android": "https://dc.lft.to/lastmile_qr_scan", "ios": "https://dc.lft.to/lastmile_qr_scan"}, "lon": -76.99001866666667, "fusion_lat": 0.0}, {"name": "47e371fa6e9d0922eb2565e12a827ee9", "fusion_lon": 0.0, "lat": 38.92211566666667, "is_reserved": 0, "type": "electric_scooter", "bike_id": "47e371fa6e9d0922eb2565e12a827ee9", "is_disabled": 0, "rental_uris": {"android": "https://dc.lft.to/lastmile_qr_scan", "ios": "https://dc.lft.to/lastmile_qr_scan"}, "lon": -77.03292166666667, "fusion_lat": 0.0}, {"name": "68c2c28ab6acd4090345767bd9ae15b3", "fusion_lon": 0.0, "lat": 38.94187066666667, "is_reserved": 0, "type": "electric_scooter", "bike_id": "68c2c28ab6acd4090345767bd9ae15b3", "is_disabled": 0, "rental_uris": {"android": "https://dc.lft.to/lastmile_qr_scan", "ios": "https://dc.lft.to/lastmile_qr_scan"}, "lon": -77.02490366666666, "fusion_lat": 0.0}, {"name": "df124aa70ba1c5a1a7601d9ca5736ba6", "fusion_lon": 0.0, "lat": 38.923117166666664, "is_reserved": 0, "type": "electric_bike", "bike_id": "df124aa70ba1c5a1a7601d9ca5736ba6", "is_disabled": 0, "rental_uris": {"android": "https://dc.lft.to/lastmile_qr_scan", "ios": "https://dc.lft.to/lastmile_qr_scan"}, "lon": -77.0225705, "fusion_lat": 0.0}, {"name": "14c4a58a29ded07aa84f50cd3601637e", "fusion_lon": 0.0, "lat": 38.946195833333334, "is_reserved": 0, "type": "electric_scooter", "bike_id": "14c4a58a29ded07aa84f50cd3601637e", "is_disabled": 0, "rental_uris": {"android": "https://dc.lft.to/lastmile_qr_scan", "ios": "https://dc.lft.to/lastmile_qr_scan"}, "lon": -77.021702, "fusion_lat": 0.0}, {"name": "4e393258d6f0a230323bd350dd91e2b8", "fusion_lon": 0.0, "lat": 38.89847983333333, "is_reserved": 0, "type": "electric_scooter", "bike_id": "4e393258d6f0a230323bd350dd91e2b8", "is_disabled": 0, "rental_uris": {"android": "https://dc.lft.to/lastmile_qr_scan", "ios": "https://dc.lft.to/lastmile_qr_scan"}, "lon": -77.02385866666667, "fusion_lat": 0.0}, {"name": "f50df5c1e60284a22b684d7b2bb89654", "fusion_lon": 0.0, "lat": 38.919571166666664, "is_reserved": 0, "type": "electric_scooter", "bike_id": "f50df5c1e60284a22b684d7b2bb89654", "is_disabled": 0, "rental_uris": {"android": "https://dc.lft.to/lastmile_qr_scan", "ios": "https://dc.lft.to/lastmile_qr_scan"}, "lon": -77.03479183333333, "fusion_lat": 0.0}, {"name": "bbddc88585c4d43c3b3b9cac368a4808", "fusion_lon": 0.0, "lat": 38.927031166666666, "is_reserved": 0, "type": "electric_scooter", "bike_id": "bbddc88585c4d43c3b3b9cac368a4808", "is_disabled": 0, "rental_uris": {"android": "https://dc.lft.to/lastmile_qr_scan", "ios": "https://dc.lft.to/lastmile_qr_scan"}, "lon": -77.02431383333334, "fusion_lat": 0.0}, {"name": "ce7fa9142a67cad8ec3c6b312d332b6f", "fusion_lon": 0.0, "lat": 38.916290333333336, "is_reserved": 0, "type": "electric_scooter", "bike_id": "ce7fa9142a67cad8ec3c6b312d332b6f", "is_disabled": 0, "rental_uris": {"android": "https://dc.lft.to/lastmile_qr_scan", "ios": "https://dc.lft.to/lastmile_qr_scan"}, "lon": -77.03861666666667, "fusion_lat": 0.0}, {"name": "740cc019d881d9a7a7836ffffbbdbcdb", "fusion_lon": 0.0, "lat": 38.914241833333335, "is_reserved": 0, "type": "electric_scooter", "bike_id": "740cc019d881d9a7a7836ffffbbdbcdb", "is_disabled": 0, "rental_uris": {"android": "https://dc.lft.to/lastmile_qr_scan", "ios": "https://dc.lft.to/lastmile_qr_scan"}, "lon": -77.032103, "fusion_lat": 0.0}, {"name": "ba783925cfcf0cddc650daadbb4c27e8", "fusion_lon": 0.0, "lat": 38.993496, "is_reserved": 0, "type": "electric_bike", "bike_id": "ba783925cfcf0cddc650daadbb4c27e8", "is_disabled": 0, "rental_uris": {"android": "https://dc.lft.to/lastmile_qr_scan", "ios": "https://dc.lft.to/lastmile_qr_scan"}, "lon": -77.115819, "fusion_lat": 0.0}, {"name": "5a9a1b3c9ba69a093fb548b3377dcaab", "fusion_lon": 0.0, "lat": 38.916927, "is_reserved": 0, "type": "electric_scooter", "bike_id": "5a9a1b3c9ba69a093fb548b3377dcaab", "is_disabled": 0, "rental_uris": {"android": "https://dc.lft.to/lastmile_qr_scan", "ios": "https://dc.lft.to/lastmile_qr_scan"}, "lon": -77.02516316666667, "fusion_lat": 0.0}, {"name": "49e65518d5780bad71539b9a67a91564", "fusion_lon": 0.0, "lat": 38.80761433333333, "is_reserved": 0, "type": "electric_bike", "bike_id": "49e65518d5780bad71539b9a67a91564", "is_disabled": 0, "rental_uris": {"android": "https://dc.lft.to/lastmile_qr_scan", "ios": "https://dc.lft.to/lastmile_qr_scan"}, "lon": -77.09468166666667, "fusion_lat": 0.0}, {"name": "00cc562b982d60d83fc51a0bb9041189", "fusion_lon": 0.0, "lat": 38.9127025, "is_reserved": 0, "type": "electric_scooter", "bike_id": "00cc562b982d60d83fc51a0bb9041189", "is_disabled": 0, "rental_uris": {"android": "https://dc.lft.to/lastmile_qr_scan", "ios": "https://dc.lft.to/lastmile_qr_scan"}, "lon": -77.02226133333333, "fusion_lat": 0.0}, {"name": "3fd3d414962b2622dbf2c662d72bccad", "fusion_lon": 0.0, "lat": 38.905123, "is_reserved": 0, "type": "electric_scooter", "bike_id": "3fd3d414962b2622dbf2c662d72bccad", "is_disabled": 0, "rental_uris": {"android": "https://dc.lft.to/lastmile_qr_scan", "ios": "https://dc.lft.to/lastmile_qr_scan"}, "lon": -77.0701755, "fusion_lat": 0.0}, {"name": "01795c004c32a5da9fc98c4680833634", "fusion_lon": 0.0, "lat": 38.89618316666667, "is_reserved": 0, "type": "electric_scooter", "bike_id": "01795c004c32a5da9fc98c4680833634", "is_disabled": 0, "rental_uris": {"android": "https://dc.lft.to/lastmile_qr_scan", "ios": "https://dc.lft.to/lastmile_qr_scan"}, "lon": -77.02208066666667, "fusion_lat": 0.0}, {"name": "7607dbbf57619e1ea1f63eed1b563a91", "fusion_lon": 0.0, "lat": 38.91815166666667, "is_reserved": 0, "type": "electric_scooter", "bike_id": "7607dbbf57619e1ea1f63eed1b563a91", "is_disabled": 0, "rental_uris": {"android": "https://dc.lft.to/lastmile_qr_scan", "ios": "https://dc.lft.to/lastmile_qr_scan"}, "lon": -77.08960233333333, "fusion_lat": 0.0}, {"name": "5c1efcfeda62496091ee68d5585b72f3", "fusion_lon": 0.0, "lat": 38.90481483333333, "is_reserved": 0, "type": "electric_scooter", "bike_id": "5c1efcfeda62496091ee68d5585b72f3", "is_disabled": 0, "rental_uris": {"android": "https://dc.lft.to/lastmile_qr_scan", "ios": "https://dc.lft.to/lastmile_qr_scan"}, "lon": -77.04168816666666, "fusion_lat": 0.0}, {"name": "394ee2fd0b0d8ee70fd3b9e4770180eb", "fusion_lon": 0.0, "lat": 38.9074265, "is_reserved": 0, "type": "electric_scooter", "bike_id": "394ee2fd0b0d8ee70fd3b9e4770180eb", "is_disabled": 0, "rental_uris": {"android": "https://dc.lft.to/lastmile_qr_scan", "ios": "https://dc.lft.to/lastmile_qr_scan"}, "lon": -77.0435105, "fusion_lat": 0.0}, {"name": "9417ad1cf1a47f40e181c48e2850ff4b", "fusion_lon": 0.0, "lat": 38.917006666666666, "is_reserved": 0, "type": "electric_scooter", "bike_id": "9417ad1cf1a47f40e181c48e2850ff4b", "is_disabled": 0, "rental_uris": {"android": "https://dc.lft.to/lastmile_qr_scan", "ios": "https://dc.lft.to/lastmile_qr_scan"}, "lon": -77.034761, "fusion_lat": 0.0}, {"name": "3b390b190aff7b8972b02f71bda66113", "fusion_lon": 0.0, "lat": 38.9387255, "is_reserved": 0, "type": "electric_scooter", "bike_id": "3b390b190aff7b8972b02f71bda66113", "is_disabled": 0, "rental_uris": {"android": "https://dc.lft.to/lastmile_qr_scan", "ios": "https://dc.lft.to/lastmile_qr_scan"}, "lon": -77.02597933333334, "fusion_lat": 0.0}, {"name": "762f4eb28393766d270a28c762d1eeca", "fusion_lon": 0.0, "lat": 38.914817666666664, "is_reserved": 0, "type": "electric_scooter", "bike_id": "762f4eb28393766d270a28c762d1eeca", "is_disabled": 0, "rental_uris": {"android": "https://dc.lft.to/lastmile_qr_scan", "ios": "https://dc.lft.to/lastmile_qr_scan"}, "lon": -77.0318375, "fusion_lat": 0.0}, {"name": "bfb30e9b29456da9c1bdc446c79295be", "fusion_lon": 0.0, "lat": 38.9632505, "is_reserved": 0, "type": "electric_bike", "bike_id": "bfb30e9b29456da9c1bdc446c79295be", "is_disabled": 0, "rental_uris": {"android": "https://dc.lft.to/lastmile_qr_scan", "ios": "https://dc.lft.to/lastmile_qr_scan"}, "lon": -76.97361516666666, "fusion_lat": 0.0}, {"name": "a05989392dc01becbcec58bb82ec820e", "fusion_lon": 0.0, "lat": 38.96311816666667, "is_reserved": 0, "type": "electric_bike", "bike_id": "a05989392dc01becbcec58bb82ec820e", "is_disabled": 0, "rental_uris": {"android": "https://dc.lft.to/lastmile_qr_scan", "ios": "https://dc.lft.to/lastmile_qr_scan"}, "lon": -77.01108416666666, "fusion_lat": 0.0}, {"name": "ba908e01a13456f0ed3ddacc09556f0a", "fusion_lon": 0.0, "lat": 38.92975166666667, "is_reserved": 0, "type": "electric_scooter", "bike_id": "ba908e01a13456f0ed3ddacc09556f0a", "is_disabled": 0, "rental_uris": {"android": "https://dc.lft.to/lastmile_qr_scan", "ios": "https://dc.lft.to/lastmile_qr_scan"}, "lon": -77.016909, "fusion_lat": 0.0}, {"name": "a752dc4e93e619a23e017e0bb7b21e10", "fusion_lon": 0.0, "lat": 38.91910283333333, "is_reserved": 0, "type": "electric_scooter", "bike_id": "a752dc4e93e619a23e017e0bb7b21e10", "is_disabled": 0, "rental_uris": {"android": "https://dc.lft.to/lastmile_qr_scan", "ios": "https://dc.lft.to/lastmile_qr_scan"}, "lon": -77.01536566666667, "fusion_lat": 0.0}, {"name": "110c00bc1c3f0dccbad680a9b4d3b85d", "fusion_lon": 0.0, "lat": 38.928537666666664, "is_reserved": 0, "type": "electric_scooter", "bike_id": "110c00bc1c3f0dccbad680a9b4d3b85d", "is_disabled": 0, "rental_uris": {"android": "https://dc.lft.to/lastmile_qr_scan", "ios": "https://dc.lft.to/lastmile_qr_scan"}, "lon": -77.0361745, "fusion_lat": 0.0}, {"name": "fd9137c93f1bad068d7547120f08d45d", "fusion_lon": 0.0, "lat": 38.91272583333333, "is_reserved": 0, "type": "electric_scooter", "bike_id": "fd9137c93f1bad068d7547120f08d45d", "is_disabled": 0, "rental_uris": {"android": "https://dc.lft.to/lastmile_qr_scan", "ios": "https://dc.lft.to/lastmile_qr_scan"}, "lon": -77.026922, "fusion_lat": 0.0}, {"name": "3610645c25b5bea906d1348db367b95d", "fusion_lon": 0.0, "lat": 38.91774916666667, "is_reserved": 0, "type": "electric_scooter", "bike_id": "3610645c25b5bea906d1348db367b95d", "is_disabled": 0, "rental_uris": {"android": "https://dc.lft.to/lastmile_qr_scan", "ios": "https://dc.lft.to/lastmile_qr_scan"}, "lon": -77.01472916666667, "fusion_lat": 0.0}, {"name": "67c039474c510f29943749785e596db5", "fusion_lon": 0.0, "lat": 38.90375483333333, "is_reserved": 0, "type": "electric_scooter", "bike_id": "67c039474c510f29943749785e596db5", "is_disabled": 0, "rental_uris": {"android": "https://dc.lft.to/lastmile_qr_scan", "ios": "https://dc.lft.to/lastmile_qr_scan"}, "lon": -76.9377055, "fusion_lat": 0.0}, {"name": "bd6e298dccc91a99e6ba46f65f66735e", "fusion_lon": 0.0, "lat": 38.90156966666667, "is_reserved": 0, "type": "electric_scooter", "bike_id": "bd6e298dccc91a99e6ba46f65f66735e", "is_disabled": 0, "rental_uris": {"android": "https://dc.lft.to/lastmile_qr_scan", "ios": "https://dc.lft.to/lastmile_qr_scan"}, "lon": -76.93060033333333, "fusion_lat": 0.0}, {"name": "1cf6fa00aaadee38900d200f633bada8", "fusion_lon": 0.0, "lat": 38.96449533333333, "is_reserved": 0, "type": "electric_scooter", "bike_id": "1cf6fa00aaadee38900d200f633bada8", "is_disabled": 0, "rental_uris": {"android": "https://dc.lft.to/lastmile_qr_scan", "ios": "https://dc.lft.to/lastmile_qr_scan"}, "lon": -77.07515683333334, "fusion_lat": 0.0}, {"name": "babdb8c318dd390ccf56ee2551add41c", "fusion_lon": 0.0, "lat": 38.90359, "is_reserved": 0, "type": "electric_scooter", "bike_id": "babdb8c318dd390ccf56ee2551add41c", "is_disabled": 0, "rental_uris": {"android": "https://dc.lft.to/lastmile_qr_scan", "ios": "https://dc.lft.to/lastmile_qr_scan"}, "lon": -77.038988, "fusion_lat": 0.0}, {"name": "33fa7545ea740ee521b46b57207a5273", "fusion_lon": 0.0, "lat": 38.92015133333334, "is_reserved": 0, "type": "electric_scooter", "bike_id": "33fa7545ea740ee521b46b57207a5273", "is_disabled": 0, "rental_uris": {"android": "https://dc.lft.to/lastmile_qr_scan", "ios": "https://dc.lft.to/lastmile_qr_scan"}, "lon": -77.01946433333333, "fusion_lat": 0.0}, {"name": "166c11cbaf09a3a71434526018cf9842", "fusion_lon": 0.0, "lat": 39.0629605, "is_reserved": 0, "type": "electric_bike", "bike_id": "166c11cbaf09a3a71434526018cf9842", "is_disabled": 0, "rental_uris": {"android": "https://dc.lft.to/lastmile_qr_scan", "ios": "https://dc.lft.to/lastmile_qr_scan"}, "lon": -77.04981516666666, "fusion_lat": 0.0}, {"name": "94e89c0ab94edd20b96ee28245e99b13", "fusion_lon": 0.0, "lat": 38.90885866666667, "is_reserved": 0, "type": "electric_scooter", "bike_id": "94e89c0ab94edd20b96ee28245e99b13", "is_disabled": 0, "rental_uris": {"android": "https://dc.lft.to/lastmile_qr_scan", "ios": "https://dc.lft.to/lastmile_qr_scan"}, "lon": -77.03753516666667, "fusion_lat": 0.0}, {"name": "9c30b647896596923c803885290d092a", "fusion_lon": 0.0, "lat": 38.905126833333334, "is_reserved": 0, "type": "electric_scooter", "bike_id": "9c30b647896596923c803885290d092a", "is_disabled": 0, "rental_uris": {"android": "https://dc.lft.to/lastmile_qr_scan", "ios": "https://dc.lft.to/lastmile_qr_scan"}, "lon": -77.04788, "fusion_lat": 0.0}, {"name": "f7c12998284c74d2aaa78e4a048491b6", "fusion_lon": 0.0, "lat": 38.918478, "is_reserved": 0, "type": "electric_scooter", "bike_id": "f7c12998284c74d2aaa78e4a048491b6", "is_disabled": 0, "rental_uris": {"android": "https://dc.lft.to/lastmile_qr_scan", "ios": "https://dc.lft.to/lastmile_qr_scan"}, "lon": -77.02199866666666, "fusion_lat": 0.0}, {"name": "e03db4a52db52d4f23206534d3d64ed3", "fusion_lon": 0.0, "lat": 38.90793716666667, "is_reserved": 0, "type": "electric_scooter", "bike_id": "e03db4a52db52d4f23206534d3d64ed3", "is_disabled": 0, "rental_uris": {"android": "https://dc.lft.to/lastmile_qr_scan", "ios": "https://dc.lft.to/lastmile_qr_scan"}, "lon": -77.0110735, "fusion_lat": 0.0}, {"name": "f95c33845636b7f32128519096d003ce", "fusion_lon": 0.0, "lat": 38.911995833333336, "is_reserved": 0, "type": "electric_scooter", "bike_id": "f95c33845636b7f32128519096d003ce", "is_disabled": 0, "rental_uris": {"android": "https://dc.lft.to/lastmile_qr_scan", "ios": "https://dc.lft.to/lastmile_qr_scan"}, "lon": -77.00220916666666, "fusion_lat": 0.0}, {"name": "de2e4b60cde40ca0eb45feefcd5406fb", "fusion_lon": 0.0, "lat": 38.9338665, "is_reserved": 0, "type": "electric_scooter", "bike_id": "de2e4b60cde40ca0eb45feefcd5406fb", "is_disabled": 0, "rental_uris": {"android": "https://dc.lft.to/lastmile_qr_scan", "ios": "https://dc.lft.to/lastmile_qr_scan"}, "lon": -77.03099866666666, "fusion_lat": 0.0},