{"data": {"bikes": [{"rental_uris": {"ios": "https://dc.lft.to/lastmile_qr_scan", "android": "https://dc.lft.to/lastmile_qr_scan"}, "lon": -77.04274316666667, "type": "electric_scooter", "fusion_lat": 0.0, "lat": 38.90809433333333, "name": "8fc0147a11e30b71538869869c1c9051", "fusion_lon": 0.0, "bike_id": "8fc0147a11e30b71538869869c1c9051", "is_disabled": 0, "is_reserved": 0}, {"rental_uris": {"ios": "https://dc.lft.to/lastmile_qr_scan", "android": "https://dc.lft.to/lastmile_qr_scan"}, "lon": -76.97888016666667, "type": "electric_scooter", "fusion_lat": 0.0, "lat": 38.91673183333333, "name": "0a7e6556aa7093486629daaedc96cee3", "fusion_lon": 0.0, "bike_id": "0a7e6556aa7093486629daaedc96cee3", "is_disabled": 0, "is_reserved": 0}, {"rental_uris": {"ios": "https://dc.lft.to/lastmile_qr_scan", "android": "https://dc.lft.to/lastmile_qr_scan"}, "lon": -76.937954, "type": "electric_scooter", "fusion_lat": 0.0, "lat": 38.9128795, "name": "3c1b72b1f7535c8acca8d99e2c194218", "fusion_lon": 0.0, "bike_id": "3c1b72b1f7535c8acca8d99e2c194218", "is_disabled": 0, "is_reserved": 0}, {"rental_uris": {"ios": "https://dc.lft.to/lastmile_qr_scan", "android": "https://dc.lft.to/lastmile_qr_scan"}, "lon": -77.04317933333333, "type": "electric_scooter", "fusion_lat": 0.0, "lat": 38.895888166666666, "name": "449a47d46e5bb00973ffee5be9fb5e47", "fusion_lon": 0.0, "bike_id": "449a47d46e5bb00973ffee5be9fb5e47", "is_disabled": 0, "is_reserved": 0}, {"rental_uris": {"ios": "https://dc.lft.to/lastmile_qr_scan", "android": "https://dc.lft.to/lastmile_qr_scan"}, "lon": -77.02967866666667, "type": "electric_scooter", "fusion_lat": 0.0, "lat": 38.91233866666666, "name": "19b31f09fa8f720094da657e6e957a01", "fusion_lon": 0.0, "bike_id": "19b31f09fa8f720094da657e6e957a01", "is_disabled": 0, "is_reserved": 0}, {"rental_uris": {"ios": "https://dc.lft.to/lastmile_qr_scan", "android": "https://dc.lft.to/lastmile_qr_scan"}, "lon": -77.00849566666666, "type": "electric_scooter", "fusion_lat": 0.0, "lat": 38.92591733333333, "name": "6294cee070178fde4d08298de314b6f1", "fusion_lon": 0.0, "bike_id": "6294cee070178fde4d08298de314b6f1", "is_disabled": 0, "is_reserved": 0}, {"rental_uris": {"ios": "https://dc.lft.to/lastmile_qr_scan", "android": "https://dc.lft.to/lastmile_qr_scan"}, "lon": -77.04963083333334, "type": "electric_scooter", "fusion_lat": 0.0, "lat": 38.8965925, "name": "dc08c6925c6cb324987b9a8bb8430683", "fusion_lon": 0.0, "bike_id": "dc08c6925c6cb324987b9a8bb8430683", "is_disabled": 0, "is_reserved": 0}, {"rental_uris": {"ios": "https://dc.lft.to/lastmile_qr_scan", "android": "https://dc.lft.to/lastmile_qr_scan"}, "lon": -77.0326845, "type": "electric_scooter", "fusion_lat": 0.0, "lat": 38.937334166666666, "name": "432890ef15fecaab4d676e61c2595b4f", "fusion_lon": 0.0, "bike_id": "432890ef15fecaab4d676e61c2595b4f", "is_disabled": 0, "is_reserved": 0}, {"rental_uris": {"ios": "https://dc.lft.to/lastmile_qr_scan", "android": "https://dc.lft.to/lastmile_qr_scan"}, "lon": -77.08360766666667, "type": "electric_scooter", "fusion_lat": 0.0, "lat": 38.93027133333333, "name": "4af009d12e26b8e88cc8e1fa7c22b9a8", "fusion_lon": 0.0, "bike_id": "4af009d12e26b8e88cc8e1fa7c22b9a8", "is_disabled": 0, "is_reserved": 0}, {"rental_uris": {"ios": "https://dc.lft.to/lastmile_qr_scan", "android": "https://dc.lft.to/lastmile_qr_scan"}, "lon": -76.99540733333333, "type": "electric_scooter", "fusion_lat": 0.0, "lat": 38.926651166666666, "name": "ea6985002b3db4634424a456827d285f", "fusion_lon": 0.0, "bike_id": "ea6985002b3db4634424a456827d285f", "is_disabled": 0, "is_reserved": 0}, {"rental_uris": {"ios": "https://dc.lft.to/lastmile_qr_scan", "android": "https://dc.lft.to/lastmile_qr_scan"}, "lon": -77.03086633333334, "type": "electric_scooter", "fusion_lat": 0.0, "lat": 38.93470766666667, "name": "6c7dc4df266bc15cde9199a0387a68f3", "fusion_lon": 0.0, "bike_id": "6c7dc4df266bc15cde9199a0387a68f3", "is_disabled": 0, "is_reserved": 0}, {"rental_uris": {"ios": "https://dc.lft.to/lastmile_qr_scan", "android": "https://dc.lft.to/lastmile_qr_scan"}, "lon": -77.12743583333334, "type": "electric_bike", "fusion_lat": 0.0, "lat": 38.888219, "name": "80722cedca9bc2e11345ec7d98b6c65d", "fusion_lon": 0.0, "bike_id": "80722cedca9bc2e11345ec7d98b6c65d", "is_disabled": 0, "is_reserved": 0}, {"rental_uris": {"ios": "https://dc.lft.to/lastmile_qr_scan", "android": "https://dc.lft.to/lastmile_qr_scan"}, "lon": -76.98767533333333, "type": "electric_scooter", "fusion_lat": 0.0, "lat": 38.91170366666667, "name": "fea64713585c1ebe78b9f676b28348fd", "fusion_lon": 0.0, "bike_id": "fea64713585c1ebe78b9f676b28348fd", "is_disabled": 0, "is_reserved": 0}, {"rental_uris": {"ios": "https://dc.lft.to/lastmile_qr_scan", "android": "https://dc.lft.to/lastmile_qr_scan"}, "lon": -77.048123, "type": "electric_scooter", "fusion_lat": 0.0, "lat": 38.896261833333334, "name": "2a1e6cf37b75544b98d8fa6acff900f5", "fusion_lon": 0.0, "bike_id": "2a1e6cf37b75544b98d8fa6acff900f5", "is_disabled": 0, "is_reserved": 0}, {"rental_uris": {"ios": "https://dc.lft.to/lastmile_qr_scan", "android": "https://dc.lft.to/lastmile_qr_scan"}, "lon": -77.017543, "type": "electric_scooter", "fusion_lat": 0.0, "lat": 38.938953833333336, "name": "78a312dcc6a961a7920af89c4ac1d75b", "fusion_lon": 0.0, "bike_id": "78a312dcc6a961a7920af89c4ac1d75b", "is_disabled": 0, "is_reserved": 0}, {"rental_uris": {"ios": "https://dc.lft.to/lastmile_qr_scan", "android": "https://dc.lft.to/lastmile_qr_scan"}, "lon": -77.02895133333334, "type": "electric_scooter", "fusion_lat": 0.0, "lat": 38.903621666666666, "name": "4817cade27cf281428751f40b6319285", "fusion_lon": 0.0, "bike_id": "4817cade27cf281428751f40b6319285", "is_disabled": 0, "is_reserved": 0}, {"rental_uris": {"ios": "https://dc.lft.to/lastmile_qr_scan", "android": "https://dc.lft.to/lastmile_qr_scan"}, "lon": -77.12731466666666, "type": "electric_bike", "fusion_lat": 0.0, "lat": 38.895619833333335, "name": "3bdebc44941cc8f619bbd7178c6f1065", "fusion_lon": 0.0, "bike_id": "3bdebc44941cc8f619bbd7178c6f1065", "is_disabled": 0, "is_reserved": 0}, {"rental_uris": {"ios": "https://dc.lft.to/lastmile_qr_scan", "android": "https://dc.lft.to/lastmile_qr_scan"}, "lon": -77.0097175, "type": "electric_scooter", "fusion_lat": 0.0, "lat": 38.914159, "name": "c2ea9a37f0ee4e9634b8a5733c1cd205", "fusion_lon": 0.0, "bike_id": "c2ea9a37f0ee4e9634b8a5733c1cd205", "is_disabled": 0, "is_reserved": 0}, {"rental_uris": {"ios": "https://dc.lft.to/lastmile_qr_scan", "android": "https://dc.lft.to/lastmile_qr_scan"}, "lon": -76.94861966666667, "type": "electric_scooter", "fusion_lat": 0.0, "lat": 38.895926, "name": "c19729067e7842a4f4d0fc7a1fb4bb95", "fusion_lon": 0.0, "bike_id": "c19729067e7842a4f4d0fc7a1fb4bb95", "is_disabled": 0, "is_reserved": 0}, {"rental_uris": {"ios": "https://dc.lft.to/lastmile_qr_scan", "android": "https://dc.lft.to/lastmile_qr_scan"}, "lon": -77.0280465, "type": "electric_scooter", "fusion_lat": 0.0, "lat": 38.910628333333335, "name": "d38fed3cff48bcb690153a16188ad11a", "fusion_lon": 0.0, "bike_id": "d38fed3cff48bcb690153a16188ad11a", "is_disabled": 0, "is_reserved": 0}, {"rental_uris": {"ios": "https://dc.lft.to/lastmile_qr_scan", "android": "https://dc.lft.to/lastmile_qr_scan"}, "lon": -77.01069333333334, "type": "electric_bike", "fusion_lat": 0.0, "lat": 38.919158833333334, "name": "61d422b0c4a8f1aa533b467bfb7780e6", "fusion_lon": 0.0, "bike_id": "61d422b0c4a8f1aa533b467bfb7780e6", "is_disabled": 0, "is_reserved": 0}, {"rental_uris": {"ios": "https://dc.lft.to/lastmile_qr_scan", "android": "https://dc.lft.to/lastmile_qr_scan"}, "lon": -76.916505, "type": "electric_bike", "fusion_lat": 0.0, "lat": 38.86857883333333, "name": "9679e462b70afc684db5188b7d324b52", "fusion_lon": 0.0, "bike_id": "9679e462b70afc684db5188b7d324b52", "is_disabled": 0, "is_reserved": 0}, {"rental_uris": {"ios": "https://dc.lft.to/lastmile_qr_scan", "android": "https://dc.lft.to/lastmile_qr_scan"}, "lon": -77.027182, "type": "electric_scooter", "fusion_lat": 0.0, "lat": 38.906870833333336, "name": "c5eb9813ea128071038c06eeb6fdca63", "fusion_lon": 0.0, "bike_id": "c5eb9813ea128071038c06eeb6fdca63", "is_disabled": 0, "is_reserved": 0}, {"rental_uris": {"ios": "https://dc.lft.to/lastmile_qr_scan", "android": "https://dc.lft.to/lastmile_qr_scan"}, "lon": -77.02709066666667, "type": "electric_scooter", "fusion_lat": 0.0, "lat": 38.90906016666667, "name": "31a3cfdc2f4d347f0e9e476a7f28590f", "fusion_lon": 0.0, "bike_id": "31a3cfdc2f4d347f0e9e476a7f28590f", "is_disabled": 0, "is_reserved": 0}, {"rental_uris": {"ios": "https://dc.lft.to/lastmile_qr_scan", "android": "https://dc.lft.to/lastmile_qr_scan"}, "lon": -76.99006616666667, "type": "electric_scooter", "fusion_lat": 0.0, "lat": 38.90390083333333, "name": "7e50d329e71a7371ee65375a3a2de721", "fusion_lon": 0.0, "bike_id": "7e50d329e71a7371ee65375a3a2de721", "is_disabled": 0, "is_reserved": 0}, {"rental_uris": {"ios": "https://dc.lft.to/lastmile_qr_scan", "android": "https://dc.lft.to/lastmile_qr_scan"}, "lon": -77.01068916666667, "type": "electric_scooter", "fusion_lat": 0.0, "lat": 38.8747595, "name": "cd8da863c4d53ef7aff7fc1627082954", "fusion_lon": 0.0, "bike_id": "cd8da863c4d53ef7aff7fc1627082954", "is_disabled": 0, "is_reserved": 0}, {"rental_uris": {"ios": "https://dc.lft.to/lastmile_qr_scan", "android": "https://dc.lft.to/lastmile_qr_scan"}, "lon": -77.02200816666667, "type": "electric_scooter", "fusion_lat": 0.0, "lat": 38.914273333333334, "name": "ca4323d49c8628e0607cb974b7c18b5a", "fusion_lon": 0.0, "bike_id": "ca4323d49c8628e0607cb974b7c18b5a", "is_disabled": 0, "is_reserved": 0}, {"rental_uris": {"ios": "https://dc.lft.to/lastmile_qr_scan", "android": "https://dc.lft.to/lastmile_qr_scan"}, "lon": -76.980069, "type": "electric_bike", "fusion_lat": 0.0, "lat": 38.86279966666667, "name": "8978b2042117e48dcb7cc0d47f5e8dbf", "fusion_lon": 0.0, "bike_id": "8978b2042117e48dcb7cc0d47f5e8dbf", "is_disabled": 0, "is_reserved": 0}, {"rental_uris": {"ios": "https://dc.lft.to/lastmile_qr_scan", "android": "https://dc.lft.to/lastmile_qr_scan"}, "lon": -77.07241, "type": "electric_scooter", "fusion_lat": 0.0, "lat": 38.9339025, "name": "8de88bd063175af5840ee2789d9525cf", "fusion_lon": 0.0, "bike_id": "8de88bd063175af5840ee2789d9525cf", "is_disabled": 0, "is_reserved": 0}, {"rental_uris": {"ios": "https://dc.lft.to/lastmile_qr_scan", "android": "https://dc.lft.to/lastmile_qr_scan"}, "lon": -76.93097666666667, "type": "electric_scooter", "fusion_lat": 0.0, "lat": 38.90140066666667, "name": "60f75b096e5191d88c1ca1f3ce361a54", "fusion_lon": 0.0, "bike_id": "60f75b096e5191d88c1ca1f3ce361a54", "is_disabled": 0, "is_reserved": 0}, {"rental_uris": {"ios": "https://dc.lft.to/lastmile_qr_scan", "android": "https://dc.lft.to/lastmile_qr_scan"}, "lon": -77.05347983333333, "type": "electric_scooter", "fusion_lat": 0.0, "lat": 38.902661, "name": "f83c827d5e08b704cae7c48d1e003ba6", "fusion_lon": 0.0, "bike_id": "f83c827d5e08b704cae7c48d1e003ba6", "is_disabled": 0, "is_reserved": 0}, {"rental_uris": {"ios": "https://dc.lft.to/lastmile_qr_scan", "android": "https://dc.lft.to/lastmile_qr_scan"}, "lon": -77.021832, "type": "electric_bike", "fusion_lat": 0.0, "lat": 38.91508433333333, "name": "30231d08df661372cb5777e91cd0b2a3", "fusion_lon": 0.0, "bike_id": "30231d08df661372cb5777e91cd0b2a3", "is_disabled": 0, "is_reserved": 0}, {"rental_uris": {"ios": "https://dc.lft.to/lastmile_qr_scan", "android": "https://dc.lft.to/lastmile_qr_scan"}, "lon": -76.98553366666667, "type": "electric_scooter", "fusion_lat": 0.0, "lat": 38.897658666666665, "name": "1606973af0b6645b2ccc10f504882c4a", "fusion_lon": 0.0, "bike_id": "1606973af0b6645b2ccc10f504882c4a", "is_disabled": 0, "is_reserved": 0}, {"rental_uris": {"ios": "https://dc.lft.to/lastmile_qr_scan", "android": "https://dc.lft.to/lastmile_qr_scan"}, "lon": -77.02417383333334, "type": "electric_scooter", "fusion_lat": 0.0, "lat": 38.91109133333333, "name": "ca55fab268521c489f3b0209bbae3f26", "fusion_lon": 0.0, "bike_id": "ca55fab268521c489f3b0209bbae3f26", "is_disabled": 0, "is_reserved": 0}, {"rental_uris": {"ios": "https://dc.lft.to/lastmile_qr_scan", "android": "https://dc.lft.to/lastmile_qr_scan"}, "lon": -76.9652745, "type": "electric_scooter", "fusion_lat": 0.0, "lat": 38.876269666666666, "name": "edf5231811f63870300fc2186eecead0", "fusion_lon": 0.0, "bike_id": "edf5231811f63870300fc2186eecead0", "is_disabled": 0, "is_reserved": 0}, {"rental_uris": {"ios": "https://dc.lft.to/lastmile_qr_scan", "android": "https://dc.lft.to/lastmile_qr_scan"}, "lon": -76.94760416666666, "type": "electric_scooter", "fusion_lat": 0.0, "lat": 38.900603833333335, "name": "c6f9a6f133da8042ccf10e07f5edf7f2", "fusion_lon": 0.0, "bike_id": "c6f9a6f133da8042ccf10e07f5edf7f2", "is_disabled": 0, "is_reserved": 0}, {"rental_uris": {"ios": "https://dc.lft.to/lastmile_qr_scan", "android": "https://dc.lft.to/lastmile_qr_scan"}, "lon": -77.04484483333333, "type": "electric_bike", "fusion_lat": 0.0, "lat": 38.91290033333333, "name": "11b14b8327e17b10578305106c260ae3", "fusion_lon": 0.0, "bike_id": "11b14b8327e17b10578305106c260ae3", "is_disabled": 0, "is_reserved": 0}, {"rental_uris": {"ios": "https://dc.lft.to/lastmile_qr_scan", "android": "https://dc.lft.to/lastmile_qr_scan"}, "lon": -77.02785033333333, "type": "electric_scooter", "fusion_lat": 0.0, "lat": 38.918100833333334, "name": "8005fb9dca5ba144fcac0822b33a1402", "fusion_lon": 0.0, "bike_id": "8005fb9dca5ba144fcac0822b33a1402", "is_disabled": 0, "is_reserved": 0}, {"rental_uris": {"ios": "https://dc.lft.to/lastmile_qr_scan", "android": "https://dc.lft.to/lastmile_qr_scan"}, "lon": -77.0216685, "type": "electric_scooter", "fusion_lat": 0.0, "lat": 38.919788, "name": "00e96681bb15d5fe71cf3a79423aebd6", "fusion_lon": 0.0, "bike_id": "00e96681bb15d5fe71cf3a79423aebd6", "is_disabled": 0, "is_reserved": 0}, {"rental_uris": {"ios": "https://dc.lft.to/lastmile_qr_scan", "android": "https://dc.lft.to/lastmile_qr_scan"}, "lon": -77.031137, "type": "electric_bike", "fusion_lat": 0.0, "lat": 38.904686833333336, "name": "f03adf6ba534b8b37cd19c4031f494ad", "fusion_lon": 0.0, "bike_id": "f03adf6ba534b8b37cd19c4031f494ad", "is_disabled": 0, "is_reserved": 0}, {"rental_uris": {"ios": "https://dc.lft.to/lastmile_qr_scan", "android": "https://dc.lft.to/lastmile_qr_scan"}, "lon": -77.01105783333334, "type": "electric_scooter", "fusion_lat": 0.0, "lat": 38.90360116666667, "name": "6c8e7d856e0010293efbcfd1af9dd982", "fusion_lon": 0.0, "bike_id": "6c8e7d856e0010293efbcfd1af9dd982", "is_disabled": 0, "is_reserved": 0}, {"rental_uris": {"ios": "https://dc.lft.to/lastmile_qr_scan", "android": "https://dc.lft.to/lastmile_qr_scan"}, "lon": -76.941801, "type": "electric_scooter", "fusion_lat": 0.0, "lat": 38.882213, "name": "ce088485a1d74035a02b5b4ba143fe2b", "fusion_lon": 0.0, "bike_id": "ce088485a1d74035a02b5b4ba143fe2b", "is_disabled": 0, "is_reserved": 0}, {"rental_uris": {"ios": "https://dc.lft.to/lastmile_qr_scan", "android": "https://dc.lft.to/lastmile_qr_scan"}, "lon": -77.03615816666667, "type": "electric_scooter", "fusion_lat": 0.0, "lat": 38.932587, "name": "8c03067cc40c565ceb2ad25618f77061", "fusion_lon": 0.0, "bike_id": "8c03067cc40c565ceb2ad25618f77061", "is_disabled": 0, "is_reserved": 0}, {"rental_uris": {"ios": "https://dc.lft.to/lastmile_qr_scan", "android": "https://dc.lft.to/lastmile_qr_scan"}, "lon": -76.9552485, "type": "electric_scooter", "fusion_lat": 0.0, "lat": 38.88778766666667, "name": "ce842be1e5a4282f147c43660b8cf052", "fusion_lon": 0.0, "bike_id": "ce842be1e5a4282f147c43660b8cf052", "is_disabled": 0, "is_reserved": 0}, {"rental_uris": {"ios": "https://dc.lft.to/lastmile_qr_scan", "android": "https://dc.lft.to/lastmile_qr_scan"}, "lon": -77.046555, "type": "electric_scooter", "fusion_lat": 0.0, "lat": 38.905604333333336, "name": "fd3317c947562f011c269ce44a520f49", "fusion_lon": 0.0, "bike_id": "fd3317c947562f011c269ce44a520f49", "is_disabled": 0, "is_reserved": 0}, {"rental_uris": {"ios": "https://dc.lft.to/lastmile_qr_scan", "android": "https://dc.lft.to/lastmile_qr_scan"}, "lon": -77.03752866666666, "type": "electric_scooter", "fusion_lat": 0.0, "lat": 38.928963333333336, "name": "a610c5ee3d5c4bb36fd22f2de77b0e33", "fusion_lon": 0.0, "bike_id": "a610c5ee3d5c4bb36fd22f2de77b0e33", "is_disabled": 0, "is_reserved": 0}, {"rental_uris": {"ios": "https://dc.lft.to/lastmile_qr_scan", "android": "https://dc.lft.to/lastmile_qr_scan"}, "lon": -77.05479133333333, "type": "electric_scooter", "fusion_lat": 0.0, "lat": 38.92112233333334, "name": "5f462a12019949d3749dd6b7f9279dc7", "fusion_lon": 0.0, "bike_id": "5f462a12019949d3749dd6b7f9279dc7", "is_disabled": 0, "is_reserved": 0}, {"rental_uris": {"ios": "https://dc.lft.to/lastmile_qr_scan", "android": "https://dc.lft.to/lastmile_qr_scan"}, "lon": -77.06008683333333, "type": "electric_scooter", "fusion_lat": 0.0, "lat": 38.91265533333333, "name": "3bc21405f0ac8780ff8432bd6dd41fc9", "fusion_lon": 0.0, "bike_id": "3bc21405f0ac8780ff8432bd6dd41fc9", "is_disabled": 0, "is_reserved": 0}, {"rental_uris": {"ios": "https://dc.lft.to/lastmile_qr_scan", "android": "https://dc.lft.to/lastmile_qr_scan"}, "lon": -76.98711966666667, "type": "electric_scooter", "fusion_lat": 0.0, "lat": 38.862627833333335, "name": "dd285100b6154c344a5a7d542f717f13", "fusion_lon": 0.0, "bike_id": "dd285100b6154c344a5a7d542f717f13", "is_disabled": 0, "is_reserved": 0}, {"rental_uris": {"ios": "https://dc.lft.to/lastmile_qr_scan", "android": "https://dc.lft.to/lastmile_qr_scan"}, "lon": -77.11523133333333, "type": "electric_bike", "fusion_lat": 0.0, "lat": 38.8549175, "name": "f5177f9fa786f871288f9669f2353334", "fusion_lon": 0.0, "bike_id": "f5177f9fa786f871288f9669f2353334", "is_disabled": 0, "is_reserved": 0}, {"rental_uris": {"ios": "https://dc.lft.to/lastmile_qr_scan", "android": "https://dc.lft.to/lastmile_qr_scan"}, "lon": -77.011041, "type": "electric_scooter", "fusion_lat": 0.0, "lat": 38.911619, "name": "1738f07007bfbbee88898dd8aed6c6c3", "fusion_lon": 0.0, "bike_id": "1738f07007bfbbee88898dd8aed6c6c3", "is_disabled": 0, "is_reserved": 0}, {"rental_uris": {"ios": "https://dc.lft.to/lastmile_qr_scan", "android": "https://dc.lft.to/lastmile_qr_scan"}, "lon": -77.017804, "type": "electric_scooter", "fusion_lat": 0.0, "lat": 38.90401766666667, "name": "1c33323e2c9809de89786168136b8871", "fusion_lon": 0.0, "bike_id": "1c33323e2c9809de89786168136b8871", "is_disabled": 0, "is_reserved": 0}, {"rental_uris": {"ios": "https://dc.lft.to/lastmile_qr_scan", "android": "https://dc.lft.to/lastmile_qr_scan"}, "lon": -76.9925605, "type": "electric_scooter", "fusion_lat": 0.0, "lat": 38.919689166666664, "name": "ade6046bf6fea820c9ca7e750575102f", "fusion_lon": 0.0, "bike_id": "ade6046bf6fea820c9ca7e750575102f", "is_disabled": 0, "is_reserved": 0}, {"rental_uris": {"ios": "https://dc.lft.to/lastmile_qr_scan", "android": "https://dc.lft.to/lastmile_qr_scan"}, "lon": -77.04800433333334, "type": "electric_scooter", "fusion_lat": 0.0, "lat": 38.91645033333333, "name": "6989af6293e8644b7c479c9db2e80fc5", "fusion_lon": 0.0, "bike_id": "6989af6293e8644b7c479c9db2e80fc5", "is_disabled": 0, "is_reserved": 0}, {"rental_uris": {"ios": "https://dc.lft.to/lastmile_qr_scan", "android": "https://dc.lft.to/lastmile_qr_scan"}, "lon": -77.02381966666667, "type": "electric_scooter", "fusion_lat": 0.0, "lat": 38.93765916666667, "name": "c30e94a4367f8e8591a8c86b564d6ec3", "fusion_lon": 0.0, "bike_id": "c30e94a4367f8e8591a8c86b564d6ec3", "is_disabled": 0, "is_reserved": 0}, {"rental_uris": {"ios": "https://dc.lft.to/lastmile_qr_scan", "android": "https://dc.lft.to/lastmile_qr_scan"}, "lon": -77.05741733333333, "type": "electric_scooter", "fusion_lat": 0.0, "lat": 38.933961833333335, "name": "c45e393ec4fe9d1465ae88b94e6042be", "fusion_lon": 0.0, "bike_id": "c45e393ec4fe9d1465ae88b94e6042be", "is_disabled": 0, "is_reserved": 0}, {"rental_uris": {"ios": "https://dc.lft.to/lastmile_qr_scan", "android": "https://dc.lft.to/lastmile_qr_scan"}, "lon": -77.01211833333333, "type": "electric_scooter", "fusion_lat": 0.0, "lat": 38.92119733333333, "name": "fc1f582eaba2752efc9bfab0750fa68d", "fusion_lon": 0.0, "bike_id": "fc1f582eaba2752efc9bfab0750fa68d", "is_disabled": 0, "is_reserved": 0}, {"rental_uris": {"ios": "https://dc.lft.to/lastmile_qr_scan", "android": "https://dc.lft.to/lastmile_qr_scan"}, "lon": -77.0318375, "type": "electric_scooter", "fusion_lat": 0.0, "lat": 38.91488066666667, "name": "9482b229f1cfb944696561e485ea5185", "fusion_lon": 0.0, "bike_id": "9482b229f1cfb944696561e485ea5185", "is_disabled": 0, "is_reserved": 0}, {"rental_uris": {"ios": "https://dc.lft.to/lastmile_qr_scan", "android": "https://dc.lft.to/lastmile_qr_scan"}, "lon": -77.041644, "type": "electric_scooter", "fusion_lat": 0.0, "lat": 38.91985116666667, "name": "e27db0a12e64e30b460b2bb11ec60a16", "fusion_lon": 0.0, "bike_id": "e27db0a12e64e30b460b2bb11ec60a16", "is_disabled": 0, "is_reserved": 0}, {"rental_uris": {"ios": "https://dc.lft.to/lastmile_qr_scan", "android": "https://dc.lft.to/lastmile_qr_scan"}, "lon": -77.03216233333333, "type": "electric_scooter", "fusion_lat": 0.0, "lat": 38.885574166666665, "name": "53aecbb1d31f913fa81935987fe613f3", "fusion_lon": 0.0, "bike_id": "53aecbb1d31f913fa81935987fe613f3", "is_disabled": 0, "is_reserved": 0}, {"rental_uris": {"ios": "https://dc.lft.to/lastmile_qr_scan", "android": "https://dc.lft.to/lastmile_qr_scan"}, "lon": -77.0237085, "type": "electric_scooter", "fusion_lat": 0.0, "lat": 38.90305033333333, "name": "5fa82816af13a76ba2f70105320d2316", "fusion_lon": 0.0, "bike_id": "5fa82816af13a76ba2f70105320d2316", "is_disabled": 0, "is_reserved": 0}, {"rental_uris": {"ios": "https://dc.lft.to/lastmile_qr_scan", "android": "https://dc.lft.to/lastmile_qr_scan"}, "lon": -77.00626066666666, "type": "electric_scooter", "fusion_lat": 0.0, "lat": 38.82928616666667, "name": "9b394613ae612abe1f0f24339f4d2fb3", "fusion_lon": 0.0, "bike_id": "9b394613ae612abe1f0f24339f4d2fb3", "is_disabled": 0, "is_reserved": 0}, {"rental_uris": {"ios": "https://dc.lft.to/lastmile_qr_scan", "android": "https://dc.lft.to/lastmile_qr_scan"}, "lon": -77.01929233333334, "type": "electric_scooter", "fusion_lat": 0.0, "lat": 38.956867833333334, "name": "02be039c1bd1b3b1617f2b551d815c9a", "fusion_lon": 0.0, "bike_id": "02be039c1bd1b3b1617f2b551d815c9a", "is_disabled": 0, "is_reserved": 0}, {"rental_uris": {"ios": "https://dc.lft.to/lastmile_qr_scan", "android": "https://dc.lft.to/lastmile_qr_scan"}, "lon": -76.98999266666667, "type": "electric_scooter", "fusion_lat": 0.0, "lat": 38.8650235, "name": "3393208845361a7e1371ea1a36d0d3ba", "fusion_lon": 0.0, "bike_id": "3393208845361a7e1371ea1a36d0d3ba", "is_disabled": 0, "is_reserved": 0}, {"rental_uris": {"ios": "https://dc.lft.to/lastmile_qr_scan", "android": "https://dc.lft.to/lastmile_qr_scan"}, "lon": -77.035964, "type": "electric_scooter", "fusion_lat": 0.0, "lat": 38.90687066666667, "name": "6b2dc793f2bef27e9697f662dac93c48", "fusion_lon": 0.0, "bike_id": "6b2dc793f2bef27e9697f662dac93c48", "is_disabled": 0, "is_reserved": 0}, {"rental_uris": {"ios": "https://dc.lft.to/lastmile_qr_scan", "android": "https://dc.lft.to/lastmile_qr_scan"}, "lon": -77.0279025, "type": "electric_scooter", "fusion_lat": 0.0, "lat": 38.930860333333335, "name": "1e9055faa04707fe6cd17af4472f02a6", "fusion_lon": 0.0, "bike_id": "1e9055faa04707fe6cd17af4472f02a6", "is_disabled": 0, "is_reserved": 0}, {"rental_uris": {"ios": "https://dc.lft.to/lastmile_qr_scan", "android": "https://dc.lft.to/lastmile_qr_scan"}, "lon": -77.03062383333334, "type": "electric_scooter", "fusion_lat": 0.0, "lat": 38.894810666666665, "name": "038632e43b3f49b21d9242179ac47273", "fusion_lon": 0.0, "bike_id": "038632e43b3f49b21d9242179ac47273", "is_disabled": 0, "is_reserved": 0}, {"rental_uris": {"ios": "https://dc.lft.to/lastmile_qr_scan", "android": "https://dc.lft.to/lastmile_qr_scan"}, "lon": -77.01109633333333, "type": "electric_scooter", "fusion_lat": 0.0, "lat": 38.907862, "name": "07e0c398857bb3f053b9dc275c733481", "fusion_lon": 0.0, "bike_id": "07e0c398857bb3f053b9dc275c733481", "is_disabled": 0, "is_reserved": 0}, {"rental_uris": {"ios": "https://dc.lft.to/lastmile_qr_scan", "android": "https://dc.lft.to/lastmile_qr_scan"}, "lon": -76.9861285, "type": "electric_scooter", "fusion_lat": 0.0, "lat": 38.86828416666667, "name": "824c64d5e7c66d2c9f237d4b10c693e2", "fusion_lon": 0.0, "bike_id": "824c64d5e7c66d2c9f237d4b10c693e2", "is_disabled": 0, "is_reserved": 0}, {"rental_uris": {"ios": "https://dc.lft.to/lastmile_qr_scan", "android": "https://dc.lft.to/lastmile_qr_scan"}, "lon": -77.07183566666667, "type": "electric_scooter", "fusion_lat": 0.0, "lat": 38.9207485, "name": "7db4fca41b56f29d9dbd55d7fca274c3", "fusion_lon": 0.0, "bike_id": "7db4fca41b56f29d9dbd55d7fca274c3", "is_disabled": 0, "is_reserved": 0}, {"rental_uris": {"ios": "https://dc.lft.to/lastmile_qr_scan", "android": "https://dc.lft.to/lastmile_qr_scan"}, "lon": -76.98718066666666, "type": "electric_scooter", "fusion_lat": 0.0, "lat": 38.8626665, "name": "06d64f481118a00a0a18d433a57cc09f", "fusion_lon": 0.0, "bike_id": "06d64f481118a00a0a18d433a57cc09f", "is_disabled": 0, "is_reserved": 0}, {"rental_uris": {"ios": "https://dc.lft.to/lastmile_qr_scan", "android": "https://dc.lft.to/lastmile_qr_scan"}, "lon": -77.04119383333334, "type": "electric_scooter", "fusion_lat": 0.0, "lat": 38.90616816666667, "name": "68faad0d4289434c9469175d364cb462", "fusion_lon": 0.0, "bike_id": "68faad0d4289434c9469175d364cb462", "is_disabled": 0, "is_reserved": 0}, {"rental_uris": {"ios": "https://dc.lft.to/lastmile_qr_scan", "android": "https://dc.lft.to/lastmile_qr_scan"}, "lon": -77.01257866666667, "type": "electric_scooter", "fusion_lat": 0.0, "lat": 38.899721666666665, "name": "969bb7580f267ad11075b9c8560aed38", "fusion_lon": 0.0, "bike_id": "969bb7580f267ad11075b9c8560aed38", "is_disabled": 0, "is_reserved": 0}, {"rental_uris": {"ios": "https://dc.lft.to/lastmile_qr_scan", "android": "https://dc.lft.to/lastmile_qr_scan"}, "lon": -77.0417815, "type": "electric_scooter", "fusion_lat": 0.0, "lat": 38.9005255, "name": "8a83a6e714a7925fb2ce44529f8eca98", "fusion_lon": 0.0, "bike_id": "8a83a6e714a7925fb2ce44529f8eca98", "is_disabled": 0, "is_reserved": 0}, {"rental_uris": {"ios": "https://dc.lft.to/lastmile_qr_scan", "android": "https://dc.lft.to/lastmile_qr_scan"}, "lon": -77.03340133333333, "type": "electric_scooter", "fusion_lat": 0.0, "lat": 38.919165166666666, "name": "5a664922333b205068266885f319d229", "fusion_lon": 0.0, "bike_id": "5a664922333b205068266885f319d229", "is_disabled": 0, "is_reserved": 0}, {"rental_uris": {"ios": "https://dc.lft.to/lastmile_qr_scan", "android": "https://dc.lft.to/lastmile_qr_scan"}, "lon": -77.13594916666666, "type": "electric_bike", "fusion_lat": 0.0, "lat": 39.053458, "name": "81e66f10a7e23a56210ae555ac78af4b", "fusion_lon": 0.0, "bike_id": "81e66f10a7e23a56210ae555ac78af4b", "is_disabled": 0, "is_reserved": 0}, {"rental_uris": {"ios": "https://dc.lft.to/lastmile_qr_scan", "android": "https://dc.lft.to/lastmile_qr_scan"}, "lon": -77.078788, "type": "electric_scooter", "fusion_lat": 0.0, "lat": 38.92550033333333, "name": "7afda68ac01cf7d732ad133e055a7053", "fusion_lon": 0.0, "bike_id": "7afda68ac01cf7d732ad133e055a7053", "is_disabled": 0, "is_reserved": 0}, {"rental_uris": {"ios": "https://dc.lft.to/lastmile_qr_scan", "android": "https://dc.lft.to/lastmile_qr_scan"}, "lon": -77.0024645, "type": "electric_scooter", "fusion_lat": 0.0, "lat": 38.919232, "name": "cb299b32fbdd2278bb370438fffccc02", "fusion_lon": 0.0, "bike_id": "cb299b32fbdd2278bb370438fffccc02", "is_disabled": 0, "is_reserved": 0}, {"rental_uris": {"ios": "https://dc.lft.to/lastmile_qr_scan", "android": "https://dc.lft.to/lastmile_qr_scan"}, "lon": -77.04222616666667, "type": "electric_scooter", "fusion_lat": 0.0, "lat": 38.92110916666667, "name": "d713e3876678969f0660eae0f797d029", "fusion_lon": 0.0, "bike_id": "d713e3876678969f0660eae0f797d029", "is_disabled": 0, "is_reserved": 0}, {"rental_uris": {"ios": "https://dc.lft.to/lastmile_qr_scan", "android": "https://dc.lft.to/lastmile_qr_scan"}, "lon": -77.0239275, "type": "electric_scooter", "fusion_lat": 0.0, "lat": 38.9376715, "name": "a9175b5bcb9073279978eb1d1561e23a", "fusion_lon": 0.0, "bike_id": "a9175b5bcb9073279978eb1d1561e23a", "is_disabled": 0, "is_reserved": 0}, {"rental_uris": {"ios": "https://dc.lft.to/lastmile_qr_scan", "android": "https://dc.lft.to/lastmile_qr_scan"}, "lon": -76.99382916666667, "type": "electric_scooter", "fusion_lat": 0.0, "lat": 38.887466333333336, "name": "307de574acfa6de4c4ce3ccf0e43978d", "fusion_lon": 0.0, "bike_id": "307de574acfa6de4c4ce3ccf0e43978d", "is_disabled": 0, "is_reserved": 0}, {"rental_uris": {"ios": "https://dc.lft.to/lastmile_qr_scan", "android": "https://dc.lft.to/lastmile_qr_scan"}, "lon": -76.94420516666666, "type": "electric_scooter", "fusion_lat": 0.0, "lat": 38.897925, "name": "ddfeebd10e1794ce460694590d11058f", "fusion_lon": 0.0, "bike_id": "ddfeebd10e1794ce460694590d11058f", "is_disabled": 0, "is_reserved": 0}, {"rental_uris": {"ios": "https://dc.lft.to/lastmile_qr_scan", "android": "https://dc.lft.to/lastmile_qr_scan"}, "lon": -76.983386, "type": "electric_scooter", "fusion_lat": 0.0, "lat": 38.915367833333335, "name": "38da94e44391c419d7e6ebbc8572f142", "fusion_lon": 0.0, "bike_id": "38da94e44391c419d7e6ebbc8572f142", "is_disabled": 0, "is_reserved": 0}, {"rental_uris": {"ios": "https://dc.lft.to/lastmile_qr_scan", "android": "https://dc.lft.to/lastmile_qr_scan"}, "lon": -77.0157975, "type": "electric_scooter", "fusion_lat": 0.0, "lat": 38.913570666666665, "name": "4b02cbb8edfd993ba89310560d33f709", "fusion_lon": 0.0, "bike_id": "4b02cbb8edfd993ba89310560d33f709", "is_disabled": 0, "is_reserved": 0}, {"rental_uris": {"ios": "https://dc.lft.to/lastmile_qr_scan", "android": "https://dc.lft.to/lastmile_qr_scan"}, "lon": -77.04175466666666, "type": "electric_scooter", "fusion_lat": 0.0, "lat": 38.9198555, "name": "891e8a14e6e4918dde652e4d336635a0", "fusion_lon": 0.0, "bike_id": "891e8a14e6e4918dde652e4d336635a0", "is_disabled": 0, "is_reserved": 0}, {"rental_uris": {"ios": "https://dc.lft.to/lastmile_qr_scan", "android": "https://dc.lft.to/lastmile_qr_scan"}, "lon": -77.03442983333333, "type": "electric_scooter", "fusion_lat": 0.0, "lat": 38.918777666666664, "name": "5f99cb55a79e03a2e845310170e1277a", "fusion_lon": 0.0, "bike_id": "5f99cb55a79e03a2e845310170e1277a", "is_disabled": 0, "is_reserved": 0}, {"rental_uris": {"ios": "https://dc.lft.to/lastmile_qr_scan", "android": "https://dc.lft.to/lastmile_qr_scan"}, "lon": -77.0648935, "type": "electric_bike", "fusion_lat": 0.0, "lat": 38.964935833333335, "name": "3270df7306336245ac09f500a055fb02", "fusion_lon": 0.0, "bike_id": "3270df7306336245ac09f500a055fb02", "is_disabled": 0, "is_reserved": 0}, {"rental_uris": {"ios": "https://dc.lft.to/lastmile_qr_scan", "android": "https://dc.lft.to/lastmile_qr_scan"}, "lon": -77.03129616666666, "type": "electric_scooter", "fusion_lat": 0.0, "lat": 38.92373533333333, "name": "8a11c7296b71c4dff5d4d0aa02a9d2a0", "fusion_lon": 0.0, "bike_id": "8a11c7296b71c4dff5d4d0aa02a9d2a0", "is_disabled": 0, "is_reserved": 0}, {"rental_uris": {"ios": "https://dc.lft.to/lastmile_qr_scan", "android": "https://dc.lft.to/lastmile_qr_scan"}, "lon": -77.000513, "type": "electric_scooter", "fusion_lat": 0.0, "lat": 38.9058725, "name": "7a6061883f98d7670320fcc9b0461502", "fusion_lon": 0.0, "bike_id": "7a6061883f98d7670320fcc9b0461502", "is_disabled": 0, "is_reserved": 0}, {"rental_uris": {"ios": "https://dc.lft.to/lastmile_qr_scan", "android": "https://dc.lft.to/lastmile_qr_scan"}, "lon": -77.0345555, "type": "electric_scooter", "fusion_lat": 0.0, "lat": 38.918216, "name": "5c847eb4ae0e707f5da4227560682f94", "fusion_lon": 0.0, "bike_id": "5c847eb4ae0e707f5da4227560682f94", "is_disabled": 0, "is_reserved": 0}, {"rental_uris": {"ios": "https://dc.lft.to/lastmile_qr_scan", "android": "https://dc.lft.to/lastmile_qr_scan"}, "lon": -77.02610516666667, "type": "electric_scooter", "fusion_lat": 0.0, "lat": 38.91708766666667, "name": "4f1717676ae486e1a431cbceb91347b1", "fusion_lon": 0.0, "bike_id": "4f1717676ae486e1a431cbceb91347b1", "is_disabled": 0, "is_reserved": 0}, {"rental_uris": {"ios": "https://dc.lft.to/lastmile_qr_scan", "android": "https://dc.lft.to/lastmile_qr_scan"}, "lon": -77.03448216666666, "type": "electric_scooter", "fusion_lat": 0.0, "lat": 38.90893366666667, "name": "065b9b15ac27a24ca93a576b82274c0b", "fusion_lon": 0.0, "bike_id": "065b9b15ac27a24ca93a576b82274c0b", "is_disabled": 0, "is_reserved": 0}, {"rental_uris": {"ios": "https://dc.lft.to/lastmile_qr_scan", "android": "https://dc.lft.to/lastmile_qr_scan"}, "lon": -76.93178133333333, "type": "electric_scooter", "fusion_lat": 0.0, "lat": 38.89885433333333, "name": "0e151e609586df5056e7b5e6493d2cfb", "fusion_lon": 0.0, "bike_id": "0e151e609586df5056e7b5e6493d2cfb", "is_disabled": 0, "is_reserved": 0}, {"rental_uris": {"ios": "https://dc.lft.to/lastmile_qr_scan", "android": "https://dc.lft.to/lastmile_qr_scan"}, "lon": -76.994944, "type": "electric_scooter", "fusion_lat": 0.0, "lat": 38.862432166666665, "name": "d4b21948ba2b929e7f14366070f1c823", "fusion_lon": 0.0, "bike_id": "d4b21948ba2b929e7f14366070f1c823", "is_disabled": 0, "is_reserved": 0}, {"rental_uris": {"ios": "https://dc.lft.to/lastmile_qr_scan", "android": "https://dc.lft.to/lastmile_qr_scan"}, "lon": -77.1202685, "type": "electric_bike", "fusion_lat": 0.0, "lat": 38.855250166666664, "name": "0eace3814849a23c7cd3815dabac2298", "fusion_lon": 0.0, "bike_id": "0eace3814849a23c7cd3815dabac2298", "is_disabled": 0, "is_reserved": 0}, {"rental_uris": {"ios": "https://dc.lft.to/lastmile_qr_scan", "android": "https://dc.lft.to/lastmile_qr_scan"}, "lon": -77.01126, "type": "electric_scooter", "fusion_lat": 0.0, "lat": 38.895022833333336, "name": "8f284e3e40fe7c58f3f11d82c56af32a", "fusion_lon": 0.0, "bike_id": "8f284e3e40fe7c58f3f11d82c56af32a", "is_disabled": 0, "is_reserved": 0}, {"rental_uris": {"ios": "https://dc.lft.to/lastmile_qr_scan", "android": "https://dc.lft.to/lastmile_qr_scan"}, "lon": -77.0333255, "type": "electric_scooter", "fusion_lat": 0.0, "lat": 38.9037035, "name": "d703bd29b7318df0280a3531468dfd59", "fusion_lon": 0.0, "bike_id": "d703bd29b7318df0280a3531468dfd59", "is_disabled": 0, "is_reserved": 0}, {"rental_uris": {"ios": "https://dc.lft.to/lastmile_qr_scan", "android": "https://dc.lft.to/lastmile_qr_scan"}, "lon": -77.04860233333333, "type": "electric_scooter", "fusion_lat": 0.0, "lat": 38.918798, "name": "295a44733f60bc02e9f233bdb5596c31", "fusion_lon": 0.0, "bike_id": "295a44733f60bc02e9f233bdb5596c31", "is_disabled": 0, "is_reserved": 0}, {"rental_uris": {"ios": "https://dc.lft.to/lastmile_qr_scan", "android": "https://dc.lft.to/lastmile_qr_scan"}, "lon": -76.97555033333333, "type": "electric_scooter", "fusion_lat": 0.0, "lat": 38.90440916666667, "name": "2765f52f5bbca2bc6e9a560071337fde", "fusion_lon": 0.0, "bike_id": "2765f52f5bbca2bc6e9a560071337fde", "is_disabled": 0, "is_reserved": 0}, {"rental_uris": {"ios": "https://dc.lft.to/lastmile_qr_scan", "android": "https://dc.lft.to/lastmile_qr_scan"}, "lon": -77.042171, "type": "electric_scooter", "fusion_lat": 0.0, "lat": 38.9212855, "name": "d7b3c589c0eb471deda4ba08e32c7c6a", "fusion_lon": 0.0, "bike_id": "d7b3c589c0eb471deda4ba08e32c7c6a", "is_disabled": 0, "is_reserved": 0}, {"rental_uris": {"ios": "https://dc.lft.to/lastmile_qr_scan", "android": "https://dc.lft.to/lastmile_qr_scan"}, "lon": -77.00362883333334, "type": "electric_scooter", "fusion_lat": 0.0, "lat": 38.907349333333336, "name": "b874f766f61254b70d13147252beedf4", "fusion_lon": 0.0, "bike_id": "b874f766f61254b70d13147252beedf4", "is_disabled": 0, "is_reserved": 0}, {"rental_uris": {"ios": "https://dc.lft.to/lastmile_qr_scan", "android": "https://dc.lft.to/lastmile_qr_scan"}, "lon": -77.05029316666666, "type": "electric_scooter", "fusion_lat": 0.0, "lat": 38.900214166666665, "name": "09b5291732cfbdb622101a530315930c", "fusion_lon": 0.0, "bike_id": "09b5291732cfbdb622101a530315930c", "is_disabled": 0, "is_reserved": 0}, {"rental_uris": {"ios": "https://dc.lft.to/lastmile_qr_scan", "android": "https://dc.lft.to/lastmile_qr_scan"}, "lon": -77.03839283333333, "type": "electric_scooter", "fusion_lat": 0.0, "lat": 38.93114716666667, "name": "6cecbb051b3e445d6563bd366bd841f0", "fusion_lon": 0.0, "bike_id": "6cecbb051b3e445d6563bd366bd841f0", "is_disabled": 0, "is_reserved": 0}, {"rental_uris": {"ios": "https://dc.lft.to/lastmile_qr_scan", "android": "https://dc.lft.to/lastmile_qr_scan"}, "lon": -76.9732555, "type": "electric_scooter", "fusion_lat": 0.0, "lat": 38.9303155, "name": "307a5a6ecace3149ae04409189a7cbf9", "fusion_lon": 0.0, "bike_id": "307a5a6ecace3149ae04409189a7cbf9", "is_disabled": 0, "is_reserved": 0}, {"rental_uris": {"ios": "https://dc.lft.to/lastmile_qr_scan", "android": "https://dc.lft.to/lastmile_qr_scan"}, "lon": -76.9960945, "type": "electric_scooter", "fusion_lat": 0.0, "lat": 38.886239, "name": "ed0974eef35a58e729f6fd1abd95b126", "fusion_lon": 0.0, "bike_id": "ed0974eef35a58e729f6fd1abd95b126", "is_disabled": 0, "is_reserved": 0}, {"rental_uris": {"ios": "https://dc.lft.to/lastmile_qr_scan", "android": "https://dc.lft.to/lastmile_qr_scan"}, "lon": -76.997563, "type": "electric_bike", "fusion_lat": 0.0, "lat": 38.90922316666666, "name": "bebf5880f702d4b6513f53abd483eaae", "fusion_lon": 0.0, "bike_id": "bebf5880f702d4b6513f53abd483eaae", "is_disabled": 0, "is_reserved": 0}, {"rental_uris": {"ios": "https://dc.lft.to/lastmile_qr_scan", "android": "https://dc.lft.to/lastmile_qr_scan"}, "lon": -77.04500116666667, "type": "electric_scooter", "fusion_lat": 0.0, "lat": 38.91942683333333, "name": "64dea4c357fb69ffd66de371bb6fd85f", "fusion_lon": 0.0, "bike_id": "64dea4c357fb69ffd66de371bb6fd85f", "is_disabled": 0, "is_reserved": 0}, {"rental_uris": {"ios": "https://dc.lft.to/lastmile_qr_scan", "android": "https://dc.lft.to/lastmile_qr_scan"}, "lon": -76.9888335, "type": "electric_scooter", "fusion_lat": 0.0, "lat": 38.8665925, "name": "fc5754642ae0f805b9870c7830860a2b", "fusion_lon": 0.0, "bike_id": "fc5754642ae0f805b9870c7830860a2b", "is_disabled": 0, "is_reserved": 0}, {"rental_uris": {"ios": "https://dc.lft.to/lastmile_qr_scan", "android": "https://dc.lft.to/lastmile_qr_scan"}, "lon": -76.98576883333334, "type": "electric_scooter", "fusion_lat": 0.0, "lat": 38.861447166666665, "name": "4ed6712d2af4b55eb77928ab65a0bd33", "fusion_lon": 0.0, "bike_id": "4ed6712d2af4b55eb77928ab65a0bd33", "is_disabled": 0, "is_reserved": 0}, {"rental_uris": {"ios": "https://dc.lft.to/lastmile_qr_scan", "android": "https://dc.lft.to/lastmile_qr_scan"}, "lon": -77.02464016666667, "type": "electric_scooter", "fusion_lat": 0.0, "lat": 38.93631633333333, "name": "b4503f2dddf1ec0791dcd8226ebd1856", "fusion_lon": 0.0, "bike_id": "b4503f2dddf1ec0791dcd8226ebd1856", "is_disabled": 0, "is_reserved": 0}, {"rental_uris": {"ios": "https://dc.lft.to/lastmile_qr_scan", "android": "https://dc.lft.to/lastmile_qr_scan"}, "lon": -76.97997533333333, "type": "electric_bike", "fusion_lat": 0.0, "lat": 38.90019816666667, "name": "40d4160255453b97db9dd8afe672831b", "fusion_lon": 0.0, "bike_id": "40d4160255453b97db9dd8afe672831b", "is_disabled": 0, "is_reserved": 0}, {"rental_uris": {"ios": "https://dc.lft.to/lastmile_qr_scan", "android": "https://dc.lft.to/lastmile_qr_scan"}, "lon": -77.05266233333333, "type": "electric_scooter", "fusion_lat": 0.0, "lat": 38.934336333333334, "name": "31f4f38cc497efd5c2e9df1b2d8b5718", "fusion_lon": 0.0, "bike_id": "31f4f38cc497efd5c2e9df1b2d8b5718", "is_disabled": 0, "is_reserved": 0}, {"rental_uris": {"ios": "https://dc.lft.to/lastmile_qr_scan", "android": "https://dc.lft.to/lastmile_qr_scan"}, "lon": -77.0137665, "type": "electric_scooter", "fusion_lat": 0.0, "lat": 38.88654416666667, "name": "12b2cd6d843fb6e47e7b0b3a063be995", "fusion_lon": 0.0, "bike_id": "12b2cd6d843fb6e47e7b0b3a063be995", "is_disabled": 0, "is_reserved": 0}, {"rental_uris": {"ios": "https://dc.lft.to/lastmile_qr_scan", "android": "https://dc.lft.to/lastmile_qr_scan"}, "lon": -77.0331305, "type": "electric_scooter", "fusion_lat": 0.0, "lat": 38.90844, "name": "bf11eb080eb1cc05c1ff6f97ad4af672", "fusion_lon": 0.0, "bike_id": "bf11eb080eb1cc05c1ff6f97ad4af672", "is_disabled": 0, "is_reserved": 0}, {"rental_uris": {"ios": "https://dc.lft.to/lastmile_qr_scan", "android": "https://dc.lft.to/lastmile_qr_scan"}, "lon": -76.95190283333334, "type": "electric_bike", "fusion_lat": 0.0, "lat": 38.90695766666666, "name": "e192bdb878e674c11388b5ef8f03b793", "fusion_lon": 0.0, "bike_id": "e192bdb878e674c11388b5ef8f03b793", "is_disabled": 0, "is_reserved": 0}, {"rental_uris": {"ios": "https://dc.lft.to/lastmile_qr_scan", "android": "https://dc.lft.to/lastmile_qr_scan"}, "lon": -77.0057605, "type": "electric_scooter", "fusion_lat": 0.0, "lat": 38.9032885, "name": "442ccdbbeec1dd67b7319ebdbc96fa57", "fusion_lon": 0.0, "bike_id": "442ccdbbeec1dd67b7319ebdbc96fa57", "is_disabled": 0, "is_reserved": 0}, {"rental_uris": {"ios": "https://dc.lft.to/lastmile_qr_scan", "android": "https://dc.lft.to/lastmile_qr_scan"}, "lon": -76.93174316666666, "type": "electric_scooter", "fusion_lat": 0.0, "lat": 38.89882583333333, "name": "59af728e19d364c3f519d502c24f5870", "fusion_lon": 0.0, "bike_id": "59af728e19d364c3f519d502c24f5870", "is_disabled": 0, "is_reserved": 0}, {"rental_uris": {"ios": "https://dc.lft.to/lastmile_qr_scan", "android": "https://dc.lft.to/lastmile_qr_scan"}, "lon": -77.04285833333333, "type": "electric_scooter", "fusion_lat": 0.0, "lat": 38.895360333333336, "name": "56aca49782543178afbfbb790d186396", "fusion_lon": 0.0, "bike_id": "56aca49782543178afbfbb790d186396", "is_disabled": 0, "is_reserved": 0}, {"rental_uris": {"ios": "https://dc.lft.to/lastmile_qr_scan", "android": "https://dc.lft.to/lastmile_qr_scan"}, "lon": -77.03281766666667, "type": "electric_scooter", "fusion_lat": 0.0, "lat": 38.938814666666666, "name": "ad8d1353c058b805450fc9088fbfcc2e", "fusion_lon": 0.0, "bike_id": "ad8d1353c058b805450fc9088fbfcc2e", "is_disabled": 0, "is_reserved": 0}, {"rental_uris": {"ios": "https://dc.lft.to/lastmile_qr_scan", "android": "https://dc.lft.to/lastmile_qr_scan"}, "lon": -77.03109883333333, "type": "electric_scooter", "fusion_lat": 0.0, "lat": 38.9193415, "name": "1c8195fb3a8eb232bc1783fa2b9ddc4c", "fusion_lon": 0.0, "bike_id": "1c8195fb3a8eb232bc1783fa2b9ddc4c", "is_disabled": 0, "is_reserved": 0}, {"rental_uris": {"ios": "https://dc.lft.to/lastmile_qr_scan", "android": "https://dc.lft.to/lastmile_qr_scan"}, "lon": -77.03669416666666, "type": "electric_scooter", "fusion_lat": 0.0, "lat": 38.918734, "name": "9d4c502eed9f214365dd4988ac169c5e", "fusion_lon": 0.0, "bike_id": "9d4c502eed9f214365dd4988ac169c5e", "is_disabled": 0, "is_reserved": 0}, {"rental_uris": {"ios": "https://dc.lft.to/lastmile_qr_scan", "android": "https://dc.lft.to/lastmile_qr_scan"}, "lon": -77.04409333333334, "type": "electric_scooter", "fusion_lat": 0.0, "lat": 38.91311666666667, "name": "26dbad16cf96203e77fa188783a725ea", "fusion_lon": 0.0, "bike_id": "26dbad16cf96203e77fa188783a725ea", "is_disabled": 0, "is_reserved": 0}, {"rental_uris": {"ios": "https://dc.lft.to/lastmile_qr_scan", "android": "https://dc.lft.to/lastmile_qr_scan"}, "lon": -77.02965466666667, "type": "electric_scooter", "fusion_lat": 0.0, "lat": 38.92316133333333, "name": "6ae930cfa8ac5db1c467611db7d81042", "fusion_lon": 0.0, "bike_id": "6ae930cfa8ac5db1c467611db7d81042", "is_disabled": 0, "is_reserved": 0}, {"rental_uris": {"ios": "https://dc.lft.to/lastmile_qr_scan", "android": "https://dc.lft.to/lastmile_qr_scan"}, "lon": -77.0132015, "type": "electric_scooter", "fusion_lat": 0.0, "lat": 38.8973805, "name": "eaa5ff76532a675abeddea05b5ee0684", "fusion_lon": 0.0, "bike_id": "eaa5ff76532a675abeddea05b5ee0684", "is_disabled": 0, "is_reserved": 0}, {"rental_uris": {"ios": "https://dc.lft.to/lastmile_qr_scan", "android": "https://dc.lft.to/lastmile_qr_scan"}, "lon": -76.98937966666666, "type": "electric_bike", "fusion_lat": 0.0, "lat": 38.928601, "name": "6a3937c44c91ccaf48f9ee649b9eaf60", "fusion_lon": 0.0, "bike_id": "6a3937c44c91ccaf48f9ee649b9eaf60", "is_disabled": 0, "is_reserved": 0}, {"rental_uris": {"ios": "https://dc.lft.to/lastmile_qr_scan", "android": "https://dc.lft.to/lastmile_qr_scan"}, "lon": -77.0347515, "type": "electric_scooter", "fusion_lat": 0.0, "lat": 38.919826, "name": "13417750757ea63bfdc29c60246be70e", "fusion_lon": 0.0, "bike_id": "13417750757ea63bfdc29c60246be70e", "is_disabled": 0, "is_reserved": 0}, {"rental_uris": {"ios": "https://dc.lft.to/lastmile_qr_scan", "android": "https://dc.lft.to/lastmile_qr_scan"}, "lon": -77.0479245, "type": "electric_scooter", "fusion_lat": 0.0, "lat": 38.89370916666667, "name": "6093930c92f204276f372274fda14e92", "fusion_lon": 0.0, "bike_id": "6093930c92f204276f372274fda14e92", "is_disabled": 0, "is_reserved": 0}, {"rental_uris": {"ios": "https://dc.lft.to/lastmile_qr_scan", "android": "https://dc.lft.to/lastmile_qr_scan"}, "lon": -77.01652766666666, "type": "electric_scooter", "fusion_lat": 0.0, "lat": 38.95333183333334, "name": "a2a18b17302b913122f682c8adeedceb", "fusion_lon": 0.0, "bike_id": "a2a18b17302b913122f682c8adeedceb", "is_disabled": 0, "is_reserved": 0}, {"rental_uris": {"ios": "https://dc.lft.to/lastmile_qr_scan", "android": "https://dc.lft.to/lastmile_qr_scan"}, "lon": -76.99374666666667, "type": "electric_scooter", "fusion_lat": 0.0, "lat": 38.89744133333333, "name": "de88f52b060e87f11a1026e51f3848a2", "fusion_lon": 0.0, "bike_id": "de88f52b060e87f11a1026e51f3848a2", "is_disabled": 0, "is_reserved": 0}, {"rental_uris": {"ios": "https://dc.lft.to/lastmile_qr_scan", "android": "https://dc.lft.to/lastmile_qr_scan"}, "lon": -77.020209, "type": "electric_scooter", "fusion_lat": 0.0, "lat": 38.916516333333334, "name": "eee02efca42371c2397156cc6b857303", "fusion_lon": 0.0, "bike_id": "eee02efca42371c2397156cc6b857303", "is_disabled": 0, "is_reserved": 0}, {"rental_uris": {"ios": "https://dc.lft.to/lastmile_qr_scan", "android": "https://dc.lft.to/lastmile_qr_scan"}, "lon": -76.982659, "type": "electric_scooter", "fusion_lat": 0.0, "lat": 38.863524, "name": "f722a257fa8808a8351ff0381ab4886a", "fusion_lon": 0.0, "bike_id": "f722a257fa8808a8351ff0381ab4886a", "is_disabled": 0, "is_reserved": 0}, {"rental_uris": {"ios": "https://dc.lft.to/lastmile_qr_scan", "android": "https://dc.lft.to/lastmile_qr_scan"}, "lon": -77.0421495, "type": "electric_scooter", "fusion_lat": 0.0, "lat": 38.90718716666667, "name": "ee5c907baa2c4fc2d20c2b8a555e535e", "fusion_lon": 0.0, "bike_id": "ee5c907baa2c4fc2d20c2b8a555e535e", "is_disabled": 0, "is_reserved": 0}, {"rental_uris": {"ios": "https://dc.lft.to/lastmile_qr_scan", "android": "https://dc.lft.to/lastmile_qr_scan"}, "lon": -77.0543745, "type": "electric_scooter", "fusion_lat": 0.0, "lat": 38.8960585, "name": "72858edea687228b87e6216c7cff70f5", "fusion_lon": 0.0, "bike_id": "72858edea687228b87e6216c7cff70f5", "is_disabled": 0, "is_reserved": 0}, {"rental_uris": {"ios": "https://dc.lft.to/lastmile_qr_scan", "android": "https://dc.lft.to/lastmile_qr_scan"}, "lon": -77.01110416666667, "type": "electric_scooter", "fusion_lat": 0.0, "lat": 38.900133333333336, "name": "3db3edc9040d9f94866a57e1d576257e", "fusion_lon": 0.0, "bike_id": "3db3edc9040d9f94866a57e1d576257e", "is_disabled": 0, "is_reserved": 0}, {"rental_uris": {"ios": "https://dc.lft.to/lastmile_qr_scan", "android": "https://dc.lft.to/lastmile_qr_scan"}, "lon": -77.04427516666667, "type": "electric_scooter", "fusion_lat": 0.0, "lat": 38.90581266666667, "name": "9e468aaf54790aac0fb63739e816d2d1", "fusion_lon": 0.0, "bike_id": "9e468aaf54790aac0fb63739e816d2d1", "is_disabled": 0, "is_reserved": 0}, {"rental_uris": {"ios": "https://dc.lft.to/lastmile_qr_scan", "android": "https://dc.lft.to/lastmile_qr_scan"}, "lon": -77.01341183333334, "type": "electric_bike", "fusion_lat": 0.0, "lat": 38.999994, "name": "5e0812a0f4ee71ede8a03046c844ae09", "fusion_lon": 0.0, "bike_id": "5e0812a0f4ee71ede8a03046c844ae09", "is_disabled": 0, "is_reserved": 0}, {"rental_uris": {"ios": "https://dc.lft.to/lastmile_qr_scan", "android": "https://dc.lft.to/lastmile_qr_scan"}, "lon": -77.04166366666666, "type": "electric_scooter", "fusion_lat": 0.0, "lat": 38.91464216666667, "name": "5a53e3ae4ce522569a18c7797faf8790", "fusion_lon": 0.0, "bike_id": "5a53e3ae4ce522569a18c7797faf8790", "is_disabled": 0, "is_reserved": 0}, {"rental_uris": {"ios": "https://dc.lft.to/lastmile_qr_scan", "android": "https://dc.lft.to/lastmile_qr_scan"}, "lon": -77.034643, "type": "electric_scooter", "fusion_lat": 0.0, "lat": 38.9215495, "name": "43459dc483d8d59f695f51e0691668d9", "fusion_lon": 0.0, "bike_id": "43459dc483d8d59f695f51e0691668d9", "is_disabled": 0, "is_reserved": 0}, {"rental_uris": {"ios": "https://dc.lft.to/lastmile_qr_scan", "android": "https://dc.lft.to/lastmile_qr_scan"}, "lon": -77.01900083333334, "type": "electric_scooter", "fusion_lat": 0.0, "lat": 38.87664066666667, "name": "5ddf96aeb313ed0272dcb565fc218411", "fusion_lon": 0.0, "bike_id": "5ddf96aeb313ed0272dcb565fc218411", "is_disabled": 0, "is_reserved": 0}, {"rental_uris": {"ios": "https://dc.lft.to/lastmile_qr_scan", "android": "https://dc.lft.to/lastmile_qr_scan"}, "lon": -77.02874616666666, "type": "electric_scooter", "fusion_lat": 0.0, "lat": 38.90453816666667, "name": "d4327824d6bacc7d02ec691b0ce14943", "fusion_lon": 0.0, "bike_id": "d4327824d6bacc7d02ec691b0ce14943", "is_disabled": 0, "is_reserved": 0}, {"rental_uris": {"ios": "https://dc.lft.to/lastmile_qr_scan", "android": "https://dc.lft.to/lastmile_qr_scan"}, "lon": -77.01121816666667, "type": "electric_scooter", "fusion_lat": 0.0, "lat": 38.903598833333334, "name": "eeda72c0209e1eaef4d390404de1780c", "fusion_lon": 0.0, "bike_id": "eeda72c0209e1eaef4d390404de1780c", "is_disabled": 0, "is_reserved": 0}, {"rental_uris": {"ios": "https://dc.lft.to/lastmile_qr_scan", "android": "https://dc.lft.to/lastmile_qr_scan"}, "lon": -77.03887883333333, "type": "electric_scooter", "fusion_lat": 0.0, "lat": 38.921862833333336, "name": "1d52a3bd4c59f1c934473c0c34fb9e9c", "fusion_lon": 0.0, "bike_id": "1d52a3bd4c59f1c934473c0c34fb9e9c", "is_disabled": 0, "is_reserved": 0}, {"rental_uris": {"ios": "https://dc.lft.to/lastmile_qr_scan", "android": "https://dc.lft.to/lastmile_qr_scan"}, "lon": -77.03167, "type": "electric_scooter", "fusion_lat": 0.0, "lat": 38.91564066666667, "name": "9a72e4c3754767c2b07742b87f260d73", "fusion_lon": 0.0, "bike_id": "9a72e4c3754767c2b07742b87f260d73", "is_disabled": 0, "is_reserved": 0}, {"rental_uris": {"ios": "https://dc.lft.to/lastmile_qr_scan", "android": "https://dc.lft.to/lastmile_qr_scan"}, "lon": -77.02903083333334, "type": "electric_scooter", "fusion_lat": 0.0, "lat": 38.885731166666666, "name": "711b6ffcd0fc162c933934b9a9acd7dc", "fusion_lon": 0.0, "bike_id": "711b6ffcd0fc162c933934b9a9acd7dc", "is_disabled": 0, "is_reserved": 0}, {"rental_uris": {"ios": "https://dc.lft.to/lastmile_qr_scan", "android": "https://dc.lft.to/lastmile_qr_scan"}, "lon": -77.04340883333333, "type": "electric_scooter", "fusion_lat": 0.0, "lat": 38.8964335, "name": "ddd5686da449d90b1ca24bcd44b2da1a", "fusion_lon": 0.0, "bike_id": "ddd5686da449d90b1ca24bcd44b2da1a", "is_disabled": 0, "is_reserved": 0}, {"rental_uris": {"ios": "https://dc.lft.to/lastmile_qr_scan", "android": "https://dc.lft.to/lastmile_qr_scan"}, "lon": -77.0298625, "type": "electric_scooter", "fusion_lat": 0.0, "lat": 38.922345166666666, "name": "273f1fe484603de0f0af94aaae097293", "fusion_lon": 0.0, "bike_id": "273f1fe484603de0f0af94aaae097293", "is_disabled": 0, "is_reserved": 0}, {"rental_uris": {"ios": "https://dc.lft.to/lastmile_qr_scan", "android": "https://dc.lft.to/lastmile_qr_scan"}, "lon": -77.01364233333334, "type": "electric_scooter", "fusion_lat": 0.0, "lat": 38.863724833333336, "name": "624df01a2d79cfa38251942442fe7365", "fusion_lon": 0.0, "bike_id": "624df01a2d79cfa38251942442fe7365", "is_disabled": 0, "is_reserved": 0}, {"rental_uris": {"ios": "https://dc.lft.to/lastmile_qr_scan", "android": "https://dc.lft.to/lastmile_qr_scan"}, "lon": -77.00785616666667, "type": "electric_scooter", "fusion_lat": 0.0, "lat": 38.9064195, "name": "c251834596ee48ed01697b91d529a39a", "fusion_lon": 0.0, "bike_id": "c251834596ee48ed01697b91d529a39a", "is_disabled": 0, "is_reserved": 0}, {"rental_uris": {"ios": "https://dc.lft.to/lastmile_qr_scan", "android": "https://dc.lft.to/lastmile_qr_scan"}, "lon": -77.0694475, "type": "electric_scooter", "fusion_lat": 0.0, "lat": 38.9051065, "name": "ef3607fa27164d8b418c1b8d05de26d7", "fusion_lon": 0.0, "bike_id": "ef3607fa27164d8b418c1b8d05de26d7", "is_disabled": 0, "is_reserved": 0}, {"rental_uris": {"ios": "https://dc.lft.to/lastmile_qr_scan", "android": "https://dc.lft.to/lastmile_qr_scan"}, "lon": -77.04007166666666, "type": "electric_scooter", "fusion_lat": 0.0, "lat": 38.903766166666664, "name": "069d5eb82b4e2fa177f398f24ec21b99", "fusion_lon": 0.0, "bike_id": "069d5eb82b4e2fa177f398f24ec21b99", "is_disabled": 0, "is_reserved": 0}, {"rental_uris": {"ios": "https://dc.lft.to/lastmile_qr_scan", "android": "https://dc.lft.to/lastmile_qr_scan"}, "lon": -77.03349816666666, "type": "electric_scooter", "fusion_lat": 0.0, "lat": 38.8990405, "name": "a33fb53aa9d1b967c2589b413c0985d7", "fusion_lon": 0.0, "bike_id": "a33fb53aa9d1b967c2589b413c0985d7", "is_disabled": 0, "is_reserved": 0}, {"rental_uris": {"ios": "https://dc.lft.to/lastmile_qr_scan", "android": "https://dc.lft.to/lastmile_qr_scan"}, "lon": -77.02971733333334, "type": "electric_scooter", "fusion_lat": 0.0, "lat": 38.910548, "name": "10c391669ac59cf284913093e9b0e702", "fusion_lon": 0.0, "bike_id": "10c391669ac59cf284913093e9b0e702", "is_disabled": 0, "is_reserved": 0}, {"rental_uris": {"ios": "https://dc.lft.to/lastmile_qr_scan", "android": "https://dc.lft.to/lastmile_qr_scan"}, "lon": -77.07163583333333, "type": "electric_scooter", "fusion_lat": 0.0, "lat": 38.914539166666664, "name": "0f037d16c32ea401986ef31d2d5abfb6", "fusion_lon": 0.0, "bike_id": "0f037d16c32ea401986ef31d2d5abfb6", "is_disabled": 0, "is_reserved": 0}, {"rental_uris": {"ios": "https://dc.lft.to/lastmile_qr_scan", "android": "https://dc.lft.to/lastmile_qr_scan"}, "lon": -77.023358, "type": "electric_scooter", "fusion_lat": 0.0, "lat": 38.9378455, "name": "e3f9574c61b8b6d8099a08ffa27c36bb", "fusion_lon": 0.0, "bike_id": "e3f9574c61b8b6d8099a08ffa27c36bb", "is_disabled": 0, "is_reserved": 0}, {"rental_uris": {"ios": "https://dc.lft.to/lastmile_qr_scan", "android": "https://dc.lft.to/lastmile_qr_scan"}, "lon": -77.04153283333333, "type": "electric_scooter", "fusion_lat": 0.0, "lat": 38.914228333333334, "name": "63f8a03aed8cd36e51d4a4029044a926", "fusion_lon": 0.0, "bike_id": "63f8a03aed8cd36e51d4a4029044a926", "is_disabled": 0, "is_reserved": 0}, {"rental_uris": {"ios": "https://dc.lft.to/lastmile_qr_scan", "android": "https://dc.lft.to/lastmile_qr_scan"}, "lon": -77.01163483333333, "type": "electric_scooter", "fusion_lat": 0.0, "lat": 38.900178833333335, "name": "b77028a751b2c664e2637087aea5aa75", "fusion_lon": 0.0, "bike_id": "b77028a751b2c664e2637087aea5aa75", "is_disabled": 0, "is_reserved": 0}, {"rental_uris": {"ios": "https://dc.lft.to/lastmile_qr_scan", "android": "https://dc.lft.to/lastmile_qr_scan"}, "lon": -77.02225166666666, "type": "electric_scooter", "fusion_lat": 0.0, "lat": 38.8921945, "name": "de91f5583c66fc90559aeebe1b71eb3a", "fusion_lon": 0.0, "bike_id": "de91f5583c66fc90559aeebe1b71eb3a", "is_disabled": 0, "is_reserved": 0}, {"rental_uris": {"ios": "https://dc.lft.to/lastmile_qr_scan", "android": "https://dc.lft.to/lastmile_qr_scan"}, "lon": -77.02407616666666, "type": "electric_scooter", "fusion_lat": 0.0, "lat": 38.915479166666664, "name": "31f34c1da5a114f7bc7d993f94867b68", "fusion_lon": 0.0, "bike_id": "31f34c1da5a114f7bc7d993f94867b68", "is_disabled": 0, "is_reserved": 0}, {"rental_uris": {"ios": "https://dc.lft.to/lastmile_qr_scan", "android": "https://dc.lft.to/lastmile_qr_scan"}, "lon": -77.08542716666666, "type": "electric_bike", "fusion_lat": 0.0, "lat": 38.85621166666667, "name": "19535f85f7d9a5f82aade4915530439a", "fusion_lon": 0.0, "bike_id": "19535f85f7d9a5f82aade4915530439a", "is_disabled": 0, "is_reserved": 0}, {"rental_uris": {"ios": "https://dc.lft.to/lastmile_qr_scan", "android": "https://dc.lft.to/lastmile_qr_scan"}, "lon": -77.02980216666667, "type": "electric_scooter", "fusion_lat": 0.0, "lat": 38.96231316666667, "name": "713fc6f2755ee0997846b4874ddb6c01", "fusion_lon": 0.0, "bike_id": "713fc6f2755ee0997846b4874ddb6c01", "is_disabled": 0, "is_reserved": 0}, {"rental_uris": {"ios": "https://dc.lft.to/lastmile_qr_scan", "android": "https://dc.lft.to/lastmile_qr_scan"}, "lon": -76.988892, "type": "electric_scooter", "fusion_lat": 0.0, "lat": 38.86658766666667, "name": "cad22b21c303013dd2712cbcee0aff03", "fusion_lon": 0.0, "bike_id": "cad22b21c303013dd2712cbcee0aff03", "is_disabled": 0, "is_reserved": 0}, {"rental_uris": {"ios": "https://dc.lft.to/lastmile_qr_scan", "android": "https://dc.lft.to/lastmile_qr_scan"}, "lon": -77.112072, "type": "electric_bike", "fusion_lat": 0.0, "lat": 38.81306683333333, "name": "5b144b4f9b354a1475101dc8762d923d", "fusion_lon": 0.0, "bike_id": "5b144b4f9b354a1475101dc8762d923d", "is_disabled": 0, "is_reserved": 0}, {"rental_uris": {"ios": "https://dc.lft.to/lastmile_qr_scan", "android": "https://dc.lft.to/lastmile_qr_scan"}, "lon": -76.93545316666666, "type": "electric_bike", "fusion_lat": 0.0, "lat": 38.955544333333336, "name": "1d97b30716474440fcd7185046d21e14", "fusion_lon": 0.0, "bike_id": "1d97b30716474440fcd7185046d21e14", "is_disabled": 0, "is_reserved": 0}, {"rental_uris": {"ios": "https://dc.lft.to/lastmile_qr_scan", "android": "https://dc.lft.to/lastmile_qr_scan"}, "lon": -77.12258783333333, "type": "electric_bike", "fusion_lat": 0.0, "lat": 38.89189, "name": "c37db653bef368156be7b7e362674750", "fusion_lon": 0.0, "bike_id": "c37db653bef368156be7b7e362674750", "is_disabled": 0, "is_reserved": 0}, {"rental_uris": {"ios": "https://dc.lft.to/lastmile_qr_scan", "android": "https://dc.lft.to/lastmile_qr_scan"}, "lon": -77.04320933333334, "type": "electric_scooter", "fusion_lat": 0.0, "lat": 38.91495033333333, "name": "cc3d780d3caaecbe90db632b7ea43324", "fusion_lon": 0.0, "bike_id": "cc3d780d3caaecbe90db632b7ea43324", "is_disabled": 0, "is_reserved": 0}, {"rental_uris": {"ios": "https://dc.lft.to/lastmile_qr_scan", "android": "https://dc.lft.to/lastmile_qr_scan"}, "lon": -77.0480935, "type": "electric_scooter", "fusion_lat": 0.0, "lat": 38.89617783333333, "name": "b935580d884c8655bf895acf0f3343fc", "fusion_lon": 0.0, "bike_id": "b935580d884c8655bf895acf0f3343fc", "is_disabled": 0, "is_reserved": 0}, {"rental_uris": {"ios": "https://dc.lft.to/lastmile_qr_scan", "android": "https://dc.lft.to/lastmile_qr_scan"}, "lon": -77.04378333333334, "type": "electric_scooter", "fusion_lat": 0.0, "lat": 38.92066766666667, "name": "5e6233742dd051c0366eecafbaa7c737", "fusion_lon": 0.0, "bike_id": "5e6233742dd051c0366eecafbaa7c737", "is_disabled": 0, "is_reserved": 0}, {"rental_uris": {"ios": "https://dc.lft.to/lastmile_qr_scan", "android": "https://dc.lft.to/lastmile_qr_scan"}, "lon": -77.076836, "type": "electric_bike", "fusion_lat": 0.0, "lat": 38.831928833333336, "name": "002bf4932705d6c0658b1b07e3910148", "fusion_lon": 0.0, "bike_id": "002bf4932705d6c0658b1b07e3910148", "is_disabled": 0, "is_reserved": 0}, {"rental_uris": {"ios": "https://dc.lft.to/lastmile_qr_scan", "android": "https://dc.lft.to/lastmile_qr_scan"}, "lon": -77.04732216666666, "type": "electric_scooter", "fusion_lat": 0.0, "lat": 38.9023935, "name": "1c855b4da05b6c6a2dba51a5b10a6505", "fusion_lon": 0.0, "bike_id": "1c855b4da05b6c6a2dba51a5b10a6505", "is_disabled": 0, "is_reserved": 0}, {"rental_uris": {"ios": "https://dc.lft.to/lastmile_qr_scan", "android": "https://dc.lft.to/lastmile_qr_scan"}, "lon": -77.029602, "type": "electric_scooter", "fusion_lat": 0.0, "lat": 38.884403166666665, "name": "bfbf7d29c390fd707a2dc92b7572e8c3", "fusion_lon": 0.0, "bike_id": "bfbf7d29c390fd707a2dc92b7572e8c3", "is_disabled": 0, "is_reserved": 0}, {"rental_uris": {"ios": "https://dc.lft.to/lastmile_qr_scan", "android": "https://dc.lft.to/lastmile_qr_scan"}, "lon": -77.03481466666666, "type": "electric_scooter", "fusion_lat": 0.0, "lat": 38.9189935, "name": "c6978d1c8d4e3dc2b49fde7b1042c805", "fusion_lon": 0.0, "bike_id": "c6978d1c8d4e3dc2b49fde7b1042c805", "is_disabled": 0, "is_reserved": 0}, {"rental_uris": {"ios": "https://dc.lft.to/lastmile_qr_scan", "android": "https://dc.lft.to/lastmile_qr_scan"}, "lon": -77.02975583333334, "type": "electric_scooter", "fusion_lat": 0.0, "lat": 38.907290833333334, "name": "29ddb2ce0f64dae437766dc9b1447da4", "fusion_lon": 0.0, "bike_id": "29ddb2ce0f64dae437766dc9b1447da4", "is_disabled": 0, "is_reserved": 0}, {"rental_uris": {"ios": "https://dc.lft.to/lastmile_qr_scan", "android": "https://dc.lft.to/lastmile_qr_scan"}, "lon": -77.03725033333333, "type": "electric_scooter", "fusion_lat": 0.0, "lat": 38.9335675, "name": "9ce19cd157f12bdb92f0c269d98d3bef", "fusion_lon": 0.0, "bike_id": "9ce19cd157f12bdb92f0c269d98d3bef", "is_disabled": 0, "is_reserved": 0}, {"rental_uris": {"ios": "https://dc.lft.to/lastmile_qr_scan", "android": "https://dc.lft.to/lastmile_qr_scan"}, "lon": -76.97810916666667, "type": "electric_scooter", "fusion_lat": 0.0, "lat": 38.90672416666666, "name": "e3e5314fcce6c7a9def0753ab952b08b", "fusion_lon": 0.0, "bike_id": "e3e5314fcce6c7a9def0753ab952b08b", "is_disabled": 0, "is_reserved": 0}, {"rental_uris": {"ios": "https://dc.lft.to/lastmile_qr_scan", "android": "https://dc.lft.to/lastmile_qr_scan"}, "lon": -77.0164475, "type": "electric_scooter", "fusion_lat": 0.0, "lat": 38.90371966666667, "name": "f8a074127500e1cc80596b5e623fe719", "fusion_lon": 0.0, "bike_id": "f8a074127500e1cc80596b5e623fe719", "is_disabled": 0, "is_reserved": 0}, {"rental_uris": {"ios": "https://dc.lft.to/lastmile_qr_scan", "android": "https://dc.lft.to/lastmile_qr_scan"}, "lon": -76.91597933333334, "type": "electric_bike", "fusion_lat": 0.0, "lat": 38.87981816666667, "name": "f55bc3ace0ad302293350c02cb555e43", "fusion_lon": 0.0, "bike_id": "f55bc3ace0ad302293350c02cb555e43", "is_disabled": 0, "is_reserved": 0}, {"rental_uris": {"ios": "https://dc.lft.to/lastmile_qr_scan", "android": "https://dc.lft.to/lastmile_qr_scan"}, "lon": -77.04065216666666, "type": "electric_scooter", "fusion_lat": 0.0, "lat": 38.9265555, "name": "a8a1850d810fd91e194250c3b069cbe5", "fusion_lon": 0.0, "bike_id": "a8a1850d810fd91e194250c3b069cbe5", "is_disabled": 0, "is_reserved": 0}, {"rental_uris": {"ios": "https://dc.lft.to/lastmile_qr_scan", "android": "https://dc.lft.to/lastmile_qr_scan"}, "lon": -77.0093525, "type": "electric_scooter", "fusion_lat": 0.0, "lat": 38.87198, "name": "1ce81fe6f5584c39367a580e39de69ba", "fusion_lon": 0.0, "bike_id": "1ce81fe6f5584c39367a580e39de69ba", "is_disabled": 0, "is_reserved": 0}, {"rental_uris": {"ios": "https://dc.lft.to/lastmile_qr_scan", "android": "https://dc.lft.to/lastmile_qr_scan"}, "lon": -77.03965866666667, "type": "electric_scooter", "fusion_lat": 0.0, "lat": 38.90245933333333, "name": "9e05d80842d86643deb18bb4c1a4e2fc", "fusion_lon": 0.0, "bike_id": "9e05d80842d86643deb18bb4c1a4e2fc", "is_disabled": 0, "is_reserved": 0}, {"rental_uris": {"ios": "https://dc.lft.to/lastmile_qr_scan", "android": "https://dc.lft.to/lastmile_qr_scan"}, "lon": -77.02414116666667, "type": "electric_bike", "fusion_lat": 0.0, "lat": 38.99419983333333, "name": "0997359caf3473f8dcbf5777370374c1", "fusion_lon": 0.0, "bike_id": "0997359caf3473f8dcbf5777370374c1", "is_disabled": 0, "is_reserved": 0}, {"rental_uris": {"ios": "https://dc.lft.to/lastmile_qr_scan", "android": "https://dc.lft.to/lastmile_qr_scan"}, "lon": -77.02246266666667, "type": "electric_scooter", "fusion_lat": 0.0, "lat": 38.91644183333333, "name": "39ff7d8747ed17637b5e6d28731a237f", "fusion_lon": 0.0, "bike_id": "39ff7d8747ed17637b5e6d28731a237f", "is_disabled": 0, "is_reserved": 0}, {"rental_uris": {"ios": "https://dc.lft.to/lastmile_qr_scan", "android": "https://dc.lft.to/lastmile_qr_scan"}, "lon": -77.06362383333334, "type": "electric_scooter", "fusion_lat": 0.0, "lat": 38.909309, "name": "84e357c90bcdbcf87e3119732733d983", "fusion_lon": 0.0, "bike_id": "84e357c90bcdbcf87e3119732733d983", "is_disabled": 0, "is_reserved": 0}, {"rental_uris": {"ios": "https://dc.lft.to/lastmile_qr_scan", "android": "https://dc.lft.to/lastmile_qr_scan"}, "lon": -77.068898, "type": "electric_scooter", "fusion_lat": 0.0, "lat": 38.94032216666667, "name": "10058894423213fda4f32be5764f007a", "fusion_lon": 0.0, "bike_id": "10058894423213fda4f32be5764f007a", "is_disabled": 0, "is_reserved": 0}, {"rental_uris": {"ios": "https://dc.lft.to/lastmile_qr_scan", "android": "https://dc.lft.to/lastmile_qr_scan"}, "lon": -77.04131616666666, "type": "electric_scooter", "fusion_lat": 0.0, "lat": 38.922065833333335, "name": "8f07769f292236f6a912cd6032e7f10d", "fusion_lon": 0.0, "bike_id": "8f07769f292236f6a912cd6032e7f10d", "is_disabled": 0, "is_reserved": 0}, {"rental_uris": {"ios": "https://dc.lft.to/lastmile_qr_scan", "android": "https://dc.lft.to/lastmile_qr_scan"}, "lon": -77.070426, "type": "electric_bike", "fusion_lat": 0.0, "lat": 38.82445166666667, "name": "2179ccfe078c3b0de96f91196d1b5dba", "fusion_lon": 0.0, "bike_id": "2179ccfe078c3b0de96f91196d1b5dba", "is_disabled": 0, "is_reserved": 0}, {"rental_uris": {"ios": "https://dc.lft.to/lastmile_qr_scan", "android": "https://dc.lft.to/lastmile_qr_scan"}, "lon": -76.98819716666667, "type": "electric_scooter", "fusion_lat": 0.0, "lat": 38.83582833333333, "name": "cc5e4f150220f307f0131d8359159c21", "fusion_lon": 0.0, "bike_id": "cc5e4f150220f307f0131d8359159c21", "is_disabled": 0, "is_reserved": 0}, {"rental_uris": {"ios": "https://dc.lft.to/lastmile_qr_scan", "android": "https://dc.lft.to/lastmile_qr_scan"}, "lon": -77.041732, "type": "electric_scooter", "fusion_lat": 0.0, "lat": 38.917655, "name": "eb6aba00cf07547357bcbf2d7e3bb9e8", "fusion_lon": 0.0, "bike_id": "eb6aba00cf07547357bcbf2d7e3bb9e8", "is_disabled": 0, "is_reserved": 0}, {"rental_uris": {"ios": "https://dc.lft.to/lastmile_qr_scan", "android": "https://dc.lft.to/lastmile_qr_scan"}, "lon": -76.9848375, "type": "electric_scooter", "fusion_lat": 0.0, "lat": 38.907825333333335, "name": "63f7ec9073d6c0fa586bd863fec4fa6b", "fusion_lon": 0.0, "bike_id": "63f7ec9073d6c0fa586bd863fec4fa6b", "is_disabled": 0, "is_reserved": 0}, {"rental_uris": {"ios": "https://dc.lft.to/lastmile_qr_scan", "android": "https://dc.lft.to/lastmile_qr_scan"}, "lon": -76.974898, "type": "electric_bike", "fusion_lat": 0.0, "lat": 38.920081333333336, "name": "6365c09deb001c287ad4174e187c6241", "fusion_lon": 0.0, "bike_id": "6365c09deb001c287ad4174e187c6241", "is_disabled": 0, "is_reserved": 0}, {"rental_uris": {"ios": "https://dc.lft.to/lastmile_qr_scan", "android": "https://dc.lft.to/lastmile_qr_scan"}, "lon": -77.04006516666666, "type": "electric_scooter", "fusion_lat": 0.0, "lat": 38.90999333333333, "name": "d83487163b658307312a0f3eeba17f0e", "fusion_lon": 0.0, "bike_id": "d83487163b658307312a0f3eeba17f0e", "is_disabled": 0, "is_reserved": 0}, {"rental_uris": {"ios": "https://dc.lft.to/lastmile_qr_scan", "android": "https://dc.lft.to/lastmile_qr_scan"}, "lon": -77.04109866666667, "type": "electric_scooter", "fusion_lat": 0.0, "lat": 38.9244425, "name": "e899360530533b68c31f524f60578833", "fusion_lon": 0.0, "bike_id": "e899360530533b68c31f524f60578833", "is_disabled": 0, "is_reserved": 0}, {"rental_uris": {"ios": "https://dc.lft.to/lastmile_qr_scan", "android": "https://dc.lft.to/lastmile_qr_scan"}, "lon": -76.97407333333334, "type": "electric_scooter", "fusion_lat": 0.0, "lat": 38.901568166666664, "name": "2c491554679b47f6bcdd63330cfb0ac9", "fusion_lon": 0.0, "bike_id": "2c491554679b47f6bcdd63330cfb0ac9", "is_disabled": 0, "is_reserved": 0}, {"rental_uris": {"ios": "https://dc.lft.to/lastmile_qr_scan", "android": "https://dc.lft.to/lastmile_qr_scan"}, "lon": -77.01135233333333, "type": "electric_scooter", "fusion_lat": 0.0, "lat": 38.918104666666665, "name": "b040185bcf839455678638b6c5d05a8f", "fusion_lon": 0.0, "bike_id": "b040185bcf839455678638b6c5d05a8f", "is_disabled": 0, "is_reserved": 0}, {"rental_uris": {"ios": "https://dc.lft.to/lastmile_qr_scan", "android": "https://dc.lft.to/lastmile_qr_scan"}, "lon": -76.93718066666666, "type": "electric_scooter", "fusion_lat": 0.0, "lat": 38.895913, "name": "3edd400cb7ef9ee72ff45f834ad1160b", "fusion_lon": 0.0, "bike_id": "3edd400cb7ef9ee72ff45f834ad1160b", "is_disabled": 0, "is_reserved": 0}, {"rental_uris": {"ios": "https://dc.lft.to/lastmile_qr_scan", "android": "https://dc.lft.to/lastmile_qr_scan"}, "lon": -77.00248783333333, "type": "electric_scooter", "fusion_lat": 0.0, "lat": 38.9119325, "name": "ca0a4ff7f5952e738ba6c7c5daf93442", "fusion_lon": 0.0, "bike_id": "ca0a4ff7f5952e738ba6c7c5daf93442", "is_disabled": 0, "is_reserved": 0}, {"rental_uris": {"ios": "https://dc.lft.to/lastmile_qr_scan", "android": "https://dc.lft.to/lastmile_qr_scan"}, "lon": -77.0476815, "type": "electric_scooter", "fusion_lat": 0.0, "lat": 38.90856633333333, "name": "df42bf8cd9cc60db1fc4b7b74e76ebef", "fusion_lon": 0.0, "bike_id": "df42bf8cd9cc60db1fc4b7b74e76ebef", "is_disabled": 0, "is_reserved": 0}, {"rental_uris": {"ios": "https://dc.lft.to/lastmile_qr_scan", "android": "https://dc.lft.to/lastmile_qr_scan"}, "lon": -77.0698595, "type": "electric_scooter", "fusion_lat": 0.0, "lat": 38.95484666666667, "name": "69ca0496f07090df57925d0feb6fa894", "fusion_lon": 0.0, "bike_id": "69ca0496f07090df57925d0feb6fa894", "is_disabled": 0, "is_reserved": 0}, {"rental_uris": {"ios": "https://dc.lft.to/lastmile_qr_scan", "android": "https://dc.lft.to/lastmile_qr_scan"}, "lon": -77.026161, "type": "electric_scooter", "fusion_lat": 0.0, "lat": 38.933977666666664, "name": "f7276aebe40e98626e5ec4ebd2fbe799", "fusion_lon": 0.0, "bike_id": "f7276aebe40e98626e5ec4ebd2fbe799", "is_disabled": 0, "is_reserved": 0}, {"rental_uris": {"ios": "https://dc.lft.to/lastmile_qr_scan", "android": "https://dc.lft.to/lastmile_qr_scan"}, "lon": -77.0632655, "type": "electric_scooter", "fusion_lat": 0.0, "lat": 38.907680166666665, "name": "f68045d32663359b93c6a1ee47c89aa8", "fusion_lon": 0.0, "bike_id": "f68045d32663359b93c6a1ee47c89aa8", "is_disabled": 0, "is_reserved": 0}, {"rental_uris": {"ios": "https://dc.lft.to/lastmile_qr_scan", "android": "https://dc.lft.to/lastmile_qr_scan"}, "lon": -76.99793016666666, "type": "electric_scooter", "fusion_lat": 0.0, "lat": 38.92180833333333, "name": "70f4cc16ca0b08ba6092604da9f7c5ba", "fusion_lon": 0.0, "bike_id": "70f4cc16ca0b08ba6092604da9f7c5ba", "is_disabled": 0, "is_reserved": 0}, {"rental_uris": {"ios": "https://dc.lft.to/lastmile_qr_scan", "android": "https://dc.lft.to/lastmile_qr_scan"}, "lon": -76.99945183333334, "type": "electric_scooter", "fusion_lat": 0.0, "lat": 38.90700283333334, "name": "c148263e3dfb01d20a856fb2dbe251d8", "fusion_lon": 0.0, "bike_id": "c148263e3dfb01d20a856fb2dbe251d8", "is_disabled": 0, "is_reserved": 0}, {"rental_uris": {"ios": "https://dc.lft.to/lastmile_qr_scan", "android": "https://dc.lft.to/lastmile_qr_scan"}, "lon": -77.02401766666667, "type": "electric_scooter", "fusion_lat": 0.0, "lat": 38.91423266666666, "name": "19f26257b3496e17ccc537262a1a8af8", "fusion_lon": 0.0, "bike_id": "19f26257b3496e17ccc537262a1a8af8", "is_disabled": 0, "is_reserved": 0}, {"rental_uris": {"ios": "https://dc.lft.to/lastmile_qr_scan", "android": "https://dc.lft.to/lastmile_qr_scan"}, "lon": -76.99974183333333, "type": "electric_scooter", "fusion_lat": 0.0, "lat": 38.8383655, "name": "9aab4f7782df9b4ae864e22b92b92c34", "fusion_lon": 0.0, "bike_id": "9aab4f7782df9b4ae864e22b92b92c34", "is_disabled": 0, "is_reserved": 0}, {"rental_uris": {"ios": "https://dc.lft.to/lastmile_qr_scan", "android": "https://dc.lft.to/lastmile_qr_scan"}, "lon": -77.00510433333334, "type": "electric_scooter", "fusion_lat": 0.0, "lat": 38.917084, "name": "10dad6a7fc55423dcb067ee361a6ff2d", "fusion_lon": 0.0, "bike_id": "10dad6a7fc55423dcb067ee361a6ff2d", "is_disabled": 0, "is_reserved": 0}, {"rental_uris": {"ios": "https://dc.lft.to/lastmile_qr_scan", "android": "https://dc.lft.to/lastmile_qr_scan"}, "lon": -77.05335716666667, "type": "electric_scooter", "fusion_lat": 0.0, "lat": 38.90596983333333, "name": "c4e908d2265aa63ce896a2d86317df21", "fusion_lon": 0.0, "bike_id": "c4e908d2265aa63ce896a2d86317df21", "is_disabled": 0, "is_reserved": 0}, {"rental_uris": {"ios": "https://dc.lft.to/lastmile_qr_scan", "android": "https://dc.lft.to/lastmile_qr_scan"}, "lon": -76.99502150000001, "type": "electric_bike", "fusion_lat": 0.0, "lat": 39.00002933333333, "name": "b7ebf62171a839181d6d98bb3c538236", "fusion_lon": 0.0, "bike_id": "b7ebf62171a839181d6d98bb3c538236", "is_disabled": 0, "is_reserved": 0}, {"rental_uris": {"ios": "https://dc.lft.to/lastmile_qr_scan", "android": "https://dc.lft.to/lastmile_qr_scan"}, "lon": -77.04148116666667, "type": "electric_scooter", "fusion_lat": 0.0, "lat": 38.9170645, "name": "50c5e4bbb7f68384559b2b4d18c09e94", "fusion_lon": 0.0, "bike_id": "50c5e4bbb7f68384559b2b4d18c09e94", "is_disabled": 0, "is_reserved": 0}, {"rental_uris": {"ios": "https://dc.lft.to/lastmile_qr_scan", "android": "https://dc.lft.to/lastmile_qr_scan"}, "lon": -77.03318266666666, "type": "electric_scooter", "fusion_lat": 0.0, "lat": 38.902647333333334, "name": "224d9ea6b2068ca2ce532947a9c5e097", "fusion_lon": 0.0, "bike_id": "224d9ea6b2068ca2ce532947a9c5e097", "is_disabled": 0, "is_reserved": 0}, {"rental_uris": {"ios": "https://dc.lft.to/lastmile_qr_scan", "android": "https://dc.lft.to/lastmile_qr_scan"}, "lon": -77.05701383333333, "type": "electric_scooter", "fusion_lat": 0.0, "lat": 38.90556216666667, "name": "4aa09305c6eb2be452aea839763c55c9", "fusion_lon": 0.0, "bike_id": "4aa09305c6eb2be452aea839763c55c9", "is_disabled": 0, "is_reserved": 0}, {"rental_uris": {"ios": "https://dc.lft.to/lastmile_qr_scan", "android": "https://dc.lft.to/lastmile_qr_scan"}, "lon": -76.953569, "type": "electric_bike", "fusion_lat": 0.0, "lat": 38.93954766666667, "name": "775823ca01bf4a1db77ba51b26a2c4eb", "fusion_lon": 0.0, "bike_id": "775823ca01bf4a1db77ba51b26a2c4eb", "is_disabled": 0, "is_reserved": 0}, {"rental_uris": {"ios": "https://dc.lft.to/lastmile_qr_scan", "android": "https://dc.lft.to/lastmile_qr_scan"}, "lon": -77.17845983333333, "type": "electric_bike", "fusion_lat": 0.0, "lat": 39.088593, "name": "35b4ccf4856f610ebe029d5a6d386fca", "fusion_lon": 0.0, "bike_id": "35b4ccf4856f610ebe029d5a6d386fca", "is_disabled": 0, "is_reserved": 0}, {"rental_uris": {"ios": "https://dc.lft.to/lastmile_qr_scan", "android": "https://dc.lft.to/lastmile_qr_scan"}, "lon": -76.9871285, "type": "electric_scooter", "fusion_lat": 0.0, "lat": 38.867023333333336, "name": "5595852b01d08a629b040228ce637452", "fusion_lon": 0.0, "bike_id": "5595852b01d08a629b040228ce637452", "is_disabled": 0, "is_reserved": 0}, {"rental_uris": {"ios": "https://dc.lft.to/lastmile_qr_scan", "android": "https://dc.lft.to/lastmile_qr_scan"}, "lon": -77.0413425, "type": "electric_scooter", "fusion_lat": 0.0, "lat": 38.92343133333333, "name": "f4269a864e226b08cb68dc6cb6ec05bf", "fusion_lon": 0.0, "bike_id": "f4269a864e226b08cb68dc6cb6ec05bf", "is_disabled": 0, "is_reserved": 0}, {"rental_uris": {"ios": "https://dc.lft.to/lastmile_qr_scan", "android": "https://dc.lft.to/lastmile_qr_scan"}, "lon": -77.0430555, "type": "electric_bike", "fusion_lat": 0.0, "lat": 39.0544945, "name": "107a0a8730aa6f71b3780f975484ba26", "fusion_lon": 0.0, "bike_id": "107a0a8730aa6f71b3780f975484ba26", "is_disabled": 0, "is_reserved": 0}, {"rental_uris": {"ios": "https://dc.lft.to/lastmile_qr_scan", "android": "https://dc.lft.to/lastmile_qr_scan"}, "lon": -76.98900633333334, "type": "electric_scooter", "fusion_lat": 0.0, "lat": 38.8669525, "name": "038309da34b68cff546fee5c2a0d318e", "fusion_lon": 0.0, "bike_id": "038309da34b68cff546fee5c2a0d318e", "is_disabled": 0, "is_reserved": 0}, {"rental_uris": {"ios": "https://dc.lft.to/lastmile_qr_scan", "android": "https://dc.lft.to/lastmile_qr_scan"}, "lon": -76.99517566666667, "type": "electric_scooter", "fusion_lat": 0.0, "lat": 38.86260716666666, "name": "965b9c0e867e9799500ab5d636ab12b3", "fusion_lon": 0.0, "bike_id": "965b9c0e867e9799500ab5d636ab12b3", "is_disabled": 0, "is_reserved": 0}, {"rental_uris": {"ios": "https://dc.lft.to/lastmile_qr_scan", "android": "https://dc.lft.to/lastmile_qr_scan"}, "lon": -77.01082133333334, "type": "electric_scooter", "fusion_lat": 0.0, "lat": 38.91627716666667, "name": "d2b91b6ce83ebfd31a9563530d014e6a", "fusion_lon": 0.0, "bike_id": "d2b91b6ce83ebfd31a9563530d014e6a", "is_disabled": 0, "is_reserved": 0}, {"rental_uris": {"ios": "https://dc.lft.to/lastmile_qr_scan", "android": "https://dc.lft.to/lastmile_qr_scan"}, "lon": -77.03265216666667, "type": "electric_scooter", "fusion_lat": 0.0, "lat": 38.9380975, "name": "da8e7b67a9a7ac4259f6e5eb4fb119d1", "fusion_lon": 0.0, "bike_id": "da8e7b67a9a7ac4259f6e5eb4fb119d1", "is_disabled": 0, "is_reserved": 0}, {"rental_uris": {"ios": "https://dc.lft.to/lastmile_qr_scan", "android": "https://dc.lft.to/lastmile_qr_scan"}, "lon": -77.0084485, "type": "electric_bike", "fusion_lat": 0.0, "lat": 38.949178333333336, "name": "db0200e41d7377651d88350cb2441a81", "fusion_lon": 0.0, "bike_id": "db0200e41d7377651d88350cb2441a81", "is_disabled": 0, "is_reserved": 0}, {"rental_uris": {"ios": "https://dc.lft.to/lastmile_qr_scan", "android": "https://dc.lft.to/lastmile_qr_scan"}, "lon": -77.029768, "type": "electric_scooter", "fusion_lat": 0.0, "lat": 38.9623155, "name": "dee66dd8960e34909537dcd89650f7d8", "fusion_lon": 0.0, "bike_id": "dee66dd8960e34909537dcd89650f7d8", "is_disabled": 0, "is_reserved": 0}, {"rental_uris": {"ios": "https://dc.lft.to/lastmile_qr_scan", "android": "https://dc.lft.to/lastmile_qr_scan"}, "lon": -77.01354883333333, "type": "electric_scooter", "fusion_lat": 0.0, "lat": 38.871164, "name": "f5ba7d27f389a01c9b361d962e73688a", "fusion_lon": 0.0, "bike_id": "f5ba7d27f389a01c9b361d962e73688a", "is_disabled": 0, "is_reserved": 0}, {"rental_uris": {"ios": "https://dc.lft.to/lastmile_qr_scan", "android": "https://dc.lft.to/lastmile_qr_scan"}, "lon": -77.03148566666667, "type": "electric_scooter", "fusion_lat": 0.0, "lat": 38.88302183333333, "name": "3c1c40febbd28663577ab4a42749b3a0", "fusion_lon": 0.0, "bike_id": "3c1c40febbd28663577ab4a42749b3a0", "is_disabled": 0, "is_reserved": 0}, {"rental_uris": {"ios": "https://dc.lft.to/lastmile_qr_scan", "android": "https://dc.lft.to/lastmile_qr_scan"}, "lon": -77.0284195, "type": "electric_scooter", "fusion_lat": 0.0, "lat": 38.934761333333334, "name": "2fdc1111919939223c6bd83a7babbb17", "fusion_lon": 0.0, "bike_id": "2fdc1111919939223c6bd83a7babbb17", "is_disabled": 0, "is_reserved": 0}, {"rental_uris": {"ios": "https://dc.lft.to/lastmile_qr_scan", "android": "https://dc.lft.to/lastmile_qr_scan"}, "lon": -77.00406266666667, "type": "electric_scooter", "fusion_lat": 0.0, "lat": 38.879378, "name": "1b08f4312b0dc6a31a46c6d61733a8ca", "fusion_lon": 0.0, "bike_id": "1b08f4312b0dc6a31a46c6d61733a8ca", "is_disabled": 0, "is_reserved": 0}, {"rental_uris": {"ios": "https://dc.lft.to/lastmile_qr_scan", "android": "https://dc.lft.to/lastmile_qr_scan"}, "lon": -77.03470883333334, "type": "electric_scooter", "fusion_lat": 0.0, "lat": 38.920451666666665, "name": "9ab747c409330d7306f883570e5ee4c8", "fusion_lon": 0.0, "bike_id": "9ab747c409330d7306f883570e5ee4c8", "is_disabled": 0, "is_reserved": 0}, {"rental_uris": {"ios": "https://dc.lft.to/lastmile_qr_scan", "android": "https://dc.lft.to/lastmile_qr_scan"}, "lon": -77.141216, "type": "electric_bike", "fusion_lat": 0.0, "lat": 38.81603366666667, "name": "16f7b77d6a338565898247b3ff9b93a7", "fusion_lon": 0.0, "bike_id": "16f7b77d6a338565898247b3ff9b93a7", "is_disabled": 0, "is_reserved": 0}, {"rental_uris": {"ios": "https://dc.lft.to/lastmile_qr_scan", "android": "https://dc.lft.to/lastmile_qr_scan"}, "lon": -76.98992466666667, "type": "electric_scooter", "fusion_lat": 0.0, "lat": 38.9039135, "name": "4d8a5c282ad2df624f65cc07f512aa6e", "fusion_lon": 0.0, "bike_id": "4d8a5c282ad2df624f65cc07f512aa6e", "is_disabled": 0, "is_reserved": 0}, {"rental_uris": {"ios": "https://dc.lft.to/lastmile_qr_scan", "android": "https://dc.lft.to/lastmile_qr_scan"}, "lon": -76.99549916666666, "type": "electric_scooter", "fusion_lat": 0.0, "lat": 38.86235933333333, "name": "56f29a1270873c90d87348c74c48f819", "fusion_lon": 0.0, "bike_id": "56f29a1270873c90d87348c74c48f819", "is_disabled": 0, "is_reserved": 0}, {"rental_uris": {"ios": "https://dc.lft.to/lastmile_qr_scan", "android": "https://dc.lft.to/lastmile_qr_scan"}, "lon": -77.059261, "type": "electric_scooter", "fusion_lat": 0.0, "lat": 38.90950316666667, "name": "a60982d877a78271764ff93e5bcd9df3", "fusion_lon": 0.0, "bike_id": "a60982d877a78271764ff93e5bcd9df3", "is_disabled": 0, "is_reserved": 0}, {"rental_uris": {"ios": "https://dc.lft.to/lastmile_qr_scan", "android": "https://dc.lft.to/lastmile_qr_scan"}, "lon": -77.019898, "type": "electric_scooter", "fusion_lat": 0.0, "lat": 38.937809, "name": "bb4a8cc96b11baa732936a4b3aead925", "fusion_lon": 0.0, "bike_id": "bb4a8cc96b11baa732936a4b3aead925", "is_disabled": 0, "is_reserved": 0}, {"rental_uris": {"ios": "https://dc.lft.to/lastmile_qr_scan", "android": "https://dc.lft.to/lastmile_qr_scan"}, "lon": -77.01014683333334, "type": "electric_scooter", "fusion_lat": 0.0, "lat": 38.91812133333333, "name": "c33192d9ba10e2d1971a6cc6648e41de", "fusion_lon": 0.0, "bike_id": "c33192d9ba10e2d1971a6cc6648e41de", "is_disabled": 0, "is_reserved": 0}, {"rental_uris": {"ios": "https://dc.lft.to/lastmile_qr_scan", "android": "https://dc.lft.to/lastmile_qr_scan"}, "lon": -77.06472633333334, "type": "electric_scooter", "fusion_lat": 0.0, "lat": 38.90524883333333, "name": "87cc39b5a0a6cc4c55d7cfaaf15bc173", "fusion_lon": 0.0, "bike_id": "87cc39b5a0a6cc4c55d7cfaaf15bc173", "is_disabled": 0, "is_reserved": 0}, {"rental_uris": {"ios": "https://dc.lft.to/lastmile_qr_scan", "android": "https://dc.lft.to/lastmile_qr_scan"}, "lon": -77.04213033333333, "type": "electric_scooter", "fusion_lat": 0.0, "lat": 38.906493166666664, "name": "65caaba7db8bac43f6605352e508243f", "fusion_lon": 0.0, "bike_id": "65caaba7db8bac43f6605352e508243f", "is_disabled": 0, "is_reserved": 0}, {"rental_uris": {"ios": "https://dc.lft.to/lastmile_qr_scan", "android": "https://dc.lft.to/lastmile_qr_scan"}, "lon": -77.04298766666666, "type": "electric_scooter", "fusion_lat": 0.0, "lat": 38.9065875, "name": "c610f10d1e0cdd575f2e6dbd38e9c194", "fusion_lon": 0.0, "bike_id": "c610f10d1e0cdd575f2e6dbd38e9c194", "is_disabled": 0, "is_reserved": 0}, {"rental_uris": {"ios": "https://dc.lft.to/lastmile_qr_scan", "android": "https://dc.lft.to/lastmile_qr_scan"}, "lon": -77.03446883333334, "type": "electric_scooter", "fusion_lat": 0.0, "lat": 38.91819433333333, "name": "b6feb77c9fe4cc75dd6f4ba3d526878a", "fusion_lon": 0.0, "bike_id": "b6feb77c9fe4cc75dd6f4ba3d526878a", "is_disabled": 0, "is_reserved": 0}, {"rental_uris": {"ios": "https://dc.lft.to/lastmile_qr_scan", "android": "https://dc.lft.to/lastmile_qr_scan"}, "lon": -77.06285716666666, "type": "electric_scooter", "fusion_lat": 0.0, "lat": 38.90395616666667, "name": "565696a0a20f8df382bee88666ead201", "fusion_lon": 0.0, "bike_id": "565696a0a20f8df382bee88666ead201", "is_disabled": 0, "is_reserved": 0}, {"rental_uris": {"ios": "https://dc.lft.to/lastmile_qr_scan", "android": "https://dc.lft.to/lastmile_qr_scan"}, "lon": -76.931762, "type": "electric_scooter", "fusion_lat": 0.0, "lat": 38.89884466666667, "name": "dad3567cd2862f8ab586d5b7178de56b", "fusion_lon": 0.0, "bike_id": "dad3567cd2862f8ab586d5b7178de56b", "is_disabled": 0, "is_reserved": 0}, {"rental_uris": {"ios": "https://dc.lft.to/lastmile_qr_scan", "android": "https://dc.lft.to/lastmile_qr_scan"}, "lon": -77.35309666666667, "type": "electric_bike", "fusion_lat": 0.0, "lat": 38.9500285, "name": "800f1662418fa09cb50b567c7fd1c99c", "fusion_lon": 0.0, "bike_id": "800f1662418fa09cb50b567c7fd1c99c", "is_disabled": 0, "is_reserved": 0}, {"rental_uris": {"ios": "https://dc.lft.to/lastmile_qr_scan", "android": "https://dc.lft.to/lastmile_qr_scan"}, "lon": -76.99488583333333, "type": "electric_scooter", "fusion_lat": 0.0, "lat": 38.899526, "name": "e24d7d696c4e6a215b157b27c383f213", "fusion_lon": 0.0, "bike_id": "e24d7d696c4e6a215b157b27c383f213", "is_disabled": 0, "is_reserved": 0}, {"rental_uris": {"ios": "https://dc.lft.to/lastmile_qr_scan", "android": "https://dc.lft.to/lastmile_qr_scan"}, "lon": -77.03951616666667, "type": "electric_scooter", "fusion_lat": 0.0, "lat": 38.901281, "name": "8f238c54aab6664cf2f31e2c82e1863e", "fusion_lon": 0.0, "bike_id": "8f238c54aab6664cf2f31e2c82e1863e", "is_disabled": 0, "is_reserved": 0}, {"rental_uris": {"ios": "https://dc.lft.to/lastmile_qr_scan", "android": "https://dc.lft.to/lastmile_qr_scan"}, "lon": -76.98724216666666, "type": "electric_scooter", "fusion_lat": 0.0, "lat": 38.88418566666667, "name": "2e75784d1a45750e303042be0dc4ff5d", "fusion_lon": 0.0, "bike_id": "2e75784d1a45750e303042be0dc4ff5d", "is_disabled": 0, "is_reserved": 0}, {"rental_uris": {"ios": "https://dc.lft.to/lastmile_qr_scan", "android": "https://dc.lft.to/lastmile_qr_scan"}, "lon": -77.01768516666667, "type": "electric_scooter", "fusion_lat": 0.0, "lat": 38.90384816666667, "name": "bec38fdbbebef68a28db14963c267320", "fusion_lon": 0.0, "bike_id": "bec38fdbbebef68a28db14963c267320", "is_disabled": 0, "is_reserved": 0}, {"rental_uris": {"ios": "https://dc.lft.to/lastmile_qr_scan", "android": "https://dc.lft.to/lastmile_qr_scan"}, "lon": -77.04577833333333, "type": "electric_scooter", "fusion_lat": 0.0, "lat": 38.902562333333336, "name": "6e34c8e3a56fa4ff2ef07ea260818569", "fusion_lon": 0.0, "bike_id": "6e34c8e3a56fa4ff2ef07ea260818569", "is_disabled": 0, "is_reserved": 0}, {"rental_uris": {"ios": "https://dc.lft.to/lastmile_qr_scan", "android": "https://dc.lft.to/lastmile_qr_scan"}, "lon": -77.0526645, "type": "electric_scooter", "fusion_lat": 0.0, "lat": 38.910151666666664, "name": "c2f996f7b7622f70f71b299e8d493492", "fusion_lon": 0.0, "bike_id": "c2f996f7b7622f70f71b299e8d493492", "is_disabled": 0, "is_reserved": 0}, {"rental_uris": {"ios": "https://dc.lft.to/lastmile_qr_scan", "android": "https://dc.lft.to/lastmile_qr_scan"}, "lon": -77.03802483333334, "type": "electric_scooter", "fusion_lat": 0.0, "lat": 38.92191033333334, "name": "46426fcd5e99334159d730577232dab0", "fusion_lon": 0.0, "bike_id": "46426fcd5e99334159d730577232dab0", "is_disabled": 0, "is_reserved": 0}, {"rental_uris": {"ios": "https://dc.lft.to/lastmile_qr_scan", "android": "https://dc.lft.to/lastmile_qr_scan"}, "lon": -77.0257765, "type": "electric_scooter", "fusion_lat": 0.0, "lat": 38.918244, "name": "5580f2c8ee4cacbc640d00677a1266ce", "fusion_lon": 0.0, "bike_id": "5580f2c8ee4cacbc640d00677a1266ce", "is_disabled": 0, "is_reserved": 0}, {"rental_uris": {"ios": "https://dc.lft.to/lastmile_qr_scan", "android": "https://dc.lft.to/lastmile_qr_scan"}, "lon": -77.03957366666667, "type": "electric_scooter", "fusion_lat": 0.0, "lat": 38.9025595, "name": "45cac8ada83369e362ff79e5cc647d8c", "fusion_lon": 0.0, "bike_id": "45cac8ada83369e362ff79e5cc647d8c", "is_disabled": 0, "is_reserved": 0}, {"rental_uris": {"ios": "https://dc.lft.to/lastmile_qr_scan", "android": "https://dc.lft.to/lastmile_qr_scan"}, "lon": -77.03670833333334, "type": "electric_scooter", "fusion_lat": 0.0, "lat": 38.92994916666667, "name": "3f41e6738ea6111f0188ff2a6235693d", "fusion_lon": 0.0, "bike_id": "3f41e6738ea6111f0188ff2a6235693d", "is_disabled": 0, "is_reserved": 0}, {"rental_uris": {"ios": "https://dc.lft.to/lastmile_qr_scan", "android": "https://dc.lft.to/lastmile_qr_scan"}, "lon": -77.024565, "type": "electric_scooter", "fusion_lat": 0.0, "lat": 38.97936033333333, "name": "8bc7445cfbd7bd074239791c5bc01757", "fusion_lon": 0.0, "bike_id": "8bc7445cfbd7bd074239791c5bc01757", "is_disabled": 0, "is_reserved": 0}, {"rental_uris": {"ios": "https://dc.lft.to/lastmile_qr_scan", "android": "https://dc.lft.to/lastmile_qr_scan"}, "lon": -76.97329683333334, "type": "electric_bike", "fusion_lat": 0.0, "lat": 38.8506265, "name": "d239bbca26201002ea0a82c989f305a2", "fusion_lon": 0.0, "bike_id": "d239bbca26201002ea0a82c989f305a2", "is_disabled": 0, "is_reserved": 0}, {"rental_uris": {"ios": "https://dc.lft.to/lastmile_qr_scan", "android": "https://dc.lft.to/lastmile_qr_scan"}, "lon": -77.04131683333334, "type": "electric_scooter", "fusion_lat": 0.0, "lat": 38.9234815, "name": "98a6ce3049a1c046c3b4dc24778ca368", "fusion_lon": 0.0, "bike_id": "98a6ce3049a1c046c3b4dc24778ca368", "is_disabled": 0, "is_reserved": 0}, {"rental_uris": {"ios": "https://dc.lft.to/lastmile_qr_scan", "android": "https://dc.lft.to/lastmile_qr_scan"}, "lon": -77.03071983333334, "type": "electric_scooter", "fusion_lat": 0.0, "lat": 38.904572, "name": "dfac8421702d778d5abb0eb589275d64", "fusion_lon": 0.0, "bike_id": "dfac8421702d778d5abb0eb589275d64", "is_disabled": 0, "is_reserved": 0}, {"rental_uris": {"ios": "https://dc.lft.to/lastmile_qr_scan", "android": "https://dc.lft.to/lastmile_qr_scan"}, "lon": -77.04793383333333, "type": "electric_scooter", "fusion_lat": 0.0, "lat": 38.907240333333334, "name": "348d1887dc8807df5eeffa3c7051da9b", "fusion_lon": 0.0, "bike_id": "348d1887dc8807df5eeffa3c7051da9b", "is_disabled": 0, "is_reserved": 0}, {"rental_uris": {"ios": "https://dc.lft.to/lastmile_qr_scan", "android": "https://dc.lft.to/lastmile_qr_scan"}, "lon": -77.03661816666667, "type": "electric_scooter", "fusion_lat": 0.0, "lat": 38.9181705, "name": "fda088bf534b6af8fab29a195be41b57", "fusion_lon": 0.0, "bike_id": "fda088bf534b6af8fab29a195be41b57", "is_disabled": 0, "is_reserved": 0}, {"rental_uris": {"ios": "https://dc.lft.to/lastmile_qr_scan", "android": "https://dc.lft.to/lastmile_qr_scan"}, "lon": -77.03464383333333, "type": "electric_scooter", "fusion_lat": 0.0, "lat": 38.914473666666666, "name": "03a21deb753d6e1ea37b45fe9833db3f", "fusion_lon": 0.0, "bike_id": "03a21deb753d6e1ea37b45fe9833db3f", "is_disabled": 0, "is_reserved": 0}, {"rental_uris": {"ios": "https://dc.lft.to/lastmile_qr_scan", "android": "https://dc.lft.to/lastmile_qr_scan"}, "lon": -77.06938833333334, "type": "electric_scooter", "fusion_lat": 0.0, "lat": 38.9051315, "name": "887f96904e21d930531a2a077d7d8a18", "fusion_lon": 0.0, "bike_id": "887f96904e21d930531a2a077d7d8a18", "is_disabled": 0, "is_reserved": 0}, {"rental_uris": {"ios": "https://dc.lft.to/lastmile_qr_scan", "android": "https://dc.lft.to/lastmile_qr_scan"}, "lon": -77.0338795, "type": "electric_scooter", "fusion_lat": 0.0, "lat": 38.938455833333336, "name": "29c8dd19eb3694d21781b0c3d1259dd4", "fusion_lon": 0.0, "bike_id": "29c8dd19eb3694d21781b0c3d1259dd4", "is_disabled": 0, "is_reserved": 0}, {"rental_uris": {"ios": "https://dc.lft.to/lastmile_qr_scan", "android": "https://dc.lft.to/lastmile_qr_scan"}, "lon": -77.026907, "type": "electric_scooter", "fusion_lat": 0.0, "lat": 38.9015605, "name": "fb8a364bad9600cd8f9e291d414473a8", "fusion_lon": 0.0, "bike_id": "fb8a364bad9600cd8f9e291d414473a8", "is_disabled": 0, "is_reserved": 0}, {"rental_uris": {"ios": "https://dc.lft.to/lastmile_qr_scan", "android": "https://dc.lft.to/lastmile_qr_scan"}, "lon": -77.09750533333333, "type": "electric_bike", "fusion_lat": 0.0, "lat": 38.85851316666667, "name": "a826a515da4f3b1778390df8c86a69e6", "fusion_lon": 0.0, "bike_id": "a826a515da4f3b1778390df8c86a69e6", "is_disabled": 0, "is_reserved": 0}, {"rental_uris": {"ios": "https://dc.lft.to/lastmile_qr_scan", "android": "https://dc.lft.to/lastmile_qr_scan"}, "lon": -77.03453783333333, "type": "electric_scooter", "fusion_lat": 0.0, "lat": 38.9181505, "name": "7a4c4655111ada9f505fa58dd3696a41", "fusion_lon": 0.0, "bike_id": "7a4c4655111ada9f505fa58dd3696a41", "is_disabled": 0, "is_reserved": 0}, {"rental_uris": {"ios": "https://dc.lft.to/lastmile_qr_scan", "android": "https://dc.lft.to/lastmile_qr_scan"}, "lon": -77.098672, "type": "electric_bike", "fusion_lat": 0.0, "lat": 38.85374766666666, "name": "0f8393c10d6d3cdbbc8baa778de98513", "fusion_lon": 0.0, "bike_id": "0f8393c10d6d3cdbbc8baa778de98513", "is_disabled": 0, "is_reserved": 0}, {"rental_uris": {"ios": "https://dc.lft.to/lastmile_qr_scan", "android": "https://dc.lft.to/lastmile_qr_scan"}, "lon": -77.04054716666667, "type": "electric_scooter", "fusion_lat": 0.0, "lat": 38.92713833333333, "name": "9193559e1c09b177c4dc43be78c336d4", "fusion_lon": 0.0, "bike_id": "9193559e1c09b177c4dc43be78c336d4", "is_disabled": 0, "is_reserved": 0}, {"rental_uris": {"ios": "https://dc.lft.to/lastmile_qr_scan", "android": "https://dc.lft.to/lastmile_qr_scan"}, "lon": -77.027958, "type": "electric_scooter", "fusion_lat": 0.0, "lat": 38.92971516666667, "name": "114031845b40e3b3d0d5f415426a0208", "fusion_lon": 0.0, "bike_id": "114031845b40e3b3d0d5f415426a0208", "is_disabled": 0, "is_reserved": 0}, {"rental_uris": {"ios": "https://dc.lft.to/lastmile_qr_scan", "android": "https://dc.lft.to/lastmile_qr_scan"}, "lon": -77.04576883333333, "type": "electric_scooter", "fusion_lat": 0.0, "lat": 38.908593833333335, "name": "9a5ed86f52533d0f8a7459120cf60a82", "fusion_lon": 0.0, "bike_id": "9a5ed86f52533d0f8a7459120cf60a82", "is_disabled": 0, "is_reserved": 0}, {"rental_uris": {"ios": "https://dc.lft.to/lastmile_qr_scan", "android": "https://dc.lft.to/lastmile_qr_scan"}, "lon": -77.0412835, "type": "electric_bike", "fusion_lat": 0.0, "lat": 38.922458666666664, "name": "4acfc71a17aa77aef8b7b02d33cd6056", "fusion_lon": 0.0, "bike_id": "4acfc71a17aa77aef8b7b02d33cd6056", "is_disabled": 0, "is_reserved": 0}, {"rental_uris": {"ios": "https://dc.lft.to/lastmile_qr_scan", "android": "https://dc.lft.to/lastmile_qr_scan"}, "lon": -77.04884466666667, "type": "electric_scooter", "fusion_lat": 0.0, "lat": 38.900666, "name": "8744f29773c1b87c1469c605513f665c", "fusion_lon": 0.0, "bike_id": "8744f29773c1b87c1469c605513f665c", "is_disabled": 0, "is_reserved": 0}, {"rental_uris": {"ios": "https://dc.lft.to/lastmile_qr_scan", "android": "https://dc.lft.to/lastmile_qr_scan"}, "lon": -77.02179383333333, "type": "electric_scooter", "fusion_lat": 0.0, "lat": 38.90544766666667, "name": "ab4a1ef3a5053971a7d7b0bda24bf13f", "fusion_lon": 0.0, "bike_id": "ab4a1ef3a5053971a7d7b0bda24bf13f", "is_disabled": 0, "is_reserved": 0}, {"rental_uris": {"ios": "https://dc.lft.to/lastmile_qr_scan", "android": "https://dc.lft.to/lastmile_qr_scan"}, "lon": -77.036684, "type": "electric_scooter", "fusion_lat": 0.0, "lat": 38.907921, "name": "66fe52d427f6c53a088710c256c78a83", "fusion_lon": 0.0, "bike_id": "66fe52d427f6c53a088710c256c78a83", "is_disabled": 0, "is_reserved": 0}, {"rental_uris": {"ios": "https://dc.lft.to/lastmile_qr_scan", "android": "https://dc.lft.to/lastmile_qr_scan"}, "lon": -77.06380183333333, "type": "electric_scooter", "fusion_lat": 0.0, "lat": 38.90511983333333, "name": "85aea0599c8948518265d9874266b944", "fusion_lon": 0.0, "bike_id": "85aea0599c8948518265d9874266b944", "is_disabled": 0, "is_reserved": 0}, {"rental_uris": {"ios": "https://dc.lft.to/lastmile_qr_scan", "android": "https://dc.lft.to/lastmile_qr_scan"}, "lon": -77.00762933333333, "type": "electric_scooter", "fusion_lat": 0.0, "lat": 38.90714166666667, "name": "ed72fac6fae89bb5281fde7d61ab5ca8", "fusion_lon": 0.0, "bike_id": "ed72fac6fae89bb5281fde7d61ab5ca8", "is_disabled": 0, "is_reserved": 0}, {"rental_uris": {"ios": "https://dc.lft.to/lastmile_qr_scan", "android": "https://dc.lft.to/lastmile_qr_scan"}, "lon": -76.954118, "type": "electric_scooter", "fusion_lat": 0.0, "lat": 38.889977333333334, "name": "f09fb7885b6595542de45dd9fc87d85e", "fusion_lon": 0.0, "bike_id": "f09fb7885b6595542de45dd9fc87d85e", "is_disabled": 0, "is_reserved": 0}, {"rental_uris": {"ios": "https://dc.lft.to/lastmile_qr_scan", "android": "https://dc.lft.to/lastmile_qr_scan"}, "lon": -77.02315866666666, "type": "electric_scooter", "fusion_lat": 0.0, "lat": 38.92722233333333, "name": "1799856be4b53d4925f07bcf9188808a", "fusion_lon": 0.0, "bike_id": "1799856be4b53d4925f07bcf9188808a", "is_disabled": 0, "is_reserved": 0}, {"rental_uris": {"ios": "https://dc.lft.to/lastmile_qr_scan", "android": "https://dc.lft.to/lastmile_qr_scan"}, "lon": -77.065758, "type": "electric_bike", "fusion_lat": 0.0, "lat": 38.911383666666666, "name": "c4dc1020a7363cab62fb7dc24a03b431", "fusion_lon": 0.0, "bike_id": "c4dc1020a7363cab62fb7dc24a03b431", "is_disabled": 0, "is_reserved": 0}, {"rental_uris": {"ios": "https://dc.lft.to/lastmile_qr_scan", "android": "https://dc.lft.to/lastmile_qr_scan"}, "lon": -77.107127, "type": "electric_bike", "fusion_lat": 0.0, "lat": 38.855718333333336, "name": "ca50f913f0f1ad4c8b52a6668d6cb8a7", "fusion_lon": 0.0, "bike_id": "ca50f913f0f1ad4c8b52a6668d6cb8a7", "is_disabled": 0, "is_reserved": 0}, {"rental_uris": {"ios": "https://dc.lft.to/lastmile_qr_scan", "android": "https://dc.lft.to/lastmile_qr_scan"}, "lon": -77.02501266666667, "type": "electric_scooter", "fusion_lat": 0.0, "lat": 38.917105, "name": "3bdb1dbcd99ca75c8c322ab0905f8f93", "fusion_lon": 0.0, "bike_id": "3bdb1dbcd99ca75c8c322ab0905f8f93", "is_disabled": 0, "is_reserved": 0}, {"rental_uris": {"ios": "https://dc.lft.to/lastmile_qr_scan", "android": "https://dc.lft.to/lastmile_qr_scan"}, "lon": -77.041773, "type": "electric_scooter", "fusion_lat": 0.0, "lat": 38.90595666666667, "name": "c2ae03bb877d77e025158e20dbe2dc1a", "fusion_lon": 0.0, "bike_id": "c2ae03bb877d77e025158e20dbe2dc1a", "is_disabled": 0, "is_reserved": 0}, {"rental_uris": {"ios": "https://dc.lft.to/lastmile_qr_scan", "android": "https://dc.lft.to/lastmile_qr_scan"}, "lon": -77.0141755, "type": "electric_scooter", "fusion_lat": 0.0, "lat": 38.91703016666666, "name": "eedfd21e63dcb69a1dd684122b5083d6", "fusion_lon": 0.0, "bike_id": "eedfd21e63dcb69a1dd684122b5083d6", "is_disabled": 0, "is_reserved": 0}, {"rental_uris": {"ios": "https://dc.lft.to/lastmile_qr_scan", "android": "https://dc.lft.to/lastmile_qr_scan"}, "lon": -77.02796633333334, "type": "electric_scooter", "fusion_lat": 0.0, "lat": 38.9297065, "name": "964c197109efead9a21bbadc36974410", "fusion_lon": 0.0, "bike_id": "964c197109efead9a21bbadc36974410", "is_disabled": 0, "is_reserved": 0}, {"rental_uris": {"ios": "https://dc.lft.to/lastmile_qr_scan", "android": "https://dc.lft.to/lastmile_qr_scan"}, "lon": -76.9362845, "type": "electric_scooter", "fusion_lat": 0.0, "lat": 38.889920833333335, "name": "a247bc82830f9bde637951f9bdbfb368", "fusion_lon": 0.0, "bike_id": "a247bc82830f9bde637951f9bdbfb368", "is_disabled": 0, "is_reserved": 0}, {"rental_uris": {"ios": "https://dc.lft.to/lastmile_qr_scan", "android": "https://dc.lft.to/lastmile_qr_scan"}, "lon": -76.9336935, "type": "electric_scooter", "fusion_lat": 0.0, "lat": 38.89916066666667, "name": "fd3f1badc774abb8fd71c2ec7d0d8f14", "fusion_lon": 0.0, "bike_id": "fd3f1badc774abb8fd71c2ec7d0d8f14", "is_disabled": 0, "is_reserved": 0}, {"rental_uris": {"ios": "https://dc.lft.to/lastmile_qr_scan", "android": "https://dc.lft.to/lastmile_qr_scan"}, "lon": -77.042604, "type": "electric_scooter", "fusion_lat": 0.0, "lat": 38.905587, "name": "eb22022ae0d824c645fb2b754d4e7f27", "fusion_lon": 0.0, "bike_id": "eb22022ae0d824c645fb2b754d4e7f27", "is_disabled": 0, "is_reserved": 0}, {"rental_uris": {"ios": "https://dc.lft.to/lastmile_qr_scan", "android": "https://dc.lft.to/lastmile_qr_scan"}, "lon": -76.9575305, "type": "electric_scooter", "fusion_lat": 0.0, "lat": 38.884373833333335, "name": "257091c6eb605118e0a5f45333885c47", "fusion_lon": 0.0, "bike_id": "257091c6eb605118e0a5f45333885c47", "is_disabled": 0, "is_reserved": 0}, {"rental_uris": {"ios": "https://dc.lft.to/lastmile_qr_scan", "android": "https://dc.lft.to/lastmile_qr_scan"},