{"data": {"bikes": [{"is_reserved": 0, "type": "electric_scooter", "fusion_lat": 0.0, "is_disabled": 0, "rental_uris": {"ios": "https://dc.lft.to/lastmile_qr_scan", "android": "https://dc.lft.to/lastmile_qr_scan"}, "bike_id": "c18d9af0a4cab98b4bab77e71d0de70a", "lat": 38.92541533333333, "name": "c18d9af0a4cab98b4bab77e71d0de70a", "lon": -77.0332145, "fusion_lon": 0.0}, {"is_reserved": 0, "type": "electric_scooter", "fusion_lat": 0.0, "is_disabled": 0, "rental_uris": {"ios": "https://dc.lft.to/lastmile_qr_scan", "android": "https://dc.lft.to/lastmile_qr_scan"}, "bike_id": "b789fbb932c16385b4a8e02d6a8ff69c", "lat": 38.90385233333333, "name": "b789fbb932c16385b4a8e02d6a8ff69c", "lon": -77.01842333333333, "fusion_lon": 0.0}, {"is_reserved": 0, "type": "electric_scooter", "fusion_lat": 0.0, "is_disabled": 0, "rental_uris": {"ios": "https://dc.lft.to/lastmile_qr_scan", "android": "https://dc.lft.to/lastmile_qr_scan"}, "bike_id": "3dd1b9f9cdeb6e7b263da172d5e06722", "lat": 38.952726166666665, "name": "3dd1b9f9cdeb6e7b263da172d5e06722", "lon": -76.998904, "fusion_lon": 0.0}, {"is_reserved": 0, "type": "electric_scooter", "fusion_lat": 0.0, "is_disabled": 0, "rental_uris": {"ios": "https://dc.lft.to/lastmile_qr_scan", "android": "https://dc.lft.to/lastmile_qr_scan"}, "bike_id": "b14bf975b2ff62198b53a44ac82eaf78", "lat": 38.91713416666666, "name": "b14bf975b2ff62198b53a44ac82eaf78", "lon": -77.00887116666667, "fusion_lon": 0.0}, {"is_reserved": 0, "type": "electric_scooter", "fusion_lat": 0.0, "is_disabled": 0, "rental_uris": {"ios": "https://dc.lft.to/lastmile_qr_scan", "android": "https://dc.lft.to/lastmile_qr_scan"}, "bike_id": "bce85015bee4e55d253a1fce9e1adf2c", "lat": 38.92600566666667, "name": "bce85015bee4e55d253a1fce9e1adf2c", "lon": -77.02157583333333, "fusion_lon": 0.0}, {"is_reserved": 0, "type": "electric_scooter", "fusion_lat": 0.0, "is_disabled": 0, "rental_uris": {"ios": "https://dc.lft.to/lastmile_qr_scan", "android": "https://dc.lft.to/lastmile_qr_scan"}, "bike_id": "c19cf81429fcf66086157b613cf0071a", "lat": 38.9087975, "name": "c19cf81429fcf66086157b613cf0071a", "lon": -77.04407166666667, "fusion_lon": 0.0}, {"is_reserved": 0, "type": "electric_scooter", "fusion_lat": 0.0, "is_disabled": 0, "rental_uris": {"ios": "https://dc.lft.to/lastmile_qr_scan", "android": "https://dc.lft.to/lastmile_qr_scan"}, "bike_id": "1fb55d61ccc5d6de358bd5eaba4ff688", "lat": 38.902257166666665, "name": "1fb55d61ccc5d6de358bd5eaba4ff688", "lon": -77.01392133333333, "fusion_lon": 0.0}, {"is_reserved": 0, "type": "electric_bike", "fusion_lat": 0.0, "is_disabled": 0, "rental_uris": {"ios": "https://dc.lft.to/lastmile_qr_scan", "android": "https://dc.lft.to/lastmile_qr_scan"}, "bike_id": "f0cb4e9ec8c351b520f0e8c88e9f34b3", "lat": 38.9053235, "name": "f0cb4e9ec8c351b520f0e8c88e9f34b3", "lon": -77.05028533333333, "fusion_lon": 0.0}, {"is_reserved": 0, "type": "electric_scooter", "fusion_lat": 0.0, "is_disabled": 0, "rental_uris": {"ios": "https://dc.lft.to/lastmile_qr_scan", "android": "https://dc.lft.to/lastmile_qr_scan"}, "bike_id": "0cba485c8d189b72d2fc61b79dcebd82", "lat": 38.92107766666667, "name": "0cba485c8d189b72d2fc61b79dcebd82", "lon": -76.99405466666667, "fusion_lon": 0.0}, {"is_reserved": 0, "type": "electric_scooter", "fusion_lat": 0.0, "is_disabled": 0, "rental_uris": {"ios": "https://dc.lft.to/lastmile_qr_scan", "android": "https://dc.lft.to/lastmile_qr_scan"}, "bike_id": "b2d3dc93ae6f10d305d7648af0acc737", "lat": 38.8999705, "name": "b2d3dc93ae6f10d305d7648af0acc737", "lon": -77.02160233333333, "fusion_lon": 0.0}, {"is_reserved": 0, "type": "electric_scooter", "fusion_lat": 0.0, "is_disabled": 0, "rental_uris": {"ios": "https://dc.lft.to/lastmile_qr_scan", "android": "https://dc.lft.to/lastmile_qr_scan"}, "bike_id": "3ead591a749a9e774c5103c98244fc52", "lat": 38.91693183333334, "name": "3ead591a749a9e774c5103c98244fc52", "lon": -77.0271465, "fusion_lon": 0.0}, {"is_reserved": 0, "type": "electric_scooter", "fusion_lat": 0.0, "is_disabled": 0, "rental_uris": {"ios": "https://dc.lft.to/lastmile_qr_scan", "android": "https://dc.lft.to/lastmile_qr_scan"}, "bike_id": "2b5d2c50878736a920f549804057395f", "lat": 38.90605633333333, "name": "2b5d2c50878736a920f549804057395f", "lon": -77.0565145, "fusion_lon": 0.0}, {"is_reserved": 0, "type": "electric_scooter", "fusion_lat": 0.0, "is_disabled": 0, "rental_uris": {"ios": "https://dc.lft.to/lastmile_qr_scan", "android": "https://dc.lft.to/lastmile_qr_scan"}, "bike_id": "6bcd1776fd000a96c6c55920aaf9235d", "lat": 38.92337466666667, "name": "6bcd1776fd000a96c6c55920aaf9235d", "lon": -77.036098, "fusion_lon": 0.0}, {"is_reserved": 0, "type": "electric_scooter", "fusion_lat": 0.0, "is_disabled": 0, "rental_uris": {"ios": "https://dc.lft.to/lastmile_qr_scan", "android": "https://dc.lft.to/lastmile_qr_scan"}, "bike_id": "81ca9f42cfcc06d5cc0ff6a06082c138", "lat": 38.94202666666666, "name": "81ca9f42cfcc06d5cc0ff6a06082c138", "lon": -77.024559, "fusion_lon": 0.0}, {"is_reserved": 0, "type": "electric_scooter", "fusion_lat": 0.0, "is_disabled": 0, "rental_uris": {"ios": "https://dc.lft.to/lastmile_qr_scan", "android": "https://dc.lft.to/lastmile_qr_scan"}, "bike_id": "91d6164f828768f88f7ab6ada6a5e55e", "lat": 38.919291, "name": "91d6164f828768f88f7ab6ada6a5e55e", "lon": -77.04630583333334, "fusion_lon": 0.0}, {"is_reserved": 0, "type": "electric_scooter", "fusion_lat": 0.0, "is_disabled": 0, "rental_uris": {"ios": "https://dc.lft.to/lastmile_qr_scan", "android": "https://dc.lft.to/lastmile_qr_scan"}, "bike_id": "fc68043e5950aacb4e01dd1c5f3e4350", "lat": 38.888797333333336, "name": "fc68043e5950aacb4e01dd1c5f3e4350", "lon": -76.9903035, "fusion_lon": 0.0}, {"is_reserved": 0, "type": "electric_scooter", "fusion_lat": 0.0, "is_disabled": 0, "rental_uris": {"ios": "https://dc.lft.to/lastmile_qr_scan", "android": "https://dc.lft.to/lastmile_qr_scan"}, "bike_id": "a79e826394373c68746178dea3402cd0", "lat": 38.952898833333336, "name": "a79e826394373c68746178dea3402cd0", "lon": -77.06844433333333, "fusion_lon": 0.0}, {"is_reserved": 0, "type": "electric_scooter", "fusion_lat": 0.0, "is_disabled": 0, "rental_uris": {"ios": "https://dc.lft.to/lastmile_qr_scan", "android": "https://dc.lft.to/lastmile_qr_scan"}, "bike_id": "23437c3cd3672e5f037a5941795d07a9", "lat": 38.90130583333333, "name": "23437c3cd3672e5f037a5941795d07a9", "lon": -77.03080333333334, "fusion_lon": 0.0}, {"is_reserved": 0, "type": "electric_scooter", "fusion_lat": 0.0, "is_disabled": 0, "rental_uris": {"ios": "https://dc.lft.to/lastmile_qr_scan", "android": "https://dc.lft.to/lastmile_qr_scan"}, "bike_id": "4b2b833701605baee1ed71460d4ab0a2", "lat": 38.929981833333336, "name": "4b2b833701605baee1ed71460d4ab0a2", "lon": -77.03798516666667, "fusion_lon": 0.0}, {"is_reserved": 0, "type": "electric_scooter", "fusion_lat": 0.0, "is_disabled": 0, "rental_uris": {"ios": "https://dc.lft.to/lastmile_qr_scan", "android": "https://dc.lft.to/lastmile_qr_scan"}, "bike_id": "cc0cdc9e30b8c1860e1d3cc2c48f1bab", "lat": 38.904940833333335, "name": "cc0cdc9e30b8c1860e1d3cc2c48f1bab", "lon": -77.02819, "fusion_lon": 0.0}, {"is_reserved": 0, "type": "electric_scooter", "fusion_lat": 0.0, "is_disabled": 0, "rental_uris": {"ios": "https://dc.lft.to/lastmile_qr_scan", "android": "https://dc.lft.to/lastmile_qr_scan"}, "bike_id": "31e812e205d68226b053b933a7dde23c", "lat": 38.899652333333336, "name": "31e812e205d68226b053b933a7dde23c", "lon": -76.92622266666666, "fusion_lon": 0.0}, {"is_reserved": 0, "type": "electric_scooter", "fusion_lat": 0.0, "is_disabled": 0, "rental_uris": {"ios": "https://dc.lft.to/lastmile_qr_scan", "android": "https://dc.lft.to/lastmile_qr_scan"}, "bike_id": "a03924dd47da55e63257f51fa4115f96", "lat": 38.940812, "name": "a03924dd47da55e63257f51fa4115f96", "lon": -77.02721566666666, "fusion_lon": 0.0}, {"is_reserved": 0, "type": "electric_scooter", "fusion_lat": 0.0, "is_disabled": 0, "rental_uris": {"ios": "https://dc.lft.to/lastmile_qr_scan", "android": "https://dc.lft.to/lastmile_qr_scan"}, "bike_id": "244b371ca8e6f8cc0d8fb159458a5dc1", "lat": 38.89253083333333, "name": "244b371ca8e6f8cc0d8fb159458a5dc1", "lon": -77.03203516666666, "fusion_lon": 0.0}, {"is_reserved": 0, "type": "electric_bike", "fusion_lat": 0.0, "is_disabled": 0, "rental_uris": {"ios": "https://dc.lft.to/lastmile_qr_scan", "android": "https://dc.lft.to/lastmile_qr_scan"}, "bike_id": "20cde1590f76c1b269934b8448bc6803", "lat": 39.0847325, "name": "20cde1590f76c1b269934b8448bc6803", "lon": -76.95069266666667, "fusion_lon": 0.0}, {"is_reserved": 0, "type": "electric_scooter", "fusion_lat": 0.0, "is_disabled": 0, "rental_uris": {"ios": "https://dc.lft.to/lastmile_qr_scan", "android": "https://dc.lft.to/lastmile_qr_scan"}, "bike_id": "5aa26b6d13e8801dde7fd0a6ab101e28", "lat": 38.9300515, "name": "5aa26b6d13e8801dde7fd0a6ab101e28", "lon": -77.03275483333333, "fusion_lon": 0.0}, {"is_reserved": 0, "type": "electric_scooter", "fusion_lat": 0.0, "is_disabled": 0, "rental_uris": {"ios": "https://dc.lft.to/lastmile_qr_scan", "android": "https://dc.lft.to/lastmile_qr_scan"}, "bike_id": "f1c9b462d790e1fc5d16e4cf92b5e905", "lat": 38.86495716666667, "name": "f1c9b462d790e1fc5d16e4cf92b5e905", "lon": -76.97728383333333, "fusion_lon": 0.0}, {"is_reserved": 0, "type": "electric_scooter", "fusion_lat": 0.0, "is_disabled": 0, "rental_uris": {"ios": "https://dc.lft.to/lastmile_qr_scan", "android": "https://dc.lft.to/lastmile_qr_scan"}, "bike_id": "4df89d0bd525c0be31b079a07525ca06", "lat": 38.9295465, "name": "4df89d0bd525c0be31b079a07525ca06", "lon": -77.04401616666667, "fusion_lon": 0.0}, {"is_reserved": 0, "type": "electric_scooter", "fusion_lat": 0.0, "is_disabled": 0, "rental_uris": {"ios": "https://dc.lft.to/lastmile_qr_scan", "android": "https://dc.lft.to/lastmile_qr_scan"}, "bike_id": "edc86ce25788bed3067dd89a7f97c3a8", "lat": 38.92229116666667, "name": "edc86ce25788bed3067dd89a7f97c3a8", "lon": -77.02824483333333, "fusion_lon": 0.0}, {"is_reserved": 0, "type": "electric_scooter", "fusion_lat": 0.0, "is_disabled": 0, "rental_uris": {"ios": "https://dc.lft.to/lastmile_qr_scan", "android": "https://dc.lft.to/lastmile_qr_scan"}, "bike_id": "ae4b777441202bb961f34b055e1860fa", "lat": 38.921066833333335, "name": "ae4b777441202bb961f34b055e1860fa", "lon": -77.03641333333333, "fusion_lon": 0.0}, {"is_reserved": 0, "type": "electric_bike", "fusion_lat": 0.0, "is_disabled": 0, "rental_uris": {"ios": "https://dc.lft.to/lastmile_qr_scan", "android": "https://dc.lft.to/lastmile_qr_scan"}, "bike_id": "af21ae3b05365f68271719c439c7fa8a", "lat": 38.83590783333333, "name": "af21ae3b05365f68271719c439c7fa8a", "lon": -76.99019183333333, "fusion_lon": 0.0}, {"is_reserved": 0, "type": "electric_scooter", "fusion_lat": 0.0, "is_disabled": 0, "rental_uris": {"ios": "https://dc.lft.to/lastmile_qr_scan", "android": "https://dc.lft.to/lastmile_qr_scan"}, "bike_id": "89f2d6ffcf476ce607333d8f9a0c0544", "lat": 38.933299, "name": "89f2d6ffcf476ce607333d8f9a0c0544", "lon": -77.02909, "fusion_lon": 0.0}, {"is_reserved": 0, "type": "electric_bike", "fusion_lat": 0.0, "is_disabled": 0, "rental_uris": {"ios": "https://dc.lft.to/lastmile_qr_scan", "android": "https://dc.lft.to/lastmile_qr_scan"}, "bike_id": "195453e97f150c2a726eef7bf0dc0a0b", "lat": 38.850843833333336, "name": "195453e97f150c2a726eef7bf0dc0a0b", "lon": -76.98156933333334, "fusion_lon": 0.0}, {"is_reserved": 0, "type": "electric_scooter", "fusion_lat": 0.0, "is_disabled": 0, "rental_uris": {"ios": "https://dc.lft.to/lastmile_qr_scan", "android": "https://dc.lft.to/lastmile_qr_scan"}, "bike_id": "5ba30f6eed987af43dc1262e2efa62a7", "lat": 38.92214466666667, "name": "5ba30f6eed987af43dc1262e2efa62a7", "lon": -77.02032866666667, "fusion_lon": 0.0}, {"is_reserved": 0, "type": "electric_scooter", "fusion_lat": 0.0, "is_disabled": 0, "rental_uris": {"ios": "https://dc.lft.to/lastmile_qr_scan", "android": "https://dc.lft.to/lastmile_qr_scan"}, "bike_id": "4b72d24dc7f167ccbe982a4cfc43d90d", "lat": 38.91745016666667, "name": "4b72d24dc7f167ccbe982a4cfc43d90d", "lon": -77.0108675, "fusion_lon": 0.0}, {"is_reserved": 0, "type": "electric_bike", "fusion_lat": 0.0, "is_disabled": 0, "rental_uris": {"ios": "https://dc.lft.to/lastmile_qr_scan", "android": "https://dc.lft.to/lastmile_qr_scan"}, "bike_id": "9d5f8c3f4b70acbe0c043fab2049e2e3", "lat": 38.914504, "name": "9d5f8c3f4b70acbe0c043fab2049e2e3", "lon": -76.97276416666666, "fusion_lon": 0.0}, {"is_reserved": 0, "type": "electric_bike", "fusion_lat": 0.0, "is_disabled": 0, "rental_uris": {"ios": "https://dc.lft.to/lastmile_qr_scan", "android": "https://dc.lft.to/lastmile_qr_scan"}, "bike_id": "dd604d70df0ea37c3b98a50eede36bb7", "lat": 38.95507033333333, "name": "dd604d70df0ea37c3b98a50eede36bb7", "lon": -77.027712, "fusion_lon": 0.0}, {"is_reserved": 0, "type": "electric_bike", "fusion_lat": 0.0, "is_disabled": 0, "rental_uris": {"ios": "https://dc.lft.to/lastmile_qr_scan", "android": "https://dc.lft.to/lastmile_qr_scan"}, "bike_id": "bc0ed8d773c81c86485e11382e7b21b0", "lat": 38.967322333333335, "name": "bc0ed8d773c81c86485e11382e7b21b0", "lon": -77.08908216666667, "fusion_lon": 0.0}, {"is_reserved": 0, "type": "electric_scooter", "fusion_lat": 0.0, "is_disabled": 0, "rental_uris": {"ios": "https://dc.lft.to/lastmile_qr_scan", "android": "https://dc.lft.to/lastmile_qr_scan"}, "bike_id": "dbb6c79bee4e47b5c2c04a98aa430a4a", "lat": 38.888343666666664, "name": "dbb6c79bee4e47b5c2c04a98aa430a4a", "lon": -76.9773655, "fusion_lon": 0.0}, {"is_reserved": 0, "type": "electric_scooter", "fusion_lat": 0.0, "is_disabled": 0, "rental_uris": {"ios": "https://dc.lft.to/lastmile_qr_scan", "android": "https://dc.lft.to/lastmile_qr_scan"}, "bike_id": "33368212e9854a84ebdbb77503da8af9", "lat": 38.89514616666666, "name": "33368212e9854a84ebdbb77503da8af9", "lon": -77.02294833333333, "fusion_lon": 0.0}, {"is_reserved": 0, "type": "electric_scooter", "fusion_lat": 0.0, "is_disabled": 0, "rental_uris": {"ios": "https://dc.lft.to/lastmile_qr_scan", "android": "https://dc.lft.to/lastmile_qr_scan"}, "bike_id": "c96b44da8306559d8db966b93dec4bae", "lat": 38.887662, "name": "c96b44da8306559d8db966b93dec4bae", "lon": -77.00048666666666, "fusion_lon": 0.0}, {"is_reserved": 0, "type": "electric_scooter", "fusion_lat": 0.0, "is_disabled": 0, "rental_uris": {"ios": "https://dc.lft.to/lastmile_qr_scan", "android": "https://dc.lft.to/lastmile_qr_scan"}, "bike_id": "7f2dbccb183d6f4c9a905d7c86b7fc22", "lat": 38.90998616666667, "name": "7f2dbccb183d6f4c9a905d7c86b7fc22", "lon": -77.02689533333333, "fusion_lon": 0.0}, {"is_reserved": 0, "type": "electric_scooter", "fusion_lat": 0.0, "is_disabled": 0, "rental_uris": {"ios": "https://dc.lft.to/lastmile_qr_scan", "android": "https://dc.lft.to/lastmile_qr_scan"}, "bike_id": "d3fb71195013dde7d7367bb421bf8560", "lat": 38.9069165, "name": "d3fb71195013dde7d7367bb421bf8560", "lon": -77.00992666666667, "fusion_lon": 0.0}, {"is_reserved": 0, "type": "electric_scooter", "fusion_lat": 0.0, "is_disabled": 0, "rental_uris": {"ios": "https://dc.lft.to/lastmile_qr_scan", "android": "https://dc.lft.to/lastmile_qr_scan"}, "bike_id": "759c918d576e9fa288d375ded43acc00", "lat": 38.892264833333336, "name": "759c918d576e9fa288d375ded43acc00", "lon": -77.02223466666666, "fusion_lon": 0.0}, {"is_reserved": 0, "type": "electric_scooter", "fusion_lat": 0.0, "is_disabled": 0, "rental_uris": {"ios": "https://dc.lft.to/lastmile_qr_scan", "android": "https://dc.lft.to/lastmile_qr_scan"}, "bike_id": "5a27d3cb8df18e47e77685241906dd3c", "lat": 38.90263216666666, "name": "5a27d3cb8df18e47e77685241906dd3c", "lon": -77.01794983333333, "fusion_lon": 0.0}, {"is_reserved": 0, "type": "electric_scooter", "fusion_lat": 0.0, "is_disabled": 0, "rental_uris": {"ios": "https://dc.lft.to/lastmile_qr_scan", "android": "https://dc.lft.to/lastmile_qr_scan"}, "bike_id": "4cf35f0f82466131d759050ecd03da48", "lat": 38.842735, "name": "4cf35f0f82466131d759050ecd03da48", "lon": -76.98838766666667, "fusion_lon": 0.0}, {"is_reserved": 0, "type": "electric_scooter", "fusion_lat": 0.0, "is_disabled": 0, "rental_uris": {"ios": "https://dc.lft.to/lastmile_qr_scan", "android": "https://dc.lft.to/lastmile_qr_scan"}, "bike_id": "6a5a24997630a500208b2dd054afb45c", "lat": 38.90313883333334, "name": "6a5a24997630a500208b2dd054afb45c", "lon": -76.97795116666667, "fusion_lon": 0.0}, {"is_reserved": 0, "type": "electric_scooter", "fusion_lat": 0.0, "is_disabled": 0, "rental_uris": {"ios": "https://dc.lft.to/lastmile_qr_scan", "android": "https://dc.lft.to/lastmile_qr_scan"}, "bike_id": "81bf51745ec07f7bd25a910fa983b7f1", "lat": 38.900516333333336, "name": "81bf51745ec07f7bd25a910fa983b7f1", "lon": -76.99331316666667, "fusion_lon": 0.0}, {"is_reserved": 0, "type": "electric_scooter", "fusion_lat": 0.0, "is_disabled": 0, "rental_uris": {"ios": "https://dc.lft.to/lastmile_qr_scan", "android": "https://dc.lft.to/lastmile_qr_scan"}, "bike_id": "83462caa722d526719025bc5253ffae8", "lat": 38.9564525, "name": "83462caa722d526719025bc5253ffae8", "lon": -77.02817866666666, "fusion_lon": 0.0}, {"is_reserved": 0, "type": "electric_scooter", "fusion_lat": 0.0, "is_disabled": 0, "rental_uris": {"ios": "https://dc.lft.to/lastmile_qr_scan", "android": "https://dc.lft.to/lastmile_qr_scan"}, "bike_id": "b5f6e1d341eea3f12cb4fb9d17ab2a41", "lat": 38.8837175, "name": "b5f6e1d341eea3f12cb4fb9d17ab2a41", "lon": -76.99511866666667, "fusion_lon": 0.0}, {"is_reserved": 0, "type": "electric_scooter", "fusion_lat": 0.0, "is_disabled": 0, "rental_uris": {"ios": "https://dc.lft.to/lastmile_qr_scan", "android": "https://dc.lft.to/lastmile_qr_scan"}, "bike_id": "f287c108f8686a59a52cc88d4489a2bc", "lat": 38.9049805, "name": "f287c108f8686a59a52cc88d4489a2bc", "lon": -77.02955416666667, "fusion_lon": 0.0}, {"is_reserved": 0, "type": "electric_scooter", "fusion_lat": 0.0, "is_disabled": 0, "rental_uris": {"ios": "https://dc.lft.to/lastmile_qr_scan", "android": "https://dc.lft.to/lastmile_qr_scan"}, "bike_id": "170596cae09f91ad9747ac36aad47251", "lat": 38.93482516666667, "name": "170596cae09f91ad9747ac36aad47251", "lon": -77.036344, "fusion_lon": 0.0}, {"is_reserved": 0, "type": "electric_scooter", "fusion_lat": 0.0, "is_disabled": 0, "rental_uris": {"ios": "https://dc.lft.to/lastmile_qr_scan", "android": "https://dc.lft.to/lastmile_qr_scan"}, "bike_id": "430e28b17a72d3103be0cd2d9c26e45c", "lat": 38.9035205, "name": "430e28b17a72d3103be0cd2d9c26e45c", "lon": -77.00737366666667, "fusion_lon": 0.0}, {"is_reserved": 0, "type": "electric_scooter", "fusion_lat": 0.0, "is_disabled": 0, "rental_uris": {"ios": "https://dc.lft.to/lastmile_qr_scan", "android": "https://dc.lft.to/lastmile_qr_scan"}, "bike_id": "f159be61ac3084fba26462dba8f35193", "lat": 38.915623333333336, "name": "f159be61ac3084fba26462dba8f35193", "lon": -77.040915, "fusion_lon": 0.0}, {"is_reserved": 0, "type": "electric_bike", "fusion_lat": 0.0, "is_disabled": 0, "rental_uris": {"ios": "https://dc.lft.to/lastmile_qr_scan", "android": "https://dc.lft.to/lastmile_qr_scan"}, "bike_id": "7b1777676d5dcb9db8220f29711465ef", "lat": 38.8386405, "name": "7b1777676d5dcb9db8220f29711465ef", "lon": -76.99701733333333, "fusion_lon": 0.0}, {"is_reserved": 0, "type": "electric_scooter", "fusion_lat": 0.0, "is_disabled": 0, "rental_uris": {"ios": "https://dc.lft.to/lastmile_qr_scan", "android": "https://dc.lft.to/lastmile_qr_scan"}, "bike_id": "3d109cce2e19e9a8ce5194094f489dd7", "lat": 38.897163, "name": "3d109cce2e19e9a8ce5194094f489dd7", "lon": -77.02695466666667, "fusion_lon": 0.0}, {"is_reserved": 0, "type": "electric_scooter", "fusion_lat": 0.0, "is_disabled": 0, "rental_uris": {"ios": "https://dc.lft.to/lastmile_qr_scan", "android": "https://dc.lft.to/lastmile_qr_scan"}, "bike_id": "1924b8413f353376043f2855aa26665c", "lat": 38.918156, "name": "1924b8413f353376043f2855aa26665c", "lon": -77.04004733333333, "fusion_lon": 0.0}, {"is_reserved": 0, "type": "electric_scooter", "fusion_lat": 0.0, "is_disabled": 0, "rental_uris": {"ios": "https://dc.lft.to/lastmile_qr_scan", "android": "https://dc.lft.to/lastmile_qr_scan"}, "bike_id": "d3c42f7fb59b6bd0544e8a84705e1702", "lat": 38.93600266666667, "name": "d3c42f7fb59b6bd0544e8a84705e1702", "lon": -77.05589883333333, "fusion_lon": 0.0}, {"is_reserved": 0, "type": "electric_bike", "fusion_lat": 0.0, "is_disabled": 0, "rental_uris": {"ios": "https://dc.lft.to/lastmile_qr_scan", "android": "https://dc.lft.to/lastmile_qr_scan"}, "bike_id": "526970d4aec6b72fa551c0fae07413b4", "lat": 38.903802666666664, "name": "526970d4aec6b72fa551c0fae07413b4", "lon": -76.93754716666666, "fusion_lon": 0.0}, {"is_reserved": 0, "type": "electric_scooter", "fusion_lat": 0.0, "is_disabled": 0, "rental_uris": {"ios": "https://dc.lft.to/lastmile_qr_scan", "android": "https://dc.lft.to/lastmile_qr_scan"}, "bike_id": "714bd41244b988763450d3b96ca6353f", "lat": 38.908394, "name": "714bd41244b988763450d3b96ca6353f", "lon": -77.03308883333334, "fusion_lon": 0.0}, {"is_reserved": 0, "type": "electric_scooter", "fusion_lat": 0.0, "is_disabled": 0, "rental_uris": {"ios": "https://dc.lft.to/lastmile_qr_scan", "android": "https://dc.lft.to/lastmile_qr_scan"}, "bike_id": "201d0a2bf96f89ed7aebb70f72eb28ad", "lat": 38.9036165, "name": "201d0a2bf96f89ed7aebb70f72eb28ad", "lon": -77.0600655, "fusion_lon": 0.0}, {"is_reserved": 0, "type": "electric_scooter", "fusion_lat": 0.0, "is_disabled": 0, "rental_uris": {"ios": "https://dc.lft.to/lastmile_qr_scan", "android": "https://dc.lft.to/lastmile_qr_scan"}, "bike_id": "b4c810c8fc6285e68e159cb74cde5dd2", "lat": 38.88531666666667, "name": "b4c810c8fc6285e68e159cb74cde5dd2", "lon": -76.980561, "fusion_lon": 0.0}, {"is_reserved": 0, "type": "electric_scooter", "fusion_lat": 0.0, "is_disabled": 0, "rental_uris": {"ios": "https://dc.lft.to/lastmile_qr_scan", "android": "https://dc.lft.to/lastmile_qr_scan"}, "bike_id": "5a93a66d31238c02d8c46bd5de88b3ec", "lat": 38.899372, "name": "5a93a66d31238c02d8c46bd5de88b3ec", "lon": -77.053965, "fusion_lon": 0.0}, {"is_reserved": 0, "type": "electric_scooter", "fusion_lat": 0.0, "is_disabled": 0, "rental_uris": {"ios": "https://dc.lft.to/lastmile_qr_scan", "android": "https://dc.lft.to/lastmile_qr_scan"}, "bike_id": "4efaf0e6eb58b49e25f9b2ef51c5a69f", "lat": 38.928047166666666, "name": "4efaf0e6eb58b49e25f9b2ef51c5a69f", "lon": -77.04327316666667, "fusion_lon": 0.0}, {"is_reserved": 0, "type": "electric_scooter", "fusion_lat": 0.0, "is_disabled": 0, "rental_uris": {"ios": "https://dc.lft.to/lastmile_qr_scan", "android": "https://dc.lft.to/lastmile_qr_scan"}, "bike_id": "3bc8a37f66727d7fee65a2011e380ce9", "lat": 38.923824333333336, "name": "3bc8a37f66727d7fee65a2011e380ce9", "lon": -77.02959383333334, "fusion_lon": 0.0}, {"is_reserved": 0, "type": "electric_scooter", "fusion_lat": 0.0, "is_disabled": 0, "rental_uris": {"ios": "https://dc.lft.to/lastmile_qr_scan", "android": "https://dc.lft.to/lastmile_qr_scan"}, "bike_id": "3d631ea2d158c6907276021554d33ff6", "lat": 38.908547166666665, "name": "3d631ea2d158c6907276021554d33ff6", "lon": -77.02349366666667, "fusion_lon": 0.0}, {"is_reserved": 0, "type": "electric_scooter", "fusion_lat": 0.0, "is_disabled": 0, "rental_uris": {"ios": "https://dc.lft.to/lastmile_qr_scan", "android": "https://dc.lft.to/lastmile_qr_scan"}, "bike_id": "60129cbcb189589f31383c692338b72b", "lat": 38.921992833333334, "name": "60129cbcb189589f31383c692338b72b", "lon": -77.02037966666667, "fusion_lon": 0.0}, {"is_reserved": 0, "type": "electric_scooter", "fusion_lat": 0.0, "is_disabled": 0, "rental_uris": {"ios": "https://dc.lft.to/lastmile_qr_scan", "android": "https://dc.lft.to/lastmile_qr_scan"}, "bike_id": "395a85bbfd9af28a364417dd2a3fadba", "lat": 38.90085533333333, "name": "395a85bbfd9af28a364417dd2a3fadba", "lon": -76.98330966666667, "fusion_lon": 0.0}, {"is_reserved": 0, "type": "electric_scooter", "fusion_lat": 0.0, "is_disabled": 0, "rental_uris": {"ios": "https://dc.lft.to/lastmile_qr_scan", "android": "https://dc.lft.to/lastmile_qr_scan"}, "bike_id": "edceca02b0a42c8fa93de60efffbd6f6", "lat": 38.927595, "name": "edceca02b0a42c8fa93de60efffbd6f6", "lon": -77.05261066666667, "fusion_lon": 0.0}, {"is_reserved": 0, "type": "electric_scooter", "fusion_lat": 0.0, "is_disabled": 0, "rental_uris": {"ios": "https://dc.lft.to/lastmile_qr_scan", "android": "https://dc.lft.to/lastmile_qr_scan"}, "bike_id": "0a417b9fb5044d94a6226deed2e321b6", "lat": 38.880322, "name": "0a417b9fb5044d94a6226deed2e321b6", "lon": -77.01755216666666, "fusion_lon": 0.0}, {"is_reserved": 0, "type": "electric_scooter", "fusion_lat": 0.0, "is_disabled": 0, "rental_uris": {"ios": "https://dc.lft.to/lastmile_qr_scan", "android": "https://dc.lft.to/lastmile_qr_scan"}, "bike_id": "7a8d31b01277544076b3449833831fe9", "lat": 38.918143666666666, "name": "7a8d31b01277544076b3449833831fe9", "lon": -77.02485366666667, "fusion_lon": 0.0}, {"is_reserved": 0, "type": "electric_scooter", "fusion_lat": 0.0, "is_disabled": 0, "rental_uris": {"ios": "https://dc.lft.to/lastmile_qr_scan", "android": "https://dc.lft.to/lastmile_qr_scan"}, "bike_id": "2e885e767ac2eabcb04b9e7e9fa1feb2", "lat": 38.886201166666666, "name": "2e885e767ac2eabcb04b9e7e9fa1feb2", "lon": -76.92633816666667, "fusion_lon": 0.0}, {"is_reserved": 0, "type": "electric_bike", "fusion_lat": 0.0, "is_disabled": 0, "rental_uris": {"ios": "https://dc.lft.to/lastmile_qr_scan", "android": "https://dc.lft.to/lastmile_qr_scan"}, "bike_id": "c8abf0deb00991feebae7b857de64ee8", "lat": 39.02646333333333, "name": "c8abf0deb00991feebae7b857de64ee8", "lon": -77.03684966666667, "fusion_lon": 0.0}, {"is_reserved": 0, "type": "electric_scooter", "fusion_lat": 0.0, "is_disabled": 0, "rental_uris": {"ios": "https://dc.lft.to/lastmile_qr_scan", "android": "https://dc.lft.to/lastmile_qr_scan"}, "bike_id": "e6ec43c2e2da9186471c9aaaa6930531", "lat": 38.918157, "name": "e6ec43c2e2da9186471c9aaaa6930531", "lon": -77.0247965, "fusion_lon": 0.0}, {"is_reserved": 0, "type": "electric_scooter", "fusion_lat": 0.0, "is_disabled": 0, "rental_uris": {"ios": "https://dc.lft.to/lastmile_qr_scan", "android": "https://dc.lft.to/lastmile_qr_scan"}, "bike_id": "ed34c41996a49521116cbef8caa8b83b", "lat": 38.91937933333333, "name": "ed34c41996a49521116cbef8caa8b83b", "lon": -76.99955616666666, "fusion_lon": 0.0}, {"is_reserved": 0, "type": "electric_scooter", "fusion_lat": 0.0, "is_disabled": 0, "rental_uris": {"ios": "https://dc.lft.to/lastmile_qr_scan", "android": "https://dc.lft.to/lastmile_qr_scan"}, "bike_id": "6dd516227a1bd20839e6e92a125c6a31", "lat": 38.90507866666667, "name": "6dd516227a1bd20839e6e92a125c6a31", "lon": -76.95201066666667, "fusion_lon": 0.0}, {"is_reserved": 0, "type": "electric_scooter", "fusion_lat": 0.0, "is_disabled": 0, "rental_uris": {"ios": "https://dc.lft.to/lastmile_qr_scan", "android": "https://dc.lft.to/lastmile_qr_scan"}, "bike_id": "be858a01ebe2d77e263bcac66385814d", "lat": 38.955828833333335, "name": "be858a01ebe2d77e263bcac66385814d", "lon": -77.01782933333334, "fusion_lon": 0.0}, {"is_reserved": 0, "type": "electric_scooter", "fusion_lat": 0.0, "is_disabled": 0, "rental_uris": {"ios": "https://dc.lft.to/lastmile_qr_scan", "android": "https://dc.lft.to/lastmile_qr_scan"}, "bike_id": "0974461b5c82cb8b63bc2f8287373d61", "lat": 38.87922016666667, "name": "0974461b5c82cb8b63bc2f8287373d61", "lon": -77.02149833333333, "fusion_lon": 0.0}, {"is_reserved": 0, "type": "electric_scooter", "fusion_lat": 0.0, "is_disabled": 0, "rental_uris": {"ios": "https://dc.lft.to/lastmile_qr_scan", "android": "https://dc.lft.to/lastmile_qr_scan"}, "bike_id": "4f0e69f93ecc16bc85a820a95940b388", "lat": 38.9273485, "name": "4f0e69f93ecc16bc85a820a95940b388", "lon": -77.02299233333333, "fusion_lon": 0.0}, {"is_reserved": 0, "type": "electric_scooter", "fusion_lat": 0.0, "is_disabled": 0, "rental_uris": {"ios": "https://dc.lft.to/lastmile_qr_scan", "android": "https://dc.lft.to/lastmile_qr_scan"}, "bike_id": "98b8d0b4c8cc26e11a1aaf7cadf09c8f", "lat": 38.873709166666664, "name": "98b8d0b4c8cc26e11a1aaf7cadf09c8f", "lon": -77.00122433333334, "fusion_lon": 0.0}, {"is_reserved": 0, "type": "electric_scooter", "fusion_lat": 0.0, "is_disabled": 0, "rental_uris": {"ios": "https://dc.lft.to/lastmile_qr_scan", "android": "https://dc.lft.to/lastmile_qr_scan"}, "bike_id": "e32e47c91975dc996157567f4230e357", "lat": 38.90719966666666, "name": "e32e47c91975dc996157567f4230e357", "lon": -77.00057416666667, "fusion_lon": 0.0}, {"is_reserved": 0, "type": "electric_scooter", "fusion_lat": 0.0, "is_disabled": 0, "rental_uris": {"ios": "https://dc.lft.to/lastmile_qr_scan", "android": "https://dc.lft.to/lastmile_qr_scan"}, "bike_id": "11511b0ba845f9a41d9f0fc4f5b6f196", "lat": 38.92322983333333, "name": "11511b0ba845f9a41d9f0fc4f5b6f196", "lon": -76.99903816666667, "fusion_lon": 0.0}, {"is_reserved": 0, "type": "electric_scooter", "fusion_lat": 0.0, "is_disabled": 0, "rental_uris": {"ios": "https://dc.lft.to/lastmile_qr_scan", "android": "https://dc.lft.to/lastmile_qr_scan"}, "bike_id": "cb8e87742e50cfd60e84e964382baa81", "lat": 38.92654316666667, "name": "cb8e87742e50cfd60e84e964382baa81", "lon": -77.0243405, "fusion_lon": 0.0}, {"is_reserved": 0, "type": "electric_bike", "fusion_lat": 0.0, "is_disabled": 0, "rental_uris": {"ios": "https://dc.lft.to/lastmile_qr_scan", "android": "https://dc.lft.to/lastmile_qr_scan"}, "bike_id": "6eceb0d511038515ac25c53df187e82b", "lat": 38.96436966666667, "name": "6eceb0d511038515ac25c53df187e82b", "lon": -77.03186516666666, "fusion_lon": 0.0}, {"is_reserved": 0, "type": "electric_scooter", "fusion_lat": 0.0, "is_disabled": 0, "rental_uris": {"ios": "https://dc.lft.to/lastmile_qr_scan", "android": "https://dc.lft.to/lastmile_qr_scan"}, "bike_id": "c32497b037305695445d692ab11336ce", "lat": 38.90264633333334, "name": "c32497b037305695445d692ab11336ce", "lon": -77.0271515, "fusion_lon": 0.0}, {"is_reserved": 0, "type": "electric_scooter", "fusion_lat": 0.0, "is_disabled": 0, "rental_uris": {"ios": "https://dc.lft.to/lastmile_qr_scan", "android": "https://dc.lft.to/lastmile_qr_scan"}, "bike_id": "fbb9776aa72731015469e4e13b917026", "lat": 38.897237, "name": "fbb9776aa72731015469e4e13b917026", "lon": -77.02701983333333, "fusion_lon": 0.0}, {"is_reserved": 0, "type": "electric_bike", "fusion_lat": 0.0, "is_disabled": 0, "rental_uris": {"ios": "https://dc.lft.to/lastmile_qr_scan", "android": "https://dc.lft.to/lastmile_qr_scan"}, "bike_id": "36f27a7a0a7236c7670b8748b1f34726", "lat": 38.925279833333335, "name": "36f27a7a0a7236c7670b8748b1f34726", "lon": -77.07326133333333, "fusion_lon": 0.0}, {"is_reserved": 0, "type": "electric_scooter", "fusion_lat": 0.0, "is_disabled": 0, "rental_uris": {"ios": "https://dc.lft.to/lastmile_qr_scan", "android": "https://dc.lft.to/lastmile_qr_scan"}, "bike_id": "6d36f4aeeaca3d2ea21e291af00b8f16", "lat": 38.899743666666666, "name": "6d36f4aeeaca3d2ea21e291af00b8f16", "lon": -77.01600416666666, "fusion_lon": 0.0}, {"is_reserved": 0, "type": "electric_scooter", "fusion_lat": 0.0, "is_disabled": 0, "rental_uris": {"ios": "https://dc.lft.to/lastmile_qr_scan", "android": "https://dc.lft.to/lastmile_qr_scan"}, "bike_id": "08d50d9a6f68f32dc79f165e617cb295", "lat": 38.9156695, "name": "08d50d9a6f68f32dc79f165e617cb295", "lon": -77.03675083333333, "fusion_lon": 0.0}, {"is_reserved": 0, "type": "electric_scooter", "fusion_lat": 0.0, "is_disabled": 0, "rental_uris": {"ios": "https://dc.lft.to/lastmile_qr_scan", "android": "https://dc.lft.to/lastmile_qr_scan"}, "bike_id": "5995509e2104b6135b27807a795a83a4", "lat": 38.936652333333335, "name": "5995509e2104b6135b27807a795a83a4", "lon": -77.06605383333333, "fusion_lon": 0.0}, {"is_reserved": 0, "type": "electric_scooter", "fusion_lat": 0.0, "is_disabled": 0, "rental_uris": {"ios": "https://dc.lft.to/lastmile_qr_scan", "android": "https://dc.lft.to/lastmile_qr_scan"}, "bike_id": "d0f361b1e05555b639b8aadfebd3c418", "lat": 38.89515333333333, "name": "d0f361b1e05555b639b8aadfebd3c418", "lon": -77.022997, "fusion_lon": 0.0}, {"is_reserved": 0, "type": "electric_scooter", "fusion_lat": 0.0, "is_disabled": 0, "rental_uris": {"ios": "https://dc.lft.to/lastmile_qr_scan", "android": "https://dc.lft.to/lastmile_qr_scan"}, "bike_id": "9bc431ae5de71686e629d674ee690bd8", "lat": 38.90254183333333, "name": "9bc431ae5de71686e629d674ee690bd8", "lon": -77.01756, "fusion_lon": 0.0}, {"is_reserved": 0, "type": "electric_scooter", "fusion_lat": 0.0, "is_disabled": 0, "rental_uris": {"ios": "https://dc.lft.to/lastmile_qr_scan", "android": "https://dc.lft.to/lastmile_qr_scan"}, "bike_id": "3fcc66ea9f5d8e7dc95e91fb548bbe1b", "lat": 38.91678183333333, "name": "3fcc66ea9f5d8e7dc95e91fb548bbe1b", "lon": -77.01581566666667, "fusion_lon": 0.0}, {"is_reserved": 0, "type": "electric_bike", "fusion_lat": 0.0, "is_disabled": 0, "rental_uris": {"ios": "https://dc.lft.to/lastmile_qr_scan", "android": "https://dc.lft.to/lastmile_qr_scan"}, "bike_id": "b403c5c907b6a5e2c204db30d6a49361", "lat": 38.942568, "name": "b403c5c907b6a5e2c204db30d6a49361", "lon": -76.99070966666666, "fusion_lon": 0.0}, {"is_reserved": 0, "type": "electric_scooter", "fusion_lat": 0.0, "is_disabled": 0, "rental_uris": {"ios": "https://dc.lft.to/lastmile_qr_scan", "android": "https://dc.lft.to/lastmile_qr_scan"}, "bike_id": "5d38d7d7fa17cd5e1d085a654c4cb9ab", "lat": 38.90354833333333, "name": "5d38d7d7fa17cd5e1d085a654c4cb9ab", "lon": -77.02909, "fusion_lon": 0.0}, {"is_reserved": 0, "type": "electric_scooter", "fusion_lat": 0.0, "is_disabled": 0, "rental_uris": {"ios": "https://dc.lft.to/lastmile_qr_scan", "android": "https://dc.lft.to/lastmile_qr_scan"}, "bike_id": "98290a39b6486974b76b1fd11bf19d6c", "lat": 38.917252500000004, "name": "98290a39b6486974b76b1fd11bf19d6c", "lon": -77.02970483333333, "fusion_lon": 0.0}, {"is_reserved": 0, "type": "electric_scooter", "fusion_lat": 0.0, "is_disabled": 0, "rental_uris": {"ios": "https://dc.lft.to/lastmile_qr_scan", "android": "https://dc.lft.to/lastmile_qr_scan"}, "bike_id": "a107f82209665b594ba3ec957127a37f", "lat": 38.8814855, "name": "a107f82209665b594ba3ec957127a37f", "lon": -77.0131875, "fusion_lon": 0.0}, {"is_reserved": 0, "type": "electric_scooter", "fusion_lat": 0.0, "is_disabled": 0, "rental_uris": {"ios": "https://dc.lft.to/lastmile_qr_scan", "android": "https://dc.lft.to/lastmile_qr_scan"}, "bike_id": "a620d4ada7a6c4b5146afe237be045de", "lat": 38.92462883333334, "name": "a620d4ada7a6c4b5146afe237be045de", "lon": -77.022371, "fusion_lon": 0.0}, {"is_reserved": 0, "type": "electric_scooter", "fusion_lat": 0.0, "is_disabled": 0, "rental_uris": {"ios": "https://dc.lft.to/lastmile_qr_scan", "android": "https://dc.lft.to/lastmile_qr_scan"}, "bike_id": "315c54391044de5a93cad7bffe07961a", "lat": 38.9009495, "name": "315c54391044de5a93cad7bffe07961a", "lon": -77.04493433333333, "fusion_lon": 0.0}, {"is_reserved": 0, "type": "electric_scooter", "fusion_lat": 0.0, "is_disabled": 0, "rental_uris": {"ios": "https://dc.lft.to/lastmile_qr_scan", "android": "https://dc.lft.to/lastmile_qr_scan"}, "bike_id": "4b407878d4c5c0bb0fa64084204692e9", "lat": 38.905697, "name": "4b407878d4c5c0bb0fa64084204692e9", "lon": -77.02504666666667, "fusion_lon": 0.0}, {"is_reserved": 0, "type": "electric_scooter", "fusion_lat": 0.0, "is_disabled": 0, "rental_uris": {"ios": "https://dc.lft.to/lastmile_qr_scan", "android": "https://dc.lft.to/lastmile_qr_scan"}, "bike_id": "1a2285a040e8fe5dbbbb347987b89416", "lat": 38.9181585, "name": "1a2285a040e8fe5dbbbb347987b89416", "lon": -77.0248475, "fusion_lon": 0.0}, {"is_reserved": 0, "type": "electric_scooter", "fusion_lat": 0.0, "is_disabled": 0, "rental_uris": {"ios": "https://dc.lft.to/lastmile_qr_scan", "android": "https://dc.lft.to/lastmile_qr_scan"}, "bike_id": "52bff6c2ef279ee489bb631fda921476", "lat": 38.90183533333333, "name": "52bff6c2ef279ee489bb631fda921476", "lon": -77.05102533333333, "fusion_lon": 0.0}, {"is_reserved": 0, "type": "electric_bike", "fusion_lat": 0.0, "is_disabled": 0, "rental_uris": {"ios": "https://dc.lft.to/lastmile_qr_scan", "android": "https://dc.lft.to/lastmile_qr_scan"}, "bike_id": "830fdf613cccfecc1cf35510f6f05837", "lat": 38.88133466666667, "name": "830fdf613cccfecc1cf35510f6f05837", "lon": -77.01671366666666, "fusion_lon": 0.0}, {"is_reserved": 0, "type": "electric_scooter", "fusion_lat": 0.0, "is_disabled": 0, "rental_uris": {"ios": "https://dc.lft.to/lastmile_qr_scan", "android": "https://dc.lft.to/lastmile_qr_scan"}, "bike_id": "bbf8d87a7c4bc575918260dd655ce6a7", "lat": 38.905753833333335, "name": "bbf8d87a7c4bc575918260dd655ce6a7", "lon": -77.00551033333333, "fusion_lon": 0.0}, {"is_reserved": 0, "type": "electric_scooter", "fusion_lat": 0.0, "is_disabled": 0, "rental_uris": {"ios": "https://dc.lft.to/lastmile_qr_scan", "android": "https://dc.lft.to/lastmile_qr_scan"}, "bike_id": "8907dbb8aad9f42550c9aabe655be6a6", "lat": 38.93873766666667, "name": "8907dbb8aad9f42550c9aabe655be6a6", "lon": -77.02953383333333, "fusion_lon": 0.0}, {"is_reserved": 0, "type": "electric_scooter", "fusion_lat": 0.0, "is_disabled": 0, "rental_uris": {"ios": "https://dc.lft.to/lastmile_qr_scan", "android": "https://dc.lft.to/lastmile_qr_scan"}, "bike_id": "b2f51c891f15dd94213461fb436fb8cc", "lat": 38.93099983333333, "name": "b2f51c891f15dd94213461fb436fb8cc", "lon": -77.02471583333333, "fusion_lon": 0.0}, {"is_reserved": 0, "type": "electric_bike", "fusion_lat": 0.0, "is_disabled": 0, "rental_uris": {"ios": "https://dc.lft.to/lastmile_qr_scan", "android": "https://dc.lft.to/lastmile_qr_scan"}, "bike_id": "da4ae1a7193af1a58e4d4b805723c54d", "lat": 38.844787, "name": "da4ae1a7193af1a58e4d4b805723c54d", "lon": -76.9959085, "fusion_lon": 0.0}, {"is_reserved": 0, "type": "electric_scooter", "fusion_lat": 0.0, "is_disabled": 0, "rental_uris": {"ios": "https://dc.lft.to/lastmile_qr_scan", "android": "https://dc.lft.to/lastmile_qr_scan"}, "bike_id": "f4ec10aa37392509b45427665fe5d4cb", "lat": 38.881735, "name": "f4ec10aa37392509b45427665fe5d4cb", "lon": -76.92540183333334, "fusion_lon": 0.0}, {"is_reserved": 0, "type": "electric_scooter", "fusion_lat": 0.0, "is_disabled": 0, "rental_uris": {"ios": "https://dc.lft.to/lastmile_qr_scan", "android": "https://dc.lft.to/lastmile_qr_scan"}, "bike_id": "e77533c6d7f8c3fed979b10017bcd391", "lat": 38.8769725, "name": "e77533c6d7f8c3fed979b10017bcd391", "lon": -76.99621083333334, "fusion_lon": 0.0}, {"is_reserved": 0, "type": "electric_scooter", "fusion_lat": 0.0, "is_disabled": 0, "rental_uris": {"ios": "https://dc.lft.to/lastmile_qr_scan", "android": "https://dc.lft.to/lastmile_qr_scan"}, "bike_id": "02b96ad4995a976f363796989b0e182f", "lat": 38.905410833333335, "name": "02b96ad4995a976f363796989b0e182f", "lon": -77.056992, "fusion_lon": 0.0}, {"is_reserved": 0, "type": "electric_scooter", "fusion_lat": 0.0, "is_disabled": 0, "rental_uris": {"ios": "https://dc.lft.to/lastmile_qr_scan", "android": "https://dc.lft.to/lastmile_qr_scan"}, "bike_id": "e944b7646738352c58141ae81a470030", "lat": 38.921174666666666, "name": "e944b7646738352c58141ae81a470030", "lon": -77.0457385, "fusion_lon": 0.0}, {"is_reserved": 0, "type": "electric_scooter", "fusion_lat": 0.0, "is_disabled": 0, "rental_uris": {"ios": "https://dc.lft.to/lastmile_qr_scan", "android": "https://dc.lft.to/lastmile_qr_scan"}, "bike_id": "1f7ae9d4495ca7a94627c0b1e383666f", "lat": 38.90658833333333, "name": "1f7ae9d4495ca7a94627c0b1e383666f", "lon": -77.016203, "fusion_lon": 0.0}, {"is_reserved": 0, "type": "electric_bike", "fusion_lat": 0.0, "is_disabled": 0, "rental_uris": {"ios": "https://dc.lft.to/lastmile_qr_scan", "android": "https://dc.lft.to/lastmile_qr_scan"}, "bike_id": "f5a102f61eac0b5b6468f4c715e761e0", "lat": 39.0229665, "name": "f5a102f61eac0b5b6468f4c715e761e0", "lon": -77.02104916666667, "fusion_lon": 0.0}, {"is_reserved": 0, "type": "electric_bike", "fusion_lat": 0.0, "is_disabled": 0, "rental_uris": {"ios": "https://dc.lft.to/lastmile_qr_scan", "android": "https://dc.lft.to/lastmile_qr_scan"}, "bike_id": "c9be4c49414ebd3eaa36d469d6f367b9", "lat": 38.974732, "name": "c9be4c49414ebd3eaa36d469d6f367b9", "lon": -76.98670516666667, "fusion_lon": 0.0}, {"is_reserved": 0, "type": "electric_bike", "fusion_lat": 0.0, "is_disabled": 0, "rental_uris": {"ios": "https://dc.lft.to/lastmile_qr_scan", "android": "https://dc.lft.to/lastmile_qr_scan"}, "bike_id": "878facca04bcf3673f30d0863b7e60f3", "lat": 38.933438333333335, "name": "878facca04bcf3673f30d0863b7e60f3", "lon": -77.07375233333333, "fusion_lon": 0.0}, {"is_reserved": 0, "type": "electric_scooter", "fusion_lat": 0.0, "is_disabled": 0, "rental_uris": {"ios": "https://dc.lft.to/lastmile_qr_scan", "android": "https://dc.lft.to/lastmile_qr_scan"}, "bike_id": "ee05b4c0fad4ee817978206f2db85549", "lat": 38.8984135, "name": "ee05b4c0fad4ee817978206f2db85549", "lon": -77.01874333333333, "fusion_lon": 0.0}, {"is_reserved": 0, "type": "electric_bike", "fusion_lat": 0.0, "is_disabled": 0, "rental_uris": {"ios": "https://dc.lft.to/lastmile_qr_scan", "android": "https://dc.lft.to/lastmile_qr_scan"}, "bike_id": "c7b05d184cc4e6970fabc9eba60595d0", "lat": 38.894228166666664, "name": "c7b05d184cc4e6970fabc9eba60595d0", "lon": -77.09446216666667, "fusion_lon": 0.0}, {"is_reserved": 0, "type": "electric_scooter", "fusion_lat": 0.0, "is_disabled": 0, "rental_uris": {"ios": "https://dc.lft.to/lastmile_qr_scan", "android": "https://dc.lft.to/lastmile_qr_scan"}, "bike_id": "99dbc32a143edf6c8aa22fe06a953b8f", "lat": 38.89208516666667, "name": "99dbc32a143edf6c8aa22fe06a953b8f", "lon": -76.99935866666667, "fusion_lon": 0.0}, {"is_reserved": 0, "type": "electric_bike", "fusion_lat": 0.0, "is_disabled": 0, "rental_uris": {"ios": "https://dc.lft.to/lastmile_qr_scan", "android": "https://dc.lft.to/lastmile_qr_scan"}, "bike_id": "d2a45ffba47f13ec4e230e5719a71a74", "lat": 38.84085566666667, "name": "d2a45ffba47f13ec4e230e5719a71a74", "lon": -76.9702635, "fusion_lon": 0.0}, {"is_reserved": 0, "type": "electric_bike", "fusion_lat": 0.0, "is_disabled": 0, "rental_uris": {"ios": "https://dc.lft.to/lastmile_qr_scan", "android": "https://dc.lft.to/lastmile_qr_scan"}, "bike_id": "4bb7fe3885e44e06d9a0aca6553350e7", "lat": 38.982299, "name": "4bb7fe3885e44e06d9a0aca6553350e7", "lon": -77.09590516666667, "fusion_lon": 0.0}, {"is_reserved": 0, "type": "electric_bike", "fusion_lat": 0.0, "is_disabled": 0, "rental_uris": {"ios": "https://dc.lft.to/lastmile_qr_scan", "android": "https://dc.lft.to/lastmile_qr_scan"}, "bike_id": "29b730f13c3336512de683fb532074ee", "lat": 38.834913, "name": "29b730f13c3336512de683fb532074ee", "lon": -77.00431983333333, "fusion_lon": 0.0}, {"is_reserved": 0, "type": "electric_scooter", "fusion_lat": 0.0, "is_disabled": 0, "rental_uris": {"ios": "https://dc.lft.to/lastmile_qr_scan", "android": "https://dc.lft.to/lastmile_qr_scan"}, "bike_id": "966c5a12bcdd82131eb681910e8f9638", "lat": 38.899489333333335, "name": "966c5a12bcdd82131eb681910e8f9638", "lon": -77.0474565, "fusion_lon": 0.0}, {"is_reserved": 0, "type": "electric_scooter", "fusion_lat": 0.0, "is_disabled": 0, "rental_uris": {"ios": "https://dc.lft.to/lastmile_qr_scan", "android": "https://dc.lft.to/lastmile_qr_scan"}, "bike_id": "944583617488b2175983e608662a0615", "lat": 38.916894166666665, "name": "944583617488b2175983e608662a0615", "lon": -77.03239733333334, "fusion_lon": 0.0}, {"is_reserved": 0, "type": "electric_scooter", "fusion_lat": 0.0, "is_disabled": 0, "rental_uris": {"ios": "https://dc.lft.to/lastmile_qr_scan", "android": "https://dc.lft.to/lastmile_qr_scan"}, "bike_id": "6af0be336cca69465a223d289e316d14", "lat": 38.907936, "name": "6af0be336cca69465a223d289e316d14", "lon": -77.00199866666667, "fusion_lon": 0.0}, {"is_reserved": 0, "type": "electric_scooter", "fusion_lat": 0.0, "is_disabled": 0, "rental_uris": {"ios": "https://dc.lft.to/lastmile_qr_scan", "android": "https://dc.lft.to/lastmile_qr_scan"}, "bike_id": "f4c0c3362e3c10d5e401199b3173e16b", "lat": 38.892276333333335, "name": "f4c0c3362e3c10d5e401199b3173e16b", "lon": -77.02203283333333, "fusion_lon": 0.0}, {"is_reserved": 0, "type": "electric_scooter", "fusion_lat": 0.0, "is_disabled": 0, "rental_uris": {"ios": "https://dc.lft.to/lastmile_qr_scan", "android": "https://dc.lft.to/lastmile_qr_scan"}, "bike_id": "cacff603f233298643422b2df54a653d", "lat": 38.900290166666665, "name": "cacff603f233298643422b2df54a653d", "lon": -77.01191333333334, "fusion_lon": 0.0}, {"is_reserved": 0, "type": "electric_bike", "fusion_lat": 0.0, "is_disabled": 0, "rental_uris": {"ios": "https://dc.lft.to/lastmile_qr_scan", "android": "https://dc.lft.to/lastmile_qr_scan"}, "bike_id": "386521bdb9adc51382ef4708e4df95e0", "lat": 38.967802666666664, "name": "386521bdb9adc51382ef4708e4df95e0", "lon": -76.99646616666666, "fusion_lon": 0.0}, {"is_reserved": 0, "type": "electric_bike", "fusion_lat": 0.0, "is_disabled": 0, "rental_uris": {"ios": "https://dc.lft.to/lastmile_qr_scan", "android": "https://dc.lft.to/lastmile_qr_scan"}, "bike_id": "0d5b1e21c951d175fb7b460a18cfda5c", "lat": 38.905564166666665, "name": "0d5b1e21c951d175fb7b460a18cfda5c", "lon": -77.06520583333334, "fusion_lon": 0.0}, {"is_reserved": 0, "type": "electric_scooter", "fusion_lat": 0.0, "is_disabled": 0, "rental_uris": {"ios": "https://dc.lft.to/lastmile_qr_scan", "android": "https://dc.lft.to/lastmile_qr_scan"}, "bike_id": "21c66c3d8b8d2ab37c4a28582bf0c8cc", "lat": 38.93537716666667, "name": "21c66c3d8b8d2ab37c4a28582bf0c8cc", "lon": -77.05746733333334, "fusion_lon": 0.0}, {"is_reserved": 0, "type": "electric_scooter", "fusion_lat": 0.0, "is_disabled": 0, "rental_uris": {"ios": "https://dc.lft.to/lastmile_qr_scan", "android": "https://dc.lft.to/lastmile_qr_scan"}, "bike_id": "b91603bf5f19ea953f16ba0294e6ea17", "lat": 38.88698733333333, "name": "b91603bf5f19ea953f16ba0294e6ea17", "lon": -77.0005815, "fusion_lon": 0.0}, {"is_reserved": 0, "type": "electric_scooter", "fusion_lat": 0.0, "is_disabled": 0, "rental_uris": {"ios": "https://dc.lft.to/lastmile_qr_scan", "android": "https://dc.lft.to/lastmile_qr_scan"}, "bike_id": "bdcf84cc0f6d7f4504dbf58c06875d34", "lat": 38.928412, "name": "bdcf84cc0f6d7f4504dbf58c06875d34", "lon": -77.03283816666666, "fusion_lon": 0.0}, {"is_reserved": 0, "type": "electric_scooter", "fusion_lat": 0.0, "is_disabled": 0, "rental_uris": {"ios": "https://dc.lft.to/lastmile_qr_scan", "android": "https://dc.lft.to/lastmile_qr_scan"}, "bike_id": "858b7bedb7c1be9c5124f78df68944db", "lat": 38.879443333333334, "name": "858b7bedb7c1be9c5124f78df68944db", "lon": -77.01270866666667, "fusion_lon": 0.0}, {"is_reserved": 0, "type": "electric_scooter", "fusion_lat": 0.0, "is_disabled": 0, "rental_uris": {"ios": "https://dc.lft.to/lastmile_qr_scan", "android": "https://dc.lft.to/lastmile_qr_scan"}, "bike_id": "4b5ba9985da962a2f60fb21ae48d9555", "lat": 38.900747333333335, "name": "4b5ba9985da962a2f60fb21ae48d9555", "lon": -77.027012, "fusion_lon": 0.0}, {"is_reserved": 0, "type": "electric_scooter", "fusion_lat": 0.0, "is_disabled": 0, "rental_uris": {"ios": "https://dc.lft.to/lastmile_qr_scan", "android": "https://dc.lft.to/lastmile_qr_scan"}, "bike_id": "6a06e43fd3523c33535773a24f8ea66e", "lat": 38.93227533333334, "name": "6a06e43fd3523c33535773a24f8ea66e", "lon": -77.02960566666667, "fusion_lon": 0.0}, {"is_reserved": 0, "type": "electric_scooter", "fusion_lat": 0.0, "is_disabled": 0, "rental_uris": {"ios": "https://dc.lft.to/lastmile_qr_scan", "android": "https://dc.lft.to/lastmile_qr_scan"}, "bike_id": "97ff6c6892ea051d9288fd52efe2b932", "lat": 38.9446205, "name": "97ff6c6892ea051d9288fd52efe2b932", "lon": -77.006568, "fusion_lon": 0.0}, {"is_reserved": 0, "type": "electric_scooter", "fusion_lat": 0.0, "is_disabled": 0, "rental_uris": {"ios": "https://dc.lft.to/lastmile_qr_scan", "android": "https://dc.lft.to/lastmile_qr_scan"}, "bike_id": "e694d7e9f2ecc191d7a421274d2b02ff", "lat": 38.88138433333334, "name": "e694d7e9f2ecc191d7a421274d2b02ff", "lon": -76.996187, "fusion_lon": 0.0}, {"is_reserved": 0, "type": "electric_scooter", "fusion_lat": 0.0, "is_disabled": 0, "rental_uris": {"ios": "https://dc.lft.to/lastmile_qr_scan", "android": "https://dc.lft.to/lastmile_qr_scan"}, "bike_id": "a90ea808d87b21a5a07e1f72017a4bfd", "lat": 38.89818133333333, "name": "a90ea808d87b21a5a07e1f72017a4bfd", "lon": -76.99837316666667, "fusion_lon": 0.0}, {"is_reserved": 0, "type": "electric_scooter", "fusion_lat": 0.0, "is_disabled": 0, "rental_uris": {"ios": "https://dc.lft.to/lastmile_qr_scan", "android": "https://dc.lft.to/lastmile_qr_scan"}, "bike_id": "7b8abef4673edf045d9c195c4ee5bf73", "lat": 38.896194666666666, "name": "7b8abef4673edf045d9c195c4ee5bf73", "lon": -77.01074183333333, "fusion_lon": 0.0}, {"is_reserved": 0, "type": "electric_scooter", "fusion_lat": 0.0, "is_disabled": 0, "rental_uris": {"ios": "https://dc.lft.to/lastmile_qr_scan", "android": "https://dc.lft.to/lastmile_qr_scan"}, "bike_id": "5945223452b763c6e955b29b94c5edff", "lat": 38.87833583333333, "name": "5945223452b763c6e955b29b94c5edff", "lon": -77.00856483333334, "fusion_lon": 0.0}, {"is_reserved": 0, "type": "electric_scooter", "fusion_lat": 0.0, "is_disabled": 0, "rental_uris": {"ios": "https://dc.lft.to/lastmile_qr_scan", "android": "https://dc.lft.to/lastmile_qr_scan"}, "bike_id": "3ff7415cbc4c5f0f1029cf49e02ee116", "lat": 38.920609666666664, "name": "3ff7415cbc4c5f0f1029cf49e02ee116", "lon": -77.00065466666666, "fusion_lon": 0.0}, {"is_reserved": 0, "type": "electric_bike", "fusion_lat": 0.0, "is_disabled": 0, "rental_uris": {"ios": "https://dc.lft.to/lastmile_qr_scan", "android": "https://dc.lft.to/lastmile_qr_scan"}, "bike_id": "f5b2f2d09d8c16ef27ce2aafabbf71b1", "lat": 38.819365833333336, "name": "f5b2f2d09d8c16ef27ce2aafabbf71b1", "lon": -77.002017, "fusion_lon": 0.0}, {"is_reserved": 0, "type": "electric_scooter", "fusion_lat": 0.0, "is_disabled": 0, "rental_uris": {"ios": "https://dc.lft.to/lastmile_qr_scan", "android": "https://dc.lft.to/lastmile_qr_scan"}, "bike_id": "8b0c0c51c647c6acfee38bb72e3e6923", "lat": 38.9353095, "name": "8b0c0c51c647c6acfee38bb72e3e6923", "lon": -77.0234865, "fusion_lon": 0.0}, {"is_reserved": 0, "type": "electric_scooter", "fusion_lat": 0.0, "is_disabled": 0, "rental_uris": {"ios": "https://dc.lft.to/lastmile_qr_scan", "android": "https://dc.lft.to/lastmile_qr_scan"}, "bike_id": "0005aa9a5200ac6972b0b5fd7609dfb7", "lat": 38.924451166666664, "name": "0005aa9a5200ac6972b0b5fd7609dfb7", "lon": -77.02039883333333, "fusion_lon": 0.0}, {"is_reserved": 0, "type": "electric_scooter", "fusion_lat": 0.0, "is_disabled": 0, "rental_uris": {"ios": "https://dc.lft.to/lastmile_qr_scan", "android": "https://dc.lft.to/lastmile_qr_scan"}, "bike_id": "6e18329e6396b63a9e0efa9fc62e3832", "lat": 38.92606983333334, "name": "6e18329e6396b63a9e0efa9fc62e3832", "lon": -77.02412683333333, "fusion_lon": 0.0}, {"is_reserved": 0, "type": "electric_scooter", "fusion_lat": 0.0, "is_disabled": 0, "rental_uris": {"ios": "https://dc.lft.to/lastmile_qr_scan", "android": "https://dc.lft.to/lastmile_qr_scan"}, "bike_id": "8e9cafbd49139ce67014370fccd4abfe", "lat": 38.88712433333333, "name": "8e9cafbd49139ce67014370fccd4abfe", "lon": -76.98382933333333, "fusion_lon": 0.0}, {"is_reserved": 0, "type": "electric_scooter", "fusion_lat": 0.0, "is_disabled": 0, "rental_uris": {"ios": "https://dc.lft.to/lastmile_qr_scan", "android": "https://dc.lft.to/lastmile_qr_scan"}, "bike_id": "4a60115bbb17f98c543be44a67d7c9c7", "lat": 38.916756, "name": "4a60115bbb17f98c543be44a67d7c9c7", "lon": -77.01577583333334, "fusion_lon": 0.0}, {"is_reserved": 0, "type": "electric_scooter", "fusion_lat": 0.0, "is_disabled": 0, "rental_uris": {"ios": "https://dc.lft.to/lastmile_qr_scan", "android": "https://dc.lft.to/lastmile_qr_scan"}, "bike_id": "b873fed74f35fac5a453b36d289659b2", "lat": 38.890080833333336, "name": "b873fed74f35fac5a453b36d289659b2", "lon": -76.937417, "fusion_lon": 0.0}, {"is_reserved": 0, "type": "electric_scooter", "fusion_lat": 0.0, "is_disabled": 0, "rental_uris": {"ios": "https://dc.lft.to/lastmile_qr_scan", "android": "https://dc.lft.to/lastmile_qr_scan"}, "bike_id": "210559840df6c5e4c29986bf4f259b7b", "lat": 38.902624333333335, "name": "210559840df6c5e4c29986bf4f259b7b", "lon": -77.017593, "fusion_lon": 0.0}, {"is_reserved": 0, "type": "electric_scooter", "fusion_lat": 0.0, "is_disabled": 0, "rental_uris": {"ios": "https://dc.lft.to/lastmile_qr_scan", "android": "https://dc.lft.to/lastmile_qr_scan"}, "bike_id": "0be236c6c5929ead3cfd3382b7cadd96", "lat": 38.89060416666667, "name": "0be236c6c5929ead3cfd3382b7cadd96", "lon": -76.99196016666667, "fusion_lon": 0.0}, {"is_reserved": 0, "type": "electric_scooter", "fusion_lat": 0.0, "is_disabled": 0, "rental_uris": {"ios": "https://dc.lft.to/lastmile_qr_scan", "android": "https://dc.lft.to/lastmile_qr_scan"}, "bike_id": "3d967b72b36b4498aa0e1c4131a5fc06", "lat": 38.9017985, "name": "3d967b72b36b4498aa0e1c4131a5fc06", "lon": -76.97667333333334, "fusion_lon": 0.0}, {"is_reserved": 0, "type": "electric_scooter", "fusion_lat": 0.0, "is_disabled": 0, "rental_uris": {"ios": "https://dc.lft.to/lastmile_qr_scan", "android": "https://dc.lft.to/lastmile_qr_scan"}, "bike_id": "927a73ccbcb406d3492cd1f8c5501139", "lat": 38.87690583333333, "name": "927a73ccbcb406d3492cd1f8c5501139", "lon": -76.9962565, "fusion_lon": 0.0}, {"is_reserved": 0, "type": "electric_bike", "fusion_lat": 0.0, "is_disabled": 0, "rental_uris": {"ios": "https://dc.lft.to/lastmile_qr_scan", "android": "https://dc.lft.to/lastmile_qr_scan"}, "bike_id": "8c3f840fde2af15d9c6b3db9bc947f6d", "lat": 38.958776666666665, "name": "8c3f840fde2af15d9c6b3db9bc947f6d", "lon": -76.97048416666667, "fusion_lon": 0.0}, {"is_reserved": 0, "type": "electric_scooter", "fusion_lat": 0.0, "is_disabled": 0, "rental_uris": {"ios": "https://dc.lft.to/lastmile_qr_scan", "android": "https://dc.lft.to/lastmile_qr_scan"}, "bike_id": "00e7c3f2c53ebf56e8de4bf667c04092", "lat": 38.9205045, "name": "00e7c3f2c53ebf56e8de4bf667c04092", "lon": -77.022895, "fusion_lon": 0.0}, {"is_reserved": 0, "type": "electric_scooter", "fusion_lat": 0.0, "is_disabled": 0, "rental_uris": {"ios": "https://dc.lft.to/lastmile_qr_scan", "android": "https://dc.lft.to/lastmile_qr_scan"}, "bike_id": "b87dba4fd3ddec91f66b0509621d59aa", "lat": 38.920772166666666, "name": "b87dba4fd3ddec91f66b0509621d59aa", "lon": -77.02410183333333, "fusion_lon": 0.0}, {"is_reserved": 0, "type": "electric_scooter", "fusion_lat": 0.0, "is_disabled": 0, "rental_uris": {"ios": "https://dc.lft.to/lastmile_qr_scan", "android": "https://dc.lft.to/lastmile_qr_scan"}, "bike_id": "6131c01e95ee6bef3045088d5197a94c", "lat": 38.927989, "name": "6131c01e95ee6bef3045088d5197a94c", "lon": -77.021222, "fusion_lon": 0.0}, {"is_reserved": 0, "type": "electric_scooter", "fusion_lat": 0.0, "is_disabled": 0, "rental_uris": {"ios": "https://dc.lft.to/lastmile_qr_scan", "android": "https://dc.lft.to/lastmile_qr_scan"}, "bike_id": "c83080de72f7a2f4bcb889522671a61b", "lat": 38.8922455, "name": "c83080de72f7a2f4bcb889522671a61b", "lon": -77.0257155, "fusion_lon": 0.0}, {"is_reserved": 0, "type": "electric_scooter", "fusion_lat": 0.0, "is_disabled": 0, "rental_uris": {"ios": "https://dc.lft.to/lastmile_qr_scan", "android": "https://dc.lft.to/lastmile_qr_scan"}, "bike_id": "29bb9155456ece0e4573afd260619730", "lat": 38.9060455, "name": "29bb9155456ece0e4573afd260619730", "lon": -77.06294366666667, "fusion_lon": 0.0}, {"is_reserved": 0, "type": "electric_scooter", "fusion_lat": 0.0, "is_disabled": 0, "rental_uris": {"ios": "https://dc.lft.to/lastmile_qr_scan", "android": "https://dc.lft.to/lastmile_qr_scan"}, "bike_id": "c8d3f13d01c0a554aff2125cc1ee8aeb", "lat": 38.89981433333333, "name": "c8d3f13d01c0a554aff2125cc1ee8aeb", "lon": -77.00936633333333, "fusion_lon": 0.0}, {"is_reserved": 0, "type": "electric_scooter", "fusion_lat": 0.0, "is_disabled": 0, "rental_uris": {"ios": "https://dc.lft.to/lastmile_qr_scan", "android": "https://dc.lft.to/lastmile_qr_scan"}, "bike_id": "87ff7387904d2762e3b13e886f1da621", "lat": 38.901469166666665, "name": "87ff7387904d2762e3b13e886f1da621", "lon": -77.0150965, "fusion_lon": 0.0}, {"is_reserved": 0, "type": "electric_scooter", "fusion_lat": 0.0, "is_disabled": 0, "rental_uris": {"ios": "https://dc.lft.to/lastmile_qr_scan", "android": "https://dc.lft.to/lastmile_qr_scan"}, "bike_id": "1c3e835c070084b24d9be84b96c1e8a0", "lat": 38.92131066666666, "name": "1c3e835c070084b24d9be84b96c1e8a0", "lon": -77.00398933333334, "fusion_lon": 0.0}, {"is_reserved": 0, "type": "electric_scooter", "fusion_lat": 0.0, "is_disabled": 0, "rental_uris": {"ios": "https://dc.lft.to/lastmile_qr_scan", "android": "https://dc.lft.to/lastmile_qr_scan"}, "bike_id": "a61143169a8c87fcb9c5b09b22e85668", "lat": 38.90654883333333, "name": "a61143169a8c87fcb9c5b09b22e85668", "lon": -77.02482383333333, "fusion_lon": 0.0}, {"is_reserved": 0, "type": "electric_scooter", "fusion_lat": 0.0, "is_disabled": 0, "rental_uris": {"ios": "https://dc.lft.to/lastmile_qr_scan", "android": "https://dc.lft.to/lastmile_qr_scan"}, "bike_id": "b92fd528bb10e42529be68f49b6a50c4", "lat": 38.9204495, "name": "b92fd528bb10e42529be68f49b6a50c4", "lon": -77.0260625, "fusion_lon": 0.0}, {"is_reserved": 0, "type": "electric_bike", "fusion_lat": 0.0, "is_disabled": 0, "rental_uris": {"ios": "https://dc.lft.to/lastmile_qr_scan", "android": "https://dc.lft.to/lastmile_qr_scan"}, "bike_id": "a2580b7502d53a2fb7f6d0c4d6548cf4", "lat": 38.952419666666664, "name": "a2580b7502d53a2fb7f6d0c4d6548cf4", "lon": -76.98245583333333, "fusion_lon": 0.0}, {"is_reserved": 0, "type": "electric_scooter", "fusion_lat": 0.0, "is_disabled": 0, "rental_uris": {"ios": "https://dc.lft.to/lastmile_qr_scan", "android": "https://dc.lft.to/lastmile_qr_scan"}, "bike_id": "615e0b7261def2720850d8e79abd2d27", "lat": 38.903878666666664, "name": "615e0b7261def2720850d8e79abd2d27", "lon": -76.99002083333333, "fusion_lon": 0.0}, {"is_reserved": 0, "type": "electric_scooter", "fusion_lat": 0.0, "is_disabled": 0, "rental_uris": {"ios": "https://dc.lft.to/lastmile_qr_scan", "android": "https://dc.lft.to/lastmile_qr_scan"}, "bike_id": "e56a5da69d1809b0b09a90435d628937", "lat": 38.919119333333335, "name": "e56a5da69d1809b0b09a90435d628937", "lon": -77.01164166666666, "fusion_lon": 0.0}, {"is_reserved": 0, "type": "electric_scooter", "fusion_lat": 0.0, "is_disabled": 0, "rental_uris": {"ios": "https://dc.lft.to/lastmile_qr_scan", "android": "https://dc.lft.to/lastmile_qr_scan"}, "bike_id": "78127a4fa7a5099fddfe88f392afff81", "lat": 38.88608766666667, "name": "78127a4fa7a5099fddfe88f392afff81", "lon": -77.00334583333333, "fusion_lon": 0.0}, {"is_reserved": 0, "type": "electric_scooter", "fusion_lat": 0.0, "is_disabled": 0, "rental_uris": {"ios": "https://dc.lft.to/lastmile_qr_scan", "android": "https://dc.lft.to/lastmile_qr_scan"}, "bike_id": "41a851a3ed9410c1347a5fd7323d9853", "lat": 38.876716, "name": "41a851a3ed9410c1347a5fd7323d9853", "lon": -77.00346783333333, "fusion_lon": 0.0}, {"is_reserved": 0, "type": "electric_bike", "fusion_lat": 0.0, "is_disabled": 0, "rental_uris": {"ios": "https://dc.lft.to/lastmile_qr_scan", "android": "https://dc.lft.to/lastmile_qr_scan"}, "bike_id": "f1c2bf79a8d332314ddbad46d416e3dc", "lat": 38.902348833333335, "name": "f1c2bf79a8d332314ddbad46d416e3dc", "lon": -77.0590625, "fusion_lon": 0.0}, {"is_reserved": 0, "type": "electric_scooter", "fusion_lat": 0.0, "is_disabled": 0, "rental_uris": {"ios": "https://dc.lft.to/lastmile_qr_scan", "android": "https://dc.lft.to/lastmile_qr_scan"}, "bike_id": "41dd19e986ea69cbdcb237a74ddf8290", "lat": 38.910478166666664, "name": "41dd19e986ea69cbdcb237a74ddf8290", "lon": -77.04357383333334, "fusion_lon": 0.0}, {"is_reserved": 0, "type": "electric_scooter", "fusion_lat": 0.0, "is_disabled": 0, "rental_uris": {"ios": "https://dc.lft.to/lastmile_qr_scan", "android": "https://dc.lft.to/lastmile_qr_scan"}, "bike_id": "bb0cf095bebdb59042e1dd505da48232", "lat": 38.898734166666664, "name": "bb0cf095bebdb59042e1dd505da48232", "lon": -77.04653766666667, "fusion_lon": 0.0}, {"is_reserved": 0, "type": "electric_scooter", "fusion_lat": 0.0, "is_disabled": 0, "rental_uris": {"ios": "https://dc.lft.to/lastmile_qr_scan", "android": "https://dc.lft.to/lastmile_qr_scan"}, "bike_id": "7cdaa486cab9b7b3d757f62bf28b3c2a", "lat": 38.894223, "name": "7cdaa486cab9b7b3d757f62bf28b3c2a", "lon": -77.04473216666666, "fusion_lon": 0.0}, {"is_reserved": 0, "type": "electric_scooter", "fusion_lat": 0.0, "is_disabled": 0, "rental_uris": {"ios": "https://dc.lft.to/lastmile_qr_scan", "android": "https://dc.lft.to/lastmile_qr_scan"}, "bike_id": "09cded9b1fea02e1996dd237933ee6e7", "lat": 38.895168, "name": "09cded9b1fea02e1996dd237933ee6e7", "lon": -77.02295833333334, "fusion_lon": 0.0}, {"is_reserved": 0, "type": "electric_scooter", "fusion_lat": 0.0, "is_disabled": 0, "rental_uris": {"ios": "https://dc.lft.to/lastmile_qr_scan", "android": "https://dc.lft.to/lastmile_qr_scan"}, "bike_id": "277fe5994c0088d06be32f1fc12131d6", "lat": 38.92786616666667, "name": "277fe5994c0088d06be32f1fc12131d6", "lon": -77.03145966666666, "fusion_lon": 0.0}, {"is_reserved": 0, "type": "electric_scooter", "fusion_lat": 0.0, "is_disabled": 0, "rental_uris": {"ios": "https://dc.lft.to/lastmile_qr_scan", "android": "https://dc.lft.to/lastmile_qr_scan"}, "bike_id": "da19d06dff1ec2438deded40fa571304", "lat": 38.931117666666665, "name": "da19d06dff1ec2438deded40fa571304", "lon": -77.02338566666667, "fusion_lon": 0.0}, {"is_reserved": 0, "type": "electric_scooter", "fusion_lat": 0.0, "is_disabled": 0, "rental_uris": {"ios": "https://dc.lft.to/lastmile_qr_scan", "android": "https://dc.lft.to/lastmile_qr_scan"}, "bike_id": "c3ae94f8cae0ce52d0a705492a37e211", "lat": 38.871005833333335, "name": "c3ae94f8cae0ce52d0a705492a37e211", "lon": -77.01205466666667, "fusion_lon": 0.0}, {"is_reserved": 0, "type": "electric_scooter", "fusion_lat": 0.0, "is_disabled": 0, "rental_uris": {"ios": "https://dc.lft.to/lastmile_qr_scan", "android": "https://dc.lft.to/lastmile_qr_scan"}, "bike_id": "221e4013d452b53edd84869771b1e4d0", "lat": 38.9287165, "name": "221e4013d452b53edd84869771b1e4d0", "lon": -77.034774, "fusion_lon": 0.0}, {"is_reserved": 0, "type": "electric_scooter", "fusion_lat": 0.0, "is_disabled": 0, "rental_uris": {"ios": "https://dc.lft.to/lastmile_qr_scan", "android": "https://dc.lft.to/lastmile_qr_scan"}, "bike_id": "e919770a0ac4c95b7126a5195115782d", "lat": 38.899802333333334, "name": "e919770a0ac4c95b7126a5195115782d", "lon": -77.02153866666667, "fusion_lon": 0.0}, {"is_reserved": 0, "type": "electric_scooter", "fusion_lat": 0.0, "is_disabled": 0, "rental_uris": {"ios": "https://dc.lft.to/lastmile_qr_scan", "android": "https://dc.lft.to/lastmile_qr_scan"}, "bike_id": "7af876fd254c8932dcf855fbf62e2a4f", "lat": 38.91730616666667, "name": "7af876fd254c8932dcf855fbf62e2a4f", "lon": -77.0259595, "fusion_lon": 0.0}, {"is_reserved": 0, "type": "electric_scooter", "fusion_lat": 0.0, "is_disabled": 0, "rental_uris": {"ios": "https://dc.lft.to/lastmile_qr_scan", "android": "https://dc.lft.to/lastmile_qr_scan"}, "bike_id": "1126f33edfd27199424e02cbfe220472", "lat": 38.9207555, "name": "1126f33edfd27199424e02cbfe220472", "lon": -77.02389716666667, "fusion_lon": 0.0}, {"is_reserved": 0, "type": "electric_scooter", "fusion_lat": 0.0, "is_disabled": 0, "rental_uris": {"ios": "https://dc.lft.to/lastmile_qr_scan", "android": "https://dc.lft.to/lastmile_qr_scan"}, "bike_id": "e5c80205eadaf386060ac37af1b532da", "lat": 38.924069, "name": "e5c80205eadaf386060ac37af1b532da", "lon": -77.0353925, "fusion_lon": 0.0}, {"is_reserved": 0, "type": "electric_scooter", "fusion_lat": 0.0, "is_disabled": 0, "rental_uris": {"ios": "https://dc.lft.to/lastmile_qr_scan", "android": "https://dc.lft.to/lastmile_qr_scan"}, "bike_id": "62372555d3ef02ab44c1ea2d5d1bf47e", "lat": 38.9212045, "name": "62372555d3ef02ab44c1ea2d5d1bf47e", "lon": -77.012113, "fusion_lon": 0.0}, {"is_reserved": 0, "type": "electric_scooter", "fusion_lat": 0.0, "is_disabled": 0, "rental_uris": {"ios": "https://dc.lft.to/lastmile_qr_scan", "android": "https://dc.lft.to/lastmile_qr_scan"}, "bike_id": "f7741511281ace0c02d669f44ab866d8", "lat": 38.92996983333333, "name": "f7741511281ace0c02d669f44ab866d8", "lon": -77.02171033333333, "fusion_lon": 0.0}, {"is_reserved": 0, "type": "electric_scooter", "fusion_lat": 0.0, "is_disabled": 0, "rental_uris": {"ios": "https://dc.lft.to/lastmile_qr_scan", "android": "https://dc.lft.to/lastmile_qr_scan"}, "bike_id": "0f71d808431440624a40ff03348eff3b", "lat": 38.92345, "name": "0f71d808431440624a40ff03348eff3b", "lon": -77.035113, "fusion_lon": 0.0}, {"is_reserved": 0, "type": "electric_scooter", "fusion_lat": 0.0, "is_disabled": 0, "rental_uris": {"ios": "https://dc.lft.to/lastmile_qr_scan", "android": "https://dc.lft.to/lastmile_qr_scan"}, "bike_id": "0e2dfe92d38254fec08cc7c2ce24b435", "lat": 38.91929783333333, "name": "0e2dfe92d38254fec08cc7c2ce24b435", "lon": -77.01906716666667, "fusion_lon": 0.0}, {"is_reserved": 0, "type": "electric_scooter", "fusion_lat": 0.0, "is_disabled": 0, "rental_uris": {"ios": "https://dc.lft.to/lastmile_qr_scan", "android": "https://dc.lft.to/lastmile_qr_scan"}, "bike_id": "0ace6f6bca7905d96a96608088ed63d7", "lat": 38.90957266666667, "name": "0ace6f6bca7905d96a96608088ed63d7", "lon": -77.0228465, "fusion_lon": 0.0}, {"is_reserved": 0, "type": "electric_scooter", "fusion_lat": 0.0, "is_disabled": 0, "rental_uris": {"ios": "https://dc.lft.to/lastmile_qr_scan", "android": "https://dc.lft.to/lastmile_qr_scan"}, "bike_id": "df490ab5ae0185f98d85e1a50cfd0dfe", "lat": 38.896659, "name": "df490ab5ae0185f98d85e1a50cfd0dfe", "lon": -77.043458, "fusion_lon": 0.0}, {"is_reserved": 0, "type": "electric_scooter", "fusion_lat": 0.0, "is_disabled": 0, "rental_uris": {"ios": "https://dc.lft.to/lastmile_qr_scan", "android": "https://dc.lft.to/lastmile_qr_scan"}, "bike_id": "1647c67b75595fc2f00b3116035120cd", "lat": 38.927422, "name": "1647c67b75595fc2f00b3116035120cd", "lon": -77.02147516666666, "fusion_lon": 0.0}, {"is_reserved": 0, "type": "electric_scooter", "fusion_lat": 0.0, "is_disabled": 0, "rental_uris": {"ios": "https://dc.lft.to/lastmile_qr_scan", "android": "https://dc.lft.to/lastmile_qr_scan"}, "bike_id": "9aed2130286b72c7e07c23ce0bb1ce95", "lat": 38.87175383333334, "name": "9aed2130286b72c7e07c23ce0bb1ce95", "lon": -77.00624133333334, "fusion_lon": 0.0}, {"is_reserved": 0, "type": "electric_scooter", "fusion_lat": 0.0, "is_disabled": 0, "rental_uris": {"ios": "https://dc.lft.to/lastmile_qr_scan", "android": "https://dc.lft.to/lastmile_qr_scan"}, "bike_id": "ecad336ce0fd351e3fa4aebf620e5146", "lat": 38.91044933333333, "name": "ecad336ce0fd351e3fa4aebf620e5146", "lon": -76.99795666666667, "fusion_lon": 0.0}, {"is_reserved": 0, "type": "electric_scooter", "fusion_lat": 0.0, "is_disabled": 0, "rental_uris": {"ios": "https://dc.lft.to/lastmile_qr_scan", "android": "https://dc.lft.to/lastmile_qr_scan"}, "bike_id": "b6d7926b7d5b0d9a21f945439ee647c5", "lat": 38.922402166666664, "name": "b6d7926b7d5b0d9a21f945439ee647c5", "lon": -77.03662383333334, "fusion_lon": 0.0}, {"is_reserved": 0, "type": "electric_bike", "fusion_lat": 0.0, "is_disabled": 0, "rental_uris": {"ios": "https://dc.lft.to/lastmile_qr_scan", "android": "https://dc.lft.to/lastmile_qr_scan"}, "bike_id": "ea9af9bfc0486f621e60f17ad064dbe9", "lat": 38.83586716666667, "name": "ea9af9bfc0486f621e60f17ad064dbe9", "lon": -76.990204, "fusion_lon": 0.0}, {"is_reserved": 0, "type": "electric_scooter", "fusion_lat": 0.0, "is_disabled": 0, "rental_uris": {"ios": "https://dc.lft.to/lastmile_qr_scan", "android": "https://dc.lft.to/lastmile_qr_scan"}, "bike_id": "038cf08f93f74fa7aa385a43b890926f", "lat": 38.900108333333336, "name": "038cf08f93f74fa7aa385a43b890926f", "lon": -77.045129, "fusion_lon": 0.0}, {"is_reserved": 0, "type": "electric_scooter", "fusion_lat": 0.0, "is_disabled": 0, "rental_uris": {"ios": "https://dc.lft.to/lastmile_qr_scan", "android": "https://dc.lft.to/lastmile_qr_scan"}, "bike_id": "48d9eb40570aa868025df2a1d68a476a", "lat": 38.89853516666667, "name": "48d9eb40570aa868025df2a1d68a476a", "lon": -77.02291133333334, "fusion_lon": 0.0}, {"is_reserved": 0, "type": "electric_scooter", "fusion_lat": 0.0, "is_disabled": 0, "rental_uris": {"ios": "https://dc.lft.to/lastmile_qr_scan", "android": "https://dc.lft.to/lastmile_qr_scan"}, "bike_id": "9ab2b9c758f759babdc1a09313dfae7f", "lat": 38.920385, "name": "9ab2b9c758f759babdc1a09313dfae7f", "lon": -77.025945, "fusion_lon": 0.0}, {"is_reserved": 0, "type": "electric_scooter", "fusion_lat": 0.0, "is_disabled": 0, "rental_uris": {"ios": "https://dc.lft.to/lastmile_qr_scan", "android": "https://dc.lft.to/lastmile_qr_scan"}, "bike_id": "c9010c91cfabbe71064893cb605acf6a", "lat": 38.9271065, "name": "c9010c91cfabbe71064893cb605acf6a", "lon": -77.021014, "fusion_lon": 0.0}, {"is_reserved": 0, "type": "electric_scooter", "fusion_lat": 0.0, "is_disabled": 0, "rental_uris": {"ios": "https://dc.lft.to/lastmile_qr_scan", "android": "https://dc.lft.to/lastmile_qr_scan"}, "bike_id": "a4f83d4c02dfc2a6537368c5dd61eec3", "lat": 38.897246333333335, "name": "a4f83d4c02dfc2a6537368c5dd61eec3", "lon": -77.02534033333333, "fusion_lon": 0.0}, {"is_reserved": 0, "type": "electric_bike", "fusion_lat": 0.0, "is_disabled": 0, "rental_uris": {"ios": "https://dc.lft.to/lastmile_qr_scan", "android": "https://dc.lft.to/lastmile_qr_scan"}, "bike_id": "647f49e31e5529ea0c3450e115ab4f2b", "lat": 38.90694516666667, "name": "647f49e31e5529ea0c3450e115ab4f2b", "lon": -76.95251883333333, "fusion_lon": 0.0}, {"is_reserved": 0, "type": "electric_scooter", "fusion_lat": 0.0, "is_disabled": 0, "rental_uris": {"ios": "https://dc.lft.to/lastmile_qr_scan", "android": "https://dc.lft.to/lastmile_qr_scan"}, "bike_id": "3090d2c550bf9fdd02636cd0b49bcee0", "lat": 38.942631, "name": "3090d2c550bf9fdd02636cd0b49bcee0", "lon": -76.98472716666667, "fusion_lon": 0.0}, {"is_reserved": 0, "type": "electric_scooter", "fusion_lat": 0.0, "is_disabled": 0, "rental_uris": {"ios": "https://dc.lft.to/lastmile_qr_scan", "android": "https://dc.lft.to/lastmile_qr_scan"}, "bike_id": "9452be8b03fcd49dfb1aa06bcb669998", "lat": 38.89682966666667, "name": "9452be8b03fcd49dfb1aa06bcb669998", "lon": -77.05177716666667, "fusion_lon": 0.0}, {"is_reserved": 0, "type": "electric_scooter", "fusion_lat": 0.0, "is_disabled": 0, "rental_uris": {"ios": "https://dc.lft.to/lastmile_qr_scan", "android": "https://dc.lft.to/lastmile_qr_scan"}, "bike_id": "6cee244b728b9bde5aba7d958d222311", "lat": 38.883585, "name": "6cee244b728b9bde5aba7d958d222311", "lon": -76.95767916666667, "fusion_lon": 0.0}, {"is_reserved": 0, "type": "electric_scooter", "fusion_lat": 0.0, "is_disabled": 0, "rental_uris": {"ios": "https://dc.lft.to/lastmile_qr_scan", "android": "https://dc.lft.to/lastmile_qr_scan"}, "bike_id": "aa7c036593fef500ad57e9b0969611b3", "lat": 38.91184633333334, "name": "aa7c036593fef500ad57e9b0969611b3", "lon": -77.060874, "fusion_lon": 0.0}, {"is_reserved": 0, "type": "electric_scooter", "fusion_lat": 0.0, "is_disabled": 0, "rental_uris": {"ios": "https://dc.lft.to/lastmile_qr_scan", "android": "https://dc.lft.to/lastmile_qr_scan"}, "bike_id": "3c17a4466ac7d280ec8df0c67549a739", "lat": 38.895365, "name": "3c17a4466ac7d280ec8df0c67549a739", "lon": -76.988324, "fusion_lon": 0.0}, {"is_reserved": 0, "type": "electric_scooter", "fusion_lat": 0.0, "is_disabled": 0, "rental_uris": {"ios": "https://dc.lft.to/lastmile_qr_scan", "android": "https://dc.lft.to/lastmile_qr_scan"}, "bike_id": "c3f4a94d553e82136d9d2864ff3c2fd1", "lat": 38.9471595, "name": "c3f4a94d553e82136d9d2864ff3c2fd1", "lon": -77.068027, "fusion_lon": 0.0}, {"is_reserved": 0, "type": "electric_bike", "fusion_lat": 0.0, "is_disabled": 0, "rental_uris": {"ios": "https://dc.lft.to/lastmile_qr_scan", "android": "https://dc.lft.to/lastmile_qr_scan"}, "bike_id": "d9c8fdba78832618a346461b7264a63b", "lat": 38.88276466666667, "name": "d9c8fdba78832618a346461b7264a63b", "lon": -76.932356, "fusion_lon": 0.0}, {"is_reserved": 0, "type": "electric_scooter", "fusion_lat": 0.0, "is_disabled": 0, "rental_uris": {"ios": "https://dc.lft.to/lastmile_qr_scan", "android": "https://dc.lft.to/lastmile_qr_scan"}, "bike_id": "0e50f8ca34a11ce67754d8db9c4d9712", "lat": 38.912588166666666, "name": "0e50f8ca34a11ce67754d8db9c4d9712", "lon": -77.03863483333333, "fusion_lon": 0.0}, {"is_reserved": 0, "type": "electric_scooter", "fusion_lat": 0.0, "is_disabled": 0, "rental_uris": {"ios": "https://dc.lft.to/lastmile_qr_scan", "android": "https://dc.lft.to/lastmile_qr_scan"}, "bike_id": "f0bb20ea09f3ad8586513749b59faacd", "lat": 38.9197085, "name": "f0bb20ea09f3ad8586513749b59faacd", "lon": -77.07122833333334, "fusion_lon": 0.0}, {"is_reserved": 0, "type": "electric_scooter", "fusion_lat": 0.0, "is_disabled": 0, "rental_uris": {"ios": "https://dc.lft.to/lastmile_qr_scan", "android": "https://dc.lft.to/lastmile_qr_scan"}, "bike_id": "cdbae0ae3099ec4c4b03a8f611ae05e6", "lat": 38.92826483333333, "name": "cdbae0ae3099ec4c4b03a8f611ae05e6", "lon": -77.0215915, "fusion_lon": 0.0}, {"is_reserved": 0, "type": "electric_scooter", "fusion_lat": 0.0, "is_disabled": 0, "rental_uris": {"ios": "https://dc.lft.to/lastmile_qr_scan", "android": "https://dc.lft.to/lastmile_qr_scan"}, "bike_id": "db74e694bdf56ecc55e6a4c0c1e817b5", "lat": 38.91692166666667, "name": "db74e694bdf56ecc55e6a4c0c1e817b5", "lon": -77.03238216666666, "fusion_lon": 0.0}, {"is_reserved": 0, "type": "electric_scooter", "fusion_lat": 0.0, "is_disabled": 0, "rental_uris": {"ios": "https://dc.lft.to/lastmile_qr_scan", "android": "https://dc.lft.to/lastmile_qr_scan"}, "bike_id": "d5887d00bda5b47ebeb9ee0872dd56f9", "lat": 38.907236833333336, "name": "d5887d00bda5b47ebeb9ee0872dd56f9", "lon": -77.02422616666666, "fusion_lon": 0.0}, {"is_reserved": 0, "type": "electric_scooter", "fusion_lat": 0.0, "is_disabled": 0, "rental_uris": {"ios": "https://dc.lft.to/lastmile_qr_scan", "android": "https://dc.lft.to/lastmile_qr_scan"}, "bike_id": "d0fc5978e1858f4b572c1263901339bf", "lat": 38.939781833333335, "name": "d0fc5978e1858f4b572c1263901339bf", "lon": -77.02894983333333, "fusion_lon": 0.0}, {"is_reserved": 0, "type": "electric_scooter", "fusion_lat": 0.0, "is_disabled": 0, "rental_uris": {"ios": "https://dc.lft.to/lastmile_qr_scan", "android": "https://dc.lft.to/lastmile_qr_scan"}, "bike_id": "b3464135125490ecab9b1bb7fd8b0b29", "lat": 38.930805666666664, "name": "b3464135125490ecab9b1bb7fd8b0b29", "lon": -77.03220066666667, "fusion_lon": 0.0}, {"is_reserved": 0, "type": "electric_scooter", "fusion_lat": 0.0, "is_disabled": 0, "rental_uris": {"ios": "https://dc.lft.to/lastmile_qr_scan", "android": "https://dc.lft.to/lastmile_qr_scan"}, "bike_id": "a55a242b5ee7572f5c1521fc25909aaf", "lat": 38.89380166666667, "name": "a55a242b5ee7572f5c1521fc25909aaf", "lon": -76.92307766666667, "fusion_lon": 0.0}, {"is_reserved": 0, "type": "electric_scooter", "fusion_lat": 0.0, "is_disabled": 0, "rental_uris": {"ios": "https://dc.lft.to/lastmile_qr_scan", "android": "https://dc.lft.to/lastmile_qr_scan"}, "bike_id": "c76ec0f5cebbfdf81d1083013dae2267", "lat": 38.89494633333333, "name": "c76ec0f5cebbfdf81d1083013dae2267", "lon": -77.02711333333333, "fusion_lon": 0.0}, {"is_reserved": 0, "type": "electric_scooter", "fusion_lat": 0.0, "is_disabled": 0, "rental_uris": {"ios": "https://dc.lft.to/lastmile_qr_scan", "android": "https://dc.lft.to/lastmile_qr_scan"}, "bike_id": "0c5a4e855ad560c1d63afd46edfdf594", "lat": 38.89224166666666, "name": "0c5a4e855ad560c1d63afd46edfdf594", "lon": -77.04483383333333, "fusion_lon": 0.0}, {"is_reserved": 0, "type": "electric_scooter", "fusion_lat": 0.0, "is_disabled": 0, "rental_uris": {"ios": "https://dc.lft.to/lastmile_qr_scan", "android": "https://dc.lft.to/lastmile_qr_scan"}, "bike_id": "01978d94c405a98acd9855f8483e8cc7", "lat": 38.923549333333334, "name": "01978d94c405a98acd9855f8483e8cc7", "lon": -77.05243533333334, "fusion_lon": 0.0}, {"is_reserved": 0, "type": "electric_scooter", "fusion_lat": 0.0, "is_disabled": 0, "rental_uris": {"ios": "https://dc.lft.to/lastmile_qr_scan", "android": "https://dc.lft.to/lastmile_qr_scan"}, "bike_id": "76ba9c7735ba2a9fac45035da8d3aebe", "lat": 38.915592333333336, "name": "76ba9c7735ba2a9fac45035da8d3aebe", "lon": -77.04001683333334, "fusion_lon": 0.0}, {"is_reserved": 0, "type": "electric_scooter", "fusion_lat": 0.0, "is_disabled": 0, "rental_uris": {"ios": "https://dc.lft.to/lastmile_qr_scan", "android": "https://dc.lft.to/lastmile_qr_scan"}, "bike_id": "0604992c9f34c152f3a210f972c6172c", "lat": 38.89903283333334, "name": "0604992c9f34c152f3a210f972c6172c", "lon": -77.02328366666667, "fusion_lon": 0.0}, {"is_reserved": 0, "type": "electric_scooter", "fusion_lat": 0.0, "is_disabled": 0, "rental_uris": {"ios": "https://dc.lft.to/lastmile_qr_scan", "android": "https://dc.lft.to/lastmile_qr_scan"}, "bike_id": "68f7f744629b79aa67f172b5b5b82599", "lat": 38.9431825, "name": "68f7f744629b79aa67f172b5b5b82599", "lon": -77.01315866666667, "fusion_lon": 0.0}, {"is_reserved": 0, "type": "electric_scooter", "fusion_lat": 0.0, "is_disabled": 0, "rental_uris": {"ios": "https://dc.lft.to/lastmile_qr_scan", "android": "https://dc.lft.to/lastmile_qr_scan"}, "bike_id": "ad558f29f19c0d7d9c69a9363e2eb2f8", "lat": 38.893283333333336, "name": "ad558f29f19c0d7d9c69a9363e2eb2f8", "lon": -76.939271, "fusion_lon": 0.0}, {"is_reserved": 0, "type": "electric_scooter", "fusion_lat": 0.0, "is_disabled": 0, "rental_uris": {"ios": "https://dc.lft.to/lastmile_qr_scan", "android": "https://dc.lft.to/lastmile_qr_scan"}, "bike_id": "ac4e0da8c9bcea8d6d89037a8db1109a", "lat": 38.936991666666664, "name": "ac4e0da8c9bcea8d6d89037a8db1109a", "lon": -77.05599133333334, "fusion_lon": 0.0}, {"is_reserved": 0, "type": "electric_scooter", "fusion_lat": 0.0, "is_disabled": 0, "rental_uris": {"ios": "https://dc.lft.to/lastmile_qr_scan", "android": "https://dc.lft.to/lastmile_qr_scan"}, "bike_id": "3ba1ef71111ee55dd50127a094ec45cf", "lat": 38.92080766666667, "name": "3ba1ef71111ee55dd50127a094ec45cf", "lon": -77.02408883333334, "fusion_lon": 0.0}, {"is_reserved": 0, "type": "electric_scooter", "fusion_lat": 0.0, "is_disabled": 0, "rental_uris": {"ios": "https://dc.lft.to/lastmile_qr_scan", "android": "https://dc.lft.to/lastmile_qr_scan"}, "bike_id": "42af9dab2411192a87e14d40673ff25e", "lat": 38.912602666666665, "name": "42af9dab2411192a87e14d40673ff25e", "lon": -77.01020266666667, "fusion_lon": 0.0}, {"is_reserved": 0, "type": "electric_scooter", "fusion_lat": 0.0, "is_disabled": 0, "rental_uris": {"ios": "https://dc.lft.to/lastmile_qr_scan", "android": "https://dc.lft.to/lastmile_qr_scan"}, "bike_id": "7ceb85e88d03950dc418cb9ecbf0d818", "lat": 38.88580833333333, "name": "7ceb85e88d03950dc418cb9ecbf0d818", "lon": -77.01226666666666, "fusion_lon": 0.0}, {"is_reserved": 0, "type": "electric_bike", "fusion_lat": 0.0, "is_disabled": 0, "rental_uris": {"ios": "https://dc.lft.to/lastmile_qr_scan", "android": "https://dc.lft.to/lastmile_qr_scan"}, "bike_id": "7f7a5cbc3abd0d0a7067ee01c7bde055", "lat": 38.95684216666667, "name": "7f7a5cbc3abd0d0a7067ee01c7bde055", "lon": -77.02224416666667, "fusion_lon": 0.0}, {"is_reserved": 0, "type": "electric_scooter", "fusion_lat": 0.0, "is_disabled": 0, "rental_uris": {"ios": "https://dc.lft.to/lastmile_qr_scan", "android": "https://dc.lft.to/lastmile_qr_scan"}, "bike_id": "d25133ab82db89f17c14fb49e8474647", "lat": 38.920367, "name": "d25133ab82db89f17c14fb49e8474647", "lon": -77.02594566666667, "fusion_lon": 0.0}, {"is_reserved": 0, "type": "electric_scooter", "fusion_lat": 0.0, "is_disabled": 0, "rental_uris": {"ios": "https://dc.lft.to/lastmile_qr_scan", "android": "https://dc.lft.to/lastmile_qr_scan"}, "bike_id": "7452216aee097173a980ea4dfa4b6e36", "lat": 38.923652, "name": "7452216aee097173a980ea4dfa4b6e36", "lon": -77.05128966666666, "fusion_lon": 0.0}, {"is_reserved": 0, "type": "electric_scooter", "fusion_lat": 0.0, "is_disabled": 0, "rental_uris": {"ios": "https://dc.lft.to/lastmile_qr_scan", "android": "https://dc.lft.to/lastmile_qr_scan"}, "bike_id": "f8d276cb0faa63e7de5ed4efcf735525", "lat": 38.89990933333333, "name": "f8d276cb0faa63e7de5ed4efcf735525", "lon": -77.02589483333334, "fusion_lon": 0.0}, {"is_reserved": 0, "type": "electric_scooter", "fusion_lat": 0.0, "is_disabled": 0, "rental_uris": {"ios": "https://dc.lft.to/lastmile_qr_scan", "android": "https://dc.lft.to/lastmile_qr_scan"}, "bike_id": "536d3e77cf2dbbe0b3337fa4ab8716ec", "lat": 38.952565, "name": "536d3e77cf2dbbe0b3337fa4ab8716ec", "lon": -77.020739, "fusion_lon": 0.0}, {"is_reserved": 0, "type": "electric_scooter", "fusion_lat": 0.0, "is_disabled": 0, "rental_uris": {"ios": "https://dc.lft.to/lastmile_qr_scan", "android": "https://dc.lft.to/lastmile_qr_scan"}, "bike_id": "dea4c8529e237117787c1fc2feea95bc", "lat": 38.87471, "name": "dea4c8529e237117787c1fc2feea95bc", "lon": -77.00488683333333, "fusion_lon": 0.0}, {"is_reserved": 0, "type": "electric_scooter", "fusion_lat": 0.0, "is_disabled": 0, "rental_uris": {"ios": "https://dc.lft.to/lastmile_qr_scan", "android": "https://dc.lft.to/lastmile_qr_scan"}, "bike_id": "cb3612ccef4f73d76c0265bd109aa079", "lat": 38.923411333333334, "name": "cb3612ccef4f73d76c0265bd109aa079", "lon": -77.05783416666667, "fusion_lon": 0.0}, {"is_reserved": 0, "type": "electric_scooter", "fusion_lat": 0.0, "is_disabled": 0, "rental_uris": {"ios": "https://dc.lft.to/lastmile_qr_scan", "android": "https://dc.lft.to/lastmile_qr_scan"}, "bike_id": "16bebe122ed33238caaf59337e91ebe7", "lat": 38.9090645, "name": "16bebe122ed33238caaf59337e91ebe7", "lon": -77.03511233333333, "fusion_lon": 0.0}, {"is_reserved": 0, "type": "electric_scooter", "fusion_lat": 0.0, "is_disabled": 0, "rental_uris": {"ios": "https://dc.lft.to/lastmile_qr_scan", "android": "https://dc.lft.to/lastmile_qr_scan"}, "bike_id": "a9e087267160a3de6641dac6a91b5180", "lat": 38.919253, "name": "a9e087267160a3de6641dac6a91b5180", "lon": -77.03174733333333, "fusion_lon": 0.0}, {"is_reserved": 0, "type": "electric_scooter", "fusion_lat": 0.0, "is_disabled": 0, "rental_uris": {"ios": "https://dc.lft.to/lastmile_qr_scan", "android": "https://dc.lft.to/lastmile_qr_scan"}, "bike_id": "2e7b015eaffaf83e1e8209558a52c726", "lat": 38.90738783333333, "name": "2e7b015eaffaf83e1e8209558a52c726", "lon": -77.04171166666667, "fusion_lon": 0.0}, {"is_reserved": 0, "type": "electric_scooter", "fusion_lat": 0.0, "is_disabled": 0, "rental_uris": {"ios": "https://dc.lft.to/lastmile_qr_scan", "android": "https://dc.lft.to/lastmile_qr_scan"}, "bike_id": "6d26f8309981177f31dfd5c88b64d18b", "lat": 38.87639466666667, "name": "6d26f8309981177f31dfd5c88b64d18b", "lon": -76.99292216666667, "fusion_lon": 0.0}, {"is_reserved": 0, "type": "electric_bike", "fusion_lat": 0.0, "is_disabled": 0, "rental_uris": {"ios": "https://dc.lft.to/lastmile_qr_scan", "android": "https://dc.lft.to/lastmile_qr_scan"}, "bike_id": "6ff62e10db36c9d24df93ebe0e251f99", "lat": 38.831581, "name": "6ff62e10db36c9d24df93ebe0e251f99", "lon": -76.99589366666666, "fusion_lon": 0.0}, {"is_reserved": 0, "type": "electric_scooter", "fusion_lat": 0.0, "is_disabled": 0, "rental_uris": {"ios": "https://dc.lft.to/lastmile_qr_scan", "android": "https://dc.lft.to/lastmile_qr_scan"}, "bike_id": "59982d7884690ace9f58e78ac5a53f62", "lat": 38.91709066666667, "name": "59982d7884690ace9f58e78ac5a53f62", "lon": -77.02406333333333, "fusion_lon": 0.0}, {"is_reserved": 0, "type": "electric_scooter", "fusion_lat": 0.0, "is_disabled": 0, "rental_uris": {"ios": "https://dc.lft.to/lastmile_qr_scan", "android": "https://dc.lft.to/lastmile_qr_scan"}, "bike_id": "d65019d65c731c7d3ef257a4d31171c1", "lat": 38.90570566666667, "name": "d65019d65c731c7d3ef257a4d31171c1", "lon": -76.97626166666667, "fusion_lon": 0.0}, {"is_reserved": 0, "type": "electric_scooter", "fusion_lat": 0.0, "is_disabled": 0, "rental_uris": {"ios": "https://dc.lft.to/lastmile_qr_scan", "android": "https://dc.lft.to/lastmile_qr_scan"}, "bike_id": "12aafd3a575f3afde3c8985f8bc6e212", "lat": 38.91815, "name": "12aafd3a575f3afde3c8985f8bc6e212", "lon": -77.02479966666667, "fusion_lon": 0.0}, {"is_reserved": 0, "type": "electric_scooter", "fusion_lat": 0.0, "is_disabled": 0, "rental_uris": {"ios": "https://dc.lft.to/lastmile_qr_scan", "android": "https://dc.lft.to/lastmile_qr_scan"}, "bike_id": "bd7a840954eb181a4426036940e548b8", "lat": 38.91349983333333, "name": "bd7a840954eb181a4426036940e548b8", "lon": -77.03205116666666, "fusion_lon": 0.0}, {"is_reserved": 0, "type": "electric_scooter", "fusion_lat": 0.0, "is_disabled": 0, "rental_uris": {"ios": "https://dc.lft.to/lastmile_qr_scan", "android": "https://dc.lft.to/lastmile_qr_scan"}, "bike_id": "a11b39718d0995e4bb6c4f10a5241225", "lat": 38.93512966666667, "name": "a11b39718d0995e4bb6c4f10a5241225", "lon": -77.056881, "fusion_lon": 0.0}, {"is_reserved": 0, "type": "electric_scooter", "fusion_lat": 0.0, "is_disabled": 0, "rental_uris": {"ios": "https://dc.lft.to/lastmile_qr_scan", "android": "https://dc.lft.to/lastmile_qr_scan"}, "bike_id": "a0e17c79ace8f9ffeb777e50f2d21c4b", "lat": 38.921662166666664, "name": "a0e17c79ace8f9ffeb777e50f2d21c4b", "lon": -77.04026983333333, "fusion_lon": 0.0}, {"is_reserved": 0, "type": "electric_scooter", "fusion_lat": 0.0, "is_disabled": 0, "rental_uris": {"ios": "https://dc.lft.to/lastmile_qr_scan", "android": "https://dc.lft.to/lastmile_qr_scan"}, "bike_id": "b638ce1e693ad67f70ee6e9846f48d5b", "lat": 38.89540133333333, "name": "b638ce1e693ad67f70ee6e9846f48d5b", "lon": -76.98335583333333, "fusion_lon": 0.0}, {"is_reserved": 0, "type": "electric_bike", "fusion_lat": 0.0, "is_disabled": 0, "rental_uris": {"ios": "https://dc.lft.to/lastmile_qr_scan", "android": "https://dc.lft.to/lastmile_qr_scan"}, "bike_id": "721abf8482846c568e10e3d8c2d092e5", "lat": 38.96382966666667, "name": "721abf8482846c568e10e3d8c2d092e5", "lon": -77.01976116666667, "fusion_lon": 0.0}, {"is_reserved": 0, "type": "electric_scooter", "fusion_lat": 0.0, "is_disabled": 0, "rental_uris": {"ios": "https://dc.lft.to/lastmile_qr_scan", "android": "https://dc.lft.to/lastmile_qr_scan"}, "bike_id": "56cad37a7d269b22694f9a39fe34ccca", "lat": 38.93002583333333, "name": "56cad37a7d269b22694f9a39fe34ccca", "lon": -77.055402, "fusion_lon": 0.0}, {"is_reserved": 0, "type": "electric_scooter", "fusion_lat": 0.0, "is_disabled": 0, "rental_uris": {"ios": "https://dc.lft.to/lastmile_qr_scan", "android": "https://dc.lft.to/lastmile_qr_scan"}, "bike_id": "5ba713cdafbea16578e9ce00eabab9b5", "lat": 38.92342216666667, "name": "5ba713cdafbea16578e9ce00eabab9b5", "lon": -77.04020016666666, "fusion_lon": 0.0}, {"is_reserved": 0, "type": "electric_scooter", "fusion_lat": 0.0, "is_disabled": 0, "rental_uris": {"ios": "https://dc.lft.to/lastmile_qr_scan", "android": "https://dc.lft.to/lastmile_qr_scan"}, "bike_id": "b4bcfbea1033272c0aed981bbbcac9be", "lat": 38.933340333333334, "name": "b4bcfbea1033272c0aed981bbbcac9be", "lon": -77.0387695, "fusion_lon": 0.0}, {"is_reserved": 0, "type": "electric_scooter", "fusion_lat": 0.0, "is_disabled": 0, "rental_uris": {"ios": "https://dc.lft.to/lastmile_qr_scan", "android": "https://dc.lft.to/lastmile_qr_scan"}, "bike_id": "5a8f23ed40d22587b9a1313018ff57e9", "lat": 38.927139, "name": "5a8f23ed40d22587b9a1313018ff57e9", "lon": -77.02084983333333, "fusion_lon": 0.0}, {"is_reserved": 0, "type": "electric_bike", "fusion_lat": 0.0, "is_disabled": 0, "rental_uris": {"ios": "https://dc.lft.to/lastmile_qr_scan", "android": "https://dc.lft.to/lastmile_qr_scan"}, "bike_id": "0ef6b6983ac4c9bc06403a3285e46d40", "lat": 38.95186066666667, "name": "0ef6b6983ac4c9bc06403a3285e46d40", "lon": -76.93544466666667, "fusion_lon": 0.0}, {"is_reserved": 0, "type": "electric_scooter", "fusion_lat": 0.0, "is_disabled": 0, "rental_uris": {"ios": "https://dc.lft.to/lastmile_qr_scan", "android": "https://dc.lft.to/lastmile_qr_scan"}, "bike_id": "eec26dc0aac6a232a6d83c99e8fa68f3", "lat": 38.9247365, "name": "eec26dc0aac6a232a6d83c99e8fa68f3", "lon": -77.0284305, "fusion_lon": 0.0}, {"is_reserved": 0, "type": "electric_scooter", "fusion_lat": 0.0, "is_disabled": 0, "rental_uris": {"ios": "https://dc.lft.to/lastmile_qr_scan", "android": "https://dc.lft.to/lastmile_qr_scan"}, "bike_id": "f0b9ba59520b9ebf6eaad81942b18cb4", "lat": 38.884171333333335, "name": "f0b9ba59520b9ebf6eaad81942b18cb4", "lon": -77.0253485, "fusion_lon": 0.0}, {"is_reserved": 0, "type": "electric_scooter", "fusion_lat": 0.0, "is_disabled": 0, "rental_uris": {"ios": "https://dc.lft.to/lastmile_qr_scan", "android": "https://dc.lft.to/lastmile_qr_scan"}, "bike_id": "e34de37943c05f60694c3945fa23f823", "lat": 38.92442833333333, "name": "e34de37943c05f60694c3945fa23f823", "lon": -77.02974733333333, "fusion_lon": 0.0}, {"is_reserved": 0, "type": "electric_bike", "fusion_lat": 0.0, "is_disabled": 0, "rental_uris": {"ios": "https://dc.lft.to/lastmile_qr_scan", "android": "https://dc.lft.to/lastmile_qr_scan"}, "bike_id": "fdd2259d2f633cf6aae0a87ec6d60eea", "lat": 38.89750866666667, "name": "fdd2259d2f633cf6aae0a87ec6d60eea", "lon": -77.020995, "fusion_lon": 0.0}, {"is_reserved": 0, "type": "electric_scooter", "fusion_lat": 0.0, "is_disabled": 0, "rental_uris": {"ios": "https://dc.lft.to/lastmile_qr_scan", "android": "https://dc.lft.to/lastmile_qr_scan"}, "bike_id": "2b246172c96d08ae2371d84d340c2328", "lat": 38.928884, "name": "2b246172c96d08ae2371d84d340c2328", "lon": -77.03877016666667, "fusion_lon": 0.0}, {"is_reserved": 0, "type": "electric_scooter", "fusion_lat": 0.0, "is_disabled": 0, "rental_uris": {"ios": "https://dc.lft.to/lastmile_qr_scan", "android": "https://dc.lft.to/lastmile_qr_scan"}, "bike_id": "d86f5c52e82c788b41f709480ed652a3", "lat": 38.92155483333333, "name": "d86f5c52e82c788b41f709480ed652a3", "lon": -77.03372283333333, "fusion_lon": 0.0}, {"is_reserved": 0, "type": "electric_scooter", "fusion_lat": 0.0, "is_disabled": 0, "rental_uris": {"ios": "https://dc.lft.to/lastmile_qr_scan", "android": "https://dc.lft.to/lastmile_qr_scan"}, "bike_id": "2491f0246b9bf9f9a6bd79e3d6a94306", "lat": 38.902825166666666, "name": "2491f0246b9bf9f9a6bd79e3d6a94306", "lon": -77.03346933333333, "fusion_lon": 0.0}, {"is_reserved": 0, "type": "electric_scooter", "fusion_lat": 0.0, "is_disabled": 0, "rental_uris": {"ios": "https://dc.lft.to/lastmile_qr_scan", "android": "https://dc.lft.to/lastmile_qr_scan"}, "bike_id": "cb807d5387aff1d345075cced00e9031", "lat": 38.883787166666664, "name": "cb807d5387aff1d345075cced00e9031", "lon": -77.04605833333333, "fusion_lon": 0.0}, {"is_reserved": 0, "type": "electric_scooter", "fusion_lat": 0.0, "is_disabled": 0, "rental_uris": {"ios": "https://dc.lft.to/lastmile_qr_scan", "android": "https://dc.lft.to/lastmile_qr_scan"}, "bike_id": "e8447c318cf016c94d5e4cf0c0eac9cf", "lat": 38.95951616666667, "name": "e8447c318cf016c94d5e4cf0c0eac9cf", "lon": -77.03320833333333, "fusion_lon": 0.0}, {"is_reserved": 0, "type": "electric_scooter", "fusion_lat": 0.0, "is_disabled": 0, "rental_uris": {"ios": "https://dc.lft.to/lastmile_qr_scan", "android": "https://dc.lft.to/lastmile_qr_scan"}, "bike_id": "36f9eab9516be59849bdf5c4e9b7d887", "lat": 38.91276216666667, "name": "36f9eab9516be59849bdf5c4e9b7d887", "lon": -77.04662416666666, "fusion_lon": 0.0}, {"is_reserved": 0, "type": "electric_scooter", "fusion_lat": 0.0, "is_disabled": 0, "rental_uris": {"ios": "https://dc.lft.to/lastmile_qr_scan", "android": "https://dc.lft.to/lastmile_qr_scan"}, "bike_id": "6d052d8438805b7b519c04a13bd4a900", "lat": 38.89210583333333, "name": "6d052d8438805b7b519c04a13bd4a900", "lon": -76.96114816666666, "fusion_lon": 0.0}, {"is_reserved": 0, "type": "electric_bike", "fusion_lat": 0.0, "is_disabled": 0, "rental_uris": {"ios": "https://dc.lft.to/lastmile_qr_scan", "android": "https://dc.lft.to/lastmile_qr_scan"}, "bike_id": "3787f732318f1768fde6f22430ece562", "lat": 38.875675666666666, "name": "3787f732318f1768fde6f22430ece562", "lon": -77.0470625, "fusion_lon": 0.0}, {"is_reserved": 0, "type": "electric_bike", "fusion_lat": 0.0, "is_disabled": 0, "rental_uris": {"ios": "https://dc.lft.to/lastmile_qr_scan", "android": "https://dc.lft.to/lastmile_qr_scan"}, "bike_id": "8ba74c14ac400eb6e3303233700ea98c", "lat": 38.998285333333335, "name": "8ba74c14ac400eb6e3303233700ea98c", "lon": -76.997236, "fusion_lon": 0.0}, {"is_reserved": 0, "type": "electric_scooter", "fusion_lat": 0.0, "is_disabled": 0, "rental_uris": {"ios": "https://dc.lft.to/lastmile_qr_scan", "android": "https://dc.lft.to/lastmile_qr_scan"}, "bike_id": "e13723700b181e54046276635f5d91af", "lat": 38.9118265, "name": "e13723700b181e54046276635f5d91af", "lon": -77.01762366666667, "fusion_lon": 0.0}, {"is_reserved": 0, "type": "electric_bike", "fusion_lat": 0.0, "is_disabled": 0, "rental_uris": {"ios": "https://dc.lft.to/lastmile_qr_scan", "android": "https://dc.lft.to/lastmile_qr_scan"}, "bike_id": "3282e0e8d539248451a855989c0d2e83", "lat": 38.829247333333335, "name": "3282e0e8d539248451a855989c0d2e83", "lon": -77.06878233333333, "fusion_lon": 0.0}, {"is_reserved": 0, "type": "electric_scooter", "fusion_lat": 0.0, "is_disabled": 0, "rental_uris": {"ios": "https://dc.lft.to/lastmile_qr_scan", "android": "https://dc.lft.to/lastmile_qr_scan"}, "bike_id": "98faddd7f236caa60824dbe293645d8d", "lat": 38.92968166666667, "name": "98faddd7f236caa60824dbe293645d8d", "lon": -77.03169133333333, "fusion_lon": 0.0}, {"is_reserved": 0, "type": "electric_scooter", "fusion_lat": 0.0, "is_disabled": 0, "rental_uris": {"ios": "https://dc.lft.to/lastmile_qr_scan", "android": "https://dc.lft.to/lastmile_qr_scan"}, "bike_id": "522e93f9804eef0fbf01df31a5136298", "lat": 38.922403333333335, "name": "522e93f9804eef0fbf01df31a5136298", "lon": -77.0366655, "fusion_lon": 0.0}, {"is_reserved": 0, "type": "electric_scooter", "fusion_lat": 0.0, "is_disabled": 0, "rental_uris": {"ios": "https://dc.lft.to/lastmile_qr_scan", "android": "https://dc.lft.to/lastmile_qr_scan"}, "bike_id": "82bfa4598a874f247a30af81b2c92763", "lat": 38.8803975, "name": "82bfa4598a874f247a30af81b2c92763", "lon": -76.92719583333333, "fusion_lon": 0.0}, {"is_reserved": 0, "type": "electric_scooter", "fusion_lat": 0.0, "is_disabled": 0, "rental_uris": {"ios": "https://dc.lft.to/lastmile_qr_scan", "android": "https://dc.lft.to/lastmile_qr_scan"}, "bike_id": "8d20a9ea632a26a5536c5aa29b1f97a7", "lat": 38.9417515, "name": "8d20a9ea632a26a5536c5aa29b1f97a7", "lon": -77.02535683333333, "fusion_lon": 0.0}, {"is_reserved": 0, "type": "electric_scooter", "fusion_lat": 0.0, "is_disabled": 0, "rental_uris": {"ios": "https://dc.lft.to/lastmile_qr_scan", "android": "https://dc.lft.to/lastmile_qr_scan"}, "bike_id": "2055607c7addbc73827054c8cd13bcd4", "lat": 38.92385783333334, "name": "2055607c7addbc73827054c8cd13bcd4", "lon": -77.026054, "fusion_lon": 0.0}, {"is_reserved": 0, "type": "electric_scooter", "fusion_lat": 0.0, "is_disabled": 0, "rental_uris": {"ios": "https://dc.lft.to/lastmile_qr_scan", "android": "https://dc.lft.to/lastmile_qr_scan"}, "bike_id": "f0d523d3c3cb84056c756135c9bc9bce", "lat": 38.90687066666667, "name": "f0d523d3c3cb84056c756135c9bc9bce", "lon": -77.02714183333333, "fusion_lon": 0.0}, {"is_reserved": 0, "type": "electric_scooter", "fusion_lat": 0.0, "is_disabled": 0, "rental_uris": {"ios": "https://dc.lft.to/lastmile_qr_scan", "android": "https://dc.lft.to/lastmile_qr_scan"}, "bike_id": "8b8140133224fe04e033d5e30495624d", "lat": 38.909654333333336, "name": "8b8140133224fe04e033d5e30495624d", "lon": -77.04842733333334, "fusion_lon": 0.0}, {"is_reserved": 0, "type": "electric_bike", "fusion_lat": 0.0, "is_disabled": 0, "rental_uris": {"ios": "https://dc.lft.to/lastmile_qr_scan", "android": "https://dc.lft.to/lastmile_qr_scan"}, "bike_id": "d80e6b61c1a44db0a119bf95905d278b", "lat": 38.92437683333333, "name": "d80e6b61c1a44db0a119bf95905d278b", "lon": -77.024965, "fusion_lon": 0.0}, {"is_reserved": 0, "type": "electric_scooter", "fusion_lat": 0.0, "is_disabled": 0, "rental_uris": {"ios": "https://dc.lft.to/lastmile_qr_scan", "android": "https://dc.lft.to/lastmile_qr_scan"}, "bike_id": "efc339322b248fa058a819a186399266", "lat": 38.907084166666664, "name": "efc339322b248fa058a819a186399266", "lon": -77.02386916666667, "fusion_lon": 0.0}, {"is_reserved": 0, "type": "electric_scooter", "fusion_lat": 0.0, "is_disabled": 0, "rental_uris": {"ios": "https://dc.lft.to/lastmile_qr_scan", "android": "https://dc.lft.to/lastmile_qr_scan"}, "bike_id": "0394eee123595b07377f0d2261e5de86", "lat": 38.899131833333335, "name": "0394eee123595b07377f0d2261e5de86", "lon": -76.93392216666666, "fusion_lon": 0.0}, {"is_reserved": 0, "type": "electric_scooter", "fusion_lat": 0.0, "is_disabled": 0, "rental_uris": {"ios": "https://dc.lft.to/lastmile_qr_scan", "android": "https://dc.lft.to/lastmile_qr_scan"}, "bike_id": "43e257370abd5bcadd0838e2b14ed19b", "lat": 38.901387666666665, "name": "43e257370abd5bcadd0838e2b14ed19b", "lon": -76.93157283333333, "fusion_lon": 0.0}, {"is_reserved": 0, "type": "electric_scooter", "fusion_lat": 0.0, "is_disabled": 0, "rental_uris": {"ios": "https://dc.lft.to/lastmile_qr_scan", "android": "https://dc.lft.to/lastmile_qr_scan"}, "bike_id": "733291e7f091ea186ca4f2bf1673b58b", "lat": 38.97497, "name": "733291e7f091ea186ca4f2bf1673b58b", "lon": -77.01696983333333, "fusion_lon": 0.0}, {"is_reserved": 0, "type": "electric_scooter", "fusion_lat": 0.0, "is_disabled": 0, "rental_uris": {"ios": "https://dc.lft.to/lastmile_qr_scan", "android": "https://dc.lft.to/lastmile_qr_scan"}, "bike_id": "010aef902e5d06aafe8559bc1776829f", "lat": 38.92172733333334, "name": "010aef902e5d06aafe8559bc1776829f", "lon": -77.03830533333333, "fusion_lon": 0.0}, {"is_reserved": 0, "type": "electric_scooter", "fusion_lat": 0.0, "is_disabled": 0, "rental_uris": {"ios": "https://dc.lft.to/lastmile_qr_scan", "android": "https://dc.lft.to/lastmile_qr_scan"}, "bike_id": "e96119261c5f9cd5f630948bacc23d84", "lat": 38.90118566666666, "name": "e96119261c5f9cd5f630948bacc23d84", "lon": -77.0180735, "fusion_lon": 0.0}, {"is_reserved": 0, "type": "electric_bike", "fusion_lat": 0.0, "is_disabled": 0, "rental_uris": {"ios": "https://dc.lft.to/lastmile_qr_scan", "android": "https://dc.lft.to/lastmile_qr_scan"}, "bike_id": "e8c5fd46bc8a8b88882adc30c3849d57", "lat": 38.865502166666666, "name": "e8c5fd46bc8a8b88882adc30c3849d57", "lon": -76.94151633333334, "fusion_lon": 0.0}, {"is_reserved": 0, "type": "electric_bike", "fusion_lat": 0.0, "is_disabled": 0, "rental_uris": {"ios": "https://dc.lft.to/lastmile_qr_scan", "android": "https://dc.lft.to/lastmile_qr_scan"}, "bike_id": "9292dcc367cbec382055c244be40d835", "lat": 38.813306, "name": "9292dcc367cbec382055c244be40d835", "lon": -77.05086833333333, "fusion_lon": 0.0}, {"is_reserved": 0, "type": "electric_scooter", "fusion_lat": 0.0, "is_disabled": 0, "rental_uris": {"ios": "https://dc.lft.to/lastmile_qr_scan", "android": "https://dc.lft.to/lastmile_qr_scan"}, "bike_id": "9cbfab81b7698e1bbc23a87120be8b33", "lat": 38.892199, "name": "9cbfab81b7698e1bbc23a87120be8b33", "lon": -77.0464005, "fusion_lon": 0.0}, {"is_reserved": 0, "type": "electric_scooter", "fusion_lat": 0.0, "is_disabled": 0, "rental_uris": {"ios": "https://dc.lft.to/lastmile_qr_scan", "android": "https://dc.lft.to/lastmile_qr_scan"}, "bike_id": "9e0147aba9f1675b055f683a7b80a53a", "lat": 38.91736383333333, "name": "9e0147aba9f1675b055f683a7b80a53a", "lon": -77.036116, "fusion_lon": 0.0}, {"is_reserved": 0, "type": "electric_scooter", "fusion_lat": 0.0, "is_disabled": 0, "rental_uris": {"ios": "https://dc.lft.to/lastmile_qr_scan", "android": "https://dc.lft.to/lastmile_qr_scan"}, "bike_id": "7ac25edf595b38e03d6beee7455a1646", "lat": 38.921785, "name": "7ac25edf595b38e03d6beee7455a1646", "lon": -77.0459785, "fusion_lon": 0.0}, {"is_reserved": 0, "type": "electric_scooter", "fusion_lat": 0.0, "is_disabled": 0, "rental_uris": {"ios": "https://dc.lft.to/lastmile_qr_scan", "android": "https://dc.lft.to/lastmile_qr_scan"}, "bike_id": "3fb132ea583e118604df1274d27f83da", "lat": 38.8976895, "name": "3fb132ea583e118604df1274d27f83da", "lon": -77.04779583333334, "fusion_lon": 0.0},