{"data": {"bikes": [{"name": "c5bf282ff64975ace10ae832f3d5f069", "fusion_lat": 0.0, "type": "electric_scooter", "lat": 38.920708, "is_reserved": 0, "is_disabled": 0, "fusion_lon": 0.0, "bike_id": "c5bf282ff64975ace10ae832f3d5f069", "lon": -77.047027, "rental_uris": {"ios": "https://dc.lft.to/lastmile_qr_scan", "android": "https://dc.lft.to/lastmile_qr_scan"}}, {"name": "b9465c2383fb71b7b7bf71b60bfe1522", "fusion_lat": 0.0, "type": "electric_scooter", "lat": 38.9317365, "is_reserved": 0, "is_disabled": 0, "fusion_lon": 0.0, "bike_id": "b9465c2383fb71b7b7bf71b60bfe1522", "lon": -77.0561375, "rental_uris": {"ios": "https://dc.lft.to/lastmile_qr_scan", "android": "https://dc.lft.to/lastmile_qr_scan"}}, {"name": "0499649af7421c8bab663fcd1e3575b2", "fusion_lat": 0.0, "type": "electric_scooter", "lat": 38.92756833333333, "is_reserved": 0, "is_disabled": 0, "fusion_lon": 0.0, "bike_id": "0499649af7421c8bab663fcd1e3575b2", "lon": -77.032681, "rental_uris": {"ios": "https://dc.lft.to/lastmile_qr_scan", "android": "https://dc.lft.to/lastmile_qr_scan"}}, {"name": "a34d628a3632690e70f5e4d820ed5874", "fusion_lat": 0.0, "type": "electric_bike", "lat": 38.9654795, "is_reserved": 0, "is_disabled": 0, "fusion_lon": 0.0, "bike_id": "a34d628a3632690e70f5e4d820ed5874", "lon": -77.03516266666666, "rental_uris": {"ios": "https://dc.lft.to/lastmile_qr_scan", "android": "https://dc.lft.to/lastmile_qr_scan"}}, {"name": "c49f03e34589a1f2a063906f42a4a516", "fusion_lat": 0.0, "type": "electric_scooter", "lat": 38.90856516666667, "is_reserved": 0, "is_disabled": 0, "fusion_lon": 0.0, "bike_id": "c49f03e34589a1f2a063906f42a4a516", "lon": -77.045087, "rental_uris": {"ios": "https://dc.lft.to/lastmile_qr_scan", "android": "https://dc.lft.to/lastmile_qr_scan"}}, {"name": "1116f2473c9969887b9a8628fb94fcd6", "fusion_lat": 0.0, "type": "electric_scooter", "lat": 38.89083983333333, "is_reserved": 0, "is_disabled": 0, "fusion_lon": 0.0, "bike_id": "1116f2473c9969887b9a8628fb94fcd6", "lon": -76.99787616666667, "rental_uris": {"ios": "https://dc.lft.to/lastmile_qr_scan", "android": "https://dc.lft.to/lastmile_qr_scan"}}, {"name": "22add4364f4b1e9103d9e411e0a0db56", "fusion_lat": 0.0, "type": "electric_scooter", "lat": 38.86225233333333, "is_reserved": 0, "is_disabled": 0, "fusion_lon": 0.0, "bike_id": "22add4364f4b1e9103d9e411e0a0db56", "lon": -76.97376033333333, "rental_uris": {"ios": "https://dc.lft.to/lastmile_qr_scan", "android": "https://dc.lft.to/lastmile_qr_scan"}}, {"name": "fd44d4465b596eed6787ba00e7e10302", "fusion_lat": 0.0, "type": "electric_scooter", "lat": 38.897297, "is_reserved": 0, "is_disabled": 0, "fusion_lon": 0.0, "bike_id": "fd44d4465b596eed6787ba00e7e10302", "lon": -77.04728533333333, "rental_uris": {"ios": "https://dc.lft.to/lastmile_qr_scan", "android": "https://dc.lft.to/lastmile_qr_scan"}}, {"name": "239fd6dae02ceb58f4256ec4e5fb7ee1", "fusion_lat": 0.0, "type": "electric_scooter", "lat": 38.924394166666666, "is_reserved": 0, "is_disabled": 0, "fusion_lon": 0.0, "bike_id": "239fd6dae02ceb58f4256ec4e5fb7ee1", "lon": -77.0413305, "rental_uris": {"ios": "https://dc.lft.to/lastmile_qr_scan", "android": "https://dc.lft.to/lastmile_qr_scan"}}, {"name": "163fedfbec7fbe4b5eac5c82c098dc85", "fusion_lat": 0.0, "type": "electric_bike", "lat": 38.92850766666667, "is_reserved": 0, "is_disabled": 0, "fusion_lon": 0.0, "bike_id": "163fedfbec7fbe4b5eac5c82c098dc85", "lon": -77.10510166666667, "rental_uris": {"ios": "https://dc.lft.to/lastmile_qr_scan", "android": "https://dc.lft.to/lastmile_qr_scan"}}, {"name": "b2b60244b44f1d1c8f28b66a1e5e7a8c", "fusion_lat": 0.0, "type": "electric_scooter", "lat": 38.919907, "is_reserved": 0, "is_disabled": 0, "fusion_lon": 0.0, "bike_id": "b2b60244b44f1d1c8f28b66a1e5e7a8c", "lon": -77.03320333333333, "rental_uris": {"ios": "https://dc.lft.to/lastmile_qr_scan", "android": "https://dc.lft.to/lastmile_qr_scan"}}, {"name": "cd6da4309bff42b952b5dd107bf7cd75", "fusion_lat": 0.0, "type": "electric_scooter", "lat": 38.89756283333333, "is_reserved": 0, "is_disabled": 0, "fusion_lon": 0.0, "bike_id": "cd6da4309bff42b952b5dd107bf7cd75", "lon": -77.0311625, "rental_uris": {"ios": "https://dc.lft.to/lastmile_qr_scan", "android": "https://dc.lft.to/lastmile_qr_scan"}}, {"name": "5544fc66ab9800731becf86542f9f451", "fusion_lat": 0.0, "type": "electric_scooter", "lat": 38.8842765, "is_reserved": 0, "is_disabled": 0, "fusion_lon": 0.0, "bike_id": "5544fc66ab9800731becf86542f9f451", "lon": -76.957561, "rental_uris": {"ios": "https://dc.lft.to/lastmile_qr_scan", "android": "https://dc.lft.to/lastmile_qr_scan"}}, {"name": "351bedf46c36ac4165df6df49fea4cb9", "fusion_lat": 0.0, "type": "electric_scooter", "lat": 38.857089, "is_reserved": 0, "is_disabled": 0, "fusion_lon": 0.0, "bike_id": "351bedf46c36ac4165df6df49fea4cb9", "lon": -76.98130916666666, "rental_uris": {"ios": "https://dc.lft.to/lastmile_qr_scan", "android": "https://dc.lft.to/lastmile_qr_scan"}}, {"name": "fbb1374302f12ab0fb691207acfb1c2b", "fusion_lat": 0.0, "type": "electric_scooter", "lat": 38.931882, "is_reserved": 0, "is_disabled": 0, "fusion_lon": 0.0, "bike_id": "fbb1374302f12ab0fb691207acfb1c2b", "lon": -77.02837033333333, "rental_uris": {"ios": "https://dc.lft.to/lastmile_qr_scan", "android": "https://dc.lft.to/lastmile_qr_scan"}}, {"name": "6516db01d6bb7f821016e78f6aa55267", "fusion_lat": 0.0, "type": "electric_bike", "lat": 38.848421333333334, "is_reserved": 0, "is_disabled": 0, "fusion_lon": 0.0, "bike_id": "6516db01d6bb7f821016e78f6aa55267", "lon": -77.08049983333333, "rental_uris": {"ios": "https://dc.lft.to/lastmile_qr_scan", "android": "https://dc.lft.to/lastmile_qr_scan"}}, {"name": "50fd6b398c6c1322dfa100d979367f5d", "fusion_lat": 0.0, "type": "electric_scooter", "lat": 38.9071835, "is_reserved": 0, "is_disabled": 0, "fusion_lon": 0.0, "bike_id": "50fd6b398c6c1322dfa100d979367f5d", "lon": -77.0298185, "rental_uris": {"ios": "https://dc.lft.to/lastmile_qr_scan", "android": "https://dc.lft.to/lastmile_qr_scan"}}, {"name": "ef6b66c0a64227499f195b00adcd5a1e", "fusion_lat": 0.0, "type": "electric_scooter", "lat": 38.9055875, "is_reserved": 0, "is_disabled": 0, "fusion_lon": 0.0, "bike_id": "ef6b66c0a64227499f195b00adcd5a1e", "lon": -77.02219316666667, "rental_uris": {"ios": "https://dc.lft.to/lastmile_qr_scan", "android": "https://dc.lft.to/lastmile_qr_scan"}}, {"name": "4782b5222edb7625cdb498e97ba939f7", "fusion_lat": 0.0, "type": "electric_scooter", "lat": 38.939674333333336, "is_reserved": 0, "is_disabled": 0, "fusion_lon": 0.0, "bike_id": "4782b5222edb7625cdb498e97ba939f7", "lon": -77.035581, "rental_uris": {"ios": "https://dc.lft.to/lastmile_qr_scan", "android": "https://dc.lft.to/lastmile_qr_scan"}}, {"name": "223fd607816783c897133427e6bf800a", "fusion_lat": 0.0, "type": "electric_bike", "lat": 38.912702, "is_reserved": 0, "is_disabled": 0, "fusion_lon": 0.0, "bike_id": "223fd607816783c897133427e6bf800a", "lon": -77.030455, "rental_uris": {"ios": "https://dc.lft.to/lastmile_qr_scan", "android": "https://dc.lft.to/lastmile_qr_scan"}}, {"name": "437b75f3e464f9e7380083e7adc957b8", "fusion_lat": 0.0, "type": "electric_scooter", "lat": 38.88738216666667, "is_reserved": 0, "is_disabled": 0, "fusion_lon": 0.0, "bike_id": "437b75f3e464f9e7380083e7adc957b8", "lon": -77.02136733333333, "rental_uris": {"ios": "https://dc.lft.to/lastmile_qr_scan", "android": "https://dc.lft.to/lastmile_qr_scan"}}, {"name": "f9a2dddbda27f982fbecde402b734eef", "fusion_lat": 0.0, "type": "electric_scooter", "lat": 38.92524066666667, "is_reserved": 0, "is_disabled": 0, "fusion_lon": 0.0, "bike_id": "f9a2dddbda27f982fbecde402b734eef", "lon": -77.05546883333334, "rental_uris": {"ios": "https://dc.lft.to/lastmile_qr_scan", "android": "https://dc.lft.to/lastmile_qr_scan"}}, {"name": "18d74af08189be1c6f824a5676437beb", "fusion_lat": 0.0, "type": "electric_scooter", "lat": 38.899704, "is_reserved": 0, "is_disabled": 0, "fusion_lon": 0.0, "bike_id": "18d74af08189be1c6f824a5676437beb", "lon": -76.939662, "rental_uris": {"ios": "https://dc.lft.to/lastmile_qr_scan", "android": "https://dc.lft.to/lastmile_qr_scan"}}, {"name": "982b2249bc6b30aabe9702719f62eae7", "fusion_lat": 0.0, "type": "electric_scooter", "lat": 38.90327883333333, "is_reserved": 0, "is_disabled": 0, "fusion_lon": 0.0, "bike_id": "982b2249bc6b30aabe9702719f62eae7", "lon": -77.06555566666667, "rental_uris": {"ios": "https://dc.lft.to/lastmile_qr_scan", "android": "https://dc.lft.to/lastmile_qr_scan"}}, {"name": "b402cd26ee4c8176b1d496ca0dec418a", "fusion_lat": 0.0, "type": "electric_scooter", "lat": 38.887386666666664, "is_reserved": 0, "is_disabled": 0, "fusion_lon": 0.0, "bike_id": "b402cd26ee4c8176b1d496ca0dec418a", "lon": -77.0153375, "rental_uris": {"ios": "https://dc.lft.to/lastmile_qr_scan", "android": "https://dc.lft.to/lastmile_qr_scan"}}, {"name": "a32cb6a158b5ca1df809b83cf297fab1", "fusion_lat": 0.0, "type": "electric_scooter", "lat": 38.91708666666667, "is_reserved": 0, "is_disabled": 0, "fusion_lon": 0.0, "bike_id": "a32cb6a158b5ca1df809b83cf297fab1", "lon": -77.01238616666667, "rental_uris": {"ios": "https://dc.lft.to/lastmile_qr_scan", "android": "https://dc.lft.to/lastmile_qr_scan"}}, {"name": "ed03e8c2cb9f9000162a4e44f1c3a8ae", "fusion_lat": 0.0, "type": "electric_scooter", "lat": 38.91539216666666, "is_reserved": 0, "is_disabled": 0, "fusion_lon": 0.0, "bike_id": "ed03e8c2cb9f9000162a4e44f1c3a8ae", "lon": -77.03846783333333, "rental_uris": {"ios": "https://dc.lft.to/lastmile_qr_scan", "android": "https://dc.lft.to/lastmile_qr_scan"}}, {"name": "ba66cd64d6676dcd398259ab8e6e1041", "fusion_lat": 0.0, "type": "electric_bike", "lat": 38.88637533333333, "is_reserved": 0, "is_disabled": 0, "fusion_lon": 0.0, "bike_id": "ba66cd64d6676dcd398259ab8e6e1041", "lon": -76.95474516666667, "rental_uris": {"ios": "https://dc.lft.to/lastmile_qr_scan", "android": "https://dc.lft.to/lastmile_qr_scan"}}, {"name": "76193acaf1284cea8d902c2af2233832", "fusion_lat": 0.0, "type": "electric_scooter", "lat": 38.91844433333333, "is_reserved": 0, "is_disabled": 0, "fusion_lon": 0.0, "bike_id": "76193acaf1284cea8d902c2af2233832", "lon": -77.00171816666666, "rental_uris": {"ios": "https://dc.lft.to/lastmile_qr_scan", "android": "https://dc.lft.to/lastmile_qr_scan"}}, {"name": "5c819f2adf0936e6b9caa8a1b1e6a414", "fusion_lat": 0.0, "type": "electric_scooter", "lat": 38.90539016666666, "is_reserved": 0, "is_disabled": 0, "fusion_lon": 0.0, "bike_id": "5c819f2adf0936e6b9caa8a1b1e6a414", "lon": -77.06287133333333, "rental_uris": {"ios": "https://dc.lft.to/lastmile_qr_scan", "android": "https://dc.lft.to/lastmile_qr_scan"}}, {"name": "8fad2b810946038c6fb48b9fbb0edd8b", "fusion_lat": 0.0, "type": "electric_scooter", "lat": 38.9127115, "is_reserved": 0, "is_disabled": 0, "fusion_lon": 0.0, "bike_id": "8fad2b810946038c6fb48b9fbb0edd8b", "lon": -77.03875083333334, "rental_uris": {"ios": "https://dc.lft.to/lastmile_qr_scan", "android": "https://dc.lft.to/lastmile_qr_scan"}}, {"name": "8eab1c865fa9867393d2497e10d1114c", "fusion_lat": 0.0, "type": "electric_scooter", "lat": 38.935483, "is_reserved": 0, "is_disabled": 0, "fusion_lon": 0.0, "bike_id": "8eab1c865fa9867393d2497e10d1114c", "lon": -77.0598495, "rental_uris": {"ios": "https://dc.lft.to/lastmile_qr_scan", "android": "https://dc.lft.to/lastmile_qr_scan"}}, {"name": "76907db9acc6ea194fbaec63f52ef019", "fusion_lat": 0.0, "type": "electric_scooter", "lat": 38.92566983333333, "is_reserved": 0, "is_disabled": 0, "fusion_lon": 0.0, "bike_id": "76907db9acc6ea194fbaec63f52ef019", "lon": -77.0296415, "rental_uris": {"ios": "https://dc.lft.to/lastmile_qr_scan", "android": "https://dc.lft.to/lastmile_qr_scan"}}, {"name": "f0c426b735f9f90ed27575fada7cd26b", "fusion_lat": 0.0, "type": "electric_scooter", "lat": 38.93639566666667, "is_reserved": 0, "is_disabled": 0, "fusion_lon": 0.0, "bike_id": "f0c426b735f9f90ed27575fada7cd26b", "lon": -77.03456433333334, "rental_uris": {"ios": "https://dc.lft.to/lastmile_qr_scan", "android": "https://dc.lft.to/lastmile_qr_scan"}}, {"name": "09f9a0909869841bc8afe114ea91b491", "fusion_lat": 0.0, "type": "electric_scooter", "lat": 38.924803, "is_reserved": 0, "is_disabled": 0, "fusion_lon": 0.0, "bike_id": "09f9a0909869841bc8afe114ea91b491", "lon": -77.02756666666667, "rental_uris": {"ios": "https://dc.lft.to/lastmile_qr_scan", "android": "https://dc.lft.to/lastmile_qr_scan"}}, {"name": "23d00af61c35ec1a805905260106a382", "fusion_lat": 0.0, "type": "electric_bike", "lat": 38.89833933333333, "is_reserved": 0, "is_disabled": 0, "fusion_lon": 0.0, "bike_id": "23d00af61c35ec1a805905260106a382", "lon": -77.1179845, "rental_uris": {"ios": "https://dc.lft.to/lastmile_qr_scan", "android": "https://dc.lft.to/lastmile_qr_scan"}}, {"name": "a1e51f548888c4ca3f143370501ebc58", "fusion_lat": 0.0, "type": "electric_bike", "lat": 38.904179166666665, "is_reserved": 0, "is_disabled": 0, "fusion_lon": 0.0, "bike_id": "a1e51f548888c4ca3f143370501ebc58", "lon": -76.98784933333333, "rental_uris": {"ios": "https://dc.lft.to/lastmile_qr_scan", "android": "https://dc.lft.to/lastmile_qr_scan"}}, {"name": "6ed6843420d958d246077b342d4d66e7", "fusion_lat": 0.0, "type": "electric_scooter", "lat": 38.916302, "is_reserved": 0, "is_disabled": 0, "fusion_lon": 0.0, "bike_id": "6ed6843420d958d246077b342d4d66e7", "lon": -77.03909383333334, "rental_uris": {"ios": "https://dc.lft.to/lastmile_qr_scan", "android": "https://dc.lft.to/lastmile_qr_scan"}}, {"name": "22884c73dffde2662353d63584ffe28f", "fusion_lat": 0.0, "type": "electric_scooter", "lat": 38.907933166666666, "is_reserved": 0, "is_disabled": 0, "fusion_lon": 0.0, "bike_id": "22884c73dffde2662353d63584ffe28f", "lon": -77.03841, "rental_uris": {"ios": "https://dc.lft.to/lastmile_qr_scan", "android": "https://dc.lft.to/lastmile_qr_scan"}}, {"name": "5e7740d3fffa473537f8d5e8dbc40583", "fusion_lat": 0.0, "type": "electric_scooter", "lat": 38.9002465, "is_reserved": 0, "is_disabled": 0, "fusion_lon": 0.0, "bike_id": "5e7740d3fffa473537f8d5e8dbc40583", "lon": -76.985359, "rental_uris": {"ios": "https://dc.lft.to/lastmile_qr_scan", "android": "https://dc.lft.to/lastmile_qr_scan"}}, {"name": "ac7c4724122bfd9ef467a168ea7ee25a", "fusion_lat": 0.0, "type": "electric_scooter", "lat": 38.886100666666664, "is_reserved": 0, "is_disabled": 0, "fusion_lon": 0.0, "bike_id": "ac7c4724122bfd9ef467a168ea7ee25a", "lon": -76.9781915, "rental_uris": {"ios": "https://dc.lft.to/lastmile_qr_scan", "android": "https://dc.lft.to/lastmile_qr_scan"}}, {"name": "4ef708b0d2750e9d2992980fc3a17e1f", "fusion_lat": 0.0, "type": "electric_scooter", "lat": 38.91613233333333, "is_reserved": 0, "is_disabled": 0, "fusion_lon": 0.0, "bike_id": "4ef708b0d2750e9d2992980fc3a17e1f", "lon": -77.04248166666666, "rental_uris": {"ios": "https://dc.lft.to/lastmile_qr_scan", "android": "https://dc.lft.to/lastmile_qr_scan"}}, {"name": "61a2e0544438f73b96cb7e826f97d7fd", "fusion_lat": 0.0, "type": "electric_scooter", "lat": 38.91192066666667, "is_reserved": 0, "is_disabled": 0, "fusion_lon": 0.0, "bike_id": "61a2e0544438f73b96cb7e826f97d7fd", "lon": -77.04506516666666, "rental_uris": {"ios": "https://dc.lft.to/lastmile_qr_scan", "android": "https://dc.lft.to/lastmile_qr_scan"}}, {"name": "f03bdca07f48bc03cc3e7c8f67e13578", "fusion_lat": 0.0, "type": "electric_scooter", "lat": 38.927585, "is_reserved": 0, "is_disabled": 0, "fusion_lon": 0.0, "bike_id": "f03bdca07f48bc03cc3e7c8f67e13578", "lon": -77.03276866666667, "rental_uris": {"ios": "https://dc.lft.to/lastmile_qr_scan", "android": "https://dc.lft.to/lastmile_qr_scan"}}, {"name": "55853408be5963e5dcc908d170597d89", "fusion_lat": 0.0, "type": "electric_scooter", "lat": 38.928746833333335, "is_reserved": 0, "is_disabled": 0, "fusion_lon": 0.0, "bike_id": "55853408be5963e5dcc908d170597d89", "lon": -77.01396016666666, "rental_uris": {"ios": "https://dc.lft.to/lastmile_qr_scan", "android": "https://dc.lft.to/lastmile_qr_scan"}}, {"name": "b363ec1bc90a38277a8af78dcfa8ca83", "fusion_lat": 0.0, "type": "electric_scooter", "lat": 38.8764415, "is_reserved": 0, "is_disabled": 0, "fusion_lon": 0.0, "bike_id": "b363ec1bc90a38277a8af78dcfa8ca83", "lon": -77.01478216666666, "rental_uris": {"ios": "https://dc.lft.to/lastmile_qr_scan", "android": "https://dc.lft.to/lastmile_qr_scan"}}, {"name": "118239eeba704cbb81d26004ff519d15", "fusion_lat": 0.0, "type": "electric_scooter", "lat": 38.914029, "is_reserved": 0, "is_disabled": 0, "fusion_lon": 0.0, "bike_id": "118239eeba704cbb81d26004ff519d15", "lon": -77.03950783333333, "rental_uris": {"ios": "https://dc.lft.to/lastmile_qr_scan", "android": "https://dc.lft.to/lastmile_qr_scan"}}, {"name": "40c8bac56b9047120f6fe7dfc36cc330", "fusion_lat": 0.0, "type": "electric_scooter", "lat": 38.90033483333333, "is_reserved": 0, "is_disabled": 0, "fusion_lon": 0.0, "bike_id": "40c8bac56b9047120f6fe7dfc36cc330", "lon": -76.99863416666666, "rental_uris": {"ios": "https://dc.lft.to/lastmile_qr_scan", "android": "https://dc.lft.to/lastmile_qr_scan"}}, {"name": "3cfc227ed154541c2f1f9ff824171464", "fusion_lat": 0.0, "type": "electric_scooter", "lat": 38.93635533333333, "is_reserved": 0, "is_disabled": 0, "fusion_lon": 0.0, "bike_id": "3cfc227ed154541c2f1f9ff824171464", "lon": -77.03661083333333, "rental_uris": {"ios": "https://dc.lft.to/lastmile_qr_scan", "android": "https://dc.lft.to/lastmile_qr_scan"}}, {"name": "b6e79d3cf28773801835366f7d007c10", "fusion_lat": 0.0, "type": "electric_scooter", "lat": 38.905785, "is_reserved": 0, "is_disabled": 0, "fusion_lon": 0.0, "bike_id": "b6e79d3cf28773801835366f7d007c10", "lon": -77.03711116666666, "rental_uris": {"ios": "https://dc.lft.to/lastmile_qr_scan", "android": "https://dc.lft.to/lastmile_qr_scan"}}, {"name": "ae71547bc8edc74be9cae6f4a1756bf6", "fusion_lat": 0.0, "type": "electric_scooter", "lat": 38.93868966666667, "is_reserved": 0, "is_disabled": 0, "fusion_lon": 0.0, "bike_id": "ae71547bc8edc74be9cae6f4a1756bf6", "lon": -77.02221166666666, "rental_uris": {"ios": "https://dc.lft.to/lastmile_qr_scan", "android": "https://dc.lft.to/lastmile_qr_scan"}}, {"name": "d64368d753ca2ec5921fe60e12ec5e8f", "fusion_lat": 0.0, "type": "electric_scooter", "lat": 38.8683245, "is_reserved": 0, "is_disabled": 0, "fusion_lon": 0.0, "bike_id": "d64368d753ca2ec5921fe60e12ec5e8f", "lon": -76.98611133333333, "rental_uris": {"ios": "https://dc.lft.to/lastmile_qr_scan", "android": "https://dc.lft.to/lastmile_qr_scan"}}, {"name": "4d8f6bff287448336ce5134aae2f65c4", "fusion_lat": 0.0, "type": "electric_scooter", "lat": 38.90241066666667, "is_reserved": 0, "is_disabled": 0, "fusion_lon": 0.0, "bike_id": "4d8f6bff287448336ce5134aae2f65c4", "lon": -77.00200216666667, "rental_uris": {"ios": "https://dc.lft.to/lastmile_qr_scan", "android": "https://dc.lft.to/lastmile_qr_scan"}}, {"name": "37178584721a92aeada82457fc75d1a5", "fusion_lat": 0.0, "type": "electric_scooter", "lat": 38.90513716666667, "is_reserved": 0, "is_disabled": 0, "fusion_lon": 0.0, "bike_id": "37178584721a92aeada82457fc75d1a5", "lon": -77.06894716666666, "rental_uris": {"ios": "https://dc.lft.to/lastmile_qr_scan", "android": "https://dc.lft.to/lastmile_qr_scan"}}, {"name": "fb3cd5847edce3ca487a42e565d0201c", "fusion_lat": 0.0, "type": "electric_scooter", "lat": 38.938204, "is_reserved": 0, "is_disabled": 0, "fusion_lon": 0.0, "bike_id": "fb3cd5847edce3ca487a42e565d0201c", "lon": -77.02478066666667, "rental_uris": {"ios": "https://dc.lft.to/lastmile_qr_scan", "android": "https://dc.lft.to/lastmile_qr_scan"}}, {"name": "f827732c0b3428bc44c7f55c975a7e61", "fusion_lat": 0.0, "type": "electric_scooter", "lat": 38.925963333333335, "is_reserved": 0, "is_disabled": 0, "fusion_lon": 0.0, "bike_id": "f827732c0b3428bc44c7f55c975a7e61", "lon": -77.02496533333333, "rental_uris": {"ios": "https://dc.lft.to/lastmile_qr_scan", "android": "https://dc.lft.to/lastmile_qr_scan"}}, {"name": "5fb121e90ccf8bbb32f70b9f49852ab8", "fusion_lat": 0.0, "type": "electric_scooter", "lat": 38.90733816666667, "is_reserved": 0, "is_disabled": 0, "fusion_lon": 0.0, "bike_id": "5fb121e90ccf8bbb32f70b9f49852ab8", "lon": -77.03213166666667, "rental_uris": {"ios": "https://dc.lft.to/lastmile_qr_scan", "android": "https://dc.lft.to/lastmile_qr_scan"}}, {"name": "b3189ea7b50a4cd4ba02900d70c3bde9", "fusion_lat": 0.0, "type": "electric_scooter", "lat": 38.9360665, "is_reserved": 0, "is_disabled": 0, "fusion_lon": 0.0, "bike_id": "b3189ea7b50a4cd4ba02900d70c3bde9", "lon": -77.0559485, "rental_uris": {"ios": "https://dc.lft.to/lastmile_qr_scan", "android": "https://dc.lft.to/lastmile_qr_scan"}}, {"name": "c9a16b75a4997fecfeb382398454aaa5", "fusion_lat": 0.0, "type": "electric_scooter", "lat": 38.90079383333333, "is_reserved": 0, "is_disabled": 0, "fusion_lon": 0.0, "bike_id": "c9a16b75a4997fecfeb382398454aaa5", "lon": -77.01800616666667, "rental_uris": {"ios": "https://dc.lft.to/lastmile_qr_scan", "android": "https://dc.lft.to/lastmile_qr_scan"}}, {"name": "c5472e75f68f7d926bc76e8f1f05efd8", "fusion_lat": 0.0, "type": "electric_scooter", "lat": 38.906414833333336, "is_reserved": 0, "is_disabled": 0, "fusion_lon": 0.0, "bike_id": "c5472e75f68f7d926bc76e8f1f05efd8", "lon": -77.0140265, "rental_uris": {"ios": "https://dc.lft.to/lastmile_qr_scan", "android": "https://dc.lft.to/lastmile_qr_scan"}}, {"name": "6b1f3afaebb5d532f179e272a7c0c6be", "fusion_lat": 0.0, "type": "electric_bike", "lat": 38.83810666666667, "is_reserved": 0, "is_disabled": 0, "fusion_lon": 0.0, "bike_id": "6b1f3afaebb5d532f179e272a7c0c6be", "lon": -77.09521583333333, "rental_uris": {"ios": "https://dc.lft.to/lastmile_qr_scan", "android": "https://dc.lft.to/lastmile_qr_scan"}}, {"name": "e15e673170e30c1561cb68cf0d3fe675", "fusion_lat": 0.0, "type": "electric_scooter", "lat": 38.934293, "is_reserved": 0, "is_disabled": 0, "fusion_lon": 0.0, "bike_id": "e15e673170e30c1561cb68cf0d3fe675", "lon": -77.04009933333333, "rental_uris": {"ios": "https://dc.lft.to/lastmile_qr_scan", "android": "https://dc.lft.to/lastmile_qr_scan"}}, {"name": "89cdacc21663b5ce6b2b0243c6ef79ba", "fusion_lat": 0.0, "type": "electric_scooter", "lat": 38.907348166666665, "is_reserved": 0, "is_disabled": 0, "fusion_lon": 0.0, "bike_id": "89cdacc21663b5ce6b2b0243c6ef79ba", "lon": -77.0345385, "rental_uris": {"ios": "https://dc.lft.to/lastmile_qr_scan", "android": "https://dc.lft.to/lastmile_qr_scan"}}, {"name": "3f97501d180d7903988f3eb02638bed6", "fusion_lat": 0.0, "type": "electric_bike", "lat": 38.970697666666666, "is_reserved": 0, "is_disabled": 0, "fusion_lon": 0.0, "bike_id": "3f97501d180d7903988f3eb02638bed6", "lon": -76.936155, "rental_uris": {"ios": "https://dc.lft.to/lastmile_qr_scan", "android": "https://dc.lft.to/lastmile_qr_scan"}}, {"name": "55435344547ce4ea33db22674e38290f", "fusion_lat": 0.0, "type": "electric_bike", "lat": 38.902843, "is_reserved": 0, "is_disabled": 0, "fusion_lon": 0.0, "bike_id": "55435344547ce4ea33db22674e38290f", "lon": -76.98089116666667, "rental_uris": {"ios": "https://dc.lft.to/lastmile_qr_scan", "android": "https://dc.lft.to/lastmile_qr_scan"}}, {"name": "17d89ede3e2eb11236b776e8191d69fd", "fusion_lat": 0.0, "type": "electric_scooter", "lat": 38.9310035, "is_reserved": 0, "is_disabled": 0, "fusion_lon": 0.0, "bike_id": "17d89ede3e2eb11236b776e8191d69fd", "lon": -77.02405816666666, "rental_uris": {"ios": "https://dc.lft.to/lastmile_qr_scan", "android": "https://dc.lft.to/lastmile_qr_scan"}}, {"name": "125e8d957784887149d8fda7a39358bb", "fusion_lat": 0.0, "type": "electric_scooter", "lat": 38.918228166666665, "is_reserved": 0, "is_disabled": 0, "fusion_lon": 0.0, "bike_id": "125e8d957784887149d8fda7a39358bb", "lon": -77.040188, "rental_uris": {"ios": "https://dc.lft.to/lastmile_qr_scan", "android": "https://dc.lft.to/lastmile_qr_scan"}}, {"name": "8bcee13b06220ddb904cefd93c1ef0de", "fusion_lat": 0.0, "type": "electric_scooter", "lat": 38.918054, "is_reserved": 0, "is_disabled": 0, "fusion_lon": 0.0, "bike_id": "8bcee13b06220ddb904cefd93c1ef0de", "lon": -77.02809266666667, "rental_uris": {"ios": "https://dc.lft.to/lastmile_qr_scan", "android": "https://dc.lft.to/lastmile_qr_scan"}}, {"name": "243bb724b259ee663e76af7a4af8cf6b", "fusion_lat": 0.0, "type": "electric_scooter", "lat": 38.87463433333333, "is_reserved": 0, "is_disabled": 0, "fusion_lon": 0.0, "bike_id": "243bb724b259ee663e76af7a4af8cf6b", "lon": -77.001712, "rental_uris": {"ios": "https://dc.lft.to/lastmile_qr_scan", "android": "https://dc.lft.to/lastmile_qr_scan"}}, {"name": "f9133401823a710351136bd9ea417764", "fusion_lat": 0.0, "type": "electric_scooter", "lat": 38.901397833333334, "is_reserved": 0, "is_disabled": 0, "fusion_lon": 0.0, "bike_id": "f9133401823a710351136bd9ea417764", "lon": -76.99968483333333, "rental_uris": {"ios": "https://dc.lft.to/lastmile_qr_scan", "android": "https://dc.lft.to/lastmile_qr_scan"}}, {"name": "515f25e8d4aafa1be7c89b524f4b8eed", "fusion_lat": 0.0, "type": "electric_bike", "lat": 38.9732535, "is_reserved": 0, "is_disabled": 0, "fusion_lon": 0.0, "bike_id": "515f25e8d4aafa1be7c89b524f4b8eed", "lon": -77.02151483333333, "rental_uris": {"ios": "https://dc.lft.to/lastmile_qr_scan", "android": "https://dc.lft.to/lastmile_qr_scan"}}, {"name": "4a1feb13c9bc351315d708c7695f1c6f", "fusion_lat": 0.0, "type": "electric_scooter", "lat": 38.90430583333333, "is_reserved": 0, "is_disabled": 0, "fusion_lon": 0.0, "bike_id": "4a1feb13c9bc351315d708c7695f1c6f", "lon": -77.02597933333334, "rental_uris": {"ios": "https://dc.lft.to/lastmile_qr_scan", "android": "https://dc.lft.to/lastmile_qr_scan"}}, {"name": "54ecebd1fe2209a45d26e6544113056d", "fusion_lat": 0.0, "type": "electric_scooter", "lat": 38.90441633333333, "is_reserved": 0, "is_disabled": 0, "fusion_lon": 0.0, "bike_id": "54ecebd1fe2209a45d26e6544113056d", "lon": -77.02878883333334, "rental_uris": {"ios": "https://dc.lft.to/lastmile_qr_scan", "android": "https://dc.lft.to/lastmile_qr_scan"}}, {"name": "e9443a5ad5b7f7543f8c08be61f1aa9d", "fusion_lat": 0.0, "type": "electric_scooter", "lat": 38.8838555, "is_reserved": 0, "is_disabled": 0, "fusion_lon": 0.0, "bike_id": "e9443a5ad5b7f7543f8c08be61f1aa9d", "lon": -77.01763783333334, "rental_uris": {"ios": "https://dc.lft.to/lastmile_qr_scan", "android": "https://dc.lft.to/lastmile_qr_scan"}}, {"name": "13696e7463bcd8a851de4dbb4c110526", "fusion_lat": 0.0, "type": "electric_scooter", "lat": 38.907319, "is_reserved": 0, "is_disabled": 0, "fusion_lon": 0.0, "bike_id": "13696e7463bcd8a851de4dbb4c110526", "lon": -77.0037155, "rental_uris": {"ios": "https://dc.lft.to/lastmile_qr_scan", "android": "https://dc.lft.to/lastmile_qr_scan"}}, {"name": "1c32ee0c0cadf7d8f0bf46d689023fcd", "fusion_lat": 0.0, "type": "electric_scooter", "lat": 38.92091116666667, "is_reserved": 0, "is_disabled": 0, "fusion_lon": 0.0, "bike_id": "1c32ee0c0cadf7d8f0bf46d689023fcd", "lon": -77.02215633333333, "rental_uris": {"ios": "https://dc.lft.to/lastmile_qr_scan", "android": "https://dc.lft.to/lastmile_qr_scan"}}, {"name": "17cf000a662cc97c286324a58fce0f97", "fusion_lat": 0.0, "type": "electric_scooter", "lat": 38.9050845, "is_reserved": 0, "is_disabled": 0, "fusion_lon": 0.0, "bike_id": "17cf000a662cc97c286324a58fce0f97", "lon": -77.02772966666667, "rental_uris": {"ios": "https://dc.lft.to/lastmile_qr_scan", "android": "https://dc.lft.to/lastmile_qr_scan"}}, {"name": "37c220edf524ee7a97dbe652655ed317", "fusion_lat": 0.0, "type": "electric_bike", "lat": 38.87229683333333, "is_reserved": 0, "is_disabled": 0, "fusion_lon": 0.0, "bike_id": "37c220edf524ee7a97dbe652655ed317", "lon": -77.011664, "rental_uris": {"ios": "https://dc.lft.to/lastmile_qr_scan", "android": "https://dc.lft.to/lastmile_qr_scan"}}, {"name": "4ed22ca0fe6aea5ee5285ab58720b80b", "fusion_lat": 0.0, "type": "electric_bike", "lat": 38.99451666666667, "is_reserved": 0, "is_disabled": 0, "fusion_lon": 0.0, "bike_id": "4ed22ca0fe6aea5ee5285ab58720b80b", "lon": -76.90816433333333, "rental_uris": {"ios": "https://dc.lft.to/lastmile_qr_scan", "android": "https://dc.lft.to/lastmile_qr_scan"}}, {"name": "51d4085545f195bcd806b6c226f75b5a", "fusion_lat": 0.0, "type": "electric_scooter", "lat": 38.891895, "is_reserved": 0, "is_disabled": 0, "fusion_lon": 0.0, "bike_id": "51d4085545f195bcd806b6c226f75b5a", "lon": -77.01585016666667, "rental_uris": {"ios": "https://dc.lft.to/lastmile_qr_scan", "android": "https://dc.lft.to/lastmile_qr_scan"}}, {"name": "8932c982d975251462801ece4ffdd0a0", "fusion_lat": 0.0, "type": "electric_scooter", "lat": 38.915627666666666, "is_reserved": 0, "is_disabled": 0, "fusion_lon": 0.0, "bike_id": "8932c982d975251462801ece4ffdd0a0", "lon": -77.04722616666666, "rental_uris": {"ios": "https://dc.lft.to/lastmile_qr_scan", "android": "https://dc.lft.to/lastmile_qr_scan"}}, {"name": "bf3700caad0a0601e92eaea1444b71c9", "fusion_lat": 0.0, "type": "electric_scooter", "lat": 38.92387333333333, "is_reserved": 0, "is_disabled": 0, "fusion_lon": 0.0, "bike_id": "bf3700caad0a0601e92eaea1444b71c9", "lon": -77.02981966666667, "rental_uris": {"ios": "https://dc.lft.to/lastmile_qr_scan", "android": "https://dc.lft.to/lastmile_qr_scan"}}, {"name": "16a1db33c9621166d2c099d790307b1f", "fusion_lat": 0.0, "type": "electric_scooter", "lat": 38.91073633333333, "is_reserved": 0, "is_disabled": 0, "fusion_lon": 0.0, "bike_id": "16a1db33c9621166d2c099d790307b1f", "lon": -77.0671525, "rental_uris": {"ios": "https://dc.lft.to/lastmile_qr_scan", "android": "https://dc.lft.to/lastmile_qr_scan"}}, {"name": "108fd97f86e90261a6bc619fc0fc0fb0", "fusion_lat": 0.0, "type": "electric_scooter", "lat": 38.909585, "is_reserved": 0, "is_disabled": 0, "fusion_lon": 0.0, "bike_id": "108fd97f86e90261a6bc619fc0fc0fb0", "lon": -77.038814, "rental_uris": {"ios": "https://dc.lft.to/lastmile_qr_scan", "android": "https://dc.lft.to/lastmile_qr_scan"}}, {"name": "ded8e01d20b7905f95500f1af7475991", "fusion_lat": 0.0, "type": "electric_scooter", "lat": 38.8729195, "is_reserved": 0, "is_disabled": 0, "fusion_lon": 0.0, "bike_id": "ded8e01d20b7905f95500f1af7475991", "lon": -77.009833, "rental_uris": {"ios": "https://dc.lft.to/lastmile_qr_scan", "android": "https://dc.lft.to/lastmile_qr_scan"}}, {"name": "05af911aa2f812075006fd4591e3f11d", "fusion_lat": 0.0, "type": "electric_scooter", "lat": 38.91815533333333, "is_reserved": 0, "is_disabled": 0, "fusion_lon": 0.0, "bike_id": "05af911aa2f812075006fd4591e3f11d", "lon": -77.04174566666667, "rental_uris": {"ios": "https://dc.lft.to/lastmile_qr_scan", "android": "https://dc.lft.to/lastmile_qr_scan"}}, {"name": "45fa26c16cc150b59a7a57fb480404da", "fusion_lat": 0.0, "type": "electric_scooter", "lat": 38.98471283333333, "is_reserved": 0, "is_disabled": 0, "fusion_lon": 0.0, "bike_id": "45fa26c16cc150b59a7a57fb480404da", "lon": -77.02642433333334, "rental_uris": {"ios": "https://dc.lft.to/lastmile_qr_scan", "android": "https://dc.lft.to/lastmile_qr_scan"}}, {"name": "cc2e18491a55646c839cbd78a9bf4146", "fusion_lat": 0.0, "type": "electric_scooter", "lat": 38.942911333333335, "is_reserved": 0, "is_disabled": 0, "fusion_lon": 0.0, "bike_id": "cc2e18491a55646c839cbd78a9bf4146", "lon": -77.02173666666667, "rental_uris": {"ios": "https://dc.lft.to/lastmile_qr_scan", "android": "https://dc.lft.to/lastmile_qr_scan"}}, {"name": "8ca15ecab75d1042c0b42ad08f0a0865", "fusion_lat": 0.0, "type": "electric_scooter", "lat": 38.86693066666667, "is_reserved": 0, "is_disabled": 0, "fusion_lon": 0.0, "bike_id": "8ca15ecab75d1042c0b42ad08f0a0865", "lon": -76.98908583333333, "rental_uris": {"ios": "https://dc.lft.to/lastmile_qr_scan", "android": "https://dc.lft.to/lastmile_qr_scan"}}, {"name": "a0be24f1d5bbece75f70574bf7f5db0b", "fusion_lat": 0.0, "type": "electric_bike", "lat": 38.944596, "is_reserved": 0, "is_disabled": 0, "fusion_lon": 0.0, "bike_id": "a0be24f1d5bbece75f70574bf7f5db0b", "lon": -77.064028, "rental_uris": {"ios": "https://dc.lft.to/lastmile_qr_scan", "android": "https://dc.lft.to/lastmile_qr_scan"}}, {"name": "7b87a3401b2b81c7503c0f9abef481ee", "fusion_lat": 0.0, "type": "electric_scooter", "lat": 38.909508333333335, "is_reserved": 0, "is_disabled": 0, "fusion_lon": 0.0, "bike_id": "7b87a3401b2b81c7503c0f9abef481ee", "lon": -77.026938, "rental_uris": {"ios": "https://dc.lft.to/lastmile_qr_scan", "android": "https://dc.lft.to/lastmile_qr_scan"}}, {"name": "71560aa6911b33eaa283b69b58c127a7", "fusion_lat": 0.0, "type": "electric_scooter", "lat": 38.9028945, "is_reserved": 0, "is_disabled": 0, "fusion_lon": 0.0, "bike_id": "71560aa6911b33eaa283b69b58c127a7", "lon": -77.0343425, "rental_uris": {"ios": "https://dc.lft.to/lastmile_qr_scan", "android": "https://dc.lft.to/lastmile_qr_scan"}}, {"name": "0ec85c0baa362989eacdd154e5beb510", "fusion_lat": 0.0, "type": "electric_scooter", "lat": 38.921843, "is_reserved": 0, "is_disabled": 0, "fusion_lon": 0.0, "bike_id": "0ec85c0baa362989eacdd154e5beb510", "lon": -77.04012916666667, "rental_uris": {"ios": "https://dc.lft.to/lastmile_qr_scan", "android": "https://dc.lft.to/lastmile_qr_scan"}}, {"name": "9e3c032145632261c7247de2b61a1832", "fusion_lat": 0.0, "type": "electric_bike", "lat": 38.892146833333335, "is_reserved": 0, "is_disabled": 0, "fusion_lon": 0.0, "bike_id": "9e3c032145632261c7247de2b61a1832", "lon": -77.10780483333333, "rental_uris": {"ios": "https://dc.lft.to/lastmile_qr_scan", "android": "https://dc.lft.to/lastmile_qr_scan"}}, {"name": "9ec698a07ea04be9791bd087ca1041b8", "fusion_lat": 0.0, "type": "electric_scooter", "lat": 38.883711, "is_reserved": 0, "is_disabled": 0, "fusion_lon": 0.0, "bike_id": "9ec698a07ea04be9791bd087ca1041b8", "lon": -77.02615766666666, "rental_uris": {"ios": "https://dc.lft.to/lastmile_qr_scan", "android": "https://dc.lft.to/lastmile_qr_scan"}}, {"name": "93184c93d01d1b8eb07cf8066c3eb4be", "fusion_lat": 0.0, "type": "electric_scooter", "lat": 38.903355, "is_reserved": 0, "is_disabled": 0, "fusion_lon": 0.0, "bike_id": "93184c93d01d1b8eb07cf8066c3eb4be", "lon": -76.98822366666667, "rental_uris": {"ios": "https://dc.lft.to/lastmile_qr_scan", "android": "https://dc.lft.to/lastmile_qr_scan"}}, {"name": "a021540f3a7e7c71533d39b9fbb293e2", "fusion_lat": 0.0, "type": "electric_scooter", "lat": 38.91691816666667, "is_reserved": 0, "is_disabled": 0, "fusion_lon": 0.0, "bike_id": "a021540f3a7e7c71533d39b9fbb293e2", "lon": -77.02601066666666, "rental_uris": {"ios": "https://dc.lft.to/lastmile_qr_scan", "android": "https://dc.lft.to/lastmile_qr_scan"}}, {"name": "a2db2bd2a6ca17dc37ed7f2203b1a7fd", "fusion_lat": 0.0, "type": "electric_scooter", "lat": 38.93604083333334, "is_reserved": 0, "is_disabled": 0, "fusion_lon": 0.0, "bike_id": "a2db2bd2a6ca17dc37ed7f2203b1a7fd", "lon": -77.058635, "rental_uris": {"ios": "https://dc.lft.to/lastmile_qr_scan", "android": "https://dc.lft.to/lastmile_qr_scan"}}, {"name": "ba7a22793241d8be0ec26331e389a36a", "fusion_lat": 0.0, "type": "electric_scooter", "lat": 38.89898616666667, "is_reserved": 0, "is_disabled": 0, "fusion_lon": 0.0, "bike_id": "ba7a22793241d8be0ec26331e389a36a", "lon": -76.93306666666666, "rental_uris": {"ios": "https://dc.lft.to/lastmile_qr_scan", "android": "https://dc.lft.to/lastmile_qr_scan"}}, {"name": "417428a12a290c055826db5593decc35", "fusion_lat": 0.0, "type": "electric_scooter", "lat": 38.906561833333335, "is_reserved": 0, "is_disabled": 0, "fusion_lon": 0.0, "bike_id": "417428a12a290c055826db5593decc35", "lon": -76.98607183333333, "rental_uris": {"ios": "https://dc.lft.to/lastmile_qr_scan", "android": "https://dc.lft.to/lastmile_qr_scan"}}, {"name": "3574093ed4f4f04abbd2f961d6f708d2", "fusion_lat": 0.0, "type": "electric_scooter", "lat": 38.902652333333336, "is_reserved": 0, "is_disabled": 0, "fusion_lon": 0.0, "bike_id": "3574093ed4f4f04abbd2f961d6f708d2", "lon": -77.017633, "rental_uris": {"ios": "https://dc.lft.to/lastmile_qr_scan", "android": "https://dc.lft.to/lastmile_qr_scan"}}, {"name": "e4512ac117bcefe7eaf1917e57fb5493", "fusion_lat": 0.0, "type": "electric_scooter", "lat": 38.8995655, "is_reserved": 0, "is_disabled": 0, "fusion_lon": 0.0, "bike_id": "e4512ac117bcefe7eaf1917e57fb5493", "lon": -76.98568616666667, "rental_uris": {"ios": "https://dc.lft.to/lastmile_qr_scan", "android": "https://dc.lft.to/lastmile_qr_scan"}}, {"name": "2905d8d12c1f5176d8e1e2ee3eaaadb5", "fusion_lat": 0.0, "type": "electric_scooter", "lat": 38.932886833333335, "is_reserved": 0, "is_disabled": 0, "fusion_lon": 0.0, "bike_id": "2905d8d12c1f5176d8e1e2ee3eaaadb5", "lon": -77.03632216666666, "rental_uris": {"ios": "https://dc.lft.to/lastmile_qr_scan", "android": "https://dc.lft.to/lastmile_qr_scan"}}, {"name": "0e413fe54a1d269f5c016440cfb30129", "fusion_lat": 0.0, "type": "electric_scooter", "lat": 38.8872485, "is_reserved": 0, "is_disabled": 0, "fusion_lon": 0.0, "bike_id": "0e413fe54a1d269f5c016440cfb30129", "lon": -77.02829733333333, "rental_uris": {"ios": "https://dc.lft.to/lastmile_qr_scan", "android": "https://dc.lft.to/lastmile_qr_scan"}}, {"name": "b7102ef625fe1708f98beaa1e54a6dd6", "fusion_lat": 0.0, "type": "electric_scooter", "lat": 38.915267, "is_reserved": 0, "is_disabled": 0, "fusion_lon": 0.0, "bike_id": "b7102ef625fe1708f98beaa1e54a6dd6", "lon": -77.01424983333334, "rental_uris": {"ios": "https://dc.lft.to/lastmile_qr_scan", "android": "https://dc.lft.to/lastmile_qr_scan"}}, {"name": "bd245c44bb60540d194c789f9d3cf4d4", "fusion_lat": 0.0, "type": "electric_scooter", "lat": 38.90554233333334, "is_reserved": 0, "is_disabled": 0, "fusion_lon": 0.0, "bike_id": "bd245c44bb60540d194c789f9d3cf4d4", "lon": -77.034824, "rental_uris": {"ios": "https://dc.lft.to/lastmile_qr_scan", "android": "https://dc.lft.to/lastmile_qr_scan"}}, {"name": "3e477f91a038b6162fa6324adac27282", "fusion_lat": 0.0, "type": "electric_scooter", "lat": 38.9204775, "is_reserved": 0, "is_disabled": 0, "fusion_lon": 0.0, "bike_id": "3e477f91a038b6162fa6324adac27282", "lon": -77.03027733333333, "rental_uris": {"ios": "https://dc.lft.to/lastmile_qr_scan", "android": "https://dc.lft.to/lastmile_qr_scan"}}, {"name": "068919667d3da6b15bc7f417884b9698", "fusion_lat": 0.0, "type": "electric_scooter", "lat": 38.91266983333333, "is_reserved": 0, "is_disabled": 0, "fusion_lon": 0.0, "bike_id": "068919667d3da6b15bc7f417884b9698", "lon": -77.022428, "rental_uris": {"ios": "https://dc.lft.to/lastmile_qr_scan", "android": "https://dc.lft.to/lastmile_qr_scan"}}, {"name": "ad281e073c5ae128925435c1e1dcb5f9", "fusion_lat": 0.0, "type": "electric_scooter", "lat": 38.93245533333333, "is_reserved": 0, "is_disabled": 0, "fusion_lon": 0.0, "bike_id": "ad281e073c5ae128925435c1e1dcb5f9", "lon": -77.0202615, "rental_uris": {"ios": "https://dc.lft.to/lastmile_qr_scan", "android": "https://dc.lft.to/lastmile_qr_scan"}}, {"name": "f8ece8e40154fbb76ae1fb84010e23aa", "fusion_lat": 0.0, "type": "electric_scooter", "lat": 38.917086833333336, "is_reserved": 0, "is_disabled": 0, "fusion_lon": 0.0, "bike_id": "f8ece8e40154fbb76ae1fb84010e23aa", "lon": -77.03143, "rental_uris": {"ios": "https://dc.lft.to/lastmile_qr_scan", "android": "https://dc.lft.to/lastmile_qr_scan"}}, {"name": "95b6cd77ceba13508c3d61f10e51eb8b", "fusion_lat": 0.0, "type": "electric_scooter", "lat": 38.88596116666667, "is_reserved": 0, "is_disabled": 0, "fusion_lon": 0.0, "bike_id": "95b6cd77ceba13508c3d61f10e51eb8b", "lon": -77.02206383333333, "rental_uris": {"ios": "https://dc.lft.to/lastmile_qr_scan", "android": "https://dc.lft.to/lastmile_qr_scan"}}, {"name": "906a0f297389530f9ca236e48b07beb4", "fusion_lat": 0.0, "type": "electric_scooter", "lat": 38.9345685, "is_reserved": 0, "is_disabled": 0, "fusion_lon": 0.0, "bike_id": "906a0f297389530f9ca236e48b07beb4", "lon": -77.029175, "rental_uris": {"ios": "https://dc.lft.to/lastmile_qr_scan", "android": "https://dc.lft.to/lastmile_qr_scan"}}, {"name": "a5d8152f4a73338660287b4dee014727", "fusion_lat": 0.0, "type": "electric_scooter", "lat": 38.90245816666667, "is_reserved": 0, "is_disabled": 0, "fusion_lon": 0.0, "bike_id": "a5d8152f4a73338660287b4dee014727", "lon": -77.043545, "rental_uris": {"ios": "https://dc.lft.to/lastmile_qr_scan", "android": "https://dc.lft.to/lastmile_qr_scan"}}, {"name": "5ea97dc0580685d02b19ebc17e64bb11", "fusion_lat": 0.0, "type": "electric_scooter", "lat": 38.923604833333336, "is_reserved": 0, "is_disabled": 0, "fusion_lon": 0.0, "bike_id": "5ea97dc0580685d02b19ebc17e64bb11", "lon": -77.05134366666667, "rental_uris": {"ios": "https://dc.lft.to/lastmile_qr_scan", "android": "https://dc.lft.to/lastmile_qr_scan"}}, {"name": "241275ce2a57608dcd3fd0c9297fde29", "fusion_lat": 0.0, "type": "electric_scooter", "lat": 38.860741166666664, "is_reserved": 0, "is_disabled": 0, "fusion_lon": 0.0, "bike_id": "241275ce2a57608dcd3fd0c9297fde29", "lon": -76.96734366666666, "rental_uris": {"ios": "https://dc.lft.to/lastmile_qr_scan", "android": "https://dc.lft.to/lastmile_qr_scan"}}, {"name": "67de1e6a5caab94d55899e7c3eca0655", "fusion_lat": 0.0, "type": "electric_scooter", "lat": 38.922054, "is_reserved": 0, "is_disabled": 0, "fusion_lon": 0.0, "bike_id": "67de1e6a5caab94d55899e7c3eca0655", "lon": -77.04326516666667, "rental_uris": {"ios": "https://dc.lft.to/lastmile_qr_scan", "android": "https://dc.lft.to/lastmile_qr_scan"}}, {"name": "35301c18c20a7bfe3d3c84a2b6689b88", "fusion_lat": 0.0, "type": "electric_scooter", "lat": 38.918896333333336, "is_reserved": 0, "is_disabled": 0, "fusion_lon": 0.0, "bike_id": "35301c18c20a7bfe3d3c84a2b6689b88", "lon": -77.043195, "rental_uris": {"ios": "https://dc.lft.to/lastmile_qr_scan", "android": "https://dc.lft.to/lastmile_qr_scan"}}, {"name": "fb5551ae6377339d481c40916da9409e", "fusion_lat": 0.0, "type": "electric_scooter", "lat": 38.90678183333333, "is_reserved": 0, "is_disabled": 0, "fusion_lon": 0.0, "bike_id": "fb5551ae6377339d481c40916da9409e", "lon": -77.034871, "rental_uris": {"ios": "https://dc.lft.to/lastmile_qr_scan", "android": "https://dc.lft.to/lastmile_qr_scan"}}, {"name": "588f57cd9aa60e7a2ecf92a63a8f3e76", "fusion_lat": 0.0, "type": "electric_scooter", "lat": 38.8805295, "is_reserved": 0, "is_disabled": 0, "fusion_lon": 0.0, "bike_id": "588f57cd9aa60e7a2ecf92a63a8f3e76", "lon": -77.02485933333334, "rental_uris": {"ios": "https://dc.lft.to/lastmile_qr_scan", "android": "https://dc.lft.to/lastmile_qr_scan"}}, {"name": "79cb6f0afc0e691dc26921336c28e9a3", "fusion_lat": 0.0, "type": "electric_scooter", "lat": 38.8737475, "is_reserved": 0, "is_disabled": 0, "fusion_lon": 0.0, "bike_id": "79cb6f0afc0e691dc26921336c28e9a3", "lon": -77.00032366666667, "rental_uris": {"ios": "https://dc.lft.to/lastmile_qr_scan", "android": "https://dc.lft.to/lastmile_qr_scan"}}, {"name": "741ae42d9bd40565f22dad65ca49b570", "fusion_lat": 0.0, "type": "electric_scooter", "lat": 38.911936, "is_reserved": 0, "is_disabled": 0, "fusion_lon": 0.0, "bike_id": "741ae42d9bd40565f22dad65ca49b570", "lon": -77.01901966666667, "rental_uris": {"ios": "https://dc.lft.to/lastmile_qr_scan", "android": "https://dc.lft.to/lastmile_qr_scan"}}, {"name": "3093a1b99b6a7b04c4a985cd6820645c", "fusion_lat": 0.0, "type": "electric_scooter", "lat": 38.91713716666667, "is_reserved": 0, "is_disabled": 0, "fusion_lon": 0.0, "bike_id": "3093a1b99b6a7b04c4a985cd6820645c", "lon": -77.03144566666667, "rental_uris": {"ios": "https://dc.lft.to/lastmile_qr_scan", "android": "https://dc.lft.to/lastmile_qr_scan"}}, {"name": "5c0daaf4a7be7ab9ebc5b3bcfee3af0f", "fusion_lat": 0.0, "type": "electric_scooter", "lat": 38.910558333333334, "is_reserved": 0, "is_disabled": 0, "fusion_lon": 0.0, "bike_id": "5c0daaf4a7be7ab9ebc5b3bcfee3af0f", "lon": -77.0458515, "rental_uris": {"ios": "https://dc.lft.to/lastmile_qr_scan", "android": "https://dc.lft.to/lastmile_qr_scan"}}, {"name": "aafb2335d1847978fd5e35a2bda33252", "fusion_lat": 0.0, "type": "electric_scooter", "lat": 38.893578, "is_reserved": 0, "is_disabled": 0, "fusion_lon": 0.0, "bike_id": "aafb2335d1847978fd5e35a2bda33252", "lon": -77.04666533333334, "rental_uris": {"ios": "https://dc.lft.to/lastmile_qr_scan", "android": "https://dc.lft.to/lastmile_qr_scan"}}, {"name": "55aae7000eecdc3029cb3a35e6728c10", "fusion_lat": 0.0, "type": "electric_bike", "lat": 38.93412583333333, "is_reserved": 0, "is_disabled": 0, "fusion_lon": 0.0, "bike_id": "55aae7000eecdc3029cb3a35e6728c10", "lon": -77.02511933333334, "rental_uris": {"ios": "https://dc.lft.to/lastmile_qr_scan", "android": "https://dc.lft.to/lastmile_qr_scan"}}, {"name": "e38b2f5f7f8e26db4c2099b5b1259f9b", "fusion_lat": 0.0, "type": "electric_scooter", "lat": 38.907931833333336, "is_reserved": 0, "is_disabled": 0, "fusion_lon": 0.0, "bike_id": "e38b2f5f7f8e26db4c2099b5b1259f9b", "lon": -76.9803875, "rental_uris": {"ios": "https://dc.lft.to/lastmile_qr_scan", "android": "https://dc.lft.to/lastmile_qr_scan"}}, {"name": "711a7d960163d9a37e113bfe7f9a07fd", "fusion_lat": 0.0, "type": "electric_scooter", "lat": 38.91266533333334, "is_reserved": 0, "is_disabled": 0, "fusion_lon": 0.0, "bike_id": "711a7d960163d9a37e113bfe7f9a07fd", "lon": -77.03645166666666, "rental_uris": {"ios": "https://dc.lft.to/lastmile_qr_scan", "android": "https://dc.lft.to/lastmile_qr_scan"}}, {"name": "827d2ce6901ca5b0a880b1eb71f0fea7", "fusion_lat": 0.0, "type": "electric_scooter", "lat": 38.866578833333335, "is_reserved": 0, "is_disabled": 0, "fusion_lon": 0.0, "bike_id": "827d2ce6901ca5b0a880b1eb71f0fea7", "lon": -76.98891133333333, "rental_uris": {"ios": "https://dc.lft.to/lastmile_qr_scan", "android": "https://dc.lft.to/lastmile_qr_scan"}}, {"name": "3ed98d7d6adf81aeb094e8be0d92b8da", "fusion_lat": 0.0, "type": "electric_scooter", "lat": 38.8812415, "is_reserved": 0, "is_disabled": 0, "fusion_lon": 0.0, "bike_id": "3ed98d7d6adf81aeb094e8be0d92b8da", "lon": -77.01334366666667, "rental_uris": {"ios": "https://dc.lft.to/lastmile_qr_scan", "android": "https://dc.lft.to/lastmile_qr_scan"}}, {"name": "de449d52b95742d230b381b55d4a023a", "fusion_lat": 0.0, "type": "electric_scooter", "lat": 38.917644833333334, "is_reserved": 0, "is_disabled": 0, "fusion_lon": 0.0, "bike_id": "de449d52b95742d230b381b55d4a023a", "lon": -77.02307183333333, "rental_uris": {"ios": "https://dc.lft.to/lastmile_qr_scan", "android": "https://dc.lft.to/lastmile_qr_scan"}}, {"name": "5eda818d19e522b10678899c0846119a", "fusion_lat": 0.0, "type": "electric_scooter", "lat": 38.91310033333333, "is_reserved": 0, "is_disabled": 0, "fusion_lon": 0.0, "bike_id": "5eda818d19e522b10678899c0846119a", "lon": -77.02031566666666, "rental_uris": {"ios": "https://dc.lft.to/lastmile_qr_scan", "android": "https://dc.lft.to/lastmile_qr_scan"}}, {"name": "68f6741ae09cc3e026db554522c2d38b", "fusion_lat": 0.0, "type": "electric_scooter", "lat": 38.906727333333336, "is_reserved": 0, "is_disabled": 0, "fusion_lon": 0.0, "bike_id": "68f6741ae09cc3e026db554522c2d38b", "lon": -77.0270415, "rental_uris": {"ios": "https://dc.lft.to/lastmile_qr_scan", "android": "https://dc.lft.to/lastmile_qr_scan"}}, {"name": "408c9aab35cc97cbd05d2c1c26bcd71a", "fusion_lat": 0.0, "type": "electric_scooter", "lat": 38.93093533333333, "is_reserved": 0, "is_disabled": 0, "fusion_lon": 0.0, "bike_id": "408c9aab35cc97cbd05d2c1c26bcd71a", "lon": -77.0344575, "rental_uris": {"ios": "https://dc.lft.to/lastmile_qr_scan", "android": "https://dc.lft.to/lastmile_qr_scan"}}, {"name": "eae5d9a79bf19795587cfb56aef4a9a5", "fusion_lat": 0.0, "type": "electric_scooter", "lat": 38.913953666666664, "is_reserved": 0, "is_disabled": 0, "fusion_lon": 0.0, "bike_id": "eae5d9a79bf19795587cfb56aef4a9a5", "lon": -77.04168383333334, "rental_uris": {"ios": "https://dc.lft.to/lastmile_qr_scan", "android": "https://dc.lft.to/lastmile_qr_scan"}}, {"name": "d470390a784a2b80d1fa4589f809f493", "fusion_lat": 0.0, "type": "electric_scooter", "lat": 38.90959183333333, "is_reserved": 0, "is_disabled": 0, "fusion_lon": 0.0, "bike_id": "d470390a784a2b80d1fa4589f809f493", "lon": -77.02745416666667, "rental_uris": {"ios": "https://dc.lft.to/lastmile_qr_scan", "android": "https://dc.lft.to/lastmile_qr_scan"}}, {"name": "ac8f188f393d42d673bddf0cad112217", "fusion_lat": 0.0, "type": "electric_bike", "lat": 38.8286975, "is_reserved": 0, "is_disabled": 0, "fusion_lon": 0.0, "bike_id": "ac8f188f393d42d673bddf0cad112217", "lon": -77.11226783333333, "rental_uris": {"ios": "https://dc.lft.to/lastmile_qr_scan", "android": "https://dc.lft.to/lastmile_qr_scan"}}, {"name": "f90756352ac10254c04d7acff1973ed9", "fusion_lat": 0.0, "type": "electric_bike", "lat": 38.99089333333333, "is_reserved": 0, "is_disabled": 0, "fusion_lon": 0.0, "bike_id": "f90756352ac10254c04d7acff1973ed9", "lon": -76.8749825, "rental_uris": {"ios": "https://dc.lft.to/lastmile_qr_scan", "android": "https://dc.lft.to/lastmile_qr_scan"}}, {"name": "c37cd820386e64042eb80e51b4c9785c", "fusion_lat": 0.0, "type": "electric_scooter", "lat": 38.92506916666667, "is_reserved": 0, "is_disabled": 0, "fusion_lon": 0.0, "bike_id": "c37cd820386e64042eb80e51b4c9785c", "lon": -77.021685, "rental_uris": {"ios": "https://dc.lft.to/lastmile_qr_scan", "android": "https://dc.lft.to/lastmile_qr_scan"}}, {"name": "9b4038967dd563193d3a06cb26283464", "fusion_lat": 0.0, "type": "electric_scooter", "lat": 38.876493833333335, "is_reserved": 0, "is_disabled": 0, "fusion_lon": 0.0, "bike_id": "9b4038967dd563193d3a06cb26283464", "lon": -77.00842416666667, "rental_uris": {"ios": "https://dc.lft.to/lastmile_qr_scan", "android": "https://dc.lft.to/lastmile_qr_scan"}}, {"name": "424083748390126623b3752a4d4cffe9", "fusion_lat": 0.0, "type": "electric_scooter", "lat": 38.899683, "is_reserved": 0, "is_disabled": 0, "fusion_lon": 0.0, "bike_id": "424083748390126623b3752a4d4cffe9", "lon": -77.05703083333333, "rental_uris": {"ios": "https://dc.lft.to/lastmile_qr_scan", "android": "https://dc.lft.to/lastmile_qr_scan"}}, {"name": "6e959ee2a43301f11b3449956ff6e37d", "fusion_lat": 0.0, "type": "electric_scooter", "lat": 38.8836805, "is_reserved": 0, "is_disabled": 0, "fusion_lon": 0.0, "bike_id": "6e959ee2a43301f11b3449956ff6e37d", "lon": -77.01940916666666, "rental_uris": {"ios": "https://dc.lft.to/lastmile_qr_scan", "android": "https://dc.lft.to/lastmile_qr_scan"}}, {"name": "ef02cb75f11dbf2c8f13678a9771edfd", "fusion_lat": 0.0, "type": "electric_scooter", "lat": 38.89608583333333, "is_reserved": 0, "is_disabled": 0, "fusion_lon": 0.0, "bike_id": "ef02cb75f11dbf2c8f13678a9771edfd", "lon": -77.04774133333333, "rental_uris": {"ios": "https://dc.lft.to/lastmile_qr_scan", "android": "https://dc.lft.to/lastmile_qr_scan"}}, {"name": "d140e197004783312a5f2174a1f50453", "fusion_lat": 0.0, "type": "electric_scooter", "lat": 38.91808866666667, "is_reserved": 0, "is_disabled": 0, "fusion_lon": 0.0, "bike_id": "d140e197004783312a5f2174a1f50453", "lon": -77.03995633333334, "rental_uris": {"ios": "https://dc.lft.to/lastmile_qr_scan", "android": "https://dc.lft.to/lastmile_qr_scan"}}, {"name": "856584df2465fb5a23888294996c9fc1", "fusion_lat": 0.0, "type": "electric_scooter", "lat": 38.938981, "is_reserved": 0, "is_disabled": 0, "fusion_lon": 0.0, "bike_id": "856584df2465fb5a23888294996c9fc1", "lon": -77.032843, "rental_uris": {"ios": "https://dc.lft.to/lastmile_qr_scan", "android": "https://dc.lft.to/lastmile_qr_scan"}}, {"name": "253e4210390a15ddbccd462d890ef767", "fusion_lat": 0.0, "type": "electric_scooter", "lat": 38.93684833333333, "is_reserved": 0, "is_disabled": 0, "fusion_lon": 0.0, "bike_id": "253e4210390a15ddbccd462d890ef767", "lon": -77.02175083333333, "rental_uris": {"ios": "https://dc.lft.to/lastmile_qr_scan", "android": "https://dc.lft.to/lastmile_qr_scan"}}, {"name": "d2f3b96442357874d57c85f57fff46ac", "fusion_lat": 0.0, "type": "electric_scooter", "lat": 38.934102833333334, "is_reserved": 0, "is_disabled": 0, "fusion_lon": 0.0, "bike_id": "d2f3b96442357874d57c85f57fff46ac", "lon": -77.0197045, "rental_uris": {"ios": "https://dc.lft.to/lastmile_qr_scan", "android": "https://dc.lft.to/lastmile_qr_scan"}}, {"name": "68884313798cce22326146d61fc32d4b", "fusion_lat": 0.0, "type": "electric_scooter", "lat": 38.917389666666665, "is_reserved": 0, "is_disabled": 0, "fusion_lon": 0.0, "bike_id": "68884313798cce22326146d61fc32d4b", "lon": -77.02116933333333, "rental_uris": {"ios": "https://dc.lft.to/lastmile_qr_scan", "android": "https://dc.lft.to/lastmile_qr_scan"}}, {"name": "8e7da9876c842b4a1305e8bd572c2107", "fusion_lat": 0.0, "type": "electric_scooter", "lat": 38.888648833333335, "is_reserved": 0, "is_disabled": 0, "fusion_lon": 0.0, "bike_id": "8e7da9876c842b4a1305e8bd572c2107", "lon": -77.04009316666667, "rental_uris": {"ios": "https://dc.lft.to/lastmile_qr_scan", "android": "https://dc.lft.to/lastmile_qr_scan"}}, {"name": "b7a9a23c28d629b27ae8af3cf8632206", "fusion_lat": 0.0, "type": "electric_scooter", "lat": 38.921030333333334, "is_reserved": 0, "is_disabled": 0, "fusion_lon": 0.0, "bike_id": "b7a9a23c28d629b27ae8af3cf8632206", "lon": -77.0469925, "rental_uris": {"ios": "https://dc.lft.to/lastmile_qr_scan", "android": "https://dc.lft.to/lastmile_qr_scan"}}, {"name": "bc984e2eb6a5b6590355c26d6b43807f", "fusion_lat": 0.0, "type": "electric_scooter", "lat": 38.9024095, "is_reserved": 0, "is_disabled": 0, "fusion_lon": 0.0, "bike_id": "bc984e2eb6a5b6590355c26d6b43807f", "lon": -77.002027, "rental_uris": {"ios": "https://dc.lft.to/lastmile_qr_scan", "android": "https://dc.lft.to/lastmile_qr_scan"}}, {"name": "8d38c756f8f80d77eefa0cbfbd91c160", "fusion_lat": 0.0, "type": "electric_scooter", "lat": 38.93522183333333, "is_reserved": 0, "is_disabled": 0, "fusion_lon": 0.0, "bike_id": "8d38c756f8f80d77eefa0cbfbd91c160", "lon": -77.02850816666667, "rental_uris": {"ios": "https://dc.lft.to/lastmile_qr_scan", "android": "https://dc.lft.to/lastmile_qr_scan"}}, {"name": "5c3f86f7537189382b1413921c3496c3", "fusion_lat": 0.0, "type": "electric_bike", "lat": 38.8977765, "is_reserved": 0, "is_disabled": 0, "fusion_lon": 0.0, "bike_id": "5c3f86f7537189382b1413921c3496c3", "lon": -76.90438966666666, "rental_uris": {"ios": "https://dc.lft.to/lastmile_qr_scan", "android": "https://dc.lft.to/lastmile_qr_scan"}}, {"name": "72abe825900a0fb91f4c0be9632a8c78", "fusion_lat": 0.0, "type": "electric_scooter", "lat": 38.928885666666666, "is_reserved": 0, "is_disabled": 0, "fusion_lon": 0.0, "bike_id": "72abe825900a0fb91f4c0be9632a8c78", "lon": -77.03737966666667, "rental_uris": {"ios": "https://dc.lft.to/lastmile_qr_scan", "android": "https://dc.lft.to/lastmile_qr_scan"}}, {"name": "5a1377620f98332669da7fb5dedc5d92", "fusion_lat": 0.0, "type": "electric_scooter", "lat": 38.91860033333333, "is_reserved": 0, "is_disabled": 0, "fusion_lon": 0.0, "bike_id": "5a1377620f98332669da7fb5dedc5d92", "lon": -77.01508433333333, "rental_uris": {"ios": "https://dc.lft.to/lastmile_qr_scan", "android": "https://dc.lft.to/lastmile_qr_scan"}}, {"name": "b6c70777d99cac9aa087f7679f2f3608", "fusion_lat": 0.0, "type": "electric_scooter", "lat": 38.895563833333334, "is_reserved": 0, "is_disabled": 0, "fusion_lon": 0.0, "bike_id": "b6c70777d99cac9aa087f7679f2f3608", "lon": -77.02356383333333, "rental_uris": {"ios": "https://dc.lft.to/lastmile_qr_scan", "android": "https://dc.lft.to/lastmile_qr_scan"}}, {"name": "daf65e69760a6ddd3fae13223e7359f9", "fusion_lat": 0.0, "type": "electric_scooter", "lat": 38.907021, "is_reserved": 0, "is_disabled": 0, "fusion_lon": 0.0, "bike_id": "daf65e69760a6ddd3fae13223e7359f9", "lon": -76.98695716666667, "rental_uris": {"ios": "https://dc.lft.to/lastmile_qr_scan", "android": "https://dc.lft.to/lastmile_qr_scan"}}, {"name": "d52b4496b165ae0f1f8541dea9d063b8", "fusion_lat": 0.0, "type": "electric_scooter", "lat": 38.91820116666667, "is_reserved": 0, "is_disabled": 0, "fusion_lon": 0.0, "bike_id": "d52b4496b165ae0f1f8541dea9d063b8", "lon": -77.00262633333334, "rental_uris": {"ios": "https://dc.lft.to/lastmile_qr_scan", "android": "https://dc.lft.to/lastmile_qr_scan"}}, {"name": "124291d56acc364e2caddc027dada85b", "fusion_lat": 0.0, "type": "electric_scooter", "lat": 38.89581, "is_reserved": 0, "is_disabled": 0, "fusion_lon": 0.0, "bike_id": "124291d56acc364e2caddc027dada85b", "lon": -77.04336866666667, "rental_uris": {"ios": "https://dc.lft.to/lastmile_qr_scan", "android": "https://dc.lft.to/lastmile_qr_scan"}}, {"name": "f393b6ccf52bf49284cdb2b1da1f309f", "fusion_lat": 0.0, "type": "electric_scooter", "lat": 38.9305965, "is_reserved": 0, "is_disabled": 0, "fusion_lon": 0.0, "bike_id": "f393b6ccf52bf49284cdb2b1da1f309f", "lon": -77.02321783333333, "rental_uris": {"ios": "https://dc.lft.to/lastmile_qr_scan", "android": "https://dc.lft.to/lastmile_qr_scan"}}, {"name": "5bed04aed4fdd833691fd4919dc0be0c", "fusion_lat": 0.0, "type": "electric_scooter", "lat": 38.91256533333333, "is_reserved": 0, "is_disabled": 0, "fusion_lon": 0.0, "bike_id": "5bed04aed4fdd833691fd4919dc0be0c", "lon": -77.007682, "rental_uris": {"ios": "https://dc.lft.to/lastmile_qr_scan", "android": "https://dc.lft.to/lastmile_qr_scan"}}, {"name": "b22692adcde2c6091029c5e98d3bd3fd", "fusion_lat": 0.0, "type": "electric_bike", "lat": 38.953034, "is_reserved": 0, "is_disabled": 0, "fusion_lon": 0.0, "bike_id": "b22692adcde2c6091029c5e98d3bd3fd", "lon": -77.02507866666667, "rental_uris": {"ios": "https://dc.lft.to/lastmile_qr_scan", "android": "https://dc.lft.to/lastmile_qr_scan"}}, {"name": "5e5b84dd25999c6c7f72210139a1504d", "fusion_lat": 0.0, "type": "electric_bike", "lat": 38.935805, "is_reserved": 0, "is_disabled": 0, "fusion_lon": 0.0, "bike_id": "5e5b84dd25999c6c7f72210139a1504d", "lon": -77.10683583333334, "rental_uris": {"ios": "https://dc.lft.to/lastmile_qr_scan", "android": "https://dc.lft.to/lastmile_qr_scan"}}, {"name": "47ee10e46d305df83025505e1cb707d6", "fusion_lat": 0.0, "type": "electric_scooter", "lat": 38.9372065, "is_reserved": 0, "is_disabled": 0, "fusion_lon": 0.0, "bike_id": "47ee10e46d305df83025505e1cb707d6", "lon": -77.03272283333334, "rental_uris": {"ios": "https://dc.lft.to/lastmile_qr_scan", "android": "https://dc.lft.to/lastmile_qr_scan"}}, {"name": "bd9368cf06dbb89884fece639aaceac4", "fusion_lat": 0.0, "type": "electric_scooter", "lat": 38.90272216666666, "is_reserved": 0, "is_disabled": 0, "fusion_lon": 0.0, "bike_id": "bd9368cf06dbb89884fece639aaceac4", "lon": -77.04277133333333, "rental_uris": {"ios": "https://dc.lft.to/lastmile_qr_scan", "android": "https://dc.lft.to/lastmile_qr_scan"}}, {"name": "9b943b0c1f08aec76fa51bde2c161fb6", "fusion_lat": 0.0, "type": "electric_scooter", "lat": 38.9051965, "is_reserved": 0, "is_disabled": 0, "fusion_lon": 0.0, "bike_id": "9b943b0c1f08aec76fa51bde2c161fb6", "lon": -77.0668165, "rental_uris": {"ios": "https://dc.lft.to/lastmile_qr_scan", "android": "https://dc.lft.to/lastmile_qr_scan"}}, {"name": "37db4d93f91f5a7796aa3b4aa2ee5729", "fusion_lat": 0.0, "type": "electric_scooter", "lat": 38.9446575, "is_reserved": 0, "is_disabled": 0, "fusion_lon": 0.0, "bike_id": "37db4d93f91f5a7796aa3b4aa2ee5729", "lon": -77.00661, "rental_uris": {"ios": "https://dc.lft.to/lastmile_qr_scan", "android": "https://dc.lft.to/lastmile_qr_scan"}}, {"name": "86c681c071f583b9d5877d05dae002b8", "fusion_lat": 0.0, "type": "electric_scooter", "lat": 38.877039833333335, "is_reserved": 0, "is_disabled": 0, "fusion_lon": 0.0, "bike_id": "86c681c071f583b9d5877d05dae002b8", "lon": -77.01771283333333, "rental_uris": {"ios": "https://dc.lft.to/lastmile_qr_scan", "android": "https://dc.lft.to/lastmile_qr_scan"}}, {"name": "9138f5f15b710de10284e63811f39185", "fusion_lat": 0.0, "type": "electric_scooter", "lat": 38.89941116666667, "is_reserved": 0, "is_disabled": 0, "fusion_lon": 0.0, "bike_id": "9138f5f15b710de10284e63811f39185", "lon": -77.02808233333333, "rental_uris": {"ios": "https://dc.lft.to/lastmile_qr_scan", "android": "https://dc.lft.to/lastmile_qr_scan"}}, {"name": "d9bf6bf777157fe317925c942d776444", "fusion_lat": 0.0, "type": "electric_scooter", "lat": 38.88343716666667, "is_reserved": 0, "is_disabled": 0, "fusion_lon": 0.0, "bike_id": "d9bf6bf777157fe317925c942d776444", "lon": -76.9364725, "rental_uris": {"ios": "https://dc.lft.to/lastmile_qr_scan", "android": "https://dc.lft.to/lastmile_qr_scan"}}, {"name": "4e5dab1b9d6ceea30d6a5281b437cbcc", "fusion_lat": 0.0, "type": "electric_scooter", "lat": 38.902030833333335, "is_reserved": 0, "is_disabled": 0, "fusion_lon": 0.0, "bike_id": "4e5dab1b9d6ceea30d6a5281b437cbcc", "lon": -77.02161966666667, "rental_uris": {"ios": "https://dc.lft.to/lastmile_qr_scan", "android": "https://dc.lft.to/lastmile_qr_scan"}}, {"name": "43e9f47689273dae7b8e46389a11df32", "fusion_lat": 0.0, "type": "electric_scooter", "lat": 38.927042166666666, "is_reserved": 0, "is_disabled": 0, "fusion_lon": 0.0, "bike_id": "43e9f47689273dae7b8e46389a11df32", "lon": -77.03732516666666, "rental_uris": {"ios": "https://dc.lft.to/lastmile_qr_scan", "android": "https://dc.lft.to/lastmile_qr_scan"}}, {"name": "1baa7b5d29c359d93ea6accbfa0c8569", "fusion_lat": 0.0, "type": "electric_scooter", "lat": 38.89550966666667, "is_reserved": 0, "is_disabled": 0, "fusion_lon": 0.0, "bike_id": "1baa7b5d29c359d93ea6accbfa0c8569", "lon": -76.98372533333334, "rental_uris": {"ios": "https://dc.lft.to/lastmile_qr_scan", "android": "https://dc.lft.to/lastmile_qr_scan"}}, {"name": "21b2c495fa7629f665e31daa493f3338", "fusion_lat": 0.0, "type": "electric_bike", "lat": 38.98457533333333, "is_reserved": 0, "is_disabled": 0, "fusion_lon": 0.0, "bike_id": "21b2c495fa7629f665e31daa493f3338", "lon": -76.95531166666666, "rental_uris": {"ios": "https://dc.lft.to/lastmile_qr_scan", "android": "https://dc.lft.to/lastmile_qr_scan"}}, {"name": "aacd7bf5032d064708472ca479da2319", "fusion_lat": 0.0, "type": "electric_scooter", "lat": 38.880447833333335, "is_reserved": 0, "is_disabled": 0, "fusion_lon": 0.0, "bike_id": "aacd7bf5032d064708472ca479da2319", "lon": -76.95990466666666, "rental_uris": {"ios": "https://dc.lft.to/lastmile_qr_scan", "android": "https://dc.lft.to/lastmile_qr_scan"}}, {"name": "250f901b55083f935467de2bb91d396e", "fusion_lat": 0.0, "type": "electric_scooter", "lat": 38.87836716666666, "is_reserved": 0, "is_disabled": 0, "fusion_lon": 0.0, "bike_id": "250f901b55083f935467de2bb91d396e", "lon": -77.02283683333333, "rental_uris": {"ios": "https://dc.lft.to/lastmile_qr_scan", "android": "https://dc.lft.to/lastmile_qr_scan"}}, {"name": "78ab638398d497d6298e3e4a22d5c88d", "fusion_lat": 0.0, "type": "electric_scooter", "lat": 38.878252333333336, "is_reserved": 0, "is_disabled": 0, "fusion_lon": 0.0, "bike_id": "78ab638398d497d6298e3e4a22d5c88d", "lon": -77.02257616666667, "rental_uris": {"ios": "https://dc.lft.to/lastmile_qr_scan", "android": "https://dc.lft.to/lastmile_qr_scan"}}, {"name": "656f3b4d578b04b0658772baee909b8d", "fusion_lat": 0.0, "type": "electric_scooter", "lat": 38.939076166666666, "is_reserved": 0, "is_disabled": 0, "fusion_lon": 0.0, "bike_id": "656f3b4d578b04b0658772baee909b8d", "lon": -77.03663433333334, "rental_uris": {"ios": "https://dc.lft.to/lastmile_qr_scan", "android": "https://dc.lft.to/lastmile_qr_scan"}}, {"name": "09fa8e6a31e7eec6dcc7eb2299b3107e", "fusion_lat": 0.0, "type": "electric_bike", "lat": 38.85218316666667, "is_reserved": 0, "is_disabled": 0, "fusion_lon": 0.0, "bike_id": "09fa8e6a31e7eec6dcc7eb2299b3107e", "lon": -77.12961933333334, "rental_uris": {"ios": "https://dc.lft.to/lastmile_qr_scan", "android": "https://dc.lft.to/lastmile_qr_scan"}}, {"name": "8cbb90b8536b1b9ad41e7b9d7ab87534", "fusion_lat": 0.0, "type": "electric_scooter", "lat": 38.9306155, "is_reserved": 0, "is_disabled": 0, "fusion_lon": 0.0, "bike_id": "8cbb90b8536b1b9ad41e7b9d7ab87534", "lon": -77.02322216666667, "rental_uris": {"ios": "https://dc.lft.to/lastmile_qr_scan", "android": "https://dc.lft.to/lastmile_qr_scan"}}, {"name": "85db26f1388fe7f4e18c47515dff6af3", "fusion_lat": 0.0, "type": "electric_scooter", "lat": 38.906733833333334, "is_reserved": 0, "is_disabled": 0, "fusion_lon": 0.0, "bike_id": "85db26f1388fe7f4e18c47515dff6af3", "lon": -77.038449, "rental_uris": {"ios": "https://dc.lft.to/lastmile_qr_scan", "android": "https://dc.lft.to/lastmile_qr_scan"}}, {"name": "dfe1bfc397bf03a243659843bf1e7cde", "fusion_lat": 0.0, "type": "electric_scooter", "lat": 38.8938935, "is_reserved": 0, "is_disabled": 0, "fusion_lon": 0.0, "bike_id": "dfe1bfc397bf03a243659843bf1e7cde", "lon": -77.054745, "rental_uris": {"ios": "https://dc.lft.to/lastmile_qr_scan", "android": "https://dc.lft.to/lastmile_qr_scan"}}, {"name": "06d565f47ec41d0fc14cfef9850cfca5", "fusion_lat": 0.0, "type": "electric_scooter", "lat": 38.90028, "is_reserved": 0, "is_disabled": 0, "fusion_lon": 0.0, "bike_id": "06d565f47ec41d0fc14cfef9850cfca5", "lon": -77.002224, "rental_uris": {"ios": "https://dc.lft.to/lastmile_qr_scan", "android": "https://dc.lft.to/lastmile_qr_scan"}}, {"name": "0eedeca842c6b40865d723db5265f458", "fusion_lat": 0.0, "type": "electric_scooter", "lat": 38.90052133333333, "is_reserved": 0, "is_disabled": 0, "fusion_lon": 0.0, "bike_id": "0eedeca842c6b40865d723db5265f458", "lon": -76.947521, "rental_uris": {"ios": "https://dc.lft.to/lastmile_qr_scan", "android": "https://dc.lft.to/lastmile_qr_scan"}}, {"name": "afa59c57c269ad8960554c0e96ac21fc", "fusion_lat": 0.0, "type": "electric_scooter", "lat": 38.90339066666667, "is_reserved": 0, "is_disabled": 0, "fusion_lon": 0.0, "bike_id": "afa59c57c269ad8960554c0e96ac21fc", "lon": -76.97109283333333, "rental_uris": {"ios": "https://dc.lft.to/lastmile_qr_scan", "android": "https://dc.lft.to/lastmile_qr_scan"}}, {"name": "b82fa8d99780378e8adb46301c94a07d", "fusion_lat": 0.0, "type": "electric_bike", "lat": 38.86594516666667, "is_reserved": 0, "is_disabled": 0, "fusion_lon": 0.0, "bike_id": "b82fa8d99780378e8adb46301c94a07d", "lon": -76.93228266666667, "rental_uris": {"ios": "https://dc.lft.to/lastmile_qr_scan", "android": "https://dc.lft.to/lastmile_qr_scan"}}, {"name": "ef0037e9fb709cee5fe46327f2258ed4", "fusion_lat": 0.0, "type": "electric_scooter", "lat": 38.883832, "is_reserved": 0, "is_disabled": 0, "fusion_lon": 0.0, "bike_id": "ef0037e9fb709cee5fe46327f2258ed4", "lon": -76.98564833333333, "rental_uris": {"ios": "https://dc.lft.to/lastmile_qr_scan", "android": "https://dc.lft.to/lastmile_qr_scan"}}, {"name": "254eba0bf27e200e390d961fe285ee79", "fusion_lat": 0.0, "type": "electric_scooter", "lat": 38.93726133333333, "is_reserved": 0, "is_disabled": 0, "fusion_lon": 0.0, "bike_id": "254eba0bf27e200e390d961fe285ee79", "lon": -77.02016433333333, "rental_uris": {"ios": "https://dc.lft.to/lastmile_qr_scan", "android": "https://dc.lft.to/lastmile_qr_scan"}}, {"name": "30873f493579fe59e245e913a70e1ece", "fusion_lat": 0.0, "type": "electric_scooter", "lat": 38.90174716666667, "is_reserved": 0, "is_disabled": 0, "fusion_lon": 0.0, "bike_id": "30873f493579fe59e245e913a70e1ece", "lon": -77.01622433333333, "rental_uris": {"ios": "https://dc.lft.to/lastmile_qr_scan", "android": "https://dc.lft.to/lastmile_qr_scan"}}, {"name": "52162822b95412f161aaf45f21ccd2ed", "fusion_lat": 0.0, "type": "electric_scooter", "lat": 38.90979816666667, "is_reserved": 0, "is_disabled": 0, "fusion_lon": 0.0, "bike_id": "52162822b95412f161aaf45f21ccd2ed", "lon": -77.0671565, "rental_uris": {"ios": "https://dc.lft.to/lastmile_qr_scan", "android": "https://dc.lft.to/lastmile_qr_scan"}}, {"name": "d3d4b363422ea611c79db7ba4e1f8245", "fusion_lat": 0.0, "type": "electric_scooter", "lat": 38.893728, "is_reserved": 0, "is_disabled": 0, "fusion_lon": 0.0, "bike_id": "d3d4b363422ea611c79db7ba4e1f8245", "lon": -76.94995566666667, "rental_uris": {"ios": "https://dc.lft.to/lastmile_qr_scan", "android": "https://dc.lft.to/lastmile_qr_scan"}}, {"name": "9230bf12660fd3a8805fbec2ecebde98", "fusion_lat": 0.0, "type": "electric_scooter", "lat": 38.9429045, "is_reserved": 0, "is_disabled": 0, "fusion_lon": 0.0, "bike_id": "9230bf12660fd3a8805fbec2ecebde98", "lon": -77.02168483333334, "rental_uris": {"ios": "https://dc.lft.to/lastmile_qr_scan", "android": "https://dc.lft.to/lastmile_qr_scan"}}, {"name": "ed4064f20a0f021b6322d937da8618c5", "fusion_lat": 0.0, "type": "electric_scooter", "lat": 38.91272633333333, "is_reserved": 0, "is_disabled": 0, "fusion_lon": 0.0, "bike_id": "ed4064f20a0f021b6322d937da8618c5", "lon": -77.02695783333333, "rental_uris": {"ios": "https://dc.lft.to/lastmile_qr_scan", "android": "https://dc.lft.to/lastmile_qr_scan"}}, {"name": "27aa1a3e7dfd85af04924c086a39b04b", "fusion_lat": 0.0, "type": "electric_bike", "lat": 38.9278265, "is_reserved": 0, "is_disabled": 0, "fusion_lon": 0.0, "bike_id": "27aa1a3e7dfd85af04924c086a39b04b", "lon": -77.05259266666667, "rental_uris": {"ios": "https://dc.lft.to/lastmile_qr_scan", "android": "https://dc.lft.to/lastmile_qr_scan"}}, {"name": "077fd637716b381d9739fbb564d77f31", "fusion_lat": 0.0, "type": "electric_scooter", "lat": 38.89225016666666, "is_reserved": 0, "is_disabled": 0, "fusion_lon": 0.0, "bike_id": "077fd637716b381d9739fbb564d77f31", "lon": -77.0302205, "rental_uris": {"ios": "https://dc.lft.to/lastmile_qr_scan", "android": "https://dc.lft.to/lastmile_qr_scan"}}, {"name": "c21496e4e70985a4f3339509dc84655e", "fusion_lat": 0.0, "type": "electric_scooter", "lat": 38.87920366666667, "is_reserved": 0, "is_disabled": 0, "fusion_lon": 0.0, "bike_id": "c21496e4e70985a4f3339509dc84655e", "lon": -76.99256266666667, "rental_uris": {"ios": "https://dc.lft.to/lastmile_qr_scan", "android": "https://dc.lft.to/lastmile_qr_scan"}}, {"name": "dcd4a3cc980250ff4731b8409f43b953", "fusion_lat": 0.0, "type": "electric_scooter", "lat": 38.91820716666667, "is_reserved": 0, "is_disabled": 0, "fusion_lon": 0.0, "bike_id": "dcd4a3cc980250ff4731b8409f43b953", "lon": -77.04006016666666, "rental_uris": {"ios": "https://dc.lft.to/lastmile_qr_scan", "android": "https://dc.lft.to/lastmile_qr_scan"}}, {"name": "5b299bd4a83d1fead0a36127099fd909", "fusion_lat": 0.0, "type": "electric_scooter", "lat": 38.897268833333335, "is_reserved": 0, "is_disabled": 0, "fusion_lon": 0.0, "bike_id": "5b299bd4a83d1fead0a36127099fd909", "lon": -77.04653416666666, "rental_uris": {"ios": "https://dc.lft.to/lastmile_qr_scan", "android": "https://dc.lft.to/lastmile_qr_scan"}}, {"name": "3a57b605ef1cf52c924dbb372411916b", "fusion_lat": 0.0, "type": "electric_scooter", "lat": 38.90904283333333, "is_reserved": 0, "is_disabled": 0, "fusion_lon": 0.0, "bike_id": "3a57b605ef1cf52c924dbb372411916b", "lon": -77.027142, "rental_uris": {"ios": "https://dc.lft.to/lastmile_qr_scan", "android": "https://dc.lft.to/lastmile_qr_scan"}}, {"name": "10533c600ff42e041e54c8944f794c22", "fusion_lat": 0.0, "type": "electric_scooter", "lat": 38.91919583333333, "is_reserved": 0, "is_disabled": 0, "fusion_lon": 0.0, "bike_id": "10533c600ff42e041e54c8944f794c22", "lon": -77.03191516666666, "rental_uris": {"ios": "https://dc.lft.to/lastmile_qr_scan", "android": "https://dc.lft.to/lastmile_qr_scan"}}, {"name": "7a755e1374122883a681780ef0ad5559", "fusion_lat": 0.0, "type": "electric_scooter", "lat": 38.902376833333335, "is_reserved": 0, "is_disabled": 0, "fusion_lon": 0.0, "bike_id": "7a755e1374122883a681780ef0ad5559", "lon": -77.00203616666667, "rental_uris": {"ios": "https://dc.lft.to/lastmile_qr_scan", "android": "https://dc.lft.to/lastmile_qr_scan"}}, {"name": "29f2cf53192981d86a3bed5e8fca6451", "fusion_lat": 0.0, "type": "electric_scooter", "lat": 38.93316183333334, "is_reserved": 0, "is_disabled": 0, "fusion_lon": 0.0, "bike_id": "29f2cf53192981d86a3bed5e8fca6451", "lon": -77.05078683333333, "rental_uris": {"ios": "https://dc.lft.to/lastmile_qr_scan", "android": "https://dc.lft.to/lastmile_qr_scan"}}, {"name": "2ddacc09f827aa7bcacaaf5dd0fb4996", "fusion_lat": 0.0, "type": "electric_scooter", "lat": 38.85848883333333, "is_reserved": 0, "is_disabled": 0, "fusion_lon": 0.0, "bike_id": "2ddacc09f827aa7bcacaaf5dd0fb4996", "lon": -76.98886533333334, "rental_uris": {"ios": "https://dc.lft.to/lastmile_qr_scan", "android": "https://dc.lft.to/lastmile_qr_scan"}}, {"name": "55b177defcd69decce7fe0860c18326c", "fusion_lat": 0.0, "type": "electric_scooter", "lat": 38.901925166666665, "is_reserved": 0, "is_disabled": 0, "fusion_lon": 0.0, "bike_id": "55b177defcd69decce7fe0860c18326c", "lon": -77.00752266666667, "rental_uris": {"ios": "https://dc.lft.to/lastmile_qr_scan", "android": "https://dc.lft.to/lastmile_qr_scan"}}, {"name": "285443a5038ae1f565340bc477017950", "fusion_lat": 0.0, "type": "electric_scooter", "lat": 38.8741615, "is_reserved": 0, "is_disabled": 0, "fusion_lon": 0.0, "bike_id": "285443a5038ae1f565340bc477017950", "lon": -76.960883, "rental_uris": {"ios": "https://dc.lft.to/lastmile_qr_scan", "android": "https://dc.lft.to/lastmile_qr_scan"}}, {"name": "2d5f012515c8e6e318be792f3526ebfd", "fusion_lat": 0.0, "type": "electric_scooter", "lat": 38.920630333333335, "is_reserved": 0, "is_disabled": 0, "fusion_lon": 0.0, "bike_id": "2d5f012515c8e6e318be792f3526ebfd", "lon": -77.04252066666666, "rental_uris": {"ios": "https://dc.lft.to/lastmile_qr_scan", "android": "https://dc.lft.to/lastmile_qr_scan"}}, {"name": "8ac9d346786be726bb9c5887cf23e83d", "fusion_lat": 0.0, "type": "electric_scooter", "lat": 38.927454166666664, "is_reserved": 0, "is_disabled": 0, "fusion_lon": 0.0, "bike_id": "8ac9d346786be726bb9c5887cf23e83d", "lon": -77.03478416666667, "rental_uris": {"ios": "https://dc.lft.to/lastmile_qr_scan", "android": "https://dc.lft.to/lastmile_qr_scan"}}, {"name": "18eebee75b01ed6aded7b09de9765157", "fusion_lat": 0.0, "type": "electric_scooter", "lat": 38.907148166666666, "is_reserved": 0, "is_disabled": 0, "fusion_lon": 0.0, "bike_id": "18eebee75b01ed6aded7b09de9765157", "lon": -77.03455216666667, "rental_uris": {"ios": "https://dc.lft.to/lastmile_qr_scan", "android": "https://dc.lft.to/lastmile_qr_scan"}}, {"name": "5e44c9c3e0d5c4a631be3835393504a6", "fusion_lat": 0.0, "type": "electric_scooter", "lat": 38.90701116666666, "is_reserved": 0, "is_disabled": 0, "fusion_lon": 0.0, "bike_id": "5e44c9c3e0d5c4a631be3835393504a6", "lon": -77.02380116666667, "rental_uris": {"ios": "https://dc.lft.to/lastmile_qr_scan", "android": "https://dc.lft.to/lastmile_qr_scan"}}, {"name": "f480b9017fdb8e0a4064e87da64f81b5", "fusion_lat": 0.0, "type": "electric_scooter", "lat": 38.920548833333335, "is_reserved": 0, "is_disabled": 0, "fusion_lon": 0.0, "bike_id": "f480b9017fdb8e0a4064e87da64f81b5", "lon": -76.9988515, "rental_uris": {"ios": "https://dc.lft.to/lastmile_qr_scan", "android": "https://dc.lft.to/lastmile_qr_scan"}}, {"name": "51143af1712bf79718fa846b68556d98", "fusion_lat": 0.0, "type": "electric_scooter", "lat": 38.87576983333334, "is_reserved": 0, "is_disabled": 0, "fusion_lon": 0.0, "bike_id": "51143af1712bf79718fa846b68556d98", "lon": -77.0106085, "rental_uris": {"ios": "https://dc.lft.to/lastmile_qr_scan", "android": "https://dc.lft.to/lastmile_qr_scan"}}, {"name": "b65ca1bf30913e11f58de0192c60ec57", "fusion_lat": 0.0, "type": "electric_scooter", "lat": 38.86660916666666, "is_reserved": 0, "is_disabled": 0, "fusion_lon": 0.0, "bike_id": "b65ca1bf30913e11f58de0192c60ec57", "lon": -76.98889116666666, "rental_uris": {"ios": "https://dc.lft.to/lastmile_qr_scan", "android": "https://dc.lft.to/lastmile_qr_scan"}}, {"name": "9e995358deca99611f06f0c79b67c97a", "fusion_lat": 0.0, "type": "electric_scooter", "lat": 38.90580883333333, "is_reserved": 0, "is_disabled": 0, "fusion_lon": 0.0, "bike_id": "9e995358deca99611f06f0c79b67c97a", "lon": -77.02208866666666, "rental_uris": {"ios": "https://dc.lft.to/lastmile_qr_scan", "android": "https://dc.lft.to/lastmile_qr_scan"}}, {"name": "657e0936a0835483ef44026d06decf5e", "fusion_lat": 0.0, "type": "electric_scooter", "lat": 38.92242516666666, "is_reserved": 0, "is_disabled": 0, "fusion_lon": 0.0, "bike_id": "657e0936a0835483ef44026d06decf5e", "lon": -77.03659416666666, "rental_uris": {"ios": "https://dc.lft.to/lastmile_qr_scan", "android": "https://dc.lft.to/lastmile_qr_scan"}}, {"name": "57eb67015580083c45f6cdb9591e1235", "fusion_lat": 0.0, "type": "electric_scooter", "lat": 38.8859975, "is_reserved": 0, "is_disabled": 0, "fusion_lon": 0.0, "bike_id": "57eb67015580083c45f6cdb9591e1235", "lon": -77.0196885, "rental_uris": {"ios": "https://dc.lft.to/lastmile_qr_scan", "android": "https://dc.lft.to/lastmile_qr_scan"}}, {"name": "03584a58b30c683dd8008aa309d177ce", "fusion_lat": 0.0, "type": "electric_scooter", "lat": 38.902676666666665, "is_reserved": 0, "is_disabled": 0, "fusion_lon": 0.0, "bike_id": "03584a58b30c683dd8008aa309d177ce", "lon": -77.01543916666667, "rental_uris": {"ios": "https://dc.lft.to/lastmile_qr_scan", "android": "https://dc.lft.to/lastmile_qr_scan"}}, {"name": "e0ce3939b89eafac0baf98b1eaa37e23", "fusion_lat": 0.0, "type": "electric_scooter", "lat": 38.9020045, "is_reserved": 0, "is_disabled": 0, "fusion_lon": 0.0, "bike_id": "e0ce3939b89eafac0baf98b1eaa37e23", "lon": -77.0169735, "rental_uris": {"ios": "https://dc.lft.to/lastmile_qr_scan", "android": "https://dc.lft.to/lastmile_qr_scan"}}, {"name": "1a2775742db1df9f5419aeacbac0a78c", "fusion_lat": 0.0, "type": "electric_bike", "lat": 38.937279833333335, "is_reserved": 0, "is_disabled": 0, "fusion_lon": 0.0, "bike_id": "1a2775742db1df9f5419aeacbac0a78c", "lon": -77.026871, "rental_uris": {"ios": "https://dc.lft.to/lastmile_qr_scan", "android": "https://dc.lft.to/lastmile_qr_scan"}}, {"name": "d3f5c77c509c3da31362a8addb43a15d", "fusion_lat": 0.0, "type": "electric_scooter", "lat": 38.94224366666667, "is_reserved": 0, "is_disabled": 0, "fusion_lon": 0.0, "bike_id": "d3f5c77c509c3da31362a8addb43a15d", "lon": -77.02164916666666, "rental_uris": {"ios": "https://dc.lft.to/lastmile_qr_scan", "android": "https://dc.lft.to/lastmile_qr_scan"}}, {"name": "cae7b291c7ebbba4388a452cd4fe4980", "fusion_lat": 0.0, "type": "electric_bike", "lat": 38.942750333333336, "is_reserved": 0, "is_disabled": 0, "fusion_lon": 0.0, "bike_id": "cae7b291c7ebbba4388a452cd4fe4980", "lon": -76.980779, "rental_uris": {"ios": "https://dc.lft.to/lastmile_qr_scan", "android": "https://dc.lft.to/lastmile_qr_scan"}}, {"name": "27d25d05817160492f53c84f5cc1d0d8", "fusion_lat": 0.0, "type": "electric_scooter", "lat": 38.92177316666667, "is_reserved": 0, "is_disabled": 0, "fusion_lon": 0.0, "bike_id": "27d25d05817160492f53c84f5cc1d0d8", "lon": -77.02661183333333, "rental_uris": {"ios": "https://dc.lft.to/lastmile_qr_scan", "android": "https://dc.lft.to/lastmile_qr_scan"}}, {"name": "8db6c2b814672fdb8e561690ca7691b2", "fusion_lat": 0.0, "type": "electric_scooter", "lat": 38.89220616666667, "is_reserved": 0, "is_disabled": 0, "fusion_lon": 0.0, "bike_id": "8db6c2b814672fdb8e561690ca7691b2", "lon": -77.02232433333333, "rental_uris": {"ios": "https://dc.lft.to/lastmile_qr_scan", "android": "https://dc.lft.to/lastmile_qr_scan"}}, {"name": "2c9d8ce6a8ccccbf773601b57b2d96fe", "fusion_lat": 0.0, "type": "electric_scooter", "lat": 38.917856666666665, "is_reserved": 0, "is_disabled": 0, "fusion_lon": 0.0, "bike_id": "2c9d8ce6a8ccccbf773601b57b2d96fe", "lon": -77.02346583333333, "rental_uris": {"ios": "https://dc.lft.to/lastmile_qr_scan", "android": "https://dc.lft.to/lastmile_qr_scan"}}, {"name": "75626d53cc5b5f920880a3a84db97bc5", "fusion_lat": 0.0, "type": "electric_bike", "lat": 38.874813333333336, "is_reserved": 0, "is_disabled": 0, "fusion_lon": 0.0, "bike_id": "75626d53cc5b5f920880a3a84db97bc5", "lon": -76.9652845, "rental_uris": {"ios": "https://dc.lft.to/lastmile_qr_scan", "android": "https://dc.lft.to/lastmile_qr_scan"}}, {"name": "13ff721c8ac8472d9b01238c4920c1b4", "fusion_lat": 0.0, "type": "electric_bike", "lat": 38.812250666666664, "is_reserved": 0, "is_disabled": 0, "fusion_lon": 0.0, "bike_id": "13ff721c8ac8472d9b01238c4920c1b4", "lon": -77.10417783333334, "rental_uris": {"ios": "https://dc.lft.to/lastmile_qr_scan", "android": "https://dc.lft.to/lastmile_qr_scan"}}, {"name": "c30c56bc4d60da19cab24020f6e88625", "fusion_lat": 0.0, "type": "electric_scooter", "lat": 38.883673, "is_reserved": 0, "is_disabled": 0, "fusion_lon": 0.0, "bike_id": "c30c56bc4d60da19cab24020f6e88625", "lon": -77.02608283333333, "rental_uris": {"ios": "https://dc.lft.to/lastmile_qr_scan", "android": "https://dc.lft.to/lastmile_qr_scan"}}, {"name": "f433deba9ea41d1a5acec90225c6db17", "fusion_lat": 0.0, "type": "electric_scooter", "lat": 38.918008, "is_reserved": 0, "is_disabled": 0, "fusion_lon": 0.0, "bike_id": "f433deba9ea41d1a5acec90225c6db17", "lon": -77.02817633333333, "rental_uris": {"ios": "https://dc.lft.to/lastmile_qr_scan", "android": "https://dc.lft.to/lastmile_qr_scan"}}, {"name": "e33a64a9f98ad5d7d548d8fb37712e78", "fusion_lat": 0.0, "type": "electric_bike", "lat": 38.93972, "is_reserved": 0, "is_disabled": 0, "fusion_lon": 0.0, "bike_id": "e33a64a9f98ad5d7d548d8fb37712e78", "lon": -76.95487633333333, "rental_uris": {"ios": "https://dc.lft.to/lastmile_qr_scan", "android": "https://dc.lft.to/lastmile_qr_scan"}}, {"name": "648a9b502a2d59216e5ce285cc6be36b", "fusion_lat": 0.0, "type": "electric_scooter", "lat": 38.9155425, "is_reserved": 0, "is_disabled": 0, "fusion_lon": 0.0, "bike_id": "648a9b502a2d59216e5ce285cc6be36b", "lon": -77.03832566666667, "rental_uris": {"ios": "https://dc.lft.to/lastmile_qr_scan", "android": "https://dc.lft.to/lastmile_qr_scan"}}, {"name": "31d026b9bb39d6464b63ab63691aadce", "fusion_lat": 0.0, "type": "electric_scooter", "lat": 38.921499833333336, "is_reserved": 0, "is_disabled": 0, "fusion_lon": 0.0, "bike_id": "31d026b9bb39d6464b63ab63691aadce", "lon": -77.03508866666667, "rental_uris": {"ios": "https://dc.lft.to/lastmile_qr_scan", "android": "https://dc.lft.to/lastmile_qr_scan"}}, {"name": "7deb541931e0f60a252e7ef197431987", "fusion_lat": 0.0, "type": "electric_scooter", "lat": 38.91041666666667, "is_reserved": 0, "is_disabled": 0, "fusion_lon": 0.0, "bike_id": "7deb541931e0f60a252e7ef197431987", "lon": -77.04845383333334, "rental_uris": {"ios": "https://dc.lft.to/lastmile_qr_scan", "android": "https://dc.lft.to/lastmile_qr_scan"}}, {"name": "2ee9a309e172b903ff604949e5f4b5f5", "fusion_lat": 0.0, "type": "electric_scooter", "lat": 38.863629833333334, "is_reserved": 0, "is_disabled": 0, "fusion_lon": 0.0, "bike_id": "2ee9a309e172b903ff604949e5f4b5f5", "lon": -76.990632, "rental_uris": {"ios": "https://dc.lft.to/lastmile_qr_scan", "android": "https://dc.lft.to/lastmile_qr_scan"}}, {"name": "337a16214c1cd9eb1536e8498366618f", "fusion_lat": 0.0, "type": "electric_scooter", "lat": 38.961584, "is_reserved": 0, "is_disabled": 0, "fusion_lon": 0.0, "bike_id": "337a16214c1cd9eb1536e8498366618f", "lon": -77.02810366666667, "rental_uris": {"ios": "https://dc.lft.to/lastmile_qr_scan", "android": "https://dc.lft.to/lastmile_qr_scan"}}, {"name": "def3f15bcb78e844ff6bfec4a11cec74", "fusion_lat": 0.0, "type": "electric_scooter", "lat": 38.94125716666667, "is_reserved": 0, "is_disabled": 0, "fusion_lon": 0.0, "bike_id": "def3f15bcb78e844ff6bfec4a11cec74", "lon": -77.020575, "rental_uris": {"ios": "https://dc.lft.to/lastmile_qr_scan", "android": "https://dc.lft.to/lastmile_qr_scan"}}, {"name": "6d5b11f2df08325a7551b3ee1ac35616", "fusion_lat": 0.0, "type": "electric_scooter", "lat": 38.903209833333335, "is_reserved": 0, "is_disabled": 0, "fusion_lon": 0.0, "bike_id": "6d5b11f2df08325a7551b3ee1ac35616", "lon": -77.03649266666666, "rental_uris": {"ios": "https://dc.lft.to/lastmile_qr_scan", "android": "https://dc.lft.to/lastmile_qr_scan"}}, {"name": "e07e5ca24bc33ead7a067cc51d08070a", "fusion_lat": 0.0, "type": "electric_scooter", "lat": 38.902380666666666, "is_reserved": 0, "is_disabled": 0, "fusion_lon": 0.0, "bike_id": "e07e5ca24bc33ead7a067cc51d08070a", "lon": -77.015074, "rental_uris": {"ios": "https://dc.lft.to/lastmile_qr_scan", "android": "https://dc.lft.to/lastmile_qr_scan"}}, {"name": "4c6e232f3c7a17ed6e87e3fa42134722", "fusion_lat": 0.0, "type": "electric_scooter", "lat": 38.893703333333335, "is_reserved": 0, "is_disabled": 0, "fusion_lon": 0.0, "bike_id": "4c6e232f3c7a17ed6e87e3fa42134722", "lon": -77.01180683333334, "rental_uris": {"ios": "https://dc.lft.to/lastmile_qr_scan", "android": "https://dc.lft.to/lastmile_qr_scan"}}, {"name": "75b4afb224033ba4638518ef7a453c31", "fusion_lat": 0.0, "type": "electric_scooter", "lat": 38.918417, "is_reserved": 0, "is_disabled": 0, "fusion_lon": 0.0, "bike_id": "75b4afb224033ba4638518ef7a453c31", "lon": -77.04494383333333, "rental_uris": {"ios": "https://dc.lft.to/lastmile_qr_scan", "android": "https://dc.lft.to/lastmile_qr_scan"}}, {"name": "ff997ab680114faaddc802a013c668f7", "fusion_lat": 0.0, "type": "electric_scooter", "lat": 38.8666055, "is_reserved": 0, "is_disabled": 0, "fusion_lon": 0.0, "bike_id": "ff997ab680114faaddc802a013c668f7", "lon": -76.98883566666666, "rental_uris": {"ios": "https://dc.lft.to/lastmile_qr_scan", "android": "https://dc.lft.to/lastmile_qr_scan"}}, {"name": "ec6dd6ecf684d48ccecbad116bd27d5b", "fusion_lat": 0.0, "type": "electric_scooter", "lat": 38.90266883333334, "is_reserved": 0, "is_disabled": 0, "fusion_lon": 0.0, "bike_id": "ec6dd6ecf684d48ccecbad116bd27d5b", "lon": -77.03920266666667, "rental_uris": {"ios": "https://dc.lft.to/lastmile_qr_scan", "android": "https://dc.lft.to/lastmile_qr_scan"}}, {"name": "1dc12b77e011bcb9d4a6bb93f575f084", "fusion_lat": 0.0, "type": "electric_scooter", "lat": 38.91259483333333, "is_reserved": 0, "is_disabled": 0, "fusion_lon": 0.0, "bike_id": "1dc12b77e011bcb9d4a6bb93f575f084", "lon": -77.0386845, "rental_uris": {"ios": "https://dc.lft.to/lastmile_qr_scan", "android": "https://dc.lft.to/lastmile_qr_scan"}}, {"name": "53f7f30afd7b721b97a559e09f810229", "fusion_lat": 0.0, "type": "electric_bike", "lat": 38.8561945, "is_reserved": 0, "is_disabled": 0, "fusion_lon": 0.0, "bike_id": "53f7f30afd7b721b97a559e09f810229", "lon": -77.085478, "rental_uris": {"ios": "https://dc.lft.to/lastmile_qr_scan", "android": "https://dc.lft.to/lastmile_qr_scan"}}, {"name": "844f55ab2613ee026a1c60c5b5cfb34c", "fusion_lat": 0.0, "type": "electric_scooter", "lat": 38.90717933333333, "is_reserved": 0, "is_disabled": 0, "fusion_lon": 0.0, "bike_id": "844f55ab2613ee026a1c60c5b5cfb34c", "lon": -77.00805616666666, "rental_uris": {"ios": "https://dc.lft.to/lastmile_qr_scan", "android": "https://dc.lft.to/lastmile_qr_scan"}}, {"name": "5fa619070fdd68e9c50de5d0e1ffd0d9", "fusion_lat": 0.0, "type": "electric_scooter", "lat": 38.905396, "is_reserved": 0, "is_disabled": 0, "fusion_lon": 0.0, "bike_id": "5fa619070fdd68e9c50de5d0e1ffd0d9", "lon": -77.06272766666666, "rental_uris": {"ios": "https://dc.lft.to/lastmile_qr_scan", "android": "https://dc.lft.to/lastmile_qr_scan"}}, {"name": "1e18ffed420bfc66fa56768e9175edff", "fusion_lat": 0.0, "type": "electric_scooter", "lat": 38.93080333333333, "is_reserved": 0, "is_disabled": 0, "fusion_lon": 0.0, "bike_id": "1e18ffed420bfc66fa56768e9175edff", "lon": -77.0279485, "rental_uris": {"ios": "https://dc.lft.to/lastmile_qr_scan", "android": "https://dc.lft.to/lastmile_qr_scan"}}, {"name": "dea963dbf55f54a1ea27cc94f8a6c994", "fusion_lat": 0.0, "type": "electric_scooter", "lat": 38.905203666666665, "is_reserved": 0, "is_disabled": 0, "fusion_lon": 0.0, "bike_id": "dea963dbf55f54a1ea27cc94f8a6c994", "lon": -77.02959733333333, "rental_uris": {"ios": "https://dc.lft.to/lastmile_qr_scan", "android": "https://dc.lft.to/lastmile_qr_scan"}}, {"name": "d86c292d83974aa1ffad3c6adc91b24a", "fusion_lat": 0.0, "type": "electric_scooter", "lat": 38.90371583333334, "is_reserved": 0, "is_disabled": 0, "fusion_lon": 0.0, "bike_id": "d86c292d83974aa1ffad3c6adc91b24a", "lon": -77.0502085, "rental_uris": {"ios": "https://dc.lft.to/lastmile_qr_scan", "android": "https://dc.lft.to/lastmile_qr_scan"}}, {"name": "1e8847c445f7839e5f1828aaa84ea31f", "fusion_lat": 0.0, "type": "electric_bike", "lat": 38.9037495, "is_reserved": 0, "is_disabled": 0, "fusion_lon": 0.0, "bike_id": "1e8847c445f7839e5f1828aaa84ea31f", "lon": -77.03997433333333, "rental_uris": {"ios": "https://dc.lft.to/lastmile_qr_scan", "android": "https://dc.lft.to/lastmile_qr_scan"}}, {"name": "57e4e002a1f50de9ec50011658fd4ce6", "fusion_lat": 0.0, "type": "electric_scooter", "lat": 38.926363, "is_reserved": 0, "is_disabled": 0, "fusion_lon": 0.0, "bike_id": "57e4e002a1f50de9ec50011658fd4ce6", "lon": -77.0369665, "rental_uris": {"ios": "https://dc.lft.to/lastmile_qr_scan", "android": "https://dc.lft.to/lastmile_qr_scan"}}, {"name": "e380735c1f1ab39ee7bc9610a9962d31", "fusion_lat": 0.0, "type": "electric_scooter", "lat": 38.89900816666667, "is_reserved": 0, "is_disabled": 0, "fusion_lon": 0.0, "bike_id": "e380735c1f1ab39ee7bc9610a9962d31", "lon": -77.02160833333333, "rental_uris": {"ios": "https://dc.lft.to/lastmile_qr_scan", "android": "https://dc.lft.to/lastmile_qr_scan"}}, {"name": "22d8ae140ca0b90d75d9bbdf18bf4604", "fusion_lat": 0.0, "type": "electric_scooter", "lat": 38.90549933333333, "is_reserved": 0, "is_disabled": 0, "fusion_lon": 0.0, "bike_id": "22d8ae140ca0b90d75d9bbdf18bf4604", "lon": -77.04759666666666, "rental_uris": {"ios": "https://dc.lft.to/lastmile_qr_scan", "android": "https://dc.lft.to/lastmile_qr_scan"}}, {"name": "509cecc6dd7bd96e3d184f73c97253c0", "fusion_lat": 0.0, "type": "electric_scooter", "lat": 38.9349825, "is_reserved": 0, "is_disabled": 0, "fusion_lon": 0.0, "bike_id": "509cecc6dd7bd96e3d184f73c97253c0", "lon": -77.0254785, "rental_uris": {"ios": "https://dc.lft.to/lastmile_qr_scan", "android": "https://dc.lft.to/lastmile_qr_scan"}}, {"name": "ca5c1830f50395f0367067ff7a2216c4", "fusion_lat": 0.0, "type": "electric_scooter", "lat": 38.889180833333334, "is_reserved": 0, "is_disabled": 0, "fusion_lon": 0.0, "bike_id": "ca5c1830f50395f0367067ff7a2216c4", "lon": -76.95376083333333, "rental_uris": {"ios": "https://dc.lft.to/lastmile_qr_scan", "android": "https://dc.lft.to/lastmile_qr_scan"}}, {"name": "5341aa03b33579e273ee43be2b6eb4e9", "fusion_lat": 0.0, "type": "electric_scooter", "lat": 38.921128, "is_reserved": 0, "is_disabled": 0, "fusion_lon": 0.0, "bike_id": "5341aa03b33579e273ee43be2b6eb4e9", "lon": -77.04388333333333, "rental_uris": {"ios": "https://dc.lft.to/lastmile_qr_scan", "android": "https://dc.lft.to/lastmile_qr_scan"}}, {"name": "2a06447cfd0d7d14706df582446e78bd", "fusion_lat": 0.0, "type": "electric_scooter", "lat": 38.928831, "is_reserved": 0, "is_disabled": 0, "fusion_lon": 0.0, "bike_id": "2a06447cfd0d7d14706df582446e78bd", "lon": -77.02309216666667, "rental_uris": {"ios": "https://dc.lft.to/lastmile_qr_scan", "android": "https://dc.lft.to/lastmile_qr_scan"}}, {"name": "13d8ffdf022dbee891e1de473c30233f", "fusion_lat": 0.0, "type": "electric_scooter", "lat": 38.898369333333335, "is_reserved": 0, "is_disabled": 0, "fusion_lon": 0.0, "bike_id": "13d8ffdf022dbee891e1de473c30233f", "lon": -77.03316383333333, "rental_uris": {"ios": "https://dc.lft.to/lastmile_qr_scan", "android": "https://dc.lft.to/lastmile_qr_scan"}}, {"name": "bd1956e36c7d203ac73dc5a095b24086", "fusion_lat": 0.0, "type": "electric_scooter", "lat": 38.92680283333333, "is_reserved": 0, "is_disabled": 0, "fusion_lon": 0.0, "bike_id": "bd1956e36c7d203ac73dc5a095b24086", "lon": -77.02782766666667, "rental_uris": {"ios": "https://dc.lft.to/lastmile_qr_scan", "android": "https://dc.lft.to/lastmile_qr_scan"}}, {"name": "9072e8f03bf429e926593628b940e630", "fusion_lat": 0.0, "type": "electric_scooter", "lat": 38.96562566666667, "is_reserved": 0, "is_disabled": 0, "fusion_lon": 0.0, "bike_id": "9072e8f03bf429e926593628b940e630", "lon": -77.0162405, "rental_uris": {"ios": "https://dc.lft.to/lastmile_qr_scan", "android": "https://dc.lft.to/lastmile_qr_scan"}}, {"name": "45ab2d68f09173810c2b186076607590", "fusion_lat": 0.0, "type": "electric_scooter", "lat": 38.90429533333333, "is_reserved": 0, "is_disabled": 0, "fusion_lon": 0.0, "bike_id": "45ab2d68f09173810c2b186076607590", "lon": -77.02600716666667, "rental_uris": {"ios": "https://dc.lft.to/lastmile_qr_scan", "android": "https://dc.lft.to/lastmile_qr_scan"}}, {"name": "eaffd0c98d1d17efc07efdd7a0ef8282", "fusion_lat": 0.0, "type": "electric_scooter", "lat": 38.938742833333336, "is_reserved": 0, "is_disabled": 0, "fusion_lon": 0.0, "bike_id": "eaffd0c98d1d17efc07efdd7a0ef8282", "lon": -77.03257733333334, "rental_uris": {"ios": "https://dc.lft.to/lastmile_qr_scan", "android": "https://dc.lft.to/lastmile_qr_scan"}}, {"name": "f3069c89729326286405ff0dfde1df78", "fusion_lat": 0.0, "type": "electric_bike", "lat": 38.92866133333333, "is_reserved": 0, "is_disabled": 0, "fusion_lon": 0.0, "bike_id": "f3069c89729326286405ff0dfde1df78", "lon": -76.96116266666667, "rental_uris": {"ios": "https://dc.lft.to/lastmile_qr_scan", "android": "https://dc.lft.to/lastmile_qr_scan"}}, {"name": "7d87bc609657eadea292c0dd80e4b310", "fusion_lat": 0.0, "type": "electric_scooter", "lat": 38.90561433333333, "is_reserved": 0, "is_disabled": 0, "fusion_lon": 0.0, "bike_id": "7d87bc609657eadea292c0dd80e4b310", "lon": -77.04872616666667, "rental_uris": {"ios": "https://dc.lft.to/lastmile_qr_scan", "android": "https://dc.lft.to/lastmile_qr_scan"}}, {"name": "1e59ab4b62007d39bdf7500a62544987", "fusion_lat": 0.0, "type": "electric_scooter", "lat": 38.89847416666667, "is_reserved": 0, "is_disabled": 0, "fusion_lon": 0.0, "bike_id": "1e59ab4b62007d39bdf7500a62544987", "lon": -77.02001466666667, "rental_uris": {"ios": "https://dc.lft.to/lastmile_qr_scan", "android": "https://dc.lft.to/lastmile_qr_scan"}}, {"name": "3196c7be5f115ba351969337749259fb", "fusion_lat": 0.0, "type": "electric_scooter", "lat": 38.923184166666665, "is_reserved": 0, "is_disabled": 0, "fusion_lon": 0.0, "bike_id": "3196c7be5f115ba351969337749259fb", "lon": -77.0546785, "rental_uris": {"ios": "https://dc.lft.to/lastmile_qr_scan", "android": "https://dc.lft.to/lastmile_qr_scan"}}, {"name": "73a092e09b57b50a2a117f1891e5a9e2", "fusion_lat": 0.0, "type": "electric_scooter", "lat": 38.90968816666667, "is_reserved": 0, "is_disabled": 0, "fusion_lon": 0.0, "bike_id": "73a092e09b57b50a2a117f1891e5a9e2", "lon": -77.017177, "rental_uris": {"ios": "https://dc.lft.to/lastmile_qr_scan", "android": "https://dc.lft.to/lastmile_qr_scan"}}, {"name": "8d3ea9eb08c998e6e615246fbeab253f", "fusion_lat": 0.0, "type": "electric_scooter", "lat": 38.93023433333333, "is_reserved": 0, "is_disabled": 0, "fusion_lon": 0.0, "bike_id": "8d3ea9eb08c998e6e615246fbeab253f", "lon": -77.03774383333334, "rental_uris": {"ios": "https://dc.lft.to/lastmile_qr_scan", "android": "https://dc.lft.to/lastmile_qr_scan"}}, {"name": "54512738ddbc4f6e18d961a515a94d25", "fusion_lat": 0.0, "type": "electric_scooter", "lat": 38.926385, "is_reserved": 0, "is_disabled": 0, "fusion_lon": 0.0, "bike_id": "54512738ddbc4f6e18d961a515a94d25", "lon": -77.03694383333334, "rental_uris": {"ios": "https://dc.lft.to/lastmile_qr_scan", "android": "https://dc.lft.to/lastmile_qr_scan"}}, {"name": "baffb36ece925f2ff1336d50d664a7d6", "fusion_lat": 0.0, "type": "electric_scooter", "lat": 38.832291833333336, "is_reserved": 0, "is_disabled": 0, "fusion_lon": 0.0, "bike_id": "baffb36ece925f2ff1336d50d664a7d6", "lon": -76.98894566666667, "rental_uris": {"ios": "https://dc.lft.to/lastmile_qr_scan", "android": "https://dc.lft.to/lastmile_qr_scan"}}, {"name": "a3609e486ae192c72a8df9cfd010d674", "fusion_lat": 0.0, "type": "electric_scooter", "lat": 38.92467233333333, "is_reserved": 0, "is_disabled": 0, "fusion_lon": 0.0, "bike_id": "a3609e486ae192c72a8df9cfd010d674", "lon": -77.02716033333333, "rental_uris": {"ios": "https://dc.lft.to/lastmile_qr_scan", "android": "https://dc.lft.to/lastmile_qr_scan"}}, {"name": "2dcdc00934339e499362968e151e9684", "fusion_lat": 0.0, "type": "electric_scooter", "lat": 38.89589133333333, "is_reserved": 0, "is_disabled": 0, "fusion_lon": 0.0, "bike_id": "2dcdc00934339e499362968e151e9684", "lon": -77.0426875, "rental_uris": {"ios": "https://dc.lft.to/lastmile_qr_scan", "android": "https://dc.lft.to/lastmile_qr_scan"}}, {"name": "9eba18162e05f7f8be8f323b09e66ef2", "fusion_lat": 0.0, "type": "electric_scooter", "lat": 38.927463, "is_reserved": 0, "is_disabled": 0, "fusion_lon": 0.0, "bike_id": "9eba18162e05f7f8be8f323b09e66ef2", "lon": -77.02430916666667, "rental_uris": {"ios": "https://dc.lft.to/lastmile_qr_scan", "android": "https://dc.lft.to/lastmile_qr_scan"}}, {"name": "f637aad89aecfdcedc4e8bbebdc65e0e", "fusion_lat": 0.0, "type": "electric_bike", "lat": 38.843481833333335, "is_reserved": 0, "is_disabled": 0, "fusion_lon": 0.0, "bike_id": "f637aad89aecfdcedc4e8bbebdc65e0e", "lon": -77.06402533333333, "rental_uris": {"ios": "https://dc.lft.to/lastmile_qr_scan", "android": "https://dc.lft.to/lastmile_qr_scan"}}, {"name": "9cf3fa29720ad42a296760e56ae782b9", "fusion_lat": 0.0, "type": "electric_bike", "lat": 38.97522983333333, "is_reserved": 0, "is_disabled": 0, "fusion_lon": 0.0, "bike_id": "9cf3fa29720ad42a296760e56ae782b9", "lon": -77.0168835, "rental_uris": {"ios": "https://dc.lft.to/lastmile_qr_scan", "android": "https://dc.lft.to/lastmile_qr_scan"}}, {"name": "ec423961a11d3442a73f1e07aa488010", "fusion_lat": 0.0, "type": "electric_scooter", "lat": 38.902394, "is_reserved": 0, "is_disabled": 0, "fusion_lon": 0.0, "bike_id": "ec423961a11d3442a73f1e07aa488010", "lon": -77.05408216666666, "rental_uris": {"ios": "https://dc.lft.to/lastmile_qr_scan", "android": "https://dc.lft.to/lastmile_qr_scan"}}, {"name": "012f8c47065fab3bbc7f895d5ab1a87b", "fusion_lat": 0.0, "type": "electric_scooter", "lat": 38.877494, "is_reserved": 0, "is_disabled": 0, "fusion_lon": 0.0, "bike_id": "012f8c47065fab3bbc7f895d5ab1a87b", "lon": -76.9724195, "rental_uris": {"ios": "https://dc.lft.to/lastmile_qr_scan", "android": "https://dc.lft.to/lastmile_qr_scan"}}, {"name": "2a4599fe9031027601f1a209fa820a1c", "fusion_lat": 0.0, "type": "electric_scooter", "lat": 38.901293833333334, "is_reserved": 0, "is_disabled": 0, "fusion_lon": 0.0, "bike_id": "2a4599fe9031027601f1a209fa820a1c", "lon": -77.03983883333333, "rental_uris": {"ios": "https://dc.lft.to/lastmile_qr_scan", "android": "https://dc.lft.to/lastmile_qr_scan"}}, {"name": "1a5e791ea01758af67f18bb4e6bef80b", "fusion_lat": 0.0, "type": "electric_scooter", "lat": 38.8972505, "is_reserved": 0, "is_disabled": 0, "fusion_lon": 0.0, "bike_id": "1a5e791ea01758af67f18bb4e6bef80b", "lon": -77.04728716666666, "rental_uris": {"ios": "https://dc.lft.to/lastmile_qr_scan", "android": "https://dc.lft.to/lastmile_qr_scan"}}, {"name": "de6ce159fba644f8eb9e1fdcec0ad68d", "fusion_lat": 0.0, "type": "electric_scooter", "lat": 38.889859666666666, "is_reserved": 0, "is_disabled": 0, "fusion_lon": 0.0, "bike_id": "de6ce159fba644f8eb9e1fdcec0ad68d", "lon": -77.00117383333334, "rental_uris": {"ios": "https://dc.lft.to/lastmile_qr_scan", "android": "https://dc.lft.to/lastmile_qr_scan"}}, {"name": "0a56191f6365d93e7814d85d894f6e77", "fusion_lat": 0.0, "type": "electric_scooter", "lat": 38.9483315, "is_reserved": 0, "is_disabled": 0, "fusion_lon": 0.0, "bike_id": "0a56191f6365d93e7814d85d894f6e77", "lon": -77.02552716666666, "rental_uris": {"ios": "https://dc.lft.to/lastmile_qr_scan", "android": "https://dc.lft.to/lastmile_qr_scan"}}, {"name": "bfd5920892f2c0e2aad63961d85d11be", "fusion_lat": 0.0, "type": "electric_scooter", "lat": 38.91867116666667, "is_reserved": 0, "is_disabled": 0, "fusion_lon": 0.0, "bike_id": "bfd5920892f2c0e2aad63961d85d11be", "lon": -77.0734795, "rental_uris": {"ios": "https://dc.lft.to/lastmile_qr_scan", "android": "https://dc.lft.to/lastmile_qr_scan"}}, {"name": "a2ef55d617aa40d173e6ebfb72ad163f", "fusion_lat": 0.0, "type": "electric_scooter", "lat": 38.915631166666664, "is_reserved": 0, "is_disabled": 0, "fusion_lon": 0.0, "bike_id": "a2ef55d617aa40d173e6ebfb72ad163f", "lon": -77.03239833333333, "rental_uris": {"ios": "https://dc.lft.to/lastmile_qr_scan", "android": "https://dc.lft.to/lastmile_qr_scan"}}, {"name": "f94c8b9f35a2ef66b99c0ccc95768f49", "fusion_lat": 0.0, "type": "electric_scooter", "lat": 38.92650583333333, "is_reserved": 0, "is_disabled": 0, "fusion_lon": 0.0, "bike_id": "f94c8b9f35a2ef66b99c0ccc95768f49", "lon": -77.033177, "rental_uris": {"ios": "https://dc.lft.to/lastmile_qr_scan", "android": "https://dc.lft.to/lastmile_qr_scan"}}, {"name": "7a046b17ec523f3536cbda4fe4847522", "fusion_lat": 0.0, "type": "electric_bike", "lat": 38.90677633333333, "is_reserved": 0, "is_disabled": 0, "fusion_lon": 0.0, "bike_id": "7a046b17ec523f3536cbda4fe4847522", "lon": -77.06371616666667, "rental_uris": {"ios": "https://dc.lft.to/lastmile_qr_scan", "android": "https://dc.lft.to/lastmile_qr_scan"}},