{"data": {"bikes": [{"fusion_lat": 0.0, "name": "2be98462f7126e149416b6973157bc58", "is_disabled": 0, "rental_uris": {"android": "https://dc.lft.to/lastmile_qr_scan", "ios": "https://dc.lft.to/lastmile_qr_scan"}, "fusion_lon": 0.0, "lat": 38.9001615, "bike_id": "2be98462f7126e149416b6973157bc58", "type": "electric_scooter", "is_reserved": 0, "lon": -77.04499683333333}, {"fusion_lat": 0.0, "name": "605ac19da58f4221d6740390665f5730", "is_disabled": 0, "rental_uris": {"android": "https://dc.lft.to/lastmile_qr_scan", "ios": "https://dc.lft.to/lastmile_qr_scan"}, "fusion_lon": 0.0, "lat": 38.90978116666667, "bike_id": "605ac19da58f4221d6740390665f5730", "type": "electric_scooter", "is_reserved": 0, "lon": -77.02183916666667}, {"fusion_lat": 0.0, "name": "7380e54fe2c68acaf55a51248528d2c7", "is_disabled": 0, "rental_uris": {"android": "https://dc.lft.to/lastmile_qr_scan", "ios": "https://dc.lft.to/lastmile_qr_scan"}, "fusion_lon": 0.0, "lat": 38.91653316666667, "bike_id": "7380e54fe2c68acaf55a51248528d2c7", "type": "electric_scooter", "is_reserved": 0, "lon": -77.03692466666666}, {"fusion_lat": 0.0, "name": "8e4fadb0a5d7fd0633ad1889df0fd16f", "is_disabled": 0, "rental_uris": {"android": "https://dc.lft.to/lastmile_qr_scan", "ios": "https://dc.lft.to/lastmile_qr_scan"}, "fusion_lon": 0.0, "lat": 38.958763, "bike_id": "8e4fadb0a5d7fd0633ad1889df0fd16f", "type": "electric_bike", "is_reserved": 0, "lon": -76.97053633333333}, {"fusion_lat": 0.0, "name": "85240f52a8713744420988c33cd9d922", "is_disabled": 0, "rental_uris": {"android": "https://dc.lft.to/lastmile_qr_scan", "ios": "https://dc.lft.to/lastmile_qr_scan"}, "fusion_lon": 0.0, "lat": 38.91323916666666, "bike_id": "85240f52a8713744420988c33cd9d922", "type": "electric_scooter", "is_reserved": 0, "lon": -77.02956633333334}, {"fusion_lat": 0.0, "name": "4811470d6aa0e36424178dba3f85e6c8", "is_disabled": 0, "rental_uris": {"android": "https://dc.lft.to/lastmile_qr_scan", "ios": "https://dc.lft.to/lastmile_qr_scan"}, "fusion_lon": 0.0, "lat": 38.9208985, "bike_id": "4811470d6aa0e36424178dba3f85e6c8", "type": "electric_scooter", "is_reserved": 0, "lon": -77.07367483333333}, {"fusion_lat": 0.0, "name": "81025acfe5537bb5a4c173e139b183fd", "is_disabled": 0, "rental_uris": {"android": "https://dc.lft.to/lastmile_qr_scan", "ios": "https://dc.lft.to/lastmile_qr_scan"}, "fusion_lon": 0.0, "lat": 38.89245716666667, "bike_id": "81025acfe5537bb5a4c173e139b183fd", "type": "electric_scooter", "is_reserved": 0, "lon": -77.032006}, {"fusion_lat": 0.0, "name": "ffa14ef41f1d190fd977700c9c5f16d6", "is_disabled": 0, "rental_uris": {"android": "https://dc.lft.to/lastmile_qr_scan", "ios": "https://dc.lft.to/lastmile_qr_scan"}, "fusion_lon": 0.0, "lat": 38.89843, "bike_id": "ffa14ef41f1d190fd977700c9c5f16d6", "type": "electric_scooter", "is_reserved": 0, "lon": -77.02628366666667}, {"fusion_lat": 0.0, "name": "57757c48658327685ca9038baf1e5a31", "is_disabled": 0, "rental_uris": {"android": "https://dc.lft.to/lastmile_qr_scan", "ios": "https://dc.lft.to/lastmile_qr_scan"}, "fusion_lon": 0.0, "lat": 38.95746233333333, "bike_id": "57757c48658327685ca9038baf1e5a31", "type": "electric_bike", "is_reserved": 0, "lon": -76.9725565}, {"fusion_lat": 0.0, "name": "faa7ea7a69bbb62dfe04580b4ac9a804", "is_disabled": 0, "rental_uris": {"android": "https://dc.lft.to/lastmile_qr_scan", "ios": "https://dc.lft.to/lastmile_qr_scan"}, "fusion_lon": 0.0, "lat": 38.920790333333336, "bike_id": "faa7ea7a69bbb62dfe04580b4ac9a804", "type": "electric_scooter", "is_reserved": 0, "lon": -77.02314166666666}, {"fusion_lat": 0.0, "name": "ed30010a095a9cef1236b30f3d18d06f", "is_disabled": 0, "rental_uris": {"android": "https://dc.lft.to/lastmile_qr_scan", "ios": "https://dc.lft.to/lastmile_qr_scan"}, "fusion_lon": 0.0, "lat": 38.922712, "bike_id": "ed30010a095a9cef1236b30f3d18d06f", "type": "electric_scooter", "is_reserved": 0, "lon": -76.99129683333334}, {"fusion_lat": 0.0, "name": "22abd5995c342fa79205a137caa8ded2", "is_disabled": 0, "rental_uris": {"android": "https://dc.lft.to/lastmile_qr_scan", "ios": "https://dc.lft.to/lastmile_qr_scan"}, "fusion_lon": 0.0, "lat": 38.91785216666667, "bike_id": "22abd5995c342fa79205a137caa8ded2", "type": "electric_scooter", "is_reserved": 0, "lon": -77.02691216666666}, {"fusion_lat": 0.0, "name": "fcbb8bd143d2727b426fb2c011ab5839", "is_disabled": 0, "rental_uris": {"android": "https://dc.lft.to/lastmile_qr_scan", "ios": "https://dc.lft.to/lastmile_qr_scan"}, "fusion_lon": 0.0, "lat": 38.95071633333333, "bike_id": "fcbb8bd143d2727b426fb2c011ab5839", "type": "electric_bike", "is_reserved": 0, "lon": -77.072254}, {"fusion_lat": 0.0, "name": "6f51e59dd0f15d765e3d09eec2ccb80e", "is_disabled": 0, "rental_uris": {"android": "https://dc.lft.to/lastmile_qr_scan", "ios": "https://dc.lft.to/lastmile_qr_scan"}, "fusion_lon": 0.0, "lat": 38.92664033333333, "bike_id": "6f51e59dd0f15d765e3d09eec2ccb80e", "type": "electric_bike", "is_reserved": 0, "lon": -77.09851533333334}, {"fusion_lat": 0.0, "name": "0b76435587d8569cd46a2726a409401c", "is_disabled": 0, "rental_uris": {"android": "https://dc.lft.to/lastmile_qr_scan", "ios": "https://dc.lft.to/lastmile_qr_scan"}, "fusion_lon": 0.0, "lat": 38.95637966666666, "bike_id": "0b76435587d8569cd46a2726a409401c", "type": "electric_scooter", "is_reserved": 0, "lon": -77.0330475}, {"fusion_lat": 0.0, "name": "2ac18c215a6a39e114cf49d93c9f85d3", "is_disabled": 0, "rental_uris": {"android": "https://dc.lft.to/lastmile_qr_scan", "ios": "https://dc.lft.to/lastmile_qr_scan"}, "fusion_lon": 0.0, "lat": 38.91329133333333, "bike_id": "2ac18c215a6a39e114cf49d93c9f85d3", "type": "electric_scooter", "is_reserved": 0, "lon": -77.03192016666667}, {"fusion_lat": 0.0, "name": "ea1058d93fc0a3a95075e25d44d8bb65", "is_disabled": 0, "rental_uris": {"android": "https://dc.lft.to/lastmile_qr_scan", "ios": "https://dc.lft.to/lastmile_qr_scan"}, "fusion_lon": 0.0, "lat": 38.916667, "bike_id": "ea1058d93fc0a3a95075e25d44d8bb65", "type": "electric_scooter", "is_reserved": 0, "lon": -77.03857116666667}, {"fusion_lat": 0.0, "name": "422105e020c3cf3c247dd91c8f99199f", "is_disabled": 0, "rental_uris": {"android": "https://dc.lft.to/lastmile_qr_scan", "ios": "https://dc.lft.to/lastmile_qr_scan"}, "fusion_lon": 0.0, "lat": 38.892403, "bike_id": "422105e020c3cf3c247dd91c8f99199f", "type": "electric_scooter", "is_reserved": 0, "lon": -77.02582633333333}, {"fusion_lat": 0.0, "name": "e4a4af5601a4507d14fd4d0ab0c31a5e", "is_disabled": 0, "rental_uris": {"android": "https://dc.lft.to/lastmile_qr_scan", "ios": "https://dc.lft.to/lastmile_qr_scan"}, "fusion_lon": 0.0, "lat": 38.907369333333335, "bike_id": "e4a4af5601a4507d14fd4d0ab0c31a5e", "type": "electric_scooter", "is_reserved": 0, "lon": -77.03860333333333}, {"fusion_lat": 0.0, "name": "f7c3e1f2721632cf0210de036bed5499", "is_disabled": 0, "rental_uris": {"android": "https://dc.lft.to/lastmile_qr_scan", "ios": "https://dc.lft.to/lastmile_qr_scan"}, "fusion_lon": 0.0, "lat": 38.906842, "bike_id": "f7c3e1f2721632cf0210de036bed5499", "type": "electric_scooter", "is_reserved": 0, "lon": -77.04721516666666}, {"fusion_lat": 0.0, "name": "d156d16c2f486e908af4f7fdf476af1f", "is_disabled": 0, "rental_uris": {"android": "https://dc.lft.to/lastmile_qr_scan", "ios": "https://dc.lft.to/lastmile_qr_scan"}, "fusion_lon": 0.0, "lat": 38.8790085, "bike_id": "d156d16c2f486e908af4f7fdf476af1f", "type": "electric_scooter", "is_reserved": 0, "lon": -77.01361916666667}, {"fusion_lat": 0.0, "name": "ad769693579e82331049da60dc583494", "is_disabled": 0, "rental_uris": {"android": "https://dc.lft.to/lastmile_qr_scan", "ios": "https://dc.lft.to/lastmile_qr_scan"}, "fusion_lon": 0.0, "lat": 38.92601716666667, "bike_id": "ad769693579e82331049da60dc583494", "type": "electric_scooter", "is_reserved": 0, "lon": -77.02150283333333}, {"fusion_lat": 0.0, "name": "56955ffadc2d89f1f4125258de0d9ff1", "is_disabled": 0, "rental_uris": {"android": "https://dc.lft.to/lastmile_qr_scan", "ios": "https://dc.lft.to/lastmile_qr_scan"}, "fusion_lon": 0.0, "lat": 38.898261833333336, "bike_id": "56955ffadc2d89f1f4125258de0d9ff1", "type": "electric_scooter", "is_reserved": 0, "lon": -76.94651716666667}, {"fusion_lat": 0.0, "name": "04e97d34d383ecab124b28335603f833", "is_disabled": 0, "rental_uris": {"android": "https://dc.lft.to/lastmile_qr_scan", "ios": "https://dc.lft.to/lastmile_qr_scan"}, "fusion_lon": 0.0, "lat": 38.94412633333334, "bike_id": "04e97d34d383ecab124b28335603f833", "type": "electric_scooter", "is_reserved": 0, "lon": -77.03203183333333}, {"fusion_lat": 0.0, "name": "ed6cb0e4bcc6752cd5c88bc6da110bff", "is_disabled": 0, "rental_uris": {"android": "https://dc.lft.to/lastmile_qr_scan", "ios": "https://dc.lft.to/lastmile_qr_scan"}, "fusion_lon": 0.0, "lat": 38.91773033333333, "bike_id": "ed6cb0e4bcc6752cd5c88bc6da110bff", "type": "electric_scooter", "is_reserved": 0, "lon": -77.01499216666667}, {"fusion_lat": 0.0, "name": "d8f8ab0aca5482f150a3af5e5f979c24", "is_disabled": 0, "rental_uris": {"android": "https://dc.lft.to/lastmile_qr_scan", "ios": "https://dc.lft.to/lastmile_qr_scan"}, "fusion_lon": 0.0, "lat": 38.927665833333336, "bike_id": "d8f8ab0aca5482f150a3af5e5f979c24", "type": "electric_scooter", "is_reserved": 0, "lon": -77.01615483333333}, {"fusion_lat": 0.0, "name": "352384d6946e908b16174d85d55dce5d", "is_disabled": 0, "rental_uris": {"android": "https://dc.lft.to/lastmile_qr_scan", "ios": "https://dc.lft.to/lastmile_qr_scan"}, "fusion_lon": 0.0, "lat": 38.90581183333333, "bike_id": "352384d6946e908b16174d85d55dce5d", "type": "electric_scooter", "is_reserved": 0, "lon": -77.02207283333334}, {"fusion_lat": 0.0, "name": "beabebfa9922def6caa5fc91569ee467", "is_disabled": 0, "rental_uris": {"android": "https://dc.lft.to/lastmile_qr_scan", "ios": "https://dc.lft.to/lastmile_qr_scan"}, "fusion_lon": 0.0, "lat": 38.905575666666664, "bike_id": "beabebfa9922def6caa5fc91569ee467", "type": "electric_scooter", "is_reserved": 0, "lon": -77.046351}, {"fusion_lat": 0.0, "name": "a91c063887a852cd0b62f606194c80bf", "is_disabled": 0, "rental_uris": {"android": "https://dc.lft.to/lastmile_qr_scan", "ios": "https://dc.lft.to/lastmile_qr_scan"}, "fusion_lon": 0.0, "lat": 38.92375833333333, "bike_id": "a91c063887a852cd0b62f606194c80bf", "type": "electric_scooter", "is_reserved": 0, "lon": -77.02137883333333}, {"fusion_lat": 0.0, "name": "57da1670e010e2b7c48d19fb201941d4", "is_disabled": 0, "rental_uris": {"android": "https://dc.lft.to/lastmile_qr_scan", "ios": "https://dc.lft.to/lastmile_qr_scan"}, "fusion_lon": 0.0, "lat": 38.90780083333333, "bike_id": "57da1670e010e2b7c48d19fb201941d4", "type": "electric_scooter", "is_reserved": 0, "lon": -77.038456}, {"fusion_lat": 0.0, "name": "5226aee2d5b1acdf49ff8b5b7dab6147", "is_disabled": 0, "rental_uris": {"android": "https://dc.lft.to/lastmile_qr_scan", "ios": "https://dc.lft.to/lastmile_qr_scan"}, "fusion_lon": 0.0, "lat": 38.907905666666665, "bike_id": "5226aee2d5b1acdf49ff8b5b7dab6147", "type": "electric_scooter", "is_reserved": 0, "lon": -77.034372}, {"fusion_lat": 0.0, "name": "87c8278f90aaeff25eb824f15be31012", "is_disabled": 0, "rental_uris": {"android": "https://dc.lft.to/lastmile_qr_scan", "ios": "https://dc.lft.to/lastmile_qr_scan"}, "fusion_lon": 0.0, "lat": 38.91326566666667, "bike_id": "87c8278f90aaeff25eb824f15be31012", "type": "electric_scooter", "is_reserved": 0, "lon": -77.021365}, {"fusion_lat": 0.0, "name": "e7196bd7e2a1baa25d770eaafadbee85", "is_disabled": 0, "rental_uris": {"android": "https://dc.lft.to/lastmile_qr_scan", "ios": "https://dc.lft.to/lastmile_qr_scan"}, "fusion_lon": 0.0, "lat": 38.88338, "bike_id": "e7196bd7e2a1baa25d770eaafadbee85", "type": "electric_scooter", "is_reserved": 0, "lon": -77.016862}, {"fusion_lat": 0.0, "name": "66171330966c0e8fd8ba8ebae55aa9d4", "is_disabled": 0, "rental_uris": {"android": "https://dc.lft.to/lastmile_qr_scan", "ios": "https://dc.lft.to/lastmile_qr_scan"}, "fusion_lon": 0.0, "lat": 38.924784833333334, "bike_id": "66171330966c0e8fd8ba8ebae55aa9d4", "type": "electric_bike", "is_reserved": 0, "lon": -77.0390915}, {"fusion_lat": 0.0, "name": "e81c0edb36703062d2a3ff50e9a7d27e", "is_disabled": 0, "rental_uris": {"android": "https://dc.lft.to/lastmile_qr_scan", "ios": "https://dc.lft.to/lastmile_qr_scan"}, "fusion_lon": 0.0, "lat": 38.89605266666667, "bike_id": "e81c0edb36703062d2a3ff50e9a7d27e", "type": "electric_scooter", "is_reserved": 0, "lon": -77.0092825}, {"fusion_lat": 0.0, "name": "c7f7199d4d557984d35a240004699051", "is_disabled": 0, "rental_uris": {"android": "https://dc.lft.to/lastmile_qr_scan", "ios": "https://dc.lft.to/lastmile_qr_scan"}, "fusion_lon": 0.0, "lat": 38.928264166666665, "bike_id": "c7f7199d4d557984d35a240004699051", "type": "electric_scooter", "is_reserved": 0, "lon": -77.0544015}, {"fusion_lat": 0.0, "name": "0afb87deef3e439113decdacdbe98888", "is_disabled": 0, "rental_uris": {"android": "https://dc.lft.to/lastmile_qr_scan", "ios": "https://dc.lft.to/lastmile_qr_scan"}, "fusion_lon": 0.0, "lat": 38.884917333333334, "bike_id": "0afb87deef3e439113decdacdbe98888", "type": "electric_scooter", "is_reserved": 0, "lon": -77.01085466666666}, {"fusion_lat": 0.0, "name": "901dec31959012cd4f79029f826a3c16", "is_disabled": 0, "rental_uris": {"android": "https://dc.lft.to/lastmile_qr_scan", "ios": "https://dc.lft.to/lastmile_qr_scan"}, "fusion_lon": 0.0, "lat": 38.89227833333333, "bike_id": "901dec31959012cd4f79029f826a3c16", "type": "electric_scooter", "is_reserved": 0, "lon": -77.043963}, {"fusion_lat": 0.0, "name": "6855f6fe9debe1fbb74b38f30c810977", "is_disabled": 0, "rental_uris": {"android": "https://dc.lft.to/lastmile_qr_scan", "ios": "https://dc.lft.to/lastmile_qr_scan"}, "fusion_lon": 0.0, "lat": 38.88466616666667, "bike_id": "6855f6fe9debe1fbb74b38f30c810977", "type": "electric_scooter", "is_reserved": 0, "lon": -77.01509683333333}, {"fusion_lat": 0.0, "name": "7a044833758d42f6c57286615df5c381", "is_disabled": 0, "rental_uris": {"android": "https://dc.lft.to/lastmile_qr_scan", "ios": "https://dc.lft.to/lastmile_qr_scan"}, "fusion_lon": 0.0, "lat": 38.919192, "bike_id": "7a044833758d42f6c57286615df5c381", "type": "electric_scooter", "is_reserved": 0, "lon": -77.02464533333334}, {"fusion_lat": 0.0, "name": "1b7ef8d00aea357842a1ab73681c01a0", "is_disabled": 0, "rental_uris": {"android": "https://dc.lft.to/lastmile_qr_scan", "ios": "https://dc.lft.to/lastmile_qr_scan"}, "fusion_lon": 0.0, "lat": 38.8833245, "bike_id": "1b7ef8d00aea357842a1ab73681c01a0", "type": "electric_scooter", "is_reserved": 0, "lon": -77.01766216666667}, {"fusion_lat": 0.0, "name": "bb39db91033b6fa8e760fcbd738ff791", "is_disabled": 0, "rental_uris": {"android": "https://dc.lft.to/lastmile_qr_scan", "ios": "https://dc.lft.to/lastmile_qr_scan"}, "fusion_lon": 0.0, "lat": 38.9319615, "bike_id": "bb39db91033b6fa8e760fcbd738ff791", "type": "electric_bike", "is_reserved": 0, "lon": -77.229267}, {"fusion_lat": 0.0, "name": "c3b50339ffef73cf21a0bc71b1ba1d53", "is_disabled": 0, "rental_uris": {"android": "https://dc.lft.to/lastmile_qr_scan", "ios": "https://dc.lft.to/lastmile_qr_scan"}, "fusion_lon": 0.0, "lat": 38.813323, "bike_id": "c3b50339ffef73cf21a0bc71b1ba1d53", "type": "electric_bike", "is_reserved": 0, "lon": -77.05093083333334}, {"fusion_lat": 0.0, "name": "c38af0f030e3a9921d5cc77ac9c1ae1c", "is_disabled": 0, "rental_uris": {"android": "https://dc.lft.to/lastmile_qr_scan", "ios": "https://dc.lft.to/lastmile_qr_scan"}, "fusion_lon": 0.0, "lat": 38.92480183333333, "bike_id": "c38af0f030e3a9921d5cc77ac9c1ae1c", "type": "electric_scooter", "is_reserved": 0, "lon": -77.02628433333334}, {"fusion_lat": 0.0, "name": "7a5f1031eca6dc76c0638ec8eb912a9f", "is_disabled": 0, "rental_uris": {"android": "https://dc.lft.to/lastmile_qr_scan", "ios": "https://dc.lft.to/lastmile_qr_scan"}, "fusion_lon": 0.0, "lat": 38.900395333333336, "bike_id": "7a5f1031eca6dc76c0638ec8eb912a9f", "type": "electric_scooter", "is_reserved": 0, "lon": -77.002099}, {"fusion_lat": 0.0, "name": "56918d47ec8dfd6ad573a28287638c5c", "is_disabled": 0, "rental_uris": {"android": "https://dc.lft.to/lastmile_qr_scan", "ios": "https://dc.lft.to/lastmile_qr_scan"}, "fusion_lon": 0.0, "lat": 38.89259083333334, "bike_id": "56918d47ec8dfd6ad573a28287638c5c", "type": "electric_scooter", "is_reserved": 0, "lon": -77.02579716666666}, {"fusion_lat": 0.0, "name": "0de6adfc836be56d2ec91d35d450c122", "is_disabled": 0, "rental_uris": {"android": "https://dc.lft.to/lastmile_qr_scan", "ios": "https://dc.lft.to/lastmile_qr_scan"}, "fusion_lon": 0.0, "lat": 38.92251, "bike_id": "0de6adfc836be56d2ec91d35d450c122", "type": "electric_scooter", "is_reserved": 0, "lon": -77.074708}, {"fusion_lat": 0.0, "name": "74a9b421379bbbe404e2705980aaf939", "is_disabled": 0, "rental_uris": {"android": "https://dc.lft.to/lastmile_qr_scan", "ios": "https://dc.lft.to/lastmile_qr_scan"}, "fusion_lon": 0.0, "lat": 38.935131166666665, "bike_id": "74a9b421379bbbe404e2705980aaf939", "type": "electric_scooter", "is_reserved": 0, "lon": -77.0326305}, {"fusion_lat": 0.0, "name": "d8945e4543d8cc00ff59c99b2d4dc341", "is_disabled": 0, "rental_uris": {"android": "https://dc.lft.to/lastmile_qr_scan", "ios": "https://dc.lft.to/lastmile_qr_scan"}, "fusion_lon": 0.0, "lat": 38.920615833333336, "bike_id": "d8945e4543d8cc00ff59c99b2d4dc341", "type": "electric_scooter", "is_reserved": 0, "lon": -77.0426135}, {"fusion_lat": 0.0, "name": "6e61bb47014fc7217665192740a57933", "is_disabled": 0, "rental_uris": {"android": "https://dc.lft.to/lastmile_qr_scan", "ios": "https://dc.lft.to/lastmile_qr_scan"}, "fusion_lon": 0.0, "lat": 38.94054666666667, "bike_id": "6e61bb47014fc7217665192740a57933", "type": "electric_bike", "is_reserved": 0, "lon": -76.904189}, {"fusion_lat": 0.0, "name": "8fbedd0a5946408af6e80c89356eb929", "is_disabled": 0, "rental_uris": {"android": "https://dc.lft.to/lastmile_qr_scan", "ios": "https://dc.lft.to/lastmile_qr_scan"}, "fusion_lon": 0.0, "lat": 38.90410416666667, "bike_id": "8fbedd0a5946408af6e80c89356eb929", "type": "electric_scooter", "is_reserved": 0, "lon": -77.0249825}, {"fusion_lat": 0.0, "name": "21f3e77a990ab086fea3aa7c64e5981e", "is_disabled": 0, "rental_uris": {"android": "https://dc.lft.to/lastmile_qr_scan", "ios": "https://dc.lft.to/lastmile_qr_scan"}, "fusion_lon": 0.0, "lat": 38.90423166666667, "bike_id": "21f3e77a990ab086fea3aa7c64e5981e", "type": "electric_scooter", "is_reserved": 0, "lon": -77.00143366666667}, {"fusion_lat": 0.0, "name": "ad83542f411cdd77461261cc2241bbf1", "is_disabled": 0, "rental_uris": {"android": "https://dc.lft.to/lastmile_qr_scan", "ios": "https://dc.lft.to/lastmile_qr_scan"}, "fusion_lon": 0.0, "lat": 38.98671133333333, "bike_id": "ad83542f411cdd77461261cc2241bbf1", "type": "electric_bike", "is_reserved": 0, "lon": -76.9999615}, {"fusion_lat": 0.0, "name": "87310f6a2239f4318b80cb3e8967fa60", "is_disabled": 0, "rental_uris": {"android": "https://dc.lft.to/lastmile_qr_scan", "ios": "https://dc.lft.to/lastmile_qr_scan"}, "fusion_lon": 0.0, "lat": 38.99445583333333, "bike_id": "87310f6a2239f4318b80cb3e8967fa60", "type": "electric_bike", "is_reserved": 0, "lon": -76.99589283333333}, {"fusion_lat": 0.0, "name": "c62e35efe2f4e4632d797ab3fa1453ff", "is_disabled": 0, "rental_uris": {"android": "https://dc.lft.to/lastmile_qr_scan", "ios": "https://dc.lft.to/lastmile_qr_scan"}, "fusion_lon": 0.0, "lat": 38.892358, "bike_id": "c62e35efe2f4e4632d797ab3fa1453ff", "type": "electric_scooter", "is_reserved": 0, "lon": -77.03173533333333}, {"fusion_lat": 0.0, "name": "3999f30f3c46724591221727a549eb0d", "is_disabled": 0, "rental_uris": {"android": "https://dc.lft.to/lastmile_qr_scan", "ios": "https://dc.lft.to/lastmile_qr_scan"}, "fusion_lon": 0.0, "lat": 38.935448, "bike_id": "3999f30f3c46724591221727a549eb0d", "type": "electric_scooter", "is_reserved": 0, "lon": -77.03266033333334}, {"fusion_lat": 0.0, "name": "af8116bf2fb0912183a9b985658d11f2", "is_disabled": 0, "rental_uris": {"android": "https://dc.lft.to/lastmile_qr_scan", "ios": "https://dc.lft.to/lastmile_qr_scan"}, "fusion_lon": 0.0, "lat": 38.87107783333333, "bike_id": "af8116bf2fb0912183a9b985658d11f2", "type": "electric_scooter", "is_reserved": 0, "lon": -76.96592233333334}, {"fusion_lat": 0.0, "name": "2e643cba6ca036d9d1fe3f1be60a2b64", "is_disabled": 0, "rental_uris": {"android": "https://dc.lft.to/lastmile_qr_scan", "ios": "https://dc.lft.to/lastmile_qr_scan"}, "fusion_lon": 0.0, "lat": 38.9166315, "bike_id": "2e643cba6ca036d9d1fe3f1be60a2b64", "type": "electric_scooter", "is_reserved": 0, "lon": -77.03457266666666}, {"fusion_lat": 0.0, "name": "22fdae15cb810761970d3aa83abd4263", "is_disabled": 0, "rental_uris": {"android": "https://dc.lft.to/lastmile_qr_scan", "ios": "https://dc.lft.to/lastmile_qr_scan"}, "fusion_lon": 0.0, "lat": 38.907800333333334, "bike_id": "22fdae15cb810761970d3aa83abd4263", "type": "electric_scooter", "is_reserved": 0, "lon": -77.00405916666666}, {"fusion_lat": 0.0, "name": "bee8f686051332f77c9ea00fa30b2c62", "is_disabled": 0, "rental_uris": {"android": "https://dc.lft.to/lastmile_qr_scan", "ios": "https://dc.lft.to/lastmile_qr_scan"}, "fusion_lon": 0.0, "lat": 38.917224166666664, "bike_id": "bee8f686051332f77c9ea00fa30b2c62", "type": "electric_scooter", "is_reserved": 0, "lon": -77.02887516666667}, {"fusion_lat": 0.0, "name": "c7042ef8726b9e26b61575a7225458d4", "is_disabled": 0, "rental_uris": {"android": "https://dc.lft.to/lastmile_qr_scan", "ios": "https://dc.lft.to/lastmile_qr_scan"}, "fusion_lon": 0.0, "lat": 38.916964166666666, "bike_id": "c7042ef8726b9e26b61575a7225458d4", "type": "electric_scooter", "is_reserved": 0, "lon": -77.02526233333333}, {"fusion_lat": 0.0, "name": "6f9dd6f31ec9e8fade633dc499671d27", "is_disabled": 0, "rental_uris": {"android": "https://dc.lft.to/lastmile_qr_scan", "ios": "https://dc.lft.to/lastmile_qr_scan"}, "fusion_lon": 0.0, "lat": 38.89240516666667, "bike_id": "6f9dd6f31ec9e8fade633dc499671d27", "type": "electric_scooter", "is_reserved": 0, "lon": -77.02203333333334}, {"fusion_lat": 0.0, "name": "46966f0480b92ed98dfa4d498412cf44", "is_disabled": 0, "rental_uris": {"android": "https://dc.lft.to/lastmile_qr_scan", "ios": "https://dc.lft.to/lastmile_qr_scan"}, "fusion_lon": 0.0, "lat": 38.902536166666664, "bike_id": "46966f0480b92ed98dfa4d498412cf44", "type": "electric_scooter", "is_reserved": 0, "lon": -77.04497233333333}, {"fusion_lat": 0.0, "name": "20123f862d882f61347f53101b027888", "is_disabled": 0, "rental_uris": {"android": "https://dc.lft.to/lastmile_qr_scan", "ios": "https://dc.lft.to/lastmile_qr_scan"}, "fusion_lon": 0.0, "lat": 38.95301116666667, "bike_id": "20123f862d882f61347f53101b027888", "type": "electric_scooter", "is_reserved": 0, "lon": -76.99896116666666}, {"fusion_lat": 0.0, "name": "bf3f3ed7f400c8286a11ce2663894d0c", "is_disabled": 0, "rental_uris": {"android": "https://dc.lft.to/lastmile_qr_scan", "ios": "https://dc.lft.to/lastmile_qr_scan"}, "fusion_lon": 0.0, "lat": 38.91645283333333, "bike_id": "bf3f3ed7f400c8286a11ce2663894d0c", "type": "electric_scooter", "is_reserved": 0, "lon": -77.03212766666667}, {"fusion_lat": 0.0, "name": "f53f0955d5481400cd6172449f5744dd", "is_disabled": 0, "rental_uris": {"android": "https://dc.lft.to/lastmile_qr_scan", "ios": "https://dc.lft.to/lastmile_qr_scan"}, "fusion_lon": 0.0, "lat": 38.91818333333333, "bike_id": "f53f0955d5481400cd6172449f5744dd", "type": "electric_scooter", "is_reserved": 0, "lon": -77.002567}, {"fusion_lat": 0.0, "name": "76975b4eab4683c1bfaa6ff0ee3783ec", "is_disabled": 0, "rental_uris": {"android": "https://dc.lft.to/lastmile_qr_scan", "ios": "https://dc.lft.to/lastmile_qr_scan"}, "fusion_lon": 0.0, "lat": 38.88768066666667, "bike_id": "76975b4eab4683c1bfaa6ff0ee3783ec", "type": "electric_scooter", "is_reserved": 0, "lon": -76.99468716666667}, {"fusion_lat": 0.0, "name": "7d4faa5021dc61ff8ffc93d55716f8c0", "is_disabled": 0, "rental_uris": {"android": "https://dc.lft.to/lastmile_qr_scan", "ios": "https://dc.lft.to/lastmile_qr_scan"}, "fusion_lon": 0.0, "lat": 38.958326666666665, "bike_id": "7d4faa5021dc61ff8ffc93d55716f8c0", "type": "electric_bike", "is_reserved": 0, "lon": -77.01510416666666}, {"fusion_lat": 0.0, "name": "d5de910aa3899b4b9c2aad3ded95d06d", "is_disabled": 0, "rental_uris": {"android": "https://dc.lft.to/lastmile_qr_scan", "ios": "https://dc.lft.to/lastmile_qr_scan"}, "fusion_lon": 0.0, "lat": 38.917046666666664, "bike_id": "d5de910aa3899b4b9c2aad3ded95d06d", "type": "electric_scooter", "is_reserved": 0, "lon": -77.0271555}, {"fusion_lat": 0.0, "name": "af58fcf11afa66057ee11736dc5e2d04", "is_disabled": 0, "rental_uris": {"android": "https://dc.lft.to/lastmile_qr_scan", "ios": "https://dc.lft.to/lastmile_qr_scan"}, "fusion_lon": 0.0, "lat": 38.906847166666665, "bike_id": "af58fcf11afa66057ee11736dc5e2d04", "type": "electric_scooter", "is_reserved": 0, "lon": -77.0487265}, {"fusion_lat": 0.0, "name": "e6dd0c0eddf798554da29a8242c54fa4", "is_disabled": 0, "rental_uris": {"android": "https://dc.lft.to/lastmile_qr_scan", "ios": "https://dc.lft.to/lastmile_qr_scan"}, "fusion_lon": 0.0, "lat": 38.921767333333335, "bike_id": "e6dd0c0eddf798554da29a8242c54fa4", "type": "electric_scooter", "is_reserved": 0, "lon": -77.03667283333333}, {"fusion_lat": 0.0, "name": "adf49efe965c4f303ee3c35daab6ea03", "is_disabled": 0, "rental_uris": {"android": "https://dc.lft.to/lastmile_qr_scan", "ios": "https://dc.lft.to/lastmile_qr_scan"}, "fusion_lon": 0.0, "lat": 38.9166915, "bike_id": "adf49efe965c4f303ee3c35daab6ea03", "type": "electric_scooter", "is_reserved": 0, "lon": -77.02829933333334}, {"fusion_lat": 0.0, "name": "15e1b0830b706748095532e198803009", "is_disabled": 0, "rental_uris": {"android": "https://dc.lft.to/lastmile_qr_scan", "ios": "https://dc.lft.to/lastmile_qr_scan"}, "fusion_lon": 0.0, "lat": 38.98475716666667, "bike_id": "15e1b0830b706748095532e198803009", "type": "electric_scooter", "is_reserved": 0, "lon": -77.02643533333334}, {"fusion_lat": 0.0, "name": "9973dc9c6eb0771362836027e422bf4e", "is_disabled": 0, "rental_uris": {"android": "https://dc.lft.to/lastmile_qr_scan", "ios": "https://dc.lft.to/lastmile_qr_scan"}, "fusion_lon": 0.0, "lat": 38.969920333333334, "bike_id": "9973dc9c6eb0771362836027e422bf4e", "type": "electric_scooter", "is_reserved": 0, "lon": -77.01160383333334}, {"fusion_lat": 0.0, "name": "05c00ae3521b8d0f6add7a9164846fec", "is_disabled": 0, "rental_uris": {"android": "https://dc.lft.to/lastmile_qr_scan", "ios": "https://dc.lft.to/lastmile_qr_scan"}, "fusion_lon": 0.0, "lat": 38.911128166666664, "bike_id": "05c00ae3521b8d0f6add7a9164846fec", "type": "electric_scooter", "is_reserved": 0, "lon": -77.0290715}, {"fusion_lat": 0.0, "name": "4130337b5ae0c3a34b59c7f774b214ee", "is_disabled": 0, "rental_uris": {"android": "https://dc.lft.to/lastmile_qr_scan", "ios": "https://dc.lft.to/lastmile_qr_scan"}, "fusion_lon": 0.0, "lat": 38.91121116666667, "bike_id": "4130337b5ae0c3a34b59c7f774b214ee", "type": "electric_scooter", "is_reserved": 0, "lon": -77.0446315}, {"fusion_lat": 0.0, "name": "4a48a91e8ef5993de30b6abeb6050729", "is_disabled": 0, "rental_uris": {"android": "https://dc.lft.to/lastmile_qr_scan", "ios": "https://dc.lft.to/lastmile_qr_scan"}, "fusion_lon": 0.0, "lat": 38.961849666666666, "bike_id": "4a48a91e8ef5993de30b6abeb6050729", "type": "electric_bike", "is_reserved": 0, "lon": -77.052648}, {"fusion_lat": 0.0, "name": "abb059c8d334239768996d93e1025ff6", "is_disabled": 0, "rental_uris": {"android": "https://dc.lft.to/lastmile_qr_scan", "ios": "https://dc.lft.to/lastmile_qr_scan"}, "fusion_lon": 0.0, "lat": 38.93062183333333, "bike_id": "abb059c8d334239768996d93e1025ff6", "type": "electric_scooter", "is_reserved": 0, "lon": -77.0405955}, {"fusion_lat": 0.0, "name": "385eb3a6e9ef48f09c88409effa4172f", "is_disabled": 0, "rental_uris": {"android": "https://dc.lft.to/lastmile_qr_scan", "ios": "https://dc.lft.to/lastmile_qr_scan"}, "fusion_lon": 0.0, "lat": 38.9746455, "bike_id": "385eb3a6e9ef48f09c88409effa4172f", "type": "electric_scooter", "is_reserved": 0, "lon": -77.01319166666667}, {"fusion_lat": 0.0, "name": "85dc3ff40328bd22d65eae61cbaae067", "is_disabled": 0, "rental_uris": {"android": "https://dc.lft.to/lastmile_qr_scan", "ios": "https://dc.lft.to/lastmile_qr_scan"}, "fusion_lon": 0.0, "lat": 38.897274833333334, "bike_id": "85dc3ff40328bd22d65eae61cbaae067", "type": "electric_scooter", "is_reserved": 0, "lon": -77.0037735}, {"fusion_lat": 0.0, "name": "f870e3ab89bc4c8d8e120c34775e7722", "is_disabled": 0, "rental_uris": {"android": "https://dc.lft.to/lastmile_qr_scan", "ios": "https://dc.lft.to/lastmile_qr_scan"}, "fusion_lon": 0.0, "lat": 38.90913716666667, "bike_id": "f870e3ab89bc4c8d8e120c34775e7722", "type": "electric_scooter", "is_reserved": 0, "lon": -77.07291716666667}, {"fusion_lat": 0.0, "name": "111a78c842eaf94ee1eb3eb356ea856c", "is_disabled": 0, "rental_uris": {"android": "https://dc.lft.to/lastmile_qr_scan", "ios": "https://dc.lft.to/lastmile_qr_scan"}, "fusion_lon": 0.0, "lat": 38.91914416666667, "bike_id": "111a78c842eaf94ee1eb3eb356ea856c", "type": "electric_scooter", "is_reserved": 0, "lon": -77.002179}, {"fusion_lat": 0.0, "name": "b2e38afa30bb9f43353ed034f4a08766", "is_disabled": 0, "rental_uris": {"android": "https://dc.lft.to/lastmile_qr_scan", "ios": "https://dc.lft.to/lastmile_qr_scan"}, "fusion_lon": 0.0, "lat": 38.900164833333335, "bike_id": "b2e38afa30bb9f43353ed034f4a08766", "type": "electric_scooter", "is_reserved": 0, "lon": -77.045051}, {"fusion_lat": 0.0, "name": "646fa7f4b00d7c2cd19d80cfa5f7b206", "is_disabled": 0, "rental_uris": {"android": "https://dc.lft.to/lastmile_qr_scan", "ios": "https://dc.lft.to/lastmile_qr_scan"}, "fusion_lon": 0.0, "lat": 38.908774666666666, "bike_id": "646fa7f4b00d7c2cd19d80cfa5f7b206", "type": "electric_scooter", "is_reserved": 0, "lon": -77.04281733333333}, {"fusion_lat": 0.0, "name": "27b99cf9ff1181bd6f178469808667de", "is_disabled": 0, "rental_uris": {"android": "https://dc.lft.to/lastmile_qr_scan", "ios": "https://dc.lft.to/lastmile_qr_scan"}, "fusion_lon": 0.0, "lat": 38.896969166666665, "bike_id": "27b99cf9ff1181bd6f178469808667de", "type": "electric_scooter", "is_reserved": 0, "lon": -77.04344166666667}, {"fusion_lat": 0.0, "name": "bd0259dd47fa3f51f78b8ac4f850e890", "is_disabled": 0, "rental_uris": {"android": "https://dc.lft.to/lastmile_qr_scan", "ios": "https://dc.lft.to/lastmile_qr_scan"}, "fusion_lon": 0.0, "lat": 38.8911535, "bike_id": "bd0259dd47fa3f51f78b8ac4f850e890", "type": "electric_scooter", "is_reserved": 0, "lon": -76.94379133333334}, {"fusion_lat": 0.0, "name": "e2fea75a926038f09f962eab2f64367a", "is_disabled": 0, "rental_uris": {"android": "https://dc.lft.to/lastmile_qr_scan", "ios": "https://dc.lft.to/lastmile_qr_scan"}, "fusion_lon": 0.0, "lat": 38.911285166666666, "bike_id": "e2fea75a926038f09f962eab2f64367a", "type": "electric_scooter", "is_reserved": 0, "lon": -77.02092516666667}, {"fusion_lat": 0.0, "name": "1bfc9fc8a52dffc1113d09c8cfdb1239", "is_disabled": 0, "rental_uris": {"android": "https://dc.lft.to/lastmile_qr_scan", "ios": "https://dc.lft.to/lastmile_qr_scan"}, "fusion_lon": 0.0, "lat": 38.897371, "bike_id": "1bfc9fc8a52dffc1113d09c8cfdb1239", "type": "electric_bike", "is_reserved": 0, "lon": -76.92046633333334}, {"fusion_lat": 0.0, "name": "e899606be3bc6eb2cad5c7d5a78689bc", "is_disabled": 0, "rental_uris": {"android": "https://dc.lft.to/lastmile_qr_scan", "ios": "https://dc.lft.to/lastmile_qr_scan"}, "fusion_lon": 0.0, "lat": 38.909720166666666, "bike_id": "e899606be3bc6eb2cad5c7d5a78689bc", "type": "electric_scooter", "is_reserved": 0, "lon": -77.0218005}, {"fusion_lat": 0.0, "name": "615f5389fbc737fc2282ffb80b8867e4", "is_disabled": 0, "rental_uris": {"android": "https://dc.lft.to/lastmile_qr_scan", "ios": "https://dc.lft.to/lastmile_qr_scan"}, "fusion_lon": 0.0, "lat": 38.887692, "bike_id": "615f5389fbc737fc2282ffb80b8867e4", "type": "electric_scooter", "is_reserved": 0, "lon": -77.00258466666666}, {"fusion_lat": 0.0, "name": "113245ff085be1311079c961d1d64a1c", "is_disabled": 0, "rental_uris": {"android": "https://dc.lft.to/lastmile_qr_scan", "ios": "https://dc.lft.to/lastmile_qr_scan"}, "fusion_lon": 0.0, "lat": 38.880648, "bike_id": "113245ff085be1311079c961d1d64a1c", "type": "electric_scooter", "is_reserved": 0, "lon": -77.0255375}, {"fusion_lat": 0.0, "name": "6360ad2af4b75fe5d64b4f25f9f004b7", "is_disabled": 0, "rental_uris": {"android": "https://dc.lft.to/lastmile_qr_scan", "ios": "https://dc.lft.to/lastmile_qr_scan"}, "fusion_lon": 0.0, "lat": 38.90411366666667, "bike_id": "6360ad2af4b75fe5d64b4f25f9f004b7", "type": "electric_scooter", "is_reserved": 0, "lon": -76.97330633333334}, {"fusion_lat": 0.0, "name": "2e77ee814a05866516ba825b28763d78", "is_disabled": 0, "rental_uris": {"android": "https://dc.lft.to/lastmile_qr_scan", "ios": "https://dc.lft.to/lastmile_qr_scan"}, "fusion_lon": 0.0, "lat": 38.892292833333336, "bike_id": "2e77ee814a05866516ba825b28763d78", "type": "electric_scooter", "is_reserved": 0, "lon": -77.03176583333334}, {"fusion_lat": 0.0, "name": "cdf3e9f3e2016646e319ffea7a8c9e24", "is_disabled": 0, "rental_uris": {"android": "https://dc.lft.to/lastmile_qr_scan", "ios": "https://dc.lft.to/lastmile_qr_scan"}, "fusion_lon": 0.0, "lat": 38.90259233333333, "bike_id": "cdf3e9f3e2016646e319ffea7a8c9e24", "type": "electric_scooter", "is_reserved": 0, "lon": -76.97451516666666}, {"fusion_lat": 0.0, "name": "e268c44f591eaaab165de7414a53c706", "is_disabled": 0, "rental_uris": {"android": "https://dc.lft.to/lastmile_qr_scan", "ios": "https://dc.lft.to/lastmile_qr_scan"}, "fusion_lon": 0.0, "lat": 38.901531, "bike_id": "e268c44f591eaaab165de7414a53c706", "type": "electric_scooter", "is_reserved": 0, "lon": -77.0330615}, {"fusion_lat": 0.0, "name": "35177dcb946209d70d798b625d3f31a2", "is_disabled": 0, "rental_uris": {"android": "https://dc.lft.to/lastmile_qr_scan", "ios": "https://dc.lft.to/lastmile_qr_scan"}, "fusion_lon": 0.0, "lat": 38.956313333333334, "bike_id": "35177dcb946209d70d798b625d3f31a2", "type": "electric_scooter", "is_reserved": 0, "lon": -77.023139}, {"fusion_lat": 0.0, "name": "33e1be2c4fa3cd8d58ed6f32f5da7746", "is_disabled": 0, "rental_uris": {"android": "https://dc.lft.to/lastmile_qr_scan", "ios": "https://dc.lft.to/lastmile_qr_scan"}, "fusion_lon": 0.0, "lat": 38.95234583333333, "bike_id": "33e1be2c4fa3cd8d58ed6f32f5da7746", "type": "electric_scooter", "is_reserved": 0, "lon": -76.99005933333333}, {"fusion_lat": 0.0, "name": "b558b0c020375db2f08e9dc67c1dff47", "is_disabled": 0, "rental_uris": {"android": "https://dc.lft.to/lastmile_qr_scan", "ios": "https://dc.lft.to/lastmile_qr_scan"}, "fusion_lon": 0.0, "lat": 38.860201, "bike_id": "b558b0c020375db2f08e9dc67c1dff47", "type": "electric_bike", "is_reserved": 0, "lon": -77.12807533333333}, {"fusion_lat": 0.0, "name": "91a14538c67d958921b6a272a93b1a4e", "is_disabled": 0, "rental_uris": {"android": "https://dc.lft.to/lastmile_qr_scan", "ios": "https://dc.lft.to/lastmile_qr_scan"}, "fusion_lon": 0.0, "lat": 38.93077, "bike_id": "91a14538c67d958921b6a272a93b1a4e", "type": "electric_scooter", "is_reserved": 0, "lon": -77.07764666666667}, {"fusion_lat": 0.0, "name": "00d211045afa428c58a0cde508f48141", "is_disabled": 0, "rental_uris": {"android": "https://dc.lft.to/lastmile_qr_scan", "ios": "https://dc.lft.to/lastmile_qr_scan"}, "fusion_lon": 0.0, "lat": 38.906796, "bike_id": "00d211045afa428c58a0cde508f48141", "type": "electric_scooter", "is_reserved": 0, "lon": -77.0270875}, {"fusion_lat": 0.0, "name": "32a5066f44678f9db9b8a6fbbc81fc4b", "is_disabled": 0, "rental_uris": {"android": "https://dc.lft.to/lastmile_qr_scan", "ios": "https://dc.lft.to/lastmile_qr_scan"}, "fusion_lon": 0.0, "lat": 38.934578333333334, "bike_id": "32a5066f44678f9db9b8a6fbbc81fc4b", "type": "electric_scooter", "is_reserved": 0, "lon": -77.07263566666667}, {"fusion_lat": 0.0, "name": "d5a8fc1e721ce2b36f883de3607f2b16", "is_disabled": 0, "rental_uris": {"android": "https://dc.lft.to/lastmile_qr_scan", "ios": "https://dc.lft.to/lastmile_qr_scan"}, "fusion_lon": 0.0, "lat": 38.8852395, "bike_id": "d5a8fc1e721ce2b36f883de3607f2b16", "type": "electric_scooter", "is_reserved": 0, "lon": -77.01508683333333}, {"fusion_lat": 0.0, "name": "b055840be4baae3323d344eb6a612f5b", "is_disabled": 0, "rental_uris": {"android": "https://dc.lft.to/lastmile_qr_scan", "ios": "https://dc.lft.to/lastmile_qr_scan"}, "fusion_lon": 0.0, "lat": 38.9285675, "bike_id": "b055840be4baae3323d344eb6a612f5b", "type": "electric_scooter", "is_reserved": 0, "lon": -77.03515816666666}, {"fusion_lat": 0.0, "name": "907bbcd8bcb3e3601603e2245defe41c", "is_disabled": 0, "rental_uris": {"android": "https://dc.lft.to/lastmile_qr_scan", "ios": "https://dc.lft.to/lastmile_qr_scan"}, "fusion_lon": 0.0, "lat": 38.9000095, "bike_id": "907bbcd8bcb3e3601603e2245defe41c", "type": "electric_scooter", "is_reserved": 0, "lon": -77.00651316666666}, {"fusion_lat": 0.0, "name": "c0ed9557d9366c44bc423ba7290353fc", "is_disabled": 0, "rental_uris": {"android": "https://dc.lft.to/lastmile_qr_scan", "ios": "https://dc.lft.to/lastmile_qr_scan"}, "fusion_lon": 0.0, "lat": 38.92417916666667, "bike_id": "c0ed9557d9366c44bc423ba7290353fc", "type": "electric_scooter", "is_reserved": 0, "lon": -77.05061683333334}, {"fusion_lat": 0.0, "name": "d9cf86b82435396b8a0c3e262e69df34", "is_disabled": 0, "rental_uris": {"android": "https://dc.lft.to/lastmile_qr_scan", "ios": "https://dc.lft.to/lastmile_qr_scan"}, "fusion_lon": 0.0, "lat": 38.89718283333333, "bike_id": "d9cf86b82435396b8a0c3e262e69df34", "type": "electric_scooter", "is_reserved": 0, "lon": -77.01295416666666}, {"fusion_lat": 0.0, "name": "fd79c23422f9c69dd84ee29f29b891a1", "is_disabled": 0, "rental_uris": {"android": "https://dc.lft.to/lastmile_qr_scan", "ios": "https://dc.lft.to/lastmile_qr_scan"}, "fusion_lon": 0.0, "lat": 38.90423633333333, "bike_id": "fd79c23422f9c69dd84ee29f29b891a1", "type": "electric_scooter", "is_reserved": 0, "lon": -76.94975816666667}, {"fusion_lat": 0.0, "name": "6684f4023f93e4a00f6a2b36132896c4", "is_disabled": 0, "rental_uris": {"android": "https://dc.lft.to/lastmile_qr_scan", "ios": "https://dc.lft.to/lastmile_qr_scan"}, "fusion_lon": 0.0, "lat": 38.916487000000004, "bike_id": "6684f4023f93e4a00f6a2b36132896c4", "type": "electric_scooter", "is_reserved": 0, "lon": -77.0318155}, {"fusion_lat": 0.0, "name": "17d096a178c10194f2fcb7243c2e9b2e", "is_disabled": 0, "rental_uris": {"android": "https://dc.lft.to/lastmile_qr_scan", "ios": "https://dc.lft.to/lastmile_qr_scan"}, "fusion_lon": 0.0, "lat": 38.924010833333334, "bike_id": "17d096a178c10194f2fcb7243c2e9b2e", "type": "electric_scooter", "is_reserved": 0, "lon": -77.04292083333333}, {"fusion_lat": 0.0, "name": "e34d09420131997cd0326dcaf008c9a3", "is_disabled": 0, "rental_uris": {"android": "https://dc.lft.to/lastmile_qr_scan", "ios": "https://dc.lft.to/lastmile_qr_scan"}, "fusion_lon": 0.0, "lat": 38.89224866666667, "bike_id": "e34d09420131997cd0326dcaf008c9a3", "type": "electric_scooter", "is_reserved": 0, "lon": -77.01547633333334}, {"fusion_lat": 0.0, "name": "f1df186f3e2ef3bcb86cfd9d70d1ca4d", "is_disabled": 0, "rental_uris": {"android": "https://dc.lft.to/lastmile_qr_scan", "ios": "https://dc.lft.to/lastmile_qr_scan"}, "fusion_lon": 0.0, "lat": 38.92293133333333, "bike_id": "f1df186f3e2ef3bcb86cfd9d70d1ca4d", "type": "electric_scooter", "is_reserved": 0, "lon": -77.029833}, {"fusion_lat": 0.0, "name": "97a9795eb03d76bc1d3a6d97f1697891", "is_disabled": 0, "rental_uris": {"android": "https://dc.lft.to/lastmile_qr_scan", "ios": "https://dc.lft.to/lastmile_qr_scan"}, "fusion_lon": 0.0, "lat": 38.958851333333335, "bike_id": "97a9795eb03d76bc1d3a6d97f1697891", "type": "electric_bike", "is_reserved": 0, "lon": -76.92482083333333}, {"fusion_lat": 0.0, "name": "80803a02cffaa29ca1e2abd5bcbf72da", "is_disabled": 0, "rental_uris": {"android": "https://dc.lft.to/lastmile_qr_scan", "ios": "https://dc.lft.to/lastmile_qr_scan"}, "fusion_lon": 0.0, "lat": 38.928633833333336, "bike_id": "80803a02cffaa29ca1e2abd5bcbf72da", "type": "electric_scooter", "is_reserved": 0, "lon": -77.05626583333333}, {"fusion_lat": 0.0, "name": "4f1183c7ce5c257d802f849a0c3db6d3", "is_disabled": 0, "rental_uris": {"android": "https://dc.lft.to/lastmile_qr_scan", "ios": "https://dc.lft.to/lastmile_qr_scan"}, "fusion_lon": 0.0, "lat": 38.948333833333336, "bike_id": "4f1183c7ce5c257d802f849a0c3db6d3", "type": "electric_scooter", "is_reserved": 0, "lon": -77.08002083333334}, {"fusion_lat": 0.0, "name": "7f10bf4e17bd7390598956c8e6c90848", "is_disabled": 0, "rental_uris": {"android": "https://dc.lft.to/lastmile_qr_scan", "ios": "https://dc.lft.to/lastmile_qr_scan"}, "fusion_lon": 0.0, "lat": 38.917508166666664, "bike_id": "7f10bf4e17bd7390598956c8e6c90848", "type": "electric_scooter", "is_reserved": 0, "lon": -77.023021}, {"fusion_lat": 0.0, "name": "a550a5b6f7bcaf8b98c1f4ec54d0d4b6", "is_disabled": 0, "rental_uris": {"android": "https://dc.lft.to/lastmile_qr_scan", "ios": "https://dc.lft.to/lastmile_qr_scan"}, "fusion_lon": 0.0, "lat": 38.946198, "bike_id": "a550a5b6f7bcaf8b98c1f4ec54d0d4b6", "type": "electric_scooter", "is_reserved": 0, "lon": -77.08010633333333}, {"fusion_lat": 0.0, "name": "884c9953acadeb8084c89838a143f1d7", "is_disabled": 0, "rental_uris": {"android": "https://dc.lft.to/lastmile_qr_scan", "ios": "https://dc.lft.to/lastmile_qr_scan"}, "fusion_lon": 0.0, "lat": 38.898450833333335, "bike_id": "884c9953acadeb8084c89838a143f1d7", "type": "electric_bike", "is_reserved": 0, "lon": -77.02512083333333}, {"fusion_lat": 0.0, "name": "105c60da53593dc61f9e3dc8d88ef130", "is_disabled": 0, "rental_uris": {"android": "https://dc.lft.to/lastmile_qr_scan", "ios": "https://dc.lft.to/lastmile_qr_scan"}, "fusion_lon": 0.0, "lat": 38.843597, "bike_id": "105c60da53593dc61f9e3dc8d88ef130", "type": "electric_bike", "is_reserved": 0, "lon": -76.978163}, {"fusion_lat": 0.0, "name": "c5f5229de0c64448be9a2e747ba4c5f3", "is_disabled": 0, "rental_uris": {"android": "https://dc.lft.to/lastmile_qr_scan", "ios": "https://dc.lft.to/lastmile_qr_scan"}, "fusion_lon": 0.0, "lat": 38.92676516666667, "bike_id": "c5f5229de0c64448be9a2e747ba4c5f3", "type": "electric_scooter", "is_reserved": 0, "lon": -77.03635083333333}, {"fusion_lat": 0.0, "name": "8a52187c2f787647976cb92008f0e66a", "is_disabled": 0, "rental_uris": {"android": "https://dc.lft.to/lastmile_qr_scan", "ios": "https://dc.lft.to/lastmile_qr_scan"}, "fusion_lon": 0.0, "lat": 38.92271733333333, "bike_id": "8a52187c2f787647976cb92008f0e66a", "type": "electric_scooter", "is_reserved": 0, "lon": -77.02961083333334}, {"fusion_lat": 0.0, "name": "53c4f77fc2545b05f8391f19478ee48a", "is_disabled": 0, "rental_uris": {"android": "https://dc.lft.to/lastmile_qr_scan", "ios": "https://dc.lft.to/lastmile_qr_scan"}, "fusion_lon": 0.0, "lat": 38.8969735, "bike_id": "53c4f77fc2545b05f8391f19478ee48a", "type": "electric_scooter", "is_reserved": 0, "lon": -77.04342333333334}, {"fusion_lat": 0.0, "name": "6e92e5593a3283ddc4524263518d76ac", "is_disabled": 0, "rental_uris": {"android": "https://dc.lft.to/lastmile_qr_scan", "ios": "https://dc.lft.to/lastmile_qr_scan"}, "fusion_lon": 0.0, "lat": 38.89003266666667, "bike_id": "6e92e5593a3283ddc4524263518d76ac", "type": "electric_scooter", "is_reserved": 0, "lon": -76.93746283333333}, {"fusion_lat": 0.0, "name": "a0664470dcf4bcc55e57cf9f37ad2fde", "is_disabled": 0, "rental_uris": {"android": "https://dc.lft.to/lastmile_qr_scan", "ios": "https://dc.lft.to/lastmile_qr_scan"}, "fusion_lon": 0.0, "lat": 38.87492483333333, "bike_id": "a0664470dcf4bcc55e57cf9f37ad2fde", "type": "electric_bike", "is_reserved": 0, "lon": -77.211218}, {"fusion_lat": 0.0, "name": "cc792076724cd22c1d4df3f7af8e042a", "is_disabled": 0, "rental_uris": {"android": "https://dc.lft.to/lastmile_qr_scan", "ios": "https://dc.lft.to/lastmile_qr_scan"}, "fusion_lon": 0.0, "lat": 38.961923, "bike_id": "cc792076724cd22c1d4df3f7af8e042a", "type": "electric_bike", "is_reserved": 0, "lon": -77.0526725}, {"fusion_lat": 0.0, "name": "3512120b733f069ccb4f3b0c43c577aa", "is_disabled": 0, "rental_uris": {"android": "https://dc.lft.to/lastmile_qr_scan", "ios": "https://dc.lft.to/lastmile_qr_scan"}, "fusion_lon": 0.0, "lat": 38.87744033333333, "bike_id": "3512120b733f069ccb4f3b0c43c577aa", "type": "electric_scooter", "is_reserved": 0, "lon": -77.00261366666666}, {"fusion_lat": 0.0, "name": "4d80cbd211c1d4d66a5ee7fa29d6caf0", "is_disabled": 0, "rental_uris": {"android": "https://dc.lft.to/lastmile_qr_scan", "ios": "https://dc.lft.to/lastmile_qr_scan"}, "fusion_lon": 0.0, "lat": 38.917890666666665, "bike_id": "4d80cbd211c1d4d66a5ee7fa29d6caf0", "type": "electric_scooter", "is_reserved": 0, "lon": -77.03192133333333}, {"fusion_lat": 0.0, "name": "8e55f91974653a295f775569fcbae186", "is_disabled": 0, "rental_uris": {"android": "https://dc.lft.to/lastmile_qr_scan", "ios": "https://dc.lft.to/lastmile_qr_scan"}, "fusion_lon": 0.0, "lat": 38.916541333333335, "bike_id": "8e55f91974653a295f775569fcbae186", "type": "electric_scooter", "is_reserved": 0, "lon": -77.015819}, {"fusion_lat": 0.0, "name": "f09e1c9ed6956d7faf950f7e07db0cfb", "is_disabled": 0, "rental_uris": {"android": "https://dc.lft.to/lastmile_qr_scan", "ios": "https://dc.lft.to/lastmile_qr_scan"}, "fusion_lon": 0.0, "lat": 38.83848583333334, "bike_id": "f09e1c9ed6956d7faf950f7e07db0cfb", "type": "electric_bike", "is_reserved": 0, "lon": -77.050569}, {"fusion_lat": 0.0, "name": "0c39f0e280659004390bf39fee5ccd42", "is_disabled": 0, "rental_uris": {"android": "https://dc.lft.to/lastmile_qr_scan", "ios": "https://dc.lft.to/lastmile_qr_scan"}, "fusion_lon": 0.0, "lat": 38.84613566666667, "bike_id": "0c39f0e280659004390bf39fee5ccd42", "type": "electric_bike", "is_reserved": 0, "lon": -76.96905066666666}, {"fusion_lat": 0.0, "name": "0c08a977f813ccbf56fc5c15d0322290", "is_disabled": 0, "rental_uris": {"android": "https://dc.lft.to/lastmile_qr_scan", "ios": "https://dc.lft.to/lastmile_qr_scan"}, "fusion_lon": 0.0, "lat": 38.896165833333335, "bike_id": "0c08a977f813ccbf56fc5c15d0322290", "type": "electric_bike", "is_reserved": 0, "lon": -76.90739516666666}, {"fusion_lat": 0.0, "name": "e71f1e4f9e7b7b8d504c31c262293930", "is_disabled": 0, "rental_uris": {"android": "https://dc.lft.to/lastmile_qr_scan", "ios": "https://dc.lft.to/lastmile_qr_scan"}, "fusion_lon": 0.0, "lat": 38.907606, "bike_id": "e71f1e4f9e7b7b8d504c31c262293930", "type": "electric_scooter", "is_reserved": 0, "lon": -77.05693333333333}, {"fusion_lat": 0.0, "name": "25aedcab0149f8f935540e23cc23afa4", "is_disabled": 0, "rental_uris": {"android": "https://dc.lft.to/lastmile_qr_scan", "ios": "https://dc.lft.to/lastmile_qr_scan"}, "fusion_lon": 0.0, "lat": 38.92693533333333, "bike_id": "25aedcab0149f8f935540e23cc23afa4", "type": "electric_scooter", "is_reserved": 0, "lon": -77.02184716666666}, {"fusion_lat": 0.0, "name": "fbdcba67bf74ff11823aa1e911b1d085", "is_disabled": 0, "rental_uris": {"android": "https://dc.lft.to/lastmile_qr_scan", "ios": "https://dc.lft.to/lastmile_qr_scan"}, "fusion_lon": 0.0, "lat": 38.86628816666666, "bike_id": "fbdcba67bf74ff11823aa1e911b1d085", "type": "electric_scooter", "is_reserved": 0, "lon": -76.98713066666667}, {"fusion_lat": 0.0, "name": "06a563c2de04a56f4a5ffc956b2601af", "is_disabled": 0, "rental_uris": {"android": "https://dc.lft.to/lastmile_qr_scan", "ios": "https://dc.lft.to/lastmile_qr_scan"}, "fusion_lon": 0.0, "lat": 38.9027105, "bike_id": "06a563c2de04a56f4a5ffc956b2601af", "type": "electric_scooter", "is_reserved": 0, "lon": -77.05309016666666}, {"fusion_lat": 0.0, "name": "b6a0dcf1767aba44f1ce9ec9cc727d72", "is_disabled": 0, "rental_uris": {"android": "https://dc.lft.to/lastmile_qr_scan", "ios": "https://dc.lft.to/lastmile_qr_scan"}, "fusion_lon": 0.0, "lat": 38.909471, "bike_id": "b6a0dcf1767aba44f1ce9ec9cc727d72", "type": "electric_bike", "is_reserved": 0, "lon": -76.98447466666667}, {"fusion_lat": 0.0, "name": "288ba1ad1e97e21eb8ba7d2c883f08b3", "is_disabled": 0, "rental_uris": {"android": "https://dc.lft.to/lastmile_qr_scan", "ios": "https://dc.lft.to/lastmile_qr_scan"}, "fusion_lon": 0.0, "lat": 38.8279355, "bike_id": "288ba1ad1e97e21eb8ba7d2c883f08b3", "type": "electric_bike", "is_reserved": 0, "lon": -77.12484666666667}, {"fusion_lat": 0.0, "name": "7b6ac8526ba630f3e53b2a91b457fdcd", "is_disabled": 0, "rental_uris": {"android": "https://dc.lft.to/lastmile_qr_scan", "ios": "https://dc.lft.to/lastmile_qr_scan"}, "fusion_lon": 0.0, "lat": 38.917752166666666, "bike_id": "7b6ac8526ba630f3e53b2a91b457fdcd", "type": "electric_scooter", "is_reserved": 0, "lon": -77.0145395}, {"fusion_lat": 0.0, "name": "c67fd69150f2728402fd9dd7e934bca9", "is_disabled": 0, "rental_uris": {"android": "https://dc.lft.to/lastmile_qr_scan", "ios": "https://dc.lft.to/lastmile_qr_scan"}, "fusion_lon": 0.0, "lat": 38.897324166666664, "bike_id": "c67fd69150f2728402fd9dd7e934bca9", "type": "electric_scooter", "is_reserved": 0, "lon": -77.02335416666666}, {"fusion_lat": 0.0, "name": "61b79059f083b0b3e82f1c9ba6e61541", "is_disabled": 0, "rental_uris": {"android": "https://dc.lft.to/lastmile_qr_scan", "ios": "https://dc.lft.to/lastmile_qr_scan"}, "fusion_lon": 0.0, "lat": 38.925940833333335, "bike_id": "61b79059f083b0b3e82f1c9ba6e61541", "type": "electric_scooter", "is_reserved": 0, "lon": -77.04406066666667}, {"fusion_lat": 0.0, "name": "995210fb242524a5a03f3b7024c79838", "is_disabled": 0, "rental_uris": {"android": "https://dc.lft.to/lastmile_qr_scan", "ios": "https://dc.lft.to/lastmile_qr_scan"}, "fusion_lon": 0.0, "lat": 38.8924705, "bike_id": "995210fb242524a5a03f3b7024c79838", "type": "electric_scooter", "is_reserved": 0, "lon": -77.0258085}, {"fusion_lat": 0.0, "name": "6fe63e115db0e80df9c3981ce7fec3bc", "is_disabled": 0, "rental_uris": {"android": "https://dc.lft.to/lastmile_qr_scan", "ios": "https://dc.lft.to/lastmile_qr_scan"}, "fusion_lon": 0.0, "lat": 38.92520366666667, "bike_id": "6fe63e115db0e80df9c3981ce7fec3bc", "type": "electric_scooter", "is_reserved": 0, "lon": -77.02361383333333}, {"fusion_lat": 0.0, "name": "8f0086d06cfd166c3a1b3c49d5ef69d3", "is_disabled": 0, "rental_uris": {"android": "https://dc.lft.to/lastmile_qr_scan", "ios": "https://dc.lft.to/lastmile_qr_scan"}, "fusion_lon": 0.0, "lat": 38.919963, "bike_id": "8f0086d06cfd166c3a1b3c49d5ef69d3", "type": "electric_scooter", "is_reserved": 0, "lon": -77.02392683333333}, {"fusion_lat": 0.0, "name": "4c5bb823175346d9bfed68cac25fd315", "is_disabled": 0, "rental_uris": {"android": "https://dc.lft.to/lastmile_qr_scan", "ios": "https://dc.lft.to/lastmile_qr_scan"}, "fusion_lon": 0.0, "lat": 38.911131833333336, "bike_id": "4c5bb823175346d9bfed68cac25fd315", "type": "electric_scooter", "is_reserved": 0, "lon": -77.081305}, {"fusion_lat": 0.0, "name": "715a9671fb77e2742384b4834f11fef9", "is_disabled": 0, "rental_uris": {"android": "https://dc.lft.to/lastmile_qr_scan", "ios": "https://dc.lft.to/lastmile_qr_scan"}, "fusion_lon": 0.0, "lat": 38.93701866666667, "bike_id": "715a9671fb77e2742384b4834f11fef9", "type": "electric_scooter", "is_reserved": 0, "lon": -77.0559945}, {"fusion_lat": 0.0, "name": "38c4f013c0f942c2cff86bec4a44ab3c", "is_disabled": 0, "rental_uris": {"android": "https://dc.lft.to/lastmile_qr_scan", "ios": "https://dc.lft.to/lastmile_qr_scan"}, "fusion_lon": 0.0, "lat": 38.906496833333335, "bike_id": "38c4f013c0f942c2cff86bec4a44ab3c", "type": "electric_scooter", "is_reserved": 0, "lon": -77.04874833333334}, {"fusion_lat": 0.0, "name": "9f79734a64b29056b37ce97cd8c5ce8a", "is_disabled": 0, "rental_uris": {"android": "https://dc.lft.to/lastmile_qr_scan", "ios": "https://dc.lft.to/lastmile_qr_scan"}, "fusion_lon": 0.0, "lat": 38.88540866666666, "bike_id": "9f79734a64b29056b37ce97cd8c5ce8a", "type": "electric_scooter", "is_reserved": 0, "lon": -77.00054133333333}, {"fusion_lat": 0.0, "name": "1a95f2798004cd34138894b355d18590", "is_disabled": 0, "rental_uris": {"android": "https://dc.lft.to/lastmile_qr_scan", "ios": "https://dc.lft.to/lastmile_qr_scan"}, "fusion_lon": 0.0, "lat": 38.93464916666667, "bike_id": "1a95f2798004cd34138894b355d18590", "type": "electric_scooter", "is_reserved": 0, "lon": -77.02784383333334}, {"fusion_lat": 0.0, "name": "fcdfe26c96309c98d14ef23c179c67dd", "is_disabled": 0, "rental_uris": {"android": "https://dc.lft.to/lastmile_qr_scan", "ios": "https://dc.lft.to/lastmile_qr_scan"}, "fusion_lon": 0.0, "lat": 38.897473, "bike_id": "fcdfe26c96309c98d14ef23c179c67dd", "type": "electric_scooter", "is_reserved": 0, "lon": -77.02317516666666}, {"fusion_lat": 0.0, "name": "3cb6b5822863fac51353cc4595faf417", "is_disabled": 0, "rental_uris": {"android": "https://dc.lft.to/lastmile_qr_scan", "ios": "https://dc.lft.to/lastmile_qr_scan"}, "fusion_lon": 0.0, "lat": 38.917466166666664, "bike_id": "3cb6b5822863fac51353cc4595faf417", "type": "electric_scooter", "is_reserved": 0, "lon": -77.03068666666667}, {"fusion_lat": 0.0, "name": "3fd1e066bdf63979cb682ad0bb2e39d4", "is_disabled": 0, "rental_uris": {"android": "https://dc.lft.to/lastmile_qr_scan", "ios": "https://dc.lft.to/lastmile_qr_scan"}, "fusion_lon": 0.0, "lat": 38.921258333333334, "bike_id": "3fd1e066bdf63979cb682ad0bb2e39d4", "type": "electric_scooter", "is_reserved": 0, "lon": -77.0178815}, {"fusion_lat": 0.0, "name": "cb7c80bcbaa9f376996d2e5325c9bc94", "is_disabled": 0, "rental_uris": {"android": "https://dc.lft.to/lastmile_qr_scan", "ios": "https://dc.lft.to/lastmile_qr_scan"}, "fusion_lon": 0.0, "lat": 38.8860265, "bike_id": "cb7c80bcbaa9f376996d2e5325c9bc94", "type": "electric_scooter", "is_reserved": 0, "lon": -77.04509133333333}, {"fusion_lat": 0.0, "name": "c0ca9726e0311e46f676becdb6075a30", "is_disabled": 0, "rental_uris": {"android": "https://dc.lft.to/lastmile_qr_scan", "ios": "https://dc.lft.to/lastmile_qr_scan"}, "fusion_lon": 0.0, "lat": 38.90294883333333, "bike_id": "c0ca9726e0311e46f676becdb6075a30", "type": "electric_scooter", "is_reserved": 0, "lon": -77.0224525}, {"fusion_lat": 0.0, "name": "d47f869b80310bce267a004b5b929a04", "is_disabled": 0, "rental_uris": {"android": "https://dc.lft.to/lastmile_qr_scan", "ios": "https://dc.lft.to/lastmile_qr_scan"}, "fusion_lon": 0.0, "lat": 38.901041166666666, "bike_id": "d47f869b80310bce267a004b5b929a04", "type": "electric_scooter", "is_reserved": 0, "lon": -77.05808016666667}, {"fusion_lat": 0.0, "name": "371ffe9c6af8523010a2a26a9dd73377", "is_disabled": 0, "rental_uris": {"android": "https://dc.lft.to/lastmile_qr_scan", "ios": "https://dc.lft.to/lastmile_qr_scan"}, "fusion_lon": 0.0, "lat": 38.8829035, "bike_id": "371ffe9c6af8523010a2a26a9dd73377", "type": "electric_bike", "is_reserved": 0, "lon": -77.03022316666667}, {"fusion_lat": 0.0, "name": "1926460d33ca9421bdfcdc2e5a6c31e6", "is_disabled": 0, "rental_uris": {"android": "https://dc.lft.to/lastmile_qr_scan", "ios": "https://dc.lft.to/lastmile_qr_scan"}, "fusion_lon": 0.0, "lat": 38.941364, "bike_id": "1926460d33ca9421bdfcdc2e5a6c31e6", "type": "electric_scooter", "is_reserved": 0, "lon": -77.01536416666667}, {"fusion_lat": 0.0, "name": "7e912da169b73da90bf21895a412d8fd", "is_disabled": 0, "rental_uris": {"android": "https://dc.lft.to/lastmile_qr_scan", "ios": "https://dc.lft.to/lastmile_qr_scan"}, "fusion_lon": 0.0, "lat": 38.950222, "bike_id": "7e912da169b73da90bf21895a412d8fd", "type": "electric_scooter", "is_reserved": 0, "lon": -77.03349466666667}, {"fusion_lat": 0.0, "name": "a24af6c8942bdd67a885e88b6369da07", "is_disabled": 0, "rental_uris": {"android": "https://dc.lft.to/lastmile_qr_scan", "ios": "https://dc.lft.to/lastmile_qr_scan"}, "fusion_lon": 0.0, "lat": 38.91019816666667, "bike_id": "a24af6c8942bdd67a885e88b6369da07", "type": "electric_scooter", "is_reserved": 0, "lon": -77.03844566666666}, {"fusion_lat": 0.0, "name": "4cae90b9c85f6791e60e40b7c1818d5f", "is_disabled": 0, "rental_uris": {"android": "https://dc.lft.to/lastmile_qr_scan", "ios": "https://dc.lft.to/lastmile_qr_scan"}, "fusion_lon": 0.0, "lat": 38.929283, "bike_id": "4cae90b9c85f6791e60e40b7c1818d5f", "type": "electric_scooter", "is_reserved": 0, "lon": -77.03250466666667}, {"fusion_lat": 0.0, "name": "9c60dd2979060e1d4a1e80d17ba74992", "is_disabled": 0, "rental_uris": {"android": "https://dc.lft.to/lastmile_qr_scan", "ios": "https://dc.lft.to/lastmile_qr_scan"}, "fusion_lon": 0.0, "lat": 38.93891216666667, "bike_id": "9c60dd2979060e1d4a1e80d17ba74992", "type": "electric_scooter", "is_reserved": 0, "lon": -77.0331565}, {"fusion_lat": 0.0, "name": "a4092f047a79df5c9175e6fffaa4457e", "is_disabled": 0, "rental_uris": {"android": "https://dc.lft.to/lastmile_qr_scan", "ios": "https://dc.lft.to/lastmile_qr_scan"}, "fusion_lon": 0.0, "lat": 38.93078583333333, "bike_id": "a4092f047a79df5c9175e6fffaa4457e", "type": "electric_scooter", "is_reserved": 0, "lon": -77.0316065}, {"fusion_lat": 0.0, "name": "9a668be007e2709bec4ffbbdef625e57", "is_disabled": 0, "rental_uris": {"android": "https://dc.lft.to/lastmile_qr_scan", "ios": "https://dc.lft.to/lastmile_qr_scan"}, "fusion_lon": 0.0, "lat": 38.927011666666665, "bike_id": "9a668be007e2709bec4ffbbdef625e57", "type": "electric_scooter", "is_reserved": 0, "lon": -77.023231}, {"fusion_lat": 0.0, "name": "7aba2275052580f8a998a7a5946d7e07", "is_disabled": 0, "rental_uris": {"android": "https://dc.lft.to/lastmile_qr_scan", "ios": "https://dc.lft.to/lastmile_qr_scan"}, "fusion_lon": 0.0, "lat": 38.924959333333334, "bike_id": "7aba2275052580f8a998a7a5946d7e07", "type": "electric_scooter", "is_reserved": 0, "lon": -77.021706}, {"fusion_lat": 0.0, "name": "42a1241a1f1904409e20c42094b0a9e5", "is_disabled": 0, "rental_uris": {"android": "https://dc.lft.to/lastmile_qr_scan", "ios": "https://dc.lft.to/lastmile_qr_scan"}, "fusion_lon": 0.0, "lat": 38.956385166666664, "bike_id": "42a1241a1f1904409e20c42094b0a9e5", "type": "electric_scooter", "is_reserved": 0, "lon": -77.03300733333333}, {"fusion_lat": 0.0, "name": "0fde4ad05795a6422a860a308d96f258", "is_disabled": 0, "rental_uris": {"android": "https://dc.lft.to/lastmile_qr_scan", "ios": "https://dc.lft.to/lastmile_qr_scan"}, "fusion_lon": 0.0, "lat": 38.90255333333333, "bike_id": "0fde4ad05795a6422a860a308d96f258", "type": "electric_scooter", "is_reserved": 0, "lon": -77.05925783333333}, {"fusion_lat": 0.0, "name": "4995f10173cd2b6bfa4367e67001f7a4", "is_disabled": 0, "rental_uris": {"android": "https://dc.lft.to/lastmile_qr_scan", "ios": "https://dc.lft.to/lastmile_qr_scan"}, "fusion_lon": 0.0, "lat": 38.93726066666667, "bike_id": "4995f10173cd2b6bfa4367e67001f7a4", "type": "electric_scooter", "is_reserved": 0, "lon": -77.0245}, {"fusion_lat": 0.0, "name": "dca07edb6d373a7fc31470ac377ce4ee", "is_disabled": 0, "rental_uris": {"android": "https://dc.lft.to/lastmile_qr_scan", "ios": "https://dc.lft.to/lastmile_qr_scan"}, "fusion_lon": 0.0, "lat": 38.885227, "bike_id": "dca07edb6d373a7fc31470ac377ce4ee", "type": "electric_scooter", "is_reserved": 0, "lon": -77.01507833333334}, {"fusion_lat": 0.0, "name": "0e8366c46d3097d90efdc7f6b99434f8", "is_disabled": 0, "rental_uris": {"android": "https://dc.lft.to/lastmile_qr_scan", "ios": "https://dc.lft.to/lastmile_qr_scan"}, "fusion_lon": 0.0, "lat": 38.929242333333335, "bike_id": "0e8366c46d3097d90efdc7f6b99434f8", "type": "electric_scooter", "is_reserved": 0, "lon": -77.03251466666667}, {"fusion_lat": 0.0, "name": "4d2c90ac36b233bcb47da8c278dece66", "is_disabled": 0, "rental_uris": {"android": "https://dc.lft.to/lastmile_qr_scan", "ios": "https://dc.lft.to/lastmile_qr_scan"}, "fusion_lon": 0.0, "lat": 38.92076566666667, "bike_id": "4d2c90ac36b233bcb47da8c278dece66", "type": "electric_bike", "is_reserved": 0, "lon": -76.98944883333333}, {"fusion_lat": 0.0, "name": "f6da9a016381246b66834c5c81a7d6f6", "is_disabled": 0, "rental_uris": {"android": "https://dc.lft.to/lastmile_qr_scan", "ios": "https://dc.lft.to/lastmile_qr_scan"}, "fusion_lon": 0.0, "lat": 38.936507166666665, "bike_id": "f6da9a016381246b66834c5c81a7d6f6", "type": "electric_scooter", "is_reserved": 0, "lon": -77.03041016666667}, {"fusion_lat": 0.0, "name": "d8bb872f66eac6bb01b411bd6be2bbef", "is_disabled": 0, "rental_uris": {"android": "https://dc.lft.to/lastmile_qr_scan", "ios": "https://dc.lft.to/lastmile_qr_scan"}, "fusion_lon": 0.0, "lat": 38.9423155, "bike_id": "d8bb872f66eac6bb01b411bd6be2bbef", "type": "electric_scooter", "is_reserved": 0, "lon": -77.01385466666666}, {"fusion_lat": 0.0, "name": "5c2b160c21bf9000d3ecfbe6b34878e8", "is_disabled": 0, "rental_uris": {"android": "https://dc.lft.to/lastmile_qr_scan", "ios": "https://dc.lft.to/lastmile_qr_scan"}, "fusion_lon": 0.0, "lat": 38.90110216666667, "bike_id": "5c2b160c21bf9000d3ecfbe6b34878e8", "type": "electric_scooter", "is_reserved": 0, "lon": -77.0516845}, {"fusion_lat": 0.0, "name": "d91db98409edd0aab9887f816ae8fe37", "is_disabled": 0, "rental_uris": {"android": "https://dc.lft.to/lastmile_qr_scan", "ios": "https://dc.lft.to/lastmile_qr_scan"}, "fusion_lon": 0.0, "lat": 38.91068466666667, "bike_id": "d91db98409edd0aab9887f816ae8fe37", "type": "electric_scooter", "is_reserved": 0, "lon": -77.02713533333333}, {"fusion_lat": 0.0, "name": "c0be5befc1d673e59c4fe24715265fef", "is_disabled": 0, "rental_uris": {"android": "https://dc.lft.to/lastmile_qr_scan", "ios": "https://dc.lft.to/lastmile_qr_scan"}, "fusion_lon": 0.0, "lat": 38.913284833333336, "bike_id": "c0be5befc1d673e59c4fe24715265fef", "type": "electric_scooter", "is_reserved": 0, "lon": -77.03191433333333}, {"fusion_lat": 0.0, "name": "bf93fca9f94270c9b1c72217aad3bdb5", "is_disabled": 0, "rental_uris": {"android": "https://dc.lft.to/lastmile_qr_scan", "ios": "https://dc.lft.to/lastmile_qr_scan"}, "fusion_lon": 0.0, "lat": 38.90500083333333, "bike_id": "bf93fca9f94270c9b1c72217aad3bdb5", "type": "electric_scooter", "is_reserved": 0, "lon": -76.979554}, {"fusion_lat": 0.0, "name": "ae6c89d2d3f69e130338eca6b49d287f", "is_disabled": 0, "rental_uris": {"android": "https://dc.lft.to/lastmile_qr_scan", "ios": "https://dc.lft.to/lastmile_qr_scan"}, "fusion_lon": 0.0, "lat": 38.9118155, "bike_id": "ae6c89d2d3f69e130338eca6b49d287f", "type": "electric_scooter", "is_reserved": 0, "lon": -77.068606}, {"fusion_lat": 0.0, "name": "b93b3007c19b28b21bafcdec2ee3fefa", "is_disabled": 0, "rental_uris": {"android": "https://dc.lft.to/lastmile_qr_scan", "ios": "https://dc.lft.to/lastmile_qr_scan"}, "fusion_lon": 0.0, "lat": 38.908117, "bike_id": "b93b3007c19b28b21bafcdec2ee3fefa", "type": "electric_scooter", "is_reserved": 0, "lon": -77.0342675}, {"fusion_lat": 0.0, "name": "0b5a7a05b0e2722b1a66e15d2d91a279", "is_disabled": 0, "rental_uris": {"android": "https://dc.lft.to/lastmile_qr_scan", "ios": "https://dc.lft.to/lastmile_qr_scan"}, "fusion_lon": 0.0, "lat": 38.92661183333333, "bike_id": "0b5a7a05b0e2722b1a66e15d2d91a279", "type": "electric_scooter", "is_reserved": 0, "lon": -77.02424233333333}, {"fusion_lat": 0.0, "name": "942735ba0734a62b707cc5a132624de9", "is_disabled": 0, "rental_uris": {"android": "https://dc.lft.to/lastmile_qr_scan", "ios": "https://dc.lft.to/lastmile_qr_scan"}, "fusion_lon": 0.0, "lat": 38.924156333333336, "bike_id": "942735ba0734a62b707cc5a132624de9", "type": "electric_scooter", "is_reserved": 0, "lon": -77.05059933333334}, {"fusion_lat": 0.0, "name": "ae0ab744252d319cbe912da0bc953272", "is_disabled": 0, "rental_uris": {"android": "https://dc.lft.to/lastmile_qr_scan", "ios": "https://dc.lft.to/lastmile_qr_scan"}, "fusion_lon": 0.0, "lat": 38.899033, "bike_id": "ae0ab744252d319cbe912da0bc953272", "type": "electric_scooter", "is_reserved": 0, "lon": -76.97610316666666}, {"fusion_lat": 0.0, "name": "eb252c29aa0fc49bb084f674beff0703", "is_disabled": 0, "rental_uris": {"android": "https://dc.lft.to/lastmile_qr_scan", "ios": "https://dc.lft.to/lastmile_qr_scan"}, "fusion_lon": 0.0, "lat": 38.93734466666667, "bike_id": "eb252c29aa0fc49bb084f674beff0703", "type": "electric_scooter", "is_reserved": 0, "lon": -77.019243}, {"fusion_lat": 0.0, "name": "f554ef28cd56819f4ef9a6ae11656610", "is_disabled": 0, "rental_uris": {"android": "https://dc.lft.to/lastmile_qr_scan", "ios": "https://dc.lft.to/lastmile_qr_scan"}, "fusion_lon": 0.0, "lat": 38.861449666666665, "bike_id": "f554ef28cd56819f4ef9a6ae11656610", "type": "electric_bike", "is_reserved": 0, "lon": -76.97171333333333}, {"fusion_lat": 0.0, "name": "7ebe27e80562cf302b51d5c4dcbb5dda", "is_disabled": 0, "rental_uris": {"android": "https://dc.lft.to/lastmile_qr_scan", "ios": "https://dc.lft.to/lastmile_qr_scan"}, "fusion_lon": 0.0, "lat": 38.94296533333333, "bike_id": "7ebe27e80562cf302b51d5c4dcbb5dda", "type": "electric_scooter", "is_reserved": 0, "lon": -77.0217245}, {"fusion_lat": 0.0, "name": "c012d9345fae3c828cb814699f09b02e", "is_disabled": 0, "rental_uris": {"android": "https://dc.lft.to/lastmile_qr_scan", "ios": "https://dc.lft.to/lastmile_qr_scan"}, "fusion_lon": 0.0, "lat": 38.900412833333334, "bike_id": "c012d9345fae3c828cb814699f09b02e", "type": "electric_scooter", "is_reserved": 0, "lon": -76.99253533333334}, {"fusion_lat": 0.0, "name": "f15b5de3f476481034c9afb2531e071f", "is_disabled": 0, "rental_uris": {"android": "https://dc.lft.to/lastmile_qr_scan", "ios": "https://dc.lft.to/lastmile_qr_scan"}, "fusion_lon": 0.0, "lat": 38.924186, "bike_id": "f15b5de3f476481034c9afb2531e071f", "type": "electric_scooter", "is_reserved": 0, "lon": -77.02011616666667}, {"fusion_lat": 0.0, "name": "f3d255caf4fc2dc52ae71edaf8d5d5a0", "is_disabled": 0, "rental_uris": {"android": "https://dc.lft.to/lastmile_qr_scan", "ios": "https://dc.lft.to/lastmile_qr_scan"}, "fusion_lon": 0.0, "lat": 38.8962515, "bike_id": "f3d255caf4fc2dc52ae71edaf8d5d5a0", "type": "electric_scooter", "is_reserved": 0, "lon": -77.00923666666667}, {"fusion_lat": 0.0, "name": "b379c15707b490d643a72a69bc6c8a96", "is_disabled": 0, "rental_uris": {"android": "https://dc.lft.to/lastmile_qr_scan", "ios": "https://dc.lft.to/lastmile_qr_scan"}, "fusion_lon": 0.0, "lat": 38.927466833333334, "bike_id": "b379c15707b490d643a72a69bc6c8a96", "type": "electric_scooter", "is_reserved": 0, "lon": -77.02432133333333}, {"fusion_lat": 0.0, "name": "cadc967de5197b692b6d0b5a54422a80", "is_disabled": 0, "rental_uris": {"android": "https://dc.lft.to/lastmile_qr_scan", "ios": "https://dc.lft.to/lastmile_qr_scan"}, "fusion_lon": 0.0, "lat": 39.05255183333333, "bike_id": "cadc967de5197b692b6d0b5a54422a80", "type": "electric_bike", "is_reserved": 0, "lon": -77.08067516666667}, {"fusion_lat": 0.0, "name": "01a19c56b47b3591f7af137a0cfecc84", "is_disabled": 0, "rental_uris": {"android": "https://dc.lft.to/lastmile_qr_scan", "ios": "https://dc.lft.to/lastmile_qr_scan"}, "fusion_lon": 0.0, "lat": 38.89939183333333, "bike_id": "01a19c56b47b3591f7af137a0cfecc84", "type": "electric_scooter", "is_reserved": 0, "lon": -77.00364933333333}, {"fusion_lat": 0.0, "name": "0e16e967eaa34066dd006987e37b1d1e", "is_disabled": 0, "rental_uris": {"android": "https://dc.lft.to/lastmile_qr_scan", "ios": "https://dc.lft.to/lastmile_qr_scan"}, "fusion_lon": 0.0, "lat": 38.883327666666666, "bike_id": "0e16e967eaa34066dd006987e37b1d1e", "type": "electric_scooter", "is_reserved": 0, "lon": -77.01766316666667}, {"fusion_lat": 0.0, "name": "caa578173f2dfd8737de1eb2e5edcbc1", "is_disabled": 0, "rental_uris": {"android": "https://dc.lft.to/lastmile_qr_scan", "ios": "https://dc.lft.to/lastmile_qr_scan"}, "fusion_lon": 0.0, "lat": 38.908196833333335, "bike_id": "caa578173f2dfd8737de1eb2e5edcbc1", "type": "electric_scooter", "is_reserved": 0, "lon": -77.03428266666667}, {"fusion_lat": 0.0, "name": "3a78e8c452d2c0ecf58fd19b98a23daf", "is_disabled": 0, "rental_uris": {"android": "https://dc.lft.to/lastmile_qr_scan", "ios": "https://dc.lft.to/lastmile_qr_scan"}, "fusion_lon": 0.0, "lat": 38.89226566666667, "bike_id": "3a78e8c452d2c0ecf58fd19b98a23daf", "type": "electric_scooter", "is_reserved": 0, "lon": -77.024091}, {"fusion_lat": 0.0, "name": "049d85cb8ea125db70a507c166e2ba4d", "is_disabled": 0, "rental_uris": {"android": "https://dc.lft.to/lastmile_qr_scan", "ios": "https://dc.lft.to/lastmile_qr_scan"}, "fusion_lon": 0.0, "lat": 38.91257016666667, "bike_id": "049d85cb8ea125db70a507c166e2ba4d", "type": "electric_scooter", "is_reserved": 0, "lon": -77.00151733333334}, {"fusion_lat": 0.0, "name": "97c6426e450cfa0247302e295deb4844", "is_disabled": 0, "rental_uris": {"android": "https://dc.lft.to/lastmile_qr_scan", "ios": "https://dc.lft.to/lastmile_qr_scan"}, "fusion_lon": 0.0, "lat": 38.93521583333333, "bike_id": "97c6426e450cfa0247302e295deb4844", "type": "electric_scooter", "is_reserved": 0, "lon": -77.0726015}, {"fusion_lat": 0.0, "name": "26eb40f31acd851dc302d5a7c67ac154", "is_disabled": 0, "rental_uris": {"android": "https://dc.lft.to/lastmile_qr_scan", "ios": "https://dc.lft.to/lastmile_qr_scan"}, "fusion_lon": 0.0, "lat": 38.89875383333333, "bike_id": "26eb40f31acd851dc302d5a7c67ac154", "type": "electric_scooter", "is_reserved": 0, "lon": -76.93185316666667}, {"fusion_lat": 0.0, "name": "d0cbb753559ddce12270f87b6ff24bf7", "is_disabled": 0, "rental_uris": {"android": "https://dc.lft.to/lastmile_qr_scan", "ios": "https://dc.lft.to/lastmile_qr_scan"}, "fusion_lon": 0.0, "lat": 38.87181866666667, "bike_id": "d0cbb753559ddce12270f87b6ff24bf7", "type": "electric_scooter", "is_reserved": 0, "lon": -77.00614}, {"fusion_lat": 0.0, "name": "fc0d163013c53280a47dfa3ad531b48e", "is_disabled": 0, "rental_uris": {"android": "https://dc.lft.to/lastmile_qr_scan", "ios": "https://dc.lft.to/lastmile_qr_scan"}, "fusion_lon": 0.0, "lat": 38.862444333333336, "bike_id": "fc0d163013c53280a47dfa3ad531b48e", "type": "electric_scooter", "is_reserved": 0, "lon": -76.99498266666667}, {"fusion_lat": 0.0, "name": "7289462648425d548aadea8c3313683c", "is_disabled": 0, "rental_uris": {"android": "https://dc.lft.to/lastmile_qr_scan", "ios": "https://dc.lft.to/lastmile_qr_scan"}, "fusion_lon": 0.0, "lat": 38.8832705, "bike_id": "7289462648425d548aadea8c3313683c", "type": "electric_scooter", "is_reserved": 0, "lon": -77.01723733333333}, {"fusion_lat": 0.0, "name": "6d5149dd34cbc532dd66cf27123e9498", "is_disabled": 0, "rental_uris": {"android": "https://dc.lft.to/lastmile_qr_scan", "ios": "https://dc.lft.to/lastmile_qr_scan"}, "fusion_lon": 0.0, "lat": 38.90269416666667, "bike_id": "6d5149dd34cbc532dd66cf27123e9498", "type": "electric_scooter", "is_reserved": 0, "lon": -77.01975166666666}, {"fusion_lat": 0.0, "name": "65d8e4e6fe1d2834915e559f0eed1ee2", "is_disabled": 0, "rental_uris": {"android": "https://dc.lft.to/lastmile_qr_scan", "ios": "https://dc.lft.to/lastmile_qr_scan"}, "fusion_lon": 0.0, "lat": 38.87377033333333, "bike_id": "65d8e4e6fe1d2834915e559f0eed1ee2", "type": "electric_scooter", "is_reserved": 0, "lon": -77.00093933333333}, {"fusion_lat": 0.0, "name": "84955b1a1fc2da3ad03263e467bf319d", "is_disabled": 0, "rental_uris": {"android": "https://dc.lft.to/lastmile_qr_scan", "ios": "https://dc.lft.to/lastmile_qr_scan"}, "fusion_lon": 0.0, "lat": 38.854631, "bike_id": "84955b1a1fc2da3ad03263e467bf319d", "type": "electric_scooter", "is_reserved": 0, "lon": -76.972301}, {"fusion_lat": 0.0, "name": "72380e323777913ad7bbd02f3f108383", "is_disabled": 0, "rental_uris": {"android": "https://dc.lft.to/lastmile_qr_scan", "ios": "https://dc.lft.to/lastmile_qr_scan"}, "fusion_lon": 0.0, "lat": 38.896413833333334, "bike_id": "72380e323777913ad7bbd02f3f108383", "type": "electric_scooter", "is_reserved": 0, "lon": -77.00916966666666}, {"fusion_lat": 0.0, "name": "d001f0ef9a52f8d33843ee5551273a99", "is_disabled": 0, "rental_uris": {"android": "https://dc.lft.to/lastmile_qr_scan", "ios": "https://dc.lft.to/lastmile_qr_scan"}, "fusion_lon": 0.0, "lat": 38.892282333333334, "bike_id": "d001f0ef9a52f8d33843ee5551273a99", "type": "electric_scooter", "is_reserved": 0, "lon": -77.0171085}, {"fusion_lat": 0.0, "name": "92b38007ee81a9531da6093ad4f6bad3", "is_disabled": 0, "rental_uris": {"android": "https://dc.lft.to/lastmile_qr_scan", "ios": "https://dc.lft.to/lastmile_qr_scan"}, "fusion_lon": 0.0, "lat": 38.90553666666667, "bike_id": "92b38007ee81a9531da6093ad4f6bad3", "type": "electric_scooter", "is_reserved": 0, "lon": -77.03479083333333}, {"fusion_lat": 0.0, "name": "31d5412829e48cd4105bb571787a945d", "is_disabled": 0, "rental_uris": {"android": "https://dc.lft.to/lastmile_qr_scan", "ios": "https://dc.lft.to/lastmile_qr_scan"}, "fusion_lon": 0.0, "lat": 38.9637805, "bike_id": "31d5412829e48cd4105bb571787a945d", "type": "electric_scooter", "is_reserved": 0, "lon": -77.02048416666666}, {"fusion_lat": 0.0, "name": "8bf92fe5978dd944029e8770fe56c0d5", "is_disabled": 0, "rental_uris": {"android": "https://dc.lft.to/lastmile_qr_scan", "ios": "https://dc.lft.to/lastmile_qr_scan"}, "fusion_lon": 0.0, "lat": 38.884801, "bike_id": "8bf92fe5978dd944029e8770fe56c0d5", "type": "electric_scooter", "is_reserved": 0, "lon": -76.995971}, {"fusion_lat": 0.0, "name": "5b7e4736d8177efc6237adff9e30229b", "is_disabled": 0, "rental_uris": {"android": "https://dc.lft.to/lastmile_qr_scan", "ios": "https://dc.lft.to/lastmile_qr_scan"}, "fusion_lon": 0.0, "lat": 38.909771166666665, "bike_id": "5b7e4736d8177efc6237adff9e30229b", "type": "electric_scooter", "is_reserved": 0, "lon": -77.0089325}, {"fusion_lat": 0.0, "name": "37efa3cf7b7926d061a1a74556c1edaf", "is_disabled": 0, "rental_uris": {"android": "https://dc.lft.to/lastmile_qr_scan", "ios": "https://dc.lft.to/lastmile_qr_scan"}, "fusion_lon": 0.0, "lat": 38.928534166666665, "bike_id": "37efa3cf7b7926d061a1a74556c1edaf", "type": "electric_scooter", "is_reserved": 0, "lon": -77.02439883333334}, {"fusion_lat": 0.0, "name": "4de5bf95998d0c9f8843d72f34ca2fab", "is_disabled": 0, "rental_uris": {"android": "https://dc.lft.to/lastmile_qr_scan", "ios": "https://dc.lft.to/lastmile_qr_scan"}, "fusion_lon": 0.0, "lat": 38.887714, "bike_id": "4de5bf95998d0c9f8843d72f34ca2fab", "type": "electric_scooter", "is_reserved": 0, "lon": -76.97750766666667}, {"fusion_lat": 0.0, "name": "bc61d2631f690e76d709ba055ff1993f", "is_disabled": 0, "rental_uris": {"android": "https://dc.lft.to/lastmile_qr_scan", "ios": "https://dc.lft.to/lastmile_qr_scan"}, "fusion_lon": 0.0, "lat": 38.92137533333333, "bike_id": "bc61d2631f690e76d709ba055ff1993f", "type": "electric_scooter", "is_reserved": 0, "lon": -77.009519}, {"fusion_lat": 0.0, "name": "0f260be884eede84a08dbce40d8c0e28", "is_disabled": 0, "rental_uris": {"android": "https://dc.lft.to/lastmile_qr_scan", "ios": "https://dc.lft.to/lastmile_qr_scan"}, "fusion_lon": 0.0, "lat": 38.961340666666665, "bike_id": "0f260be884eede84a08dbce40d8c0e28", "type": "electric_bike", "is_reserved": 0, "lon": -77.03332666666667}, {"fusion_lat": 0.0, "name": "af86f4e8b17cdf6651ccbecf3b10f001", "is_disabled": 0, "rental_uris": {"android": "https://dc.lft.to/lastmile_qr_scan", "ios": "https://dc.lft.to/lastmile_qr_scan"}, "fusion_lon": 0.0, "lat": 38.87722083333333, "bike_id": "af86f4e8b17cdf6651ccbecf3b10f001", "type": "electric_scooter", "is_reserved": 0, "lon": -77.017594}, {"fusion_lat": 0.0, "name": "26d9c354b7471965b73bd59e0856b955", "is_disabled": 0, "rental_uris": {"android": "https://dc.lft.to/lastmile_qr_scan", "ios": "https://dc.lft.to/lastmile_qr_scan"}, "fusion_lon": 0.0, "lat": 38.9207825, "bike_id": "26d9c354b7471965b73bd59e0856b955", "type": "electric_scooter", "is_reserved": 0, "lon": -77.0231405}, {"fusion_lat": 0.0, "name": "1f3316dc2ec304322bbca6bc466b9b37", "is_disabled": 0, "rental_uris": {"android": "https://dc.lft.to/lastmile_qr_scan", "ios": "https://dc.lft.to/lastmile_qr_scan"}, "fusion_lon": 0.0, "lat": 38.9166485, "bike_id": "1f3316dc2ec304322bbca6bc466b9b37", "type": "electric_scooter", "is_reserved": 0, "lon": -77.0385835}, {"fusion_lat": 0.0, "name": "a4e635a435255221fdd68cf92c5cfcf3", "is_disabled": 0, "rental_uris": {"android": "https://dc.lft.to/lastmile_qr_scan", "ios": "https://dc.lft.to/lastmile_qr_scan"}, "fusion_lon": 0.0, "lat": 38.886128166666666, "bike_id": "a4e635a435255221fdd68cf92c5cfcf3", "type": "electric_scooter", "is_reserved": 0, "lon": -77.0155605}, {"fusion_lat": 0.0, "name": "bd365c6dd22883a9e5f16a6a955f3b9f", "is_disabled": 0, "rental_uris": {"android": "https://dc.lft.to/lastmile_qr_scan", "ios": "https://dc.lft.to/lastmile_qr_scan"}, "fusion_lon": 0.0, "lat": 38.9339725, "bike_id": "bd365c6dd22883a9e5f16a6a955f3b9f", "type": "electric_scooter", "is_reserved": 0, "lon": -77.0576805}, {"fusion_lat": 0.0, "name": "b60bced2c579385a28b8ffcd73c9c790", "is_disabled": 0, "rental_uris": {"android": "https://dc.lft.to/lastmile_qr_scan", "ios": "https://dc.lft.to/lastmile_qr_scan"}, "fusion_lon": 0.0, "lat": 38.928713333333334, "bike_id": "b60bced2c579385a28b8ffcd73c9c790", "type": "electric_scooter", "is_reserved": 0, "lon": -77.03219583333333}, {"fusion_lat": 0.0, "name": "a5bcc23d812bcee201d874dacf8b031f", "is_disabled": 0, "rental_uris": {"android": "https://dc.lft.to/lastmile_qr_scan", "ios": "https://dc.lft.to/lastmile_qr_scan"}, "fusion_lon": 0.0, "lat": 38.892249666666665, "bike_id": "a5bcc23d812bcee201d874dacf8b031f", "type": "electric_scooter", "is_reserved": 0, "lon": -77.04123283333334}, {"fusion_lat": 0.0, "name": "c4f6363424a960cd7dab660ac8fac422", "is_disabled": 0, "rental_uris": {"android": "https://dc.lft.to/lastmile_qr_scan", "ios": "https://dc.lft.to/lastmile_qr_scan"}, "fusion_lon": 0.0, "lat": 38.90222116666666, "bike_id": "c4f6363424a960cd7dab660ac8fac422", "type": "electric_scooter", "is_reserved": 0, "lon": -76.99506883333333}, {"fusion_lat": 0.0, "name": "98dafc6df4ab7744384e9473e9335293", "is_disabled": 0, "rental_uris": {"android": "https://dc.lft.to/lastmile_qr_scan", "ios": "https://dc.lft.to/lastmile_qr_scan"}, "fusion_lon": 0.0, "lat": 38.903811166666664, "bike_id": "98dafc6df4ab7744384e9473e9335293", "type": "electric_scooter", "is_reserved": 0, "lon": -76.995619}, {"fusion_lat": 0.0, "name": "ede2b3246daea0fd111dbccdc7bbba7e", "is_disabled": 0, "rental_uris": {"android": "https://dc.lft.to/lastmile_qr_scan", "ios": "https://dc.lft.to/lastmile_qr_scan"}, "fusion_lon": 0.0, "lat": 38.91562283333333, "bike_id": "ede2b3246daea0fd111dbccdc7bbba7e", "type": "electric_scooter", "is_reserved": 0, "lon": -77.0315285}, {"fusion_lat": 0.0, "name": "7ed7f464af1bfa565cd27c3365252e65", "is_disabled": 0, "rental_uris": {"android": "https://dc.lft.to/lastmile_qr_scan", "ios": "https://dc.lft.to/lastmile_qr_scan"}, "fusion_lon": 0.0, "lat": 38.9249405, "bike_id": "7ed7f464af1bfa565cd27c3365252e65", "type": "electric_scooter", "is_reserved": 0, "lon": -77.0511075}, {"fusion_lat": 0.0, "name": "63c1108702e2d1941967d8f75c2fc664", "is_disabled": 0, "rental_uris": {"android": "https://dc.lft.to/lastmile_qr_scan", "ios": "https://dc.lft.to/lastmile_qr_scan"}, "fusion_lon": 0.0, "lat": 38.93817516666667, "bike_id": "63c1108702e2d1941967d8f75c2fc664", "type": "electric_scooter", "is_reserved": 0, "lon": -77.06018616666667}, {"fusion_lat": 0.0, "name": "1bf07120d151de5186edac45b6fa2352", "is_disabled": 0, "rental_uris": {"android": "https://dc.lft.to/lastmile_qr_scan", "ios": "https://dc.lft.to/lastmile_qr_scan"}, "fusion_lon": 0.0, "lat": 38.919259333333336, "bike_id": "1bf07120d151de5186edac45b6fa2352", "type": "electric_scooter", "is_reserved": 0, "lon": -77.02509733333333}, {"fusion_lat": 0.0, "name": "067df1bbc709981c3781a954157e4f31", "is_disabled": 0, "rental_uris": {"android": "https://dc.lft.to/lastmile_qr_scan", "ios": "https://dc.lft.to/lastmile_qr_scan"}, "fusion_lon": 0.0, "lat": 38.907857666666665, "bike_id": "067df1bbc709981c3781a954157e4f31", "type": "electric_scooter", "is_reserved": 0, "lon": -77.038567}, {"fusion_lat": 0.0, "name": "6aee7b444b4d22cd5e2235f1c9adc031", "is_disabled": 0, "rental_uris": {"android": "https://dc.lft.to/lastmile_qr_scan", "ios": "https://dc.lft.to/lastmile_qr_scan"}, "fusion_lon": 0.0, "lat": 38.87848133333333, "bike_id": "6aee7b444b4d22cd5e2235f1c9adc031", "type": "electric_bike", "is_reserved": 0, "lon": -77.0302505}, {"fusion_lat": 0.0, "name": "793ec72766b32c68bfa68042510232c6", "is_disabled": 0, "rental_uris": {"android": "https://dc.lft.to/lastmile_qr_scan", "ios": "https://dc.lft.to/lastmile_qr_scan"}, "fusion_lon": 0.0, "lat": 38.9004085, "bike_id": "793ec72766b32c68bfa68042510232c6", "type": "electric_scooter", "is_reserved": 0, "lon": -77.035228}, {"fusion_lat": 0.0, "name": "9d8819ef3a1e972aaafe050e6fc12b69", "is_disabled": 0, "rental_uris": {"android": "https://dc.lft.to/lastmile_qr_scan", "ios": "https://dc.lft.to/lastmile_qr_scan"}, "fusion_lon": 0.0, "lat": 38.9429435, "bike_id": "9d8819ef3a1e972aaafe050e6fc12b69", "type": "electric_scooter", "is_reserved": 0, "lon": -77.02170133333334}, {"fusion_lat": 0.0, "name": "f4c50b1bee0e39e3afcd688f52704696", "is_disabled": 0, "rental_uris": {"android": "https://dc.lft.to/lastmile_qr_scan", "ios": "https://dc.lft.to/lastmile_qr_scan"}, "fusion_lon": 0.0, "lat": 38.88302066666667, "bike_id": "f4c50b1bee0e39e3afcd688f52704696", "type": "electric_scooter", "is_reserved": 0, "lon": -76.94852916666666}, {"fusion_lat": 0.0, "name": "173dc62c75f40d09e2166cf212f58310", "is_disabled": 0, "rental_uris": {"android": "https://dc.lft.to/lastmile_qr_scan", "ios": "https://dc.lft.to/lastmile_qr_scan"}, "fusion_lon": 0.0, "lat": 38.924176333333335, "bike_id": "173dc62c75f40d09e2166cf212f58310", "type": "electric_scooter", "is_reserved": 0, "lon": -76.99623066666666}, {"fusion_lat": 0.0, "name": "26cd1baa377d5dcb3804e927b4930fb0", "is_disabled": 0, "rental_uris": {"android": "https://dc.lft.to/lastmile_qr_scan", "ios": "https://dc.lft.to/lastmile_qr_scan"}, "fusion_lon": 0.0, "lat": 38.89843116666667, "bike_id": "26cd1baa377d5dcb3804e927b4930fb0", "type": "electric_scooter", "is_reserved": 0, "lon": -77.01340283333333}, {"fusion_lat": 0.0, "name": "ed2794ffa0916d974063fd0cb89589fd", "is_disabled": 0, "rental_uris": {"android": "https://dc.lft.to/lastmile_qr_scan", "ios": "https://dc.lft.to/lastmile_qr_scan"}, "fusion_lon": 0.0, "lat": 38.884288833333336, "bike_id": "ed2794ffa0916d974063fd0cb89589fd", "type": "electric_scooter", "is_reserved": 0, "lon": -76.95752866666666}, {"fusion_lat": 0.0, "name": "a79745ece8ffbf6b1a6c1166e3caa12f", "is_disabled": 0, "rental_uris": {"android": "https://dc.lft.to/lastmile_qr_scan", "ios": "https://dc.lft.to/lastmile_qr_scan"}, "fusion_lon": 0.0, "lat": 38.916210166666666, "bike_id": "a79745ece8ffbf6b1a6c1166e3caa12f", "type": "electric_scooter", "is_reserved": 0, "lon": -77.02309333333334}, {"fusion_lat": 0.0, "name": "f5604a56734fd4670509115bb82f8d2f", "is_disabled": 0, "rental_uris": {"android": "https://dc.lft.to/lastmile_qr_scan", "ios": "https://dc.lft.to/lastmile_qr_scan"}, "fusion_lon": 0.0, "lat": 38.925186, "bike_id": "f5604a56734fd4670509115bb82f8d2f", "type": "electric_scooter", "is_reserved": 0, "lon": -77.0228475}, {"fusion_lat": 0.0, "name": "280a402a86d04a0821030382533da0f7", "is_disabled": 0, "rental_uris": {"android": "https://dc.lft.to/lastmile_qr_scan", "ios": "https://dc.lft.to/lastmile_qr_scan"}, "fusion_lon": 0.0, "lat": 38.935798166666665, "bike_id": "280a402a86d04a0821030382533da0f7", "type": "electric_scooter", "is_reserved": 0, "lon": -77.02849816666667}, {"fusion_lat": 0.0, "name": "6142e28ffafcaff184ed773c418ed02c", "is_disabled": 0, "rental_uris": {"android": "https://dc.lft.to/lastmile_qr_scan", "ios": "https://dc.lft.to/lastmile_qr_scan"}, "fusion_lon": 0.0, "lat": 38.985504, "bike_id": "6142e28ffafcaff184ed773c418ed02c", "type": "electric_bike", "is_reserved": 0, "lon": -77.0040525}, {"fusion_lat": 0.0, "name": "ec55e1c1927a0b2ea8071ed5a7287039", "is_disabled": 0, "rental_uris": {"android": "https://dc.lft.to/lastmile_qr_scan", "ios": "https://dc.lft.to/lastmile_qr_scan"}, "fusion_lon": 0.0, "lat": 38.89342083333333, "bike_id": "ec55e1c1927a0b2ea8071ed5a7287039", "type": "electric_scooter", "is_reserved": 0, "lon": -77.0467195}, {"fusion_lat": 0.0, "name": "9c0d8d27cd98bf74897aebbf67a3fa8b", "is_disabled": 0, "rental_uris": {"android": "https://dc.lft.to/lastmile_qr_scan", "ios": "https://dc.lft.to/lastmile_qr_scan"}, "fusion_lon": 0.0, "lat": 38.8542855, "bike_id": "9c0d8d27cd98bf74897aebbf67a3fa8b", "type": "electric_bike", "is_reserved": 0, "lon": -77.12078733333334}, {"fusion_lat": 0.0, "name": "8d3aedea43a431b8c70ed1a685896319", "is_disabled": 0, "rental_uris": {"android": "https://dc.lft.to/lastmile_qr_scan", "ios": "https://dc.lft.to/lastmile_qr_scan"}, "fusion_lon": 0.0, "lat": 38.95224916666667, "bike_id": "8d3aedea43a431b8c70ed1a685896319", "type": "electric_scooter", "is_reserved": 0, "lon": -77.082184}, {"fusion_lat": 0.0, "name": "522ccb86c6228e45e944a9c4449e8f59", "is_disabled": 0, "rental_uris": {"android": "https://dc.lft.to/lastmile_qr_scan", "ios": "https://dc.lft.to/lastmile_qr_scan"}, "fusion_lon": 0.0, "lat": 38.9208315, "bike_id": "522ccb86c6228e45e944a9c4449e8f59", "type": "electric_scooter", "is_reserved": 0, "lon": -76.99448333333333}, {"fusion_lat": 0.0, "name": "58ff4a5b83a21f0a5d57dad164066181", "is_disabled": 0, "rental_uris": {"android": "https://dc.lft.to/lastmile_qr_scan", "ios": "https://dc.lft.to/lastmile_qr_scan"}, "fusion_lon": 0.0, "lat": 38.897219666666665, "bike_id": "58ff4a5b83a21f0a5d57dad164066181", "type": "electric_scooter", "is_reserved": 0, "lon": -77.04631633333334}, {"fusion_lat": 0.0, "name": "784748aa49c5f434f1807d38c2be36c5", "is_disabled": 0, "rental_uris": {"android": "https://dc.lft.to/lastmile_qr_scan", "ios": "https://dc.lft.to/lastmile_qr_scan"}, "fusion_lon": 0.0, "lat": 38.920001666666664, "bike_id": "784748aa49c5f434f1807d38c2be36c5", "type": "electric_scooter", "is_reserved": 0, "lon": -77.07186233333333}, {"fusion_lat": 0.0, "name": "ade19ddb820f6144d27714b49c133364", "is_disabled": 0, "rental_uris": {"android": "https://dc.lft.to/lastmile_qr_scan", "ios": "https://dc.lft.to/lastmile_qr_scan"}, "fusion_lon": 0.0, "lat": 38.8877015, "bike_id": "ade19ddb820f6144d27714b49c133364", "type": "electric_scooter", "is_reserved": 0, "lon": -77.03303433333333}, {"fusion_lat": 0.0, "name": "626bf31c76c2b8ef98e865ba3892247b", "is_disabled": 0, "rental_uris": {"android": "https://dc.lft.to/lastmile_qr_scan", "ios": "https://dc.lft.to/lastmile_qr_scan"}, "fusion_lon": 0.0, "lat": 38.90780133333333, "bike_id": "626bf31c76c2b8ef98e865ba3892247b", "type": "electric_scooter", "is_reserved": 0, "lon": -77.05604566666666}, {"fusion_lat": 0.0, "name": "9df630b6e082344f59227267c4174662", "is_disabled": 0, "rental_uris": {"android": "https://dc.lft.to/lastmile_qr_scan", "ios": "https://dc.lft.to/lastmile_qr_scan"}, "fusion_lon": 0.0, "lat": 38.8873795, "bike_id": "9df630b6e082344f59227267c4174662", "type": "electric_scooter", "is_reserved": 0, "lon": -77.03175666666667}, {"fusion_lat": 0.0, "name": "b55dd20593c6cb2dde7cd047b81daef5", "is_disabled": 0, "rental_uris": {"android": "https://dc.lft.to/lastmile_qr_scan", "ios": "https://dc.lft.to/lastmile_qr_scan"}, "fusion_lon": 0.0, "lat": 38.892290833333334, "bike_id": "b55dd20593c6cb2dde7cd047b81daef5", "type": "electric_scooter", "is_reserved": 0, "lon": -77.02412083333333}, {"fusion_lat": 0.0, "name": "61da54bc6ab0814cd945cfdf510f25b4", "is_disabled": 0, "rental_uris": {"android": "https://dc.lft.to/lastmile_qr_scan", "ios": "https://dc.lft.to/lastmile_qr_scan"}, "fusion_lon": 0.0, "lat": 38.917359166666664, "bike_id": "61da54bc6ab0814cd945cfdf510f25b4", "type": "electric_scooter", "is_reserved": 0, "lon": -77.032023}, {"fusion_lat": 0.0, "name": "3fe8d79bd6a7c8f4bc984a0b1281b79c", "is_disabled": 0, "rental_uris": {"android": "https://dc.lft.to/lastmile_qr_scan", "ios": "https://dc.lft.to/lastmile_qr_scan"}, "fusion_lon": 0.0, "lat": 38.92221766666667, "bike_id": "3fe8d79bd6a7c8f4bc984a0b1281b79c", "type": "electric_bike", "is_reserved": 0, "lon": -77.2013745}, {"fusion_lat": 0.0, "name": "37a07944a4c5358289b01f6507a939af", "is_disabled": 0, "rental_uris": {"android": "https://dc.lft.to/lastmile_qr_scan", "ios": "https://dc.lft.to/lastmile_qr_scan"}, "fusion_lon": 0.0, "lat": 38.941973, "bike_id": "37a07944a4c5358289b01f6507a939af", "type": "electric_scooter", "is_reserved": 0, "lon": -77.025923}, {"fusion_lat": 0.0, "name": "0ea53e305ee83f05249df4eb2d01d802", "is_disabled": 0, "rental_uris": {"android": "https://dc.lft.to/lastmile_qr_scan", "ios": "https://dc.lft.to/lastmile_qr_scan"}, "fusion_lon": 0.0, "lat": 38.964109, "bike_id": "0ea53e305ee83f05249df4eb2d01d802", "type": "electric_scooter", "is_reserved": 0, "lon": -77.07530666666666}, {"fusion_lat": 0.0, "name": "171dff75f322b2c6bcb52c7c0d84f734", "is_disabled": 0, "rental_uris": {"android": "https://dc.lft.to/lastmile_qr_scan", "ios": "https://dc.lft.to/lastmile_qr_scan"}, "fusion_lon": 0.0, "lat": 38.88130533333333, "bike_id": "171dff75f322b2c6bcb52c7c0d84f734", "type": "electric_bike", "is_reserved": 0, "lon": -76.995493}, {"fusion_lat": 0.0, "name": "e9c79105767e832869bd8c11555790c2", "is_disabled": 0, "rental_uris": {"android": "https://dc.lft.to/lastmile_qr_scan", "ios": "https://dc.lft.to/lastmile_qr_scan"}, "fusion_lon": 0.0, "lat": 38.90375866666667, "bike_id": "e9c79105767e832869bd8c11555790c2", "type": "electric_scooter", "is_reserved": 0, "lon": -77.05154266666666}, {"fusion_lat": 0.0, "name": "19db8fe6376120960c56d3054121b693", "is_disabled": 0, "rental_uris": {"android": "https://dc.lft.to/lastmile_qr_scan", "ios": "https://dc.lft.to/lastmile_qr_scan"}, "fusion_lon": 0.0, "lat": 38.89403383333333, "bike_id": "19db8fe6376120960c56d3054121b693", "type": "electric_scooter", "is_reserved": 0, "lon": -76.99493066666666}, {"fusion_lat": 0.0, "name": "9df72156568aa3b338982302d8624259", "is_disabled": 0, "rental_uris": {"android": "https://dc.lft.to/lastmile_qr_scan", "ios": "https://dc.lft.to/lastmile_qr_scan"}, "fusion_lon": 0.0, "lat": 38.911319666666664, "bike_id": "9df72156568aa3b338982302d8624259", "type": "electric_scooter", "is_reserved": 0, "lon": -77.0199425}, {"fusion_lat": 0.0, "name": "153ca75aa37d9f773f762b3380dfce4e", "is_disabled": 0, "rental_uris": {"android": "https://dc.lft.to/lastmile_qr_scan", "ios": "https://dc.lft.to/lastmile_qr_scan"}, "fusion_lon": 0.0, "lat": 38.92146983333333, "bike_id": "153ca75aa37d9f773f762b3380dfce4e", "type": "electric_scooter", "is_reserved": 0, "lon": -77.04358566666667}, {"fusion_lat": 0.0, "name": "00f31c396451695a638906ebd94e6cf1", "is_disabled": 0, "rental_uris": {"android": "https://dc.lft.to/lastmile_qr_scan", "ios": "https://dc.lft.to/lastmile_qr_scan"}, "fusion_lon": 0.0, "lat": 38.9178085, "bike_id": "00f31c396451695a638906ebd94e6cf1", "type": "electric_scooter", "is_reserved": 0, "lon": -77.01221433333333}, {"fusion_lat": 0.0, "name": "411b0effdba7106e6c373afa47b6ae0f", "is_disabled": 0, "rental_uris": {"android": "https://dc.lft.to/lastmile_qr_scan", "ios": "https://dc.lft.to/lastmile_qr_scan"}, "fusion_lon": 0.0, "lat": 38.92296733333333, "bike_id": "411b0effdba7106e6c373afa47b6ae0f", "type": "electric_scooter", "is_reserved": 0, "lon": -77.042666}, {"fusion_lat": 0.0, "name": "0b3f192b3e4d22dd700d879ed6629afc", "is_disabled": 0, "rental_uris": {"android": "https://dc.lft.to/lastmile_qr_scan", "ios": "https://dc.lft.to/lastmile_qr_scan"}, "fusion_lon": 0.0, "lat": 38.9279835, "bike_id": "0b3f192b3e4d22dd700d879ed6629afc", "type": "electric_scooter", "is_reserved": 0, "lon": -77.02394716666667}, {"fusion_lat": 0.0, "name": "2b489101aa4b4d04f7641a6c7237f9a4", "is_disabled": 0, "rental_uris": {"android": "https://dc.lft.to/lastmile_qr_scan", "ios": "https://dc.lft.to/lastmile_qr_scan"}, "fusion_lon": 0.0, "lat": 38.916217833333334, "bike_id": "2b489101aa4b4d04f7641a6c7237f9a4", "type": "electric_scooter", "is_reserved": 0, "lon": -77.04567966666667}, {"fusion_lat": 0.0, "name": "81e3929c396e647018e7eaa80b677f5e", "is_disabled": 0, "rental_uris": {"android": "https://dc.lft.to/lastmile_qr_scan", "ios": "https://dc.lft.to/lastmile_qr_scan"}, "fusion_lon": 0.0, "lat": 38.90572866666667, "bike_id": "81e3929c396e647018e7eaa80b677f5e", "type": "electric_scooter", "is_reserved": 0, "lon": -77.03466066666667}, {"fusion_lat": 0.0, "name": "6ffb38c53f8a5402173bd9a374de8755", "is_disabled": 0, "rental_uris": {"android": "https://dc.lft.to/lastmile_qr_scan", "ios": "https://dc.lft.to/lastmile_qr_scan"}, "fusion_lon": 0.0, "lat": 38.901586333333334, "bike_id": "6ffb38c53f8a5402173bd9a374de8755", "type": "electric_scooter", "is_reserved": 0, "lon": -77.02300916666667}, {"fusion_lat": 0.0, "name": "6afc429eaf6749956cab2f389cc831bd", "is_disabled": 0, "rental_uris": {"android": "https://dc.lft.to/lastmile_qr_scan", "ios": "https://dc.lft.to/lastmile_qr_scan"}, "fusion_lon": 0.0, "lat": 38.873826666666666, "bike_id": "6afc429eaf6749956cab2f389cc831bd", "type": "electric_scooter", "is_reserved": 0, "lon": -77.00057216666667}, {"fusion_lat": 0.0, "name": "d89dcce5ed2eba6e06c1438a5529948d", "is_disabled": 0, "rental_uris": {"android": "https://dc.lft.to/lastmile_qr_scan", "ios": "https://dc.lft.to/lastmile_qr_scan"}, "fusion_lon": 0.0, "lat": 38.8676165, "bike_id": "d89dcce5ed2eba6e06c1438a5529948d", "type": "electric_scooter", "is_reserved": 0, "lon": -76.98267683333333}, {"fusion_lat": 0.0, "name": "8962e720072d94d7265d9a8f44420f26", "is_disabled": 0, "rental_uris": {"android": "https://dc.lft.to/lastmile_qr_scan", "ios": "https://dc.lft.to/lastmile_qr_scan"}, "fusion_lon": 0.0, "lat": 38.903922666666666, "bike_id": "8962e720072d94d7265d9a8f44420f26", "type": "electric_scooter", "is_reserved": 0, "lon": -77.0419115}, {"fusion_lat": 0.0, "name": "ec89bf8da700c403cc9de1c4e502550a", "is_disabled": 0, "rental_uris": {"android": "https://dc.lft.to/lastmile_qr_scan", "ios": "https://dc.lft.to/lastmile_qr_scan"}, "fusion_lon": 0.0, "lat": 38.88909233333333, "bike_id": "ec89bf8da700c403cc9de1c4e502550a", "type": "electric_scooter", "is_reserved": 0, "lon": -76.97732333333333}, {"fusion_lat": 0.0, "name": "7fa4c050db4c50e945a7f50215b0942e", "is_disabled": 0, "rental_uris": {"android": "https://dc.lft.to/lastmile_qr_scan", "ios": "https://dc.lft.to/lastmile_qr_scan"}, "fusion_lon": 0.0, "lat": 38.91736783333333, "bike_id": "7fa4c050db4c50e945a7f50215b0942e", "type": "electric_scooter", "is_reserved": 0, "lon": -77.04154566666666}, {"fusion_lat": 0.0, "name": "f5911bb4c6a7c8270863d7bf949cb79a", "is_disabled": 0, "rental_uris": {"android": "https://dc.lft.to/lastmile_qr_scan", "ios": "https://dc.lft.to/lastmile_qr_scan"}, "fusion_lon": 0.0, "lat": 38.896070333333334, "bike_id": "f5911bb4c6a7c8270863d7bf949cb79a", "type": "electric_scooter", "is_reserved": 0, "lon": -77.0092415}, {"fusion_lat": 0.0, "name": "66d98c0a2f17cbfc405350f3562ffeeb", "is_disabled": 0, "rental_uris": {"android": "https://dc.lft.to/lastmile_qr_scan", "ios": "https://dc.lft.to/lastmile_qr_scan"}, "fusion_lon": 0.0, "lat": 38.898782833333335, "bike_id": "66d98c0a2f17cbfc405350f3562ffeeb", "type": "electric_scooter", "is_reserved": 0, "lon": -76.9318595}, {"fusion_lat": 0.0, "name": "4a2c04941de2919dcf97312dc15dcf4f", "is_disabled": 0, "rental_uris": {"android": "https://dc.lft.to/lastmile_qr_scan", "ios": "https://dc.lft.to/lastmile_qr_scan"}, "fusion_lon": 0.0, "lat": 38.904452666666664, "bike_id": "4a2c04941de2919dcf97312dc15dcf4f", "type": "electric_scooter", "is_reserved": 0, "lon": -77.017862}, {"fusion_lat": 0.0, "name": "46c6db97687861670a986c81f80d445f", "is_disabled": 0, "rental_uris": {"android": "https://dc.lft.to/lastmile_qr_scan", "ios": "https://dc.lft.to/lastmile_qr_scan"}, "fusion_lon": 0.0, "lat": 38.900166, "bike_id": "46c6db97687861670a986c81f80d445f", "type": "electric_scooter", "is_reserved": 0, "lon": -77.04483}, {"fusion_lat": 0.0, "name": "cb5117ff19cdb7787c4555fc881837e1", "is_disabled": 0, "rental_uris": {"android": "https://dc.lft.to/lastmile_qr_scan", "ios": "https://dc.lft.to/lastmile_qr_scan"}, "fusion_lon": 0.0, "lat": 38.917115333333335, "bike_id": "cb5117ff19cdb7787c4555fc881837e1", "type": "electric_scooter", "is_reserved": 0, "lon": -77.03663883333333}, {"fusion_lat": 0.0, "name": "a3980b6f7884fdfd7f50539d4f1bffe0", "is_disabled": 0, "rental_uris": {"android": "https://dc.lft.to/lastmile_qr_scan", "ios": "https://dc.lft.to/lastmile_qr_scan"}, "fusion_lon": 0.0, "lat": 38.9239695, "bike_id": "a3980b6f7884fdfd7f50539d4f1bffe0", "type": "electric_scooter", "is_reserved": 0, "lon": -77.0249165}, {"fusion_lat": 0.0, "name": "6b468ca5a62868af2cfde40e2a345f2b", "is_disabled": 0, "rental_uris": {"android": "https://dc.lft.to/lastmile_qr_scan", "ios": "https://dc.lft.to/lastmile_qr_scan"}, "fusion_lon": 0.0, "lat": 38.87710666666667, "bike_id": "6b468ca5a62868af2cfde40e2a345f2b", "type": "electric_scooter", "is_reserved": 0, "lon": -76.99381633333333}, {"fusion_lat": 0.0, "name": "b8692c5b4203ede67ab30fdbf524109e", "is_disabled": 0, "rental_uris": {"android": "https://dc.lft.to/lastmile_qr_scan", "ios": "https://dc.lft.to/lastmile_qr_scan"}, "fusion_lon": 0.0, "lat": 38.92785766666667, "bike_id": "b8692c5b4203ede67ab30fdbf524109e", "type": "electric_scooter", "is_reserved": 0, "lon": -77.05277316666667}, {"fusion_lat": 0.0, "name": "a9542f91e4086cd5cf2f02079e69ca69", "is_disabled": 0, "rental_uris": {"android": "https://dc.lft.to/lastmile_qr_scan", "ios": "https://dc.lft.to/lastmile_qr_scan"}, "fusion_lon": 0.0, "lat": 38.886147666666666, "bike_id": "a9542f91e4086cd5cf2f02079e69ca69", "type": "electric_scooter", "is_reserved": 0, "lon": -77.01557933333333}, {"fusion_lat": 0.0, "name": "824a12f0e5d7be65913fe02d245ce72f", "is_disabled": 0, "rental_uris": {"android": "https://dc.lft.to/lastmile_qr_scan", "ios": "https://dc.lft.to/lastmile_qr_scan"}, "fusion_lon": 0.0, "lat": 38.90827266666667, "bike_id": "824a12f0e5d7be65913fe02d245ce72f", "type": "electric_scooter", "is_reserved": 0, "lon": -77.05493383333334}, {"fusion_lat": 0.0, "name": "73b5b8261e9885b213a018dcd162ea30", "is_disabled": 0, "rental_uris": {"android": "https://dc.lft.to/lastmile_qr_scan", "ios": "https://dc.lft.to/lastmile_qr_scan"}, "fusion_lon": 0.0, "lat": 38.920343833333334, "bike_id": "73b5b8261e9885b213a018dcd162ea30", "type": "electric_scooter", "is_reserved": 0, "lon": -77.01279666666667}, {"fusion_lat": 0.0, "name": "334e2975991072a6533fce04cbb38d3a", "is_disabled": 0, "rental_uris": {"android": "https://dc.lft.to/lastmile_qr_scan", "ios": "https://dc.lft.to/lastmile_qr_scan"}, "fusion_lon": 0.0, "lat": 38.918102833333336, "bike_id": "334e2975991072a6533fce04cbb38d3a", "type": "electric_scooter", "is_reserved": 0, "lon": -76.99978716666666}, {"fusion_lat": 0.0, "name": "eb13c8d71fe4cce0027053aca1d7400c", "is_disabled": 0, "rental_uris": {"android": "https://dc.lft.to/lastmile_qr_scan", "ios": "https://dc.lft.to/lastmile_qr_scan"}, "fusion_lon": 0.0, "lat": 38.95118933333333, "bike_id": "eb13c8d71fe4cce0027053aca1d7400c", "type": "electric_scooter", "is_reserved": 0, "lon": -77.013607}, {"fusion_lat": 0.0, "name": "50acb315e975cb6cae85d01df2e11a82", "is_disabled": 0, "rental_uris": {"android": "https://dc.lft.to/lastmile_qr_scan", "ios": "https://dc.lft.to/lastmile_qr_scan"}, "fusion_lon": 0.0, "lat": 38.947025833333335, "bike_id": "50acb315e975cb6cae85d01df2e11a82", "type": "electric_scooter", "is_reserved": 0, "lon": -77.01936783333333}, {"fusion_lat": 0.0, "name": "e9f93bd96f8f8181b71d581f0ac9f0f7", "is_disabled": 0, "rental_uris": {"android": "https://dc.lft.to/lastmile_qr_scan", "ios": "https://dc.lft.to/lastmile_qr_scan"}, "fusion_lon": 0.0, "lat": 38.931947, "bike_id": "e9f93bd96f8f8181b71d581f0ac9f0f7", "type": "electric_scooter", "is_reserved": 0, "lon": -77.04297166666667}, {"fusion_lat": 0.0, "name": "c463de3157005cdb44e0e2b555189abf", "is_disabled": 0, "rental_uris": {"android": "https://dc.lft.to/lastmile_qr_scan", "ios": "https://dc.lft.to/lastmile_qr_scan"}, "fusion_lon": 0.0, "lat": 38.89222783333334, "bike_id": "c463de3157005cdb44e0e2b555189abf", "type": "electric_scooter", "is_reserved": 0, "lon": -77.041232}, {"fusion_lat": 0.0, "name": "23705e83ce88d1ac15e8c54750b66697", "is_disabled": 0, "rental_uris": {"android": "https://dc.lft.to/lastmile_qr_scan", "ios": "https://dc.lft.to/lastmile_qr_scan"}, "fusion_lon": 0.0, "lat": 38.96119083333333, "bike_id": "23705e83ce88d1ac15e8c54750b66697", "type": "electric_scooter", "is_reserved": 0, "lon": -77.028657},