{"data": {"bikes": [{"rental_uris": {"android": "https://dc.lft.to/lastmile_qr_scan", "ios": "https://dc.lft.to/lastmile_qr_scan"}, "is_reserved": 0, "is_disabled": 0, "bike_id": "715a88725044f129d24001fe8e590435", "lat": 38.91916616666666, "name": "715a88725044f129d24001fe8e590435", "fusion_lon": 0.0, "fusion_lat": 0.0, "type": "electric_scooter", "lon": -77.03177866666667}, {"rental_uris": {"android": "https://dc.lft.to/lastmile_qr_scan", "ios": "https://dc.lft.to/lastmile_qr_scan"}, "is_reserved": 0, "is_disabled": 0, "bike_id": "3818b7e37e0798665ea9a0e80fd7e64e", "lat": 38.993476666666666, "name": "3818b7e37e0798665ea9a0e80fd7e64e", "fusion_lon": 0.0, "fusion_lat": 0.0, "type": "electric_bike", "lon": -77.1157525}, {"rental_uris": {"android": "https://dc.lft.to/lastmile_qr_scan", "ios": "https://dc.lft.to/lastmile_qr_scan"}, "is_reserved": 0, "is_disabled": 0, "bike_id": "acd8d1949c63f2ee281247f31f5e8524", "lat": 38.866897, "name": "acd8d1949c63f2ee281247f31f5e8524", "fusion_lon": 0.0, "fusion_lat": 0.0, "type": "electric_scooter", "lon": -76.985332}, {"rental_uris": {"android": "https://dc.lft.to/lastmile_qr_scan", "ios": "https://dc.lft.to/lastmile_qr_scan"}, "is_reserved": 0, "is_disabled": 0, "bike_id": "c34a7fced95bdf8df9a8b08447ced4b7", "lat": 38.92366716666667, "name": "c34a7fced95bdf8df9a8b08447ced4b7", "fusion_lon": 0.0, "fusion_lat": 0.0, "type": "electric_scooter", "lon": -77.05027366666667}, {"rental_uris": {"android": "https://dc.lft.to/lastmile_qr_scan", "ios": "https://dc.lft.to/lastmile_qr_scan"}, "is_reserved": 0, "is_disabled": 0, "bike_id": "85c636239a7c61514e836223486a6ca6", "lat": 38.892250833333335, "name": "85c636239a7c61514e836223486a6ca6", "fusion_lon": 0.0, "fusion_lat": 0.0, "type": "electric_scooter", "lon": -77.04335916666666}, {"rental_uris": {"android": "https://dc.lft.to/lastmile_qr_scan", "ios": "https://dc.lft.to/lastmile_qr_scan"}, "is_reserved": 0, "is_disabled": 0, "bike_id": "4fb3b2ddbe4f2d2b0987ff0c43e8a4aa", "lat": 38.92651016666667, "name": "4fb3b2ddbe4f2d2b0987ff0c43e8a4aa", "fusion_lon": 0.0, "fusion_lat": 0.0, "type": "electric_scooter", "lon": -77.037133}, {"rental_uris": {"android": "https://dc.lft.to/lastmile_qr_scan", "ios": "https://dc.lft.to/lastmile_qr_scan"}, "is_reserved": 0, "is_disabled": 0, "bike_id": "ebfb35c3b3cfa08d70df7fe9052deb25", "lat": 38.91182883333333, "name": "ebfb35c3b3cfa08d70df7fe9052deb25", "fusion_lon": 0.0, "fusion_lat": 0.0, "type": "electric_scooter", "lon": -77.02003716666667}, {"rental_uris": {"android": "https://dc.lft.to/lastmile_qr_scan", "ios": "https://dc.lft.to/lastmile_qr_scan"}, "is_reserved": 0, "is_disabled": 0, "bike_id": "adf73eb41560fc9540f84e7d27c31242", "lat": 38.9287965, "name": "adf73eb41560fc9540f84e7d27c31242", "fusion_lon": 0.0, "fusion_lat": 0.0, "type": "electric_scooter", "lon": -77.0373425}, {"rental_uris": {"android": "https://dc.lft.to/lastmile_qr_scan", "ios": "https://dc.lft.to/lastmile_qr_scan"}, "is_reserved": 0, "is_disabled": 0, "bike_id": "8b18101bace6194ad479fb01126ccfdd", "lat": 38.94178816666667, "name": "8b18101bace6194ad479fb01126ccfdd", "fusion_lon": 0.0, "fusion_lat": 0.0, "type": "electric_scooter", "lon": -77.02793116666666}, {"rental_uris": {"android": "https://dc.lft.to/lastmile_qr_scan", "ios": "https://dc.lft.to/lastmile_qr_scan"}, "is_reserved": 0, "is_disabled": 0, "bike_id": "6a131138dc06ea6f17077f4adaaa83ee", "lat": 38.90151566666667, "name": "6a131138dc06ea6f17077f4adaaa83ee", "fusion_lon": 0.0, "fusion_lat": 0.0, "type": "electric_scooter", "lon": -77.04394716666667}, {"rental_uris": {"android": "https://dc.lft.to/lastmile_qr_scan", "ios": "https://dc.lft.to/lastmile_qr_scan"}, "is_reserved": 0, "is_disabled": 0, "bike_id": "a1b5603a66b1ac2cd02b4b902a51df21", "lat": 38.921568666666666, "name": "a1b5603a66b1ac2cd02b4b902a51df21", "fusion_lon": 0.0, "fusion_lat": 0.0, "type": "electric_scooter", "lon": -77.0338025}, {"rental_uris": {"android": "https://dc.lft.to/lastmile_qr_scan", "ios": "https://dc.lft.to/lastmile_qr_scan"}, "is_reserved": 0, "is_disabled": 0, "bike_id": "a57c564cba96bbb2edcf41d7c46890ae", "lat": 38.892266, "name": "a57c564cba96bbb2edcf41d7c46890ae", "fusion_lon": 0.0, "fusion_lat": 0.0, "type": "electric_scooter", "lon": -77.01977783333334}, {"rental_uris": {"android": "https://dc.lft.to/lastmile_qr_scan", "ios": "https://dc.lft.to/lastmile_qr_scan"}, "is_reserved": 0, "is_disabled": 0, "bike_id": "0b9bdbadc4577d24192f1c0eba6790d3", "lat": 38.9236475, "name": "0b9bdbadc4577d24192f1c0eba6790d3", "fusion_lon": 0.0, "fusion_lat": 0.0, "type": "electric_scooter", "lon": -77.0504935}, {"rental_uris": {"android": "https://dc.lft.to/lastmile_qr_scan", "ios": "https://dc.lft.to/lastmile_qr_scan"}, "is_reserved": 0, "is_disabled": 0, "bike_id": "5fee62a8155f039a2700a5f0842bb5fe", "lat": 38.90259483333333, "name": "5fee62a8155f039a2700a5f0842bb5fe", "fusion_lon": 0.0, "fusion_lat": 0.0, "type": "electric_scooter", "lon": -77.04548566666666}, {"rental_uris": {"android": "https://dc.lft.to/lastmile_qr_scan", "ios": "https://dc.lft.to/lastmile_qr_scan"}, "is_reserved": 0, "is_disabled": 0, "bike_id": "afe1ba53d14323cf119662f75dfccb88", "lat": 38.90366483333333, "name": "afe1ba53d14323cf119662f75dfccb88", "fusion_lon": 0.0, "fusion_lat": 0.0, "type": "electric_scooter", "lon": -77.00756966666667}, {"rental_uris": {"android": "https://dc.lft.to/lastmile_qr_scan", "ios": "https://dc.lft.to/lastmile_qr_scan"}, "is_reserved": 0, "is_disabled": 0, "bike_id": "942295676ea568537a24e364ba46bfe7", "lat": 38.900338833333336, "name": "942295676ea568537a24e364ba46bfe7", "fusion_lon": 0.0, "fusion_lat": 0.0, "type": "electric_scooter", "lon": -77.03325433333333}, {"rental_uris": {"android": "https://dc.lft.to/lastmile_qr_scan", "ios": "https://dc.lft.to/lastmile_qr_scan"}, "is_reserved": 0, "is_disabled": 0, "bike_id": "b0aa4a5d5397012e52e6c99fc6b96dba", "lat": 38.8923385, "name": "b0aa4a5d5397012e52e6c99fc6b96dba", "fusion_lon": 0.0, "fusion_lat": 0.0, "type": "electric_scooter", "lon": -77.04369683333333}, {"rental_uris": {"android": "https://dc.lft.to/lastmile_qr_scan", "ios": "https://dc.lft.to/lastmile_qr_scan"}, "is_reserved": 0, "is_disabled": 0, "bike_id": "ef2701a9e47635b2e7664e85d41b9ea5", "lat": 38.93699683333333, "name": "ef2701a9e47635b2e7664e85d41b9ea5", "fusion_lon": 0.0, "fusion_lat": 0.0, "type": "electric_scooter", "lon": -77.021117}, {"rental_uris": {"android": "https://dc.lft.to/lastmile_qr_scan", "ios": "https://dc.lft.to/lastmile_qr_scan"}, "is_reserved": 0, "is_disabled": 0, "bike_id": "0b9abf33714c6f72234033bb55784f1b", "lat": 38.93501033333333, "name": "0b9abf33714c6f72234033bb55784f1b", "fusion_lon": 0.0, "fusion_lat": 0.0, "type": "electric_scooter", "lon": -76.96357533333334}, {"rental_uris": {"android": "https://dc.lft.to/lastmile_qr_scan", "ios": "https://dc.lft.to/lastmile_qr_scan"}, "is_reserved": 0, "is_disabled": 0, "bike_id": "30113c3c6736b16280a84280e579554f", "lat": 38.921858666666665, "name": "30113c3c6736b16280a84280e579554f", "fusion_lon": 0.0, "fusion_lat": 0.0, "type": "electric_scooter", "lon": -77.04122333333333}, {"rental_uris": {"android": "https://dc.lft.to/lastmile_qr_scan", "ios": "https://dc.lft.to/lastmile_qr_scan"}, "is_reserved": 0, "is_disabled": 0, "bike_id": "b6294fce2b4de4d0c93a20c671be424b", "lat": 38.8278515, "name": "b6294fce2b4de4d0c93a20c671be424b", "fusion_lon": 0.0, "fusion_lat": 0.0, "type": "electric_bike", "lon": -77.00918833333333}, {"rental_uris": {"android": "https://dc.lft.to/lastmile_qr_scan", "ios": "https://dc.lft.to/lastmile_qr_scan"}, "is_reserved": 0, "is_disabled": 0, "bike_id": "1273c1ae16eb28da08ac688ff2cc8e78", "lat": 38.9128775, "name": "1273c1ae16eb28da08ac688ff2cc8e78", "fusion_lon": 0.0, "fusion_lat": 0.0, "type": "electric_scooter", "lon": -77.02301933333334}, {"rental_uris": {"android": "https://dc.lft.to/lastmile_qr_scan", "ios": "https://dc.lft.to/lastmile_qr_scan"}, "is_reserved": 0, "is_disabled": 0, "bike_id": "f58dbe7f7c3b0c4550047f27dc9e8a68", "lat": 38.908278833333334, "name": "f58dbe7f7c3b0c4550047f27dc9e8a68", "fusion_lon": 0.0, "fusion_lat": 0.0, "type": "electric_scooter", "lon": -77.04328583333333}, {"rental_uris": {"android": "https://dc.lft.to/lastmile_qr_scan", "ios": "https://dc.lft.to/lastmile_qr_scan"}, "is_reserved": 0, "is_disabled": 0, "bike_id": "7d3da43e4e6ddfc83ed0da3a4dbeede1", "lat": 38.91921816666667, "name": "7d3da43e4e6ddfc83ed0da3a4dbeede1", "fusion_lon": 0.0, "fusion_lat": 0.0, "type": "electric_scooter", "lon": -77.03420866666667}, {"rental_uris": {"android": "https://dc.lft.to/lastmile_qr_scan", "ios": "https://dc.lft.to/lastmile_qr_scan"}, "is_reserved": 0, "is_disabled": 0, "bike_id": "37d3b0d52c6441c680ea5a40570ce993", "lat": 38.91599183333334, "name": "37d3b0d52c6441c680ea5a40570ce993", "fusion_lon": 0.0, "fusion_lat": 0.0, "type": "electric_scooter", "lon": -77.03518416666667}, {"rental_uris": {"android": "https://dc.lft.to/lastmile_qr_scan", "ios": "https://dc.lft.to/lastmile_qr_scan"}, "is_reserved": 0, "is_disabled": 0, "bike_id": "2970948a893e6b4e2efc1a1db47fa1e7", "lat": 38.91412966666667, "name": "2970948a893e6b4e2efc1a1db47fa1e7", "fusion_lon": 0.0, "fusion_lat": 0.0, "type": "electric_scooter", "lon": -77.01479416666666}, {"rental_uris": {"android": "https://dc.lft.to/lastmile_qr_scan", "ios": "https://dc.lft.to/lastmile_qr_scan"}, "is_reserved": 0, "is_disabled": 0, "bike_id": "4e19089bfc93f3d1eef48f98da83ce02", "lat": 38.925434833333334, "name": "4e19089bfc93f3d1eef48f98da83ce02", "fusion_lon": 0.0, "fusion_lat": 0.0, "type": "electric_scooter", "lon": -77.032647}, {"rental_uris": {"android": "https://dc.lft.to/lastmile_qr_scan", "ios": "https://dc.lft.to/lastmile_qr_scan"}, "is_reserved": 0, "is_disabled": 0, "bike_id": "109b79c4a25a14f8357b900f09b4b8be", "lat": 38.91990933333334, "name": "109b79c4a25a14f8357b900f09b4b8be", "fusion_lon": 0.0, "fusion_lat": 0.0, "type": "electric_scooter", "lon": -77.03248833333333}, {"rental_uris": {"android": "https://dc.lft.to/lastmile_qr_scan", "ios": "https://dc.lft.to/lastmile_qr_scan"}, "is_reserved": 0, "is_disabled": 0, "bike_id": "ea00f9863688d95510c2708ea999b0b9", "lat": 38.871823666666664, "name": "ea00f9863688d95510c2708ea999b0b9", "fusion_lon": 0.0, "fusion_lat": 0.0, "type": "electric_scooter", "lon": -77.006024}, {"rental_uris": {"android": "https://dc.lft.to/lastmile_qr_scan", "ios": "https://dc.lft.to/lastmile_qr_scan"}, "is_reserved": 0, "is_disabled": 0, "bike_id": "163e76651f07dc8f09210fa3eef83aad", "lat": 38.84315633333333, "name": "163e76651f07dc8f09210fa3eef83aad", "fusion_lon": 0.0, "fusion_lat": 0.0, "type": "electric_scooter", "lon": -76.999319}, {"rental_uris": {"android": "https://dc.lft.to/lastmile_qr_scan", "ios": "https://dc.lft.to/lastmile_qr_scan"}, "is_reserved": 0, "is_disabled": 0, "bike_id": "c251ab4f4ff5f3d2ab5b17519f19972e", "lat": 38.92276966666667, "name": "c251ab4f4ff5f3d2ab5b17519f19972e", "fusion_lon": 0.0, "fusion_lat": 0.0, "type": "electric_scooter", "lon": -77.0363985}, {"rental_uris": {"android": "https://dc.lft.to/lastmile_qr_scan", "ios": "https://dc.lft.to/lastmile_qr_scan"}, "is_reserved": 0, "is_disabled": 0, "bike_id": "21c40284e5267bfada7abdb66eff69d3", "lat": 38.912257833333335, "name": "21c40284e5267bfada7abdb66eff69d3", "fusion_lon": 0.0, "fusion_lat": 0.0, "type": "electric_scooter", "lon": -77.02801166666667}, {"rental_uris": {"android": "https://dc.lft.to/lastmile_qr_scan", "ios": "https://dc.lft.to/lastmile_qr_scan"}, "is_reserved": 0, "is_disabled": 0, "bike_id": "60a629e084184a2f97a8ea7af89aad3a", "lat": 38.90125716666667, "name": "60a629e084184a2f97a8ea7af89aad3a", "fusion_lon": 0.0, "fusion_lat": 0.0, "type": "electric_scooter", "lon": -77.051226}, {"rental_uris": {"android": "https://dc.lft.to/lastmile_qr_scan", "ios": "https://dc.lft.to/lastmile_qr_scan"}, "is_reserved": 0, "is_disabled": 0, "bike_id": "4cdc8683a0c0ac15d03dda30c40a54cf", "lat": 38.925192333333335, "name": "4cdc8683a0c0ac15d03dda30c40a54cf", "fusion_lon": 0.0, "fusion_lat": 0.0, "type": "electric_scooter", "lon": -77.05046466666667}, {"rental_uris": {"android": "https://dc.lft.to/lastmile_qr_scan", "ios": "https://dc.lft.to/lastmile_qr_scan"}, "is_reserved": 0, "is_disabled": 0, "bike_id": "c395790cb04b4c1899b5a68fda04ff78", "lat": 38.922006333333336, "name": "c395790cb04b4c1899b5a68fda04ff78", "fusion_lon": 0.0, "fusion_lat": 0.0, "type": "electric_scooter", "lon": -77.04253766666666}, {"rental_uris": {"android": "https://dc.lft.to/lastmile_qr_scan", "ios": "https://dc.lft.to/lastmile_qr_scan"}, "is_reserved": 0, "is_disabled": 0, "bike_id": "14c93f7c56492030f1c128edac4a94da", "lat": 38.95265783333333, "name": "14c93f7c56492030f1c128edac4a94da", "fusion_lon": 0.0, "fusion_lat": 0.0, "type": "electric_scooter", "lon": -76.99885333333333}, {"rental_uris": {"android": "https://dc.lft.to/lastmile_qr_scan", "ios": "https://dc.lft.to/lastmile_qr_scan"}, "is_reserved": 0, "is_disabled": 0, "bike_id": "7faa1900d9870dc626e675295c3ff76f", "lat": 38.9285215, "name": "7faa1900d9870dc626e675295c3ff76f", "fusion_lon": 0.0, "fusion_lat": 0.0, "type": "electric_scooter", "lon": -77.03306766666667}, {"rental_uris": {"android": "https://dc.lft.to/lastmile_qr_scan", "ios": "https://dc.lft.to/lastmile_qr_scan"}, "is_reserved": 0, "is_disabled": 0, "bike_id": "471fa1939aefdecb8f346065e828de9c", "lat": 38.8980385, "name": "471fa1939aefdecb8f346065e828de9c", "fusion_lon": 0.0, "fusion_lat": 0.0, "type": "electric_scooter", "lon": -76.99034333333333}, {"rental_uris": {"android": "https://dc.lft.to/lastmile_qr_scan", "ios": "https://dc.lft.to/lastmile_qr_scan"}, "is_reserved": 0, "is_disabled": 0, "bike_id": "5b6e7d6e5097e1247e3e419b89680736", "lat": 38.942892666666665, "name": "5b6e7d6e5097e1247e3e419b89680736", "fusion_lon": 0.0, "fusion_lat": 0.0, "type": "electric_scooter", "lon": -77.0279885}, {"rental_uris": {"android": "https://dc.lft.to/lastmile_qr_scan", "ios": "https://dc.lft.to/lastmile_qr_scan"}, "is_reserved": 0, "is_disabled": 0, "bike_id": "9ea30dfb8b506949be1eab77e0980ce4", "lat": 38.91916233333333, "name": "9ea30dfb8b506949be1eab77e0980ce4", "fusion_lon": 0.0, "fusion_lat": 0.0, "type": "electric_scooter", "lon": -77.02612483333333}, {"rental_uris": {"android": "https://dc.lft.to/lastmile_qr_scan", "ios": "https://dc.lft.to/lastmile_qr_scan"}, "is_reserved": 0, "is_disabled": 0, "bike_id": "936b083e5242ef623e07c2d7927bbb7f", "lat": 38.90687483333333, "name": "936b083e5242ef623e07c2d7927bbb7f", "fusion_lon": 0.0, "fusion_lat": 0.0, "type": "electric_scooter", "lon": -77.01621633333333}, {"rental_uris": {"android": "https://dc.lft.to/lastmile_qr_scan", "ios": "https://dc.lft.to/lastmile_qr_scan"}, "is_reserved": 0, "is_disabled": 0, "bike_id": "050e5f848027454f01ac3a06b25b4c9e", "lat": 38.871947666666664, "name": "050e5f848027454f01ac3a06b25b4c9e", "fusion_lon": 0.0, "fusion_lat": 0.0, "type": "electric_scooter", "lon": -76.97864416666667}, {"rental_uris": {"android": "https://dc.lft.to/lastmile_qr_scan", "ios": "https://dc.lft.to/lastmile_qr_scan"}, "is_reserved": 0, "is_disabled": 0, "bike_id": "1be83cc852a6c8733a80765746c40973", "lat": 38.90688766666667, "name": "1be83cc852a6c8733a80765746c40973", "fusion_lon": 0.0, "fusion_lat": 0.0, "type": "electric_scooter", "lon": -77.01015683333334}, {"rental_uris": {"android": "https://dc.lft.to/lastmile_qr_scan", "ios": "https://dc.lft.to/lastmile_qr_scan"}, "is_reserved": 0, "is_disabled": 0, "bike_id": "6b52bf3210536ace9892ff87d87cd3f5", "lat": 38.91821683333333, "name": "6b52bf3210536ace9892ff87d87cd3f5", "fusion_lon": 0.0, "fusion_lat": 0.0, "type": "electric_scooter", "lon": -77.027107}, {"rental_uris": {"android": "https://dc.lft.to/lastmile_qr_scan", "ios": "https://dc.lft.to/lastmile_qr_scan"}, "is_reserved": 0, "is_disabled": 0, "bike_id": "dbeaf12a6cd641b187bb99bcea5dde9c", "lat": 38.934769, "name": "dbeaf12a6cd641b187bb99bcea5dde9c", "fusion_lon": 0.0, "fusion_lat": 0.0, "type": "electric_scooter", "lon": -77.07268183333333}, {"rental_uris": {"android": "https://dc.lft.to/lastmile_qr_scan", "ios": "https://dc.lft.to/lastmile_qr_scan"}, "is_reserved": 0, "is_disabled": 0, "bike_id": "b3ddf9344689621e9ffd77eb8409be77", "lat": 38.884233, "name": "b3ddf9344689621e9ffd77eb8409be77", "fusion_lon": 0.0, "fusion_lat": 0.0, "type": "electric_scooter", "lon": -77.029213}, {"rental_uris": {"android": "https://dc.lft.to/lastmile_qr_scan", "ios": "https://dc.lft.to/lastmile_qr_scan"}, "is_reserved": 0, "is_disabled": 0, "bike_id": "4c32585fd9d5729feb9e477d24d5741e", "lat": 38.93971583333333, "name": "4c32585fd9d5729feb9e477d24d5741e", "fusion_lon": 0.0, "fusion_lat": 0.0, "type": "electric_scooter", "lon": -77.03254483333333}, {"rental_uris": {"android": "https://dc.lft.to/lastmile_qr_scan", "ios": "https://dc.lft.to/lastmile_qr_scan"}, "is_reserved": 0, "is_disabled": 0, "bike_id": "9756cfa621f01b1f2533511674f2663e", "lat": 38.897777833333336, "name": "9756cfa621f01b1f2533511674f2663e", "fusion_lon": 0.0, "fusion_lat": 0.0, "type": "electric_scooter", "lon": -77.009487}, {"rental_uris": {"android": "https://dc.lft.to/lastmile_qr_scan", "ios": "https://dc.lft.to/lastmile_qr_scan"}, "is_reserved": 0, "is_disabled": 0, "bike_id": "e711fe13f2f6e9bc8c6ca30013cc937f", "lat": 38.921125, "name": "e711fe13f2f6e9bc8c6ca30013cc937f", "fusion_lon": 0.0, "fusion_lat": 0.0, "type": "electric_scooter", "lon": -77.04580583333333}, {"rental_uris": {"android": "https://dc.lft.to/lastmile_qr_scan", "ios": "https://dc.lft.to/lastmile_qr_scan"}, "is_reserved": 0, "is_disabled": 0, "bike_id": "ef0f91feb1639b900e893f39852dc5d1", "lat": 38.91828983333333, "name": "ef0f91feb1639b900e893f39852dc5d1", "fusion_lon": 0.0, "fusion_lat": 0.0, "type": "electric_scooter", "lon": -77.027147}, {"rental_uris": {"android": "https://dc.lft.to/lastmile_qr_scan", "ios": "https://dc.lft.to/lastmile_qr_scan"}, "is_reserved": 0, "is_disabled": 0, "bike_id": "aac1cc4422e2e49da30f1f9295390ff0", "lat": 38.909644166666666, "name": "aac1cc4422e2e49da30f1f9295390ff0", "fusion_lon": 0.0, "fusion_lat": 0.0, "type": "electric_scooter", "lon": -77.034263}, {"rental_uris": {"android": "https://dc.lft.to/lastmile_qr_scan", "ios": "https://dc.lft.to/lastmile_qr_scan"}, "is_reserved": 0, "is_disabled": 0, "bike_id": "0271f3bbf0979a1e4a957b38df020ac6", "lat": 38.899166666666666, "name": "0271f3bbf0979a1e4a957b38df020ac6", "fusion_lon": 0.0, "fusion_lat": 0.0, "type": "electric_scooter", "lon": -77.003495}, {"rental_uris": {"android": "https://dc.lft.to/lastmile_qr_scan", "ios": "https://dc.lft.to/lastmile_qr_scan"}, "is_reserved": 0, "is_disabled": 0, "bike_id": "d7f0e0f78d186be82b23bf24ee32e539", "lat": 38.9033305, "name": "d7f0e0f78d186be82b23bf24ee32e539", "fusion_lon": 0.0, "fusion_lat": 0.0, "type": "electric_scooter", "lon": -76.97591216666666}, {"rental_uris": {"android": "https://dc.lft.to/lastmile_qr_scan", "ios": "https://dc.lft.to/lastmile_qr_scan"}, "is_reserved": 0, "is_disabled": 0, "bike_id": "05355fdda3ee1da8801dee24d4b54313", "lat": 38.90500516666667, "name": "05355fdda3ee1da8801dee24d4b54313", "fusion_lon": 0.0, "fusion_lat": 0.0, "type": "electric_scooter", "lon": -77.06285666666666}, {"rental_uris": {"android": "https://dc.lft.to/lastmile_qr_scan", "ios": "https://dc.lft.to/lastmile_qr_scan"}, "is_reserved": 0, "is_disabled": 0, "bike_id": "add623ede98701b76ebe2416600e2297", "lat": 38.925743833333335, "name": "add623ede98701b76ebe2416600e2297", "fusion_lon": 0.0, "fusion_lat": 0.0, "type": "electric_scooter", "lon": -77.03639583333333}, {"rental_uris": {"android": "https://dc.lft.to/lastmile_qr_scan", "ios": "https://dc.lft.to/lastmile_qr_scan"}, "is_reserved": 0, "is_disabled": 0, "bike_id": "99cd31ee977f771f36266b06b2ffe27c", "lat": 38.9306445, "name": "99cd31ee977f771f36266b06b2ffe27c", "fusion_lon": 0.0, "fusion_lat": 0.0, "type": "electric_scooter", "lon": -77.02967566666666}, {"rental_uris": {"android": "https://dc.lft.to/lastmile_qr_scan", "ios": "https://dc.lft.to/lastmile_qr_scan"}, "is_reserved": 0, "is_disabled": 0, "bike_id": "937449077b1ad60fa3b73b16d2fe85c8", "lat": 38.88370966666667, "name": "937449077b1ad60fa3b73b16d2fe85c8", "fusion_lon": 0.0, "fusion_lat": 0.0, "type": "electric_scooter", "lon": -76.9953795}, {"rental_uris": {"android": "https://dc.lft.to/lastmile_qr_scan", "ios": "https://dc.lft.to/lastmile_qr_scan"}, "is_reserved": 0, "is_disabled": 0, "bike_id": "ea374250a009b56958b781e954100b8b", "lat": 38.84430066666667, "name": "ea374250a009b56958b781e954100b8b", "fusion_lon": 0.0, "fusion_lat": 0.0, "type": "electric_scooter", "lon": -76.99776416666667}, {"rental_uris": {"android": "https://dc.lft.to/lastmile_qr_scan", "ios": "https://dc.lft.to/lastmile_qr_scan"}, "is_reserved": 0, "is_disabled": 0, "bike_id": "5dd792f7f69f17723e7e7ca52e496021", "lat": 38.9027645, "name": "5dd792f7f69f17723e7e7ca52e496021", "fusion_lon": 0.0, "fusion_lat": 0.0, "type": "electric_scooter", "lon": -77.03876066666666}, {"rental_uris": {"android": "https://dc.lft.to/lastmile_qr_scan", "ios": "https://dc.lft.to/lastmile_qr_scan"}, "is_reserved": 0, "is_disabled": 0, "bike_id": "d94e973e080dcc5190e9c329adf73dd9", "lat": 38.90340916666667, "name": "d94e973e080dcc5190e9c329adf73dd9", "fusion_lon": 0.0, "fusion_lat": 0.0, "type": "electric_scooter", "lon": -77.0675705}, {"rental_uris": {"android": "https://dc.lft.to/lastmile_qr_scan", "ios": "https://dc.lft.to/lastmile_qr_scan"}, "is_reserved": 0, "is_disabled": 0, "bike_id": "b9d9c8dced484c7a1cbbdac7a600d541", "lat": 38.90854916666667, "name": "b9d9c8dced484c7a1cbbdac7a600d541", "fusion_lon": 0.0, "fusion_lat": 0.0, "type": "electric_scooter", "lon": -77.0243205}, {"rental_uris": {"android": "https://dc.lft.to/lastmile_qr_scan", "ios": "https://dc.lft.to/lastmile_qr_scan"}, "is_reserved": 0, "is_disabled": 0, "bike_id": "c07c65b814cd76b92ae71ab62b60c2fe", "lat": 38.93733066666667, "name": "c07c65b814cd76b92ae71ab62b60c2fe", "fusion_lon": 0.0, "fusion_lat": 0.0, "type": "electric_scooter", "lon": -77.02367766666667}, {"rental_uris": {"android": "https://dc.lft.to/lastmile_qr_scan", "ios": "https://dc.lft.to/lastmile_qr_scan"}, "is_reserved": 0, "is_disabled": 0, "bike_id": "dd8e09ecdca373973cb0347304795d26", "lat": 38.92649, "name": "dd8e09ecdca373973cb0347304795d26", "fusion_lon": 0.0, "fusion_lat": 0.0, "type": "electric_scooter", "lon": -77.0415155}, {"rental_uris": {"android": "https://dc.lft.to/lastmile_qr_scan", "ios": "https://dc.lft.to/lastmile_qr_scan"}, "is_reserved": 0, "is_disabled": 0, "bike_id": "b78472f8e61045d266a03df9d1f4d38c", "lat": 38.918078333333334, "name": "b78472f8e61045d266a03df9d1f4d38c", "fusion_lon": 0.0, "fusion_lat": 0.0, "type": "electric_scooter", "lon": -77.03021483333333}, {"rental_uris": {"android": "https://dc.lft.to/lastmile_qr_scan", "ios": "https://dc.lft.to/lastmile_qr_scan"}, "is_reserved": 0, "is_disabled": 0, "bike_id": "3473cf58264d250f35da865d1508db87", "lat": 38.93048733333333, "name": "3473cf58264d250f35da865d1508db87", "fusion_lon": 0.0, "fusion_lat": 0.0, "type": "electric_scooter", "lon": -77.037886}, {"rental_uris": {"android": "https://dc.lft.to/lastmile_qr_scan", "ios": "https://dc.lft.to/lastmile_qr_scan"}, "is_reserved": 0, "is_disabled": 0, "bike_id": "67bf3562a63dc2a65422106b9cf1ed55", "lat": 38.892204666666665, "name": "67bf3562a63dc2a65422106b9cf1ed55", "fusion_lon": 0.0, "fusion_lat": 0.0, "type": "electric_scooter", "lon": -77.032197}, {"rental_uris": {"android": "https://dc.lft.to/lastmile_qr_scan", "ios": "https://dc.lft.to/lastmile_qr_scan"}, "is_reserved": 0, "is_disabled": 0, "bike_id": "e5fcbbb4b41da2a31533f16b0e7e314e", "lat": 38.92457, "name": "e5fcbbb4b41da2a31533f16b0e7e314e", "fusion_lon": 0.0, "fusion_lat": 0.0, "type": "electric_scooter", "lon": -76.9991555}, {"rental_uris": {"android": "https://dc.lft.to/lastmile_qr_scan", "ios": "https://dc.lft.to/lastmile_qr_scan"}, "is_reserved": 0, "is_disabled": 0, "bike_id": "a60b6e9a501ff7a2439030211f0d2db8", "lat": 38.858538, "name": "a60b6e9a501ff7a2439030211f0d2db8", "fusion_lon": 0.0, "fusion_lat": 0.0, "type": "electric_bike", "lon": -77.0974835}, {"rental_uris": {"android": "https://dc.lft.to/lastmile_qr_scan", "ios": "https://dc.lft.to/lastmile_qr_scan"}, "is_reserved": 0, "is_disabled": 0, "bike_id": "2bd582d272339519d72bf945e25c7d9b", "lat": 38.86515583333333, "name": "2bd582d272339519d72bf945e25c7d9b", "fusion_lon": 0.0, "fusion_lat": 0.0, "type": "electric_bike", "lon": -76.9733395}, {"rental_uris": {"android": "https://dc.lft.to/lastmile_qr_scan", "ios": "https://dc.lft.to/lastmile_qr_scan"}, "is_reserved": 0, "is_disabled": 0, "bike_id": "9574846986a7b1ba874714b4b3558168", "lat": 38.9346355, "name": "9574846986a7b1ba874714b4b3558168", "fusion_lon": 0.0, "fusion_lat": 0.0, "type": "electric_scooter", "lon": -77.03399883333333}, {"rental_uris": {"android": "https://dc.lft.to/lastmile_qr_scan", "ios": "https://dc.lft.to/lastmile_qr_scan"}, "is_reserved": 0, "is_disabled": 0, "bike_id": "b1b02a5c762a1172e9596f821e325fe1", "lat": 38.91611366666667, "name": "b1b02a5c762a1172e9596f821e325fe1", "fusion_lon": 0.0, "fusion_lat": 0.0, "type": "electric_scooter", "lon": -77.03166933333334}, {"rental_uris": {"android": "https://dc.lft.to/lastmile_qr_scan", "ios": "https://dc.lft.to/lastmile_qr_scan"}, "is_reserved": 0, "is_disabled": 0, "bike_id": "e71471370fea4fd1ae4a2b29318ddc35", "lat": 38.91711433333333, "name": "e71471370fea4fd1ae4a2b29318ddc35", "fusion_lon": 0.0, "fusion_lat": 0.0, "type": "electric_scooter", "lon": -77.03059416666666}, {"rental_uris": {"android": "https://dc.lft.to/lastmile_qr_scan", "ios": "https://dc.lft.to/lastmile_qr_scan"}, "is_reserved": 0, "is_disabled": 0, "bike_id": "779843469edf4b5692419f8d25325fad", "lat": 38.866701, "name": "779843469edf4b5692419f8d25325fad", "fusion_lon": 0.0, "fusion_lat": 0.0, "type": "electric_scooter", "lon": -76.9850105}, {"rental_uris": {"android": "https://dc.lft.to/lastmile_qr_scan", "ios": "https://dc.lft.to/lastmile_qr_scan"}, "is_reserved": 0, "is_disabled": 0, "bike_id": "b4606bd265c7b64605539994ae25056f", "lat": 38.892203333333335, "name": "b4606bd265c7b64605539994ae25056f", "fusion_lon": 0.0, "fusion_lat": 0.0, "type": "electric_scooter", "lon": -77.03162283333333}, {"rental_uris": {"android": "https://dc.lft.to/lastmile_qr_scan", "ios": "https://dc.lft.to/lastmile_qr_scan"}, "is_reserved": 0, "is_disabled": 0, "bike_id": "d04af23a677f2cee41fd30d8e2ba5ba1", "lat": 38.9204345, "name": "d04af23a677f2cee41fd30d8e2ba5ba1", "fusion_lon": 0.0, "fusion_lat": 0.0, "type": "electric_scooter", "lon": -77.02370433333333}, {"rental_uris": {"android": "https://dc.lft.to/lastmile_qr_scan", "ios": "https://dc.lft.to/lastmile_qr_scan"}, "is_reserved": 0, "is_disabled": 0, "bike_id": "34ad79e88dcb8f048a23d5bdedc76e98", "lat": 38.922473833333335, "name": "34ad79e88dcb8f048a23d5bdedc76e98", "fusion_lon": 0.0, "fusion_lat": 0.0, "type": "electric_scooter", "lon": -77.03085716666666}, {"rental_uris": {"android": "https://dc.lft.to/lastmile_qr_scan", "ios": "https://dc.lft.to/lastmile_qr_scan"}, "is_reserved": 0, "is_disabled": 0, "bike_id": "3a6cd9a29966037d91dc00b31c9b7699", "lat": 38.894597, "name": "3a6cd9a29966037d91dc00b31c9b7699", "fusion_lon": 0.0, "fusion_lat": 0.0, "type": "electric_scooter", "lon": -77.0467695}, {"rental_uris": {"android": "https://dc.lft.to/lastmile_qr_scan", "ios": "https://dc.lft.to/lastmile_qr_scan"}, "is_reserved": 0, "is_disabled": 0, "bike_id": "076ef30574e9b5705bd86fb7cdf19cbc", "lat": 38.900392333333336, "name": "076ef30574e9b5705bd86fb7cdf19cbc", "fusion_lon": 0.0, "fusion_lat": 0.0, "type": "electric_scooter", "lon": -76.98822133333333}, {"rental_uris": {"android": "https://dc.lft.to/lastmile_qr_scan", "ios": "https://dc.lft.to/lastmile_qr_scan"}, "is_reserved": 0, "is_disabled": 0, "bike_id": "bf2286c3f0b0fd1a89f87e619efdc49f", "lat": 38.92363566666667, "name": "bf2286c3f0b0fd1a89f87e619efdc49f", "fusion_lon": 0.0, "fusion_lat": 0.0, "type": "electric_scooter", "lon": -77.0512995}, {"rental_uris": {"android": "https://dc.lft.to/lastmile_qr_scan", "ios": "https://dc.lft.to/lastmile_qr_scan"}, "is_reserved": 0, "is_disabled": 0, "bike_id": "6b691ea1ab985c792da705c3d040aa6f", "lat": 38.921164166666664, "name": "6b691ea1ab985c792da705c3d040aa6f", "fusion_lon": 0.0, "fusion_lat": 0.0, "type": "electric_scooter", "lon": -77.0463615}, {"rental_uris": {"android": "https://dc.lft.to/lastmile_qr_scan", "ios": "https://dc.lft.to/lastmile_qr_scan"}, "is_reserved": 0, "is_disabled": 0, "bike_id": "1dcfee749ee892aa0daf4732f9986610", "lat": 38.95229616666667, "name": "1dcfee749ee892aa0daf4732f9986610", "fusion_lon": 0.0, "fusion_lat": 0.0, "type": "electric_scooter", "lon": -77.01432216666667}, {"rental_uris": {"android": "https://dc.lft.to/lastmile_qr_scan", "ios": "https://dc.lft.to/lastmile_qr_scan"}, "is_reserved": 0, "is_disabled": 0, "bike_id": "ec72d3fed2759d521f9a60ab123c4a8b", "lat": 38.930860833333334, "name": "ec72d3fed2759d521f9a60ab123c4a8b", "fusion_lon": 0.0, "fusion_lat": 0.0, "type": "electric_scooter", "lon": -77.00409316666666}, {"rental_uris": {"android": "https://dc.lft.to/lastmile_qr_scan", "ios": "https://dc.lft.to/lastmile_qr_scan"}, "is_reserved": 0, "is_disabled": 0, "bike_id": "df9a4b3a59d6f4c77f213d33b26d5731", "lat": 38.93655916666667, "name": "df9a4b3a59d6f4c77f213d33b26d5731", "fusion_lon": 0.0, "fusion_lat": 0.0, "type": "electric_scooter", "lon": -77.03264966666667}, {"rental_uris": {"android": "https://dc.lft.to/lastmile_qr_scan", "ios": "https://dc.lft.to/lastmile_qr_scan"}, "is_reserved": 0, "is_disabled": 0, "bike_id": "40d211db0050829d8e316ad58b3e9f60", "lat": 38.92430233333333, "name": "40d211db0050829d8e316ad58b3e9f60", "fusion_lon": 0.0, "fusion_lat": 0.0, "type": "electric_scooter", "lon": -77.04242183333334}, {"rental_uris": {"android": "https://dc.lft.to/lastmile_qr_scan", "ios": "https://dc.lft.to/lastmile_qr_scan"}, "is_reserved": 0, "is_disabled": 0, "bike_id": "64c2dbb14fdce14b1d31e03ec4925848", "lat": 38.905216333333335, "name": "64c2dbb14fdce14b1d31e03ec4925848", "fusion_lon": 0.0, "fusion_lat": 0.0, "type": "electric_scooter", "lon": -77.02951766666666}, {"rental_uris": {"android": "https://dc.lft.to/lastmile_qr_scan", "ios": "https://dc.lft.to/lastmile_qr_scan"}, "is_reserved": 0, "is_disabled": 0, "bike_id": "6ca4a940add56574b2d6987383f55d50", "lat": 38.887408666666666, "name": "6ca4a940add56574b2d6987383f55d50", "fusion_lon": 0.0, "fusion_lat": 0.0, "type": "electric_scooter", "lon": -77.015125}, {"rental_uris": {"android": "https://dc.lft.to/lastmile_qr_scan", "ios": "https://dc.lft.to/lastmile_qr_scan"}, "is_reserved": 0, "is_disabled": 0, "bike_id": "7a045c3d93834c65f53f7a1391f17dc4", "lat": 38.92151116666667, "name": "7a045c3d93834c65f53f7a1391f17dc4", "fusion_lon": 0.0, "fusion_lat": 0.0, "type": "electric_scooter", "lon": -77.03379066666666}, {"rental_uris": {"android": "https://dc.lft.to/lastmile_qr_scan", "ios": "https://dc.lft.to/lastmile_qr_scan"}, "is_reserved": 0, "is_disabled": 0, "bike_id": "0c6eac0fe8d7cc677beb1be172bfbf20", "lat": 38.937062833333336, "name": "0c6eac0fe8d7cc677beb1be172bfbf20", "fusion_lon": 0.0, "fusion_lat": 0.0, "type": "electric_scooter", "lon": -77.06105316666667}, {"rental_uris": {"android": "https://dc.lft.to/lastmile_qr_scan", "ios": "https://dc.lft.to/lastmile_qr_scan"}, "is_reserved": 0, "is_disabled": 0, "bike_id": "e743c1117d9f0afb463d08bcf77bb330", "lat": 38.8950865, "name": "e743c1117d9f0afb463d08bcf77bb330", "fusion_lon": 0.0, "fusion_lat": 0.0, "type": "electric_scooter", "lon": -76.94885866666667}, {"rental_uris": {"android": "https://dc.lft.to/lastmile_qr_scan", "ios": "https://dc.lft.to/lastmile_qr_scan"}, "is_reserved": 0, "is_disabled": 0, "bike_id": "1d106932a5154f6d38bf0b0537bf1cac", "lat": 38.91617633333333, "name": "1d106932a5154f6d38bf0b0537bf1cac", "fusion_lon": 0.0, "fusion_lat": 0.0, "type": "electric_scooter", "lon": -77.0092275}, {"rental_uris": {"android": "https://dc.lft.to/lastmile_qr_scan", "ios": "https://dc.lft.to/lastmile_qr_scan"}, "is_reserved": 0, "is_disabled": 0, "bike_id": "b3fddc20101e405c535bfa52062a2f4c", "lat": 38.9086555, "name": "b3fddc20101e405c535bfa52062a2f4c", "fusion_lon": 0.0, "fusion_lat": 0.0, "type": "electric_scooter", "lon": -77.04267216666666}, {"rental_uris": {"android": "https://dc.lft.to/lastmile_qr_scan", "ios": "https://dc.lft.to/lastmile_qr_scan"}, "is_reserved": 0, "is_disabled": 0, "bike_id": "86ff16b629dd189f45588181fa3c9d48", "lat": 38.88608833333333, "name": "86ff16b629dd189f45588181fa3c9d48", "fusion_lon": 0.0, "fusion_lat": 0.0, "type": "electric_scooter", "lon": -76.99481433333334}, {"rental_uris": {"android": "https://dc.lft.to/lastmile_qr_scan", "ios": "https://dc.lft.to/lastmile_qr_scan"}, "is_reserved": 0, "is_disabled": 0, "bike_id": "7ffdf0041de2a78201a5377d720660a4", "lat": 38.91563416666666, "name": "7ffdf0041de2a78201a5377d720660a4", "fusion_lon": 0.0, "fusion_lat": 0.0, "type": "electric_scooter", "lon": -77.03871266666667}, {"rental_uris": {"android": "https://dc.lft.to/lastmile_qr_scan", "ios": "https://dc.lft.to/lastmile_qr_scan"}, "is_reserved": 0, "is_disabled": 0, "bike_id": "3e61e3dda4346fcda4cac7ec9c3be458", "lat": 38.91931233333333, "name": "3e61e3dda4346fcda4cac7ec9c3be458", "fusion_lon": 0.0, "fusion_lat": 0.0, "type": "electric_scooter", "lon": -77.04623383333333}, {"rental_uris": {"android": "https://dc.lft.to/lastmile_qr_scan", "ios": "https://dc.lft.to/lastmile_qr_scan"}, "is_reserved": 0, "is_disabled": 0, "bike_id": "660ae8b26ead19603f8348545eb950c6", "lat": 38.92747583333333, "name": "660ae8b26ead19603f8348545eb950c6", "fusion_lon": 0.0, "fusion_lat": 0.0, "type": "electric_scooter", "lon": -77.02535466666667}, {"rental_uris": {"android": "https://dc.lft.to/lastmile_qr_scan", "ios": "https://dc.lft.to/lastmile_qr_scan"}, "is_reserved": 0, "is_disabled": 0, "bike_id": "6c65bae38c57e3b8ce883da39ab6690f", "lat": 38.9305135, "name": "6c65bae38c57e3b8ce883da39ab6690f", "fusion_lon": 0.0, "fusion_lat": 0.0, "type": "electric_scooter", "lon": -77.05852683333333}, {"rental_uris": {"android": "https://dc.lft.to/lastmile_qr_scan", "ios": "https://dc.lft.to/lastmile_qr_scan"}, "is_reserved": 0, "is_disabled": 0, "bike_id": "b19e9392ba8d71f322cdf171052cf586", "lat": 38.866854333333336, "name": "b19e9392ba8d71f322cdf171052cf586", "fusion_lon": 0.0, "fusion_lat": 0.0, "type": "electric_scooter", "lon": -76.985949}, {"rental_uris": {"android": "https://dc.lft.to/lastmile_qr_scan", "ios": "https://dc.lft.to/lastmile_qr_scan"}, "is_reserved": 0, "is_disabled": 0, "bike_id": "fd4c7a59a28318dc2f0ddfa0f54c46f4", "lat": 38.962257666666666, "name": "fd4c7a59a28318dc2f0ddfa0f54c46f4", "fusion_lon": 0.0, "fusion_lat": 0.0, "type": "electric_bike", "lon": -77.02627616666666}, {"rental_uris": {"android": "https://dc.lft.to/lastmile_qr_scan", "ios": "https://dc.lft.to/lastmile_qr_scan"}, "is_reserved": 0, "is_disabled": 0, "bike_id": "725adbc0ae2a12d4a73f1a44580b28a9", "lat": 38.914644333333335, "name": "725adbc0ae2a12d4a73f1a44580b28a9", "fusion_lon": 0.0, "fusion_lat": 0.0, "type": "electric_scooter", "lon": -77.002067}, {"rental_uris": {"android": "https://dc.lft.to/lastmile_qr_scan", "ios": "https://dc.lft.to/lastmile_qr_scan"}, "is_reserved": 0, "is_disabled": 0, "bike_id": "79e12f427c63d0b523172d4e718d2911", "lat": 38.86621016666667, "name": "79e12f427c63d0b523172d4e718d2911", "fusion_lon": 0.0, "fusion_lat": 0.0, "type": "electric_bike", "lon": -76.94569816666667}, {"rental_uris": {"android": "https://dc.lft.to/lastmile_qr_scan", "ios": "https://dc.lft.to/lastmile_qr_scan"}, "is_reserved": 0, "is_disabled": 0, "bike_id": "6c96df3ed1871107afa7492d9055a7c5", "lat": 38.89964066666667, "name": "6c96df3ed1871107afa7492d9055a7c5", "fusion_lon": 0.0, "fusion_lat": 0.0, "type": "electric_scooter", "lon": -77.01616633333333}, {"rental_uris": {"android": "https://dc.lft.to/lastmile_qr_scan", "ios": "https://dc.lft.to/lastmile_qr_scan"}, "is_reserved": 0, "is_disabled": 0, "bike_id": "5629d4dc7c94233ce6b9d9608d1958a2", "lat": 38.907651, "name": "5629d4dc7c94233ce6b9d9608d1958a2", "fusion_lon": 0.0, "fusion_lat": 0.0, "type": "electric_scooter", "lon": -77.0319475}, {"rental_uris": {"android": "https://dc.lft.to/lastmile_qr_scan", "ios": "https://dc.lft.to/lastmile_qr_scan"}, "is_reserved": 0, "is_disabled": 0, "bike_id": "cb52126bb15d7c77e3979791ce91aad3", "lat": 38.9388145, "name": "cb52126bb15d7c77e3979791ce91aad3", "fusion_lon": 0.0, "fusion_lat": 0.0, "type": "electric_scooter", "lon": -77.0246615}, {"rental_uris": {"android": "https://dc.lft.to/lastmile_qr_scan", "ios": "https://dc.lft.to/lastmile_qr_scan"}, "is_reserved": 0, "is_disabled": 0, "bike_id": "429f60ec45002c2225a510934b41bdf5", "lat": 38.92754983333333, "name": "429f60ec45002c2225a510934b41bdf5", "fusion_lon": 0.0, "fusion_lat": 0.0, "type": "electric_scooter", "lon": -77.02421616666666}, {"rental_uris": {"android": "https://dc.lft.to/lastmile_qr_scan", "ios": "https://dc.lft.to/lastmile_qr_scan"}, "is_reserved": 0, "is_disabled": 0, "bike_id": "cfc5f4d06bc9023dcabdae23283f3bc3", "lat": 38.963273666666666, "name": "cfc5f4d06bc9023dcabdae23283f3bc3", "fusion_lon": 0.0, "fusion_lat": 0.0, "type": "electric_bike", "lon": -76.973034}, {"rental_uris": {"android": "https://dc.lft.to/lastmile_qr_scan", "ios": "https://dc.lft.to/lastmile_qr_scan"}, "is_reserved": 0, "is_disabled": 0, "bike_id": "c143500467796a481b8929826bb841e0", "lat": 38.92426433333333, "name": "c143500467796a481b8929826bb841e0", "fusion_lon": 0.0, "fusion_lat": 0.0, "type": "electric_scooter", "lon": -77.02242366666667}, {"rental_uris": {"android": "https://dc.lft.to/lastmile_qr_scan", "ios": "https://dc.lft.to/lastmile_qr_scan"}, "is_reserved": 0, "is_disabled": 0, "bike_id": "3702d7a954ff1311cf44ef070f608c76", "lat": 38.915953, "name": "3702d7a954ff1311cf44ef070f608c76", "fusion_lon": 0.0, "fusion_lat": 0.0, "type": "electric_scooter", "lon": -77.0557425}, {"rental_uris": {"android": "https://dc.lft.to/lastmile_qr_scan", "ios": "https://dc.lft.to/lastmile_qr_scan"}, "is_reserved": 0, "is_disabled": 0, "bike_id": "c183ee408d247b60cab7d49dcd971692", "lat": 38.896316, "name": "c183ee408d247b60cab7d49dcd971692", "fusion_lon": 0.0, "fusion_lat": 0.0, "type": "electric_scooter", "lon": -77.01985633333334}, {"rental_uris": {"android": "https://dc.lft.to/lastmile_qr_scan", "ios": "https://dc.lft.to/lastmile_qr_scan"}, "is_reserved": 0, "is_disabled": 0, "bike_id": "216be524caf44a5ad4e7b76e7a7be3ff", "lat": 38.92869916666667, "name": "216be524caf44a5ad4e7b76e7a7be3ff", "fusion_lon": 0.0, "fusion_lat": 0.0, "type": "electric_scooter", "lon": -77.02770933333333}, {"rental_uris": {"android": "https://dc.lft.to/lastmile_qr_scan", "ios": "https://dc.lft.to/lastmile_qr_scan"}, "is_reserved": 0, "is_disabled": 0, "bike_id": "bfb23d05b6d77a619a5c1afa07014cb2", "lat": 38.89837833333333, "name": "bfb23d05b6d77a619a5c1afa07014cb2", "fusion_lon": 0.0, "fusion_lat": 0.0, "type": "electric_scooter", "lon": -77.041048}, {"rental_uris": {"android": "https://dc.lft.to/lastmile_qr_scan", "ios": "https://dc.lft.to/lastmile_qr_scan"}, "is_reserved": 0, "is_disabled": 0, "bike_id": "a4138ac9626645d554d860fde5c2909c", "lat": 38.920646833333336, "name": "a4138ac9626645d554d860fde5c2909c", "fusion_lon": 0.0, "fusion_lat": 0.0, "type": "electric_scooter", "lon": -77.03283366666666}, {"rental_uris": {"android": "https://dc.lft.to/lastmile_qr_scan", "ios": "https://dc.lft.to/lastmile_qr_scan"}, "is_reserved": 0, "is_disabled": 0, "bike_id": "04177ae738df893fff6c5864d816f807", "lat": 38.839355833333336, "name": "04177ae738df893fff6c5864d816f807", "fusion_lon": 0.0, "fusion_lat": 0.0, "type": "electric_bike", "lon": -77.079003}, {"rental_uris": {"android": "https://dc.lft.to/lastmile_qr_scan", "ios": "https://dc.lft.to/lastmile_qr_scan"}, "is_reserved": 0, "is_disabled": 0, "bike_id": "e808eba9e544dd2c7feb7ee036bdec2b", "lat": 38.901158833333334, "name": "e808eba9e544dd2c7feb7ee036bdec2b", "fusion_lon": 0.0, "fusion_lat": 0.0, "type": "electric_scooter", "lon": -77.04483733333333}, {"rental_uris": {"android": "https://dc.lft.to/lastmile_qr_scan", "ios": "https://dc.lft.to/lastmile_qr_scan"}, "is_reserved": 0, "is_disabled": 0, "bike_id": "b683a6a79ae8d69eeaee30baa2803300", "lat": 38.9366345, "name": "b683a6a79ae8d69eeaee30baa2803300", "fusion_lon": 0.0, "fusion_lat": 0.0, "type": "electric_scooter", "lon": -77.036572}, {"rental_uris": {"android": "https://dc.lft.to/lastmile_qr_scan", "ios": "https://dc.lft.to/lastmile_qr_scan"}, "is_reserved": 0, "is_disabled": 0, "bike_id": "a1fec466b2ece3304d84410c5c166032", "lat": 38.89994083333333, "name": "a1fec466b2ece3304d84410c5c166032", "fusion_lon": 0.0, "fusion_lat": 0.0, "type": "electric_scooter", "lon": -77.02934033333334}, {"rental_uris": {"android": "https://dc.lft.to/lastmile_qr_scan", "ios": "https://dc.lft.to/lastmile_qr_scan"}, "is_reserved": 0, "is_disabled": 0, "bike_id": "293a1a5cb3b9c3a4107f9869efa494dc", "lat": 38.93479966666666, "name": "293a1a5cb3b9c3a4107f9869efa494dc", "fusion_lon": 0.0, "fusion_lat": 0.0, "type": "electric_scooter", "lon": -77.03606916666666}, {"rental_uris": {"android": "https://dc.lft.to/lastmile_qr_scan", "ios": "https://dc.lft.to/lastmile_qr_scan"}, "is_reserved": 0, "is_disabled": 0, "bike_id": "3119fb4e7d4733f3a2b3ea60ecd48a33", "lat": 38.88698466666666, "name": "3119fb4e7d4733f3a2b3ea60ecd48a33", "fusion_lon": 0.0, "fusion_lat": 0.0, "type": "electric_scooter", "lon": -76.99686633333333}, {"rental_uris": {"android": "https://dc.lft.to/lastmile_qr_scan", "ios": "https://dc.lft.to/lastmile_qr_scan"}, "is_reserved": 0, "is_disabled": 0, "bike_id": "d86db0d363fa5d6637bcb0458f5c9424", "lat": 38.90368633333333, "name": "d86db0d363fa5d6637bcb0458f5c9424", "fusion_lon": 0.0, "fusion_lat": 0.0, "type": "electric_scooter", "lon": -77.0483895}, {"rental_uris": {"android": "https://dc.lft.to/lastmile_qr_scan", "ios": "https://dc.lft.to/lastmile_qr_scan"}, "is_reserved": 0, "is_disabled": 0, "bike_id": "2d1340b183f32d447474ce3f834aec42", "lat": 38.89105383333333, "name": "2d1340b183f32d447474ce3f834aec42", "fusion_lon": 0.0, "fusion_lat": 0.0, "type": "electric_scooter", "lon": -76.99955616666666}, {"rental_uris": {"android": "https://dc.lft.to/lastmile_qr_scan", "ios": "https://dc.lft.to/lastmile_qr_scan"}, "is_reserved": 0, "is_disabled": 0, "bike_id": "649b0fa1a958357691304480178ee40e", "lat": 38.892262, "name": "649b0fa1a958357691304480178ee40e", "fusion_lon": 0.0, "fusion_lat": 0.0, "type": "electric_scooter", "lon": -77.027796}, {"rental_uris": {"android": "https://dc.lft.to/lastmile_qr_scan", "ios": "https://dc.lft.to/lastmile_qr_scan"}, "is_reserved": 0, "is_disabled": 0, "bike_id": "31768be8fb6b32aaa53c3977b3452b0f", "lat": 38.89503966666667, "name": "31768be8fb6b32aaa53c3977b3452b0f", "fusion_lon": 0.0, "fusion_lat": 0.0, "type": "electric_bike", "lon": -76.92204483333333}, {"rental_uris": {"android": "https://dc.lft.to/lastmile_qr_scan", "ios": "https://dc.lft.to/lastmile_qr_scan"}, "is_reserved": 0, "is_disabled": 0, "bike_id": "1fc3a2ac8e3a1f11dbf5cd8e7c98c375", "lat": 38.918025166666666, "name": "1fc3a2ac8e3a1f11dbf5cd8e7c98c375", "fusion_lon": 0.0, "fusion_lat": 0.0, "type": "electric_scooter", "lon": -77.0343895}, {"rental_uris": {"android": "https://dc.lft.to/lastmile_qr_scan", "ios": "https://dc.lft.to/lastmile_qr_scan"}, "is_reserved": 0, "is_disabled": 0, "bike_id": "83626be126de9ce25640e2f99be64dbd", "lat": 38.92478833333333, "name": "83626be126de9ce25640e2f99be64dbd", "fusion_lon": 0.0, "fusion_lat": 0.0, "type": "electric_scooter", "lon": -77.0227205}, {"rental_uris": {"android": "https://dc.lft.to/lastmile_qr_scan", "ios": "https://dc.lft.to/lastmile_qr_scan"}, "is_reserved": 0, "is_disabled": 0, "bike_id": "8a496c98fc42c02fd8c5cb3b2a1b6aec", "lat": 38.90000916666666, "name": "8a496c98fc42c02fd8c5cb3b2a1b6aec", "fusion_lon": 0.0, "fusion_lat": 0.0, "type": "electric_scooter", "lon": -76.95194233333334}, {"rental_uris": {"android": "https://dc.lft.to/lastmile_qr_scan", "ios": "https://dc.lft.to/lastmile_qr_scan"}, "is_reserved": 0, "is_disabled": 0, "bike_id": "a7df41d7062f9fad6604e6dacab2698e", "lat": 38.934633833333336, "name": "a7df41d7062f9fad6604e6dacab2698e", "fusion_lon": 0.0, "fusion_lat": 0.0, "type": "electric_scooter", "lon": -77.02923966666667}, {"rental_uris": {"android": "https://dc.lft.to/lastmile_qr_scan", "ios": "https://dc.lft.to/lastmile_qr_scan"}, "is_reserved": 0, "is_disabled": 0, "bike_id": "a36da56601f30e23a7434e07da346bb1", "lat": 38.93074583333333, "name": "a36da56601f30e23a7434e07da346bb1", "fusion_lon": 0.0, "fusion_lat": 0.0, "type": "electric_scooter", "lon": -77.03394533333334}, {"rental_uris": {"android": "https://dc.lft.to/lastmile_qr_scan", "ios": "https://dc.lft.to/lastmile_qr_scan"}, "is_reserved": 0, "is_disabled": 0, "bike_id": "051ba7165cf7916698335975350ca1c5", "lat": 38.896293166666666, "name": "051ba7165cf7916698335975350ca1c5", "fusion_lon": 0.0, "fusion_lat": 0.0, "type": "electric_scooter", "lon": -77.01987733333333}, {"rental_uris": {"android": "https://dc.lft.to/lastmile_qr_scan", "ios": "https://dc.lft.to/lastmile_qr_scan"}, "is_reserved": 0, "is_disabled": 0, "bike_id": "e4ca583324c3eecdf2daa61a0ce1c6f6", "lat": 38.91908566666667, "name": "e4ca583324c3eecdf2daa61a0ce1c6f6", "fusion_lon": 0.0, "fusion_lat": 0.0, "type": "electric_scooter", "lon": -77.03195783333334}, {"rental_uris": {"android": "https://dc.lft.to/lastmile_qr_scan", "ios": "https://dc.lft.to/lastmile_qr_scan"}, "is_reserved": 0, "is_disabled": 0, "bike_id": "b8e0de11bdff6d04d338ca7b517e3c7b", "lat": 38.88063433333333, "name": "b8e0de11bdff6d04d338ca7b517e3c7b", "fusion_lon": 0.0, "fusion_lat": 0.0, "type": "electric_scooter", "lon": -77.00539466666666}, {"rental_uris": {"android": "https://dc.lft.to/lastmile_qr_scan", "ios": "https://dc.lft.to/lastmile_qr_scan"}, "is_reserved": 0, "is_disabled": 0, "bike_id": "0e36377011e067c3f592eac9bf33fc8b", "lat": 38.915522, "name": "0e36377011e067c3f592eac9bf33fc8b", "fusion_lon": 0.0, "fusion_lat": 0.0, "type": "electric_scooter", "lon": -77.0213535}, {"rental_uris": {"android": "https://dc.lft.to/lastmile_qr_scan", "ios": "https://dc.lft.to/lastmile_qr_scan"}, "is_reserved": 0, "is_disabled": 0, "bike_id": "96a12ac7683bd1c7827a4fbeebd14cee", "lat": 38.94596816666667, "name": "96a12ac7683bd1c7827a4fbeebd14cee", "fusion_lon": 0.0, "fusion_lat": 0.0, "type": "electric_scooter", "lon": -77.026408}, {"rental_uris": {"android": "https://dc.lft.to/lastmile_qr_scan", "ios": "https://dc.lft.to/lastmile_qr_scan"}, "is_reserved": 0, "is_disabled": 0, "bike_id": "a9d9ab8701cd016a550cc12a6fcbb394", "lat": 38.886579166666664, "name": "a9d9ab8701cd016a550cc12a6fcbb394", "fusion_lon": 0.0, "fusion_lat": 0.0, "type": "electric_scooter", "lon": -77.03388083333333}, {"rental_uris": {"android": "https://dc.lft.to/lastmile_qr_scan", "ios": "https://dc.lft.to/lastmile_qr_scan"}, "is_reserved": 0, "is_disabled": 0, "bike_id": "94a770eb7d2f20313014cf99412e1b90", "lat": 38.88535783333333, "name": "94a770eb7d2f20313014cf99412e1b90", "fusion_lon": 0.0, "fusion_lat": 0.0, "type": "electric_scooter", "lon": -76.982729}, {"rental_uris": {"android": "https://dc.lft.to/lastmile_qr_scan", "ios": "https://dc.lft.to/lastmile_qr_scan"}, "is_reserved": 0, "is_disabled": 0, "bike_id": "ef93bfed34c59406d43bcaa74952be53", "lat": 38.93278333333333, "name": "ef93bfed34c59406d43bcaa74952be53", "fusion_lon": 0.0, "fusion_lat": 0.0, "type": "electric_scooter", "lon": -77.02839266666666}, {"rental_uris": {"android": "https://dc.lft.to/lastmile_qr_scan", "ios": "https://dc.lft.to/lastmile_qr_scan"}, "is_reserved": 0, "is_disabled": 0, "bike_id": "512ae6648f5846b7fa63021eedf8947d", "lat": 38.925475166666665, "name": "512ae6648f5846b7fa63021eedf8947d", "fusion_lon": 0.0, "fusion_lat": 0.0, "type": "electric_scooter", "lon": -77.05240116666667}, {"rental_uris": {"android": "https://dc.lft.to/lastmile_qr_scan", "ios": "https://dc.lft.to/lastmile_qr_scan"}, "is_reserved": 0, "is_disabled": 0, "bike_id": "c4e1b5b54061acc043e20320b3c73a69", "lat": 38.91559683333333, "name": "c4e1b5b54061acc043e20320b3c73a69", "fusion_lon": 0.0, "fusion_lat": 0.0, "type": "electric_scooter", "lon": -77.031112}, {"rental_uris": {"android": "https://dc.lft.to/lastmile_qr_scan", "ios": "https://dc.lft.to/lastmile_qr_scan"}, "is_reserved": 0, "is_disabled": 0, "bike_id": "6a2d96842e0aa8305a8087851e36ddd1", "lat": 38.898885, "name": "6a2d96842e0aa8305a8087851e36ddd1", "fusion_lon": 0.0, "fusion_lat": 0.0, "type": "electric_scooter", "lon": -77.03940866666667}, {"rental_uris": {"android": "https://dc.lft.to/lastmile_qr_scan", "ios": "https://dc.lft.to/lastmile_qr_scan"}, "is_reserved": 0, "is_disabled": 0, "bike_id": "d3bdd7b54ab886d18b955f16b8c034ca", "lat": 38.9409035, "name": "d3bdd7b54ab886d18b955f16b8c034ca", "fusion_lon": 0.0, "fusion_lat": 0.0, "type": "electric_scooter", "lon": -77.0230555}, {"rental_uris": {"android": "https://dc.lft.to/lastmile_qr_scan", "ios": "https://dc.lft.to/lastmile_qr_scan"}, "is_reserved": 0, "is_disabled": 0, "bike_id": "1dfc9ab4eddb7eadfe9da449f1bb62b5", "lat": 38.8983365, "name": "1dfc9ab4eddb7eadfe9da449f1bb62b5", "fusion_lon": 0.0, "fusion_lat": 0.0, "type": "electric_scooter", "lon": -76.94632733333333}, {"rental_uris": {"android": "https://dc.lft.to/lastmile_qr_scan", "ios": "https://dc.lft.to/lastmile_qr_scan"}, "is_reserved": 0, "is_disabled": 0, "bike_id": "0ec403504ab8eda6d891fef98a45d4ab", "lat": 38.941496, "name": "0ec403504ab8eda6d891fef98a45d4ab", "fusion_lon": 0.0, "fusion_lat": 0.0, "type": "electric_bike", "lon": -77.0019615}, {"rental_uris": {"android": "https://dc.lft.to/lastmile_qr_scan", "ios": "https://dc.lft.to/lastmile_qr_scan"}, "is_reserved": 0, "is_disabled": 0, "bike_id": "4b623244d9300ecbba936d998baeb5ec", "lat": 38.855134666666665, "name": "4b623244d9300ecbba936d998baeb5ec", "fusion_lon": 0.0, "fusion_lat": 0.0, "type": "electric_bike", "lon": -77.10538733333334}, {"rental_uris": {"android": "https://dc.lft.to/lastmile_qr_scan", "ios": "https://dc.lft.to/lastmile_qr_scan"}, "is_reserved": 0, "is_disabled": 0, "bike_id": "3fcfba711d170bb49b2c64d65f2696e9", "lat": 38.87660983333333, "name": "3fcfba711d170bb49b2c64d65f2696e9", "fusion_lon": 0.0, "fusion_lat": 0.0, "type": "electric_scooter", "lon": -77.0045445}, {"rental_uris": {"android": "https://dc.lft.to/lastmile_qr_scan", "ios": "https://dc.lft.to/lastmile_qr_scan"}, "is_reserved": 0, "is_disabled": 0, "bike_id": "69ca4deda3130315c97e26861e4f4e7c", "lat": 38.924668, "name": "69ca4deda3130315c97e26861e4f4e7c", "fusion_lon": 0.0, "fusion_lat": 0.0, "type": "electric_scooter", "lon": -77.0329145}, {"rental_uris": {"android": "https://dc.lft.to/lastmile_qr_scan", "ios": "https://dc.lft.to/lastmile_qr_scan"}, "is_reserved": 0, "is_disabled": 0, "bike_id": "ce7b26078293859896dceee7275a0749", "lat": 38.88738416666666, "name": "ce7b26078293859896dceee7275a0749", "fusion_lon": 0.0, "fusion_lat": 0.0, "type": "electric_scooter", "lon": -77.02827933333333}, {"rental_uris": {"android": "https://dc.lft.to/lastmile_qr_scan", "ios": "https://dc.lft.to/lastmile_qr_scan"}, "is_reserved": 0, "is_disabled": 0, "bike_id": "0feab198d706a44f1f58f88944e5f2b6", "lat": 38.928441666666664, "name": "0feab198d706a44f1f58f88944e5f2b6", "fusion_lon": 0.0, "fusion_lat": 0.0, "type": "electric_scooter", "lon": -77.05417733333333}, {"rental_uris": {"android": "https://dc.lft.to/lastmile_qr_scan", "ios": "https://dc.lft.to/lastmile_qr_scan"}, "is_reserved": 0, "is_disabled": 0, "bike_id": "55c04e8cb07739476dde4f809ec5cfbc", "lat": 38.918347833333335, "name": "55c04e8cb07739476dde4f809ec5cfbc", "fusion_lon": 0.0, "fusion_lat": 0.0, "type": "electric_scooter", "lon": -77.02289266666666}, {"rental_uris": {"android": "https://dc.lft.to/lastmile_qr_scan", "ios": "https://dc.lft.to/lastmile_qr_scan"}, "is_reserved": 0, "is_disabled": 0, "bike_id": "875feea2c8436ec85b164660388a7e4b", "lat": 38.91875433333333, "name": "875feea2c8436ec85b164660388a7e4b", "fusion_lon": 0.0, "fusion_lat": 0.0, "type": "electric_scooter", "lon": -77.02456416666666}, {"rental_uris": {"android": "https://dc.lft.to/lastmile_qr_scan", "ios": "https://dc.lft.to/lastmile_qr_scan"}, "is_reserved": 0, "is_disabled": 0, "bike_id": "7f993c53c261be51530fe0b242c49c52", "lat": 38.898846666666664, "name": "7f993c53c261be51530fe0b242c49c52", "fusion_lon": 0.0, "fusion_lat": 0.0, "type": "electric_scooter", "lon": -76.93176583333333}, {"rental_uris": {"android": "https://dc.lft.to/lastmile_qr_scan", "ios": "https://dc.lft.to/lastmile_qr_scan"}, "is_reserved": 0, "is_disabled": 0, "bike_id": "9e5c1526b8ad9c87617c9047aa79114c", "lat": 38.903212833333335, "name": "9e5c1526b8ad9c87617c9047aa79114c", "fusion_lon": 0.0, "fusion_lat": 0.0, "type": "electric_scooter", "lon": -76.975509}, {"rental_uris": {"android": "https://dc.lft.to/lastmile_qr_scan", "ios": "https://dc.lft.to/lastmile_qr_scan"}, "is_reserved": 0, "is_disabled": 0, "bike_id": "843265f279936e7aae94412fcedce459", "lat": 38.91119583333333, "name": "843265f279936e7aae94412fcedce459", "fusion_lon": 0.0, "fusion_lat": 0.0, "type": "electric_scooter", "lon": -77.0422055}, {"rental_uris": {"android": "https://dc.lft.to/lastmile_qr_scan", "ios": "https://dc.lft.to/lastmile_qr_scan"}, "is_reserved": 0, "is_disabled": 0, "bike_id": "d04d8d385c55cafe77a31c59a85e26aa", "lat": 38.93245566666667, "name": "d04d8d385c55cafe77a31c59a85e26aa", "fusion_lon": 0.0, "fusion_lat": 0.0, "type": "electric_scooter", "lon": -77.03414333333333}, {"rental_uris": {"android": "https://dc.lft.to/lastmile_qr_scan", "ios": "https://dc.lft.to/lastmile_qr_scan"}, "is_reserved": 0, "is_disabled": 0, "bike_id": "ee4755154720691339f1873338181e85", "lat": 38.92362133333334, "name": "ee4755154720691339f1873338181e85", "fusion_lon": 0.0, "fusion_lat": 0.0, "type": "electric_scooter", "lon": -77.050462}, {"rental_uris": {"android": "https://dc.lft.to/lastmile_qr_scan", "ios": "https://dc.lft.to/lastmile_qr_scan"}, "is_reserved": 0, "is_disabled": 0, "bike_id": "9c91f5080b8f7d2cbf0057a8133e50f1", "lat": 38.9055915, "name": "9c91f5080b8f7d2cbf0057a8133e50f1", "fusion_lon": 0.0, "fusion_lat": 0.0, "type": "electric_scooter", "lon": -76.97389866666667}, {"rental_uris": {"android": "https://dc.lft.to/lastmile_qr_scan", "ios": "https://dc.lft.to/lastmile_qr_scan"}, "is_reserved": 0, "is_disabled": 0, "bike_id": "e2eb67285628b84e0a4b3d6e84b919db", "lat": 38.924216, "name": "e2eb67285628b84e0a4b3d6e84b919db", "fusion_lon": 0.0, "fusion_lat": 0.0, "type": "electric_scooter", "lon": -77.02293483333334}, {"rental_uris": {"android": "https://dc.lft.to/lastmile_qr_scan", "ios": "https://dc.lft.to/lastmile_qr_scan"}, "is_reserved": 0, "is_disabled": 0, "bike_id": "fe9d2ea2f27c15007a0c9877659f230d", "lat": 38.92168933333333, "name": "fe9d2ea2f27c15007a0c9877659f230d", "fusion_lon": 0.0, "fusion_lat": 0.0, "type": "electric_scooter", "lon": -77.0326455}, {"rental_uris": {"android": "https://dc.lft.to/lastmile_qr_scan", "ios": "https://dc.lft.to/lastmile_qr_scan"}, "is_reserved": 0, "is_disabled": 0, "bike_id": "4a0ceea0272ca82dfe277cbe66de74d6", "lat": 38.903844, "name": "4a0ceea0272ca82dfe277cbe66de74d6", "fusion_lon": 0.0, "fusion_lat": 0.0, "type": "electric_scooter", "lon": -76.97621366666667}, {"rental_uris": {"android": "https://dc.lft.to/lastmile_qr_scan", "ios": "https://dc.lft.to/lastmile_qr_scan"}, "is_reserved": 0, "is_disabled": 0, "bike_id": "fce802ad3fea97b5e4f525f57d24c6c9", "lat": 38.9227355, "name": "fce802ad3fea97b5e4f525f57d24c6c9", "fusion_lon": 0.0, "fusion_lat": 0.0, "type": "electric_scooter", "lon": -77.03408683333333}, {"rental_uris": {"android": "https://dc.lft.to/lastmile_qr_scan", "ios": "https://dc.lft.to/lastmile_qr_scan"}, "is_reserved": 0, "is_disabled": 0, "bike_id": "f01623015d4ecb15a6f00540dfad8834", "lat": 38.892344333333334, "name": "f01623015d4ecb15a6f00540dfad8834", "fusion_lon": 0.0, "fusion_lat": 0.0, "type": "electric_scooter", "lon": -77.01270816666667}, {"rental_uris": {"android": "https://dc.lft.to/lastmile_qr_scan", "ios": "https://dc.lft.to/lastmile_qr_scan"}, "is_reserved": 0, "is_disabled": 0, "bike_id": "bd1b1190ed9123b616b86a161bf2bcdb", "lat": 38.864203833333335, "name": "bd1b1190ed9123b616b86a161bf2bcdb", "fusion_lon": 0.0, "fusion_lat": 0.0, "type": "electric_scooter", "lon": -76.974288}, {"rental_uris": {"android": "https://dc.lft.to/lastmile_qr_scan", "ios": "https://dc.lft.to/lastmile_qr_scan"}, "is_reserved": 0, "is_disabled": 0, "bike_id": "1ad72f2bc3f8cabcbd44d18f56bbdf3e", "lat": 38.900869666666665, "name": "1ad72f2bc3f8cabcbd44d18f56bbdf3e", "fusion_lon": 0.0, "fusion_lat": 0.0, "type": "electric_scooter", "lon": -77.050567}, {"rental_uris": {"android": "https://dc.lft.to/lastmile_qr_scan", "ios": "https://dc.lft.to/lastmile_qr_scan"}, "is_reserved": 0, "is_disabled": 0, "bike_id": "f399c437e5c01003fe9f090df63ce784", "lat": 38.887607333333335, "name": "f399c437e5c01003fe9f090df63ce784", "fusion_lon": 0.0, "fusion_lat": 0.0, "type": "electric_bike", "lon": -76.90086}, {"rental_uris": {"android": "https://dc.lft.to/lastmile_qr_scan", "ios": "https://dc.lft.to/lastmile_qr_scan"}, "is_reserved": 0, "is_disabled": 0, "bike_id": "aa23176078b1f3db8c35173ea2d2210d", "lat": 38.919316, "name": "aa23176078b1f3db8c35173ea2d2210d", "fusion_lon": 0.0, "fusion_lat": 0.0, "type": "electric_scooter", "lon": -76.99930966666666}, {"rental_uris": {"android": "https://dc.lft.to/lastmile_qr_scan", "ios": "https://dc.lft.to/lastmile_qr_scan"}, "is_reserved": 0, "is_disabled": 0, "bike_id": "c7efebd9ebee434dfb6c789628989d83", "lat": 38.93554483333333, "name": "c7efebd9ebee434dfb6c789628989d83", "fusion_lon": 0.0, "fusion_lat": 0.0, "type": "electric_scooter", "lon": -77.02221}, {"rental_uris": {"android": "https://dc.lft.to/lastmile_qr_scan", "ios": "https://dc.lft.to/lastmile_qr_scan"}, "is_reserved": 0, "is_disabled": 0, "bike_id": "f0be2806007b36d4d0c1764483349f56", "lat": 38.915697, "name": "f0be2806007b36d4d0c1764483349f56", "fusion_lon": 0.0, "fusion_lat": 0.0, "type": "electric_scooter", "lon": -77.01200183333333}, {"rental_uris": {"android": "https://dc.lft.to/lastmile_qr_scan", "ios": "https://dc.lft.to/lastmile_qr_scan"}, "is_reserved": 0, "is_disabled": 0, "bike_id": "a04b744478d7475bf77d8468184ae661", "lat": 38.903768166666666, "name": "a04b744478d7475bf77d8468184ae661", "fusion_lon": 0.0, "fusion_lat": 0.0, "type": "electric_scooter", "lon": -77.00751433333333}, {"rental_uris": {"android": "https://dc.lft.to/lastmile_qr_scan", "ios": "https://dc.lft.to/lastmile_qr_scan"}, "is_reserved": 0, "is_disabled": 0, "bike_id": "3ee26264abbe011eb43b5d1462b12221", "lat": 38.896249166666664, "name": "3ee26264abbe011eb43b5d1462b12221", "fusion_lon": 0.0, "fusion_lat": 0.0, "type": "electric_scooter", "lon": -77.03171066666667}, {"rental_uris": {"android": "https://dc.lft.to/lastmile_qr_scan", "ios": "https://dc.lft.to/lastmile_qr_scan"}, "is_reserved": 0, "is_disabled": 0, "bike_id": "8eaa2162bd7e579b026ad5598dfa0839", "lat": 38.8922115, "name": "8eaa2162bd7e579b026ad5598dfa0839", "fusion_lon": 0.0, "fusion_lat": 0.0, "type": "electric_scooter", "lon": -77.043779}, {"rental_uris": {"android": "https://dc.lft.to/lastmile_qr_scan", "ios": "https://dc.lft.to/lastmile_qr_scan"}, "is_reserved": 0, "is_disabled": 0, "bike_id": "d77701b88a9fe5912ca62aaf1183e17d", "lat": 38.885575, "name": "d77701b88a9fe5912ca62aaf1183e17d", "fusion_lon": 0.0, "fusion_lat": 0.0, "type": "electric_scooter", "lon": -77.01985666666667}, {"rental_uris": {"android": "https://dc.lft.to/lastmile_qr_scan", "ios": "https://dc.lft.to/lastmile_qr_scan"}, "is_reserved": 0, "is_disabled": 0, "bike_id": "1169b8d361f0124c78379550dbe90ce5", "lat": 38.93639666666667, "name": "1169b8d361f0124c78379550dbe90ce5", "fusion_lon": 0.0, "fusion_lat": 0.0, "type": "electric_bike", "lon": -76.95460666666666}, {"rental_uris": {"android": "https://dc.lft.to/lastmile_qr_scan", "ios": "https://dc.lft.to/lastmile_qr_scan"}, "is_reserved": 0, "is_disabled": 0, "bike_id": "f124a1143dca706991e1ca647fe77bfa", "lat": 38.93227916666667, "name": "f124a1143dca706991e1ca647fe77bfa", "fusion_lon": 0.0, "fusion_lat": 0.0, "type": "electric_scooter", "lon": -77.0284725}, {"rental_uris": {"android": "https://dc.lft.to/lastmile_qr_scan", "ios": "https://dc.lft.to/lastmile_qr_scan"}, "is_reserved": 0, "is_disabled": 0, "bike_id": "905e278d62e86fda34d13ee327064837", "lat": 38.87296416666667, "name": "905e278d62e86fda34d13ee327064837", "fusion_lon": 0.0, "fusion_lat": 0.0, "type": "electric_scooter", "lon": -77.00597966666666}, {"rental_uris": {"android": "https://dc.lft.to/lastmile_qr_scan", "ios": "https://dc.lft.to/lastmile_qr_scan"}, "is_reserved": 0, "is_disabled": 0, "bike_id": "af8084d7a16f941eb87cf5f8b47640c1", "lat": 38.89558066666667, "name": "af8084d7a16f941eb87cf5f8b47640c1", "fusion_lon": 0.0, "fusion_lat": 0.0, "type": "electric_scooter", "lon": -77.04678516666667}, {"rental_uris": {"android": "https://dc.lft.to/lastmile_qr_scan", "ios": "https://dc.lft.to/lastmile_qr_scan"}, "is_reserved": 0, "is_disabled": 0, "bike_id": "3437a5eb0bfa56e501a91247b883c35c", "lat": 38.9205425, "name": "3437a5eb0bfa56e501a91247b883c35c", "fusion_lon": 0.0, "fusion_lat": 0.0, "type": "electric_scooter", "lon": -77.04212233333334}, {"rental_uris": {"android": "https://dc.lft.to/lastmile_qr_scan", "ios": "https://dc.lft.to/lastmile_qr_scan"}, "is_reserved": 0, "is_disabled": 0, "bike_id": "76899d0f48bd7ca2f5dd8c1716063617", "lat": 38.922472, "name": "76899d0f48bd7ca2f5dd8c1716063617", "fusion_lon": 0.0, "fusion_lat": 0.0, "type": "electric_scooter", "lon": -77.00922166666666}, {"rental_uris": {"android": "https://dc.lft.to/lastmile_qr_scan", "ios": "https://dc.lft.to/lastmile_qr_scan"}, "is_reserved": 0, "is_disabled": 0, "bike_id": "ad35c4300ce7626f198ab25bf852ccd1", "lat": 38.918338, "name": "ad35c4300ce7626f198ab25bf852ccd1", "fusion_lon": 0.0, "fusion_lat": 0.0, "type": "electric_scooter", "lon": -77.03181983333333}, {"rental_uris": {"android": "https://dc.lft.to/lastmile_qr_scan", "ios": "https://dc.lft.to/lastmile_qr_scan"}, "is_reserved": 0, "is_disabled": 0, "bike_id": "df7a270990120742cc7fd07f613aee03", "lat": 38.905847666666666, "name": "df7a270990120742cc7fd07f613aee03", "fusion_lon": 0.0, "fusion_lat": 0.0, "type": "electric_scooter", "lon": -77.05145583333334}, {"rental_uris": {"android": "https://dc.lft.to/lastmile_qr_scan", "ios": "https://dc.lft.to/lastmile_qr_scan"}, "is_reserved": 0, "is_disabled": 0, "bike_id": "23bef408e992c6c8bd5ddaaf61ca957a", "lat": 38.8793815, "name": "23bef408e992c6c8bd5ddaaf61ca957a", "fusion_lon": 0.0, "fusion_lat": 0.0, "type": "electric_scooter", "lon": -76.98818166666666}, {"rental_uris": {"android": "https://dc.lft.to/lastmile_qr_scan", "ios": "https://dc.lft.to/lastmile_qr_scan"}, "is_reserved": 0, "is_disabled": 0, "bike_id": "d909e7034e2163eedc495aca50991f65", "lat": 38.80764966666667, "name": "d909e7034e2163eedc495aca50991f65", "fusion_lon": 0.0, "fusion_lat": 0.0, "type": "electric_bike", "lon": -77.09493416666666}, {"rental_uris": {"android": "https://dc.lft.to/lastmile_qr_scan", "ios": "https://dc.lft.to/lastmile_qr_scan"}, "is_reserved": 0, "is_disabled": 0, "bike_id": "543a5dee5dab1a5266812e295838a4d1", "lat": 38.906047, "name": "543a5dee5dab1a5266812e295838a4d1", "fusion_lon": 0.0, "fusion_lat": 0.0, "type": "electric_scooter", "lon": -77.016313}, {"rental_uris": {"android": "https://dc.lft.to/lastmile_qr_scan", "ios": "https://dc.lft.to/lastmile_qr_scan"}, "is_reserved": 0, "is_disabled": 0, "bike_id": "fb91a253da22467ce3f4ed16adb0f10f", "lat": 38.9271675, "name": "fb91a253da22467ce3f4ed16adb0f10f", "fusion_lon": 0.0, "fusion_lat": 0.0, "type": "electric_scooter", "lon": -77.02080616666667}, {"rental_uris": {"android": "https://dc.lft.to/lastmile_qr_scan", "ios": "https://dc.lft.to/lastmile_qr_scan"}, "is_reserved": 0, "is_disabled": 0, "bike_id": "0f684cd33c9851370bc39d16027a1be3", "lat": 38.906833, "name": "0f684cd33c9851370bc39d16027a1be3", "fusion_lon": 0.0, "fusion_lat": 0.0, "type": "electric_scooter", "lon": -77.067732}, {"rental_uris": {"android": "https://dc.lft.to/lastmile_qr_scan", "ios": "https://dc.lft.to/lastmile_qr_scan"}, "is_reserved": 0, "is_disabled": 0, "bike_id": "38bec2aaad9b7b9742658067ac34d0f7", "lat": 38.9153095, "name": "38bec2aaad9b7b9742658067ac34d0f7", "fusion_lon": 0.0, "fusion_lat": 0.0, "type": "electric_scooter", "lon": -77.03194366666666}, {"rental_uris": {"android": "https://dc.lft.to/lastmile_qr_scan", "ios": "https://dc.lft.to/lastmile_qr_scan"}, "is_reserved": 0, "is_disabled": 0, "bike_id": "aeedfd2ec1c02ea0e7b8b0cffa62ac43", "lat": 38.92852533333333, "name": "aeedfd2ec1c02ea0e7b8b0cffa62ac43", "fusion_lon": 0.0, "fusion_lat": 0.0, "type": "electric_scooter", "lon": -77.03267333333334}, {"rental_uris": {"android": "https://dc.lft.to/lastmile_qr_scan", "ios": "https://dc.lft.to/lastmile_qr_scan"}, "is_reserved": 0, "is_disabled": 0, "bike_id": "f6669f2d21aa31ddda373efc49e8bde5", "lat": 38.908272333333336, "name": "f6669f2d21aa31ddda373efc49e8bde5", "fusion_lon": 0.0, "fusion_lat": 0.0, "type": "electric_scooter", "lon": -77.0317885}, {"rental_uris": {"android": "https://dc.lft.to/lastmile_qr_scan", "ios": "https://dc.lft.to/lastmile_qr_scan"}, "is_reserved": 0, "is_disabled": 0, "bike_id": "296abd53b673bde13c1f21bd718e9729", "lat": 38.9096805, "name": "296abd53b673bde13c1f21bd718e9729", "fusion_lon": 0.0, "fusion_lat": 0.0, "type": "electric_scooter", "lon": -77.02162583333333}, {"rental_uris": {"android": "https://dc.lft.to/lastmile_qr_scan", "ios": "https://dc.lft.to/lastmile_qr_scan"}, "is_reserved": 0, "is_disabled": 0, "bike_id": "2992822dbbe1eb2463498851f12e8b2c", "lat": 38.90671016666667, "name": "2992822dbbe1eb2463498851f12e8b2c", "fusion_lon": 0.0, "fusion_lat": 0.0, "type": "electric_scooter", "lon": -77.03842483333334}, {"rental_uris": {"android": "https://dc.lft.to/lastmile_qr_scan", "ios": "https://dc.lft.to/lastmile_qr_scan"}, "is_reserved": 0, "is_disabled": 0, "bike_id": "07b1029c9ee5de5e0b58ec5ccdafb338", "lat": 38.89221666666667, "name": "07b1029c9ee5de5e0b58ec5ccdafb338", "fusion_lon": 0.0, "fusion_lat": 0.0, "type": "electric_scooter", "lon": -77.03162916666666}, {"rental_uris": {"android": "https://dc.lft.to/lastmile_qr_scan", "ios": "https://dc.lft.to/lastmile_qr_scan"}, "is_reserved": 0, "is_disabled": 0, "bike_id": "b4484b039eba53f29c4fc5bbcf7c135c", "lat": 38.92470466666666, "name": "b4484b039eba53f29c4fc5bbcf7c135c", "fusion_lon": 0.0, "fusion_lat": 0.0, "type": "electric_scooter", "lon": -77.02961933333333}, {"rental_uris": {"android": "https://dc.lft.to/lastmile_qr_scan", "ios": "https://dc.lft.to/lastmile_qr_scan"}, "is_reserved": 0, "is_disabled": 0, "bike_id": "d652a80f436f7de98ccd5f0464a4cbd0", "lat": 38.915479, "name": "d652a80f436f7de98ccd5f0464a4cbd0", "fusion_lon": 0.0, "fusion_lat": 0.0, "type": "electric_scooter", "lon": -77.03848766666667}, {"rental_uris": {"android": "https://dc.lft.to/lastmile_qr_scan", "ios": "https://dc.lft.to/lastmile_qr_scan"}, "is_reserved": 0, "is_disabled": 0, "bike_id": "d0553c9a4e4ef75408dbbe1907cba29a", "lat": 38.9210235, "name": "d0553c9a4e4ef75408dbbe1907cba29a", "fusion_lon": 0.0, "fusion_lat": 0.0, "type": "electric_scooter", "lon": -77.03946883333333}, {"rental_uris": {"android": "https://dc.lft.to/lastmile_qr_scan", "ios": "https://dc.lft.to/lastmile_qr_scan"}, "is_reserved": 0, "is_disabled": 0, "bike_id": "ebf2a7fec21e1ea08a1bc2aebd715112", "lat": 38.918384, "name": "ebf2a7fec21e1ea08a1bc2aebd715112", "fusion_lon": 0.0, "fusion_lat": 0.0, "type": "electric_scooter", "lon": -77.02286183333334}, {"rental_uris": {"android": "https://dc.lft.to/lastmile_qr_scan", "ios": "https://dc.lft.to/lastmile_qr_scan"}, "is_reserved": 0, "is_disabled": 0, "bike_id": "9cf324214636196a30678fedff9faab3", "lat": 38.905117833333335, "name": "9cf324214636196a30678fedff9faab3", "fusion_lon": 0.0, "fusion_lat": 0.0, "type": "electric_scooter", "lon": -77.05782883333333}, {"rental_uris": {"android": "https://dc.lft.to/lastmile_qr_scan", "ios": "https://dc.lft.to/lastmile_qr_scan"}, "is_reserved": 0, "is_disabled": 0, "bike_id": "08d0e489509b5be4efd35a8df67d37aa", "lat": 38.90397216666667, "name": "08d0e489509b5be4efd35a8df67d37aa", "fusion_lon": 0.0, "fusion_lat": 0.0, "type": "electric_bike", "lon": -77.068946}, {"rental_uris": {"android": "https://dc.lft.to/lastmile_qr_scan", "ios": "https://dc.lft.to/lastmile_qr_scan"}, "is_reserved": 0, "is_disabled": 0, "bike_id": "17a7b9521afc6fa6ab3a58b95a5fdb84", "lat": 38.884269, "name": "17a7b9521afc6fa6ab3a58b95a5fdb84", "fusion_lon": 0.0, "fusion_lat": 0.0, "type": "electric_scooter", "lon": -77.03034366666667}, {"rental_uris": {"android": "https://dc.lft.to/lastmile_qr_scan", "ios": "https://dc.lft.to/lastmile_qr_scan"}, "is_reserved": 0, "is_disabled": 0, "bike_id": "7c23c6058c10bbe621f4553b394eeb24", "lat": 38.893263, "name": "7c23c6058c10bbe621f4553b394eeb24", "fusion_lon": 0.0, "fusion_lat": 0.0, "type": "electric_scooter", "lon": -76.95137716666666}, {"rental_uris": {"android": "https://dc.lft.to/lastmile_qr_scan", "ios": "https://dc.lft.to/lastmile_qr_scan"}, "is_reserved": 0, "is_disabled": 0, "bike_id": "705d073751274d68919ff94322907cbc", "lat": 38.85254916666667, "name": "705d073751274d68919ff94322907cbc", "fusion_lon": 0.0, "fusion_lat": 0.0, "type": "electric_scooter", "lon": -76.97011566666667}, {"rental_uris": {"android": "https://dc.lft.to/lastmile_qr_scan", "ios": "https://dc.lft.to/lastmile_qr_scan"}, "is_reserved": 0, "is_disabled": 0, "bike_id": "90299bbe7f4dc39b9338372fc145d14f", "lat": 38.91824666666667, "name": "90299bbe7f4dc39b9338372fc145d14f", "fusion_lon": 0.0, "fusion_lat": 0.0, "type": "electric_scooter", "lon": -77.045275}, {"rental_uris": {"android": "https://dc.lft.to/lastmile_qr_scan", "ios": "https://dc.lft.to/lastmile_qr_scan"}, "is_reserved": 0, "is_disabled": 0, "bike_id": "bc03465bf25ff4a5f57f112fa037424a", "lat": 38.909696333333336, "name": "bc03465bf25ff4a5f57f112fa037424a", "fusion_lon": 0.0, "fusion_lat": 0.0, "type": "electric_scooter", "lon": -77.040722}, {"rental_uris": {"android": "https://dc.lft.to/lastmile_qr_scan", "ios": "https://dc.lft.to/lastmile_qr_scan"}, "is_reserved": 0, "is_disabled": 0, "bike_id": "a0e0b990e46bf2690e32bf282f60b13b", "lat": 38.90738283333334, "name": "a0e0b990e46bf2690e32bf282f60b13b", "fusion_lon": 0.0, "fusion_lat": 0.0, "type": "electric_scooter", "lon": -77.03445466666666}, {"rental_uris": {"android": "https://dc.lft.to/lastmile_qr_scan", "ios": "https://dc.lft.to/lastmile_qr_scan"}, "is_reserved": 0, "is_disabled": 0, "bike_id": "4ca4daf90b9e7e87ab82c41a802c0bcd", "lat": 38.88993466666667, "name": "4ca4daf90b9e7e87ab82c41a802c0bcd", "fusion_lon": 0.0, "fusion_lat": 0.0, "type": "electric_scooter", "lon": -76.9307235}, {"rental_uris": {"android": "https://dc.lft.to/lastmile_qr_scan", "ios": "https://dc.lft.to/lastmile_qr_scan"}, "is_reserved": 0, "is_disabled": 0, "bike_id": "61b2f537e8a1521cb390ad86166261ce", "lat": 38.896232166666664, "name": "61b2f537e8a1521cb390ad86166261ce", "fusion_lon": 0.0, "fusion_lat": 0.0, "type": "electric_scooter", "lon": -77.019975}, {"rental_uris": {"android": "https://dc.lft.to/lastmile_qr_scan", "ios": "https://dc.lft.to/lastmile_qr_scan"}, "is_reserved": 0, "is_disabled": 0, "bike_id": "17c3cd2b3a2095d7e8bf09221af7464c", "lat": 38.91749516666667, "name": "17c3cd2b3a2095d7e8bf09221af7464c", "fusion_lon": 0.0, "fusion_lat": 0.0, "type": "electric_scooter", "lon": -77.03191833333334}, {"rental_uris": {"android": "https://dc.lft.to/lastmile_qr_scan", "ios": "https://dc.lft.to/lastmile_qr_scan"}, "is_reserved": 0, "is_disabled": 0, "bike_id": "0b2f0f82ef9f15868238fd13dbf26ec4", "lat": 38.907802833333335, "name": "0b2f0f82ef9f15868238fd13dbf26ec4", "fusion_lon": 0.0, "fusion_lat": 0.0, "type": "electric_scooter", "lon": -77.01106583333333}, {"rental_uris": {"android": "https://dc.lft.to/lastmile_qr_scan", "ios": "https://dc.lft.to/lastmile_qr_scan"}, "is_reserved": 0, "is_disabled": 0, "bike_id": "05efc22fc80efc0231a493f3120399e7", "lat": 38.92285716666667, "name": "05efc22fc80efc0231a493f3120399e7", "fusion_lon": 0.0, "fusion_lat": 0.0, "type": "electric_scooter", "lon": -77.036613}, {"rental_uris": {"android": "https://dc.lft.to/lastmile_qr_scan", "ios": "https://dc.lft.to/lastmile_qr_scan"}, "is_reserved": 0, "is_disabled": 0, "bike_id": "f9b416e91fc097a09d4dda620ff3417a", "lat": 38.86487366666667, "name": "f9b416e91fc097a09d4dda620ff3417a", "fusion_lon": 0.0, "fusion_lat": 0.0, "type": "electric_bike", "lon": -77.05687466666667}, {"rental_uris": {"android": "https://dc.lft.to/lastmile_qr_scan", "ios": "https://dc.lft.to/lastmile_qr_scan"}, "is_reserved": 0, "is_disabled": 0, "bike_id": "0644ccba87f291ce98d88ab13a0d9870", "lat": 38.89235216666667, "name": "0644ccba87f291ce98d88ab13a0d9870", "fusion_lon": 0.0, "fusion_lat": 0.0, "type": "electric_scooter", "lon": -77.02383933333333}, {"rental_uris": {"android": "https://dc.lft.to/lastmile_qr_scan", "ios": "https://dc.lft.to/lastmile_qr_scan"}, "is_reserved": 0, "is_disabled": 0, "bike_id": "7b99ab887ebec01ad09e33b49eab26dc", "lat": 38.910805333333336, "name": "7b99ab887ebec01ad09e33b49eab26dc", "fusion_lon": 0.0, "fusion_lat": 0.0, "type": "electric_scooter", "lon": -77.0371295}, {"rental_uris": {"android": "https://dc.lft.to/lastmile_qr_scan", "ios": "https://dc.lft.to/lastmile_qr_scan"}, "is_reserved": 0, "is_disabled": 0, "bike_id": "07e7238b3b8cf8192d5b0e8e2238a07a", "lat": 38.96784133333333, "name": "07e7238b3b8cf8192d5b0e8e2238a07a", "fusion_lon": 0.0, "fusion_lat": 0.0, "type": "electric_bike", "lon": -77.00039183333334}, {"rental_uris": {"android": "https://dc.lft.to/lastmile_qr_scan", "ios": "https://dc.lft.to/lastmile_qr_scan"}, "is_reserved": 0, "is_disabled": 0, "bike_id": "2583be4de1efc9c29a342015b3870a5b", "lat": 38.94186233333333, "name": "2583be4de1efc9c29a342015b3870a5b", "fusion_lon": 0.0, "fusion_lat": 0.0, "type": "electric_scooter", "lon": -77.0248835}, {"rental_uris": {"android": "https://dc.lft.to/lastmile_qr_scan", "ios": "https://dc.lft.to/lastmile_qr_scan"}, "is_reserved": 0, "is_disabled": 0, "bike_id": "37c7a8f225b975d44d4710b48760820e", "lat": 38.891971833333336, "name": "37c7a8f225b975d44d4710b48760820e", "fusion_lon": 0.0, "fusion_lat": 0.0, "type": "electric_scooter", "lon": -77.02237483333333}, {"rental_uris": {"android": "https://dc.lft.to/lastmile_qr_scan", "ios": "https://dc.lft.to/lastmile_qr_scan"}, "is_reserved": 0, "is_disabled": 0, "bike_id": "ea69fbc4cfadd8f49e04f86181385041", "lat": 38.929638833333335, "name": "ea69fbc4cfadd8f49e04f86181385041", "fusion_lon": 0.0, "fusion_lat": 0.0, "type": "electric_scooter", "lon": -77.038803}, {"rental_uris": {"android": "https://dc.lft.to/lastmile_qr_scan", "ios": "https://dc.lft.to/lastmile_qr_scan"}, "is_reserved": 0, "is_disabled": 0, "bike_id": "fef3a2293266a7c0071ea594525178d1", "lat": 38.90570133333333, "name": "fef3a2293266a7c0071ea594525178d1", "fusion_lon": 0.0, "fusion_lat": 0.0, "type": "electric_scooter", "lon": -77.00593966666666}, {"rental_uris": {"android": "https://dc.lft.to/lastmile_qr_scan", "ios": "https://dc.lft.to/lastmile_qr_scan"}, "is_reserved": 0, "is_disabled": 0, "bike_id": "f451599e68b5f547a15c0b8a76e1c9a6", "lat": 38.9033725, "name": "f451599e68b5f547a15c0b8a76e1c9a6", "fusion_lon": 0.0, "fusion_lat": 0.0, "type": "electric_scooter", "lon": -76.97592466666667}, {"rental_uris": {"android": "https://dc.lft.to/lastmile_qr_scan", "ios": "https://dc.lft.to/lastmile_qr_scan"}, "is_reserved": 0, "is_disabled": 0, "bike_id": "81e7becc48dedce7b5663b036bbb1ccb", "lat": 38.91135366666666, "name": "81e7becc48dedce7b5663b036bbb1ccb", "fusion_lon": 0.0, "fusion_lat": 0.0, "type": "electric_scooter", "lon": -77.02815583333333}, {"rental_uris": {"android": "https://dc.lft.to/lastmile_qr_scan", "ios": "https://dc.lft.to/lastmile_qr_scan"}, "is_reserved": 0, "is_disabled": 0, "bike_id": "5dd799e9aec543aff78e1c0840a7603e", "lat": 38.938680833333336, "name": "5dd799e9aec543aff78e1c0840a7603e", "fusion_lon": 0.0, "fusion_lat": 0.0, "type": "electric_bike", "lon": -76.94294183333334}, {"rental_uris": {"android": "https://dc.lft.to/lastmile_qr_scan", "ios": "https://dc.lft.to/lastmile_qr_scan"}, "is_reserved": 0, "is_disabled": 0, "bike_id": "6a0796cfb7024f78e3e3b51db31ff80f", "lat": 38.959581166666666, "name": "6a0796cfb7024f78e3e3b51db31ff80f", "fusion_lon": 0.0, "fusion_lat": 0.0, "type": "electric_bike", "lon": -77.10092916666666}, {"rental_uris": {"android": "https://dc.lft.to/lastmile_qr_scan", "ios": "https://dc.lft.to/lastmile_qr_scan"}, "is_reserved": 0, "is_disabled": 0, "bike_id": "acae58634775ccb1498e08523e28ae35", "lat": 38.900297333333334, "name": "acae58634775ccb1498e08523e28ae35", "fusion_lon": 0.0, "fusion_lat": 0.0, "type": "electric_scooter", "lon": -76.99856933333334}, {"rental_uris": {"android": "https://dc.lft.to/lastmile_qr_scan", "ios": "https://dc.lft.to/lastmile_qr_scan"}, "is_reserved": 0, "is_disabled": 0, "bike_id": "678ad305927f8219c9b6d4442d7ee16d", "lat": 38.96229316666667, "name": "678ad305927f8219c9b6d4442d7ee16d", "fusion_lon": 0.0, "fusion_lat": 0.0, "type": "electric_bike", "lon": -77.02621283333333}, {"rental_uris": {"android": "https://dc.lft.to/lastmile_qr_scan", "ios": "https://dc.lft.to/lastmile_qr_scan"}, "is_reserved": 0, "is_disabled": 0, "bike_id": "07985a48433604585466ef6f8a4d95d3", "lat": 38.891778333333335, "name": "07985a48433604585466ef6f8a4d95d3", "fusion_lon": 0.0, "fusion_lat": 0.0, "type": "electric_scooter", "lon": -76.99031033333333}, {"rental_uris": {"android": "https://dc.lft.to/lastmile_qr_scan", "ios": "https://dc.lft.to/lastmile_qr_scan"}, "is_reserved": 0, "is_disabled": 0, "bike_id": "5bc7e322e6ffc9598cc412a3667e18fa", "lat": 38.89646116666667, "name": "5bc7e322e6ffc9598cc412a3667e18fa", "fusion_lon": 0.0, "fusion_lat": 0.0, "type": "electric_scooter", "lon": -77.04634833333333}, {"rental_uris": {"android": "https://dc.lft.to/lastmile_qr_scan", "ios": "https://dc.lft.to/lastmile_qr_scan"}, "is_reserved": 0, "is_disabled": 0, "bike_id": "3e660dc040a1a19f86bc984558708ae6", "lat": 38.92204483333333, "name": "3e660dc040a1a19f86bc984558708ae6", "fusion_lon": 0.0, "fusion_lat": 0.0, "type": "electric_scooter", "lon": -77.03777583333333}, {"rental_uris": {"android": "https://dc.lft.to/lastmile_qr_scan", "ios": "https://dc.lft.to/lastmile_qr_scan"}, "is_reserved": 0, "is_disabled": 0, "bike_id": "df57a491a0cc9a2ecb44f500fb7fbfbb", "lat": 38.956166, "name": "df57a491a0cc9a2ecb44f500fb7fbfbb", "fusion_lon": 0.0, "fusion_lat": 0.0, "type": "electric_scooter", "lon": -77.0134855}, {"rental_uris": {"android": "https://dc.lft.to/lastmile_qr_scan", "ios": "https://dc.lft.to/lastmile_qr_scan"}, "is_reserved": 0, "is_disabled": 0, "bike_id": "a1db8f30f8c1542d5d552bc09fba486f", "lat": 38.923649833333336, "name": "a1db8f30f8c1542d5d552bc09fba486f", "fusion_lon": 0.0, "fusion_lat": 0.0, "type": "electric_scooter", "lon": -77.05046333333334}, {"rental_uris": {"android": "https://dc.lft.to/lastmile_qr_scan", "ios": "https://dc.lft.to/lastmile_qr_scan"}, "is_reserved": 0, "is_disabled": 0, "bike_id": "9145f1d937352a61738496b6dcaabc7d", "lat": 38.902052833333336, "name": "9145f1d937352a61738496b6dcaabc7d", "fusion_lon": 0.0, "fusion_lat": 0.0, "type": "electric_scooter", "lon": -77.02375533333333}, {"rental_uris": {"android": "https://dc.lft.to/lastmile_qr_scan", "ios": "https://dc.lft.to/lastmile_qr_scan"}, "is_reserved": 0, "is_disabled": 0, "bike_id": "aa75d5bd7d84504a5655b200283d8f38", "lat": 38.928599166666665, "name": "aa75d5bd7d84504a5655b200283d8f38", "fusion_lon": 0.0, "fusion_lat": 0.0, "type": "electric_scooter", "lon": -77.03293266666667}, {"rental_uris": {"android": "https://dc.lft.to/lastmile_qr_scan", "ios": "https://dc.lft.to/lastmile_qr_scan"}, "is_reserved": 0, "is_disabled": 0, "bike_id": "4c81c9a1d9670760538cc0a818f6b631", "lat": 38.887256666666666, "name": "4c81c9a1d9670760538cc0a818f6b631", "fusion_lon": 0.0, "fusion_lat": 0.0, "type": "electric_scooter", "lon": -77.02176783333333}, {"rental_uris": {"android": "https://dc.lft.to/lastmile_qr_scan", "ios": "https://dc.lft.to/lastmile_qr_scan"}, "is_reserved": 0, "is_disabled": 0, "bike_id": "e4c9089116687caaea2cce85e3f2d2a5", "lat": 38.8315985, "name": "e4c9089116687caaea2cce85e3f2d2a5", "fusion_lon": 0.0, "fusion_lat": 0.0, "type": "electric_bike", "lon": -76.99543516666667}, {"rental_uris": {"android": "https://dc.lft.to/lastmile_qr_scan", "ios": "https://dc.lft.to/lastmile_qr_scan"}, "is_reserved": 0, "is_disabled": 0, "bike_id": "c5224a4880484042893de9bf636cd045", "lat": 38.81201766666667, "name": "c5224a4880484042893de9bf636cd045", "fusion_lon": 0.0, "fusion_lat": 0.0, "type": "electric_bike", "lon": -77.10837066666667}, {"rental_uris": {"android": "https://dc.lft.to/lastmile_qr_scan", "ios": "https://dc.lft.to/lastmile_qr_scan"}, "is_reserved": 0, "is_disabled": 0, "bike_id": "00861440d6c7ba580aa58539cfb86eee", "lat": 38.86571516666667, "name": "00861440d6c7ba580aa58539cfb86eee", "fusion_lon": 0.0, "fusion_lat": 0.0, "type": "electric_scooter", "lon": -76.98921916666667}, {"rental_uris": {"android": "https://dc.lft.to/lastmile_qr_scan", "ios": "https://dc.lft.to/lastmile_qr_scan"}, "is_reserved": 0, "is_disabled": 0, "bike_id": "cf2d29ba4bc635ecc909e525c545d56c", "lat": 38.91521983333333, "name": "cf2d29ba4bc635ecc909e525c545d56c", "fusion_lon": 0.0, "fusion_lat": 0.0, "type": "electric_scooter", "lon": -77.00336666666666}, {"rental_uris": {"android": "https://dc.lft.to/lastmile_qr_scan", "ios": "https://dc.lft.to/lastmile_qr_scan"}, "is_reserved": 0, "is_disabled": 0, "bike_id": "a58118bf75b8e1b260fc946b5f4ea557", "lat": 38.93116216666667, "name": "a58118bf75b8e1b260fc946b5f4ea557", "fusion_lon": 0.0, "fusion_lat": 0.0, "type": "electric_scooter", "lon": -77.030287}, {"rental_uris": {"android": "https://dc.lft.to/lastmile_qr_scan", "ios": "https://dc.lft.to/lastmile_qr_scan"}, "is_reserved": 0, "is_disabled": 0, "bike_id": "dad7bc86988554802d46730c528baea7", "lat": 38.909553833333334, "name": "dad7bc86988554802d46730c528baea7", "fusion_lon": 0.0, "fusion_lat": 0.0, "type": "electric_scooter", "lon": -77.04581916666666}, {"rental_uris": {"android": "https://dc.lft.to/lastmile_qr_scan", "ios": "https://dc.lft.to/lastmile_qr_scan"}, "is_reserved": 0, "is_disabled": 0, "bike_id": "5c9e5fd067d73fa067d10d8a88c1f97f", "lat": 38.965080666666665, "name": "5c9e5fd067d73fa067d10d8a88c1f97f", "fusion_lon": 0.0, "fusion_lat": 0.0, "type": "electric_bike", "lon": -77.028142}, {"rental_uris": {"android": "https://dc.lft.to/lastmile_qr_scan", "ios": "https://dc.lft.to/lastmile_qr_scan"}, "is_reserved": 0, "is_disabled": 0, "bike_id": "fc9aced0627b6378bd316f9ec298c55d", "lat": 38.8973135, "name": "fc9aced0627b6378bd316f9ec298c55d", "fusion_lon": 0.0, "fusion_lat": 0.0, "type": "electric_scooter", "lon": -77.01046566666666}, {"rental_uris": {"android": "https://dc.lft.to/lastmile_qr_scan", "ios": "https://dc.lft.to/lastmile_qr_scan"}, "is_reserved": 0, "is_disabled": 0, "bike_id": "38908b8efb855d767a0b89543037268d", "lat": 38.88374366666667, "name": "38908b8efb855d767a0b89543037268d", "fusion_lon": 0.0, "fusion_lat": 0.0, "type": "electric_scooter", "lon": -76.99543716666666}, {"rental_uris": {"android": "https://dc.lft.to/lastmile_qr_scan", "ios": "https://dc.lft.to/lastmile_qr_scan"}, "is_reserved": 0, "is_disabled": 0, "bike_id": "ee3e27af04d30398b910006f6b7f02ab", "lat": 38.86893833333333, "name": "ee3e27af04d30398b910006f6b7f02ab", "fusion_lon": 0.0, "fusion_lat": 0.0, "type": "electric_scooter", "lon": -76.98232533333334}, {"rental_uris": {"android": "https://dc.lft.to/lastmile_qr_scan", "ios": "https://dc.lft.to/lastmile_qr_scan"}, "is_reserved": 0, "is_disabled": 0, "bike_id": "802b1a842595ea6f41eee23c0b9653ca", "lat": 38.892276833333334, "name": "802b1a842595ea6f41eee23c0b9653ca", "fusion_lon": 0.0, "fusion_lat": 0.0, "type": "electric_scooter", "lon": -77.04332916666667}, {"rental_uris": {"android": "https://dc.lft.to/lastmile_qr_scan", "ios": "https://dc.lft.to/lastmile_qr_scan"}, "is_reserved": 0, "is_disabled": 0, "bike_id": "4b192a9f5894e25dd7ba4e95548615d4", "lat": 38.90283766666667, "name": "4b192a9f5894e25dd7ba4e95548615d4", "fusion_lon": 0.0, "fusion_lat": 0.0, "type": "electric_scooter", "lon": -77.04135433333333}, {"rental_uris": {"android": "https://dc.lft.to/lastmile_qr_scan", "ios": "https://dc.lft.to/lastmile_qr_scan"}, "is_reserved": 0, "is_disabled": 0, "bike_id": "e80ccc86e7a431a2dca5d69fe3df3394", "lat": 38.91625, "name": "e80ccc86e7a431a2dca5d69fe3df3394", "fusion_lon": 0.0, "fusion_lat": 0.0, "type": "electric_scooter", "lon": -77.04839216666667}, {"rental_uris": {"android": "https://dc.lft.to/lastmile_qr_scan", "ios": "https://dc.lft.to/lastmile_qr_scan"}, "is_reserved": 0, "is_disabled": 0, "bike_id": "e12022b938b8aeec365d2b4328346487", "lat": 38.92028616666666, "name": "e12022b938b8aeec365d2b4328346487", "fusion_lon": 0.0, "fusion_lat": 0.0, "type": "electric_scooter", "lon": -77.02368266666667}, {"rental_uris": {"android": "https://dc.lft.to/lastmile_qr_scan", "ios": "https://dc.lft.to/lastmile_qr_scan"}, "is_reserved": 0, "is_disabled": 0, "bike_id": "54ab321678147a1eb534db377aa11906", "lat": 38.919970666666664, "name": "54ab321678147a1eb534db377aa11906", "fusion_lon": 0.0, "fusion_lat": 0.0, "type": "electric_scooter", "lon": -77.0327725}, {"rental_uris": {"android": "https://dc.lft.to/lastmile_qr_scan", "ios": "https://dc.lft.to/lastmile_qr_scan"}, "is_reserved": 0, "is_disabled": 0, "bike_id": "37a120d57fe726a3e07b64a8e553a012", "lat": 38.9266485, "name": "37a120d57fe726a3e07b64a8e553a012", "fusion_lon": 0.0, "fusion_lat": 0.0, "type": "electric_scooter", "lon": -77.02328916666667}, {"rental_uris": {"android": "https://dc.lft.to/lastmile_qr_scan", "ios": "https://dc.lft.to/lastmile_qr_scan"}, "is_reserved": 0, "is_disabled": 0, "bike_id": "d894a2037bd0069fc031312dedd8011d", "lat": 38.86701866666667, "name": "d894a2037bd0069fc031312dedd8011d", "fusion_lon": 0.0, "fusion_lat": 0.0, "type": "electric_scooter", "lon": -76.98710883333334}, {"rental_uris": {"android": "https://dc.lft.to/lastmile_qr_scan", "ios": "https://dc.lft.to/lastmile_qr_scan"}, "is_reserved": 0, "is_disabled": 0, "bike_id": "2611336953d54001d09eddca02716929", "lat": 38.93748933333333, "name": "2611336953d54001d09eddca02716929", "fusion_lon": 0.0, "fusion_lat": 0.0, "type": "electric_scooter", "lon": -77.024364}, {"rental_uris": {"android": "https://dc.lft.to/lastmile_qr_scan", "ios": "https://dc.lft.to/lastmile_qr_scan"}, "is_reserved": 0, "is_disabled": 0, "bike_id": "c4555979ce65f1a888150c4bacac63b3", "lat": 38.89851933333333, "name": "c4555979ce65f1a888150c4bacac63b3", "fusion_lon": 0.0, "fusion_lat": 0.0, "type": "electric_scooter", "lon": -76.93059416666667}, {"rental_uris": {"android": "https://dc.lft.to/lastmile_qr_scan", "ios": "https://dc.lft.to/lastmile_qr_scan"}, "is_reserved": 0, "is_disabled": 0, "bike_id": "df8aa8fa774558fe6e17c0384f9a3313", "lat": 38.84315383333333, "name": "df8aa8fa774558fe6e17c0384f9a3313", "fusion_lon": 0.0, "fusion_lat": 0.0, "type": "electric_scooter", "lon": -76.999374}, {"rental_uris": {"android": "https://dc.lft.to/lastmile_qr_scan", "ios": "https://dc.lft.to/lastmile_qr_scan"}, "is_reserved": 0, "is_disabled": 0, "bike_id": "81fbd7061c1f31f9033e4eb9f562affb", "lat": 38.926616833333334, "name": "81fbd7061c1f31f9033e4eb9f562affb", "fusion_lon": 0.0, "fusion_lat": 0.0, "type": "electric_scooter", "lon": -77.03620816666667}, {"rental_uris": {"android": "https://dc.lft.to/lastmile_qr_scan", "ios": "https://dc.lft.to/lastmile_qr_scan"}, "is_reserved": 0, "is_disabled": 0, "bike_id": "77327dae27f3f08b2d7d63a6aebe6945", "lat": 38.9444005, "name": "77327dae27f3f08b2d7d63a6aebe6945", "fusion_lon": 0.0, "fusion_lat": 0.0, "type": "electric_scooter", "lon": -77.06196316666667}, {"rental_uris": {"android": "https://dc.lft.to/lastmile_qr_scan", "ios": "https://dc.lft.to/lastmile_qr_scan"}, "is_reserved": 0, "is_disabled": 0, "bike_id": "101969a68ac3e3cf062cdf7513d56cda", "lat": 38.906677, "name": "101969a68ac3e3cf062cdf7513d56cda", "fusion_lon": 0.0, "fusion_lat": 0.0, "type": "electric_scooter", "lon": -77.010863}, {"rental_uris": {"android": "https://dc.lft.to/lastmile_qr_scan", "ios": "https://dc.lft.to/lastmile_qr_scan"}, "is_reserved": 0, "is_disabled": 0, "bike_id": "6a0444e9aa8cff55ac7c5d57d3444f3e", "lat": 38.915575833333335, "name": "6a0444e9aa8cff55ac7c5d57d3444f3e", "fusion_lon": 0.0, "fusion_lat": 0.0, "type": "electric_scooter", "lon": -77.03529266666666}, {"rental_uris": {"android": "https://dc.lft.to/lastmile_qr_scan", "ios": "https://dc.lft.to/lastmile_qr_scan"}, "is_reserved": 0, "is_disabled": 0, "bike_id": "241d0bfc4df73304fd903622d03a6289", "lat": 38.89222916666667, "name": "241d0bfc4df73304fd903622d03a6289", "fusion_lon": 0.0, "fusion_lat": 0.0, "type": "electric_scooter", "lon": -77.04690816666667}, {"rental_uris": {"android": "https://dc.lft.to/lastmile_qr_scan", "ios": "https://dc.lft.to/lastmile_qr_scan"}, "is_reserved": 0, "is_disabled": 0, "bike_id": "32e84c12fc309c3aa5f075360ebd18ba", "lat": 38.83232066666667, "name": "32e84c12fc309c3aa5f075360ebd18ba", "fusion_lon": 0.0, "fusion_lat": 0.0, "type": "electric_bike", "lon": -76.94623833333333}, {"rental_uris": {"android": "https://dc.lft.to/lastmile_qr_scan", "ios": "https://dc.lft.to/lastmile_qr_scan"}, "is_reserved": 0, "is_disabled": 0, "bike_id": "2c8cb323f712ba87d3aac5369b813b8c", "lat": 38.8781695, "name": "2c8cb323f712ba87d3aac5369b813b8c", "fusion_lon": 0.0, "fusion_lat": 0.0, "type": "electric_scooter", "lon": -77.0012405}, {"rental_uris": {"android": "https://dc.lft.to/lastmile_qr_scan", "ios": "https://dc.lft.to/lastmile_qr_scan"}, "is_reserved": 0, "is_disabled": 0, "bike_id": "52ae3d01674d96b4c95fbf51647dcc36", "lat": 38.9542435, "name": "52ae3d01674d96b4c95fbf51647dcc36", "fusion_lon": 0.0, "fusion_lat": 0.0, "type": "electric_bike", "lon": -76.932828}, {"rental_uris": {"android": "https://dc.lft.to/lastmile_qr_scan", "ios": "https://dc.lft.to/lastmile_qr_scan"}, "is_reserved": 0, "is_disabled": 0, "bike_id": "b7036f33a5cfc4f65f0db2bf22181461", "lat": 38.93973783333333, "name": "b7036f33a5cfc4f65f0db2bf22181461", "fusion_lon": 0.0, "fusion_lat": 0.0, "type": "electric_scooter", "lon": -77.03257816666667}, {"rental_uris": {"android": "https://dc.lft.to/lastmile_qr_scan", "ios": "https://dc.lft.to/lastmile_qr_scan"}, "is_reserved": 0, "is_disabled": 0, "bike_id": "6a2aab46022395a9ec48cb2c3f9f4624", "lat": 38.90734033333333, "name": "6a2aab46022395a9ec48cb2c3f9f4624", "fusion_lon": 0.0, "fusion_lat": 0.0, "type": "electric_scooter", "lon": -77.03439}, {"rental_uris": {"android": "https://dc.lft.to/lastmile_qr_scan", "ios": "https://dc.lft.to/lastmile_qr_scan"}, "is_reserved": 0, "is_disabled": 0, "bike_id": "2749eaf6bc1276bfd488760698c1f416", "lat": 38.921084, "name": "2749eaf6bc1276bfd488760698c1f416", "fusion_lon": 0.0, "fusion_lat": 0.0, "type": "electric_scooter", "lon": -77.04111833333333}, {"rental_uris": {"android": "https://dc.lft.to/lastmile_qr_scan", "ios": "https://dc.lft.to/lastmile_qr_scan"}, "is_reserved": 0, "is_disabled": 0, "bike_id": "63d7c67c1ac94b630cbdb6814ca12e81", "lat": 38.902128833333336, "name": "63d7c67c1ac94b630cbdb6814ca12e81", "fusion_lon": 0.0, "fusion_lat": 0.0, "type": "electric_scooter", "lon": -77.05118483333334}, {"rental_uris": {"android": "https://dc.lft.to/lastmile_qr_scan", "ios": "https://dc.lft.to/lastmile_qr_scan"}, "is_reserved": 0, "is_disabled": 0, "bike_id": "ac03cfcb9a046f95b84132510bcf6627", "lat": 38.964750333333335, "name": "ac03cfcb9a046f95b84132510bcf6627", "fusion_lon": 0.0, "fusion_lat": 0.0, "type": "electric_bike", "lon": -77.03554533333333}, {"rental_uris": {"android": "https://dc.lft.to/lastmile_qr_scan", "ios": "https://dc.lft.to/lastmile_qr_scan"}, "is_reserved": 0, "is_disabled": 0, "bike_id": "1af83a9a1deaa9fc0cbb4d87a342678f", "lat": 38.913618166666666, "name": "1af83a9a1deaa9fc0cbb4d87a342678f", "fusion_lon": 0.0, "fusion_lat": 0.0, "type": "electric_scooter", "lon": -77.03155383333333}, {"rental_uris": {"android": "https://dc.lft.to/lastmile_qr_scan", "ios": "https://dc.lft.to/lastmile_qr_scan"}, "is_reserved": 0, "is_disabled": 0, "bike_id": "ecbb067ff47ed6fab866f0f30fd00235", "lat": 38.924952833333336, "name": "ecbb067ff47ed6fab866f0f30fd00235", "fusion_lon": 0.0, "fusion_lat": 0.0, "type": "electric_scooter", "lon": -77.05222533333334}, {"rental_uris": {"android": "https://dc.lft.to/lastmile_qr_scan", "ios": "https://dc.lft.to/lastmile_qr_scan"}, "is_reserved": 0, "is_disabled": 0, "bike_id": "56ac03c8eff90e4fdc73fb27962372b8", "lat": 38.887303, "name": "56ac03c8eff90e4fdc73fb27962372b8", "fusion_lon": 0.0, "fusion_lat": 0.0, "type": "electric_scooter", "lon": -77.01766616666667}, {"rental_uris": {"android": "https://dc.lft.to/lastmile_qr_scan", "ios": "https://dc.lft.to/lastmile_qr_scan"}, "is_reserved": 0, "is_disabled": 0, "bike_id": "e4ecf60962e06f0c7203e3686b971f7f", "lat": 38.883069166666665, "name": "e4ecf60962e06f0c7203e3686b971f7f", "fusion_lon": 0.0, "fusion_lat": 0.0, "type": "electric_scooter", "lon": -76.97867116666667}, {"rental_uris": {"android": "https://dc.lft.to/lastmile_qr_scan", "ios": "https://dc.lft.to/lastmile_qr_scan"}, "is_reserved": 0, "is_disabled": 0, "bike_id": "637770030e0ebe39c988ee66ad59b067", "lat": 38.924459166666665, "name": "637770030e0ebe39c988ee66ad59b067", "fusion_lon": 0.0, "fusion_lat": 0.0, "type": "electric_scooter", "lon": -77.041103}, {"rental_uris": {"android": "https://dc.lft.to/lastmile_qr_scan", "ios": "https://dc.lft.to/lastmile_qr_scan"}, "is_reserved": 0, "is_disabled": 0, "bike_id": "3b465f3a52d1288725189b307a468545", "lat": 38.90671583333334, "name": "3b465f3a52d1288725189b307a468545", "fusion_lon": 0.0, "fusion_lat": 0.0, "type": "electric_scooter", "lon": -77.0059365}, {"rental_uris": {"android": "https://dc.lft.to/lastmile_qr_scan", "ios": "https://dc.lft.to/lastmile_qr_scan"}, "is_reserved": 0, "is_disabled": 0, "bike_id": "9c0b912b649861c6518cb9e5cd3b8d40", "lat": 38.90071316666667, "name": "9c0b912b649861c6518cb9e5cd3b8d40", "fusion_lon": 0.0, "fusion_lat": 0.0, "type": "electric_scooter", "lon": -77.04757083333334}, {"rental_uris": {"android": "https://dc.lft.to/lastmile_qr_scan", "ios": "https://dc.lft.to/lastmile_qr_scan"}, "is_reserved": 0, "is_disabled": 0, "bike_id": "dc782c4ab87f7c9ceec7452cccd32df7", "lat": 39.062923166666664, "name": "dc782c4ab87f7c9ceec7452cccd32df7", "fusion_lon": 0.0, "fusion_lat": 0.0, "type": "electric_bike", "lon": -77.04985083333334}, {"rental_uris": {"android": "https://dc.lft.to/lastmile_qr_scan", "ios": "https://dc.lft.to/lastmile_qr_scan"}, "is_reserved": 0, "is_disabled": 0, "bike_id": "d5dd73545c7517b21d7432cda5b3f864", "lat": 38.930546, "name": "d5dd73545c7517b21d7432cda5b3f864", "fusion_lon": 0.0, "fusion_lat": 0.0, "type": "electric_bike", "lon": -77.031955}, {"rental_uris": {"android": "https://dc.lft.to/lastmile_qr_scan", "ios": "https://dc.lft.to/lastmile_qr_scan"}, "is_reserved": 0, "is_disabled": 0, "bike_id": "230b68a71aab7f72e89047c680875618", "lat": 38.939836666666665, "name": "230b68a71aab7f72e89047c680875618", "fusion_lon": 0.0, "fusion_lat": 0.0, "type": "electric_scooter", "lon": -77.02977733333333}, {"rental_uris": {"android": "https://dc.lft.to/lastmile_qr_scan", "ios": "https://dc.lft.to/lastmile_qr_scan"}, "is_reserved": 0, "is_disabled": 0, "bike_id": "2de810b8ac2e0b7b2949e7f34d314cbb", "lat": 38.92748066666667, "name": "2de810b8ac2e0b7b2949e7f34d314cbb", "fusion_lon": 0.0, "fusion_lat": 0.0, "type": "electric_scooter", "lon": -77.0328455}, {"rental_uris": {"android": "https://dc.lft.to/lastmile_qr_scan", "ios": "https://dc.lft.to/lastmile_qr_scan"}, "is_reserved": 0, "is_disabled": 0, "bike_id": "99aed17726c452b5429e44e3c4c0429c", "lat": 38.905077, "name": "99aed17726c452b5429e44e3c4c0429c", "fusion_lon": 0.0, "fusion_lat": 0.0, "type": "electric_scooter", "lon": -77.02943866666666}, {"rental_uris": {"android": "https://dc.lft.to/lastmile_qr_scan", "ios": "https://dc.lft.to/lastmile_qr_scan"}, "is_reserved": 0, "is_disabled": 0, "bike_id": "03a92b8241e5bea1d3ea5e143fd7f5a9", "lat": 38.90533116666667, "name": "03a92b8241e5bea1d3ea5e143fd7f5a9", "fusion_lon": 0.0, "fusion_lat": 0.0, "type": "electric_bike", "lon": -77.00858533333333}, {"rental_uris": {"android": "https://dc.lft.to/lastmile_qr_scan", "ios": "https://dc.lft.to/lastmile_qr_scan"}, "is_reserved": 0, "is_disabled": 0, "bike_id": "cf4724ff908a3b3990eacb66851479b4", "lat": 38.867021333333334, "name": "cf4724ff908a3b3990eacb66851479b4", "fusion_lon": 0.0, "fusion_lat": 0.0, "type": "electric_scooter", "lon": -76.98713216666667}, {"rental_uris": {"android": "https://dc.lft.to/lastmile_qr_scan", "ios": "https://dc.lft.to/lastmile_qr_scan"}, "is_reserved": 0, "is_disabled": 0, "bike_id": "7c11b928070cfe74edce9b070b1aed32", "lat": 38.916967666666665, "name": "7c11b928070cfe74edce9b070b1aed32", "fusion_lon": 0.0, "fusion_lat": 0.0, "type": "electric_scooter", "lon": -77.02487183333334}, {"rental_uris": {"android": "https://dc.lft.to/lastmile_qr_scan", "ios": "https://dc.lft.to/lastmile_qr_scan"}, "is_reserved": 0, "is_disabled": 0, "bike_id": "73a0e82b65343c596b4437b8728b59d7", "lat": 38.891988833333336, "name": "73a0e82b65343c596b4437b8728b59d7", "fusion_lon": 0.0, "fusion_lat": 0.0, "type": "electric_scooter", "lon": -77.02237066666666}, {"rental_uris": {"android": "https://dc.lft.to/lastmile_qr_scan", "ios": "https://dc.lft.to/lastmile_qr_scan"}, "is_reserved": 0, "is_disabled": 0, "bike_id": "b1d98b5477baa1e63ab03acc39ddcdba", "lat": 38.93476166666667, "name": "b1d98b5477baa1e63ab03acc39ddcdba", "fusion_lon": 0.0, "fusion_lat": 0.0, "type": "electric_scooter", "lon": -77.07272566666667}, {"rental_uris": {"android": "https://dc.lft.to/lastmile_qr_scan", "ios": "https://dc.lft.to/lastmile_qr_scan"}, "is_reserved": 0, "is_disabled": 0, "bike_id": "1c3c4418c2f2ef2b50cf8d7c7cb47944", "lat": 38.901613, "name": "1c3c4418c2f2ef2b50cf8d7c7cb47944", "fusion_lon": 0.0, "fusion_lat": 0.0, "type": "electric_scooter", "lon": -77.02296}, {"rental_uris": {"android": "https://dc.lft.to/lastmile_qr_scan", "ios": "https://dc.lft.to/lastmile_qr_scan"}, "is_reserved": 0, "is_disabled": 0, "bike_id": "44005eb3c9b8f2f426b9f9d7f99324b7", "lat": 38.86654133333333, "name": "44005eb3c9b8f2f426b9f9d7f99324b7", "fusion_lon": 0.0, "fusion_lat": 0.0, "type": "electric_scooter", "lon": -76.9888805}, {"rental_uris": {"android": "https://dc.lft.to/lastmile_qr_scan", "ios": "https://dc.lft.to/lastmile_qr_scan"}, "is_reserved": 0, "is_disabled": 0, "bike_id": "18b0affcadddedc4ae062f3b49322a48", "lat": 38.903807, "name": "18b0affcadddedc4ae062f3b49322a48", "fusion_lon": 0.0, "fusion_lat": 0.0, "type": "electric_scooter", "lon": -77.00762533333334}, {"rental_uris": {"android": "https://dc.lft.to/lastmile_qr_scan", "ios": "https://dc.lft.to/lastmile_qr_scan"}, "is_reserved": 0, "is_disabled": 0, "bike_id": "5d5e2f4e4c04602f0b070e5890b0f2b1", "lat": 38.92778333333333, "name": "5d5e2f4e4c04602f0b070e5890b0f2b1", "fusion_lon": 0.0, "fusion_lat": 0.0, "type": "electric_scooter", "lon": -77.03705566666666}, {"rental_uris": {"android": "https://dc.lft.to/lastmile_qr_scan", "ios": "https://dc.lft.to/lastmile_qr_scan"}, "is_reserved": 0, "is_disabled": 0, "bike_id": "4be6a53e33fae67e9c3e564b4f807b9f", "lat": 38.927321666666664, "name": "4be6a53e33fae67e9c3e564b4f807b9f", "fusion_lon": 0.0, "fusion_lat": 0.0, "type": "electric_scooter", "lon": -77.03517383333333}, {"rental_uris": {"android": "https://dc.lft.to/lastmile_qr_scan", "ios": "https://dc.lft.to/lastmile_qr_scan"}, "is_reserved": 0, "is_disabled": 0, "bike_id": "d3c26c481292c260c3dd708f2a231b65", "lat": 38.890218833333336, "name": "d3c26c481292c260c3dd708f2a231b65", "fusion_lon": 0.0, "fusion_lat": 0.0, "type": "electric_scooter", "lon": -76.937289},