{"data": {"bikes": [{"lon": -77.02345566666666, "bike_id": "aeddf4f9bfca4e835d6ff2028e52a964", "lat": 38.922499, "fusion_lon": 0.0, "fusion_lat": 0.0, "type": "electric_scooter", "name": "aeddf4f9bfca4e835d6ff2028e52a964", "is_disabled": 0, "rental_uris": {"ios": "https://dc.lft.to/lastmile_qr_scan", "android": "https://dc.lft.to/lastmile_qr_scan"}, "is_reserved": 0}, {"lon": -76.98685233333333, "bike_id": "3c0792387d2d041388205febb4c91814", "lat": 38.912168666666666, "fusion_lon": 0.0, "fusion_lat": 0.0, "type": "electric_scooter", "name": "3c0792387d2d041388205febb4c91814", "is_disabled": 0, "rental_uris": {"ios": "https://dc.lft.to/lastmile_qr_scan", "android": "https://dc.lft.to/lastmile_qr_scan"}, "is_reserved": 0}, {"lon": -77.00501316666667, "bike_id": "3abc722909a5e5b997dd06fb771ee052", "lat": 38.90566316666666, "fusion_lon": 0.0, "fusion_lat": 0.0, "type": "electric_scooter", "name": "3abc722909a5e5b997dd06fb771ee052", "is_disabled": 0, "rental_uris": {"ios": "https://dc.lft.to/lastmile_qr_scan", "android": "https://dc.lft.to/lastmile_qr_scan"}, "is_reserved": 0}, {"lon": -77.02513516666667, "bike_id": "b7b3befd9f9c629cb7c7736c4b5020ae", "lat": 38.9206655, "fusion_lon": 0.0, "fusion_lat": 0.0, "type": "electric_scooter", "name": "b7b3befd9f9c629cb7c7736c4b5020ae", "is_disabled": 0, "rental_uris": {"ios": "https://dc.lft.to/lastmile_qr_scan", "android": "https://dc.lft.to/lastmile_qr_scan"}, "is_reserved": 0}, {"lon": -77.0152945, "bike_id": "767394bd46ce53a53b2a122a6b9dbaf4", "lat": 38.900299833333335, "fusion_lon": 0.0, "fusion_lat": 0.0, "type": "electric_scooter", "name": "767394bd46ce53a53b2a122a6b9dbaf4", "is_disabled": 0, "rental_uris": {"ios": "https://dc.lft.to/lastmile_qr_scan", "android": "https://dc.lft.to/lastmile_qr_scan"}, "is_reserved": 0}, {"lon": -77.00702366666667, "bike_id": "7b8a9e5f0659c554d6ef0458eb3dd7e6", "lat": 38.900221, "fusion_lon": 0.0, "fusion_lat": 0.0, "type": "electric_scooter", "name": "7b8a9e5f0659c554d6ef0458eb3dd7e6", "is_disabled": 0, "rental_uris": {"ios": "https://dc.lft.to/lastmile_qr_scan", "android": "https://dc.lft.to/lastmile_qr_scan"}, "is_reserved": 0}, {"lon": -77.039163, "bike_id": "f9a873c58ccd877ff52305c098ae2c67", "lat": 38.92796466666667, "fusion_lon": 0.0, "fusion_lat": 0.0, "type": "electric_scooter", "name": "f9a873c58ccd877ff52305c098ae2c67", "is_disabled": 0, "rental_uris": {"ios": "https://dc.lft.to/lastmile_qr_scan", "android": "https://dc.lft.to/lastmile_qr_scan"}, "is_reserved": 0}, {"lon": -77.0363075, "bike_id": "3b57df05298aa243b908dbe11a114336", "lat": 38.92457566666667, "fusion_lon": 0.0, "fusion_lat": 0.0, "type": "electric_scooter", "name": "3b57df05298aa243b908dbe11a114336", "is_disabled": 0, "rental_uris": {"ios": "https://dc.lft.to/lastmile_qr_scan", "android": "https://dc.lft.to/lastmile_qr_scan"}, "is_reserved": 0}, {"lon": -77.05999216666666, "bike_id": "619adfc32e22105e5af35c43272fb55b", "lat": 38.80707133333333, "fusion_lon": 0.0, "fusion_lat": 0.0, "type": "electric_bike", "name": "619adfc32e22105e5af35c43272fb55b", "is_disabled": 0, "rental_uris": {"ios": "https://dc.lft.to/lastmile_qr_scan", "android": "https://dc.lft.to/lastmile_qr_scan"}, "is_reserved": 0}, {"lon": -76.9523305, "bike_id": "cca75942fceae7848b275b7b687880ff", "lat": 38.891009, "fusion_lon": 0.0, "fusion_lat": 0.0, "type": "electric_scooter", "name": "cca75942fceae7848b275b7b687880ff", "is_disabled": 0, "rental_uris": {"ios": "https://dc.lft.to/lastmile_qr_scan", "android": "https://dc.lft.to/lastmile_qr_scan"}, "is_reserved": 0}, {"lon": -76.997821, "bike_id": "4b9c025ca99b15cf740ce561cf9c18e9", "lat": 38.910778666666666, "fusion_lon": 0.0, "fusion_lat": 0.0, "type": "electric_scooter", "name": "4b9c025ca99b15cf740ce561cf9c18e9", "is_disabled": 0, "rental_uris": {"ios": "https://dc.lft.to/lastmile_qr_scan", "android": "https://dc.lft.to/lastmile_qr_scan"}, "is_reserved": 0}, {"lon": -77.03175633333333, "bike_id": "312e65f409be084f63c9c42439577b22", "lat": 38.905113666666665, "fusion_lon": 0.0, "fusion_lat": 0.0, "type": "electric_scooter", "name": "312e65f409be084f63c9c42439577b22", "is_disabled": 0, "rental_uris": {"ios": "https://dc.lft.to/lastmile_qr_scan", "android": "https://dc.lft.to/lastmile_qr_scan"}, "is_reserved": 0}, {"lon": -76.976177, "bike_id": "688fffdbcab7db9ad7a3fed3eb8b8998", "lat": 38.9265145, "fusion_lon": 0.0, "fusion_lat": 0.0, "type": "electric_scooter", "name": "688fffdbcab7db9ad7a3fed3eb8b8998", "is_disabled": 0, "rental_uris": {"ios": "https://dc.lft.to/lastmile_qr_scan", "android": "https://dc.lft.to/lastmile_qr_scan"}, "is_reserved": 0}, {"lon": -77.0186775, "bike_id": "0a39938574cc86e09f3e72ca848d4cbc", "lat": 38.95156216666667, "fusion_lon": 0.0, "fusion_lat": 0.0, "type": "electric_scooter", "name": "0a39938574cc86e09f3e72ca848d4cbc", "is_disabled": 0, "rental_uris": {"ios": "https://dc.lft.to/lastmile_qr_scan", "android": "https://dc.lft.to/lastmile_qr_scan"}, "is_reserved": 0}, {"lon": -77.04195766666666, "bike_id": "f47784a5678fb9b9fce3e18b3a35e619", "lat": 38.92623566666666, "fusion_lon": 0.0, "fusion_lat": 0.0, "type": "electric_scooter", "name": "f47784a5678fb9b9fce3e18b3a35e619", "is_disabled": 0, "rental_uris": {"ios": "https://dc.lft.to/lastmile_qr_scan", "android": "https://dc.lft.to/lastmile_qr_scan"}, "is_reserved": 0}, {"lon": -77.08812183333333, "bike_id": "a2dcefbd89707ce16c54f9646fa3ee3e", "lat": 38.91179433333333, "fusion_lon": 0.0, "fusion_lat": 0.0, "type": "electric_bike", "name": "a2dcefbd89707ce16c54f9646fa3ee3e", "is_disabled": 0, "rental_uris": {"ios": "https://dc.lft.to/lastmile_qr_scan", "android": "https://dc.lft.to/lastmile_qr_scan"}, "is_reserved": 0}, {"lon": -76.99102216666667, "bike_id": "2d42988aa9fcfe5417590307e8e88575", "lat": 38.90323166666667, "fusion_lon": 0.0, "fusion_lat": 0.0, "type": "electric_scooter", "name": "2d42988aa9fcfe5417590307e8e88575", "is_disabled": 0, "rental_uris": {"ios": "https://dc.lft.to/lastmile_qr_scan", "android": "https://dc.lft.to/lastmile_qr_scan"}, "is_reserved": 0}, {"lon": -77.023028, "bike_id": "cf5650478a4aa058ed940413a0617d3e", "lat": 38.9166865, "fusion_lon": 0.0, "fusion_lat": 0.0, "type": "electric_scooter", "name": "cf5650478a4aa058ed940413a0617d3e", "is_disabled": 0, "rental_uris": {"ios": "https://dc.lft.to/lastmile_qr_scan", "android": "https://dc.lft.to/lastmile_qr_scan"}, "is_reserved": 0}, {"lon": -76.93000016666667, "bike_id": "ca5d2db61c6f1e4df80e785ee6f362f0", "lat": 38.90188716666667, "fusion_lon": 0.0, "fusion_lat": 0.0, "type": "electric_scooter", "name": "ca5d2db61c6f1e4df80e785ee6f362f0", "is_disabled": 0, "rental_uris": {"ios": "https://dc.lft.to/lastmile_qr_scan", "android": "https://dc.lft.to/lastmile_qr_scan"}, "is_reserved": 0}, {"lon": -77.04020016666666, "bike_id": "a1d636d4925e6ef5b048bdd5db881684", "lat": 38.911050333333336, "fusion_lon": 0.0, "fusion_lat": 0.0, "type": "electric_scooter", "name": "a1d636d4925e6ef5b048bdd5db881684", "is_disabled": 0, "rental_uris": {"ios": "https://dc.lft.to/lastmile_qr_scan", "android": "https://dc.lft.to/lastmile_qr_scan"}, "is_reserved": 0}, {"lon": -77.04352216666666, "bike_id": "a51187a7ff9afe0c9dd927541d2e40f1", "lat": 38.90711683333333, "fusion_lon": 0.0, "fusion_lat": 0.0, "type": "electric_scooter", "name": "a51187a7ff9afe0c9dd927541d2e40f1", "is_disabled": 0, "rental_uris": {"ios": "https://dc.lft.to/lastmile_qr_scan", "android": "https://dc.lft.to/lastmile_qr_scan"}, "is_reserved": 0}, {"lon": -77.109247, "bike_id": "a522965234d815e5a754e0b43db0e965", "lat": 39.05201783333333, "fusion_lon": 0.0, "fusion_lat": 0.0, "type": "electric_bike", "name": "a522965234d815e5a754e0b43db0e965", "is_disabled": 0, "rental_uris": {"ios": "https://dc.lft.to/lastmile_qr_scan", "android": "https://dc.lft.to/lastmile_qr_scan"}, "is_reserved": 0}, {"lon": -77.01418666666666, "bike_id": "b3df768e84b49e01d31d61494d520efb", "lat": 38.928652666666665, "fusion_lon": 0.0, "fusion_lat": 0.0, "type": "electric_scooter", "name": "b3df768e84b49e01d31d61494d520efb", "is_disabled": 0, "rental_uris": {"ios": "https://dc.lft.to/lastmile_qr_scan", "android": "https://dc.lft.to/lastmile_qr_scan"}, "is_reserved": 0}, {"lon": -77.03171033333334, "bike_id": "a9afa7305eec284f616ba44381525796", "lat": 38.89629033333333, "fusion_lon": 0.0, "fusion_lat": 0.0, "type": "electric_scooter", "name": "a9afa7305eec284f616ba44381525796", "is_disabled": 0, "rental_uris": {"ios": "https://dc.lft.to/lastmile_qr_scan", "android": "https://dc.lft.to/lastmile_qr_scan"}, "is_reserved": 0}, {"lon": -77.02099716666666, "bike_id": "d98ac68e203d5112cb87f54903547287", "lat": 38.93035316666667, "fusion_lon": 0.0, "fusion_lat": 0.0, "type": "electric_scooter", "name": "d98ac68e203d5112cb87f54903547287", "is_disabled": 0, "rental_uris": {"ios": "https://dc.lft.to/lastmile_qr_scan", "android": "https://dc.lft.to/lastmile_qr_scan"}, "is_reserved": 0}, {"lon": -77.03888133333334, "bike_id": "7a9e38b6c0af31156f19dea78ab31bd8", "lat": 38.920133666666665, "fusion_lon": 0.0, "fusion_lat": 0.0, "type": "electric_scooter", "name": "7a9e38b6c0af31156f19dea78ab31bd8", "is_disabled": 0, "rental_uris": {"ios": "https://dc.lft.to/lastmile_qr_scan", "android": "https://dc.lft.to/lastmile_qr_scan"}, "is_reserved": 0}, {"lon": -77.027113, "bike_id": "7bb90e8a52b2bec2f51e51a171c1e2a5", "lat": 38.927699, "fusion_lon": 0.0, "fusion_lat": 0.0, "type": "electric_scooter", "name": "7bb90e8a52b2bec2f51e51a171c1e2a5", "is_disabled": 0, "rental_uris": {"ios": "https://dc.lft.to/lastmile_qr_scan", "android": "https://dc.lft.to/lastmile_qr_scan"}, "is_reserved": 0}, {"lon": -77.036632, "bike_id": "fb0233bef7b6660b9ebdc137dd388986", "lat": 38.91751816666667, "fusion_lon": 0.0, "fusion_lat": 0.0, "type": "electric_scooter", "name": "fb0233bef7b6660b9ebdc137dd388986", "is_disabled": 0, "rental_uris": {"ios": "https://dc.lft.to/lastmile_qr_scan", "android": "https://dc.lft.to/lastmile_qr_scan"}, "is_reserved": 0}, {"lon": -77.0451415, "bike_id": "7603697e7c421d0ff019e7b35c64beb7", "lat": 38.886038, "fusion_lon": 0.0, "fusion_lat": 0.0, "type": "electric_scooter", "name": "7603697e7c421d0ff019e7b35c64beb7", "is_disabled": 0, "rental_uris": {"ios": "https://dc.lft.to/lastmile_qr_scan", "android": "https://dc.lft.to/lastmile_qr_scan"}, "is_reserved": 0}, {"lon": -77.035825, "bike_id": "4f730092a20c3dc642a806757c5b105f", "lat": 38.917633333333335, "fusion_lon": 0.0, "fusion_lat": 0.0, "type": "electric_scooter", "name": "4f730092a20c3dc642a806757c5b105f", "is_disabled": 0, "rental_uris": {"ios": "https://dc.lft.to/lastmile_qr_scan", "android": "https://dc.lft.to/lastmile_qr_scan"}, "is_reserved": 0}, {"lon": -77.0610655, "bike_id": "f5deb2b124f470980ec620d4a12fff7d", "lat": 38.93708216666667, "fusion_lon": 0.0, "fusion_lat": 0.0, "type": "electric_scooter", "name": "f5deb2b124f470980ec620d4a12fff7d", "is_disabled": 0, "rental_uris": {"ios": "https://dc.lft.to/lastmile_qr_scan", "android": "https://dc.lft.to/lastmile_qr_scan"}, "is_reserved": 0}, {"lon": -77.02367083333333, "bike_id": "77b778aa00f0835f00f083c30efedd97", "lat": 38.892172, "fusion_lon": 0.0, "fusion_lat": 0.0, "type": "electric_scooter", "name": "77b778aa00f0835f00f083c30efedd97", "is_disabled": 0, "rental_uris": {"ios": "https://dc.lft.to/lastmile_qr_scan", "android": "https://dc.lft.to/lastmile_qr_scan"}, "is_reserved": 0}, {"lon": -77.003843, "bike_id": "e02c49034a06fdb9014669d876ab12cf", "lat": 38.8976005, "fusion_lon": 0.0, "fusion_lat": 0.0, "type": "electric_scooter", "name": "e02c49034a06fdb9014669d876ab12cf", "is_disabled": 0, "rental_uris": {"ios": "https://dc.lft.to/lastmile_qr_scan", "android": "https://dc.lft.to/lastmile_qr_scan"}, "is_reserved": 0}, {"lon": -77.02612566666667, "bike_id": "d5cc00cdbd7158408cda82f31309a566", "lat": 38.92882083333333, "fusion_lon": 0.0, "fusion_lat": 0.0, "type": "electric_scooter", "name": "d5cc00cdbd7158408cda82f31309a566", "is_disabled": 0, "rental_uris": {"ios": "https://dc.lft.to/lastmile_qr_scan", "android": "https://dc.lft.to/lastmile_qr_scan"}, "is_reserved": 0}, {"lon": -77.03258166666667, "bike_id": "353e70e580addab644d9f704f9f2048d", "lat": 38.919915333333336, "fusion_lon": 0.0, "fusion_lat": 0.0, "type": "electric_scooter", "name": "353e70e580addab644d9f704f9f2048d", "is_disabled": 0, "rental_uris": {"ios": "https://dc.lft.to/lastmile_qr_scan", "android": "https://dc.lft.to/lastmile_qr_scan"}, "is_reserved": 0}, {"lon": -77.03405816666667, "bike_id": "eb602cece29b47e00c38b60536ab4744", "lat": 38.9341985, "fusion_lon": 0.0, "fusion_lat": 0.0, "type": "electric_scooter", "name": "eb602cece29b47e00c38b60536ab4744", "is_disabled": 0, "rental_uris": {"ios": "https://dc.lft.to/lastmile_qr_scan", "android": "https://dc.lft.to/lastmile_qr_scan"}, "is_reserved": 0}, {"lon": -77.03499283333333, "bike_id": "8d0392c1598cb8a83be3dcf2fe7ff7c9", "lat": 38.91701316666666, "fusion_lon": 0.0, "fusion_lat": 0.0, "type": "electric_scooter", "name": "8d0392c1598cb8a83be3dcf2fe7ff7c9", "is_disabled": 0, "rental_uris": {"ios": "https://dc.lft.to/lastmile_qr_scan", "android": "https://dc.lft.to/lastmile_qr_scan"}, "is_reserved": 0}, {"lon": -77.04650483333333, "bike_id": "c754982da86ba7cefe3bc3fe1b8372ad", "lat": 38.921237166666664, "fusion_lon": 0.0, "fusion_lat": 0.0, "type": "electric_scooter", "name": "c754982da86ba7cefe3bc3fe1b8372ad", "is_disabled": 0, "rental_uris": {"ios": "https://dc.lft.to/lastmile_qr_scan", "android": "https://dc.lft.to/lastmile_qr_scan"}, "is_reserved": 0}, {"lon": -76.9853245, "bike_id": "24b06634cfe1abd1c3c95f04065088cd", "lat": 38.91024083333333, "fusion_lon": 0.0, "fusion_lat": 0.0, "type": "electric_scooter", "name": "24b06634cfe1abd1c3c95f04065088cd", "is_disabled": 0, "rental_uris": {"ios": "https://dc.lft.to/lastmile_qr_scan", "android": "https://dc.lft.to/lastmile_qr_scan"}, "is_reserved": 0}, {"lon": -77.0271045, "bike_id": "337a07fdd99c36a45cbf31560616ec64", "lat": 38.9277035, "fusion_lon": 0.0, "fusion_lat": 0.0, "type": "electric_scooter", "name": "337a07fdd99c36a45cbf31560616ec64", "is_disabled": 0, "rental_uris": {"ios": "https://dc.lft.to/lastmile_qr_scan", "android": "https://dc.lft.to/lastmile_qr_scan"}, "is_reserved": 0}, {"lon": -77.04981516666666, "bike_id": "3a6ac3446e629d753e00bb28be26d01d", "lat": 38.899749166666666, "fusion_lon": 0.0, "fusion_lat": 0.0, "type": "electric_scooter", "name": "3a6ac3446e629d753e00bb28be26d01d", "is_disabled": 0, "rental_uris": {"ios": "https://dc.lft.to/lastmile_qr_scan", "android": "https://dc.lft.to/lastmile_qr_scan"}, "is_reserved": 0}, {"lon": -77.03383966666667, "bike_id": "5128c63315e29ad4bb8b71b98a4164ff", "lat": 38.921640833333335, "fusion_lon": 0.0, "fusion_lat": 0.0, "type": "electric_scooter", "name": "5128c63315e29ad4bb8b71b98a4164ff", "is_disabled": 0, "rental_uris": {"ios": "https://dc.lft.to/lastmile_qr_scan", "android": "https://dc.lft.to/lastmile_qr_scan"}, "is_reserved": 0}, {"lon": -77.01473566666667, "bike_id": "2c6f3cc479b017cf153ba34a47cedf5b", "lat": 38.91767133333333, "fusion_lon": 0.0, "fusion_lat": 0.0, "type": "electric_scooter", "name": "2c6f3cc479b017cf153ba34a47cedf5b", "is_disabled": 0, "rental_uris": {"ios": "https://dc.lft.to/lastmile_qr_scan", "android": "https://dc.lft.to/lastmile_qr_scan"}, "is_reserved": 0}, {"lon": -77.01097633333333, "bike_id": "c4cd14b349afc35cc0efa3b345fbc299", "lat": 38.91565533333333, "fusion_lon": 0.0, "fusion_lat": 0.0, "type": "electric_scooter", "name": "c4cd14b349afc35cc0efa3b345fbc299", "is_disabled": 0, "rental_uris": {"ios": "https://dc.lft.to/lastmile_qr_scan", "android": "https://dc.lft.to/lastmile_qr_scan"}, "is_reserved": 0}, {"lon": -77.02791866666666, "bike_id": "5c661504617224934d89c8a2b97257fa", "lat": 38.920223, "fusion_lon": 0.0, "fusion_lat": 0.0, "type": "electric_scooter", "name": "5c661504617224934d89c8a2b97257fa", "is_disabled": 0, "rental_uris": {"ios": "https://dc.lft.to/lastmile_qr_scan", "android": "https://dc.lft.to/lastmile_qr_scan"}, "is_reserved": 0}, {"lon": -77.05288166666666, "bike_id": "1ed6fe6d7b90a27df805df7bfe3cda35", "lat": 38.91031016666667, "fusion_lon": 0.0, "fusion_lat": 0.0, "type": "electric_scooter", "name": "1ed6fe6d7b90a27df805df7bfe3cda35", "is_disabled": 0, "rental_uris": {"ios": "https://dc.lft.to/lastmile_qr_scan", "android": "https://dc.lft.to/lastmile_qr_scan"}, "is_reserved": 0}, {"lon": -77.02788933333333, "bike_id": "69b5a0fd143bdb0079ee63ddc043d5d6", "lat": 38.956818, "fusion_lon": 0.0, "fusion_lat": 0.0, "type": "electric_scooter", "name": "69b5a0fd143bdb0079ee63ddc043d5d6", "is_disabled": 0, "rental_uris": {"ios": "https://dc.lft.to/lastmile_qr_scan", "android": "https://dc.lft.to/lastmile_qr_scan"}, "is_reserved": 0}, {"lon": -77.05230116666667, "bike_id": "407c32313db2827ff4ae17d219f92acd", "lat": 38.92467883333333, "fusion_lon": 0.0, "fusion_lat": 0.0, "type": "electric_scooter", "name": "407c32313db2827ff4ae17d219f92acd", "is_disabled": 0, "rental_uris": {"ios": "https://dc.lft.to/lastmile_qr_scan", "android": "https://dc.lft.to/lastmile_qr_scan"}, "is_reserved": 0}, {"lon": -77.03263283333334, "bike_id": "6d16a007aa06d7fe095638b8fd6bd652", "lat": 38.9254195, "fusion_lon": 0.0, "fusion_lat": 0.0, "type": "electric_scooter", "name": "6d16a007aa06d7fe095638b8fd6bd652", "is_disabled": 0, "rental_uris": {"ios": "https://dc.lft.to/lastmile_qr_scan", "android": "https://dc.lft.to/lastmile_qr_scan"}, "is_reserved": 0}, {"lon": -77.02267266666667, "bike_id": "a0125d5bb75dcb6de3248a4cced8c7ed", "lat": 38.93767883333334, "fusion_lon": 0.0, "fusion_lat": 0.0, "type": "electric_scooter", "name": "a0125d5bb75dcb6de3248a4cced8c7ed", "is_disabled": 0, "rental_uris": {"ios": "https://dc.lft.to/lastmile_qr_scan", "android": "https://dc.lft.to/lastmile_qr_scan"}, "is_reserved": 0}, {"lon": -77.02564183333334, "bike_id": "13b63e51feea9e26cb9728dc5e0aa8ec", "lat": 38.92575983333333, "fusion_lon": 0.0, "fusion_lat": 0.0, "type": "electric_scooter", "name": "13b63e51feea9e26cb9728dc5e0aa8ec", "is_disabled": 0, "rental_uris": {"ios": "https://dc.lft.to/lastmile_qr_scan", "android": "https://dc.lft.to/lastmile_qr_scan"}, "is_reserved": 0}, {"lon": -77.05015916666666, "bike_id": "e3705d9b31778cb26c4d5b1508f78925", "lat": 38.89688666666667, "fusion_lon": 0.0, "fusion_lat": 0.0, "type": "electric_scooter", "name": "e3705d9b31778cb26c4d5b1508f78925", "is_disabled": 0, "rental_uris": {"ios": "https://dc.lft.to/lastmile_qr_scan", "android": "https://dc.lft.to/lastmile_qr_scan"}, "is_reserved": 0}, {"lon": -77.04583966666667, "bike_id": "2fce266dfa3ef0abbf2b931fd11deaaa", "lat": 38.92140533333333, "fusion_lon": 0.0, "fusion_lat": 0.0, "type": "electric_scooter", "name": "2fce266dfa3ef0abbf2b931fd11deaaa", "is_disabled": 0, "rental_uris": {"ios": "https://dc.lft.to/lastmile_qr_scan", "android": "https://dc.lft.to/lastmile_qr_scan"}, "is_reserved": 0}, {"lon": -77.04395333333333, "bike_id": "a259f133024b49c6e541af3009319fd9", "lat": 38.9332405, "fusion_lon": 0.0, "fusion_lat": 0.0, "type": "electric_scooter", "name": "a259f133024b49c6e541af3009319fd9", "is_disabled": 0, "rental_uris": {"ios": "https://dc.lft.to/lastmile_qr_scan", "android": "https://dc.lft.to/lastmile_qr_scan"}, "is_reserved": 0}, {"lon": -77.04250716666667, "bike_id": "77893656bafc664bb85e91919038fa93", "lat": 38.92640466666667, "fusion_lon": 0.0, "fusion_lat": 0.0, "type": "electric_scooter", "name": "77893656bafc664bb85e91919038fa93", "is_disabled": 0, "rental_uris": {"ios": "https://dc.lft.to/lastmile_qr_scan", "android": "https://dc.lft.to/lastmile_qr_scan"}, "is_reserved": 0}, {"lon": -77.00316016666666, "bike_id": "5a774c070ebf063f9070fc58d65a2b22", "lat": 38.907469166666665, "fusion_lon": 0.0, "fusion_lat": 0.0, "type": "electric_bike", "name": "5a774c070ebf063f9070fc58d65a2b22", "is_disabled": 0, "rental_uris": {"ios": "https://dc.lft.to/lastmile_qr_scan", "android": "https://dc.lft.to/lastmile_qr_scan"}, "is_reserved": 0}, {"lon": -77.05235016666667, "bike_id": "8e8d4dc7a3e3d0bd7ef2b98d12e0c2bd", "lat": 38.92467583333333, "fusion_lon": 0.0, "fusion_lat": 0.0, "type": "electric_scooter", "name": "8e8d4dc7a3e3d0bd7ef2b98d12e0c2bd", "is_disabled": 0, "rental_uris": {"ios": "https://dc.lft.to/lastmile_qr_scan", "android": "https://dc.lft.to/lastmile_qr_scan"}, "is_reserved": 0}, {"lon": -77.02734, "bike_id": "450e33e76a1c215e9510c3989f9d2367", "lat": 38.932074666666665, "fusion_lon": 0.0, "fusion_lat": 0.0, "type": "electric_scooter", "name": "450e33e76a1c215e9510c3989f9d2367", "is_disabled": 0, "rental_uris": {"ios": "https://dc.lft.to/lastmile_qr_scan", "android": "https://dc.lft.to/lastmile_qr_scan"}, "is_reserved": 0}, {"lon": -77.07002316666667, "bike_id": "f7312b40868693854ad3f5431e752aee", "lat": 38.958522333333335, "fusion_lon": 0.0, "fusion_lat": 0.0, "type": "electric_scooter", "name": "f7312b40868693854ad3f5431e752aee", "is_disabled": 0, "rental_uris": {"ios": "https://dc.lft.to/lastmile_qr_scan", "android": "https://dc.lft.to/lastmile_qr_scan"}, "is_reserved": 0}, {"lon": -77.03664266666667, "bike_id": "211ab31111f5791fca89092e8096e145", "lat": 38.923303, "fusion_lon": 0.0, "fusion_lat": 0.0, "type": "electric_scooter", "name": "211ab31111f5791fca89092e8096e145", "is_disabled": 0, "rental_uris": {"ios": "https://dc.lft.to/lastmile_qr_scan", "android": "https://dc.lft.to/lastmile_qr_scan"}, "is_reserved": 0}, {"lon": -77.03907566666666, "bike_id": "0f64b9ef84be87800ad9f0b047cb9608", "lat": 38.900424666666666, "fusion_lon": 0.0, "fusion_lat": 0.0, "type": "electric_scooter", "name": "0f64b9ef84be87800ad9f0b047cb9608", "is_disabled": 0, "rental_uris": {"ios": "https://dc.lft.to/lastmile_qr_scan", "android": "https://dc.lft.to/lastmile_qr_scan"}, "is_reserved": 0}, {"lon": -76.9994575, "bike_id": "faee2a44881d9322d5b521890b7adb59", "lat": 38.8982205, "fusion_lon": 0.0, "fusion_lat": 0.0, "type": "electric_scooter", "name": "faee2a44881d9322d5b521890b7adb59", "is_disabled": 0, "rental_uris": {"ios": "https://dc.lft.to/lastmile_qr_scan", "android": "https://dc.lft.to/lastmile_qr_scan"}, "is_reserved": 0}, {"lon": -77.00577716666666, "bike_id": "fe2699e0af82585388443fdbfb2210d4", "lat": 38.835939333333336, "fusion_lon": 0.0, "fusion_lat": 0.0, "type": "electric_scooter", "name": "fe2699e0af82585388443fdbfb2210d4", "is_disabled": 0, "rental_uris": {"ios": "https://dc.lft.to/lastmile_qr_scan", "android": "https://dc.lft.to/lastmile_qr_scan"}, "is_reserved": 0}, {"lon": -77.0322195, "bike_id": "534e8b724f7c02b22855970682a168e1", "lat": 38.91937516666667, "fusion_lon": 0.0, "fusion_lat": 0.0, "type": "electric_scooter", "name": "534e8b724f7c02b22855970682a168e1", "is_disabled": 0, "rental_uris": {"ios": "https://dc.lft.to/lastmile_qr_scan", "android": "https://dc.lft.to/lastmile_qr_scan"}, "is_reserved": 0}, {"lon": -76.993812, "bike_id": "2ce722943bf000465681467c9e0ee815", "lat": 38.971878333333336, "fusion_lon": 0.0, "fusion_lat": 0.0, "type": "electric_bike", "name": "2ce722943bf000465681467c9e0ee815", "is_disabled": 0, "rental_uris": {"ios": "https://dc.lft.to/lastmile_qr_scan", "android": "https://dc.lft.to/lastmile_qr_scan"}, "is_reserved": 0}, {"lon": -77.0487655, "bike_id": "57b193514a72e99673597df6cbbfcc9a", "lat": 38.89234866666666, "fusion_lon": 0.0, "fusion_lat": 0.0, "type": "electric_scooter", "name": "57b193514a72e99673597df6cbbfcc9a", "is_disabled": 0, "rental_uris": {"ios": "https://dc.lft.to/lastmile_qr_scan", "android": "https://dc.lft.to/lastmile_qr_scan"}, "is_reserved": 0}, {"lon": -77.013032, "bike_id": "f18b23fd83e76a8660f7f06615d5e376", "lat": 38.943301, "fusion_lon": 0.0, "fusion_lat": 0.0, "type": "electric_scooter", "name": "f18b23fd83e76a8660f7f06615d5e376", "is_disabled": 0, "rental_uris": {"ios": "https://dc.lft.to/lastmile_qr_scan", "android": "https://dc.lft.to/lastmile_qr_scan"}, "is_reserved": 0}, {"lon": -76.98090466666666, "bike_id": "52f9b3be90edcbd925b80a1f1dcb44b8", "lat": 38.90524033333333, "fusion_lon": 0.0, "fusion_lat": 0.0, "type": "electric_scooter", "name": "52f9b3be90edcbd925b80a1f1dcb44b8", "is_disabled": 0, "rental_uris": {"ios": "https://dc.lft.to/lastmile_qr_scan", "android": "https://dc.lft.to/lastmile_qr_scan"}, "is_reserved": 0}, {"lon": -77.0175215, "bike_id": "61fd1b73c75b2a253ce21223fb86f389", "lat": 38.90269383333333, "fusion_lon": 0.0, "fusion_lat": 0.0, "type": "electric_scooter", "name": "61fd1b73c75b2a253ce21223fb86f389", "is_disabled": 0, "rental_uris": {"ios": "https://dc.lft.to/lastmile_qr_scan", "android": "https://dc.lft.to/lastmile_qr_scan"}, "is_reserved": 0}, {"lon": -77.02597716666666, "bike_id": "1343caefaef6a7b7bf5e1c21eab6b82f", "lat": 38.92796516666667, "fusion_lon": 0.0, "fusion_lat": 0.0, "type": "electric_scooter", "name": "1343caefaef6a7b7bf5e1c21eab6b82f", "is_disabled": 0, "rental_uris": {"ios": "https://dc.lft.to/lastmile_qr_scan", "android": "https://dc.lft.to/lastmile_qr_scan"}, "is_reserved": 0}, {"lon": -77.03034216666667, "bike_id": "a8e54dca5e1c17db17a341f1c8aa56a6", "lat": 38.91686633333333, "fusion_lon": 0.0, "fusion_lat": 0.0, "type": "electric_scooter", "name": "a8e54dca5e1c17db17a341f1c8aa56a6", "is_disabled": 0, "rental_uris": {"ios": "https://dc.lft.to/lastmile_qr_scan", "android": "https://dc.lft.to/lastmile_qr_scan"}, "is_reserved": 0}, {"lon": -77.0120035, "bike_id": "ed5f80b1e317978566c70cc3e2cd7bdb", "lat": 38.915925, "fusion_lon": 0.0, "fusion_lat": 0.0, "type": "electric_scooter", "name": "ed5f80b1e317978566c70cc3e2cd7bdb", "is_disabled": 0, "rental_uris": {"ios": "https://dc.lft.to/lastmile_qr_scan", "android": "https://dc.lft.to/lastmile_qr_scan"}, "is_reserved": 0}, {"lon": -77.03191766666667, "bike_id": "ee913cc53ab75852a5f6664e9f4bedf3", "lat": 38.9212975, "fusion_lon": 0.0, "fusion_lat": 0.0, "type": "electric_scooter", "name": "ee913cc53ab75852a5f6664e9f4bedf3", "is_disabled": 0, "rental_uris": {"ios": "https://dc.lft.to/lastmile_qr_scan", "android": "https://dc.lft.to/lastmile_qr_scan"}, "is_reserved": 0}, {"lon": -77.0352105, "bike_id": "a3f9b9d6815fb94858f3ed081eb009d2", "lat": 38.9233535, "fusion_lon": 0.0, "fusion_lat": 0.0, "type": "electric_scooter", "name": "a3f9b9d6815fb94858f3ed081eb009d2", "is_disabled": 0, "rental_uris": {"ios": "https://dc.lft.to/lastmile_qr_scan", "android": "https://dc.lft.to/lastmile_qr_scan"}, "is_reserved": 0}, {"lon": -76.98710766666667, "bike_id": "d91c7416cbd3a968e616ec14689fdcd5", "lat": 38.866995833333334, "fusion_lon": 0.0, "fusion_lat": 0.0, "type": "electric_scooter", "name": "d91c7416cbd3a968e616ec14689fdcd5", "is_disabled": 0, "rental_uris": {"ios": "https://dc.lft.to/lastmile_qr_scan", "android": "https://dc.lft.to/lastmile_qr_scan"}, "is_reserved": 0}, {"lon": -76.98881666666666, "bike_id": "c89233cd91bd71e77014abbd239f735d", "lat": 38.86649083333333, "fusion_lon": 0.0, "fusion_lat": 0.0, "type": "electric_scooter", "name": "c89233cd91bd71e77014abbd239f735d", "is_disabled": 0, "rental_uris": {"ios": "https://dc.lft.to/lastmile_qr_scan", "android": "https://dc.lft.to/lastmile_qr_scan"}, "is_reserved": 0}, {"lon": -77.038215, "bike_id": "79bd6abf3bc3defe2eb4dc2e4671980e", "lat": 38.90333033333334, "fusion_lon": 0.0, "fusion_lat": 0.0, "type": "electric_scooter", "name": "79bd6abf3bc3defe2eb4dc2e4671980e", "is_disabled": 0, "rental_uris": {"ios": "https://dc.lft.to/lastmile_qr_scan", "android": "https://dc.lft.to/lastmile_qr_scan"}, "is_reserved": 0}, {"lon": -77.02130133333333, "bike_id": "41528a7c6277e0ab3960f781d4ed63dc", "lat": 38.93577666666667, "fusion_lon": 0.0, "fusion_lat": 0.0, "type": "electric_bike", "name": "41528a7c6277e0ab3960f781d4ed63dc", "is_disabled": 0, "rental_uris": {"ios": "https://dc.lft.to/lastmile_qr_scan", "android": "https://dc.lft.to/lastmile_qr_scan"}, "is_reserved": 0}, {"lon": -77.04020816666667, "bike_id": "c9228de90629ee3ae958559a467bdd0f", "lat": 38.924494, "fusion_lon": 0.0, "fusion_lat": 0.0, "type": "electric_scooter", "name": "c9228de90629ee3ae958559a467bdd0f", "is_disabled": 0, "rental_uris": {"ios": "https://dc.lft.to/lastmile_qr_scan", "android": "https://dc.lft.to/lastmile_qr_scan"}, "is_reserved": 0}, {"lon": -77.03665416666666, "bike_id": "5fafe688f5ea7ebf5227a7429630a99e", "lat": 38.918212833333335, "fusion_lon": 0.0, "fusion_lat": 0.0, "type": "electric_scooter", "name": "5fafe688f5ea7ebf5227a7429630a99e", "is_disabled": 0, "rental_uris": {"ios": "https://dc.lft.to/lastmile_qr_scan", "android": "https://dc.lft.to/lastmile_qr_scan"}, "is_reserved": 0}, {"lon": -77.021887, "bike_id": "65bc49f0abe7ca0bbdb34f14ce14ff9d", "lat": 38.89741566666667, "fusion_lon": 0.0, "fusion_lat": 0.0, "type": "electric_scooter", "name": "65bc49f0abe7ca0bbdb34f14ce14ff9d", "is_disabled": 0, "rental_uris": {"ios": "https://dc.lft.to/lastmile_qr_scan", "android": "https://dc.lft.to/lastmile_qr_scan"}, "is_reserved": 0}, {"lon": -77.0218435, "bike_id": "cc8c8e16369590c72c1708b48889e5c5", "lat": 38.909582, "fusion_lon": 0.0, "fusion_lat": 0.0, "type": "electric_scooter", "name": "cc8c8e16369590c72c1708b48889e5c5", "is_disabled": 0, "rental_uris": {"ios": "https://dc.lft.to/lastmile_qr_scan", "android": "https://dc.lft.to/lastmile_qr_scan"}, "is_reserved": 0}, {"lon": -77.0240255, "bike_id": "b4ecab6df04967d6e1c94b4277797a06", "lat": 38.882852166666666, "fusion_lon": 0.0, "fusion_lat": 0.0, "type": "electric_scooter", "name": "b4ecab6df04967d6e1c94b4277797a06", "is_disabled": 0, "rental_uris": {"ios": "https://dc.lft.to/lastmile_qr_scan", "android": "https://dc.lft.to/lastmile_qr_scan"}, "is_reserved": 0}, {"lon": -77.010366, "bike_id": "229af92dde17968ed52750bc77644ba7", "lat": 38.92126833333333, "fusion_lon": 0.0, "fusion_lat": 0.0, "type": "electric_scooter", "name": "229af92dde17968ed52750bc77644ba7", "is_disabled": 0, "rental_uris": {"ios": "https://dc.lft.to/lastmile_qr_scan", "android": "https://dc.lft.to/lastmile_qr_scan"}, "is_reserved": 0}, {"lon": -77.0379385, "bike_id": "a83e5278c4ee4ea03e89ea4bab3f1d60", "lat": 38.9359295, "fusion_lon": 0.0, "fusion_lat": 0.0, "type": "electric_scooter", "name": "a83e5278c4ee4ea03e89ea4bab3f1d60", "is_disabled": 0, "rental_uris": {"ios": "https://dc.lft.to/lastmile_qr_scan", "android": "https://dc.lft.to/lastmile_qr_scan"}, "is_reserved": 0}, {"lon": -77.03655816666667, "bike_id": "819ff810b78256afff54e60758cece58", "lat": 38.90816816666667, "fusion_lon": 0.0, "fusion_lat": 0.0, "type": "electric_scooter", "name": "819ff810b78256afff54e60758cece58", "is_disabled": 0, "rental_uris": {"ios": "https://dc.lft.to/lastmile_qr_scan", "android": "https://dc.lft.to/lastmile_qr_scan"}, "is_reserved": 0}, {"lon": -77.046511, "bike_id": "623c5cd44669847db603b6b33587c91d", "lat": 38.9055145, "fusion_lon": 0.0, "fusion_lat": 0.0, "type": "electric_scooter", "name": "623c5cd44669847db603b6b33587c91d", "is_disabled": 0, "rental_uris": {"ios": "https://dc.lft.to/lastmile_qr_scan", "android": "https://dc.lft.to/lastmile_qr_scan"}, "is_reserved": 0}, {"lon": -77.03215883333333, "bike_id": "a63c0490b1fa5108467c4007c76751c1", "lat": 38.90726883333333, "fusion_lon": 0.0, "fusion_lat": 0.0, "type": "electric_scooter", "name": "a63c0490b1fa5108467c4007c76751c1", "is_disabled": 0, "rental_uris": {"ios": "https://dc.lft.to/lastmile_qr_scan", "android": "https://dc.lft.to/lastmile_qr_scan"}, "is_reserved": 0}, {"lon": -76.96598566666667, "bike_id": "44a325b8b07ba4c8bd890baa56cb7af2", "lat": 38.8710735, "fusion_lon": 0.0, "fusion_lat": 0.0, "type": "electric_scooter", "name": "44a325b8b07ba4c8bd890baa56cb7af2", "is_disabled": 0, "rental_uris": {"ios": "https://dc.lft.to/lastmile_qr_scan", "android": "https://dc.lft.to/lastmile_qr_scan"}, "is_reserved": 0}, {"lon": -76.98710883333334, "bike_id": "ece3f9c6c36a8c259b5a7b2ab501b9e9", "lat": 38.86626966666667, "fusion_lon": 0.0, "fusion_lat": 0.0, "type": "electric_scooter", "name": "ece3f9c6c36a8c259b5a7b2ab501b9e9", "is_disabled": 0, "rental_uris": {"ios": "https://dc.lft.to/lastmile_qr_scan", "android": "https://dc.lft.to/lastmile_qr_scan"}, "is_reserved": 0}, {"lon": -77.0318635, "bike_id": "2367be7b53a902fd037a723f490b40dd", "lat": 38.913504333333336, "fusion_lon": 0.0, "fusion_lat": 0.0, "type": "electric_scooter", "name": "2367be7b53a902fd037a723f490b40dd", "is_disabled": 0, "rental_uris": {"ios": "https://dc.lft.to/lastmile_qr_scan", "android": "https://dc.lft.to/lastmile_qr_scan"}, "is_reserved": 0}, {"lon": -77.07331516666666, "bike_id": "8cff7ad956bbda00d841fb882fc4425f", "lat": 38.9240575, "fusion_lon": 0.0, "fusion_lat": 0.0, "type": "electric_scooter", "name": "8cff7ad956bbda00d841fb882fc4425f", "is_disabled": 0, "rental_uris": {"ios": "https://dc.lft.to/lastmile_qr_scan", "android": "https://dc.lft.to/lastmile_qr_scan"}, "is_reserved": 0}, {"lon": -77.01378783333334, "bike_id": "93b8be10a4d073ea082b97eb6f714438", "lat": 38.886781166666665, "fusion_lon": 0.0, "fusion_lat": 0.0, "type": "electric_scooter", "name": "93b8be10a4d073ea082b97eb6f714438", "is_disabled": 0, "rental_uris": {"ios": "https://dc.lft.to/lastmile_qr_scan", "android": "https://dc.lft.to/lastmile_qr_scan"}, "is_reserved": 0}, {"lon": -77.02200916666666, "bike_id": "4804005f132042d4dfe186910f8996ba", "lat": 38.9002215, "fusion_lon": 0.0, "fusion_lat": 0.0, "type": "electric_scooter", "name": "4804005f132042d4dfe186910f8996ba", "is_disabled": 0, "rental_uris": {"ios": "https://dc.lft.to/lastmile_qr_scan", "android": "https://dc.lft.to/lastmile_qr_scan"}, "is_reserved": 0}, {"lon": -77.009759, "bike_id": "51da632a1a084b531b50a2a269f6f57d", "lat": 38.89484783333333, "fusion_lon": 0.0, "fusion_lat": 0.0, "type": "electric_scooter", "name": "51da632a1a084b531b50a2a269f6f57d", "is_disabled": 0, "rental_uris": {"ios": "https://dc.lft.to/lastmile_qr_scan", "android": "https://dc.lft.to/lastmile_qr_scan"}, "is_reserved": 0}, {"lon": -77.03312266666667, "bike_id": "04d49c34e6f5590b248628e7f7ba60fe", "lat": 38.91977033333333, "fusion_lon": 0.0, "fusion_lat": 0.0, "type": "electric_scooter", "name": "04d49c34e6f5590b248628e7f7ba60fe", "is_disabled": 0, "rental_uris": {"ios": "https://dc.lft.to/lastmile_qr_scan", "android": "https://dc.lft.to/lastmile_qr_scan"}, "is_reserved": 0}, {"lon": -76.98348183333333, "bike_id": "c90f7a8ca281ab30bbd5dd09b7868414", "lat": 38.90455466666667, "fusion_lon": 0.0, "fusion_lat": 0.0, "type": "electric_scooter", "name": "c90f7a8ca281ab30bbd5dd09b7868414", "is_disabled": 0, "rental_uris": {"ios": "https://dc.lft.to/lastmile_qr_scan", "android": "https://dc.lft.to/lastmile_qr_scan"}, "is_reserved": 0}, {"lon": -77.0586235, "bike_id": "5801cc7548b4b2abae8e7233fddcfc59", "lat": 38.93605183333333, "fusion_lon": 0.0, "fusion_lat": 0.0, "type": "electric_scooter", "name": "5801cc7548b4b2abae8e7233fddcfc59", "is_disabled": 0, "rental_uris": {"ios": "https://dc.lft.to/lastmile_qr_scan", "android": "https://dc.lft.to/lastmile_qr_scan"}, "is_reserved": 0}, {"lon": -76.94922366666667, "bike_id": "2ef8ba72b920ff9f659a71565d90984d", "lat": 38.893550833333336, "fusion_lon": 0.0, "fusion_lat": 0.0, "type": "electric_scooter", "name": "2ef8ba72b920ff9f659a71565d90984d", "is_disabled": 0, "rental_uris": {"ios": "https://dc.lft.to/lastmile_qr_scan", "android": "https://dc.lft.to/lastmile_qr_scan"}, "is_reserved": 0}, {"lon": -77.07428933333334, "bike_id": "ff699a6129c159a30d94f1337197b15c", "lat": 38.99946583333333, "fusion_lon": 0.0, "fusion_lat": 0.0, "type": "electric_bike", "name": "ff699a6129c159a30d94f1337197b15c", "is_disabled": 0, "rental_uris": {"ios": "https://dc.lft.to/lastmile_qr_scan", "android": "https://dc.lft.to/lastmile_qr_scan"}, "is_reserved": 0}, {"lon": -77.04043383333334, "bike_id": "66730dd65cdd1863af3686cd50463795", "lat": 38.923815, "fusion_lon": 0.0, "fusion_lat": 0.0, "type": "electric_scooter", "name": "66730dd65cdd1863af3686cd50463795", "is_disabled": 0, "rental_uris": {"ios": "https://dc.lft.to/lastmile_qr_scan", "android": "https://dc.lft.to/lastmile_qr_scan"}, "is_reserved": 0}, {"lon": -77.00018683333333, "bike_id": "209f2e72a28b2ee23e3223cfd54d90cd", "lat": 38.919785833333336, "fusion_lon": 0.0, "fusion_lat": 0.0, "type": "electric_scooter", "name": "209f2e72a28b2ee23e3223cfd54d90cd", "is_disabled": 0, "rental_uris": {"ios": "https://dc.lft.to/lastmile_qr_scan", "android": "https://dc.lft.to/lastmile_qr_scan"}, "is_reserved": 0}, {"lon": -77.02035016666666, "bike_id": "5729fde9b48fbc888e19c00485d29522", "lat": 38.92447666666666, "fusion_lon": 0.0, "fusion_lat": 0.0, "type": "electric_scooter", "name": "5729fde9b48fbc888e19c00485d29522", "is_disabled": 0, "rental_uris": {"ios": "https://dc.lft.to/lastmile_qr_scan", "android": "https://dc.lft.to/lastmile_qr_scan"}, "is_reserved": 0}, {"lon": -77.02174733333334, "bike_id": "3ba5319e77c8dbbe9b027662cb633f7b", "lat": 38.9069735, "fusion_lon": 0.0, "fusion_lat": 0.0, "type": "electric_bike", "name": "3ba5319e77c8dbbe9b027662cb633f7b", "is_disabled": 0, "rental_uris": {"ios": "https://dc.lft.to/lastmile_qr_scan", "android": "https://dc.lft.to/lastmile_qr_scan"}, "is_reserved": 0}, {"lon": -77.02041133333333, "bike_id": "84a6719e54361dd05bf85bb8ffb1757c", "lat": 38.908683833333335, "fusion_lon": 0.0, "fusion_lat": 0.0, "type": "electric_scooter", "name": "84a6719e54361dd05bf85bb8ffb1757c", "is_disabled": 0, "rental_uris": {"ios": "https://dc.lft.to/lastmile_qr_scan", "android": "https://dc.lft.to/lastmile_qr_scan"}, "is_reserved": 0}, {"lon": -77.00532116666666, "bike_id": "ce14a268bea3577b0bb2dc5082e86eb5", "lat": 38.9297885, "fusion_lon": 0.0, "fusion_lat": 0.0, "type": "electric_scooter", "name": "ce14a268bea3577b0bb2dc5082e86eb5", "is_disabled": 0, "rental_uris": {"ios": "https://dc.lft.to/lastmile_qr_scan", "android": "https://dc.lft.to/lastmile_qr_scan"}, "is_reserved": 0}, {"lon": -76.92621966666667, "bike_id": "95cb99cf90e2b8f36f333cf4a70bc50b", "lat": 38.8846305, "fusion_lon": 0.0, "fusion_lat": 0.0, "type": "electric_scooter", "name": "95cb99cf90e2b8f36f333cf4a70bc50b", "is_disabled": 0, "rental_uris": {"ios": "https://dc.lft.to/lastmile_qr_scan", "android": "https://dc.lft.to/lastmile_qr_scan"}, "is_reserved": 0}, {"lon": -77.022708, "bike_id": "9bc51c49c56f7caf13f16840c88a718f", "lat": 38.9378425, "fusion_lon": 0.0, "fusion_lat": 0.0, "type": "electric_scooter", "name": "9bc51c49c56f7caf13f16840c88a718f", "is_disabled": 0, "rental_uris": {"ios": "https://dc.lft.to/lastmile_qr_scan", "android": "https://dc.lft.to/lastmile_qr_scan"}, "is_reserved": 0}, {"lon": -77.0220755, "bike_id": "1e01983ab6556d40aaf57d6163e027df", "lat": 38.893576333333336, "fusion_lon": 0.0, "fusion_lat": 0.0, "type": "electric_scooter", "name": "1e01983ab6556d40aaf57d6163e027df", "is_disabled": 0, "rental_uris": {"ios": "https://dc.lft.to/lastmile_qr_scan", "android": "https://dc.lft.to/lastmile_qr_scan"}, "is_reserved": 0}, {"lon": -77.028036, "bike_id": "95124af4906f470a231c82ac3998d37e", "lat": 38.916831, "fusion_lon": 0.0, "fusion_lat": 0.0, "type": "electric_scooter", "name": "95124af4906f470a231c82ac3998d37e", "is_disabled": 0, "rental_uris": {"ios": "https://dc.lft.to/lastmile_qr_scan", "android": "https://dc.lft.to/lastmile_qr_scan"}, "is_reserved": 0}, {"lon": -76.97599983333333, "bike_id": "7421cc3465b7eac10a8289de8e47e5b2", "lat": 38.905672833333334, "fusion_lon": 0.0, "fusion_lat": 0.0, "type": "electric_scooter", "name": "7421cc3465b7eac10a8289de8e47e5b2", "is_disabled": 0, "rental_uris": {"ios": "https://dc.lft.to/lastmile_qr_scan", "android": "https://dc.lft.to/lastmile_qr_scan"}, "is_reserved": 0}, {"lon": -77.05415383333333, "bike_id": "f6cd855e06334dff2ecbe253bb0dc978", "lat": 38.950488666666665, "fusion_lon": 0.0, "fusion_lat": 0.0, "type": "electric_scooter", "name": "f6cd855e06334dff2ecbe253bb0dc978", "is_disabled": 0, "rental_uris": {"ios": "https://dc.lft.to/lastmile_qr_scan", "android": "https://dc.lft.to/lastmile_qr_scan"}, "is_reserved": 0}, {"lon": -77.01479466666666, "bike_id": "ed26cadb578b13476f18a03667f49fdc", "lat": 38.9406835, "fusion_lon": 0.0, "fusion_lat": 0.0, "type": "electric_bike", "name": "ed26cadb578b13476f18a03667f49fdc", "is_disabled": 0, "rental_uris": {"ios": "https://dc.lft.to/lastmile_qr_scan", "android": "https://dc.lft.to/lastmile_qr_scan"}, "is_reserved": 0}, {"lon": -77.02945283333334, "bike_id": "a1f7773e0e05790485b3e9137b1c02c7", "lat": 38.887455833333334, "fusion_lon": 0.0, "fusion_lat": 0.0, "type": "electric_scooter", "name": "a1f7773e0e05790485b3e9137b1c02c7", "is_disabled": 0, "rental_uris": {"ios": "https://dc.lft.to/lastmile_qr_scan", "android": "https://dc.lft.to/lastmile_qr_scan"}, "is_reserved": 0}, {"lon": -76.98269216666667, "bike_id": "69a95f4a92ab1ce9ab66d41ee7a00be0", "lat": 38.88530033333333, "fusion_lon": 0.0, "fusion_lat": 0.0, "type": "electric_scooter", "name": "69a95f4a92ab1ce9ab66d41ee7a00be0", "is_disabled": 0, "rental_uris": {"ios": "https://dc.lft.to/lastmile_qr_scan", "android": "https://dc.lft.to/lastmile_qr_scan"}, "is_reserved": 0}, {"lon": -77.03189516666667, "bike_id": "8d6674d43b63d3486369ec9b67dfcb22", "lat": 38.884054166666665, "fusion_lon": 0.0, "fusion_lat": 0.0, "type": "electric_scooter", "name": "8d6674d43b63d3486369ec9b67dfcb22", "is_disabled": 0, "rental_uris": {"ios": "https://dc.lft.to/lastmile_qr_scan", "android": "https://dc.lft.to/lastmile_qr_scan"}, "is_reserved": 0}, {"lon": -77.0298025, "bike_id": "8ac49969d19cb62a7c84d562461fe91c", "lat": 38.93936816666667, "fusion_lon": 0.0, "fusion_lat": 0.0, "type": "electric_scooter", "name": "8ac49969d19cb62a7c84d562461fe91c", "is_disabled": 0, "rental_uris": {"ios": "https://dc.lft.to/lastmile_qr_scan", "android": "https://dc.lft.to/lastmile_qr_scan"}, "is_reserved": 0}, {"lon": -76.98339, "bike_id": "2c76797493acf6360e045c424c48f94e", "lat": 38.901016166666665, "fusion_lon": 0.0, "fusion_lat": 0.0, "type": "electric_scooter", "name": "2c76797493acf6360e045c424c48f94e", "is_disabled": 0, "rental_uris": {"ios": "https://dc.lft.to/lastmile_qr_scan", "android": "https://dc.lft.to/lastmile_qr_scan"}, "is_reserved": 0}, {"lon": -77.00207616666667, "bike_id": "a51248ba43e5bb834ab1617a68b9a26f", "lat": 38.89547316666667, "fusion_lon": 0.0, "fusion_lat": 0.0, "type": "electric_scooter", "name": "a51248ba43e5bb834ab1617a68b9a26f", "is_disabled": 0, "rental_uris": {"ios": "https://dc.lft.to/lastmile_qr_scan", "android": "https://dc.lft.to/lastmile_qr_scan"}, "is_reserved": 0}, {"lon": -77.18564483333333, "bike_id": "7456f2ae5df9143d441ee1c85a35d23e", "lat": 39.09978266666667, "fusion_lon": 0.0, "fusion_lat": 0.0, "type": "electric_bike", "name": "7456f2ae5df9143d441ee1c85a35d23e", "is_disabled": 0, "rental_uris": {"ios": "https://dc.lft.to/lastmile_qr_scan", "android": "https://dc.lft.to/lastmile_qr_scan"}, "is_reserved": 0}, {"lon": -76.962619, "bike_id": "f7c81db87b45dd68104fee2b719843a8", "lat": 38.882496333333336, "fusion_lon": 0.0, "fusion_lat": 0.0, "type": "electric_bike", "name": "f7c81db87b45dd68104fee2b719843a8", "is_disabled": 0, "rental_uris": {"ios": "https://dc.lft.to/lastmile_qr_scan", "android": "https://dc.lft.to/lastmile_qr_scan"}, "is_reserved": 0}, {"lon": -77.00198766666666, "bike_id": "ae8add20779a862a96155a385586252c", "lat": 38.891067666666665, "fusion_lon": 0.0, "fusion_lat": 0.0, "type": "electric_scooter", "name": "ae8add20779a862a96155a385586252c", "is_disabled": 0, "rental_uris": {"ios": "https://dc.lft.to/lastmile_qr_scan", "android": "https://dc.lft.to/lastmile_qr_scan"}, "is_reserved": 0}, {"lon": -77.0318065, "bike_id": "da6c70761e890b0e44ea8b278411cb3a", "lat": 38.936034166666666, "fusion_lon": 0.0, "fusion_lat": 0.0, "type": "electric_scooter", "name": "da6c70761e890b0e44ea8b278411cb3a", "is_disabled": 0, "rental_uris": {"ios": "https://dc.lft.to/lastmile_qr_scan", "android": "https://dc.lft.to/lastmile_qr_scan"}, "is_reserved": 0}, {"lon": -77.03182733333334, "bike_id": "031517026654cc4c34ca405719d8482d", "lat": 38.92913683333333, "fusion_lon": 0.0, "fusion_lat": 0.0, "type": "electric_scooter", "name": "031517026654cc4c34ca405719d8482d", "is_disabled": 0, "rental_uris": {"ios": "https://dc.lft.to/lastmile_qr_scan", "android": "https://dc.lft.to/lastmile_qr_scan"}, "is_reserved": 0}, {"lon": -77.03452566666667, "bike_id": "d20bc5dce22fbe59da39baa7149a6327", "lat": 38.91007366666667, "fusion_lon": 0.0, "fusion_lat": 0.0, "type": "electric_scooter", "name": "d20bc5dce22fbe59da39baa7149a6327", "is_disabled": 0, "rental_uris": {"ios": "https://dc.lft.to/lastmile_qr_scan", "android": "https://dc.lft.to/lastmile_qr_scan"}, "is_reserved": 0}, {"lon": -77.00657233333334, "bike_id": "33e34c7df56736efe7aa0d8cfbf05ab6", "lat": 38.944643666666664, "fusion_lon": 0.0, "fusion_lat": 0.0, "type": "electric_scooter", "name": "33e34c7df56736efe7aa0d8cfbf05ab6", "is_disabled": 0, "rental_uris": {"ios": "https://dc.lft.to/lastmile_qr_scan", "android": "https://dc.lft.to/lastmile_qr_scan"}, "is_reserved": 0}, {"lon": -77.00473333333333, "bike_id": "c8b7a68db3c0ed6926035923513c9127", "lat": 38.89581316666667, "fusion_lon": 0.0, "fusion_lat": 0.0, "type": "electric_scooter", "name": "c8b7a68db3c0ed6926035923513c9127", "is_disabled": 0, "rental_uris": {"ios": "https://dc.lft.to/lastmile_qr_scan", "android": "https://dc.lft.to/lastmile_qr_scan"}, "is_reserved": 0}, {"lon": -77.0239805, "bike_id": "2c91c50eb1bdb649f5f8e2b83fbbc14b", "lat": 38.919922166666666, "fusion_lon": 0.0, "fusion_lat": 0.0, "type": "electric_scooter", "name": "2c91c50eb1bdb649f5f8e2b83fbbc14b", "is_disabled": 0, "rental_uris": {"ios": "https://dc.lft.to/lastmile_qr_scan", "android": "https://dc.lft.to/lastmile_qr_scan"}, "is_reserved": 0}, {"lon": -76.98769933333334, "bike_id": "b2a92ca91fd142a60fb1514e09560add", "lat": 38.866036, "fusion_lon": 0.0, "fusion_lat": 0.0, "type": "electric_bike", "name": "b2a92ca91fd142a60fb1514e09560add", "is_disabled": 0, "rental_uris": {"ios": "https://dc.lft.to/lastmile_qr_scan", "android": "https://dc.lft.to/lastmile_qr_scan"}, "is_reserved": 0}, {"lon": -77.01936366666666, "bike_id": "dba86bf44f7848ae2a4ca73e7a1edc6d", "lat": 38.936878, "fusion_lon": 0.0, "fusion_lat": 0.0, "type": "electric_scooter", "name": "dba86bf44f7848ae2a4ca73e7a1edc6d", "is_disabled": 0, "rental_uris": {"ios": "https://dc.lft.to/lastmile_qr_scan", "android": "https://dc.lft.to/lastmile_qr_scan"}, "is_reserved": 0}, {"lon": -76.99537, "bike_id": "cf4f3f75902e6cb0451515d2d30071ba", "lat": 38.88374483333333, "fusion_lon": 0.0, "fusion_lat": 0.0, "type": "electric_scooter", "name": "cf4f3f75902e6cb0451515d2d30071ba", "is_disabled": 0, "rental_uris": {"ios": "https://dc.lft.to/lastmile_qr_scan", "android": "https://dc.lft.to/lastmile_qr_scan"}, "is_reserved": 0}, {"lon": -77.0385905, "bike_id": "dd2c3933fa292e78c02967abe494c58c", "lat": 38.91556283333333, "fusion_lon": 0.0, "fusion_lat": 0.0, "type": "electric_scooter", "name": "dd2c3933fa292e78c02967abe494c58c", "is_disabled": 0, "rental_uris": {"ios": "https://dc.lft.to/lastmile_qr_scan", "android": "https://dc.lft.to/lastmile_qr_scan"}, "is_reserved": 0}, {"lon": -77.0545025, "bike_id": "5e860fcc1ae256341e75aeadee7ac929", "lat": 38.943596, "fusion_lon": 0.0, "fusion_lat": 0.0, "type": "electric_bike", "name": "5e860fcc1ae256341e75aeadee7ac929", "is_disabled": 0, "rental_uris": {"ios": "https://dc.lft.to/lastmile_qr_scan", "android": "https://dc.lft.to/lastmile_qr_scan"}, "is_reserved": 0}, {"lon": -77.03655216666667, "bike_id": "4fe2053e01a6fd67710de1e6fee8dea0", "lat": 38.918136, "fusion_lon": 0.0, "fusion_lat": 0.0, "type": "electric_scooter", "name": "4fe2053e01a6fd67710de1e6fee8dea0", "is_disabled": 0, "rental_uris": {"ios": "https://dc.lft.to/lastmile_qr_scan", "android": "https://dc.lft.to/lastmile_qr_scan"}, "is_reserved": 0}, {"lon": -76.9319185, "bike_id": "2919e5c17c1d8dd2c1732e4820be86f5", "lat": 38.89878916666667, "fusion_lon": 0.0, "fusion_lat": 0.0, "type": "electric_scooter", "name": "2919e5c17c1d8dd2c1732e4820be86f5", "is_disabled": 0, "rental_uris": {"ios": "https://dc.lft.to/lastmile_qr_scan", "android": "https://dc.lft.to/lastmile_qr_scan"}, "is_reserved": 0}, {"lon": -77.046992, "bike_id": "280824f8a0d922b4ec7cda9524bbff50", "lat": 38.92063366666667, "fusion_lon": 0.0, "fusion_lat": 0.0, "type": "electric_scooter", "name": "280824f8a0d922b4ec7cda9524bbff50", "is_disabled": 0, "rental_uris": {"ios": "https://dc.lft.to/lastmile_qr_scan", "android": "https://dc.lft.to/lastmile_qr_scan"}, "is_reserved": 0}, {"lon": -76.98543516666666, "bike_id": "7cd45e1d606e75b4e9bd656f34da2f88", "lat": 38.89663083333333, "fusion_lon": 0.0, "fusion_lat": 0.0, "type": "electric_scooter", "name": "7cd45e1d606e75b4e9bd656f34da2f88", "is_disabled": 0, "rental_uris": {"ios": "https://dc.lft.to/lastmile_qr_scan", "android": "https://dc.lft.to/lastmile_qr_scan"}, "is_reserved": 0}, {"lon": -77.02301083333333, "bike_id": "0f2d719a1446efdc5da8b4b60f28c574", "lat": 38.927450666666665, "fusion_lon": 0.0, "fusion_lat": 0.0, "type": "electric_scooter", "name": "0f2d719a1446efdc5da8b4b60f28c574", "is_disabled": 0, "rental_uris": {"ios": "https://dc.lft.to/lastmile_qr_scan", "android": "https://dc.lft.to/lastmile_qr_scan"}, "is_reserved": 0}, {"lon": -77.052678, "bike_id": "39ffad4adb85deb3d619402e3447cfdf", "lat": 38.89965866666667, "fusion_lon": 0.0, "fusion_lat": 0.0, "type": "electric_scooter", "name": "39ffad4adb85deb3d619402e3447cfdf", "is_disabled": 0, "rental_uris": {"ios": "https://dc.lft.to/lastmile_qr_scan", "android": "https://dc.lft.to/lastmile_qr_scan"}, "is_reserved": 0}, {"lon": -77.03218433333333, "bike_id": "9340ed30c47be05826ec303258e9c11d", "lat": 38.917116, "fusion_lon": 0.0, "fusion_lat": 0.0, "type": "electric_scooter", "name": "9340ed30c47be05826ec303258e9c11d", "is_disabled": 0, "rental_uris": {"ios": "https://dc.lft.to/lastmile_qr_scan", "android": "https://dc.lft.to/lastmile_qr_scan"}, "is_reserved": 0}, {"lon": -77.0536135, "bike_id": "5a0ee0236dee41d252d8b27ac7c667d5", "lat": 38.927337666666666, "fusion_lon": 0.0, "fusion_lat": 0.0, "type": "electric_scooter", "name": "5a0ee0236dee41d252d8b27ac7c667d5", "is_disabled": 0, "rental_uris": {"ios": "https://dc.lft.to/lastmile_qr_scan", "android": "https://dc.lft.to/lastmile_qr_scan"}, "is_reserved": 0}, {"lon": -76.99016633333333, "bike_id": "15462846294eb15c611ba6f509a88ca3", "lat": 38.88163133333333, "fusion_lon": 0.0, "fusion_lat": 0.0, "type": "electric_scooter", "name": "15462846294eb15c611ba6f509a88ca3", "is_disabled": 0, "rental_uris": {"ios": "https://dc.lft.to/lastmile_qr_scan", "android": "https://dc.lft.to/lastmile_qr_scan"}, "is_reserved": 0}, {"lon": -77.0385195, "bike_id": "0cec344d900b06432db1c26e7790241b", "lat": 38.917842, "fusion_lon": 0.0, "fusion_lat": 0.0, "type": "electric_scooter", "name": "0cec344d900b06432db1c26e7790241b", "is_disabled": 0, "rental_uris": {"ios": "https://dc.lft.to/lastmile_qr_scan", "android": "https://dc.lft.to/lastmile_qr_scan"}, "is_reserved": 0}, {"lon": -77.03430583333333, "bike_id": "008bb741e7754c1fc82f894c8f53cfd7", "lat": 38.9056575, "fusion_lon": 0.0, "fusion_lat": 0.0, "type": "electric_scooter", "name": "008bb741e7754c1fc82f894c8f53cfd7", "is_disabled": 0, "rental_uris": {"ios": "https://dc.lft.to/lastmile_qr_scan", "android": "https://dc.lft.to/lastmile_qr_scan"}, "is_reserved": 0}, {"lon": -77.02278583333333, "bike_id": "2209027ac977cff1b6b8539179314053", "lat": 38.90956966666667, "fusion_lon": 0.0, "fusion_lat": 0.0, "type": "electric_scooter", "name": "2209027ac977cff1b6b8539179314053", "is_disabled": 0, "rental_uris": {"ios": "https://dc.lft.to/lastmile_qr_scan", "android": "https://dc.lft.to/lastmile_qr_scan"}, "is_reserved": 0}, {"lon": -77.04479966666666, "bike_id": "9407879222738dd0ebf67620ff3524cf", "lat": 38.91929783333333, "fusion_lon": 0.0, "fusion_lat": 0.0, "type": "electric_scooter", "name": "9407879222738dd0ebf67620ff3524cf", "is_disabled": 0, "rental_uris": {"ios": "https://dc.lft.to/lastmile_qr_scan", "android": "https://dc.lft.to/lastmile_qr_scan"}, "is_reserved": 0}, {"lon": -77.04657616666667, "bike_id": "fee2ae872f9f54658c085bd61786c616", "lat": 38.913658166666664, "fusion_lon": 0.0, "fusion_lat": 0.0, "type": "electric_scooter", "name": "fee2ae872f9f54658c085bd61786c616", "is_disabled": 0, "rental_uris": {"ios": "https://dc.lft.to/lastmile_qr_scan", "android": "https://dc.lft.to/lastmile_qr_scan"}, "is_reserved": 0}, {"lon": -76.99384866666666, "bike_id": "6e2269b274192eee55c5fce5424a6c81", "lat": 38.923955666666664, "fusion_lon": 0.0, "fusion_lat": 0.0, "type": "electric_scooter", "name": "6e2269b274192eee55c5fce5424a6c81", "is_disabled": 0, "rental_uris": {"ios": "https://dc.lft.to/lastmile_qr_scan", "android": "https://dc.lft.to/lastmile_qr_scan"}, "is_reserved": 0}, {"lon": -77.0295145, "bike_id": "0b7e8564946250ffab26412d715ccae9", "lat": 38.905044, "fusion_lon": 0.0, "fusion_lat": 0.0, "type": "electric_scooter", "name": "0b7e8564946250ffab26412d715ccae9", "is_disabled": 0, "rental_uris": {"ios": "https://dc.lft.to/lastmile_qr_scan", "android": "https://dc.lft.to/lastmile_qr_scan"}, "is_reserved": 0}, {"lon": -77.0327505, "bike_id": "017cfc41b3cee5e274bb63e89c0b91c1", "lat": 38.92840733333333, "fusion_lon": 0.0, "fusion_lat": 0.0, "type": "electric_scooter", "name": "017cfc41b3cee5e274bb63e89c0b91c1", "is_disabled": 0, "rental_uris": {"ios": "https://dc.lft.to/lastmile_qr_scan", "android": "https://dc.lft.to/lastmile_qr_scan"}, "is_reserved": 0}, {"lon": -77.03325916666667, "bike_id": "d26166ed3dcc67cbbd67a748a63d688b", "lat": 38.9390125, "fusion_lon": 0.0, "fusion_lat": 0.0, "type": "electric_scooter", "name": "d26166ed3dcc67cbbd67a748a63d688b", "is_disabled": 0, "rental_uris": {"ios": "https://dc.lft.to/lastmile_qr_scan", "android": "https://dc.lft.to/lastmile_qr_scan"}, "is_reserved": 0}, {"lon": -77.01726466666666, "bike_id": "1303a861e84dec6a1e35db6f1abdff06", "lat": 38.90364683333333, "fusion_lon": 0.0, "fusion_lat": 0.0, "type": "electric_scooter", "name": "1303a861e84dec6a1e35db6f1abdff06", "is_disabled": 0, "rental_uris": {"ios": "https://dc.lft.to/lastmile_qr_scan", "android": "https://dc.lft.to/lastmile_qr_scan"}, "is_reserved": 0}, {"lon": -76.9732735, "bike_id": "ab8b9c27a2c3ce14f931f9d9ab6548a9", "lat": 38.904774, "fusion_lon": 0.0, "fusion_lat": 0.0, "type": "electric_bike", "name": "ab8b9c27a2c3ce14f931f9d9ab6548a9", "is_disabled": 0, "rental_uris": {"ios": "https://dc.lft.to/lastmile_qr_scan", "android": "https://dc.lft.to/lastmile_qr_scan"}, "is_reserved": 0}, {"lon": -77.0512715, "bike_id": "cd874af2580cc11adedf8b5cc6f581d0", "lat": 38.923639, "fusion_lon": 0.0, "fusion_lat": 0.0, "type": "electric_scooter", "name": "cd874af2580cc11adedf8b5cc6f581d0", "is_disabled": 0, "rental_uris": {"ios": "https://dc.lft.to/lastmile_qr_scan", "android": "https://dc.lft.to/lastmile_qr_scan"}, "is_reserved": 0}, {"lon": -77.0211695, "bike_id": "e9b663235a273bdada23f149048cd5aa", "lat": 38.899745333333335, "fusion_lon": 0.0, "fusion_lat": 0.0, "type": "electric_scooter", "name": "e9b663235a273bdada23f149048cd5aa", "is_disabled": 0, "rental_uris": {"ios": "https://dc.lft.to/lastmile_qr_scan", "android": "https://dc.lft.to/lastmile_qr_scan"}, "is_reserved": 0}, {"lon": -77.05579516666667, "bike_id": "e04d584873ce2b9ec5ad7bf0ec819456", "lat": 38.9160385, "fusion_lon": 0.0, "fusion_lat": 0.0, "type": "electric_scooter", "name": "e04d584873ce2b9ec5ad7bf0ec819456", "is_disabled": 0, "rental_uris": {"ios": "https://dc.lft.to/lastmile_qr_scan", "android": "https://dc.lft.to/lastmile_qr_scan"}, "is_reserved": 0}, {"lon": -77.05862116666667, "bike_id": "04f78d6b77da1bbd873bc80e87a83b0e", "lat": 38.9360705, "fusion_lon": 0.0, "fusion_lat": 0.0, "type": "electric_scooter", "name": "04f78d6b77da1bbd873bc80e87a83b0e", "is_disabled": 0, "rental_uris": {"ios": "https://dc.lft.to/lastmile_qr_scan", "android": "https://dc.lft.to/lastmile_qr_scan"}, "is_reserved": 0}, {"lon": -77.02167066666667, "bike_id": "cbe20009c1634818ec300320b31caf7b", "lat": 38.897272, "fusion_lon": 0.0, "fusion_lat": 0.0, "type": "electric_scooter", "name": "cbe20009c1634818ec300320b31caf7b", "is_disabled": 0, "rental_uris": {"ios": "https://dc.lft.to/lastmile_qr_scan", "android": "https://dc.lft.to/lastmile_qr_scan"}, "is_reserved": 0}, {"lon": -77.026738, "bike_id": "47863a0822079c57f15696c2b5b0bb4e", "lat": 38.900612833333334, "fusion_lon": 0.0, "fusion_lat": 0.0, "type": "electric_scooter", "name": "47863a0822079c57f15696c2b5b0bb4e", "is_disabled": 0, "rental_uris": {"ios": "https://dc.lft.to/lastmile_qr_scan", "android": "https://dc.lft.to/lastmile_qr_scan"}, "is_reserved": 0}, {"lon": -76.91601316666667, "bike_id": "13e39e87b7df52e431ce2327dd9f5e12", "lat": 38.879842333333336, "fusion_lon": 0.0, "fusion_lat": 0.0, "type": "electric_bike", "name": "13e39e87b7df52e431ce2327dd9f5e12", "is_disabled": 0, "rental_uris": {"ios": "https://dc.lft.to/lastmile_qr_scan", "android": "https://dc.lft.to/lastmile_qr_scan"}, "is_reserved": 0}, {"lon": -76.9904715, "bike_id": "b7dc4cd47f874b4dabb1bb1a3e931202", "lat": 38.884179, "fusion_lon": 0.0, "fusion_lat": 0.0, "type": "electric_scooter", "name": "b7dc4cd47f874b4dabb1bb1a3e931202", "is_disabled": 0, "rental_uris": {"ios": "https://dc.lft.to/lastmile_qr_scan", "android": "https://dc.lft.to/lastmile_qr_scan"}, "is_reserved": 0}, {"lon": -77.04252166666667, "bike_id": "fb8327c5d7fe76832217373522b9177b", "lat": 38.924303333333334, "fusion_lon": 0.0, "fusion_lat": 0.0, "type": "electric_scooter", "name": "fb8327c5d7fe76832217373522b9177b", "is_disabled": 0, "rental_uris": {"ios": "https://dc.lft.to/lastmile_qr_scan", "android": "https://dc.lft.to/lastmile_qr_scan"}, "is_reserved": 0}, {"lon": -76.982144, "bike_id": "ef0a22375ebdac8e923567e2374509ee", "lat": 38.86617616666667, "fusion_lon": 0.0, "fusion_lat": 0.0, "type": "electric_scooter", "name": "ef0a22375ebdac8e923567e2374509ee", "is_disabled": 0, "rental_uris": {"ios": "https://dc.lft.to/lastmile_qr_scan", "android": "https://dc.lft.to/lastmile_qr_scan"}, "is_reserved": 0}, {"lon": -77.00265683333333, "bike_id": "3d880ef289da16ed7459008243b7c83a", "lat": 38.91125233333333, "fusion_lon": 0.0, "fusion_lat": 0.0, "type": "electric_scooter", "name": "3d880ef289da16ed7459008243b7c83a", "is_disabled": 0, "rental_uris": {"ios": "https://dc.lft.to/lastmile_qr_scan", "android": "https://dc.lft.to/lastmile_qr_scan"}, "is_reserved": 0}, {"lon": -76.9940255, "bike_id": "2ee89a928a4296e55a782f88b54ee80e", "lat": 38.8314355, "fusion_lon": 0.0, "fusion_lat": 0.0, "type": "electric_bike", "name": "2ee89a928a4296e55a782f88b54ee80e", "is_disabled": 0, "rental_uris": {"ios": "https://dc.lft.to/lastmile_qr_scan", "android": "https://dc.lft.to/lastmile_qr_scan"}, "is_reserved": 0}, {"lon": -77.03655583333334, "bike_id": "1501e9197e5593032eb79804bdcc5d7b", "lat": 38.94188, "fusion_lon": 0.0, "fusion_lat": 0.0, "type": "electric_scooter", "name": "1501e9197e5593032eb79804bdcc5d7b", "is_disabled": 0, "rental_uris": {"ios": "https://dc.lft.to/lastmile_qr_scan", "android": "https://dc.lft.to/lastmile_qr_scan"}, "is_reserved": 0}, {"lon": -76.98192016666667, "bike_id": "2db5e5d504c480043984b710f0d9f754", "lat": 38.92601533333333, "fusion_lon": 0.0, "fusion_lat": 0.0, "type": "electric_scooter", "name": "2db5e5d504c480043984b710f0d9f754", "is_disabled": 0, "rental_uris": {"ios": "https://dc.lft.to/lastmile_qr_scan", "android": "https://dc.lft.to/lastmile_qr_scan"}, "is_reserved": 0}, {"lon": -76.94292016666667, "bike_id": "021dc8a7d6444d806998c6b592d1b486", "lat": 38.93871083333333, "fusion_lon": 0.0, "fusion_lat": 0.0, "type": "electric_bike", "name": "021dc8a7d6444d806998c6b592d1b486", "is_disabled": 0, "rental_uris": {"ios": "https://dc.lft.to/lastmile_qr_scan", "android": "https://dc.lft.to/lastmile_qr_scan"}, "is_reserved": 0}, {"lon": -77.02628133333333, "bike_id": "32cc99102e83325387297195bdc95a47", "lat": 38.96221716666667, "fusion_lon": 0.0, "fusion_lat": 0.0, "type": "electric_bike", "name": "32cc99102e83325387297195bdc95a47", "is_disabled": 0, "rental_uris": {"ios": "https://dc.lft.to/lastmile_qr_scan", "android": "https://dc.lft.to/lastmile_qr_scan"}, "is_reserved": 0}, {"lon": -77.0070235, "bike_id": "31425a802c9ca978b8febe3ac7e1f252", "lat": 38.87943116666667, "fusion_lon": 0.0, "fusion_lat": 0.0, "type": "electric_scooter", "name": "31425a802c9ca978b8febe3ac7e1f252", "is_disabled": 0, "rental_uris": {"ios": "https://dc.lft.to/lastmile_qr_scan", "android": "https://dc.lft.to/lastmile_qr_scan"}, "is_reserved": 0}, {"lon": -76.954737, "bike_id": "e28b7d31444d2ae0a6446ef0bdfd12c7", "lat": 38.8846465, "fusion_lon": 0.0, "fusion_lat": 0.0, "type": "electric_scooter", "name": "e28b7d31444d2ae0a6446ef0bdfd12c7", "is_disabled": 0, "rental_uris": {"ios": "https://dc.lft.to/lastmile_qr_scan", "android": "https://dc.lft.to/lastmile_qr_scan"}, "is_reserved": 0}, {"lon": -76.9888435, "bike_id": "55a17ec3e3387a2b6bdb42227666cd07", "lat": 38.866524166666665, "fusion_lon": 0.0, "fusion_lat": 0.0, "type": "electric_scooter", "name": "55a17ec3e3387a2b6bdb42227666cd07", "is_disabled": 0, "rental_uris": {"ios": "https://dc.lft.to/lastmile_qr_scan", "android": "https://dc.lft.to/lastmile_qr_scan"}, "is_reserved": 0}, {"lon": -77.0386455, "bike_id": "799acb01ac3b2d3d7cccf588edd3f69e", "lat": 38.932935, "fusion_lon": 0.0, "fusion_lat": 0.0, "type": "electric_scooter", "name": "799acb01ac3b2d3d7cccf588edd3f69e", "is_disabled": 0, "rental_uris": {"ios": "https://dc.lft.to/lastmile_qr_scan", "android": "https://dc.lft.to/lastmile_qr_scan"}, "is_reserved": 0}, {"lon": -77.00210816666667, "bike_id": "bddddeacc5c846079b17cda90282bdd8", "lat": 38.900259166666665, "fusion_lon": 0.0, "fusion_lat": 0.0, "type": "electric_scooter", "name": "bddddeacc5c846079b17cda90282bdd8", "is_disabled": 0, "rental_uris": {"ios": "https://dc.lft.to/lastmile_qr_scan", "android": "https://dc.lft.to/lastmile_qr_scan"}, "is_reserved": 0}, {"lon": -76.98261016666666, "bike_id": "7d407a930c64b51ebb4938ee814a6ed2", "lat": 38.9085405, "fusion_lon": 0.0, "fusion_lat": 0.0, "type": "electric_scooter", "name": "7d407a930c64b51ebb4938ee814a6ed2", "is_disabled": 0, "rental_uris": {"ios": "https://dc.lft.to/lastmile_qr_scan", "android": "https://dc.lft.to/lastmile_qr_scan"}, "is_reserved": 0}, {"lon": -76.98591966666666, "bike_id": "83b219bb4422f01da8ca0a2be35b1581", "lat": 38.908121333333334, "fusion_lon": 0.0, "fusion_lat": 0.0, "type": "electric_scooter", "name": "83b219bb4422f01da8ca0a2be35b1581", "is_disabled": 0, "rental_uris": {"ios": "https://dc.lft.to/lastmile_qr_scan", "android": "https://dc.lft.to/lastmile_qr_scan"}, "is_reserved": 0}, {"lon": -76.99485716666666, "bike_id": "cb7c91d16dd5c8726dc03e8785084225", "lat": 38.91572033333333, "fusion_lon": 0.0, "fusion_lat": 0.0, "type": "electric_scooter", "name": "cb7c91d16dd5c8726dc03e8785084225", "is_disabled": 0, "rental_uris": {"ios": "https://dc.lft.to/lastmile_qr_scan", "android": "https://dc.lft.to/lastmile_qr_scan"}, "is_reserved": 0}, {"lon": -77.06497316666666, "bike_id": "ed95f329d93bf59adc5a6cccc3902366", "lat": 38.94639983333333, "fusion_lon": 0.0, "fusion_lat": 0.0, "type": "electric_scooter", "name": "ed95f329d93bf59adc5a6cccc3902366", "is_disabled": 0, "rental_uris": {"ios": "https://dc.lft.to/lastmile_qr_scan", "android": "https://dc.lft.to/lastmile_qr_scan"}, "is_reserved": 0}, {"lon": -77.100873, "bike_id": "078162db0c08f1866d30c4b3b30d91e8", "lat": 38.9595265, "fusion_lon": 0.0, "fusion_lat": 0.0, "type": "electric_bike", "name": "078162db0c08f1866d30c4b3b30d91e8", "is_disabled": 0, "rental_uris": {"ios": "https://dc.lft.to/lastmile_qr_scan", "android": "https://dc.lft.to/lastmile_qr_scan"}, "is_reserved": 0}, {"lon": -76.9337295, "bike_id": "bae6e3944baec5b1d101a477c4a57b69", "lat": 38.899149333333334, "fusion_lon": 0.0, "fusion_lat": 0.0, "type": "electric_scooter", "name": "bae6e3944baec5b1d101a477c4a57b69", "is_disabled": 0, "rental_uris": {"ios": "https://dc.lft.to/lastmile_qr_scan", "android": "https://dc.lft.to/lastmile_qr_scan"}, "is_reserved": 0}, {"lon": -77.04116833333333, "bike_id": "eb7882c1ed490d8c30a8dabc0004c4b1", "lat": 38.92036383333333, "fusion_lon": 0.0, "fusion_lat": 0.0, "type": "electric_scooter", "name": "eb7882c1ed490d8c30a8dabc0004c4b1", "is_disabled": 0, "rental_uris": {"ios": "https://dc.lft.to/lastmile_qr_scan", "android": "https://dc.lft.to/lastmile_qr_scan"}, "is_reserved": 0}, {"lon": -76.98897866666667, "bike_id": "00b172b9dc240eb3418b41bfbeff1c96", "lat": 38.91346216666667, "fusion_lon": 0.0, "fusion_lat": 0.0, "type": "electric_scooter", "name": "00b172b9dc240eb3418b41bfbeff1c96", "is_disabled": 0, "rental_uris": {"ios": "https://dc.lft.to/lastmile_qr_scan", "android": "https://dc.lft.to/lastmile_qr_scan"}, "is_reserved": 0}, {"lon": -76.97761983333334, "bike_id": "b242cf1cfc400cb74e0ae77b1c3552af", "lat": 38.8644815, "fusion_lon": 0.0, "fusion_lat": 0.0, "type": "electric_scooter", "name": "b242cf1cfc400cb74e0ae77b1c3552af", "is_disabled": 0, "rental_uris": {"ios": "https://dc.lft.to/lastmile_qr_scan", "android": "https://dc.lft.to/lastmile_qr_scan"}, "is_reserved": 0}, {"lon": -77.12219616666667, "bike_id": "ec74d2cde279b4c37987d2dd83145e05", "lat": 38.852994, "fusion_lon": 0.0, "fusion_lat": 0.0, "type": "electric_bike", "name": "ec74d2cde279b4c37987d2dd83145e05", "is_disabled": 0, "rental_uris": {"ios": "https://dc.lft.to/lastmile_qr_scan", "android": "https://dc.lft.to/lastmile_qr_scan"}, "is_reserved": 0}, {"lon": -77.01450266666667, "bike_id": "252be0340a146ae6a7e94502b9571bf8", "lat": 38.905174, "fusion_lon": 0.0, "fusion_lat": 0.0, "type": "electric_scooter", "name": "252be0340a146ae6a7e94502b9571bf8", "is_disabled": 0, "rental_uris": {"ios": "https://dc.lft.to/lastmile_qr_scan", "android": "https://dc.lft.to/lastmile_qr_scan"}, "is_reserved": 0}, {"lon": -77.0114395, "bike_id": "a26717ae83dc293d491737f9de8d6ff8", "lat": 38.895676, "fusion_lon": 0.0, "fusion_lat": 0.0, "type": "electric_scooter", "name": "a26717ae83dc293d491737f9de8d6ff8", "is_disabled": 0, "rental_uris": {"ios": "https://dc.lft.to/lastmile_qr_scan", "android": "https://dc.lft.to/lastmile_qr_scan"}, "is_reserved": 0}, {"lon": -76.988442, "bike_id": "df4f2103235e849a2465bf62d09d16ec", "lat": 38.90125166666667, "fusion_lon": 0.0, "fusion_lat": 0.0, "type": "electric_scooter", "name": "df4f2103235e849a2465bf62d09d16ec", "is_disabled": 0, "rental_uris": {"ios": "https://dc.lft.to/lastmile_qr_scan", "android": "https://dc.lft.to/lastmile_qr_scan"}, "is_reserved": 0}, {"lon": -77.0321835, "bike_id": "05efd4437ece93ac536d3df36e848297", "lat": 38.8922305, "fusion_lon": 0.0, "fusion_lat": 0.0, "type": "electric_scooter", "name": "05efd4437ece93ac536d3df36e848297", "is_disabled": 0, "rental_uris": {"ios": "https://dc.lft.to/lastmile_qr_scan", "android": "https://dc.lft.to/lastmile_qr_scan"}, "is_reserved": 0}, {"lon": -77.035108, "bike_id": "0dcc6c9d08287a9958531cf2da8ba9ea", "lat": 38.9004495, "fusion_lon": 0.0, "fusion_lat": 0.0, "type": "electric_scooter", "name": "0dcc6c9d08287a9958531cf2da8ba9ea", "is_disabled": 0, "rental_uris": {"ios": "https://dc.lft.to/lastmile_qr_scan", "android": "https://dc.lft.to/lastmile_qr_scan"}, "is_reserved": 0}, {"lon": -77.035113, "bike_id": "ce94197710893b6d77c74a911682d0d9", "lat": 38.923417666666666, "fusion_lon": 0.0, "fusion_lat": 0.0, "type": "electric_scooter", "name": "ce94197710893b6d77c74a911682d0d9", "is_disabled": 0, "rental_uris": {"ios": "https://dc.lft.to/lastmile_qr_scan", "android": "https://dc.lft.to/lastmile_qr_scan"}, "is_reserved": 0}, {"lon": -77.04066133333333, "bike_id": "7425fb82115e990816eaeeb512053017", "lat": 38.91486733333333, "fusion_lon": 0.0, "fusion_lat": 0.0, "type": "electric_scooter", "name": "7425fb82115e990816eaeeb512053017", "is_disabled": 0, "rental_uris": {"ios": "https://dc.lft.to/lastmile_qr_scan", "android": "https://dc.lft.to/lastmile_qr_scan"}, "is_reserved": 0}, {"lon": -77.0153925, "bike_id": "9234a1b1635111050896e80a3d5d51e5", "lat": 38.90971283333333, "fusion_lon": 0.0, "fusion_lat": 0.0, "type": "electric_bike", "name": "9234a1b1635111050896e80a3d5d51e5", "is_disabled": 0, "rental_uris": {"ios": "https://dc.lft.to/lastmile_qr_scan", "android": "https://dc.lft.to/lastmile_qr_scan"}, "is_reserved": 0}, {"lon": -77.03444333333333, "bike_id": "b312138a1d71486c9c550443bed1f51f", "lat": 38.90946483333333, "fusion_lon": 0.0, "fusion_lat": 0.0, "type": "electric_scooter", "name": "b312138a1d71486c9c550443bed1f51f", "is_disabled": 0, "rental_uris": {"ios": "https://dc.lft.to/lastmile_qr_scan", "android": "https://dc.lft.to/lastmile_qr_scan"}, "is_reserved": 0}, {"lon": -77.04342183333333, "bike_id": "2b024a1f82dbc924abb1a2d304764677", "lat": 38.9072535, "fusion_lon": 0.0, "fusion_lat": 0.0, "type": "electric_scooter", "name": "2b024a1f82dbc924abb1a2d304764677", "is_disabled": 0, "rental_uris": {"ios": "https://dc.lft.to/lastmile_qr_scan", "android": "https://dc.lft.to/lastmile_qr_scan"}, "is_reserved": 0}, {"lon": -77.02396116666667, "bike_id": "90c7171a9afc6cbc407615f384e07982", "lat": 38.920812833333336, "fusion_lon": 0.0, "fusion_lat": 0.0, "type": "electric_scooter", "name": "90c7171a9afc6cbc407615f384e07982", "is_disabled": 0, "rental_uris": {"ios": "https://dc.lft.to/lastmile_qr_scan", "android": "https://dc.lft.to/lastmile_qr_scan"}, "is_reserved": 0}, {"lon": -77.03773983333333, "bike_id": "d0ed7faad73d90dec27953237bd4077b", "lat": 38.928813833333336, "fusion_lon": 0.0, "fusion_lat": 0.0, "type": "electric_scooter", "name": "d0ed7faad73d90dec27953237bd4077b", "is_disabled": 0, "rental_uris": {"ios": "https://dc.lft.to/lastmile_qr_scan", "android": "https://dc.lft.to/lastmile_qr_scan"}, "is_reserved": 0}, {"lon": -77.02241166666667, "bike_id": "81e46ad4efbd641d57d2f983655ae0d0", "lat": 38.92616316666667, "fusion_lon": 0.0, "fusion_lat": 0.0, "type": "electric_scooter", "name": "81e46ad4efbd641d57d2f983655ae0d0", "is_disabled": 0, "rental_uris": {"ios": "https://dc.lft.to/lastmile_qr_scan", "android": "https://dc.lft.to/lastmile_qr_scan"}, "is_reserved": 0}, {"lon": -77.0525535, "bike_id": "a9e6c84cb4148c8fc552619e90b492b4", "lat": 38.900017166666665, "fusion_lon": 0.0, "fusion_lat": 0.0, "type": "electric_scooter", "name": "a9e6c84cb4148c8fc552619e90b492b4", "is_disabled": 0, "rental_uris": {"ios": "https://dc.lft.to/lastmile_qr_scan", "android": "https://dc.lft.to/lastmile_qr_scan"}, "is_reserved": 0}, {"lon": -77.04386583333333, "bike_id": "81e6287be78d891a23749c3d594e8742", "lat": 39.0471515, "fusion_lon": 0.0, "fusion_lat": 0.0, "type": "electric_bike", "name": "81e6287be78d891a23749c3d594e8742", "is_disabled": 0, "rental_uris": {"ios": "https://dc.lft.to/lastmile_qr_scan", "android": "https://dc.lft.to/lastmile_qr_scan"}, "is_reserved": 0}, {"lon": -77.02234933333334, "bike_id": "644b9d41bd84555ecae817d5a0baf881", "lat": 38.9621535, "fusion_lon": 0.0, "fusion_lat": 0.0, "type": "electric_bike", "name": "644b9d41bd84555ecae817d5a0baf881", "is_disabled": 0, "rental_uris": {"ios": "https://dc.lft.to/lastmile_qr_scan", "android": "https://dc.lft.to/lastmile_qr_scan"}, "is_reserved": 0}, {"lon": -77.0320705, "bike_id": "1ef903993331ffda510abf771b8cfb00", "lat": 38.909764333333335, "fusion_lon": 0.0, "fusion_lat": 0.0, "type": "electric_scooter", "name": "1ef903993331ffda510abf771b8cfb00", "is_disabled": 0, "rental_uris": {"ios": "https://dc.lft.to/lastmile_qr_scan", "android": "https://dc.lft.to/lastmile_qr_scan"}, "is_reserved": 0}, {"lon": -77.02843533333333, "bike_id": "21b8061ceaf89735b68113d9d365c696", "lat": 38.925706, "fusion_lon": 0.0, "fusion_lat": 0.0, "type": "electric_scooter", "name": "21b8061ceaf89735b68113d9d365c696", "is_disabled": 0, "rental_uris": {"ios": "https://dc.lft.to/lastmile_qr_scan", "android": "https://dc.lft.to/lastmile_qr_scan"}, "is_reserved": 0}, {"lon": -76.98922983333334, "bike_id": "92216bfbec367ac202d012e90e6c27eb", "lat": 38.858070166666664, "fusion_lon": 0.0, "fusion_lat": 0.0, "type": "electric_scooter", "name": "92216bfbec367ac202d012e90e6c27eb", "is_disabled": 0, "rental_uris": {"ios": "https://dc.lft.to/lastmile_qr_scan", "android": "https://dc.lft.to/lastmile_qr_scan"}, "is_reserved": 0}, {"lon": -76.97181533333334, "bike_id": "3907d61a5d0d4dfed1a2167701e8675c", "lat": 38.873922666666665, "fusion_lon": 0.0, "fusion_lat": 0.0, "type": "electric_scooter", "name": "3907d61a5d0d4dfed1a2167701e8675c", "is_disabled": 0, "rental_uris": {"ios": "https://dc.lft.to/lastmile_qr_scan", "android": "https://dc.lft.to/lastmile_qr_scan"}, "is_reserved": 0}, {"lon": -77.02111133333334, "bike_id": "43a1e362014284c17dd6016fcd4727fe", "lat": 38.90608433333333, "fusion_lon": 0.0, "fusion_lat": 0.0, "type": "electric_scooter", "name": "43a1e362014284c17dd6016fcd4727fe", "is_disabled": 0, "rental_uris": {"ios": "https://dc.lft.to/lastmile_qr_scan", "android": "https://dc.lft.to/lastmile_qr_scan"}, "is_reserved": 0}, {"lon": -76.94894233333333, "bike_id": "8dba01fd69efd4022b32c5bb2b3b24b7", "lat": 38.8953435, "fusion_lon": 0.0, "fusion_lat": 0.0, "type": "electric_scooter", "name": "8dba01fd69efd4022b32c5bb2b3b24b7", "is_disabled": 0, "rental_uris": {"ios": "https://dc.lft.to/lastmile_qr_scan", "android": "https://dc.lft.to/lastmile_qr_scan"}, "is_reserved": 0}, {"lon": -77.01846916666666, "bike_id": "2c5bd42c201d9b95d62c965bfc6077ae", "lat": 38.90141216666667, "fusion_lon": 0.0, "fusion_lat": 0.0, "type": "electric_scooter", "name": "2c5bd42c201d9b95d62c965bfc6077ae", "is_disabled": 0, "rental_uris": {"ios": "https://dc.lft.to/lastmile_qr_scan", "android": "https://dc.lft.to/lastmile_qr_scan"}, "is_reserved": 0}, {"lon": -77.08818266666667, "bike_id": "a51951bf813e03c19720b727cde11e5e", "lat": 38.90975233333333, "fusion_lon": 0.0, "fusion_lat": 0.0, "type": "electric_scooter", "name": "a51951bf813e03c19720b727cde11e5e", "is_disabled": 0, "rental_uris": {"ios": "https://dc.lft.to/lastmile_qr_scan", "android": "https://dc.lft.to/lastmile_qr_scan"}, "is_reserved": 0}, {"lon": -77.00216833333333, "bike_id": "ec446bc3576a29b998084b1014266045", "lat": 38.90046133333333, "fusion_lon": 0.0, "fusion_lat": 0.0, "type": "electric_scooter", "name": "ec446bc3576a29b998084b1014266045", "is_disabled": 0, "rental_uris": {"ios": "https://dc.lft.to/lastmile_qr_scan", "android": "https://dc.lft.to/lastmile_qr_scan"}, "is_reserved": 0}, {"lon": -77.0072785, "bike_id": "742e144811c7a62e753606d76cf309de", "lat": 38.9506435, "fusion_lon": 0.0, "fusion_lat": 0.0, "type": "electric_bike", "name": "742e144811c7a62e753606d76cf309de", "is_disabled": 0, "rental_uris": {"ios": "https://dc.lft.to/lastmile_qr_scan", "android": "https://dc.lft.to/lastmile_qr_scan"}, "is_reserved": 0}, {"lon": -77.02391766666666, "bike_id": "2ad2ffec8e11621745f7288931eef8a5", "lat": 38.909823833333334, "fusion_lon": 0.0, "fusion_lat": 0.0, "type": "electric_scooter", "name": "2ad2ffec8e11621745f7288931eef8a5", "is_disabled": 0, "rental_uris": {"ios": "https://dc.lft.to/lastmile_qr_scan", "android": "https://dc.lft.to/lastmile_qr_scan"}, "is_reserved": 0}, {"lon": -76.9927635, "bike_id": "d8d6abbda705674633bdad0dd041c5f8", "lat": 38.8977035, "fusion_lon": 0.0, "fusion_lat": 0.0, "type": "electric_scooter", "name": "d8d6abbda705674633bdad0dd041c5f8", "is_disabled": 0, "rental_uris": {"ios": "https://dc.lft.to/lastmile_qr_scan", "android": "https://dc.lft.to/lastmile_qr_scan"}, "is_reserved": 0}, {"lon": -77.03177183333334, "bike_id": "ef196da9605bd27df92d994912049727", "lat": 38.91901933333333, "fusion_lon": 0.0, "fusion_lat": 0.0, "type": "electric_scooter", "name": "ef196da9605bd27df92d994912049727", "is_disabled": 0, "rental_uris": {"ios": "https://dc.lft.to/lastmile_qr_scan", "android": "https://dc.lft.to/lastmile_qr_scan"}, "is_reserved": 0}, {"lon": -76.98331666666667, "bike_id": "92fba452d28e0cb6a753ac8dbd6bd1b0", "lat": 38.90095916666667, "fusion_lon": 0.0, "fusion_lat": 0.0, "type": "electric_scooter", "name": "92fba452d28e0cb6a753ac8dbd6bd1b0", "is_disabled": 0, "rental_uris": {"ios": "https://dc.lft.to/lastmile_qr_scan", "android": "https://dc.lft.to/lastmile_qr_scan"}, "is_reserved": 0}, {"lon": -77.009191, "bike_id": "72472d57138799131568eeaa52d70f8c", "lat": 38.9109905, "fusion_lon": 0.0, "fusion_lat": 0.0, "type": "electric_scooter", "name": "72472d57138799131568eeaa52d70f8c", "is_disabled": 0, "rental_uris": {"ios": "https://dc.lft.to/lastmile_qr_scan", "android": "https://dc.lft.to/lastmile_qr_scan"}, "is_reserved": 0}, {"lon": -76.9896275, "bike_id": "ac01ae1eb93e7e1d6ce106ae41ca6224", "lat": 38.9012955, "fusion_lon": 0.0, "fusion_lat": 0.0, "type": "electric_scooter", "name": "ac01ae1eb93e7e1d6ce106ae41ca6224", "is_disabled": 0, "rental_uris": {"ios": "https://dc.lft.to/lastmile_qr_scan", "android": "https://dc.lft.to/lastmile_qr_scan"}, "is_reserved": 0}, {"lon": -77.01369816666667, "bike_id": "8e8b9e76113b1bd6b9330ff14936148a", "lat": 38.90619916666667, "fusion_lon": 0.0, "fusion_lat": 0.0, "type": "electric_scooter", "name": "8e8b9e76113b1bd6b9330ff14936148a", "is_disabled": 0, "rental_uris": {"ios": "https://dc.lft.to/lastmile_qr_scan", "android": "https://dc.lft.to/lastmile_qr_scan"}, "is_reserved": 0}, {"lon": -77.01735166666667, "bike_id": "81954f80695c0d887ab4b306f2f56f57", "lat": 38.88051266666667, "fusion_lon": 0.0, "fusion_lat": 0.0, "type": "electric_scooter", "name": "81954f80695c0d887ab4b306f2f56f57", "is_disabled": 0, "rental_uris": {"ios": "https://dc.lft.to/lastmile_qr_scan", "android": "https://dc.lft.to/lastmile_qr_scan"}, "is_reserved": 0}, {"lon": -77.0356335, "bike_id": "60b2390ab456b6d65b236a055d696530", "lat": 38.904750166666666, "fusion_lon": 0.0, "fusion_lat": 0.0, "type": "electric_scooter", "name": "60b2390ab456b6d65b236a055d696530", "is_disabled": 0, "rental_uris": {"ios": "https://dc.lft.to/lastmile_qr_scan", "android": "https://dc.lft.to/lastmile_qr_scan"}, "is_reserved": 0}, {"lon": -76.9817275, "bike_id": "c9ccd38d65bcff4cc41b46b3af4a1955", "lat": 38.9167405, "fusion_lon": 0.0, "fusion_lat": 0.0, "type": "electric_scooter", "name": "c9ccd38d65bcff4cc41b46b3af4a1955", "is_disabled": 0, "rental_uris": {"ios": "https://dc.lft.to/lastmile_qr_scan", "android": "https://dc.lft.to/lastmile_qr_scan"}, "is_reserved": 0}, {"lon": -77.08598383333333, "bike_id": "b2962940d19929082f6955e48d9780bb", "lat": 38.90867016666667, "fusion_lon": 0.0, "fusion_lat": 0.0, "type": "electric_scooter", "name": "b2962940d19929082f6955e48d9780bb", "is_disabled": 0, "rental_uris": {"ios": "https://dc.lft.to/lastmile_qr_scan", "android": "https://dc.lft.to/lastmile_qr_scan"}, "is_reserved": 0}, {"lon": -77.00208383333333, "bike_id": "0c1405e71827db0931b3acef4e564cd9", "lat": 38.900305833333334, "fusion_lon": 0.0, "fusion_lat": 0.0, "type": "electric_scooter", "name": "0c1405e71827db0931b3acef4e564cd9", "is_disabled": 0, "rental_uris": {"ios": "https://dc.lft.to/lastmile_qr_scan", "android": "https://dc.lft.to/lastmile_qr_scan"}, "is_reserved": 0}, {"lon": -77.01743216666667, "bike_id": "ec9366b5f157661c934052249e160fdd", "lat": 38.881218, "fusion_lon": 0.0, "fusion_lat": 0.0, "type": "electric_scooter", "name": "ec9366b5f157661c934052249e160fdd", "is_disabled": 0, "rental_uris": {"ios": "https://dc.lft.to/lastmile_qr_scan", "android": "https://dc.lft.to/lastmile_qr_scan"}, "is_reserved": 0}, {"lon": -77.038919, "bike_id": "15f093bddf7b0b78c09e35bf1dbe3cac", "lat": 38.91001633333333, "fusion_lon": 0.0, "fusion_lat": 0.0, "type": "electric_scooter", "name": "15f093bddf7b0b78c09e35bf1dbe3cac", "is_disabled": 0, "rental_uris": {"ios": "https://dc.lft.to/lastmile_qr_scan", "android": "https://dc.lft.to/lastmile_qr_scan"}, "is_reserved": 0}, {"lon": -77.03861716666667, "bike_id": "20bef3d51aa5f38e05cbd3f1f90bb22a", "lat": 38.9449925, "fusion_lon": 0.0, "fusion_lat": 0.0, "type": "electric_scooter", "name": "20bef3d51aa5f38e05cbd3f1f90bb22a", "is_disabled": 0, "rental_uris": {"ios": "https://dc.lft.to/lastmile_qr_scan", "android": "https://dc.lft.to/lastmile_qr_scan"}, "is_reserved": 0}, {"lon": -77.0342185, "bike_id": "f1f7960304fadcdedcb7257ded2c0623", "lat": 38.90255783333333, "fusion_lon": 0.0, "fusion_lat": 0.0, "type": "electric_scooter", "name": "f1f7960304fadcdedcb7257ded2c0623", "is_disabled": 0, "rental_uris": {"ios": "https://dc.lft.to/lastmile_qr_scan", "android": "https://dc.lft.to/lastmile_qr_scan"}, "is_reserved": 0}, {"lon": -76.9353525, "bike_id": "d12e64e7895c12a165a059eaad5293bb", "lat": 38.8968275, "fusion_lon": 0.0, "fusion_lat": 0.0, "type": "electric_scooter", "name": "d12e64e7895c12a165a059eaad5293bb", "is_disabled": 0, "rental_uris": {"ios": "https://dc.lft.to/lastmile_qr_scan", "android": "https://dc.lft.to/lastmile_qr_scan"}, "is_reserved": 0}, {"lon": -76.98096716666667, "bike_id": "7693801891326de21dccf89d885a09ff", "lat": 38.89554233333333, "fusion_lon": 0.0, "fusion_lat": 0.0, "type": "electric_scooter", "name": "7693801891326de21dccf89d885a09ff", "is_disabled": 0, "rental_uris": {"ios": "https://dc.lft.to/lastmile_qr_scan", "android": "https://dc.lft.to/lastmile_qr_scan"}, "is_reserved": 0}, {"lon": -77.02713616666666, "bike_id": "5393c97f9e5c0dd8abf142527dcc82ed", "lat": 38.924694333333335, "fusion_lon": 0.0, "fusion_lat": 0.0, "type": "electric_scooter", "name": "5393c97f9e5c0dd8abf142527dcc82ed", "is_disabled": 0, "rental_uris": {"ios": "https://dc.lft.to/lastmile_qr_scan", "android": "https://dc.lft.to/lastmile_qr_scan"}, "is_reserved": 0}, {"lon": -76.9614815, "bike_id": "2d735204365a9e602c925c5dc117e53f", "lat": 38.88356316666667, "fusion_lon": 0.0, "fusion_lat": 0.0, "type": "electric_scooter", "name": "2d735204365a9e602c925c5dc117e53f", "is_disabled": 0, "rental_uris": {"ios": "https://dc.lft.to/lastmile_qr_scan", "android": "https://dc.lft.to/lastmile_qr_scan"}, "is_reserved": 0}, {"lon": -77.031823, "bike_id": "d0b3c2112de22b312c65bd05ad941468", "lat": 38.919160166666664, "fusion_lon": 0.0, "fusion_lat": 0.0, "type": "electric_scooter", "name": "d0b3c2112de22b312c65bd05ad941468", "is_disabled": 0, "rental_uris": {"ios": "https://dc.lft.to/lastmile_qr_scan", "android": "https://dc.lft.to/lastmile_qr_scan"}, "is_reserved": 0}, {"lon": -76.9904705, "bike_id": "d175475649c37f5d8929c305735aa137", "lat": 38.88755166666667, "fusion_lon": 0.0, "fusion_lat": 0.0, "type": "electric_scooter", "name": "d175475649c37f5d8929c305735aa137", "is_disabled": 0, "rental_uris": {"ios": "https://dc.lft.to/lastmile_qr_scan", "android": "https://dc.lft.to/lastmile_qr_scan"}, "is_reserved": 0}, {"lon": -76.96796983333333, "bike_id": "1bf781daf9f38591efbd508d88639c1d", "lat": 38.868553666666664, "fusion_lon": 0.0, "fusion_lat": 0.0, "type": "electric_scooter", "name": "1bf781daf9f38591efbd508d88639c1d", "is_disabled": 0, "rental_uris": {"ios": "https://dc.lft.to/lastmile_qr_scan", "android": "https://dc.lft.to/lastmile_qr_scan"}, "is_reserved": 0}, {"lon": -77.00837333333334, "bike_id": "8161882261764e2b370b807b7768b8d7", "lat": 38.90567216666667, "fusion_lon": 0.0, "fusion_lat": 0.0, "type": "electric_scooter", "name": "8161882261764e2b370b807b7768b8d7", "is_disabled": 0, "rental_uris": {"ios": "https://dc.lft.to/lastmile_qr_scan", "android": "https://dc.lft.to/lastmile_qr_scan"}, "is_reserved": 0}, {"lon": -77.03422533333334, "bike_id": "ef5416a91bdb7ec8ce90a0c36d15205c", "lat": 38.927415333333336, "fusion_lon": 0.0, "fusion_lat": 0.0, "type": "electric_scooter", "name": "ef5416a91bdb7ec8ce90a0c36d15205c", "is_disabled": 0, "rental_uris": {"ios": "https://dc.lft.to/lastmile_qr_scan", "android": "https://dc.lft.to/lastmile_qr_scan"}, "is_reserved": 0}, {"lon": -77.04493433333333, "bike_id": "b1396c41ee2f7bf34bd9d422b6595732", "lat": 38.911135333333334, "fusion_lon": 0.0, "fusion_lat": 0.0, "type": "electric_scooter", "name": "b1396c41ee2f7bf34bd9d422b6595732", "is_disabled": 0, "rental_uris": {"ios": "https://dc.lft.to/lastmile_qr_scan", "android": "https://dc.lft.to/lastmile_qr_scan"}, "is_reserved": 0}, {"lon": -76.99518916666666, "bike_id": "6696c210720f9c205f8ad6dcf9bb6180", "lat": 38.90019083333333, "fusion_lon": 0.0, "fusion_lat": 0.0, "type": "electric_scooter", "name": "6696c210720f9c205f8ad6dcf9bb6180", "is_disabled": 0, "rental_uris": {"ios": "https://dc.lft.to/lastmile_qr_scan", "android": "https://dc.lft.to/lastmile_qr_scan"}, "is_reserved": 0}, {"lon": -77.12485316666667, "bike_id": "c3b0a9667404d5a32c6b31a1c290fd4e", "lat": 38.82793016666667, "fusion_lon": 0.0, "fusion_lat": 0.0, "type": "electric_bike", "name": "c3b0a9667404d5a32c6b31a1c290fd4e", "is_disabled": 0, "rental_uris": {"ios": "https://dc.lft.to/lastmile_qr_scan", "android": "https://dc.lft.to/lastmile_qr_scan"}, "is_reserved": 0}, {"lon": -77.05181483333334, "bike_id": "9f0fe52acb0dd7c716827617f602b913", "lat": 38.924251, "fusion_lon": 0.0, "fusion_lat": 0.0, "type": "electric_scooter", "name": "9f0fe52acb0dd7c716827617f602b913", "is_disabled": 0, "rental_uris": {"ios": "https://dc.lft.to/lastmile_qr_scan", "android": "https://dc.lft.to/lastmile_qr_scan"}, "is_reserved": 0}, {"lon": -77.027128, "bike_id": "5f93374541fa7bf91b46bc6ceb863a3b", "lat": 38.934718, "fusion_lon": 0.0, "fusion_lat": 0.0, "type": "electric_scooter", "name": "5f93374541fa7bf91b46bc6ceb863a3b", "is_disabled": 0, "rental_uris": {"ios": "https://dc.lft.to/lastmile_qr_scan", "android": "https://dc.lft.to/lastmile_qr_scan"}, "is_reserved": 0}, {"lon": -76.96578866666667, "bike_id": "5776f091c1e8779eaa053186672ee566", "lat": 38.871374, "fusion_lon": 0.0, "fusion_lat": 0.0, "type": "electric_scooter", "name": "5776f091c1e8779eaa053186672ee566", "is_disabled": 0, "rental_uris": {"ios": "https://dc.lft.to/lastmile_qr_scan", "android": "https://dc.lft.to/lastmile_qr_scan"}, "is_reserved": 0}, {"lon": -77.03396883333333, "bike_id": "b3bb55c40493b780da06c38370d91346", "lat": 38.960279166666666, "fusion_lon": 0.0, "fusion_lat": 0.0, "type": "electric_bike", "name": "b3bb55c40493b780da06c38370d91346", "is_disabled": 0, "rental_uris": {"ios": "https://dc.lft.to/lastmile_qr_scan", "android": "https://dc.lft.to/lastmile_qr_scan"}, "is_reserved": 0}, {"lon": -77.02852816666666, "bike_id": "70defcc963c5d92e7641993f0e1d88ec", "lat": 38.9276445, "fusion_lon": 0.0, "fusion_lat": 0.0, "type": "electric_scooter", "name": "70defcc963c5d92e7641993f0e1d88ec", "is_disabled": 0, "rental_uris": {"ios": "https://dc.lft.to/lastmile_qr_scan", "android": "https://dc.lft.to/lastmile_qr_scan"}, "is_reserved": 0}, {"lon": -76.996095, "bike_id": "98dc6755e2877a600a9073735213cafe", "lat": 38.88719066666667, "fusion_lon": 0.0, "fusion_lat": 0.0, "type": "electric_scooter", "name": "98dc6755e2877a600a9073735213cafe", "is_disabled": 0, "rental_uris": {"ios": "https://dc.lft.to/lastmile_qr_scan", "android": "https://dc.lft.to/lastmile_qr_scan"}, "is_reserved": 0}, {"lon": -77.00283533333334, "bike_id": "b75ee1696950200b647710f1a1a487a7", "lat": 38.957124666666665, "fusion_lon": 0.0, "fusion_lat": 0.0, "type": "electric_bike", "name": "b75ee1696950200b647710f1a1a487a7", "is_disabled": 0, "rental_uris": {"ios": "https://dc.lft.to/lastmile_qr_scan", "android": "https://dc.lft.to/lastmile_qr_scan"}, "is_reserved": 0}, {"lon": -77.02455216666667, "bike_id": "0bc6a99da55980ebd9be7d3de4a5b893", "lat": 38.938662, "fusion_lon": 0.0, "fusion_lat": 0.0, "type": "electric_scooter", "name": "0bc6a99da55980ebd9be7d3de4a5b893", "is_disabled": 0, "rental_uris": {"ios": "https://dc.lft.to/lastmile_qr_scan", "android": "https://dc.lft.to/lastmile_qr_scan"}, "is_reserved": 0}, {"lon": -77.02253783333333, "bike_id": "dc31e7540fd2edbc50916ac5d6dd3ec6", "lat": 38.92824016666667, "fusion_lon": 0.0, "fusion_lat": 0.0, "type": "electric_scooter", "name": "dc31e7540fd2edbc50916ac5d6dd3ec6", "is_disabled": 0, "rental_uris": {"ios": "https://dc.lft.to/lastmile_qr_scan", "android": "https://dc.lft.to/lastmile_qr_scan"}, "is_reserved": 0}, {"lon": -77.0642395, "bike_id": "faa15377c2da492a45ccbf83a4406ce4", "lat": 38.908894333333336, "fusion_lon": 0.0, "fusion_lat": 0.0, "type": "electric_scooter", "name": "faa15377c2da492a45ccbf83a4406ce4", "is_disabled": 0, "rental_uris": {"ios": "https://dc.lft.to/lastmile_qr_scan", "android": "https://dc.lft.to/lastmile_qr_scan"}, "is_reserved": 0}, {"lon": -77.043224, "bike_id": "eb92bd2eb07b5c182111c8d3a784be64", "lat": 38.91883283333333, "fusion_lon": 0.0, "fusion_lat": 0.0, "type": "electric_scooter", "name": "eb92bd2eb07b5c182111c8d3a784be64", "is_disabled": 0, "rental_uris": {"ios": "https://dc.lft.to/lastmile_qr_scan", "android": "https://dc.lft.to/lastmile_qr_scan"}, "is_reserved": 0}, {"lon": -76.99856183333333, "bike_id": "9d44b545722a89ccae477bda81e4fd31", "lat": 38.841636666666666, "fusion_lon": 0.0, "fusion_lat": 0.0, "type": "electric_scooter", "name": "9d44b545722a89ccae477bda81e4fd31", "is_disabled": 0, "rental_uris": {"ios": "https://dc.lft.to/lastmile_qr_scan", "android": "https://dc.lft.to/lastmile_qr_scan"}, "is_reserved": 0}, {"lon": -77.031428, "bike_id": "8ae7ab54f185e6b4e40bea2a30ded060", "lat": 38.91560883333333, "fusion_lon": 0.0, "fusion_lat": 0.0, "type": "electric_scooter", "name": "8ae7ab54f185e6b4e40bea2a30ded060", "is_disabled": 0, "rental_uris": {"ios": "https://dc.lft.to/lastmile_qr_scan", "android": "https://dc.lft.to/lastmile_qr_scan"}, "is_reserved": 0}, {"lon": -77.057686, "bike_id": "c33cbba99a012312e4540b005a449ee3", "lat": 38.936274833333336, "fusion_lon": 0.0, "fusion_lat": 0.0, "type": "electric_scooter", "name": "c33cbba99a012312e4540b005a449ee3", "is_disabled": 0, "rental_uris": {"ios": "https://dc.lft.to/lastmile_qr_scan", "android": "https://dc.lft.to/lastmile_qr_scan"}, "is_reserved": 0}, {"lon": -77.00839083333334, "bike_id": "4615e5f2c02c4349253bf68710d5987d", "lat": 38.916256833333335, "fusion_lon": 0.0, "fusion_lat": 0.0, "type": "electric_scooter", "name": "4615e5f2c02c4349253bf68710d5987d", "is_disabled": 0, "rental_uris": {"ios": "https://dc.lft.to/lastmile_qr_scan", "android": "https://dc.lft.to/lastmile_qr_scan"}, "is_reserved": 0}, {"lon": -76.98900833333333, "bike_id": "3d4f12f2a64fc8c3b4d1ef49066d4604", "lat": 38.91345283333333, "fusion_lon": 0.0, "fusion_lat": 0.0, "type": "electric_scooter", "name": "3d4f12f2a64fc8c3b4d1ef49066d4604", "is_disabled": 0, "rental_uris": {"ios": "https://dc.lft.to/lastmile_qr_scan", "android": "https://dc.lft.to/lastmile_qr_scan"}, "is_reserved": 0}, {"lon": -77.0011895, "bike_id": "e134717f67fbd0bf289e52e15d037341", "lat": 38.9050375, "fusion_lon": 0.0, "fusion_lat": 0.0, "type": "electric_scooter", "name": "e134717f67fbd0bf289e52e15d037341", "is_disabled": 0, "rental_uris": {"ios": "https://dc.lft.to/lastmile_qr_scan", "android": "https://dc.lft.to/lastmile_qr_scan"}, "is_reserved": 0}, {"lon": -77.053237, "bike_id": "259fdcfd9f23577dde797360d785159c", "lat": 38.9019275, "fusion_lon": 0.0, "fusion_lat": 0.0, "type": "electric_scooter", "name": "259fdcfd9f23577dde797360d785159c", "is_disabled": 0, "rental_uris": {"ios": "https://dc.lft.to/lastmile_qr_scan", "android": "https://dc.lft.to/lastmile_qr_scan"}, "is_reserved": 0}, {"lon": -77.03854866666667, "bike_id": "86c2747d8fa9dcd4ad8f51458df05406", "lat": 38.916752, "fusion_lon": 0.0, "fusion_lat": 0.0, "type": "electric_scooter", "name": "86c2747d8fa9dcd4ad8f51458df05406", "is_disabled": 0, "rental_uris": {"ios": "https://dc.lft.to/lastmile_qr_scan", "android": "https://dc.lft.to/lastmile_qr_scan"}, "is_reserved": 0}, {"lon": -77.03258066666666, "bike_id": "006645c0e1fc4f1d929e346885847aa9", "lat": 38.919945, "fusion_lon": 0.0, "fusion_lat": 0.0, "type": "electric_scooter", "name": "006645c0e1fc4f1d929e346885847aa9", "is_disabled": 0, "rental_uris": {"ios": "https://dc.lft.to/lastmile_qr_scan", "android": "https://dc.lft.to/lastmile_qr_scan"}, "is_reserved": 0}, {"lon": -77.0591455, "bike_id": "f568468bb71f4a58c0b9229ada3f1e60", "lat": 38.862464833333334, "fusion_lon": 0.0, "fusion_lat": 0.0, "type": "electric_scooter", "name": "f568468bb71f4a58c0b9229ada3f1e60", "is_disabled": 0, "rental_uris": {"ios": "https://dc.lft.to/lastmile_qr_scan", "android": "https://dc.lft.to/lastmile_qr_scan"}, "is_reserved": 0}, {"lon": -77.03823783333333, "bike_id": "f1b6d8cfa29c9da7f8f76eee63d81d0b", "lat": 38.909703, "fusion_lon": 0.0, "fusion_lat": 0.0, "type": "electric_scooter", "name": "f1b6d8cfa29c9da7f8f76eee63d81d0b", "is_disabled": 0, "rental_uris": {"ios": "https://dc.lft.to/lastmile_qr_scan", "android": "https://dc.lft.to/lastmile_qr_scan"}, "is_reserved": 0}, {"lon": -77.03518216666667, "bike_id": "86819ab7b992f69061d2904b4accf11c", "lat": 38.923359833333336, "fusion_lon": 0.0, "fusion_lat": 0.0, "type": "electric_scooter", "name": "86819ab7b992f69061d2904b4accf11c", "is_disabled": 0, "rental_uris": {"ios": "https://dc.lft.to/lastmile_qr_scan", "android": "https://dc.lft.to/lastmile_qr_scan"}, "is_reserved": 0}, {"lon": -77.03826816666667, "bike_id": "4e4c2a5aa0795b6f761397b1ec98eab7", "lat": 38.90675483333333, "fusion_lon": 0.0, "fusion_lat": 0.0, "type": "electric_scooter", "name": "4e4c2a5aa0795b6f761397b1ec98eab7", "is_disabled": 0, "rental_uris": {"ios": "https://dc.lft.to/lastmile_qr_scan", "android": "https://dc.lft.to/lastmile_qr_scan"}, "is_reserved": 0}, {"lon": -77.03186233333334, "bike_id": "c5acdef79032cf382095ccd7ea1bfe2f", "lat": 38.919146833333336, "fusion_lon": 0.0, "fusion_lat": 0.0, "type": "electric_scooter", "name": "c5acdef79032cf382095ccd7ea1bfe2f", "is_disabled": 0, "rental_uris": {"ios": "https://dc.lft.to/lastmile_qr_scan", "android": "https://dc.lft.to/lastmile_qr_scan"}, "is_reserved": 0}, {"lon": -77.02932816666667, "bike_id": "70a9e23a9d0beada943407d46a18ee7a", "lat": 38.920802333333334, "fusion_lon": 0.0, "fusion_lat": 0.0, "type": "electric_scooter", "name": "70a9e23a9d0beada943407d46a18ee7a", "is_disabled": 0, "rental_uris": {"ios": "https://dc.lft.to/lastmile_qr_scan", "android": "https://dc.lft.to/lastmile_qr_scan"}, "is_reserved": 0}, {"lon": -77.0044385, "bike_id": "3cdba662e56776897c568f86210e7d14", "lat": 38.9175595, "fusion_lon": 0.0, "fusion_lat": 0.0, "type": "electric_scooter", "name": "3cdba662e56776897c568f86210e7d14", "is_disabled": 0, "rental_uris": {"ios": "https://dc.lft.to/lastmile_qr_scan", "android": "https://dc.lft.to/lastmile_qr_scan"}, "is_reserved": 0}, {"lon": -76.98238866666667, "bike_id": "5aee605ff0430dac374d31f49a80798d", "lat": 38.888649666666666, "fusion_lon": 0.0, "fusion_lat": 0.0, "type": "electric_scooter", "name": "5aee605ff0430dac374d31f49a80798d", "is_disabled": 0, "rental_uris": {"ios": "https://dc.lft.to/lastmile_qr_scan", "android": "https://dc.lft.to/lastmile_qr_scan"}, "is_reserved": 0}, {"lon": -77.0335975, "bike_id": "a0339cf3fdbe577141ab847a3ee91fec", "lat": 38.9235565, "fusion_lon": 0.0, "fusion_lat": 0.0, "type": "electric_scooter", "name": "a0339cf3fdbe577141ab847a3ee91fec", "is_disabled": 0, "rental_uris": {"ios": "https://dc.lft.to/lastmile_qr_scan", "android": "https://dc.lft.to/lastmile_qr_scan"}, "is_reserved": 0}, {"lon": -76.99032016666666, "bike_id": "728beadef545e043f23e740f5ad61911", "lat": 38.88755483333333, "fusion_lon": 0.0, "fusion_lat": 0.0, "type": "electric_scooter", "name": "728beadef545e043f23e740f5ad61911", "is_disabled": 0, "rental_uris": {"ios": "https://dc.lft.to/lastmile_qr_scan", "android": "https://dc.lft.to/lastmile_qr_scan"}, "is_reserved": 0}, {"lon": -77.06493983333333, "bike_id": "be99791803bf57a976025fa1b1a24e7f", "lat": 38.92911683333333, "fusion_lon": 0.0, "fusion_lat": 0.0, "type": "electric_scooter", "name": "be99791803bf57a976025fa1b1a24e7f", "is_disabled": 0, "rental_uris": {"ios": "https://dc.lft.to/lastmile_qr_scan", "android": "https://dc.lft.to/lastmile_qr_scan"}, "is_reserved": 0}, {"lon": -77.0218035, "bike_id": "3e512bec2c7fdde24ac5c418bf55ba7b", "lat": 38.909499, "fusion_lon": 0.0, "fusion_lat": 0.0, "type": "electric_scooter", "name": "3e512bec2c7fdde24ac5c418bf55ba7b", "is_disabled": 0, "rental_uris": {"ios": "https://dc.lft.to/lastmile_qr_scan", "android": "https://dc.lft.to/lastmile_qr_scan"}, "is_reserved": 0}, {"lon": -77.03548283333333, "bike_id": "b15cbb0fc45d128a86409f69c432dea5", "lat": 38.927342333333335, "fusion_lon": 0.0, "fusion_lat": 0.0, "type": "electric_scooter", "name": "b15cbb0fc45d128a86409f69c432dea5", "is_disabled": 0, "rental_uris": {"ios": "https://dc.lft.to/lastmile_qr_scan", "android": "https://dc.lft.to/lastmile_qr_scan"}, "is_reserved": 0}, {"lon": -76.99031933333333, "bike_id": "b4d2923564c1e85d04a902bef2f1fa6b", "lat": 38.898505, "fusion_lon": 0.0, "fusion_lat": 0.0, "type": "electric_scooter", "name": "b4d2923564c1e85d04a902bef2f1fa6b", "is_disabled": 0, "rental_uris": {"ios": "https://dc.lft.to/lastmile_qr_scan", "android": "https://dc.lft.to/lastmile_qr_scan"}, "is_reserved": 0}, {"lon": -77.03395683333333, "bike_id": "bcffb5dae317eb524cb8ed7384316fbb", "lat": 38.93116666666667, "fusion_lon": 0.0, "fusion_lat": 0.0, "type": "electric_scooter", "name": "bcffb5dae317eb524cb8ed7384316fbb", "is_disabled": 0, "rental_uris": {"ios": "https://dc.lft.to/lastmile_qr_scan", "android": "https://dc.lft.to/lastmile_qr_scan"}, "is_reserved": 0}, {"lon": -77.0479965, "bike_id": "355ee8946b0016d2dc9c1eb947ad7ea5", "lat": 38.913996, "fusion_lon": 0.0, "fusion_lat": 0.0, "type": "electric_scooter", "name": "355ee8946b0016d2dc9c1eb947ad7ea5", "is_disabled": 0, "rental_uris": {"ios": "https://dc.lft.to/lastmile_qr_scan", "android": "https://dc.lft.to/lastmile_qr_scan"}, "is_reserved": 0}, {"lon": -77.00599033333333, "bike_id": "2c176c209a9636af06bf53fe8231184e", "lat": 38.905567, "fusion_lon": 0.0, "fusion_lat": 0.0, "type": "electric_scooter", "name": "2c176c209a9636af06bf53fe8231184e", "is_disabled": 0, "rental_uris": {"ios": "https://dc.lft.to/lastmile_qr_scan", "android": "https://dc.lft.to/lastmile_qr_scan"}, "is_reserved": 0}, {"lon": -77.03860433333334, "bike_id": "5320988b8705180fcdc4528bb1af5c6c", "lat": 38.9155615, "fusion_lon": 0.0, "fusion_lat": 0.0, "type": "electric_scooter", "name": "5320988b8705180fcdc4528bb1af5c6c", "is_disabled": 0, "rental_uris": {"ios": "https://dc.lft.to/lastmile_qr_scan", "android": "https://dc.lft.to/lastmile_qr_scan"}, "is_reserved": 0}, {"lon": -77.01888916666667, "bike_id": "492f81e246d30296bb62f5e063ce4012", "lat": 38.87746333333333, "fusion_lon": 0.0, "fusion_lat": 0.0, "type": "electric_scooter", "name": "492f81e246d30296bb62f5e063ce4012", "is_disabled": 0, "rental_uris": {"ios": "https://dc.lft.to/lastmile_qr_scan", "android": "https://dc.lft.to/lastmile_qr_scan"}, "is_reserved": 0}, {"lon": -77.008879, "bike_id": "3be818688484a576972a28a90c7b7f34", "lat": 38.91711933333333, "fusion_lon": 0.0, "fusion_lat": 0.0, "type": "electric_scooter", "name": "3be818688484a576972a28a90c7b7f34", "is_disabled": 0, "rental_uris": {"ios": "https://dc.lft.to/lastmile_qr_scan", "android": "https://dc.lft.to/lastmile_qr_scan"}, "is_reserved": 0}, {"lon": -77.02664933333334, "bike_id": "39ec7cb81b9059027c4a0e96ec67a4b0", "lat": 38.97190483333333, "fusion_lon": 0.0, "fusion_lat": 0.0, "type": "electric_scooter", "name": "39ec7cb81b9059027c4a0e96ec67a4b0", "is_disabled": 0, "rental_uris": {"ios": "https://dc.lft.to/lastmile_qr_scan", "android": "https://dc.lft.to/lastmile_qr_scan"}, "is_reserved": 0}, {"lon": -77.01667433333333, "bike_id": "d4e8a1efa6c345e8dd540579872a23dc", "lat": 38.90005433333333, "fusion_lon": 0.0, "fusion_lat": 0.0, "type": "electric_scooter", "name": "d4e8a1efa6c345e8dd540579872a23dc", "is_disabled": 0, "rental_uris": {"ios": "https://dc.lft.to/lastmile_qr_scan", "android": "https://dc.lft.to/lastmile_qr_scan"}, "is_reserved": 0}, {"lon": -77.03358233333333, "bike_id": "dc069e4e3d322cdca62a01b7aa28d8c2", "lat": 38.92350833333333, "fusion_lon": 0.0, "fusion_lat": 0.0, "type": "electric_scooter", "name": "dc069e4e3d322cdca62a01b7aa28d8c2", "is_disabled": 0, "rental_uris": {"ios": "https://dc.lft.to/lastmile_qr_scan", "android": "https://dc.lft.to/lastmile_qr_scan"}, "is_reserved": 0}, {"lon": -76.98627766666667, "bike_id": "8537838c17acf21ba55507b107a55a41", "lat": 38.88039533333333, "fusion_lon": 0.0, "fusion_lat": 0.0, "type": "electric_scooter", "name": "8537838c17acf21ba55507b107a55a41", "is_disabled": 0, "rental_uris": {"ios": "https://dc.lft.to/lastmile_qr_scan", "android": "https://dc.lft.to/lastmile_qr_scan"}, "is_reserved": 0},