{"data": {"bikes": [{"fusion_lat": 0.0, "name": "c6e27e4bc34494cba43fc47eda1470ae", "is_disabled": 0, "rental_uris": {"android": "https://dc.lft.to/lastmile_qr_scan", "ios": "https://dc.lft.to/lastmile_qr_scan"}, "fusion_lon": 0.0, "lat": 38.9282565, "bike_id": "c6e27e4bc34494cba43fc47eda1470ae", "type": "electric_scooter", "is_reserved": 0, "lon": -77.02257116666667}, {"fusion_lat": 0.0, "name": "1987b3c8c16bc48674f6dd3a12254509", "is_disabled": 0, "rental_uris": {"android": "https://dc.lft.to/lastmile_qr_scan", "ios": "https://dc.lft.to/lastmile_qr_scan"}, "fusion_lon": 0.0, "lat": 38.88736866666667, "bike_id": "1987b3c8c16bc48674f6dd3a12254509", "type": "electric_scooter", "is_reserved": 0, "lon": -77.015342}, {"fusion_lat": 0.0, "name": "1a0763b724404b1e413ddd2aadca7e84", "is_disabled": 0, "rental_uris": {"android": "https://dc.lft.to/lastmile_qr_scan", "ios": "https://dc.lft.to/lastmile_qr_scan"}, "fusion_lon": 0.0, "lat": 38.9249365, "bike_id": "1a0763b724404b1e413ddd2aadca7e84", "type": "electric_scooter", "is_reserved": 0, "lon": -77.057539}, {"fusion_lat": 0.0, "name": "263888d053c52892e56ce1430d941d46", "is_disabled": 0, "rental_uris": {"android": "https://dc.lft.to/lastmile_qr_scan", "ios": "https://dc.lft.to/lastmile_qr_scan"}, "fusion_lon": 0.0, "lat": 38.908721, "bike_id": "263888d053c52892e56ce1430d941d46", "type": "electric_scooter", "is_reserved": 0, "lon": -77.03458783333333}, {"fusion_lat": 0.0, "name": "ee6082c79abb78dd0e240bd7b8dfd74c", "is_disabled": 0, "rental_uris": {"android": "https://dc.lft.to/lastmile_qr_scan", "ios": "https://dc.lft.to/lastmile_qr_scan"}, "fusion_lon": 0.0, "lat": 38.89557833333333, "bike_id": "ee6082c79abb78dd0e240bd7b8dfd74c", "type": "electric_scooter", "is_reserved": 0, "lon": -77.02515533333333}, {"fusion_lat": 0.0, "name": "500c91906a47fd1ba172286e7e264bfb", "is_disabled": 0, "rental_uris": {"android": "https://dc.lft.to/lastmile_qr_scan", "ios": "https://dc.lft.to/lastmile_qr_scan"}, "fusion_lon": 0.0, "lat": 38.92609733333333, "bike_id": "500c91906a47fd1ba172286e7e264bfb", "type": "electric_scooter", "is_reserved": 0, "lon": -77.03958866666666}, {"fusion_lat": 0.0, "name": "10b57d5411ec6f46b7b6295139ff2435", "is_disabled": 0, "rental_uris": {"android": "https://dc.lft.to/lastmile_qr_scan", "ios": "https://dc.lft.to/lastmile_qr_scan"}, "fusion_lon": 0.0, "lat": 38.90952566666667, "bike_id": "10b57d5411ec6f46b7b6295139ff2435", "type": "electric_scooter", "is_reserved": 0, "lon": -77.04865083333334}, {"fusion_lat": 0.0, "name": "00f3994a953432c97b00cb96dcba3f2d", "is_disabled": 0, "rental_uris": {"android": "https://dc.lft.to/lastmile_qr_scan", "ios": "https://dc.lft.to/lastmile_qr_scan"}, "fusion_lon": 0.0, "lat": 38.90452, "bike_id": "00f3994a953432c97b00cb96dcba3f2d", "type": "electric_scooter", "is_reserved": 0, "lon": -77.001648}, {"fusion_lat": 0.0, "name": "b50c57efdade74f34f3bc5bec5160bc9", "is_disabled": 0, "rental_uris": {"android": "https://dc.lft.to/lastmile_qr_scan", "ios": "https://dc.lft.to/lastmile_qr_scan"}, "fusion_lon": 0.0, "lat": 38.885132666666664, "bike_id": "b50c57efdade74f34f3bc5bec5160bc9", "type": "electric_scooter", "is_reserved": 0, "lon": -77.01501283333333}, {"fusion_lat": 0.0, "name": "14313f4bb9f57135a710a43e9361b9c1", "is_disabled": 0, "rental_uris": {"android": "https://dc.lft.to/lastmile_qr_scan", "ios": "https://dc.lft.to/lastmile_qr_scan"}, "fusion_lon": 0.0, "lat": 38.904228333333336, "bike_id": "14313f4bb9f57135a710a43e9361b9c1", "type": "electric_scooter", "is_reserved": 0, "lon": -76.94976983333333}, {"fusion_lat": 0.0, "name": "9d56d877901a13eaa111821b1753bb43", "is_disabled": 0, "rental_uris": {"android": "https://dc.lft.to/lastmile_qr_scan", "ios": "https://dc.lft.to/lastmile_qr_scan"}, "fusion_lon": 0.0, "lat": 38.928119333333335, "bike_id": "9d56d877901a13eaa111821b1753bb43", "type": "electric_scooter", "is_reserved": 0, "lon": -77.04359233333334}, {"fusion_lat": 0.0, "name": "53ae5bac9f7d8aa7bbd5b49031c256e2", "is_disabled": 0, "rental_uris": {"android": "https://dc.lft.to/lastmile_qr_scan", "ios": "https://dc.lft.to/lastmile_qr_scan"}, "fusion_lon": 0.0, "lat": 38.909572, "bike_id": "53ae5bac9f7d8aa7bbd5b49031c256e2", "type": "electric_scooter", "is_reserved": 0, "lon": -77.01040383333333}, {"fusion_lat": 0.0, "name": "1164aff997d11bbde455b3c56b899f3d", "is_disabled": 0, "rental_uris": {"android": "https://dc.lft.to/lastmile_qr_scan", "ios": "https://dc.lft.to/lastmile_qr_scan"}, "fusion_lon": 0.0, "lat": 38.94085116666667, "bike_id": "1164aff997d11bbde455b3c56b899f3d", "type": "electric_scooter", "is_reserved": 0, "lon": -77.02395716666666}, {"fusion_lat": 0.0, "name": "39cccee5266053c5bb7b23e1974e8806", "is_disabled": 0, "rental_uris": {"android": "https://dc.lft.to/lastmile_qr_scan", "ios": "https://dc.lft.to/lastmile_qr_scan"}, "fusion_lon": 0.0, "lat": 38.913854, "bike_id": "39cccee5266053c5bb7b23e1974e8806", "type": "electric_scooter", "is_reserved": 0, "lon": -77.01803283333334}, {"fusion_lat": 0.0, "name": "cba82218f7995da43fd289fe8e2b8a3a", "is_disabled": 0, "rental_uris": {"android": "https://dc.lft.to/lastmile_qr_scan", "ios": "https://dc.lft.to/lastmile_qr_scan"}, "fusion_lon": 0.0, "lat": 38.9246435, "bike_id": "cba82218f7995da43fd289fe8e2b8a3a", "type": "electric_scooter", "is_reserved": 0, "lon": -77.0802665}, {"fusion_lat": 0.0, "name": "d8a32f1e524d1c7fd66c29c1cea38492", "is_disabled": 0, "rental_uris": {"android": "https://dc.lft.to/lastmile_qr_scan", "ios": "https://dc.lft.to/lastmile_qr_scan"}, "fusion_lon": 0.0, "lat": 38.90630183333333, "bike_id": "d8a32f1e524d1c7fd66c29c1cea38492", "type": "electric_scooter", "is_reserved": 0, "lon": -77.018855}, {"fusion_lat": 0.0, "name": "86c7dc9f1c40928364fabe5a6182680c", "is_disabled": 0, "rental_uris": {"android": "https://dc.lft.to/lastmile_qr_scan", "ios": "https://dc.lft.to/lastmile_qr_scan"}, "fusion_lon": 0.0, "lat": 38.92979833333333, "bike_id": "86c7dc9f1c40928364fabe5a6182680c", "type": "electric_scooter", "is_reserved": 0, "lon": -77.04190283333334}, {"fusion_lat": 0.0, "name": "4b0ce493491a1aab2c14e172c7fb3de9", "is_disabled": 0, "rental_uris": {"android": "https://dc.lft.to/lastmile_qr_scan", "ios": "https://dc.lft.to/lastmile_qr_scan"}, "fusion_lon": 0.0, "lat": 38.879356333333334, "bike_id": "4b0ce493491a1aab2c14e172c7fb3de9", "type": "electric_scooter", "is_reserved": 0, "lon": -77.00419416666666}, {"fusion_lat": 0.0, "name": "e6963097411e8be08c18bd7d59372934", "is_disabled": 0, "rental_uris": {"android": "https://dc.lft.to/lastmile_qr_scan", "ios": "https://dc.lft.to/lastmile_qr_scan"}, "fusion_lon": 0.0, "lat": 38.95247033333333, "bike_id": "e6963097411e8be08c18bd7d59372934", "type": "electric_scooter", "is_reserved": 0, "lon": -77.023813}, {"fusion_lat": 0.0, "name": "5e394abaa6ea534a115a9f008a804bac", "is_disabled": 0, "rental_uris": {"android": "https://dc.lft.to/lastmile_qr_scan", "ios": "https://dc.lft.to/lastmile_qr_scan"}, "fusion_lon": 0.0, "lat": 38.885046, "bike_id": "5e394abaa6ea534a115a9f008a804bac", "type": "electric_scooter", "is_reserved": 0, "lon": -76.99754266666666}, {"fusion_lat": 0.0, "name": "33fc1e7625cce7e8ec0909b05fb26bc2", "is_disabled": 0, "rental_uris": {"android": "https://dc.lft.to/lastmile_qr_scan", "ios": "https://dc.lft.to/lastmile_qr_scan"}, "fusion_lon": 0.0, "lat": 38.92679066666667, "bike_id": "33fc1e7625cce7e8ec0909b05fb26bc2", "type": "electric_scooter", "is_reserved": 0, "lon": -77.030995}, {"fusion_lat": 0.0, "name": "11b93e1b329721227a6d75ecd63f6bd3", "is_disabled": 0, "rental_uris": {"android": "https://dc.lft.to/lastmile_qr_scan", "ios": "https://dc.lft.to/lastmile_qr_scan"}, "fusion_lon": 0.0, "lat": 38.9195005, "bike_id": "11b93e1b329721227a6d75ecd63f6bd3", "type": "electric_scooter", "is_reserved": 0, "lon": -77.04160466666667}, {"fusion_lat": 0.0, "name": "bf724262e9ec9cc4ef8ef5ca6e685f42", "is_disabled": 0, "rental_uris": {"android": "https://dc.lft.to/lastmile_qr_scan", "ios": "https://dc.lft.to/lastmile_qr_scan"}, "fusion_lon": 0.0, "lat": 38.892593, "bike_id": "bf724262e9ec9cc4ef8ef5ca6e685f42", "type": "electric_bike", "is_reserved": 0, "lon": -76.9511585}, {"fusion_lat": 0.0, "name": "0d65591a1ab7bc2b1c4f438bc86e23cd", "is_disabled": 0, "rental_uris": {"android": "https://dc.lft.to/lastmile_qr_scan", "ios": "https://dc.lft.to/lastmile_qr_scan"}, "fusion_lon": 0.0, "lat": 38.89988116666667, "bike_id": "0d65591a1ab7bc2b1c4f438bc86e23cd", "type": "electric_scooter", "is_reserved": 0, "lon": -77.01970383333334}, {"fusion_lat": 0.0, "name": "8ab41a80dfb8033501518e1c3206f79f", "is_disabled": 0, "rental_uris": {"android": "https://dc.lft.to/lastmile_qr_scan", "ios": "https://dc.lft.to/lastmile_qr_scan"}, "fusion_lon": 0.0, "lat": 38.93182916666667, "bike_id": "8ab41a80dfb8033501518e1c3206f79f", "type": "electric_scooter", "is_reserved": 0, "lon": -77.0196715}, {"fusion_lat": 0.0, "name": "8a1f07a3c475129f8c4ae2217294ff84", "is_disabled": 0, "rental_uris": {"android": "https://dc.lft.to/lastmile_qr_scan", "ios": "https://dc.lft.to/lastmile_qr_scan"}, "fusion_lon": 0.0, "lat": 38.9038365, "bike_id": "8a1f07a3c475129f8c4ae2217294ff84", "type": "electric_scooter", "is_reserved": 0, "lon": -77.0385195}, {"fusion_lat": 0.0, "name": "f71f34eff670a2fe62a77f1d5755818c", "is_disabled": 0, "rental_uris": {"android": "https://dc.lft.to/lastmile_qr_scan", "ios": "https://dc.lft.to/lastmile_qr_scan"}, "fusion_lon": 0.0, "lat": 38.917226666666664, "bike_id": "f71f34eff670a2fe62a77f1d5755818c", "type": "electric_scooter", "is_reserved": 0, "lon": -77.0081575}, {"fusion_lat": 0.0, "name": "68ad0d02484cefa02c91b1011802e31f", "is_disabled": 0, "rental_uris": {"android": "https://dc.lft.to/lastmile_qr_scan", "ios": "https://dc.lft.to/lastmile_qr_scan"}, "fusion_lon": 0.0, "lat": 38.920596333333336, "bike_id": "68ad0d02484cefa02c91b1011802e31f", "type": "electric_scooter", "is_reserved": 0, "lon": -77.04196983333334}, {"fusion_lat": 0.0, "name": "2cefaf3d562cbfdbc285c0c2d4ef3b35", "is_disabled": 0, "rental_uris": {"android": "https://dc.lft.to/lastmile_qr_scan", "ios": "https://dc.lft.to/lastmile_qr_scan"}, "fusion_lon": 0.0, "lat": 38.924623833333335, "bike_id": "2cefaf3d562cbfdbc285c0c2d4ef3b35", "type": "electric_scooter", "is_reserved": 0, "lon": -76.99332133333333}, {"fusion_lat": 0.0, "name": "5d9aa9bcc54fd30d6ce2588b20640657", "is_disabled": 0, "rental_uris": {"android": "https://dc.lft.to/lastmile_qr_scan", "ios": "https://dc.lft.to/lastmile_qr_scan"}, "fusion_lon": 0.0, "lat": 38.920204, "bike_id": "5d9aa9bcc54fd30d6ce2588b20640657", "type": "electric_scooter", "is_reserved": 0, "lon": -76.99555633333334}, {"fusion_lat": 0.0, "name": "5c7a33c48f093d30d9907b3d70a098f3", "is_disabled": 0, "rental_uris": {"android": "https://dc.lft.to/lastmile_qr_scan", "ios": "https://dc.lft.to/lastmile_qr_scan"}, "fusion_lon": 0.0, "lat": 38.91732666666667, "bike_id": "5c7a33c48f093d30d9907b3d70a098f3", "type": "electric_scooter", "is_reserved": 0, "lon": -77.041737}, {"fusion_lat": 0.0, "name": "6b04fbcfc0201223bed3beee23efd0e9", "is_disabled": 0, "rental_uris": {"android": "https://dc.lft.to/lastmile_qr_scan", "ios": "https://dc.lft.to/lastmile_qr_scan"}, "fusion_lon": 0.0, "lat": 38.9009595, "bike_id": "6b04fbcfc0201223bed3beee23efd0e9", "type": "electric_scooter", "is_reserved": 0, "lon": -77.01938616666666}, {"fusion_lat": 0.0, "name": "0de1563deae8dd43da1346a9bd6f5852", "is_disabled": 0, "rental_uris": {"android": "https://dc.lft.to/lastmile_qr_scan", "ios": "https://dc.lft.to/lastmile_qr_scan"}, "fusion_lon": 0.0, "lat": 38.86261733333333, "bike_id": "0de1563deae8dd43da1346a9bd6f5852", "type": "electric_bike", "is_reserved": 0, "lon": -76.9835645}, {"fusion_lat": 0.0, "name": "a0d685f9ac70b248d35678660b60ce58", "is_disabled": 0, "rental_uris": {"android": "https://dc.lft.to/lastmile_qr_scan", "ios": "https://dc.lft.to/lastmile_qr_scan"}, "fusion_lon": 0.0, "lat": 38.89472083333333, "bike_id": "a0d685f9ac70b248d35678660b60ce58", "type": "electric_scooter", "is_reserved": 0, "lon": -77.02178533333333}, {"fusion_lat": 0.0, "name": "738d4c92c50cf38d13ab212cd74c8ba6", "is_disabled": 0, "rental_uris": {"android": "https://dc.lft.to/lastmile_qr_scan", "ios": "https://dc.lft.to/lastmile_qr_scan"}, "fusion_lon": 0.0, "lat": 38.910253833333336, "bike_id": "738d4c92c50cf38d13ab212cd74c8ba6", "type": "electric_scooter", "is_reserved": 0, "lon": -77.00755783333334}, {"fusion_lat": 0.0, "name": "c8456dbf1faf92dba13a94ab09cc4a08", "is_disabled": 0, "rental_uris": {"android": "https://dc.lft.to/lastmile_qr_scan", "ios": "https://dc.lft.to/lastmile_qr_scan"}, "fusion_lon": 0.0, "lat": 38.8579915, "bike_id": "c8456dbf1faf92dba13a94ab09cc4a08", "type": "electric_bike", "is_reserved": 0, "lon": -76.98731883333333}, {"fusion_lat": 0.0, "name": "86fd00354be09fdb3a84f05cefd1fbf5", "is_disabled": 0, "rental_uris": {"android": "https://dc.lft.to/lastmile_qr_scan", "ios": "https://dc.lft.to/lastmile_qr_scan"}, "fusion_lon": 0.0, "lat": 38.920623, "bike_id": "86fd00354be09fdb3a84f05cefd1fbf5", "type": "electric_scooter", "is_reserved": 0, "lon": -76.998615}, {"fusion_lat": 0.0, "name": "8ea085bbb05bfcb44278008e98d752d2", "is_disabled": 0, "rental_uris": {"android": "https://dc.lft.to/lastmile_qr_scan", "ios": "https://dc.lft.to/lastmile_qr_scan"}, "fusion_lon": 0.0, "lat": 38.9236465, "bike_id": "8ea085bbb05bfcb44278008e98d752d2", "type": "electric_scooter", "is_reserved": 0, "lon": -77.042444}, {"fusion_lat": 0.0, "name": "06f960ff212fc436337550fc5d26f33a", "is_disabled": 0, "rental_uris": {"android": "https://dc.lft.to/lastmile_qr_scan", "ios": "https://dc.lft.to/lastmile_qr_scan"}, "fusion_lon": 0.0, "lat": 38.905999666666666, "bike_id": "06f960ff212fc436337550fc5d26f33a", "type": "electric_bike", "is_reserved": 0, "lon": -77.06343533333333}, {"fusion_lat": 0.0, "name": "3a916844eff52b32e0494d215c26ffae", "is_disabled": 0, "rental_uris": {"android": "https://dc.lft.to/lastmile_qr_scan", "ios": "https://dc.lft.to/lastmile_qr_scan"}, "fusion_lon": 0.0, "lat": 38.93706366666667, "bike_id": "3a916844eff52b32e0494d215c26ffae", "type": "electric_scooter", "is_reserved": 0, "lon": -77.0240245}, {"fusion_lat": 0.0, "name": "27c853496ef030207508ef76c01b3863", "is_disabled": 0, "rental_uris": {"android": "https://dc.lft.to/lastmile_qr_scan", "ios": "https://dc.lft.to/lastmile_qr_scan"}, "fusion_lon": 0.0, "lat": 38.900298166666666, "bike_id": "27c853496ef030207508ef76c01b3863", "type": "electric_scooter", "is_reserved": 0, "lon": -76.997809}, {"fusion_lat": 0.0, "name": "82c6a5436af775f84b8d094e1cd4a2af", "is_disabled": 0, "rental_uris": {"android": "https://dc.lft.to/lastmile_qr_scan", "ios": "https://dc.lft.to/lastmile_qr_scan"}, "fusion_lon": 0.0, "lat": 38.9184335, "bike_id": "82c6a5436af775f84b8d094e1cd4a2af", "type": "electric_scooter", "is_reserved": 0, "lon": -76.96539}, {"fusion_lat": 0.0, "name": "9b2209fa16ac8e32de8ccfcfbdf71cc3", "is_disabled": 0, "rental_uris": {"android": "https://dc.lft.to/lastmile_qr_scan", "ios": "https://dc.lft.to/lastmile_qr_scan"}, "fusion_lon": 0.0, "lat": 38.902447333333335, "bike_id": "9b2209fa16ac8e32de8ccfcfbdf71cc3", "type": "electric_scooter", "is_reserved": 0, "lon": -77.0193875}, {"fusion_lat": 0.0, "name": "23cf660e33b2c45080ac1d9acd5bd9d5", "is_disabled": 0, "rental_uris": {"android": "https://dc.lft.to/lastmile_qr_scan", "ios": "https://dc.lft.to/lastmile_qr_scan"}, "fusion_lon": 0.0, "lat": 38.928453833333336, "bike_id": "23cf660e33b2c45080ac1d9acd5bd9d5", "type": "electric_scooter", "is_reserved": 0, "lon": -77.03313416666667}, {"fusion_lat": 0.0, "name": "11988efe09876adcde8e6e540a14ecb2", "is_disabled": 0, "rental_uris": {"android": "https://dc.lft.to/lastmile_qr_scan", "ios": "https://dc.lft.to/lastmile_qr_scan"}, "fusion_lon": 0.0, "lat": 38.8923025, "bike_id": "11988efe09876adcde8e6e540a14ecb2", "type": "electric_scooter", "is_reserved": 0, "lon": -77.02965116666667}, {"fusion_lat": 0.0, "name": "242346654a922b244f5c12c735325fdb", "is_disabled": 0, "rental_uris": {"android": "https://dc.lft.to/lastmile_qr_scan", "ios": "https://dc.lft.to/lastmile_qr_scan"}, "fusion_lon": 0.0, "lat": 38.91363666666667, "bike_id": "242346654a922b244f5c12c735325fdb", "type": "electric_scooter", "is_reserved": 0, "lon": -77.0332835}, {"fusion_lat": 0.0, "name": "aec3186cbd931eeaaf463e15ea6c4056", "is_disabled": 0, "rental_uris": {"android": "https://dc.lft.to/lastmile_qr_scan", "ios": "https://dc.lft.to/lastmile_qr_scan"}, "fusion_lon": 0.0, "lat": 38.98474616666667, "bike_id": "aec3186cbd931eeaaf463e15ea6c4056", "type": "electric_scooter", "is_reserved": 0, "lon": -77.02642183333333}, {"fusion_lat": 0.0, "name": "197b5b756f91fd88393075f455ab91e6", "is_disabled": 0, "rental_uris": {"android": "https://dc.lft.to/lastmile_qr_scan", "ios": "https://dc.lft.to/lastmile_qr_scan"}, "fusion_lon": 0.0, "lat": 38.916564666666666, "bike_id": "197b5b756f91fd88393075f455ab91e6", "type": "electric_scooter", "is_reserved": 0, "lon": -77.02813816666666}, {"fusion_lat": 0.0, "name": "2ff8cc7a519c1baaedae32e4475bc692", "is_disabled": 0, "rental_uris": {"android": "https://dc.lft.to/lastmile_qr_scan", "ios": "https://dc.lft.to/lastmile_qr_scan"}, "fusion_lon": 0.0, "lat": 38.92652366666667, "bike_id": "2ff8cc7a519c1baaedae32e4475bc692", "type": "electric_scooter", "is_reserved": 0, "lon": -77.037065}, {"fusion_lat": 0.0, "name": "f622d372021bfa7f2a524695ffd23c0f", "is_disabled": 0, "rental_uris": {"android": "https://dc.lft.to/lastmile_qr_scan", "ios": "https://dc.lft.to/lastmile_qr_scan"}, "fusion_lon": 0.0, "lat": 38.8948375, "bike_id": "f622d372021bfa7f2a524695ffd23c0f", "type": "electric_scooter", "is_reserved": 0, "lon": -77.01940416666666}, {"fusion_lat": 0.0, "name": "9bc7c0f8306f9c6d5eb7522a44ae6338", "is_disabled": 0, "rental_uris": {"android": "https://dc.lft.to/lastmile_qr_scan", "ios": "https://dc.lft.to/lastmile_qr_scan"}, "fusion_lon": 0.0, "lat": 38.887671166666664, "bike_id": "9bc7c0f8306f9c6d5eb7522a44ae6338", "type": "electric_scooter", "is_reserved": 0, "lon": -76.99467666666666}, {"fusion_lat": 0.0, "name": "0339f782f4e308bf7e829b76396d20bf", "is_disabled": 0, "rental_uris": {"android": "https://dc.lft.to/lastmile_qr_scan", "ios": "https://dc.lft.to/lastmile_qr_scan"}, "fusion_lon": 0.0, "lat": 38.924803, "bike_id": "0339f782f4e308bf7e829b76396d20bf", "type": "electric_scooter", "is_reserved": 0, "lon": -77.028354}, {"fusion_lat": 0.0, "name": "e47ceeff36d6c0c9909be0f9b91f372b", "is_disabled": 0, "rental_uris": {"android": "https://dc.lft.to/lastmile_qr_scan", "ios": "https://dc.lft.to/lastmile_qr_scan"}, "fusion_lon": 0.0, "lat": 38.91327233333333, "bike_id": "e47ceeff36d6c0c9909be0f9b91f372b", "type": "electric_scooter", "is_reserved": 0, "lon": -77.03190416666666}, {"fusion_lat": 0.0, "name": "e4a769f32ecbdfcf58b420c36ec86f6d", "is_disabled": 0, "rental_uris": {"android": "https://dc.lft.to/lastmile_qr_scan", "ios": "https://dc.lft.to/lastmile_qr_scan"}, "fusion_lon": 0.0, "lat": 38.92366916666667, "bike_id": "e4a769f32ecbdfcf58b420c36ec86f6d", "type": "electric_scooter", "is_reserved": 0, "lon": -77.02057516666666}, {"fusion_lat": 0.0, "name": "ab1036884f8f4c0fec25855bd3b19089", "is_disabled": 0, "rental_uris": {"android": "https://dc.lft.to/lastmile_qr_scan", "ios": "https://dc.lft.to/lastmile_qr_scan"}, "fusion_lon": 0.0, "lat": 38.884988666666665, "bike_id": "ab1036884f8f4c0fec25855bd3b19089", "type": "electric_scooter", "is_reserved": 0, "lon": -77.00596133333333}, {"fusion_lat": 0.0, "name": "c15d24a4c1f951b0e7896d8094f34222", "is_disabled": 0, "rental_uris": {"android": "https://dc.lft.to/lastmile_qr_scan", "ios": "https://dc.lft.to/lastmile_qr_scan"}, "fusion_lon": 0.0, "lat": 38.90459883333333, "bike_id": "c15d24a4c1f951b0e7896d8094f34222", "type": "electric_scooter", "is_reserved": 0, "lon": -77.03366266666667}, {"fusion_lat": 0.0, "name": "f05c2e78599e9ad09ee4ee50308acbd7", "is_disabled": 0, "rental_uris": {"android": "https://dc.lft.to/lastmile_qr_scan", "ios": "https://dc.lft.to/lastmile_qr_scan"}, "fusion_lon": 0.0, "lat": 38.9326245, "bike_id": "f05c2e78599e9ad09ee4ee50308acbd7", "type": "electric_scooter", "is_reserved": 0, "lon": -77.03894083333333}, {"fusion_lat": 0.0, "name": "413b6085f397e320ce46ea686e29585f", "is_disabled": 0, "rental_uris": {"android": "https://dc.lft.to/lastmile_qr_scan", "ios": "https://dc.lft.to/lastmile_qr_scan"}, "fusion_lon": 0.0, "lat": 38.90744883333333, "bike_id": "413b6085f397e320ce46ea686e29585f", "type": "electric_scooter", "is_reserved": 0, "lon": -77.00190166666667}, {"fusion_lat": 0.0, "name": "4e6e7d98c2f9aadc7da68099a48c440d", "is_disabled": 0, "rental_uris": {"android": "https://dc.lft.to/lastmile_qr_scan", "ios": "https://dc.lft.to/lastmile_qr_scan"}, "fusion_lon": 0.0, "lat": 38.91468116666667, "bike_id": "4e6e7d98c2f9aadc7da68099a48c440d", "type": "electric_scooter", "is_reserved": 0, "lon": -77.03641316666666}, {"fusion_lat": 0.0, "name": "1e6c0be4a74dd5a8d5c9c2813d45bf3a", "is_disabled": 0, "rental_uris": {"android": "https://dc.lft.to/lastmile_qr_scan", "ios": "https://dc.lft.to/lastmile_qr_scan"}, "fusion_lon": 0.0, "lat": 38.892316666666666, "bike_id": "1e6c0be4a74dd5a8d5c9c2813d45bf3a", "type": "electric_scooter", "is_reserved": 0, "lon": -77.05000766666667}, {"fusion_lat": 0.0, "name": "7702d5245358f8364d059a6d0a9bc5c6", "is_disabled": 0, "rental_uris": {"android": "https://dc.lft.to/lastmile_qr_scan", "ios": "https://dc.lft.to/lastmile_qr_scan"}, "fusion_lon": 0.0, "lat": 38.90962066666667, "bike_id": "7702d5245358f8364d059a6d0a9bc5c6", "type": "electric_scooter", "is_reserved": 0, "lon": -77.03436433333333}, {"fusion_lat": 0.0, "name": "56c63dc5ff45a415ac87c346429fdc37", "is_disabled": 0, "rental_uris": {"android": "https://dc.lft.to/lastmile_qr_scan", "ios": "https://dc.lft.to/lastmile_qr_scan"}, "fusion_lon": 0.0, "lat": 38.91340133333333, "bike_id": "56c63dc5ff45a415ac87c346429fdc37", "type": "electric_scooter", "is_reserved": 0, "lon": -77.0487435}, {"fusion_lat": 0.0, "name": "024f402b36d3f44c8f9a2e84ca6bbfc9", "is_disabled": 0, "rental_uris": {"android": "https://dc.lft.to/lastmile_qr_scan", "ios": "https://dc.lft.to/lastmile_qr_scan"}, "fusion_lon": 0.0, "lat": 38.91266366666667, "bike_id": "024f402b36d3f44c8f9a2e84ca6bbfc9", "type": "electric_scooter", "is_reserved": 0, "lon": -77.049298}, {"fusion_lat": 0.0, "name": "517863c27769233ebe6864e233e01173", "is_disabled": 0, "rental_uris": {"android": "https://dc.lft.to/lastmile_qr_scan", "ios": "https://dc.lft.to/lastmile_qr_scan"}, "fusion_lon": 0.0, "lat": 38.907761666666666, "bike_id": "517863c27769233ebe6864e233e01173", "type": "electric_scooter", "is_reserved": 0, "lon": -77.03469816666667}, {"fusion_lat": 0.0, "name": "3d8cbe91fdd909abe32560eaed1fba42", "is_disabled": 0, "rental_uris": {"android": "https://dc.lft.to/lastmile_qr_scan", "ios": "https://dc.lft.to/lastmile_qr_scan"}, "fusion_lon": 0.0, "lat": 38.9231085, "bike_id": "3d8cbe91fdd909abe32560eaed1fba42", "type": "electric_scooter", "is_reserved": 0, "lon": -77.04262216666666}, {"fusion_lat": 0.0, "name": "6b40031d6cc6b0e90786d7887bf29136", "is_disabled": 0, "rental_uris": {"android": "https://dc.lft.to/lastmile_qr_scan", "ios": "https://dc.lft.to/lastmile_qr_scan"}, "fusion_lon": 0.0, "lat": 38.91416266666667, "bike_id": "6b40031d6cc6b0e90786d7887bf29136", "type": "electric_scooter", "is_reserved": 0, "lon": -77.0221515}, {"fusion_lat": 0.0, "name": "cd487232e8d43401b15a3e827411adf8", "is_disabled": 0, "rental_uris": {"android": "https://dc.lft.to/lastmile_qr_scan", "ios": "https://dc.lft.to/lastmile_qr_scan"}, "fusion_lon": 0.0, "lat": 38.89612316666667, "bike_id": "cd487232e8d43401b15a3e827411adf8", "type": "electric_scooter", "is_reserved": 0, "lon": -77.0450155}, {"fusion_lat": 0.0, "name": "79be0810cbf186cb6f7f24a464c1571d", "is_disabled": 0, "rental_uris": {"android": "https://dc.lft.to/lastmile_qr_scan", "ios": "https://dc.lft.to/lastmile_qr_scan"}, "fusion_lon": 0.0, "lat": 38.80685533333333, "bike_id": "79be0810cbf186cb6f7f24a464c1571d", "type": "electric_bike", "is_reserved": 0, "lon": -77.06914883333333}, {"fusion_lat": 0.0, "name": "976cd890ff5558320b2af9fa2f51a519", "is_disabled": 0, "rental_uris": {"android": "https://dc.lft.to/lastmile_qr_scan", "ios": "https://dc.lft.to/lastmile_qr_scan"}, "fusion_lon": 0.0, "lat": 38.89725933333333, "bike_id": "976cd890ff5558320b2af9fa2f51a519", "type": "electric_scooter", "is_reserved": 0, "lon": -77.0197055}, {"fusion_lat": 0.0, "name": "29859316fc80fefe9dd0026a599ece6d", "is_disabled": 0, "rental_uris": {"android": "https://dc.lft.to/lastmile_qr_scan", "ios": "https://dc.lft.to/lastmile_qr_scan"}, "fusion_lon": 0.0, "lat": 38.93743216666667, "bike_id": "29859316fc80fefe9dd0026a599ece6d", "type": "electric_scooter", "is_reserved": 0, "lon": -77.03589533333333}, {"fusion_lat": 0.0, "name": "d64bde3cd60d8edf4f9b24988d304881", "is_disabled": 0, "rental_uris": {"android": "https://dc.lft.to/lastmile_qr_scan", "ios": "https://dc.lft.to/lastmile_qr_scan"}, "fusion_lon": 0.0, "lat": 38.88453716666667, "bike_id": "d64bde3cd60d8edf4f9b24988d304881", "type": "electric_scooter", "is_reserved": 0, "lon": -76.99391133333333}, {"fusion_lat": 0.0, "name": "603c8e4bf4aa0d15a5d6b92ce9bf8122", "is_disabled": 0, "rental_uris": {"android": "https://dc.lft.to/lastmile_qr_scan", "ios": "https://dc.lft.to/lastmile_qr_scan"}, "fusion_lon": 0.0, "lat": 38.90503266666666, "bike_id": "603c8e4bf4aa0d15a5d6b92ce9bf8122", "type": "electric_scooter", "is_reserved": 0, "lon": -77.04068383333333}, {"fusion_lat": 0.0, "name": "79b553ac5c1afecc1e4c50f6f8c133ac", "is_disabled": 0, "rental_uris": {"android": "https://dc.lft.to/lastmile_qr_scan", "ios": "https://dc.lft.to/lastmile_qr_scan"}, "fusion_lon": 0.0, "lat": 38.913320166666665, "bike_id": "79b553ac5c1afecc1e4c50f6f8c133ac", "type": "electric_scooter", "is_reserved": 0, "lon": -77.01031033333334}, {"fusion_lat": 0.0, "name": "840f884b722f57e87482aade2b9fdd02", "is_disabled": 0, "rental_uris": {"android": "https://dc.lft.to/lastmile_qr_scan", "ios": "https://dc.lft.to/lastmile_qr_scan"}, "fusion_lon": 0.0, "lat": 38.89607083333333, "bike_id": "840f884b722f57e87482aade2b9fdd02", "type": "electric_scooter", "is_reserved": 0, "lon": -77.0092775}, {"fusion_lat": 0.0, "name": "fdd09ef8ed74a691faa94dc184782368", "is_disabled": 0, "rental_uris": {"android": "https://dc.lft.to/lastmile_qr_scan", "ios": "https://dc.lft.to/lastmile_qr_scan"}, "fusion_lon": 0.0, "lat": 38.9072265, "bike_id": "fdd09ef8ed74a691faa94dc184782368", "type": "electric_scooter", "is_reserved": 0, "lon": -77.0505635}, {"fusion_lat": 0.0, "name": "066a599ad1103ba408ad7f143a82bd3b", "is_disabled": 0, "rental_uris": {"android": "https://dc.lft.to/lastmile_qr_scan", "ios": "https://dc.lft.to/lastmile_qr_scan"}, "fusion_lon": 0.0, "lat": 38.87049616666667, "bike_id": "066a599ad1103ba408ad7f143a82bd3b", "type": "electric_scooter", "is_reserved": 0, "lon": -77.00976766666666}, {"fusion_lat": 0.0, "name": "c71c43d0f89884782ab80d9f89548c5d", "is_disabled": 0, "rental_uris": {"android": "https://dc.lft.to/lastmile_qr_scan", "ios": "https://dc.lft.to/lastmile_qr_scan"}, "fusion_lon": 0.0, "lat": 38.900465833333335, "bike_id": "c71c43d0f89884782ab80d9f89548c5d", "type": "electric_scooter", "is_reserved": 0, "lon": -77.01998583333334}, {"fusion_lat": 0.0, "name": "5817dbfc90970707031e3d8b8f5f8615", "is_disabled": 0, "rental_uris": {"android": "https://dc.lft.to/lastmile_qr_scan", "ios": "https://dc.lft.to/lastmile_qr_scan"}, "fusion_lon": 0.0, "lat": 38.840534, "bike_id": "5817dbfc90970707031e3d8b8f5f8615", "type": "electric_scooter", "is_reserved": 0, "lon": -76.9766855}, {"fusion_lat": 0.0, "name": "0d50081f0f39e31269737c667f84ad20", "is_disabled": 0, "rental_uris": {"android": "https://dc.lft.to/lastmile_qr_scan", "ios": "https://dc.lft.to/lastmile_qr_scan"}, "fusion_lon": 0.0, "lat": 38.922073166666664, "bike_id": "0d50081f0f39e31269737c667f84ad20", "type": "electric_scooter", "is_reserved": 0, "lon": -77.0182065}, {"fusion_lat": 0.0, "name": "8c01703b8494226decc69aa681d465ba", "is_disabled": 0, "rental_uris": {"android": "https://dc.lft.to/lastmile_qr_scan", "ios": "https://dc.lft.to/lastmile_qr_scan"}, "fusion_lon": 0.0, "lat": 38.94182, "bike_id": "8c01703b8494226decc69aa681d465ba", "type": "electric_scooter", "is_reserved": 0, "lon": -77.02494966666667}, {"fusion_lat": 0.0, "name": "6cbcddf021d438837f4e785f544cf28f", "is_disabled": 0, "rental_uris": {"android": "https://dc.lft.to/lastmile_qr_scan", "ios": "https://dc.lft.to/lastmile_qr_scan"}, "fusion_lon": 0.0, "lat": 38.9006295, "bike_id": "6cbcddf021d438837f4e785f544cf28f", "type": "electric_scooter", "is_reserved": 0, "lon": -76.93385816666667}, {"fusion_lat": 0.0, "name": "585730b432d358a405b33a8f4b50ef78", "is_disabled": 0, "rental_uris": {"android": "https://dc.lft.to/lastmile_qr_scan", "ios": "https://dc.lft.to/lastmile_qr_scan"}, "fusion_lon": 0.0, "lat": 38.892246166666666, "bike_id": "585730b432d358a405b33a8f4b50ef78", "type": "electric_scooter", "is_reserved": 0, "lon": -77.02712666666666}, {"fusion_lat": 0.0, "name": "e54c4e59abd6d709cc43a9a5dee70f84", "is_disabled": 0, "rental_uris": {"android": "https://dc.lft.to/lastmile_qr_scan", "ios": "https://dc.lft.to/lastmile_qr_scan"}, "fusion_lon": 0.0, "lat": 38.90386683333333, "bike_id": "e54c4e59abd6d709cc43a9a5dee70f84", "type": "electric_scooter", "is_reserved": 0, "lon": -77.0613805}, {"fusion_lat": 0.0, "name": "3ff2b464b3aef78ee60f3e219d0c20c3", "is_disabled": 0, "rental_uris": {"android": "https://dc.lft.to/lastmile_qr_scan", "ios": "https://dc.lft.to/lastmile_qr_scan"}, "fusion_lon": 0.0, "lat": 38.9426525, "bike_id": "3ff2b464b3aef78ee60f3e219d0c20c3", "type": "electric_bike", "is_reserved": 0, "lon": -76.98515266666666}, {"fusion_lat": 0.0, "name": "df751ac5a7a867e97c6645018e6cd0bd", "is_disabled": 0, "rental_uris": {"android": "https://dc.lft.to/lastmile_qr_scan", "ios": "https://dc.lft.to/lastmile_qr_scan"}, "fusion_lon": 0.0, "lat": 38.91410316666666, "bike_id": "df751ac5a7a867e97c6645018e6cd0bd", "type": "electric_scooter", "is_reserved": 0, "lon": -77.02456933333333}, {"fusion_lat": 0.0, "name": "264158dd5f4f0de99f8c8d90ee8e712e", "is_disabled": 0, "rental_uris": {"android": "https://dc.lft.to/lastmile_qr_scan", "ios": "https://dc.lft.to/lastmile_qr_scan"}, "fusion_lon": 0.0, "lat": 38.937538, "bike_id": "264158dd5f4f0de99f8c8d90ee8e712e", "type": "electric_scooter", "is_reserved": 0, "lon": -77.02527283333333}, {"fusion_lat": 0.0, "name": "c3e565fa5f1c830dcbebb470829c6623", "is_disabled": 0, "rental_uris": {"android": "https://dc.lft.to/lastmile_qr_scan", "ios": "https://dc.lft.to/lastmile_qr_scan"}, "fusion_lon": 0.0, "lat": 38.89607766666666, "bike_id": "c3e565fa5f1c830dcbebb470829c6623", "type": "electric_scooter", "is_reserved": 0, "lon": -77.04977966666667}, {"fusion_lat": 0.0, "name": "ce23f739d3a653a93c9bcba05b5e1c70", "is_disabled": 0, "rental_uris": {"android": "https://dc.lft.to/lastmile_qr_scan", "ios": "https://dc.lft.to/lastmile_qr_scan"}, "fusion_lon": 0.0, "lat": 38.93741266666667, "bike_id": "ce23f739d3a653a93c9bcba05b5e1c70", "type": "electric_scooter", "is_reserved": 0, "lon": -77.02453716666666}, {"fusion_lat": 0.0, "name": "0773188308dfe4056a67c13df9c0940d", "is_disabled": 0, "rental_uris": {"android": "https://dc.lft.to/lastmile_qr_scan", "ios": "https://dc.lft.to/lastmile_qr_scan"}, "fusion_lon": 0.0, "lat": 38.89567566666667, "bike_id": "0773188308dfe4056a67c13df9c0940d", "type": "electric_bike", "is_reserved": 0, "lon": -77.12736583333333}, {"fusion_lat": 0.0, "name": "47f8eafd3b9d8adcf1d893e8f2f99e40", "is_disabled": 0, "rental_uris": {"android": "https://dc.lft.to/lastmile_qr_scan", "ios": "https://dc.lft.to/lastmile_qr_scan"}, "fusion_lon": 0.0, "lat": 38.89851266666667, "bike_id": "47f8eafd3b9d8adcf1d893e8f2f99e40", "type": "electric_scooter", "is_reserved": 0, "lon": -77.02435183333333}, {"fusion_lat": 0.0, "name": "063a6334e18c445e0d2f9f77e35b7080", "is_disabled": 0, "rental_uris": {"android": "https://dc.lft.to/lastmile_qr_scan", "ios": "https://dc.lft.to/lastmile_qr_scan"}, "fusion_lon": 0.0, "lat": 38.91606, "bike_id": "063a6334e18c445e0d2f9f77e35b7080", "type": "electric_scooter", "is_reserved": 0, "lon": -77.04561983333333}, {"fusion_lat": 0.0, "name": "125b684237ae950b54188aa78f4bfc46", "is_disabled": 0, "rental_uris": {"android": "https://dc.lft.to/lastmile_qr_scan", "ios": "https://dc.lft.to/lastmile_qr_scan"}, "fusion_lon": 0.0, "lat": 38.88042516666667, "bike_id": "125b684237ae950b54188aa78f4bfc46", "type": "electric_scooter", "is_reserved": 0, "lon": -77.02510366666667}, {"fusion_lat": 0.0, "name": "b3b50b5317bc84d596c03dc84e37dbd6", "is_disabled": 0, "rental_uris": {"android": "https://dc.lft.to/lastmile_qr_scan", "ios": "https://dc.lft.to/lastmile_qr_scan"}, "fusion_lon": 0.0, "lat": 38.91603633333333, "bike_id": "b3b50b5317bc84d596c03dc84e37dbd6", "type": "electric_scooter", "is_reserved": 0, "lon": -77.045999}, {"fusion_lat": 0.0, "name": "bcffec2a22176b691ab41ea2892e2ec2", "is_disabled": 0, "rental_uris": {"android": "https://dc.lft.to/lastmile_qr_scan", "ios": "https://dc.lft.to/lastmile_qr_scan"}, "fusion_lon": 0.0, "lat": 38.92057583333333, "bike_id": "bcffec2a22176b691ab41ea2892e2ec2", "type": "electric_scooter", "is_reserved": 0, "lon": -77.044108}, {"fusion_lat": 0.0, "name": "f9d82b4452bca8e1be1fc16f5e28da80", "is_disabled": 0, "rental_uris": {"android": "https://dc.lft.to/lastmile_qr_scan", "ios": "https://dc.lft.to/lastmile_qr_scan"}, "fusion_lon": 0.0, "lat": 38.87533033333333, "bike_id": "f9d82b4452bca8e1be1fc16f5e28da80", "type": "electric_scooter", "is_reserved": 0, "lon": -77.00508283333333}, {"fusion_lat": 0.0, "name": "c00a2225c64deef93e6783386efa189a", "is_disabled": 0, "rental_uris": {"android": "https://dc.lft.to/lastmile_qr_scan", "ios": "https://dc.lft.to/lastmile_qr_scan"}, "fusion_lon": 0.0, "lat": 38.922931166666665, "bike_id": "c00a2225c64deef93e6783386efa189a", "type": "electric_scooter", "is_reserved": 0, "lon": -77.04249866666666}, {"fusion_lat": 0.0, "name": "d198ae7ba2b7408e7019f743ce916a3d", "is_disabled": 0, "rental_uris": {"android": "https://dc.lft.to/lastmile_qr_scan", "ios": "https://dc.lft.to/lastmile_qr_scan"}, "fusion_lon": 0.0, "lat": 38.9275725, "bike_id": "d198ae7ba2b7408e7019f743ce916a3d", "type": "electric_scooter", "is_reserved": 0, "lon": -77.03392633333333}, {"fusion_lat": 0.0, "name": "261c91869d1d28d4f61bac882c0bb425", "is_disabled": 0, "rental_uris": {"android": "https://dc.lft.to/lastmile_qr_scan", "ios": "https://dc.lft.to/lastmile_qr_scan"}, "fusion_lon": 0.0, "lat": 38.8774655, "bike_id": "261c91869d1d28d4f61bac882c0bb425", "type": "electric_scooter", "is_reserved": 0, "lon": -77.00342616666667}, {"fusion_lat": 0.0, "name": "ef14f9cdcbd087534ab65b03559f1e91", "is_disabled": 0, "rental_uris": {"android": "https://dc.lft.to/lastmile_qr_scan", "ios": "https://dc.lft.to/lastmile_qr_scan"}, "fusion_lon": 0.0, "lat": 38.89683083333333, "bike_id": "ef14f9cdcbd087534ab65b03559f1e91", "type": "electric_scooter", "is_reserved": 0, "lon": -77.05153516666667}, {"fusion_lat": 0.0, "name": "b80c64bfbf38aa3237423953f8aa4fb5", "is_disabled": 0, "rental_uris": {"android": "https://dc.lft.to/lastmile_qr_scan", "ios": "https://dc.lft.to/lastmile_qr_scan"}, "fusion_lon": 0.0, "lat": 38.876655166666666, "bike_id": "b80c64bfbf38aa3237423953f8aa4fb5", "type": "electric_scooter", "is_reserved": 0, "lon": -76.99626033333334}, {"fusion_lat": 0.0, "name": "c4625439f8e7607863c3cc1d4114305b", "is_disabled": 0, "rental_uris": {"android": "https://dc.lft.to/lastmile_qr_scan", "ios": "https://dc.lft.to/lastmile_qr_scan"}, "fusion_lon": 0.0, "lat": 38.9247305, "bike_id": "c4625439f8e7607863c3cc1d4114305b", "type": "electric_scooter", "is_reserved": 0, "lon": -77.0391645}, {"fusion_lat": 0.0, "name": "a25a02f59467aba3413c9b34e5ad2561", "is_disabled": 0, "rental_uris": {"android": "https://dc.lft.to/lastmile_qr_scan", "ios": "https://dc.lft.to/lastmile_qr_scan"}, "fusion_lon": 0.0, "lat": 38.91454516666667, "bike_id": "a25a02f59467aba3413c9b34e5ad2561", "type": "electric_scooter", "is_reserved": 0, "lon": -77.072256}, {"fusion_lat": 0.0, "name": "23858c84f320c53d2e0e1a3553367f9b", "is_disabled": 0, "rental_uris": {"android": "https://dc.lft.to/lastmile_qr_scan", "ios": "https://dc.lft.to/lastmile_qr_scan"}, "fusion_lon": 0.0, "lat": 38.914038833333336, "bike_id": "23858c84f320c53d2e0e1a3553367f9b", "type": "electric_scooter", "is_reserved": 0, "lon": -77.01682283333334}, {"fusion_lat": 0.0, "name": "41c4b91901747991e22b3097e2fde7a7", "is_disabled": 0, "rental_uris": {"android": "https://dc.lft.to/lastmile_qr_scan", "ios": "https://dc.lft.to/lastmile_qr_scan"}, "fusion_lon": 0.0, "lat": 38.9062205, "bike_id": "41c4b91901747991e22b3097e2fde7a7", "type": "electric_scooter", "is_reserved": 0, "lon": -77.06276666666666}, {"fusion_lat": 0.0, "name": "e15cfa4533e707084d85f9457cf4b87e", "is_disabled": 0, "rental_uris": {"android": "https://dc.lft.to/lastmile_qr_scan", "ios": "https://dc.lft.to/lastmile_qr_scan"}, "fusion_lon": 0.0, "lat": 38.90067833333333, "bike_id": "e15cfa4533e707084d85f9457cf4b87e", "type": "electric_scooter", "is_reserved": 0, "lon": -76.9274575}, {"fusion_lat": 0.0, "name": "f4e6ca0a6b0a93eba6fc3aaed7ad4004", "is_disabled": 0, "rental_uris": {"android": "https://dc.lft.to/lastmile_qr_scan", "ios": "https://dc.lft.to/lastmile_qr_scan"}, "fusion_lon": 0.0, "lat": 38.895451, "bike_id": "f4e6ca0a6b0a93eba6fc3aaed7ad4004", "type": "electric_scooter", "is_reserved": 0, "lon": -76.9495235}, {"fusion_lat": 0.0, "name": "8fd56c39e751c8e83126e1651517802b", "is_disabled": 0, "rental_uris": {"android": "https://dc.lft.to/lastmile_qr_scan", "ios": "https://dc.lft.to/lastmile_qr_scan"}, "fusion_lon": 0.0, "lat": 38.87751166666666, "bike_id": "8fd56c39e751c8e83126e1651517802b", "type": "electric_scooter", "is_reserved": 0, "lon": -77.01425283333333}, {"fusion_lat": 0.0, "name": "b3b68b457fff82818f369b8091abcb13", "is_disabled": 0, "rental_uris": {"android": "https://dc.lft.to/lastmile_qr_scan", "ios": "https://dc.lft.to/lastmile_qr_scan"}, "fusion_lon": 0.0, "lat": 38.903674333333335, "bike_id": "b3b68b457fff82818f369b8091abcb13", "type": "electric_scooter", "is_reserved": 0, "lon": -77.038432}, {"fusion_lat": 0.0, "name": "4a5c37a56f419c8eedb2e986692b454f", "is_disabled": 0, "rental_uris": {"android": "https://dc.lft.to/lastmile_qr_scan", "ios": "https://dc.lft.to/lastmile_qr_scan"}, "fusion_lon": 0.0, "lat": 38.89881966666667, "bike_id": "4a5c37a56f419c8eedb2e986692b454f", "type": "electric_scooter", "is_reserved": 0, "lon": -77.01505933333334}, {"fusion_lat": 0.0, "name": "16038cd9f2be53d77e35af3ab05e33e6", "is_disabled": 0, "rental_uris": {"android": "https://dc.lft.to/lastmile_qr_scan", "ios": "https://dc.lft.to/lastmile_qr_scan"}, "fusion_lon": 0.0, "lat": 38.92895583333333, "bike_id": "16038cd9f2be53d77e35af3ab05e33e6", "type": "electric_bike", "is_reserved": 0, "lon": -77.23177883333334}, {"fusion_lat": 0.0, "name": "24684cc92e51c5a788aca2d6c9810c11", "is_disabled": 0, "rental_uris": {"android": "https://dc.lft.to/lastmile_qr_scan", "ios": "https://dc.lft.to/lastmile_qr_scan"}, "fusion_lon": 0.0, "lat": 38.93869433333333, "bike_id": "24684cc92e51c5a788aca2d6c9810c11", "type": "electric_scooter", "is_reserved": 0, "lon": -77.02477133333333}, {"fusion_lat": 0.0, "name": "53a93437c995694ed02c7975d0a909ad", "is_disabled": 0, "rental_uris": {"android": "https://dc.lft.to/lastmile_qr_scan", "ios": "https://dc.lft.to/lastmile_qr_scan"}, "fusion_lon": 0.0, "lat": 38.91043116666667, "bike_id": "53a93437c995694ed02c7975d0a909ad", "type": "electric_scooter", "is_reserved": 0, "lon": -77.00829883333333}, {"fusion_lat": 0.0, "name": "88b42e2cd321f9aa313f573aac0715d4", "is_disabled": 0, "rental_uris": {"android": "https://dc.lft.to/lastmile_qr_scan", "ios": "https://dc.lft.to/lastmile_qr_scan"}, "fusion_lon": 0.0, "lat": 38.900891333333334, "bike_id": "88b42e2cd321f9aa313f573aac0715d4", "type": "electric_scooter", "is_reserved": 0, "lon": -76.98333966666667}, {"fusion_lat": 0.0, "name": "57900604f3e08865e96e969d06c2f810", "is_disabled": 0, "rental_uris": {"android": "https://dc.lft.to/lastmile_qr_scan", "ios": "https://dc.lft.to/lastmile_qr_scan"}, "fusion_lon": 0.0, "lat": 38.892244833333336, "bike_id": "57900604f3e08865e96e969d06c2f810", "type": "electric_scooter", "is_reserved": 0, "lon": -77.0314495}, {"fusion_lat": 0.0, "name": "32f1a6c503a11f0faafce056ee03e0fc", "is_disabled": 0, "rental_uris": {"android": "https://dc.lft.to/lastmile_qr_scan", "ios": "https://dc.lft.to/lastmile_qr_scan"}, "fusion_lon": 0.0, "lat": 38.9157045, "bike_id": "32f1a6c503a11f0faafce056ee03e0fc", "type": "electric_scooter", "is_reserved": 0, "lon": -77.03851233333333}, {"fusion_lat": 0.0, "name": "460c4ec25f45737c28ecaa19a39da4f2", "is_disabled": 0, "rental_uris": {"android": "https://dc.lft.to/lastmile_qr_scan", "ios": "https://dc.lft.to/lastmile_qr_scan"}, "fusion_lon": 0.0, "lat": 38.9254015, "bike_id": "460c4ec25f45737c28ecaa19a39da4f2", "type": "electric_scooter", "is_reserved": 0, "lon": -77.03829516666667}, {"fusion_lat": 0.0, "name": "8e8f3887f15ea82399e86aef45a548c4", "is_disabled": 0, "rental_uris": {"android": "https://dc.lft.to/lastmile_qr_scan", "ios": "https://dc.lft.to/lastmile_qr_scan"}, "fusion_lon": 0.0, "lat": 38.927867666666664, "bike_id": "8e8f3887f15ea82399e86aef45a548c4", "type": "electric_scooter", "is_reserved": 0, "lon": -77.03212166666667}, {"fusion_lat": 0.0, "name": "e393fb201f7a3b7060987b9d1eeda173", "is_disabled": 0, "rental_uris": {"android": "https://dc.lft.to/lastmile_qr_scan", "ios": "https://dc.lft.to/lastmile_qr_scan"}, "fusion_lon": 0.0, "lat": 38.878337333333334, "bike_id": "e393fb201f7a3b7060987b9d1eeda173", "type": "electric_scooter", "is_reserved": 0, "lon": -76.963217}, {"fusion_lat": 0.0, "name": "8f2ffc569d5512a2895001778ad0ceaa", "is_disabled": 0, "rental_uris": {"android": "https://dc.lft.to/lastmile_qr_scan", "ios": "https://dc.lft.to/lastmile_qr_scan"}, "fusion_lon": 0.0, "lat": 38.92553616666667, "bike_id": "8f2ffc569d5512a2895001778ad0ceaa", "type": "electric_scooter", "is_reserved": 0, "lon": -77.07762333333334}, {"fusion_lat": 0.0, "name": "0f999f38d6d1ed3157b0241f17fb1071", "is_disabled": 0, "rental_uris": {"android": "https://dc.lft.to/lastmile_qr_scan", "ios": "https://dc.lft.to/lastmile_qr_scan"}, "fusion_lon": 0.0, "lat": 38.90419116666666, "bike_id": "0f999f38d6d1ed3157b0241f17fb1071", "type": "electric_scooter", "is_reserved": 0, "lon": -77.0264495}, {"fusion_lat": 0.0, "name": "8605c6dd1a9c7e26a9ce603328ba305e", "is_disabled": 0, "rental_uris": {"android": "https://dc.lft.to/lastmile_qr_scan", "ios": "https://dc.lft.to/lastmile_qr_scan"}, "fusion_lon": 0.0, "lat": 38.913085333333335, "bike_id": "8605c6dd1a9c7e26a9ce603328ba305e", "type": "electric_scooter", "is_reserved": 0, "lon": -77.048744}, {"fusion_lat": 0.0, "name": "bca1d160760b7a29f12f874cb4ea2f9b", "is_disabled": 0, "rental_uris": {"android": "https://dc.lft.to/lastmile_qr_scan", "ios": "https://dc.lft.to/lastmile_qr_scan"}, "fusion_lon": 0.0, "lat": 38.919255666666665, "bike_id": "bca1d160760b7a29f12f874cb4ea2f9b", "type": "electric_scooter", "is_reserved": 0, "lon": -77.07074716666666}, {"fusion_lat": 0.0, "name": "0e5735f1c533f29727af6a10915a90a5", "is_disabled": 0, "rental_uris": {"android": "https://dc.lft.to/lastmile_qr_scan", "ios": "https://dc.lft.to/lastmile_qr_scan"}, "fusion_lon": 0.0, "lat": 38.80494516666667, "bike_id": "0e5735f1c533f29727af6a10915a90a5", "type": "electric_bike", "is_reserved": 0, "lon": -77.10161316666667}, {"fusion_lat": 0.0, "name": "e3d955f98d210641bcec2dc2671338c1", "is_disabled": 0, "rental_uris": {"android": "https://dc.lft.to/lastmile_qr_scan", "ios": "https://dc.lft.to/lastmile_qr_scan"}, "fusion_lon": 0.0, "lat": 38.92038616666667, "bike_id": "e3d955f98d210641bcec2dc2671338c1", "type": "electric_scooter", "is_reserved": 0, "lon": -77.0173395}, {"fusion_lat": 0.0, "name": "730d24d1c812654f75315b31e24d4fcb", "is_disabled": 0, "rental_uris": {"android": "https://dc.lft.to/lastmile_qr_scan", "ios": "https://dc.lft.to/lastmile_qr_scan"}, "fusion_lon": 0.0, "lat": 38.89284, "bike_id": "730d24d1c812654f75315b31e24d4fcb", "type": "electric_scooter", "is_reserved": 0, "lon": -76.98309466666667}, {"fusion_lat": 0.0, "name": "1c0650c30e14151b6d9a7317b0e9733e", "is_disabled": 0, "rental_uris": {"android": "https://dc.lft.to/lastmile_qr_scan", "ios": "https://dc.lft.to/lastmile_qr_scan"}, "fusion_lon": 0.0, "lat": 38.9487685, "bike_id": "1c0650c30e14151b6d9a7317b0e9733e", "type": "electric_scooter", "is_reserved": 0, "lon": -77.02688716666667}, {"fusion_lat": 0.0, "name": "08ca344b4b4070b1c0709caa16469d4b", "is_disabled": 0, "rental_uris": {"android": "https://dc.lft.to/lastmile_qr_scan", "ios": "https://dc.lft.to/lastmile_qr_scan"}, "fusion_lon": 0.0, "lat": 38.936332666666665, "bike_id": "08ca344b4b4070b1c0709caa16469d4b", "type": "electric_scooter", "is_reserved": 0, "lon": -77.036598}, {"fusion_lat": 0.0, "name": "39407dcb71f6e1ca17af5f9457d000fd", "is_disabled": 0, "rental_uris": {"android": "https://dc.lft.to/lastmile_qr_scan", "ios": "https://dc.lft.to/lastmile_qr_scan"}, "fusion_lon": 0.0, "lat": 38.93769016666667, "bike_id": "39407dcb71f6e1ca17af5f9457d000fd", "type": "electric_scooter", "is_reserved": 0, "lon": -77.03260266666666}, {"fusion_lat": 0.0, "name": "64c405437d3e04caef9e155b124d1de9", "is_disabled": 0, "rental_uris": {"android": "https://dc.lft.to/lastmile_qr_scan", "ios": "https://dc.lft.to/lastmile_qr_scan"}, "fusion_lon": 0.0, "lat": 38.9507475, "bike_id": "64c405437d3e04caef9e155b124d1de9", "type": "electric_bike", "is_reserved": 0, "lon": -77.01198966666666}, {"fusion_lat": 0.0, "name": "f5d4aa74008861b1684b83e2579af3ff", "is_disabled": 0, "rental_uris": {"android": "https://dc.lft.to/lastmile_qr_scan", "ios": "https://dc.lft.to/lastmile_qr_scan"}, "fusion_lon": 0.0, "lat": 38.93646116666667, "bike_id": "f5d4aa74008861b1684b83e2579af3ff", "type": "electric_scooter", "is_reserved": 0, "lon": -77.0367085}, {"fusion_lat": 0.0, "name": "748f8e8eac329ded7a7454af84e09d67", "is_disabled": 0, "rental_uris": {"android": "https://dc.lft.to/lastmile_qr_scan", "ios": "https://dc.lft.to/lastmile_qr_scan"}, "fusion_lon": 0.0, "lat": 38.899021166666664, "bike_id": "748f8e8eac329ded7a7454af84e09d67", "type": "electric_scooter", "is_reserved": 0, "lon": -76.93355783333334}, {"fusion_lat": 0.0, "name": "1f2eee0ec0d1593e3d21501c64121634", "is_disabled": 0, "rental_uris": {"android": "https://dc.lft.to/lastmile_qr_scan", "ios": "https://dc.lft.to/lastmile_qr_scan"}, "fusion_lon": 0.0, "lat": 38.92199633333333, "bike_id": "1f2eee0ec0d1593e3d21501c64121634", "type": "electric_scooter", "is_reserved": 0, "lon": -77.08070366666666}, {"fusion_lat": 0.0, "name": "402ae1a170e986fe1d405533c1be3689", "is_disabled": 0, "rental_uris": {"android": "https://dc.lft.to/lastmile_qr_scan", "ios": "https://dc.lft.to/lastmile_qr_scan"}, "fusion_lon": 0.0, "lat": 38.9361065, "bike_id": "402ae1a170e986fe1d405533c1be3689", "type": "electric_scooter", "is_reserved": 0, "lon": -77.031955}, {"fusion_lat": 0.0, "name": "7d230701a1728fb5514c89f44cc49fe5", "is_disabled": 0, "rental_uris": {"android": "https://dc.lft.to/lastmile_qr_scan", "ios": "https://dc.lft.to/lastmile_qr_scan"}, "fusion_lon": 0.0, "lat": 38.9270175, "bike_id": "7d230701a1728fb5514c89f44cc49fe5", "type": "electric_scooter", "is_reserved": 0, "lon": -77.02433583333334}, {"fusion_lat": 0.0, "name": "94a6c26c4ddb3b4013372b56bf1d2249", "is_disabled": 0, "rental_uris": {"android": "https://dc.lft.to/lastmile_qr_scan", "ios": "https://dc.lft.to/lastmile_qr_scan"}, "fusion_lon": 0.0, "lat": 38.89232116666667, "bike_id": "94a6c26c4ddb3b4013372b56bf1d2249", "type": "electric_scooter", "is_reserved": 0, "lon": -77.03175016666667}, {"fusion_lat": 0.0, "name": "d76a3bb8a77df65607233c603a780554", "is_disabled": 0, "rental_uris": {"android": "https://dc.lft.to/lastmile_qr_scan", "ios": "https://dc.lft.to/lastmile_qr_scan"}, "fusion_lon": 0.0, "lat": 38.89224, "bike_id": "d76a3bb8a77df65607233c603a780554", "type": "electric_scooter", "is_reserved": 0, "lon": -77.046841}, {"fusion_lat": 0.0, "name": "32414b004b4d61729754865562c2f5d0", "is_disabled": 0, "rental_uris": {"android": "https://dc.lft.to/lastmile_qr_scan", "ios": "https://dc.lft.to/lastmile_qr_scan"}, "fusion_lon": 0.0, "lat": 38.90502766666667, "bike_id": "32414b004b4d61729754865562c2f5d0", "type": "electric_scooter", "is_reserved": 0, "lon": -77.0465195}, {"fusion_lat": 0.0, "name": "a57b393083424b0650a7b031ef6e5256", "is_disabled": 0, "rental_uris": {"android": "https://dc.lft.to/lastmile_qr_scan", "ios": "https://dc.lft.to/lastmile_qr_scan"}, "fusion_lon": 0.0, "lat": 38.957400666666665, "bike_id": "a57b393083424b0650a7b031ef6e5256", "type": "electric_bike", "is_reserved": 0, "lon": -76.98085683333333}, {"fusion_lat": 0.0, "name": "09a6ce52f03b3feb6da16915cc13bdf9", "is_disabled": 0, "rental_uris": {"android": "https://dc.lft.to/lastmile_qr_scan", "ios": "https://dc.lft.to/lastmile_qr_scan"}, "fusion_lon": 0.0, "lat": 38.90233533333333, "bike_id": "09a6ce52f03b3feb6da16915cc13bdf9", "type": "electric_scooter", "is_reserved": 0, "lon": -77.049052}, {"fusion_lat": 0.0, "name": "15c596777e1a09a5af21865f820e19d3", "is_disabled": 0, "rental_uris": {"android": "https://dc.lft.to/lastmile_qr_scan", "ios": "https://dc.lft.to/lastmile_qr_scan"}, "fusion_lon": 0.0, "lat": 38.892510333333334, "bike_id": "15c596777e1a09a5af21865f820e19d3", "type": "electric_scooter", "is_reserved": 0, "lon": -77.019581}, {"fusion_lat": 0.0, "name": "d53a12528a668eb63a3939fea03ce6fc", "is_disabled": 0, "rental_uris": {"android": "https://dc.lft.to/lastmile_qr_scan", "ios": "https://dc.lft.to/lastmile_qr_scan"}, "fusion_lon": 0.0, "lat": 38.902558, "bike_id": "d53a12528a668eb63a3939fea03ce6fc", "type": "electric_scooter", "is_reserved": 0, "lon": -77.03929383333333}, {"fusion_lat": 0.0, "name": "8ce9c62655d0f8892352dcfd58f3c309", "is_disabled": 0, "rental_uris": {"android": "https://dc.lft.to/lastmile_qr_scan", "ios": "https://dc.lft.to/lastmile_qr_scan"}, "fusion_lon": 0.0, "lat": 38.9113225, "bike_id": "8ce9c62655d0f8892352dcfd58f3c309", "type": "electric_scooter", "is_reserved": 0, "lon": -77.04349816666667}, {"fusion_lat": 0.0, "name": "171440a800356b8bb023de34247e7218", "is_disabled": 0, "rental_uris": {"android": "https://dc.lft.to/lastmile_qr_scan", "ios": "https://dc.lft.to/lastmile_qr_scan"}, "fusion_lon": 0.0, "lat": 38.8987865, "bike_id": "171440a800356b8bb023de34247e7218", "type": "electric_scooter", "is_reserved": 0, "lon": -76.93187266666666}, {"fusion_lat": 0.0, "name": "c0967090785b30aded0ad31a7fbaec45", "is_disabled": 0, "rental_uris": {"android": "https://dc.lft.to/lastmile_qr_scan", "ios": "https://dc.lft.to/lastmile_qr_scan"}, "fusion_lon": 0.0, "lat": 38.8982205, "bike_id": "c0967090785b30aded0ad31a7fbaec45", "type": "electric_scooter", "is_reserved": 0, "lon": -77.02691783333333}, {"fusion_lat": 0.0, "name": "bad734ff73d22c038be199ab6794ecfd", "is_disabled": 0, "rental_uris": {"android": "https://dc.lft.to/lastmile_qr_scan", "ios": "https://dc.lft.to/lastmile_qr_scan"}, "fusion_lon": 0.0, "lat": 38.9026305, "bike_id": "bad734ff73d22c038be199ab6794ecfd", "type": "electric_scooter", "is_reserved": 0, "lon": -77.03943583333333}, {"fusion_lat": 0.0, "name": "96463d977c51fd25bd98185aab597e9b", "is_disabled": 0, "rental_uris": {"android": "https://dc.lft.to/lastmile_qr_scan", "ios": "https://dc.lft.to/lastmile_qr_scan"}, "fusion_lon": 0.0, "lat": 38.87711083333333, "bike_id": "96463d977c51fd25bd98185aab597e9b", "type": "electric_scooter", "is_reserved": 0, "lon": -76.993871}, {"fusion_lat": 0.0, "name": "45e99b199b2bc8272585c4e7d3e210b5", "is_disabled": 0, "rental_uris": {"android": "https://dc.lft.to/lastmile_qr_scan", "ios": "https://dc.lft.to/lastmile_qr_scan"}, "fusion_lon": 0.0, "lat": 38.88612283333333, "bike_id": "45e99b199b2bc8272585c4e7d3e210b5", "type": "electric_scooter", "is_reserved": 0, "lon": -77.0155625}, {"fusion_lat": 0.0, "name": "847df1ca6b8ae86da7fa73b9e48bcd55", "is_disabled": 0, "rental_uris": {"android": "https://dc.lft.to/lastmile_qr_scan", "ios": "https://dc.lft.to/lastmile_qr_scan"}, "fusion_lon": 0.0, "lat": 38.918120333333334, "bike_id": "847df1ca6b8ae86da7fa73b9e48bcd55", "type": "electric_scooter", "is_reserved": 0, "lon": -77.031389}, {"fusion_lat": 0.0, "name": "8e037152653d1683928e3affbe7877e7", "is_disabled": 0, "rental_uris": {"android": "https://dc.lft.to/lastmile_qr_scan", "ios": "https://dc.lft.to/lastmile_qr_scan"}, "fusion_lon": 0.0, "lat": 38.948547166666664, "bike_id": "8e037152653d1683928e3affbe7877e7", "type": "electric_scooter", "is_reserved": 0, "lon": -77.02571316666666}, {"fusion_lat": 0.0, "name": "5999d3582bd8641903fc63ab032da418", "is_disabled": 0, "rental_uris": {"android": "https://dc.lft.to/lastmile_qr_scan", "ios": "https://dc.lft.to/lastmile_qr_scan"}, "fusion_lon": 0.0, "lat": 38.88300066666667, "bike_id": "5999d3582bd8641903fc63ab032da418", "type": "electric_scooter", "is_reserved": 0, "lon": -76.9485945}, {"fusion_lat": 0.0, "name": "c0f702cd47457c40b070db4fc0ecc851", "is_disabled": 0, "rental_uris": {"android": "https://dc.lft.to/lastmile_qr_scan", "ios": "https://dc.lft.to/lastmile_qr_scan"}, "fusion_lon": 0.0, "lat": 38.919943, "bike_id": "c0f702cd47457c40b070db4fc0ecc851", "type": "electric_scooter", "is_reserved": 0, "lon": -77.071905}, {"fusion_lat": 0.0, "name": "51f0a3f31ad77a16b81e027bd74193f7", "is_disabled": 0, "rental_uris": {"android": "https://dc.lft.to/lastmile_qr_scan", "ios": "https://dc.lft.to/lastmile_qr_scan"}, "fusion_lon": 0.0, "lat": 38.854161166666664, "bike_id": "51f0a3f31ad77a16b81e027bd74193f7", "type": "electric_bike", "is_reserved": 0, "lon": -77.1207955}, {"fusion_lat": 0.0, "name": "d64eafca3a2045454e5e27ea9808d2a7", "is_disabled": 0, "rental_uris": {"android": "https://dc.lft.to/lastmile_qr_scan", "ios": "https://dc.lft.to/lastmile_qr_scan"}, "fusion_lon": 0.0, "lat": 38.93580216666667, "bike_id": "d64eafca3a2045454e5e27ea9808d2a7", "type": "electric_scooter", "is_reserved": 0, "lon": -77.02847433333334}, {"fusion_lat": 0.0, "name": "a0e4b4ebc33a6345e103aeb773261dcb", "is_disabled": 0, "rental_uris": {"android": "https://dc.lft.to/lastmile_qr_scan", "ios": "https://dc.lft.to/lastmile_qr_scan"}, "fusion_lon": 0.0, "lat": 38.882209833333334, "bike_id": "a0e4b4ebc33a6345e103aeb773261dcb", "type": "electric_scooter", "is_reserved": 0, "lon": -77.029389}, {"fusion_lat": 0.0, "name": "47301946666467d6956459e5d370bf91", "is_disabled": 0, "rental_uris": {"android": "https://dc.lft.to/lastmile_qr_scan", "ios": "https://dc.lft.to/lastmile_qr_scan"}, "fusion_lon": 0.0, "lat": 38.952222666666664, "bike_id": "47301946666467d6956459e5d370bf91", "type": "electric_scooter", "is_reserved": 0, "lon": -77.08218616666667}, {"fusion_lat": 0.0, "name": "29ca4c21300a48f7989fb42d2ee29de1", "is_disabled": 0, "rental_uris": {"android": "https://dc.lft.to/lastmile_qr_scan", "ios": "https://dc.lft.to/lastmile_qr_scan"}, "fusion_lon": 0.0, "lat": 38.91515183333333, "bike_id": "29ca4c21300a48f7989fb42d2ee29de1", "type": "electric_scooter", "is_reserved": 0, "lon": -77.01982433333333}, {"fusion_lat": 0.0, "name": "150cf204fb107836555d8fedaa3cbcf4", "is_disabled": 0, "rental_uris": {"android": "https://dc.lft.to/lastmile_qr_scan", "ios": "https://dc.lft.to/lastmile_qr_scan"}, "fusion_lon": 0.0, "lat": 38.9260345, "bike_id": "150cf204fb107836555d8fedaa3cbcf4", "type": "electric_scooter", "is_reserved": 0, "lon": -77.021554}, {"fusion_lat": 0.0, "name": "fb2290bd18482b8d4d17860d2c23f269", "is_disabled": 0, "rental_uris": {"android": "https://dc.lft.to/lastmile_qr_scan", "ios": "https://dc.lft.to/lastmile_qr_scan"}, "fusion_lon": 0.0, "lat": 38.931531166666666, "bike_id": "fb2290bd18482b8d4d17860d2c23f269", "type": "electric_scooter", "is_reserved": 0, "lon": -77.039579}, {"fusion_lat": 0.0, "name": "8f97c2735324cf92620e37e37485d766", "is_disabled": 0, "rental_uris": {"android": "https://dc.lft.to/lastmile_qr_scan", "ios": "https://dc.lft.to/lastmile_qr_scan"}, "fusion_lon": 0.0, "lat": 38.911095, "bike_id": "8f97c2735324cf92620e37e37485d766", "type": "electric_scooter", "is_reserved": 0, "lon": -77.01002216666667}, {"fusion_lat": 0.0, "name": "f29fd17ae247ad9ae4a5db2fa29bc746", "is_disabled": 0, "rental_uris": {"android": "https://dc.lft.to/lastmile_qr_scan", "ios": "https://dc.lft.to/lastmile_qr_scan"}, "fusion_lon": 0.0, "lat": 38.89013033333333, "bike_id": "f29fd17ae247ad9ae4a5db2fa29bc746", "type": "electric_scooter", "is_reserved": 0, "lon": -76.93741083333333}, {"fusion_lat": 0.0, "name": "33669f7606763893dce6f1fc6bf37628", "is_disabled": 0, "rental_uris": {"android": "https://dc.lft.to/lastmile_qr_scan", "ios": "https://dc.lft.to/lastmile_qr_scan"}, "fusion_lon": 0.0, "lat": 38.908326833333334, "bike_id": "33669f7606763893dce6f1fc6bf37628", "type": "electric_scooter", "is_reserved": 0, "lon": -77.00121016666667}, {"fusion_lat": 0.0, "name": "002063e66177469e45a78a7bed402961", "is_disabled": 0, "rental_uris": {"android": "https://dc.lft.to/lastmile_qr_scan", "ios": "https://dc.lft.to/lastmile_qr_scan"}, "fusion_lon": 0.0, "lat": 38.89731233333333, "bike_id": "002063e66177469e45a78a7bed402961", "type": "electric_scooter", "is_reserved": 0, "lon": -77.02787416666666}, {"fusion_lat": 0.0, "name": "88ec32df750b100623cd1b8844af3b53", "is_disabled": 0, "rental_uris": {"android": "https://dc.lft.to/lastmile_qr_scan", "ios": "https://dc.lft.to/lastmile_qr_scan"}, "fusion_lon": 0.0, "lat": 38.887361, "bike_id": "88ec32df750b100623cd1b8844af3b53", "type": "electric_bike", "is_reserved": 0, "lon": -77.0153175}, {"fusion_lat": 0.0, "name": "9946e0bb6cb58984f12872d8f7eeaab4", "is_disabled": 0, "rental_uris": {"android": "https://dc.lft.to/lastmile_qr_scan", "ios": "https://dc.lft.to/lastmile_qr_scan"}, "fusion_lon": 0.0, "lat": 38.896078333333335, "bike_id": "9946e0bb6cb58984f12872d8f7eeaab4", "type": "electric_scooter", "is_reserved": 0, "lon": -76.9811635}, {"fusion_lat": 0.0, "name": "4ff0c6ef0826f373073dbcd87d3f7924", "is_disabled": 0, "rental_uris": {"android": "https://dc.lft.to/lastmile_qr_scan", "ios": "https://dc.lft.to/lastmile_qr_scan"}, "fusion_lon": 0.0, "lat": 38.887387, "bike_id": "4ff0c6ef0826f373073dbcd87d3f7924", "type": "electric_scooter", "is_reserved": 0, "lon": -77.02211433333333}, {"fusion_lat": 0.0, "name": "e355d851b2a59ba466ee7167c4bb3b4c", "is_disabled": 0, "rental_uris": {"android": "https://dc.lft.to/lastmile_qr_scan", "ios": "https://dc.lft.to/lastmile_qr_scan"}, "fusion_lon": 0.0, "lat": 38.89619716666667, "bike_id": "e355d851b2a59ba466ee7167c4bb3b4c", "type": "electric_scooter", "is_reserved": 0, "lon": -77.02290683333334}, {"fusion_lat": 0.0, "name": "928b770d832295974391bcaec4e58562", "is_disabled": 0, "rental_uris": {"android": "https://dc.lft.to/lastmile_qr_scan", "ios": "https://dc.lft.to/lastmile_qr_scan"}, "fusion_lon": 0.0, "lat": 38.907267, "bike_id": "928b770d832295974391bcaec4e58562", "type": "electric_scooter", "is_reserved": 0, "lon": -77.0477165}, {"fusion_lat": 0.0, "name": "9b3960033264240c173e206f468ad81b", "is_disabled": 0, "rental_uris": {"android": "https://dc.lft.to/lastmile_qr_scan", "ios": "https://dc.lft.to/lastmile_qr_scan"}, "fusion_lon": 0.0, "lat": 38.93981616666667, "bike_id": "9b3960033264240c173e206f468ad81b", "type": "electric_scooter", "is_reserved": 0, "lon": -77.028732}, {"fusion_lat": 0.0, "name": "4587ed18889e2a527d1384483ed18054", "is_disabled": 0, "rental_uris": {"android": "https://dc.lft.to/lastmile_qr_scan", "ios": "https://dc.lft.to/lastmile_qr_scan"}, "fusion_lon": 0.0, "lat": 38.90667666666667, "bike_id": "4587ed18889e2a527d1384483ed18054", "type": "electric_scooter", "is_reserved": 0, "lon": -77.02389766666667}, {"fusion_lat": 0.0, "name": "540eea48c50ab415105362b3810595bf", "is_disabled": 0, "rental_uris": {"android": "https://dc.lft.to/lastmile_qr_scan", "ios": "https://dc.lft.to/lastmile_qr_scan"}, "fusion_lon": 0.0, "lat": 38.9427325, "bike_id": "540eea48c50ab415105362b3810595bf", "type": "electric_scooter", "is_reserved": 0, "lon": -77.0325735}, {"fusion_lat": 0.0, "name": "7b861a4c7c0ef5cb9c5f53f5dfa6a27e", "is_disabled": 0, "rental_uris": {"android": "https://dc.lft.to/lastmile_qr_scan", "ios": "https://dc.lft.to/lastmile_qr_scan"}, "fusion_lon": 0.0, "lat": 38.915655666666666, "bike_id": "7b861a4c7c0ef5cb9c5f53f5dfa6a27e", "type": "electric_scooter", "is_reserved": 0, "lon": -77.01139616666667}, {"fusion_lat": 0.0, "name": "064c0f281805617c67e5aa9e0874c8c9", "is_disabled": 0, "rental_uris": {"android": "https://dc.lft.to/lastmile_qr_scan", "ios": "https://dc.lft.to/lastmile_qr_scan"}, "fusion_lon": 0.0, "lat": 38.89728366666667, "bike_id": "064c0f281805617c67e5aa9e0874c8c9", "type": "electric_scooter", "is_reserved": 0, "lon": -77.02151933333333}, {"fusion_lat": 0.0, "name": "82169191f88231b5aa4bfff4964b3a03", "is_disabled": 0, "rental_uris": {"android": "https://dc.lft.to/lastmile_qr_scan", "ios": "https://dc.lft.to/lastmile_qr_scan"}, "fusion_lon": 0.0, "lat": 38.90364533333333, "bike_id": "82169191f88231b5aa4bfff4964b3a03", "type": "electric_scooter", "is_reserved": 0, "lon": -77.0547745}, {"fusion_lat": 0.0, "name": "384e31dccb02722f465772243589ddde", "is_disabled": 0, "rental_uris": {"android": "https://dc.lft.to/lastmile_qr_scan", "ios": "https://dc.lft.to/lastmile_qr_scan"}, "fusion_lon": 0.0, "lat": 38.835104, "bike_id": "384e31dccb02722f465772243589ddde", "type": "electric_bike", "is_reserved": 0, "lon": -76.98677716666667}, {"fusion_lat": 0.0, "name": "0b1677fd05ee6eee40e1d766069834c8", "is_disabled": 0, "rental_uris": {"android": "https://dc.lft.to/lastmile_qr_scan", "ios": "https://dc.lft.to/lastmile_qr_scan"}, "fusion_lon": 0.0, "lat": 38.883946333333334, "bike_id": "0b1677fd05ee6eee40e1d766069834c8", "type": "electric_scooter", "is_reserved": 0, "lon": -76.985845}, {"fusion_lat": 0.0, "name": "421c3e8004f4f8979cc5e9eacec69e2b", "is_disabled": 0, "rental_uris": {"android": "https://dc.lft.to/lastmile_qr_scan", "ios": "https://dc.lft.to/lastmile_qr_scan"}, "fusion_lon": 0.0, "lat": 38.88676733333333, "bike_id": "421c3e8004f4f8979cc5e9eacec69e2b", "type": "electric_scooter", "is_reserved": 0, "lon": -77.013706}, {"fusion_lat": 0.0, "name": "2021834ecd4446e9448d55582182b586", "is_disabled": 0, "rental_uris": {"android": "https://dc.lft.to/lastmile_qr_scan", "ios": "https://dc.lft.to/lastmile_qr_scan"}, "fusion_lon": 0.0, "lat": 38.94009966666667, "bike_id": "2021834ecd4446e9448d55582182b586", "type": "electric_scooter", "is_reserved": 0, "lon": -77.08417033333333}, {"fusion_lat": 0.0, "name": "0e445da949304898aa14df000f9114b8", "is_disabled": 0, "rental_uris": {"android": "https://dc.lft.to/lastmile_qr_scan", "ios": "https://dc.lft.to/lastmile_qr_scan"}, "fusion_lon": 0.0, "lat": 38.9003055, "bike_id": "0e445da949304898aa14df000f9114b8", "type": "electric_scooter", "is_reserved": 0, "lon": -77.01626933333333}, {"fusion_lat": 0.0, "name": "2a3c8faa4d4e1d330d64f516d8fa8106", "is_disabled": 0, "rental_uris": {"android": "https://dc.lft.to/lastmile_qr_scan", "ios": "https://dc.lft.to/lastmile_qr_scan"}, "fusion_lon": 0.0, "lat": 38.90765283333333, "bike_id": "2a3c8faa4d4e1d330d64f516d8fa8106", "type": "electric_scooter", "is_reserved": 0, "lon": -77.05593783333333}, {"fusion_lat": 0.0, "name": "413577d85000bb3fabe7f32b8e0d07df", "is_disabled": 0, "rental_uris": {"android": "https://dc.lft.to/lastmile_qr_scan", "ios": "https://dc.lft.to/lastmile_qr_scan"}, "fusion_lon": 0.0, "lat": 38.90989, "bike_id": "413577d85000bb3fabe7f32b8e0d07df", "type": "electric_scooter", "is_reserved": 0, "lon": -77.03197483333334}, {"fusion_lat": 0.0, "name": "ce06eb4458c2a7911c04d2a40a8f8b6a", "is_disabled": 0, "rental_uris": {"android": "https://dc.lft.to/lastmile_qr_scan", "ios": "https://dc.lft.to/lastmile_qr_scan"}, "fusion_lon": 0.0, "lat": 38.90064783333333, "bike_id": "ce06eb4458c2a7911c04d2a40a8f8b6a", "type": "electric_scooter", "is_reserved": 0, "lon": -76.93383816666666}, {"fusion_lat": 0.0, "name": "44df74dc180309889088d293cfebee93", "is_disabled": 0, "rental_uris": {"android": "https://dc.lft.to/lastmile_qr_scan", "ios": "https://dc.lft.to/lastmile_qr_scan"}, "fusion_lon": 0.0, "lat": 38.9485915, "bike_id": "44df74dc180309889088d293cfebee93", "type": "electric_scooter", "is_reserved": 0, "lon": -77.025676}, {"fusion_lat": 0.0, "name": "1319c4c84d09c259b443f209d24e2095", "is_disabled": 0, "rental_uris": {"android": "https://dc.lft.to/lastmile_qr_scan", "ios": "https://dc.lft.to/lastmile_qr_scan"}, "fusion_lon": 0.0, "lat": 38.887363666666666, "bike_id": "1319c4c84d09c259b443f209d24e2095", "type": "electric_scooter", "is_reserved": 0, "lon": -77.03182483333333}, {"fusion_lat": 0.0, "name": "7067a7823016896954069c4ed4c2bb5a", "is_disabled": 0, "rental_uris": {"android": "https://dc.lft.to/lastmile_qr_scan", "ios": "https://dc.lft.to/lastmile_qr_scan"}, "fusion_lon": 0.0, "lat": 38.90721533333333, "bike_id": "7067a7823016896954069c4ed4c2bb5a", "type": "electric_scooter", "is_reserved": 0, "lon": -77.000685}, {"fusion_lat": 0.0, "name": "ab3e2b24700dac72782343bf32d861c6", "is_disabled": 0, "rental_uris": {"android": "https://dc.lft.to/lastmile_qr_scan", "ios": "https://dc.lft.to/lastmile_qr_scan"}, "fusion_lon": 0.0, "lat": 38.8786835, "bike_id": "ab3e2b24700dac72782343bf32d861c6", "type": "electric_bike", "is_reserved": 0, "lon": -77.023035}, {"fusion_lat": 0.0, "name": "d60ba2218fd32ffe5b20bb848755f160", "is_disabled": 0, "rental_uris": {"android": "https://dc.lft.to/lastmile_qr_scan", "ios": "https://dc.lft.to/lastmile_qr_scan"}, "fusion_lon": 0.0, "lat": 38.923874166666664, "bike_id": "d60ba2218fd32ffe5b20bb848755f160", "type": "electric_scooter", "is_reserved": 0, "lon": -77.04026683333333}, {"fusion_lat": 0.0, "name": "27d0aaad94a90671595567733e868739", "is_disabled": 0, "rental_uris": {"android": "https://dc.lft.to/lastmile_qr_scan", "ios": "https://dc.lft.to/lastmile_qr_scan"}, "fusion_lon": 0.0, "lat": 38.90805833333334, "bike_id": "27d0aaad94a90671595567733e868739", "type": "electric_scooter", "is_reserved": 0, "lon": -77.0416045}, {"fusion_lat": 0.0, "name": "bdd5ae63bde62049ace254ec9b173a13", "is_disabled": 0, "rental_uris": {"android": "https://dc.lft.to/lastmile_qr_scan", "ios": "https://dc.lft.to/lastmile_qr_scan"}, "fusion_lon": 0.0, "lat": 38.90691666666667, "bike_id": "bdd5ae63bde62049ace254ec9b173a13", "type": "electric_scooter", "is_reserved": 0, "lon": -77.06517583333333}, {"fusion_lat": 0.0, "name": "b0ae452c382a45f2818ce69d5c9e04bc", "is_disabled": 0, "rental_uris": {"android": "https://dc.lft.to/lastmile_qr_scan", "ios": "https://dc.lft.to/lastmile_qr_scan"}, "fusion_lon": 0.0, "lat": 38.918165333333334, "bike_id": "b0ae452c382a45f2818ce69d5c9e04bc", "type": "electric_scooter", "is_reserved": 0, "lon": -77.025085}, {"fusion_lat": 0.0, "name": "3a33cc86061dc815998e7822d3d651fa", "is_disabled": 0, "rental_uris": {"android": "https://dc.lft.to/lastmile_qr_scan", "ios": "https://dc.lft.to/lastmile_qr_scan"}, "fusion_lon": 0.0, "lat": 38.91817733333333, "bike_id": "3a33cc86061dc815998e7822d3d651fa", "type": "electric_scooter", "is_reserved": 0, "lon": -77.02613416666667}, {"fusion_lat": 0.0, "name": "6ea19a0ce57f65a63fa73c8de759bc89", "is_disabled": 0, "rental_uris": {"android": "https://dc.lft.to/lastmile_qr_scan", "ios": "https://dc.lft.to/lastmile_qr_scan"}, "fusion_lon": 0.0, "lat": 38.95113116666667, "bike_id": "6ea19a0ce57f65a63fa73c8de759bc89", "type": "electric_scooter", "is_reserved": 0, "lon": -77.05868583333333}, {"fusion_lat": 0.0, "name": "8b31962728149342d2215233362ab111", "is_disabled": 0, "rental_uris": {"android": "https://dc.lft.to/lastmile_qr_scan", "ios": "https://dc.lft.to/lastmile_qr_scan"}, "fusion_lon": 0.0, "lat": 38.91712583333333, "bike_id": "8b31962728149342d2215233362ab111", "type": "electric_scooter", "is_reserved": 0, "lon": -77.037189}, {"fusion_lat": 0.0, "name": "00974d0d155e2e7cad193750434a37a2", "is_disabled": 0, "rental_uris": {"android": "https://dc.lft.to/lastmile_qr_scan", "ios": "https://dc.lft.to/lastmile_qr_scan"}, "fusion_lon": 0.0, "lat": 38.91506783333333, "bike_id": "00974d0d155e2e7cad193750434a37a2", "type": "electric_scooter", "is_reserved": 0, "lon": -77.0327295}, {"fusion_lat": 0.0, "name": "8ea07ce2efaa4e84241f560886cce74b", "is_disabled": 0, "rental_uris": {"android": "https://dc.lft.to/lastmile_qr_scan", "ios": "https://dc.lft.to/lastmile_qr_scan"}, "fusion_lon": 0.0, "lat": 38.9171695, "bike_id": "8ea07ce2efaa4e84241f560886cce74b", "type": "electric_scooter", "is_reserved": 0, "lon": -77.03253133333334}, {"fusion_lat": 0.0, "name": "ad74d2f34daddf5f9f809c87e6367017", "is_disabled": 0, "rental_uris": {"android": "https://dc.lft.to/lastmile_qr_scan", "ios": "https://dc.lft.to/lastmile_qr_scan"}, "fusion_lon": 0.0, "lat": 38.93237033333333, "bike_id": "ad74d2f34daddf5f9f809c87e6367017", "type": "electric_bike", "is_reserved": 0, "lon": -76.97424416666667}, {"fusion_lat": 0.0, "name": "70aa8186878edc97f29d9155ee0e5ac9", "is_disabled": 0, "rental_uris": {"android": "https://dc.lft.to/lastmile_qr_scan", "ios": "https://dc.lft.to/lastmile_qr_scan"}, "fusion_lon": 0.0, "lat": 38.95477183333333, "bike_id": "70aa8186878edc97f29d9155ee0e5ac9", "type": "electric_scooter", "is_reserved": 0, "lon": -77.077757}, {"fusion_lat": 0.0, "name": "c707ff609a71822d15113de6a63a62d2", "is_disabled": 0, "rental_uris": {"android": "https://dc.lft.to/lastmile_qr_scan", "ios": "https://dc.lft.to/lastmile_qr_scan"}, "fusion_lon": 0.0, "lat": 38.94305766666667, "bike_id": "c707ff609a71822d15113de6a63a62d2", "type": "electric_bike", "is_reserved": 0, "lon": -77.02068616666666}, {"fusion_lat": 0.0, "name": "1d4d702f99344619a8988cc61eec0ab1", "is_disabled": 0, "rental_uris": {"android": "https://dc.lft.to/lastmile_qr_scan", "ios": "https://dc.lft.to/lastmile_qr_scan"}, "fusion_lon": 0.0, "lat": 38.897487, "bike_id": "1d4d702f99344619a8988cc61eec0ab1", "type": "electric_scooter", "is_reserved": 0, "lon": -77.0074815}, {"fusion_lat": 0.0, "name": "0a5bd719a97b3661521c87e282ee523b", "is_disabled": 0, "rental_uris": {"android": "https://dc.lft.to/lastmile_qr_scan", "ios": "https://dc.lft.to/lastmile_qr_scan"}, "fusion_lon": 0.0, "lat": 38.86626616666667, "bike_id": "0a5bd719a97b3661521c87e282ee523b", "type": "electric_scooter", "is_reserved": 0, "lon": -76.987168}, {"fusion_lat": 0.0, "name": "028b124e8c800d5e7ea7b917694540b8", "is_disabled": 0, "rental_uris": {"android": "https://dc.lft.to/lastmile_qr_scan", "ios": "https://dc.lft.to/lastmile_qr_scan"}, "fusion_lon": 0.0, "lat": 38.9348765, "bike_id": "028b124e8c800d5e7ea7b917694540b8", "type": "electric_scooter", "is_reserved": 0, "lon": -77.03284516666666}, {"fusion_lat": 0.0, "name": "9a498016ce896b85967ec4a8320632fd", "is_disabled": 0, "rental_uris": {"android": "https://dc.lft.to/lastmile_qr_scan", "ios": "https://dc.lft.to/lastmile_qr_scan"}, "fusion_lon": 0.0, "lat": 38.911139, "bike_id": "9a498016ce896b85967ec4a8320632fd", "type": "electric_scooter", "is_reserved": 0, "lon": -77.04504866666667}, {"fusion_lat": 0.0, "name": "677ce1c25b2be197a1e7bd8a848f27d6", "is_disabled": 0, "rental_uris": {"android": "https://dc.lft.to/lastmile_qr_scan", "ios": "https://dc.lft.to/lastmile_qr_scan"}, "fusion_lon": 0.0, "lat": 38.905404833333336, "bike_id": "677ce1c25b2be197a1e7bd8a848f27d6", "type": "electric_scooter", "is_reserved": 0, "lon": -77.06272083333333}, {"fusion_lat": 0.0, "name": "2079af2f0810908c8417ba2ce6a9c8e1", "is_disabled": 0, "rental_uris": {"android": "https://dc.lft.to/lastmile_qr_scan", "ios": "https://dc.lft.to/lastmile_qr_scan"}, "fusion_lon": 0.0, "lat": 38.87453766666667, "bike_id": "2079af2f0810908c8417ba2ce6a9c8e1", "type": "electric_scooter", "is_reserved": 0, "lon": -77.00922966666667}, {"fusion_lat": 0.0, "name": "0fe190f68d9e146842dc816126feaa51", "is_disabled": 0, "rental_uris": {"android": "https://dc.lft.to/lastmile_qr_scan", "ios": "https://dc.lft.to/lastmile_qr_scan"}, "fusion_lon": 0.0, "lat": 38.91835733333333, "bike_id": "0fe190f68d9e146842dc816126feaa51", "type": "electric_scooter", "is_reserved": 0, "lon": -77.022934}, {"fusion_lat": 0.0, "name": "85ffdaed93636ad937862cda9d24ca16", "is_disabled": 0, "rental_uris": {"android": "https://dc.lft.to/lastmile_qr_scan", "ios": "https://dc.lft.to/lastmile_qr_scan"}, "fusion_lon": 0.0, "lat": 38.912669, "bike_id": "85ffdaed93636ad937862cda9d24ca16", "type": "electric_scooter", "is_reserved": 0, "lon": -77.02866716666666}, {"fusion_lat": 0.0, "name": "be57526eb7e251673772d0d1d35a5363", "is_disabled": 0, "rental_uris": {"android": "https://dc.lft.to/lastmile_qr_scan", "ios": "https://dc.lft.to/lastmile_qr_scan"}, "fusion_lon": 0.0, "lat": 38.91219133333333, "bike_id": "be57526eb7e251673772d0d1d35a5363", "type": "electric_scooter", "is_reserved": 0, "lon": -77.04500116666667}, {"fusion_lat": 0.0, "name": "bd8c612c1c163e083105ed5a626d11be", "is_disabled": 0, "rental_uris": {"android": "https://dc.lft.to/lastmile_qr_scan", "ios": "https://dc.lft.to/lastmile_qr_scan"}, "fusion_lon": 0.0, "lat": 38.910369333333335, "bike_id": "bd8c612c1c163e083105ed5a626d11be", "type": "electric_scooter", "is_reserved": 0, "lon": -77.03825633333334}, {"fusion_lat": 0.0, "name": "a997aa7b823fdaa526592e4bf5e1af50", "is_disabled": 0, "rental_uris": {"android": "https://dc.lft.to/lastmile_qr_scan", "ios": "https://dc.lft.to/lastmile_qr_scan"}, "fusion_lon": 0.0, "lat": 38.89224633333333, "bike_id": "a997aa7b823fdaa526592e4bf5e1af50", "type": "electric_scooter", "is_reserved": 0, "lon": -77.03221183333333}, {"fusion_lat": 0.0, "name": "d389fabe04b9062598e4707cf5c99bd3", "is_disabled": 0, "rental_uris": {"android": "https://dc.lft.to/lastmile_qr_scan", "ios": "https://dc.lft.to/lastmile_qr_scan"}, "fusion_lon": 0.0, "lat": 38.90353966666667, "bike_id": "d389fabe04b9062598e4707cf5c99bd3", "type": "electric_scooter", "is_reserved": 0, "lon": -77.0627025}, {"fusion_lat": 0.0, "name": "bee6ebac1f5b4150d969ce88c08b2644", "is_disabled": 0, "rental_uris": {"android": "https://dc.lft.to/lastmile_qr_scan", "ios": "https://dc.lft.to/lastmile_qr_scan"}, "fusion_lon": 0.0, "lat": 38.876460333333334, "bike_id": "bee6ebac1f5b4150d969ce88c08b2644", "type": "electric_scooter", "is_reserved": 0, "lon": -77.007319}, {"fusion_lat": 0.0, "name": "c8cb753afac52fefdfd7af2ce120dbb8", "is_disabled": 0, "rental_uris": {"android": "https://dc.lft.to/lastmile_qr_scan", "ios": "https://dc.lft.to/lastmile_qr_scan"}, "fusion_lon": 0.0, "lat": 38.865208833333334, "bike_id": "c8cb753afac52fefdfd7af2ce120dbb8", "type": "electric_bike", "is_reserved": 0, "lon": -76.9733605}, {"fusion_lat": 0.0, "name": "38f56bd9a17e81aa0a4de04885d13e0f", "is_disabled": 0, "rental_uris": {"android": "https://dc.lft.to/lastmile_qr_scan", "ios": "https://dc.lft.to/lastmile_qr_scan"}, "fusion_lon": 0.0, "lat": 38.928124833333335, "bike_id": "38f56bd9a17e81aa0a4de04885d13e0f", "type": "electric_scooter", "is_reserved": 0, "lon": -77.043581}, {"fusion_lat": 0.0, "name": "21ff98bd9ff91482dec3c2e82cff7052", "is_disabled": 0, "rental_uris": {"android": "https://dc.lft.to/lastmile_qr_scan", "ios": "https://dc.lft.to/lastmile_qr_scan"}, "fusion_lon": 0.0, "lat": 38.93883066666667, "bike_id": "21ff98bd9ff91482dec3c2e82cff7052", "type": "electric_scooter", "is_reserved": 0, "lon": -77.0246535}, {"fusion_lat": 0.0, "name": "3a0480933062f65ea811f33e7dec861a", "is_disabled": 0, "rental_uris": {"android": "https://dc.lft.to/lastmile_qr_scan", "ios": "https://dc.lft.to/lastmile_qr_scan"}, "fusion_lon": 0.0, "lat": 38.916922, "bike_id": "3a0480933062f65ea811f33e7dec861a", "type": "electric_scooter", "is_reserved": 0, "lon": -77.03216533333334}, {"fusion_lat": 0.0, "name": "6dce6c7a0bb7e6dc270a4b6615c4271c", "is_disabled": 0, "rental_uris": {"android": "https://dc.lft.to/lastmile_qr_scan", "ios": "https://dc.lft.to/lastmile_qr_scan"}, "fusion_lon": 0.0, "lat": 38.910149, "bike_id": "6dce6c7a0bb7e6dc270a4b6615c4271c", "type": "electric_scooter", "is_reserved": 0, "lon": -77.02716816666667}, {"fusion_lat": 0.0, "name": "5cf41de48fa15e96902662616da131a3", "is_disabled": 0, "rental_uris": {"android": "https://dc.lft.to/lastmile_qr_scan", "ios": "https://dc.lft.to/lastmile_qr_scan"}, "fusion_lon": 0.0, "lat": 38.9148515, "bike_id": "5cf41de48fa15e96902662616da131a3", "type": "electric_scooter", "is_reserved": 0, "lon": -77.041576}, {"fusion_lat": 0.0, "name": "8f1ef24a8e5e2c8e16dcf2a41b6503bd", "is_disabled": 0, "rental_uris": {"android": "https://dc.lft.to/lastmile_qr_scan", "ios": "https://dc.lft.to/lastmile_qr_scan"}, "fusion_lon": 0.0, "lat": 38.849132166666664, "bike_id": "8f1ef24a8e5e2c8e16dcf2a41b6503bd", "type": "electric_bike", "is_reserved": 0, "lon": -77.0998045}, {"fusion_lat": 0.0, "name": "142a67fdaabeb429f35b8447ad4ee89d", "is_disabled": 0, "rental_uris": {"android": "https://dc.lft.to/lastmile_qr_scan", "ios": "https://dc.lft.to/lastmile_qr_scan"}, "fusion_lon": 0.0, "lat": 38.96930616666667, "bike_id": "142a67fdaabeb429f35b8447ad4ee89d", "type": "electric_bike", "is_reserved": 0, "lon": -77.02618583333333}, {"fusion_lat": 0.0, "name": "4386d5b432f110da2d451b773315c40e", "is_disabled": 0, "rental_uris": {"android": "https://dc.lft.to/lastmile_qr_scan", "ios": "https://dc.lft.to/lastmile_qr_scan"}, "fusion_lon": 0.0, "lat": 38.90483916666667, "bike_id": "4386d5b432f110da2d451b773315c40e", "type": "electric_scooter", "is_reserved": 0, "lon": -77.0296365}, {"fusion_lat": 0.0, "name": "4cee0d0f32ff10611a964c258ab59f59", "is_disabled": 0, "rental_uris": {"android": "https://dc.lft.to/lastmile_qr_scan", "ios": "https://dc.lft.to/lastmile_qr_scan"}, "fusion_lon": 0.0, "lat": 38.87679266666667, "bike_id": "4cee0d0f32ff10611a964c258ab59f59", "type": "electric_scooter", "is_reserved": 0, "lon": -77.00735366666666}, {"fusion_lat": 0.0, "name": "c4f873b66f505a64e14c88b376c0b773", "is_disabled": 0, "rental_uris": {"android": "https://dc.lft.to/lastmile_qr_scan", "ios": "https://dc.lft.to/lastmile_qr_scan"}, "fusion_lon": 0.0, "lat": 38.91930133333334, "bike_id": "c4f873b66f505a64e14c88b376c0b773", "type": "electric_scooter", "is_reserved": 0, "lon": -77.031877}, {"fusion_lat": 0.0, "name": "c176a1a2980fbdd7a25f922e1a6b7617", "is_disabled": 0, "rental_uris": {"android": "https://dc.lft.to/lastmile_qr_scan", "ios": "https://dc.lft.to/lastmile_qr_scan"}, "fusion_lon": 0.0, "lat": 38.91043366666667, "bike_id": "c176a1a2980fbdd7a25f922e1a6b7617", "type": "electric_scooter", "is_reserved": 0, "lon": -77.0333245}, {"fusion_lat": 0.0, "name": "43fbc441a1f02eaaff61f19968e237ec", "is_disabled": 0, "rental_uris": {"android": "https://dc.lft.to/lastmile_qr_scan", "ios": "https://dc.lft.to/lastmile_qr_scan"}, "fusion_lon": 0.0, "lat": 38.8999135, "bike_id": "43fbc441a1f02eaaff61f19968e237ec", "type": "electric_scooter", "is_reserved": 0, "lon": -77.05503216666666}, {"fusion_lat": 0.0, "name": "264ef3a7dd1e6a95b446ff4e6cf62a6c", "is_disabled": 0, "rental_uris": {"android": "https://dc.lft.to/lastmile_qr_scan", "ios": "https://dc.lft.to/lastmile_qr_scan"}, "fusion_lon": 0.0, "lat": 38.92871916666667, "bike_id": "264ef3a7dd1e6a95b446ff4e6cf62a6c", "type": "electric_scooter", "is_reserved": 0, "lon": -77.03238683333333}, {"fusion_lat": 0.0, "name": "e72adc64aa6b57f7fbfafd5d1651c62f", "is_disabled": 0, "rental_uris": {"android": "https://dc.lft.to/lastmile_qr_scan", "ios": "https://dc.lft.to/lastmile_qr_scan"}, "fusion_lon": 0.0, "lat": 38.91638833333333, "bike_id": "e72adc64aa6b57f7fbfafd5d1651c62f", "type": "electric_scooter", "is_reserved": 0, "lon": -77.04798066666666}, {"fusion_lat": 0.0, "name": "491ffa1f48b8784d2904d8a5f6599d80", "is_disabled": 0, "rental_uris": {"android": "https://dc.lft.to/lastmile_qr_scan", "ios": "https://dc.lft.to/lastmile_qr_scan"}, "fusion_lon": 0.0, "lat": 39.0360965, "bike_id": "491ffa1f48b8784d2904d8a5f6599d80", "type": "electric_bike", "is_reserved": 0, "lon": -77.05545016666666}, {"fusion_lat": 0.0, "name": "99cded6c564c2d6a4da135514566d188", "is_disabled": 0, "rental_uris": {"android": "https://dc.lft.to/lastmile_qr_scan", "ios": "https://dc.lft.to/lastmile_qr_scan"}, "fusion_lon": 0.0, "lat": 38.91473883333333, "bike_id": "99cded6c564c2d6a4da135514566d188", "type": "electric_scooter", "is_reserved": 0, "lon": -77.042814}, {"fusion_lat": 0.0, "name": "a53882071128e652f8d7a2335982b85b", "is_disabled": 0, "rental_uris": {"android": "https://dc.lft.to/lastmile_qr_scan", "ios": "https://dc.lft.to/lastmile_qr_scan"}, "fusion_lon": 0.0, "lat": 38.92080083333333, "bike_id": "a53882071128e652f8d7a2335982b85b", "type": "electric_bike", "is_reserved": 0, "lon": -77.07188266666667}, {"fusion_lat": 0.0, "name": "cff76420c617a4d298329ac58e80685f", "is_disabled": 0, "rental_uris": {"android": "https://dc.lft.to/lastmile_qr_scan", "ios": "https://dc.lft.to/lastmile_qr_scan"}, "fusion_lon": 0.0, "lat": 38.89221333333333, "bike_id": "cff76420c617a4d298329ac58e80685f", "type": "electric_scooter", "is_reserved": 0, "lon": -77.02413783333333}, {"fusion_lat": 0.0, "name": "f30d782d586a9e2d2dfe0efa7aa3720e", "is_disabled": 0, "rental_uris": {"android": "https://dc.lft.to/lastmile_qr_scan", "ios": "https://dc.lft.to/lastmile_qr_scan"}, "fusion_lon": 0.0, "lat": 38.92646383333334, "bike_id": "f30d782d586a9e2d2dfe0efa7aa3720e", "type": "electric_scooter", "is_reserved": 0, "lon": -77.03855766666666}, {"fusion_lat": 0.0, "name": "72bc3009d0dd45b87a98f2a32520005e", "is_disabled": 0, "rental_uris": {"android": "https://dc.lft.to/lastmile_qr_scan", "ios": "https://dc.lft.to/lastmile_qr_scan"}, "fusion_lon": 0.0, "lat": 38.926193, "bike_id": "72bc3009d0dd45b87a98f2a32520005e", "type": "electric_scooter", "is_reserved": 0, "lon": -77.04316583333333}, {"fusion_lat": 0.0, "name": "21ce9c046f61ef8c40d748f47a0936ab", "is_disabled": 0, "rental_uris": {"android": "https://dc.lft.to/lastmile_qr_scan", "ios": "https://dc.lft.to/lastmile_qr_scan"}, "fusion_lon": 0.0, "lat": 38.919982166666664, "bike_id": "21ce9c046f61ef8c40d748f47a0936ab", "type": "electric_scooter", "is_reserved": 0, "lon": -77.03282016666667}, {"fusion_lat": 0.0, "name": "3c5547ae3d2b767d80bfb892afa3799e", "is_disabled": 0, "rental_uris": {"android": "https://dc.lft.to/lastmile_qr_scan", "ios": "https://dc.lft.to/lastmile_qr_scan"}, "fusion_lon": 0.0, "lat": 38.90024783333333, "bike_id": "3c5547ae3d2b767d80bfb892afa3799e", "type": "electric_scooter", "is_reserved": 0, "lon": -77.00029816666667}, {"fusion_lat": 0.0, "name": "a5e4236bddb5211bacb828cc52442a7c", "is_disabled": 0, "rental_uris": {"android": "https://dc.lft.to/lastmile_qr_scan", "ios": "https://dc.lft.to/lastmile_qr_scan"}, "fusion_lon": 0.0, "lat": 38.929801833333336, "bike_id": "a5e4236bddb5211bacb828cc52442a7c", "type": "electric_scooter", "is_reserved": 0, "lon": -77.032448}, {"fusion_lat": 0.0, "name": "908102d9c947575be50160f881ae280d", "is_disabled": 0, "rental_uris": {"android": "https://dc.lft.to/lastmile_qr_scan", "ios": "https://dc.lft.to/lastmile_qr_scan"}, "fusion_lon": 0.0, "lat": 38.919884833333334, "bike_id": "908102d9c947575be50160f881ae280d", "type": "electric_scooter", "is_reserved": 0, "lon": -77.07103283333333}, {"fusion_lat": 0.0, "name": "b025b69c9381c3fe6b20328d6d5329b9", "is_disabled": 0, "rental_uris": {"android": "https://dc.lft.to/lastmile_qr_scan", "ios": "https://dc.lft.to/lastmile_qr_scan"}, "fusion_lon": 0.0, "lat": 38.89699183333333, "bike_id": "b025b69c9381c3fe6b20328d6d5329b9", "type": "electric_scooter", "is_reserved": 0, "lon": -77.02380833333333}, {"fusion_lat": 0.0, "name": "5991ae3fcb78929d688026eb660f4b41", "is_disabled": 0, "rental_uris": {"android": "https://dc.lft.to/lastmile_qr_scan", "ios": "https://dc.lft.to/lastmile_qr_scan"}, "fusion_lon": 0.0, "lat": 38.92812383333333, "bike_id": "5991ae3fcb78929d688026eb660f4b41", "type": "electric_scooter", "is_reserved": 0, "lon": -77.04354133333334}, {"fusion_lat": 0.0, "name": "a23b76c04c332d9c8d9e46bade7da2e8", "is_disabled": 0, "rental_uris": {"android": "https://dc.lft.to/lastmile_qr_scan", "ios": "https://dc.lft.to/lastmile_qr_scan"}, "fusion_lon": 0.0, "lat": 38.96667983333333, "bike_id": "a23b76c04c332d9c8d9e46bade7da2e8", "type": "electric_bike", "is_reserved": 0, "lon": -76.97446466666666}, {"fusion_lat": 0.0, "name": "fc82a9275fd6ebffffda5d616d7ddc8a", "is_disabled": 0, "rental_uris": {"android": "https://dc.lft.to/lastmile_qr_scan", "ios": "https://dc.lft.to/lastmile_qr_scan"}, "fusion_lon": 0.0, "lat": 38.9159995, "bike_id": "fc82a9275fd6ebffffda5d616d7ddc8a", "type": "electric_scooter", "is_reserved": 0, "lon": -77.04906983333333}, {"fusion_lat": 0.0, "name": "84513d531eae0fce8c967aa2403353d1", "is_disabled": 0, "rental_uris": {"android": "https://dc.lft.to/lastmile_qr_scan", "ios": "https://dc.lft.to/lastmile_qr_scan"}, "fusion_lon": 0.0, "lat": 38.93845533333333, "bike_id": "84513d531eae0fce8c967aa2403353d1", "type": "electric_scooter", "is_reserved": 0, "lon": -77.0624975}, {"fusion_lat": 0.0, "name": "67ec94f64bb91cba34e9f32dbd45fe5d", "is_disabled": 0, "rental_uris": {"android": "https://dc.lft.to/lastmile_qr_scan", "ios": "https://dc.lft.to/lastmile_qr_scan"}, "fusion_lon": 0.0, "lat": 38.904765166666664, "bike_id": "67ec94f64bb91cba34e9f32dbd45fe5d", "type": "electric_bike", "is_reserved": 0, "lon": -77.06120466666667}, {"fusion_lat": 0.0, "name": "4ffb85e578de4c38ec71473cfcd1a097", "is_disabled": 0, "rental_uris": {"android": "https://dc.lft.to/lastmile_qr_scan", "ios": "https://dc.lft.to/lastmile_qr_scan"}, "fusion_lon": 0.0, "lat": 38.931141333333336, "bike_id": "4ffb85e578de4c38ec71473cfcd1a097", "type": "electric_scooter", "is_reserved": 0, "lon": -77.02097416666666}, {"fusion_lat": 0.0, "name": "f9c385b4ec089fb587a88e4cf9ebf09d", "is_disabled": 0, "rental_uris": {"android": "https://dc.lft.to/lastmile_qr_scan", "ios": "https://dc.lft.to/lastmile_qr_scan"}, "fusion_lon": 0.0, "lat": 38.89873016666667, "bike_id": "f9c385b4ec089fb587a88e4cf9ebf09d", "type": "electric_scooter", "is_reserved": 0, "lon": -77.04008566666667}, {"fusion_lat": 0.0, "name": "ab67838bc4dc3b171c628736d384689b", "is_disabled": 0, "rental_uris": {"android": "https://dc.lft.to/lastmile_qr_scan", "ios": "https://dc.lft.to/lastmile_qr_scan"}, "fusion_lon": 0.0, "lat": 38.88120033333333, "bike_id": "ab67838bc4dc3b171c628736d384689b", "type": "electric_scooter", "is_reserved": 0, "lon": -77.01661116666666}, {"fusion_lat": 0.0, "name": "5c4e74205ce2f085b36285b092279d56", "is_disabled": 0, "rental_uris": {"android": "https://dc.lft.to/lastmile_qr_scan", "ios": "https://dc.lft.to/lastmile_qr_scan"}, "fusion_lon": 0.0, "lat": 38.9977695, "bike_id": "5c4e74205ce2f085b36285b092279d56", "type": "electric_bike", "is_reserved": 0, "lon": -77.04709866666667}, {"fusion_lat": 0.0, "name": "70279e01bd8d94c2be0a593df6a329b3", "is_disabled": 0, "rental_uris": {"android": "https://dc.lft.to/lastmile_qr_scan", "ios": "https://dc.lft.to/lastmile_qr_scan"}, "fusion_lon": 0.0, "lat": 38.9053145, "bike_id": "70279e01bd8d94c2be0a593df6a329b3", "type": "electric_scooter", "is_reserved": 0, "lon": -77.061402}, {"fusion_lat": 0.0, "name": "e31be49cbf6bf8fe929ef433f80728e7", "is_disabled": 0, "rental_uris": {"android": "https://dc.lft.to/lastmile_qr_scan", "ios": "https://dc.lft.to/lastmile_qr_scan"}, "fusion_lon": 0.0, "lat": 38.93208666666666, "bike_id": "e31be49cbf6bf8fe929ef433f80728e7", "type": "electric_scooter", "is_reserved": 0, "lon": -77.023806}, {"fusion_lat": 0.0, "name": "e7604dab7786647688aca5361ffff578", "is_disabled": 0, "rental_uris": {"android": "https://dc.lft.to/lastmile_qr_scan", "ios": "https://dc.lft.to/lastmile_qr_scan"}, "fusion_lon": 0.0, "lat": 38.94128883333333, "bike_id": "e7604dab7786647688aca5361ffff578", "type": "electric_scooter", "is_reserved": 0, "lon": -77.026557}, {"fusion_lat": 0.0, "name": "911485b269fd0cc7b2083c9033862365", "is_disabled": 0, "rental_uris": {"android": "https://dc.lft.to/lastmile_qr_scan", "ios": "https://dc.lft.to/lastmile_qr_scan"}, "fusion_lon": 0.0, "lat": 38.90769183333333, "bike_id": "911485b269fd0cc7b2083c9033862365", "type": "electric_scooter", "is_reserved": 0, "lon": -77.071093}, {"fusion_lat": 0.0, "name": "a22f16c3a8378c8718ea8dc0830da935", "is_disabled": 0, "rental_uris": {"android": "https://dc.lft.to/lastmile_qr_scan", "ios": "https://dc.lft.to/lastmile_qr_scan"}, "fusion_lon": 0.0, "lat": 38.902927, "bike_id": "a22f16c3a8378c8718ea8dc0830da935", "type": "electric_scooter", "is_reserved": 0, "lon": -76.9763565}, {"fusion_lat": 0.0, "name": "2f66fcf1bb68bf0cbe010108adec1c69", "is_disabled": 0, "rental_uris": {"android": "https://dc.lft.to/lastmile_qr_scan", "ios": "https://dc.lft.to/lastmile_qr_scan"}, "fusion_lon": 0.0, "lat": 38.88739283333334, "bike_id": "2f66fcf1bb68bf0cbe010108adec1c69", "type": "electric_scooter", "is_reserved": 0, "lon": -77.02210333333333}, {"fusion_lat": 0.0, "name": "99a7aaddeaa57a3e402f089d611ba64e", "is_disabled": 0, "rental_uris": {"android": "https://dc.lft.to/lastmile_qr_scan", "ios": "https://dc.lft.to/lastmile_qr_scan"}, "fusion_lon": 0.0, "lat": 38.911171, "bike_id": "99a7aaddeaa57a3e402f089d611ba64e", "type": "electric_scooter", "is_reserved": 0, "lon": -77.04462683333334}, {"fusion_lat": 0.0, "name": "d12034d406d67f9ff26c9759ae95b133", "is_disabled": 0, "rental_uris": {"android": "https://dc.lft.to/lastmile_qr_scan", "ios": "https://dc.lft.to/lastmile_qr_scan"}, "fusion_lon": 0.0, "lat": 38.916430166666665, "bike_id": "d12034d406d67f9ff26c9759ae95b133", "type": "electric_scooter", "is_reserved": 0, "lon": -77.03163183333334}, {"fusion_lat": 0.0, "name": "17f57e6cac2fe29cf2d1bd83b8b40537", "is_disabled": 0, "rental_uris": {"android": "https://dc.lft.to/lastmile_qr_scan", "ios": "https://dc.lft.to/lastmile_qr_scan"}, "fusion_lon": 0.0, "lat": 38.90252733333333, "bike_id": "17f57e6cac2fe29cf2d1bd83b8b40537", "type": "electric_scooter", "is_reserved": 0, "lon": -76.9866875}, {"fusion_lat": 0.0, "name": "bfc23ccb65eb98236e50bd79985e2d6b", "is_disabled": 0, "rental_uris": {"android": "https://dc.lft.to/lastmile_qr_scan", "ios": "https://dc.lft.to/lastmile_qr_scan"}, "fusion_lon": 0.0, "lat": 38.807609666666664, "bike_id": "bfc23ccb65eb98236e50bd79985e2d6b", "type": "electric_bike", "is_reserved": 0, "lon": -77.09467666666667}, {"fusion_lat": 0.0, "name": "89d4c4fd24faca445d3d388d38ef633d", "is_disabled": 0, "rental_uris": {"android": "https://dc.lft.to/lastmile_qr_scan", "ios": "https://dc.lft.to/lastmile_qr_scan"}, "fusion_lon": 0.0, "lat": 38.899996, "bike_id": "89d4c4fd24faca445d3d388d38ef633d", "type": "electric_scooter", "is_reserved": 0, "lon": -77.01136916666667}, {"fusion_lat": 0.0, "name": "920c8f8ea72a07dc3a7806acc1e8da45", "is_disabled": 0, "rental_uris": {"android": "https://dc.lft.to/lastmile_qr_scan", "ios": "https://dc.lft.to/lastmile_qr_scan"}, "fusion_lon": 0.0, "lat": 38.8923365, "bike_id": "920c8f8ea72a07dc3a7806acc1e8da45", "type": "electric_scooter", "is_reserved": 0, "lon": -77.02409416666667}, {"fusion_lat": 0.0, "name": "050506d30fe84d8f1705db25d6eb1960", "is_disabled": 0, "rental_uris": {"android": "https://dc.lft.to/lastmile_qr_scan", "ios": "https://dc.lft.to/lastmile_qr_scan"}, "fusion_lon": 0.0, "lat": 38.92411233333333, "bike_id": "050506d30fe84d8f1705db25d6eb1960", "type": "electric_scooter", "is_reserved": 0, "lon": -77.02107083333334}, {"fusion_lat": 0.0, "name": "e4475a92d8c5cbfc7cb4152d0d263665", "is_disabled": 0, "rental_uris": {"android": "https://dc.lft.to/lastmile_qr_scan", "ios": "https://dc.lft.to/lastmile_qr_scan"}, "fusion_lon": 0.0, "lat": 38.9086525, "bike_id": "e4475a92d8c5cbfc7cb4152d0d263665", "type": "electric_scooter", "is_reserved": 0, "lon": -77.04882766666667}, {"fusion_lat": 0.0, "name": "de208682fee7e27833c95204f0c19f6f", "is_disabled": 0, "rental_uris": {"android": "https://dc.lft.to/lastmile_qr_scan", "ios": "https://dc.lft.to/lastmile_qr_scan"}, "fusion_lon": 0.0, "lat": 38.8852235, "bike_id": "de208682fee7e27833c95204f0c19f6f", "type": "electric_scooter", "is_reserved": 0, "lon": -76.99777583333334}, {"fusion_lat": 0.0, "name": "cafeecaaa89760d6a0a4c327609b1ca2", "is_disabled": 0, "rental_uris": {"android": "https://dc.lft.to/lastmile_qr_scan", "ios": "https://dc.lft.to/lastmile_qr_scan"}, "fusion_lon": 0.0, "lat": 38.931746, "bike_id": "cafeecaaa89760d6a0a4c327609b1ca2", "type": "electric_scooter", "is_reserved": 0, "lon": -77.03789316666666}, {"fusion_lat": 0.0, "name": "591fc36e8dac6020f4145b4a80fbf74a", "is_disabled": 0, "rental_uris": {"android": "https://dc.lft.to/lastmile_qr_scan", "ios": "https://dc.lft.to/lastmile_qr_scan"}, "fusion_lon": 0.0, "lat": 38.91716616666667, "bike_id": "591fc36e8dac6020f4145b4a80fbf74a", "type": "electric_scooter", "is_reserved": 0, "lon": -77.02968733333333}, {"fusion_lat": 0.0, "name": "2e3cc2bca0ca286ddc95800f73f174b2", "is_disabled": 0, "rental_uris": {"android": "https://dc.lft.to/lastmile_qr_scan", "ios": "https://dc.lft.to/lastmile_qr_scan"}, "fusion_lon": 0.0, "lat": 38.782645, "bike_id": "2e3cc2bca0ca286ddc95800f73f174b2", "type": "electric_bike", "is_reserved": 0, "lon": -77.016089}, {"fusion_lat": 0.0, "name": "7f71592a28d3e9f3ecc1d7eecea4781c", "is_disabled": 0, "rental_uris": {"android": "https://dc.lft.to/lastmile_qr_scan", "ios": "https://dc.lft.to/lastmile_qr_scan"}, "fusion_lon": 0.0, "lat": 38.92905066666667, "bike_id": "7f71592a28d3e9f3ecc1d7eecea4781c", "type": "electric_scooter", "is_reserved": 0, "lon": -77.02145466666667}, {"fusion_lat": 0.0, "name": "5b33dfeea04f63a4078c9813f5a6ae57", "is_disabled": 0, "rental_uris": {"android": "https://dc.lft.to/lastmile_qr_scan", "ios": "https://dc.lft.to/lastmile_qr_scan"}, "fusion_lon": 0.0, "lat": 38.96489233333333, "bike_id": "5b33dfeea04f63a4078c9813f5a6ae57", "type": "electric_bike", "is_reserved": 0, "lon": -77.10722583333333}, {"fusion_lat": 0.0, "name": "01cd299b85653fd1e7ad02e9f284387a", "is_disabled": 0, "rental_uris": {"android": "https://dc.lft.to/lastmile_qr_scan", "ios": "https://dc.lft.to/lastmile_qr_scan"}, "fusion_lon": 0.0, "lat": 38.93964916666667, "bike_id": "01cd299b85653fd1e7ad02e9f284387a", "type": "electric_scooter", "is_reserved": 0, "lon": -77.0328395}, {"fusion_lat": 0.0, "name": "1bcc1162f7c742ef5b115399cbe9e6b1", "is_disabled": 0, "rental_uris": {"android": "https://dc.lft.to/lastmile_qr_scan", "ios": "https://dc.lft.to/lastmile_qr_scan"}, "fusion_lon": 0.0, "lat": 38.914372666666665, "bike_id": "1bcc1162f7c742ef5b115399cbe9e6b1", "type": "electric_scooter", "is_reserved": 0, "lon": -76.993541}, {"fusion_lat": 0.0, "name": "316092f741338ef6dba3dfacce897342", "is_disabled": 0, "rental_uris": {"android": "https://dc.lft.to/lastmile_qr_scan", "ios": "https://dc.lft.to/lastmile_qr_scan"}, "fusion_lon": 0.0, "lat": 38.9003805, "bike_id": "316092f741338ef6dba3dfacce897342", "type": "electric_scooter", "is_reserved": 0, "lon": -77.03521066666667}, {"fusion_lat": 0.0, "name": "990c38d9aba36d777c275c664c611ebe", "is_disabled": 0, "rental_uris": {"android": "https://dc.lft.to/lastmile_qr_scan", "ios": "https://dc.lft.to/lastmile_qr_scan"}, "fusion_lon": 0.0, "lat": 38.905074666666664, "bike_id": "990c38d9aba36d777c275c664c611ebe", "type": "electric_scooter", "is_reserved": 0, "lon": -77.04052083333333}, {"fusion_lat": 0.0, "name": "36fe34b90b0002196aed52696669ddde", "is_disabled": 0, "rental_uris": {"android": "https://dc.lft.to/lastmile_qr_scan", "ios": "https://dc.lft.to/lastmile_qr_scan"}, "fusion_lon": 0.0, "lat": 38.8850965, "bike_id": "36fe34b90b0002196aed52696669ddde", "type": "electric_scooter", "is_reserved": 0, "lon": -77.01114866666667}, {"fusion_lat": 0.0, "name": "f3aaa958c3bd59694efb695fcb77c503", "is_disabled": 0, "rental_uris": {"android": "https://dc.lft.to/lastmile_qr_scan", "ios": "https://dc.lft.to/lastmile_qr_scan"}, "fusion_lon": 0.0, "lat": 38.91336666666667, "bike_id": "f3aaa958c3bd59694efb695fcb77c503", "type": "electric_scooter", "is_reserved": 0, "lon": -77.04289316666667}, {"fusion_lat": 0.0, "name": "d77bc2bedd7abb1bc7da19147acd0a8c", "is_disabled": 0, "rental_uris": {"android": "https://dc.lft.to/lastmile_qr_scan", "ios": "https://dc.lft.to/lastmile_qr_scan"}, "fusion_lon": 0.0, "lat": 38.90191266666667, "bike_id": "d77bc2bedd7abb1bc7da19147acd0a8c", "type": "electric_scooter", "is_reserved": 0, "lon": -77.01301566666666}, {"fusion_lat": 0.0, "name": "5943873a9bb51f12c41b985f71cd49fd", "is_disabled": 0, "rental_uris": {"android": "https://dc.lft.to/lastmile_qr_scan", "ios": "https://dc.lft.to/lastmile_qr_scan"}, "fusion_lon": 0.0, "lat": 38.95881716666667, "bike_id": "5943873a9bb51f12c41b985f71cd49fd", "type": "electric_scooter", "is_reserved": 0, "lon": -77.011691}, {"fusion_lat": 0.0, "name": "645b3a639f52bdd3747bc0c8d5da8749", "is_disabled": 0, "rental_uris": {"android": "https://dc.lft.to/lastmile_qr_scan", "ios": "https://dc.lft.to/lastmile_qr_scan"}, "fusion_lon": 0.0, "lat": 38.91564283333334, "bike_id": "645b3a639f52bdd3747bc0c8d5da8749", "type": "electric_scooter", "is_reserved": 0, "lon": -77.0318195}, {"fusion_lat": 0.0, "name": "97c8864e26c4fe7d2e310aed8de98c52", "is_disabled": 0, "rental_uris": {"android": "https://dc.lft.to/lastmile_qr_scan", "ios": "https://dc.lft.to/lastmile_qr_scan"}, "fusion_lon": 0.0, "lat": 38.876584333333334, "bike_id": "97c8864e26c4fe7d2e310aed8de98c52", "type": "electric_scooter", "is_reserved": 0, "lon": -77.00912166666667}, {"fusion_lat": 0.0, "name": "d6567cf47437b588853835350099de25", "is_disabled": 0, "rental_uris": {"android": "https://dc.lft.to/lastmile_qr_scan", "ios": "https://dc.lft.to/lastmile_qr_scan"}, "fusion_lon": 0.0, "lat": 38.8987755, "bike_id": "d6567cf47437b588853835350099de25", "type": "electric_scooter", "is_reserved": 0, "lon": -77.02342766666666}, {"fusion_lat": 0.0, "name": "f5722929fffa3bb309ded69d5d402d27", "is_disabled": 0, "rental_uris": {"android": "https://dc.lft.to/lastmile_qr_scan", "ios": "https://dc.lft.to/lastmile_qr_scan"}, "fusion_lon": 0.0, "lat": 38.91672466666667, "bike_id": "f5722929fffa3bb309ded69d5d402d27", "type": "electric_scooter", "is_reserved": 0, "lon": -77.0271715}, {"fusion_lat": 0.0, "name": "1432c21d906e0b46d124dad2e04b3960", "is_disabled": 0, "rental_uris": {"android": "https://dc.lft.to/lastmile_qr_scan", "ios": "https://dc.lft.to/lastmile_qr_scan"}, "fusion_lon": 0.0, "lat": 38.949194166666665, "bike_id": "1432c21d906e0b46d124dad2e04b3960", "type": "electric_scooter", "is_reserved": 0, "lon": -77.01857083333333}, {"fusion_lat": 0.0, "name": "179cbb6bc6a7732750faf22135702ed1", "is_disabled": 0, "rental_uris": {"android": "https://dc.lft.to/lastmile_qr_scan", "ios": "https://dc.lft.to/lastmile_qr_scan"}, "fusion_lon": 0.0, "lat": 38.902343333333334, "bike_id": "179cbb6bc6a7732750faf22135702ed1", "type": "electric_scooter", "is_reserved": 0, "lon": -77.01930383333334}, {"fusion_lat": 0.0, "name": "c552065e039456fcfda5e8626942269e", "is_disabled": 0, "rental_uris": {"android": "https://dc.lft.to/lastmile_qr_scan", "ios": "https://dc.lft.to/lastmile_qr_scan"}, "fusion_lon": 0.0, "lat": 38.899873666666664, "bike_id": "c552065e039456fcfda5e8626942269e", "type": "electric_scooter", "is_reserved": 0, "lon": -77.0197185}, {"fusion_lat": 0.0, "name": "56a34a26ab6bc32a3a1a586f88f63ccd", "is_disabled": 0, "rental_uris": {"android": "https://dc.lft.to/lastmile_qr_scan", "ios": "https://dc.lft.to/lastmile_qr_scan"}, "fusion_lon": 0.0, "lat": 38.9304655, "bike_id": "56a34a26ab6bc32a3a1a586f88f63ccd", "type": "electric_scooter", "is_reserved": 0, "lon": -77.0335935}, {"fusion_lat": 0.0, "name": "92db441ee0206e05619109990c62f57a", "is_disabled": 0, "rental_uris": {"android": "https://dc.lft.to/lastmile_qr_scan", "ios": "https://dc.lft.to/lastmile_qr_scan"}, "fusion_lon": 0.0, "lat": 38.8995935, "bike_id": "92db441ee0206e05619109990c62f57a", "type": "electric_scooter", "is_reserved": 0, "lon": -77.01454033333333}, {"fusion_lat": 0.0, "name": "6d7890c693dcc3eac9bf97b6e3d65e6a", "is_disabled": 0, "rental_uris": {"android": "https://dc.lft.to/lastmile_qr_scan", "ios": "https://dc.lft.to/lastmile_qr_scan"},