{"data": {"bikes": [{"rental_uris": {"ios": "https://dc.lft.to/lastmile_qr_scan", "android": "https://dc.lft.to/lastmile_qr_scan"}, "is_reserved": 0, "fusion_lat": 0.0, "type": "electric_scooter", "bike_id": "3206628f48ac94df5dfe5d4f09ca8e15", "is_disabled": 0, "lon": -77.03495016666666, "fusion_lon": 0.0, "name": "3206628f48ac94df5dfe5d4f09ca8e15", "lat": 38.921461}, {"rental_uris": {"ios": "https://dc.lft.to/lastmile_qr_scan", "android": "https://dc.lft.to/lastmile_qr_scan"}, "is_reserved": 0, "fusion_lat": 0.0, "type": "electric_scooter", "bike_id": "9d552402173da1dc38cd5ecc9c0c4b27", "is_disabled": 0, "lon": -76.933411, "fusion_lon": 0.0, "name": "9d552402173da1dc38cd5ecc9c0c4b27", "lat": 38.908678}, {"rental_uris": {"ios": "https://dc.lft.to/lastmile_qr_scan", "android": "https://dc.lft.to/lastmile_qr_scan"}, "is_reserved": 0, "fusion_lat": 0.0, "type": "electric_scooter", "bike_id": "06ef40928c2818f6243e0214a2c53c18", "is_disabled": 0, "lon": -77.03188066666667, "fusion_lon": 0.0, "name": "06ef40928c2818f6243e0214a2c53c18", "lat": 38.9101225}, {"rental_uris": {"ios": "https://dc.lft.to/lastmile_qr_scan", "android": "https://dc.lft.to/lastmile_qr_scan"}, "is_reserved": 0, "fusion_lat": 0.0, "type": "electric_scooter", "bike_id": "eb8d2403c262705a4d8bfc373d62a2f3", "is_disabled": 0, "lon": -77.01505983333334, "fusion_lon": 0.0, "name": "eb8d2403c262705a4d8bfc373d62a2f3", "lat": 38.885329166666665}, {"rental_uris": {"ios": "https://dc.lft.to/lastmile_qr_scan", "android": "https://dc.lft.to/lastmile_qr_scan"}, "is_reserved": 0, "fusion_lat": 0.0, "type": "electric_scooter", "bike_id": "6f719647ff57cf53fa10bfeef10a2d4f", "is_disabled": 0, "lon": -77.06095166666667, "fusion_lon": 0.0, "name": "6f719647ff57cf53fa10bfeef10a2d4f", "lat": 38.911757}, {"rental_uris": {"ios": "https://dc.lft.to/lastmile_qr_scan", "android": "https://dc.lft.to/lastmile_qr_scan"}, "is_reserved": 0, "fusion_lat": 0.0, "type": "electric_scooter", "bike_id": "e96c0da29319361627c4bba39b191f4f", "is_disabled": 0, "lon": -77.02738633333334, "fusion_lon": 0.0, "name": "e96c0da29319361627c4bba39b191f4f", "lat": 38.927763166666665}, {"rental_uris": {"ios": "https://dc.lft.to/lastmile_qr_scan", "android": "https://dc.lft.to/lastmile_qr_scan"}, "is_reserved": 0, "fusion_lat": 0.0, "type": "electric_scooter", "bike_id": "79c28d263b8aad163dc5685128493732", "is_disabled": 0, "lon": -77.00931516666667, "fusion_lon": 0.0, "name": "79c28d263b8aad163dc5685128493732", "lat": 38.89727233333333}, {"rental_uris": {"ios": "https://dc.lft.to/lastmile_qr_scan", "android": "https://dc.lft.to/lastmile_qr_scan"}, "is_reserved": 0, "fusion_lat": 0.0, "type": "electric_scooter", "bike_id": "76f44095c42d0ec0378dd9218d674ca6", "is_disabled": 0, "lon": -77.03199233333333, "fusion_lon": 0.0, "name": "76f44095c42d0ec0378dd9218d674ca6", "lat": 38.915491}, {"rental_uris": {"ios": "https://dc.lft.to/lastmile_qr_scan", "android": "https://dc.lft.to/lastmile_qr_scan"}, "is_reserved": 0, "fusion_lat": 0.0, "type": "electric_scooter", "bike_id": "9ccc339fb3f1fdefc0eb26f1981ecbe5", "is_disabled": 0, "lon": -77.00475683333333, "fusion_lon": 0.0, "name": "9ccc339fb3f1fdefc0eb26f1981ecbe5", "lat": 38.88054266666666}, {"rental_uris": {"ios": "https://dc.lft.to/lastmile_qr_scan", "android": "https://dc.lft.to/lastmile_qr_scan"}, "is_reserved": 0, "fusion_lat": 0.0, "type": "electric_scooter", "bike_id": "67ed6a22dd2ec9b630514676291db417", "is_disabled": 0, "lon": -76.99633033333333, "fusion_lon": 0.0, "name": "67ed6a22dd2ec9b630514676291db417", "lat": 38.9053145}, {"rental_uris": {"ios": "https://dc.lft.to/lastmile_qr_scan", "android": "https://dc.lft.to/lastmile_qr_scan"}, "is_reserved": 0, "fusion_lat": 0.0, "type": "electric_scooter", "bike_id": "c883f5703c6e1ad065ee7f7d36c7892f", "is_disabled": 0, "lon": -77.02263283333333, "fusion_lon": 0.0, "name": "c883f5703c6e1ad065ee7f7d36c7892f", "lat": 38.924742333333334}, {"rental_uris": {"ios": "https://dc.lft.to/lastmile_qr_scan", "android": "https://dc.lft.to/lastmile_qr_scan"}, "is_reserved": 0, "fusion_lat": 0.0, "type": "electric_scooter", "bike_id": "57aee4c14b50129bd804a2572583098b", "is_disabled": 0, "lon": -77.03557033333334, "fusion_lon": 0.0, "name": "57aee4c14b50129bd804a2572583098b", "lat": 38.9015145}, {"rental_uris": {"ios": "https://dc.lft.to/lastmile_qr_scan", "android": "https://dc.lft.to/lastmile_qr_scan"}, "is_reserved": 0, "fusion_lat": 0.0, "type": "electric_scooter", "bike_id": "b614d2270e19f59eb17d07557b190d3e", "is_disabled": 0, "lon": -77.03648983333333, "fusion_lon": 0.0, "name": "b614d2270e19f59eb17d07557b190d3e", "lat": 38.9257125}, {"rental_uris": {"ios": "https://dc.lft.to/lastmile_qr_scan", "android": "https://dc.lft.to/lastmile_qr_scan"}, "is_reserved": 0, "fusion_lat": 0.0, "type": "electric_scooter", "bike_id": "80540f6e01adb3dc2e33f8aa4af8a2fa", "is_disabled": 0, "lon": -76.99598883333333, "fusion_lon": 0.0, "name": "80540f6e01adb3dc2e33f8aa4af8a2fa", "lat": 38.88428016666667}, {"rental_uris": {"ios": "https://dc.lft.to/lastmile_qr_scan", "android": "https://dc.lft.to/lastmile_qr_scan"}, "is_reserved": 0, "fusion_lat": 0.0, "type": "electric_scooter", "bike_id": "b69508b5c88e15614a68f8177a2e2850", "is_disabled": 0, "lon": -77.00963466666667, "fusion_lon": 0.0, "name": "b69508b5c88e15614a68f8177a2e2850", "lat": 38.8746325}, {"rental_uris": {"ios": "https://dc.lft.to/lastmile_qr_scan", "android": "https://dc.lft.to/lastmile_qr_scan"}, "is_reserved": 0, "fusion_lat": 0.0, "type": "electric_scooter", "bike_id": "a6a3067f38dc0a2a9edfe5059cc9100a", "is_disabled": 0, "lon": -77.02962466666666, "fusion_lon": 0.0, "name": "a6a3067f38dc0a2a9edfe5059cc9100a", "lat": 38.91480166666667}, {"rental_uris": {"ios": "https://dc.lft.to/lastmile_qr_scan", "android": "https://dc.lft.to/lastmile_qr_scan"}, "is_reserved": 0, "fusion_lat": 0.0, "type": "electric_scooter", "bike_id": "5540bd8be71173acb0fdcf7cc45f8c0e", "is_disabled": 0, "lon": -77.01505466666667, "fusion_lon": 0.0, "name": "5540bd8be71173acb0fdcf7cc45f8c0e", "lat": 38.885395333333335}, {"rental_uris": {"ios": "https://dc.lft.to/lastmile_qr_scan", "android": "https://dc.lft.to/lastmile_qr_scan"}, "is_reserved": 0, "fusion_lat": 0.0, "type": "electric_scooter", "bike_id": "08fb528b64f59d2c70e0dd73795d2f0f", "is_disabled": 0, "lon": -77.02544883333333, "fusion_lon": 0.0, "name": "08fb528b64f59d2c70e0dd73795d2f0f", "lat": 38.91256516666667}, {"rental_uris": {"ios": "https://dc.lft.to/lastmile_qr_scan", "android": "https://dc.lft.to/lastmile_qr_scan"}, "is_reserved": 0, "fusion_lat": 0.0, "type": "electric_scooter", "bike_id": "bbed1ecd07aa1ead6c02aa67d8fd92a9", "is_disabled": 0, "lon": -77.02349216666667, "fusion_lon": 0.0, "name": "bbed1ecd07aa1ead6c02aa67d8fd92a9", "lat": 38.931005166666665}, {"rental_uris": {"ios": "https://dc.lft.to/lastmile_qr_scan", "android": "https://dc.lft.to/lastmile_qr_scan"}, "is_reserved": 0, "fusion_lat": 0.0, "type": "electric_scooter", "bike_id": "115821c4f2e2f40cd50efd11e68de88a", "is_disabled": 0, "lon": -76.98501766666666, "fusion_lon": 0.0, "name": "115821c4f2e2f40cd50efd11e68de88a", "lat": 38.86065266666667}, {"rental_uris": {"ios": "https://dc.lft.to/lastmile_qr_scan", "android": "https://dc.lft.to/lastmile_qr_scan"}, "is_reserved": 0, "fusion_lat": 0.0, "type": "electric_scooter", "bike_id": "b990dc9400807e7cc4c05fe9fbbd0aaa", "is_disabled": 0, "lon": -77.06009883333333, "fusion_lon": 0.0, "name": "b990dc9400807e7cc4c05fe9fbbd0aaa", "lat": 38.90369533333333}, {"rental_uris": {"ios": "https://dc.lft.to/lastmile_qr_scan", "android": "https://dc.lft.to/lastmile_qr_scan"}, "is_reserved": 0, "fusion_lat": 0.0, "type": "electric_scooter", "bike_id": "6e45338b10d0c056b675a81ed81fbfe9", "is_disabled": 0, "lon": -76.9962235, "fusion_lon": 0.0, "name": "6e45338b10d0c056b675a81ed81fbfe9", "lat": 38.90447566666667}, {"rental_uris": {"ios": "https://dc.lft.to/lastmile_qr_scan", "android": "https://dc.lft.to/lastmile_qr_scan"}, "is_reserved": 0, "fusion_lat": 0.0, "type": "electric_scooter", "bike_id": "66120e16753da16e6fa5e9b690e739cc", "is_disabled": 0, "lon": -77.03603116666666, "fusion_lon": 0.0, "name": "66120e16753da16e6fa5e9b690e739cc", "lat": 38.928541}, {"rental_uris": {"ios": "https://dc.lft.to/lastmile_qr_scan", "android": "https://dc.lft.to/lastmile_qr_scan"}, "is_reserved": 0, "fusion_lat": 0.0, "type": "electric_bike", "bike_id": "4b8f32a28e5ec387f6300e8fabf23aa4", "is_disabled": 0, "lon": -76.9819525, "fusion_lon": 0.0, "name": "4b8f32a28e5ec387f6300e8fabf23aa4", "lat": 38.985087666666665}, {"rental_uris": {"ios": "https://dc.lft.to/lastmile_qr_scan", "android": "https://dc.lft.to/lastmile_qr_scan"}, "is_reserved": 0, "fusion_lat": 0.0, "type": "electric_scooter", "bike_id": "be23ec6fd430c8db16019acb620f8235", "is_disabled": 0, "lon": -77.007253, "fusion_lon": 0.0, "name": "be23ec6fd430c8db16019acb620f8235", "lat": 38.884972}, {"rental_uris": {"ios": "https://dc.lft.to/lastmile_qr_scan", "android": "https://dc.lft.to/lastmile_qr_scan"}, "is_reserved": 0, "fusion_lat": 0.0, "type": "electric_scooter", "bike_id": "1adfd90a33be88b06e5650f76231c2dd", "is_disabled": 0, "lon": -77.06361416666667, "fusion_lon": 0.0, "name": "1adfd90a33be88b06e5650f76231c2dd", "lat": 38.9438545}, {"rental_uris": {"ios": "https://dc.lft.to/lastmile_qr_scan", "android": "https://dc.lft.to/lastmile_qr_scan"}, "is_reserved": 0, "fusion_lat": 0.0, "type": "electric_scooter", "bike_id": "40924e7f35fdead2d7702632822ccfa3", "is_disabled": 0, "lon": -77.01724683333333, "fusion_lon": 0.0, "name": "40924e7f35fdead2d7702632822ccfa3", "lat": 38.8874585}, {"rental_uris": {"ios": "https://dc.lft.to/lastmile_qr_scan", "android": "https://dc.lft.to/lastmile_qr_scan"}, "is_reserved": 0, "fusion_lat": 0.0, "type": "electric_scooter", "bike_id": "20f7666711106f171aa744b8f4b23f98", "is_disabled": 0, "lon": -77.064196, "fusion_lon": 0.0, "name": "20f7666711106f171aa744b8f4b23f98", "lat": 38.914292333333336}, {"rental_uris": {"ios": "https://dc.lft.to/lastmile_qr_scan", "android": "https://dc.lft.to/lastmile_qr_scan"}, "is_reserved": 0, "fusion_lat": 0.0, "type": "electric_scooter", "bike_id": "920d7fac9d8e84d00997b1c5106c6cb2", "is_disabled": 0, "lon": -77.00710716666667, "fusion_lon": 0.0, "name": "920d7fac9d8e84d00997b1c5106c6cb2", "lat": 38.88485583333333}, {"rental_uris": {"ios": "https://dc.lft.to/lastmile_qr_scan", "android": "https://dc.lft.to/lastmile_qr_scan"}, "is_reserved": 0, "fusion_lat": 0.0, "type": "electric_scooter", "bike_id": "a06d4fe044f7c44afaf80c68be722a72", "is_disabled": 0, "lon": -77.026541, "fusion_lon": 0.0, "name": "a06d4fe044f7c44afaf80c68be722a72", "lat": 38.902566}, {"rental_uris": {"ios": "https://dc.lft.to/lastmile_qr_scan", "android": "https://dc.lft.to/lastmile_qr_scan"}, "is_reserved": 0, "fusion_lat": 0.0, "type": "electric_scooter", "bike_id": "b7ff4f6d3ed6ba0b8e650f3ba4900347", "is_disabled": 0, "lon": -76.995204, "fusion_lon": 0.0, "name": "b7ff4f6d3ed6ba0b8e650f3ba4900347", "lat": 38.8860775}, {"rental_uris": {"ios": "https://dc.lft.to/lastmile_qr_scan", "android": "https://dc.lft.to/lastmile_qr_scan"}, "is_reserved": 0, "fusion_lat": 0.0, "type": "electric_scooter", "bike_id": "7d6685d04b7fdf51fb0b0ea225489c9a", "is_disabled": 0, "lon": -77.09716966666667, "fusion_lon": 0.0, "name": "7d6685d04b7fdf51fb0b0ea225489c9a", "lat": 38.951043}, {"rental_uris": {"ios": "https://dc.lft.to/lastmile_qr_scan", "android": "https://dc.lft.to/lastmile_qr_scan"}, "is_reserved": 0, "fusion_lat": 0.0, "type": "electric_scooter", "bike_id": "b74fce2557a233422675f73bb6c73ede", "is_disabled": 0, "lon": -77.03849016666666, "fusion_lon": 0.0, "name": "b74fce2557a233422675f73bb6c73ede", "lat": 38.90279733333333}, {"rental_uris": {"ios": "https://dc.lft.to/lastmile_qr_scan", "android": "https://dc.lft.to/lastmile_qr_scan"}, "is_reserved": 0, "fusion_lat": 0.0, "type": "electric_scooter", "bike_id": "ec9e9c246b72202d7220e0cbdf04e92f", "is_disabled": 0, "lon": -77.04996783333333, "fusion_lon": 0.0, "name": "ec9e9c246b72202d7220e0cbdf04e92f", "lat": 38.898259}, {"rental_uris": {"ios": "https://dc.lft.to/lastmile_qr_scan", "android": "https://dc.lft.to/lastmile_qr_scan"}, "is_reserved": 0, "fusion_lat": 0.0, "type": "electric_scooter", "bike_id": "3cb1b6137db96cf223dc6a1061ba249d", "is_disabled": 0, "lon": -77.03231616666666, "fusion_lon": 0.0, "name": "3cb1b6137db96cf223dc6a1061ba249d", "lat": 38.9119595}, {"rental_uris": {"ios": "https://dc.lft.to/lastmile_qr_scan", "android": "https://dc.lft.to/lastmile_qr_scan"}, "is_reserved": 0, "fusion_lat": 0.0, "type": "electric_scooter", "bike_id": "daef90f0e56f80d2eec97877f80db259", "is_disabled": 0, "lon": -76.99039883333333, "fusion_lon": 0.0, "name": "daef90f0e56f80d2eec97877f80db259", "lat": 38.863907166666664}, {"rental_uris": {"ios": "https://dc.lft.to/lastmile_qr_scan", "android": "https://dc.lft.to/lastmile_qr_scan"}, "is_reserved": 0, "fusion_lat": 0.0, "type": "electric_bike", "bike_id": "e6d5a534fabbea51962ae778f7d51e69", "is_disabled": 0, "lon": -76.96053616666667, "fusion_lon": 0.0, "name": "e6d5a534fabbea51962ae778f7d51e69", "lat": 38.884003666666665}, {"rental_uris": {"ios": "https://dc.lft.to/lastmile_qr_scan", "android": "https://dc.lft.to/lastmile_qr_scan"}, "is_reserved": 0, "fusion_lat": 0.0, "type": "electric_scooter", "bike_id": "7197de85d2329f87c8c21f6acfe8ee25", "is_disabled": 0, "lon": -77.02485216666666, "fusion_lon": 0.0, "name": "7197de85d2329f87c8c21f6acfe8ee25", "lat": 38.9024975}, {"rental_uris": {"ios": "https://dc.lft.to/lastmile_qr_scan", "android": "https://dc.lft.to/lastmile_qr_scan"}, "is_reserved": 0, "fusion_lat": 0.0, "type": "electric_scooter", "bike_id": "9ec96e527f1bc0d435eb31d6bf835c42", "is_disabled": 0, "lon": -77.009204, "fusion_lon": 0.0, "name": "9ec96e527f1bc0d435eb31d6bf835c42", "lat": 38.896127666666665}, {"rental_uris": {"ios": "https://dc.lft.to/lastmile_qr_scan", "android": "https://dc.lft.to/lastmile_qr_scan"}, "is_reserved": 0, "fusion_lat": 0.0, "type": "electric_scooter", "bike_id": "cf8dd2795bfd163c96601e0f7e603a37", "is_disabled": 0, "lon": -76.98374433333333, "fusion_lon": 0.0, "name": "cf8dd2795bfd163c96601e0f7e603a37", "lat": 38.860321166666665}, {"rental_uris": {"ios": "https://dc.lft.to/lastmile_qr_scan", "android": "https://dc.lft.to/lastmile_qr_scan"}, "is_reserved": 0, "fusion_lat": 0.0, "type": "electric_scooter", "bike_id": "1097c65bd17d9115cc36fb2ccc7db538", "is_disabled": 0, "lon": -76.94702116666667, "fusion_lon": 0.0, "name": "1097c65bd17d9115cc36fb2ccc7db538", "lat": 38.8972985}, {"rental_uris": {"ios": "https://dc.lft.to/lastmile_qr_scan", "android": "https://dc.lft.to/lastmile_qr_scan"}, "is_reserved": 0, "fusion_lat": 0.0, "type": "electric_scooter", "bike_id": "6268990d99c1bc7b2e4da3cd74a5afbe", "is_disabled": 0, "lon": -77.02952783333333, "fusion_lon": 0.0, "name": "6268990d99c1bc7b2e4da3cd74a5afbe", "lat": 38.896249833333336}, {"rental_uris": {"ios": "https://dc.lft.to/lastmile_qr_scan", "android": "https://dc.lft.to/lastmile_qr_scan"}, "is_reserved": 0, "fusion_lat": 0.0, "type": "electric_scooter", "bike_id": "bd7ec21df88560e0456339d5b6e798ed", "is_disabled": 0, "lon": -77.03929383333333, "fusion_lon": 0.0, "name": "bd7ec21df88560e0456339d5b6e798ed", "lat": 38.90233883333333}, {"rental_uris": {"ios": "https://dc.lft.to/lastmile_qr_scan", "android": "https://dc.lft.to/lastmile_qr_scan"}, "is_reserved": 0, "fusion_lat": 0.0, "type": "electric_scooter", "bike_id": "3463ec6bcc765d1572cd65d39348e52e", "is_disabled": 0, "lon": -77.0435515, "fusion_lon": 0.0, "name": "3463ec6bcc765d1572cd65d39348e52e", "lat": 38.90404516666667}, {"rental_uris": {"ios": "https://dc.lft.to/lastmile_qr_scan", "android": "https://dc.lft.to/lastmile_qr_scan"}, "is_reserved": 0, "fusion_lat": 0.0, "type": "electric_scooter", "bike_id": "306230b312f20233df50e1988bc6279d", "is_disabled": 0, "lon": -76.99488133333334, "fusion_lon": 0.0, "name": "306230b312f20233df50e1988bc6279d", "lat": 38.904549333333335}, {"rental_uris": {"ios": "https://dc.lft.to/lastmile_qr_scan", "android": "https://dc.lft.to/lastmile_qr_scan"}, "is_reserved": 0, "fusion_lat": 0.0, "type": "electric_scooter", "bike_id": "132610b5802db49f83a9b0ad195bc37d", "is_disabled": 0, "lon": -77.03498666666667, "fusion_lon": 0.0, "name": "132610b5802db49f83a9b0ad195bc37d", "lat": 38.928753}, {"rental_uris": {"ios": "https://dc.lft.to/lastmile_qr_scan", "android": "https://dc.lft.to/lastmile_qr_scan"}, "is_reserved": 0, "fusion_lat": 0.0, "type": "electric_scooter", "bike_id": "8a4c81519f2e7fa26842ba9727b3f76c", "is_disabled": 0, "lon": -77.0049635, "fusion_lon": 0.0, "name": "8a4c81519f2e7fa26842ba9727b3f76c", "lat": 38.89687883333333}, {"rental_uris": {"ios": "https://dc.lft.to/lastmile_qr_scan", "android": "https://dc.lft.to/lastmile_qr_scan"}, "is_reserved": 0, "fusion_lat": 0.0, "type": "electric_scooter", "bike_id": "33164315ea1d5abec0fac2ef4f49a7a6", "is_disabled": 0, "lon": -77.048699, "fusion_lon": 0.0, "name": "33164315ea1d5abec0fac2ef4f49a7a6", "lat": 38.905623166666665}, {"rental_uris": {"ios": "https://dc.lft.to/lastmile_qr_scan", "android": "https://dc.lft.to/lastmile_qr_scan"}, "is_reserved": 0, "fusion_lat": 0.0, "type": "electric_scooter", "bike_id": "ea1511ae5135d28cc9c91d2b475bae20", "is_disabled": 0, "lon": -77.02831016666667, "fusion_lon": 0.0, "name": "ea1511ae5135d28cc9c91d2b475bae20", "lat": 38.91702816666667}, {"rental_uris": {"ios": "https://dc.lft.to/lastmile_qr_scan", "android": "https://dc.lft.to/lastmile_qr_scan"}, "is_reserved": 0, "fusion_lat": 0.0, "type": "electric_scooter", "bike_id": "b0444ae0afaaf144736e7e58fe63f733", "is_disabled": 0, "lon": -77.02256883333334, "fusion_lon": 0.0, "name": "b0444ae0afaaf144736e7e58fe63f733", "lat": 38.92679}, {"rental_uris": {"ios": "https://dc.lft.to/lastmile_qr_scan", "android": "https://dc.lft.to/lastmile_qr_scan"}, "is_reserved": 0, "fusion_lat": 0.0, "type": "electric_bike", "bike_id": "373c1c723466aa283201eeeb30ffb81b", "is_disabled": 0, "lon": -76.98161683333333, "fusion_lon": 0.0, "name": "373c1c723466aa283201eeeb30ffb81b", "lat": 38.95964716666667}, {"rental_uris": {"ios": "https://dc.lft.to/lastmile_qr_scan", "android": "https://dc.lft.to/lastmile_qr_scan"}, "is_reserved": 0, "fusion_lat": 0.0, "type": "electric_scooter", "bike_id": "6a4369c0bf8c75157d3f657683672ca7", "is_disabled": 0, "lon": -77.034741, "fusion_lon": 0.0, "name": "6a4369c0bf8c75157d3f657683672ca7", "lat": 38.9037355}, {"rental_uris": {"ios": "https://dc.lft.to/lastmile_qr_scan", "android": "https://dc.lft.to/lastmile_qr_scan"}, "is_reserved": 0, "fusion_lat": 0.0, "type": "electric_scooter", "bike_id": "89867550e5d2cfcfebf14a41a4b84cb2", "is_disabled": 0, "lon": -77.03273966666667, "fusion_lon": 0.0, "name": "89867550e5d2cfcfebf14a41a4b84cb2", "lat": 38.89838983333333}, {"rental_uris": {"ios": "https://dc.lft.to/lastmile_qr_scan", "android": "https://dc.lft.to/lastmile_qr_scan"}, "is_reserved": 0, "fusion_lat": 0.0, "type": "electric_scooter", "bike_id": "30592161060d3dcbf332030e5efc6e06", "is_disabled": 0, "lon": -77.031019, "fusion_lon": 0.0, "name": "30592161060d3dcbf332030e5efc6e06", "lat": 38.9318825}, {"rental_uris": {"ios": "https://dc.lft.to/lastmile_qr_scan", "android": "https://dc.lft.to/lastmile_qr_scan"}, "is_reserved": 0, "fusion_lat": 0.0, "type": "electric_bike", "bike_id": "a5373ab94e47e286cff326718ebf042a", "is_disabled": 0, "lon": -76.980865, "fusion_lon": 0.0, "name": "a5373ab94e47e286cff326718ebf042a", "lat": 38.957655333333335}, {"rental_uris": {"ios": "https://dc.lft.to/lastmile_qr_scan", "android": "https://dc.lft.to/lastmile_qr_scan"}, "is_reserved": 0, "fusion_lat": 0.0, "type": "electric_scooter", "bike_id": "44e0cd06066d492416725f99ee7bf515", "is_disabled": 0, "lon": -77.0217435, "fusion_lon": 0.0, "name": "44e0cd06066d492416725f99ee7bf515", "lat": 38.894922333333334}, {"rental_uris": {"ios": "https://dc.lft.to/lastmile_qr_scan", "android": "https://dc.lft.to/lastmile_qr_scan"}, "is_reserved": 0, "fusion_lat": 0.0, "type": "electric_scooter", "bike_id": "c376e35a73e879495644dd1213ca269f", "is_disabled": 0, "lon": -77.0223635, "fusion_lon": 0.0, "name": "c376e35a73e879495644dd1213ca269f", "lat": 38.92227533333333}, {"rental_uris": {"ios": "https://dc.lft.to/lastmile_qr_scan", "android": "https://dc.lft.to/lastmile_qr_scan"}, "is_reserved": 0, "fusion_lat": 0.0, "type": "electric_scooter", "bike_id": "912ab4ff5b7da005b26fa770d9c4357f", "is_disabled": 0, "lon": -77.05143, "fusion_lon": 0.0, "name": "912ab4ff5b7da005b26fa770d9c4357f", "lat": 38.90585033333333}, {"rental_uris": {"ios": "https://dc.lft.to/lastmile_qr_scan", "android": "https://dc.lft.to/lastmile_qr_scan"}, "is_reserved": 0, "fusion_lat": 0.0, "type": "electric_scooter", "bike_id": "b2601efc3900b5e1f40f4b0efb370db4", "is_disabled": 0, "lon": -77.04755766666666, "fusion_lon": 0.0, "name": "b2601efc3900b5e1f40f4b0efb370db4", "lat": 38.89962383333334}, {"rental_uris": {"ios": "https://dc.lft.to/lastmile_qr_scan", "android": "https://dc.lft.to/lastmile_qr_scan"}, "is_reserved": 0, "fusion_lat": 0.0, "type": "electric_scooter", "bike_id": "579eb832fda914138a04ebe7f26c5dd4", "is_disabled": 0, "lon": -77.04697316666666, "fusion_lon": 0.0, "name": "579eb832fda914138a04ebe7f26c5dd4", "lat": 38.921823}, {"rental_uris": {"ios": "https://dc.lft.to/lastmile_qr_scan", "android": "https://dc.lft.to/lastmile_qr_scan"}, "is_reserved": 0, "fusion_lat": 0.0, "type": "electric_scooter", "bike_id": "ebb512fe7ddcdb51d69028c6f6ee8e9e", "is_disabled": 0, "lon": -77.04870666666666, "fusion_lon": 0.0, "name": "ebb512fe7ddcdb51d69028c6f6ee8e9e", "lat": 38.89217466666667}, {"rental_uris": {"ios": "https://dc.lft.to/lastmile_qr_scan", "android": "https://dc.lft.to/lastmile_qr_scan"}, "is_reserved": 0, "fusion_lat": 0.0, "type": "electric_scooter", "bike_id": "fd20ff74b9f2d20124237c4617896cb8", "is_disabled": 0, "lon": -77.03359683333333, "fusion_lon": 0.0, "name": "fd20ff74b9f2d20124237c4617896cb8", "lat": 38.93222566666667}, {"rental_uris": {"ios": "https://dc.lft.to/lastmile_qr_scan", "android": "https://dc.lft.to/lastmile_qr_scan"}, "is_reserved": 0, "fusion_lat": 0.0, "type": "electric_scooter", "bike_id": "d47ff083b7935ce1908938bd097fac5e", "is_disabled": 0, "lon": -77.03592983333333, "fusion_lon": 0.0, "name": "d47ff083b7935ce1908938bd097fac5e", "lat": 38.9367325}, {"rental_uris": {"ios": "https://dc.lft.to/lastmile_qr_scan", "android": "https://dc.lft.to/lastmile_qr_scan"}, "is_reserved": 0, "fusion_lat": 0.0, "type": "electric_scooter", "bike_id": "c86fad1542a1b68a7fd5f19d9384c7b8", "is_disabled": 0, "lon": -77.0254035, "fusion_lon": 0.0, "name": "c86fad1542a1b68a7fd5f19d9384c7b8", "lat": 38.91993983333333}, {"rental_uris": {"ios": "https://dc.lft.to/lastmile_qr_scan", "android": "https://dc.lft.to/lastmile_qr_scan"}, "is_reserved": 0, "fusion_lat": 0.0, "type": "electric_scooter", "bike_id": "55ebc5cf783e355a9c4f69799297cb52", "is_disabled": 0, "lon": -77.02939316666667, "fusion_lon": 0.0, "name": "55ebc5cf783e355a9c4f69799297cb52", "lat": 38.89946466666667}, {"rental_uris": {"ios": "https://dc.lft.to/lastmile_qr_scan", "android": "https://dc.lft.to/lastmile_qr_scan"}, "is_reserved": 0, "fusion_lat": 0.0, "type": "electric_scooter", "bike_id": "9c8cf4464c74e0c008c281017741ab8f", "is_disabled": 0, "lon": -77.02296783333334, "fusion_lon": 0.0, "name": "9c8cf4464c74e0c008c281017741ab8f", "lat": 38.938745833333336}, {"rental_uris": {"ios": "https://dc.lft.to/lastmile_qr_scan", "android": "https://dc.lft.to/lastmile_qr_scan"}, "is_reserved": 0, "fusion_lat": 0.0, "type": "electric_scooter", "bike_id": "eb73e785dee98cf33e2910cc058b2472", "is_disabled": 0, "lon": -77.02448116666666, "fusion_lon": 0.0, "name": "eb73e785dee98cf33e2910cc058b2472", "lat": 38.93859616666667}, {"rental_uris": {"ios": "https://dc.lft.to/lastmile_qr_scan", "android": "https://dc.lft.to/lastmile_qr_scan"}, "is_reserved": 0, "fusion_lat": 0.0, "type": "electric_scooter", "bike_id": "f8e3c93ea07371aa584988213e09fc5c", "is_disabled": 0, "lon": -77.01628066666666, "fusion_lon": 0.0, "name": "f8e3c93ea07371aa584988213e09fc5c", "lat": 38.910914166666664}, {"rental_uris": {"ios": "https://dc.lft.to/lastmile_qr_scan", "android": "https://dc.lft.to/lastmile_qr_scan"}, "is_reserved": 0, "fusion_lat": 0.0, "type": "electric_scooter", "bike_id": "ef1da026e70a0d277839c95a2b616c33", "is_disabled": 0, "lon": -77.06878516666667, "fusion_lon": 0.0, "name": "ef1da026e70a0d277839c95a2b616c33", "lat": 38.905023}, {"rental_uris": {"ios": "https://dc.lft.to/lastmile_qr_scan", "android": "https://dc.lft.to/lastmile_qr_scan"}, "is_reserved": 0, "fusion_lat": 0.0, "type": "electric_scooter", "bike_id": "1778dab223ba91692aef8fddd8bf748b", "is_disabled": 0, "lon": -77.0400815, "fusion_lon": 0.0, "name": "1778dab223ba91692aef8fddd8bf748b", "lat": 38.896392166666665}, {"rental_uris": {"ios": "https://dc.lft.to/lastmile_qr_scan", "android": "https://dc.lft.to/lastmile_qr_scan"}, "is_reserved": 0, "fusion_lat": 0.0, "type": "electric_scooter", "bike_id": "59f4560ed62c9308f3561f55cc7502e2", "is_disabled": 0, "lon": -76.96663983333333, "fusion_lon": 0.0, "name": "59f4560ed62c9308f3561f55cc7502e2", "lat": 38.85588883333333}, {"rental_uris": {"ios": "https://dc.lft.to/lastmile_qr_scan", "android": "https://dc.lft.to/lastmile_qr_scan"}, "is_reserved": 0, "fusion_lat": 0.0, "type": "electric_scooter", "bike_id": "6f2a6e1275f9733688ef5c08e22c2f03", "is_disabled": 0, "lon": -77.021503, "fusion_lon": 0.0, "name": "6f2a6e1275f9733688ef5c08e22c2f03", "lat": 38.92458883333333}, {"rental_uris": {"ios": "https://dc.lft.to/lastmile_qr_scan", "android": "https://dc.lft.to/lastmile_qr_scan"}, "is_reserved": 0, "fusion_lat": 0.0, "type": "electric_scooter", "bike_id": "446b5d1cb87210d5d7d24402f764940c", "is_disabled": 0, "lon": -77.05027166666666, "fusion_lon": 0.0, "name": "446b5d1cb87210d5d7d24402f764940c", "lat": 38.92367633333333}, {"rental_uris": {"ios": "https://dc.lft.to/lastmile_qr_scan", "android": "https://dc.lft.to/lastmile_qr_scan"}, "is_reserved": 0, "fusion_lat": 0.0, "type": "electric_scooter", "bike_id": "17bbf5764fedc7207c3352ed3653f165", "is_disabled": 0, "lon": -77.02040983333333, "fusion_lon": 0.0, "name": "17bbf5764fedc7207c3352ed3653f165", "lat": 38.924008}, {"rental_uris": {"ios": "https://dc.lft.to/lastmile_qr_scan", "android": "https://dc.lft.to/lastmile_qr_scan"}, "is_reserved": 0, "fusion_lat": 0.0, "type": "electric_scooter", "bike_id": "d27d776582b1a081bbe0877904123a9f", "is_disabled": 0, "lon": -77.03176, "fusion_lon": 0.0, "name": "d27d776582b1a081bbe0877904123a9f", "lat": 38.915548666666666}, {"rental_uris": {"ios": "https://dc.lft.to/lastmile_qr_scan", "android": "https://dc.lft.to/lastmile_qr_scan"}, "is_reserved": 0, "fusion_lat": 0.0, "type": "electric_bike", "bike_id": "9014b3d33dfa0eb2b9b03738727e96ed", "is_disabled": 0, "lon": -77.02977166666666, "fusion_lon": 0.0, "name": "9014b3d33dfa0eb2b9b03738727e96ed", "lat": 38.948199333333335}, {"rental_uris": {"ios": "https://dc.lft.to/lastmile_qr_scan", "android": "https://dc.lft.to/lastmile_qr_scan"}, "is_reserved": 0, "fusion_lat": 0.0, "type": "electric_scooter", "bike_id": "657e2a04a733f683d4da8e8d2a9a8fb9", "is_disabled": 0, "lon": -77.02293, "fusion_lon": 0.0, "name": "657e2a04a733f683d4da8e8d2a9a8fb9", "lat": 38.8972565}, {"rental_uris": {"ios": "https://dc.lft.to/lastmile_qr_scan", "android": "https://dc.lft.to/lastmile_qr_scan"}, "is_reserved": 0, "fusion_lat": 0.0, "type": "electric_scooter", "bike_id": "1e022ca5b068471dcaf94c248408d41b", "is_disabled": 0, "lon": -77.04187966666667, "fusion_lon": 0.0, "name": "1e022ca5b068471dcaf94c248408d41b", "lat": 38.923333666666664}, {"rental_uris": {"ios": "https://dc.lft.to/lastmile_qr_scan", "android": "https://dc.lft.to/lastmile_qr_scan"}, "is_reserved": 0, "fusion_lat": 0.0, "type": "electric_scooter", "bike_id": "1b19f7385787303b8c164b733206318a", "is_disabled": 0, "lon": -76.98267233333334, "fusion_lon": 0.0, "name": "1b19f7385787303b8c164b733206318a", "lat": 38.900501}, {"rental_uris": {"ios": "https://dc.lft.to/lastmile_qr_scan", "android": "https://dc.lft.to/lastmile_qr_scan"}, "is_reserved": 0, "fusion_lat": 0.0, "type": "electric_scooter", "bike_id": "b0dfe7c8dd11adf469bc0e8d0e681a83", "is_disabled": 0, "lon": -77.02770733333334, "fusion_lon": 0.0, "name": "b0dfe7c8dd11adf469bc0e8d0e681a83", "lat": 38.88162616666666}, {"rental_uris": {"ios": "https://dc.lft.to/lastmile_qr_scan", "android": "https://dc.lft.to/lastmile_qr_scan"}, "is_reserved": 0, "fusion_lat": 0.0, "type": "electric_scooter", "bike_id": "7d3683c713036e0283638e9ea9631fc1", "is_disabled": 0, "lon": -77.071645, "fusion_lon": 0.0, "name": "7d3683c713036e0283638e9ea9631fc1", "lat": 38.908719833333336}, {"rental_uris": {"ios": "https://dc.lft.to/lastmile_qr_scan", "android": "https://dc.lft.to/lastmile_qr_scan"}, "is_reserved": 0, "fusion_lat": 0.0, "type": "electric_scooter", "bike_id": "7ba851bceecd3502b2cd45a9c5a118b6", "is_disabled": 0, "lon": -77.01001316666667, "fusion_lon": 0.0, "name": "7ba851bceecd3502b2cd45a9c5a118b6", "lat": 38.906222}, {"rental_uris": {"ios": "https://dc.lft.to/lastmile_qr_scan", "android": "https://dc.lft.to/lastmile_qr_scan"}, "is_reserved": 0, "fusion_lat": 0.0, "type": "electric_scooter", "bike_id": "a5f3cf2a25399d40dd238ff2db9a4298", "is_disabled": 0, "lon": -77.004386, "fusion_lon": 0.0, "name": "a5f3cf2a25399d40dd238ff2db9a4298", "lat": 38.877136666666665}, {"rental_uris": {"ios": "https://dc.lft.to/lastmile_qr_scan", "android": "https://dc.lft.to/lastmile_qr_scan"}, "is_reserved": 0, "fusion_lat": 0.0, "type": "electric_scooter", "bike_id": "307852bf4e25ccea34607d84fcce8fd0", "is_disabled": 0, "lon": -77.02843033333333, "fusion_lon": 0.0, "name": "307852bf4e25ccea34607d84fcce8fd0", "lat": 38.8874715}, {"rental_uris": {"ios": "https://dc.lft.to/lastmile_qr_scan", "android": "https://dc.lft.to/lastmile_qr_scan"}, "is_reserved": 0, "fusion_lat": 0.0, "type": "electric_scooter", "bike_id": "dbbdf1d54f071adeda1ce480eaf9cfff", "is_disabled": 0, "lon": -77.0393575, "fusion_lon": 0.0, "name": "dbbdf1d54f071adeda1ce480eaf9cfff", "lat": 38.904712333333336}, {"rental_uris": {"ios": "https://dc.lft.to/lastmile_qr_scan", "android": "https://dc.lft.to/lastmile_qr_scan"}, "is_reserved": 0, "fusion_lat": 0.0, "type": "electric_scooter", "bike_id": "71ac4745895948144502986549918a69", "is_disabled": 0, "lon": -77.00452616666666, "fusion_lon": 0.0, "name": "71ac4745895948144502986549918a69", "lat": 38.87714416666667}, {"rental_uris": {"ios": "https://dc.lft.to/lastmile_qr_scan", "android": "https://dc.lft.to/lastmile_qr_scan"}, "is_reserved": 0, "fusion_lat": 0.0, "type": "electric_scooter", "bike_id": "1ab27dc036a48401b96846cd25b61467", "is_disabled": 0, "lon": -77.08665366666666, "fusion_lon": 0.0, "name": "1ab27dc036a48401b96846cd25b61467", "lat": 38.93475816666667}, {"rental_uris": {"ios": "https://dc.lft.to/lastmile_qr_scan", "android": "https://dc.lft.to/lastmile_qr_scan"}, "is_reserved": 0, "fusion_lat": 0.0, "type": "electric_scooter", "bike_id": "2432388256d686560c5d1d3330914e95", "is_disabled": 0, "lon": -77.0271365, "fusion_lon": 0.0, "name": "2432388256d686560c5d1d3330914e95", "lat": 38.9091285}, {"rental_uris": {"ios": "https://dc.lft.to/lastmile_qr_scan", "android": "https://dc.lft.to/lastmile_qr_scan"}, "is_reserved": 0, "fusion_lat": 0.0, "type": "electric_scooter", "bike_id": "30819869b2a7f5f492b3c35ebb7340e7", "is_disabled": 0, "lon": -77.02791833333333, "fusion_lon": 0.0, "name": "30819869b2a7f5f492b3c35ebb7340e7", "lat": 38.9392965}, {"rental_uris": {"ios": "https://dc.lft.to/lastmile_qr_scan", "android": "https://dc.lft.to/lastmile_qr_scan"}, "is_reserved": 0, "fusion_lat": 0.0, "type": "electric_scooter", "bike_id": "8eeb8759fb38bb81c25cd04210a8a7af", "is_disabled": 0, "lon": -77.05582183333334, "fusion_lon": 0.0, "name": "8eeb8759fb38bb81c25cd04210a8a7af", "lat": 38.93434083333333}, {"rental_uris": {"ios": "https://dc.lft.to/lastmile_qr_scan", "android": "https://dc.lft.to/lastmile_qr_scan"}, "is_reserved": 0, "fusion_lat": 0.0, "type": "electric_scooter", "bike_id": "66298a061bc848da7e9c1c48e5089074", "is_disabled": 0, "lon": -77.02999183333333, "fusion_lon": 0.0, "name": "66298a061bc848da7e9c1c48e5089074", "lat": 38.902575666666664}, {"rental_uris": {"ios": "https://dc.lft.to/lastmile_qr_scan", "android": "https://dc.lft.to/lastmile_qr_scan"}, "is_reserved": 0, "fusion_lat": 0.0, "type": "electric_scooter", "bike_id": "fe727e655842877d4238659f76eb08bc", "is_disabled": 0, "lon": -77.0484085, "fusion_lon": 0.0, "name": "fe727e655842877d4238659f76eb08bc", "lat": 38.8954505}, {"rental_uris": {"ios": "https://dc.lft.to/lastmile_qr_scan", "android": "https://dc.lft.to/lastmile_qr_scan"}, "is_reserved": 0, "fusion_lat": 0.0, "type": "electric_scooter", "bike_id": "73b009dae9bc097295e7621200918160", "is_disabled": 0, "lon": -77.0231335, "fusion_lon": 0.0, "name": "73b009dae9bc097295e7621200918160", "lat": 38.917144}, {"rental_uris": {"ios": "https://dc.lft.to/lastmile_qr_scan", "android": "https://dc.lft.to/lastmile_qr_scan"}, "is_reserved": 0, "fusion_lat": 0.0, "type": "electric_bike", "bike_id": "b135e283dc513bdf3bed27d126b5383c", "is_disabled": 0, "lon": -77.10684766666667, "fusion_lon": 0.0, "name": "b135e283dc513bdf3bed27d126b5383c", "lat": 38.86450816666667}, {"rental_uris": {"ios": "https://dc.lft.to/lastmile_qr_scan", "android": "https://dc.lft.to/lastmile_qr_scan"}, "is_reserved": 0, "fusion_lat": 0.0, "type": "electric_scooter", "bike_id": "43398d78097cc0ca9ac4a4000bf208c5", "is_disabled": 0, "lon": -77.03215816666666, "fusion_lon": 0.0, "name": "43398d78097cc0ca9ac4a4000bf208c5", "lat": 38.916338}, {"rental_uris": {"ios": "https://dc.lft.to/lastmile_qr_scan", "android": "https://dc.lft.to/lastmile_qr_scan"}, "is_reserved": 0, "fusion_lat": 0.0, "type": "electric_scooter", "bike_id": "34ab640be1b21479459e0a6b3ae30a04", "is_disabled": 0, "lon": -77.02540066666667, "fusion_lon": 0.0, "name": "34ab640be1b21479459e0a6b3ae30a04", "lat": 38.93283233333333}, {"rental_uris": {"ios": "https://dc.lft.to/lastmile_qr_scan", "android": "https://dc.lft.to/lastmile_qr_scan"}, "is_reserved": 0, "fusion_lat": 0.0, "type": "electric_scooter", "bike_id": "05839049aa5fc08f65dee2658fe9966a", "is_disabled": 0, "lon": -77.00341633333333, "fusion_lon": 0.0, "name": "05839049aa5fc08f65dee2658fe9966a", "lat": 38.91892133333333}, {"rental_uris": {"ios": "https://dc.lft.to/lastmile_qr_scan", "android": "https://dc.lft.to/lastmile_qr_scan"}, "is_reserved": 0, "fusion_lat": 0.0, "type": "electric_scooter", "bike_id": "774a6bcca79898030bac513a833d80ee", "is_disabled": 0, "lon": -77.04180683333334, "fusion_lon": 0.0, "name": "774a6bcca79898030bac513a833d80ee", "lat": 38.9155895}, {"rental_uris": {"ios": "https://dc.lft.to/lastmile_qr_scan", "android": "https://dc.lft.to/lastmile_qr_scan"}, "is_reserved": 0, "fusion_lat": 0.0, "type": "electric_scooter", "bike_id": "c7362142e1a28ee2635db17fb0db453c", "is_disabled": 0, "lon": -77.03171, "fusion_lon": 0.0, "name": "c7362142e1a28ee2635db17fb0db453c", "lat": 38.91553666666667}, {"rental_uris": {"ios": "https://dc.lft.to/lastmile_qr_scan", "android": "https://dc.lft.to/lastmile_qr_scan"}, "is_reserved": 0, "fusion_lat": 0.0, "type": "electric_bike", "bike_id": "5b209fc37b1dcf1c4c629c1a4012a4db", "is_disabled": 0, "lon": -76.93871583333333, "fusion_lon": 0.0, "name": "5b209fc37b1dcf1c4c629c1a4012a4db", "lat": 38.95632833333333}, {"rental_uris": {"ios": "https://dc.lft.to/lastmile_qr_scan", "android": "https://dc.lft.to/lastmile_qr_scan"}, "is_reserved": 0, "fusion_lat": 0.0, "type": "electric_scooter", "bike_id": "6a669b6e32962a7e3e768d724e90ac17", "is_disabled": 0, "lon": -77.00981183333333, "fusion_lon": 0.0, "name": "6a669b6e32962a7e3e768d724e90ac17", "lat": 38.897261}, {"rental_uris": {"ios": "https://dc.lft.to/lastmile_qr_scan", "android": "https://dc.lft.to/lastmile_qr_scan"}, "is_reserved": 0, "fusion_lat": 0.0, "type": "electric_scooter", "bike_id": "5b34bf58c5111186742fd1c5fb471216", "is_disabled": 0, "lon": -77.022947, "fusion_lon": 0.0, "name": "5b34bf58c5111186742fd1c5fb471216", "lat": 38.920688166666665}, {"rental_uris": {"ios": "https://dc.lft.to/lastmile_qr_scan", "android": "https://dc.lft.to/lastmile_qr_scan"}, "is_reserved": 0, "fusion_lat": 0.0, "type": "electric_scooter", "bike_id": "a0119b55206adb91226cd67666dc5cfb", "is_disabled": 0, "lon": -77.02409, "fusion_lon": 0.0, "name": "a0119b55206adb91226cd67666dc5cfb", "lat": 38.9197805}, {"rental_uris": {"ios": "https://dc.lft.to/lastmile_qr_scan", "android": "https://dc.lft.to/lastmile_qr_scan"}, "is_reserved": 0, "fusion_lat": 0.0, "type": "electric_scooter", "bike_id": "4d83bc56ea86e9326e03ea803b221138", "is_disabled": 0, "lon": -77.02237983333333, "fusion_lon": 0.0, "name": "4d83bc56ea86e9326e03ea803b221138", "lat": 38.924553333333336}, {"rental_uris": {"ios": "https://dc.lft.to/lastmile_qr_scan", "android": "https://dc.lft.to/lastmile_qr_scan"}, "is_reserved": 0, "fusion_lat": 0.0, "type": "electric_scooter", "bike_id": "007e5eb28a7a92a787e6ffc2ac2da78c", "is_disabled": 0, "lon": -77.023763, "fusion_lon": 0.0, "name": "007e5eb28a7a92a787e6ffc2ac2da78c", "lat": 38.87964683333333}, {"rental_uris": {"ios": "https://dc.lft.to/lastmile_qr_scan", "android": "https://dc.lft.to/lastmile_qr_scan"}, "is_reserved": 0, "fusion_lat": 0.0, "type": "electric_scooter", "bike_id": "6ebc3492afc49e6f2c3ebf6af2ceadc8", "is_disabled": 0, "lon": -77.03171433333333, "fusion_lon": 0.0, "name": "6ebc3492afc49e6f2c3ebf6af2ceadc8", "lat": 38.8978205}, {"rental_uris": {"ios": "https://dc.lft.to/lastmile_qr_scan", "android": "https://dc.lft.to/lastmile_qr_scan"}, "is_reserved": 0, "fusion_lat": 0.0, "type": "electric_scooter", "bike_id": "ea89628245e945370dd6cb9aa00ee994", "is_disabled": 0, "lon": -77.034015, "fusion_lon": 0.0, "name": "ea89628245e945370dd6cb9aa00ee994", "lat": 38.9082825}, {"rental_uris": {"ios": "https://dc.lft.to/lastmile_qr_scan", "android": "https://dc.lft.to/lastmile_qr_scan"}, "is_reserved": 0, "fusion_lat": 0.0, "type": "electric_scooter", "bike_id": "0303832f731dabaa3db5052b1caa325e", "is_disabled": 0, "lon": -77.02127283333333, "fusion_lon": 0.0, "name": "0303832f731dabaa3db5052b1caa325e", "lat": 38.923672333333336}, {"rental_uris": {"ios": "https://dc.lft.to/lastmile_qr_scan", "android": "https://dc.lft.to/lastmile_qr_scan"}, "is_reserved": 0, "fusion_lat": 0.0, "type": "electric_bike", "bike_id": "c8e6901f511dfd4673a38e78e29796e5", "is_disabled": 0, "lon": -76.96369783333333, "fusion_lon": 0.0, "name": "c8e6901f511dfd4673a38e78e29796e5", "lat": 38.94902066666667}, {"rental_uris": {"ios": "https://dc.lft.to/lastmile_qr_scan", "android": "https://dc.lft.to/lastmile_qr_scan"}, "is_reserved": 0, "fusion_lat": 0.0, "type": "electric_scooter", "bike_id": "eaef08bd5d784083b7d5405429995ac8", "is_disabled": 0, "lon": -77.03845183333334, "fusion_lon": 0.0, "name": "eaef08bd5d784083b7d5405429995ac8", "lat": 38.90275966666667}, {"rental_uris": {"ios": "https://dc.lft.to/lastmile_qr_scan", "android": "https://dc.lft.to/lastmile_qr_scan"}, "is_reserved": 0, "fusion_lat": 0.0, "type": "electric_scooter", "bike_id": "d30665994f92a0860c957f29f4b67494", "is_disabled": 0, "lon": -77.02604616666666, "fusion_lon": 0.0, "name": "d30665994f92a0860c957f29f4b67494", "lat": 38.92798883333333}, {"rental_uris": {"ios": "https://dc.lft.to/lastmile_qr_scan", "android": "https://dc.lft.to/lastmile_qr_scan"}, "is_reserved": 0, "fusion_lat": 0.0, "type": "electric_scooter", "bike_id": "705c9aa6c760779be6a0e7af381bc15b", "is_disabled": 0, "lon": -77.0644435, "fusion_lon": 0.0, "name": "705c9aa6c760779be6a0e7af381bc15b", "lat": 38.907808333333335}, {"rental_uris": {"ios": "https://dc.lft.to/lastmile_qr_scan", "android": "https://dc.lft.to/lastmile_qr_scan"}, "is_reserved": 0, "fusion_lat": 0.0, "type": "electric_scooter", "bike_id": "e282c5b217f9f8cec893bea51c88d627", "is_disabled": 0, "lon": -77.051252, "fusion_lon": 0.0, "name": "e282c5b217f9f8cec893bea51c88d627", "lat": 38.92522}, {"rental_uris": {"ios": "https://dc.lft.to/lastmile_qr_scan", "android": "https://dc.lft.to/lastmile_qr_scan"}, "is_reserved": 0, "fusion_lat": 0.0, "type": "electric_scooter", "bike_id": "30f82f0e99dbd5481aa567965a90a8b2", "is_disabled": 0, "lon": -77.04062566666667, "fusion_lon": 0.0, "name": "30f82f0e99dbd5481aa567965a90a8b2", "lat": 38.899232166666664}, {"rental_uris": {"ios": "https://dc.lft.to/lastmile_qr_scan", "android": "https://dc.lft.to/lastmile_qr_scan"}, "is_reserved": 0, "fusion_lat": 0.0, "type": "electric_scooter", "bike_id": "0fefb6e595f02e4a8f5e2ab687edf13c", "is_disabled": 0, "lon": -77.04373016666666, "fusion_lon": 0.0, "name": "0fefb6e595f02e4a8f5e2ab687edf13c", "lat": 38.892210666666664}, {"rental_uris": {"ios": "https://dc.lft.to/lastmile_qr_scan", "android": "https://dc.lft.to/lastmile_qr_scan"}, "is_reserved": 0, "fusion_lat": 0.0, "type": "electric_scooter", "bike_id": "7278f866a741627b0d1d66632e3f9bc9", "is_disabled": 0, "lon": -76.9463745, "fusion_lon": 0.0, "name": "7278f866a741627b0d1d66632e3f9bc9", "lat": 38.89869066666667}, {"rental_uris": {"ios": "https://dc.lft.to/lastmile_qr_scan", "android": "https://dc.lft.to/lastmile_qr_scan"}, "is_reserved": 0, "fusion_lat": 0.0, "type": "electric_scooter", "bike_id": "4917ab0bf26a736dea7c8c1ae56ae8bf", "is_disabled": 0, "lon": -77.06326, "fusion_lon": 0.0, "name": "4917ab0bf26a736dea7c8c1ae56ae8bf", "lat": 38.90402566666667}, {"rental_uris": {"ios": "https://dc.lft.to/lastmile_qr_scan", "android": "https://dc.lft.to/lastmile_qr_scan"}, "is_reserved": 0, "fusion_lat": 0.0, "type": "electric_scooter", "bike_id": "716743afa373ba869ecd5e5aa425471b", "is_disabled": 0, "lon": -77.060353, "fusion_lon": 0.0, "name": "716743afa373ba869ecd5e5aa425471b", "lat": 38.905274666666664}, {"rental_uris": {"ios": "https://dc.lft.to/lastmile_qr_scan", "android": "https://dc.lft.to/lastmile_qr_scan"}, "is_reserved": 0, "fusion_lat": 0.0, "type": "electric_bike", "bike_id": "7ccca3cc75fccb51acbfbee4b213c692", "is_disabled": 0, "lon": -77.00301983333334, "fusion_lon": 0.0, "name": "7ccca3cc75fccb51acbfbee4b213c692", "lat": 38.833619166666665}, {"rental_uris": {"ios": "https://dc.lft.to/lastmile_qr_scan", "android": "https://dc.lft.to/lastmile_qr_scan"}, "is_reserved": 0, "fusion_lat": 0.0, "type": "electric_scooter", "bike_id": "769ff665e26e11b933e40ec5a52fad06", "is_disabled": 0, "lon": -76.998935, "fusion_lon": 0.0, "name": "769ff665e26e11b933e40ec5a52fad06", "lat": 38.90954816666667}, {"rental_uris": {"ios": "https://dc.lft.to/lastmile_qr_scan", "android": "https://dc.lft.to/lastmile_qr_scan"}, "is_reserved": 0, "fusion_lat": 0.0, "type": "electric_scooter", "bike_id": "b6abb08b0dcb877ae9a1e350cb8b1528", "is_disabled": 0, "lon": -77.035087, "fusion_lon": 0.0, "name": "b6abb08b0dcb877ae9a1e350cb8b1528", "lat": 38.92154566666667}, {"rental_uris": {"ios": "https://dc.lft.to/lastmile_qr_scan", "android": "https://dc.lft.to/lastmile_qr_scan"}, "is_reserved": 0, "fusion_lat": 0.0, "type": "electric_scooter", "bike_id": "433a5f9b156c31192163202a4c3837c6", "is_disabled": 0, "lon": -77.04429116666667, "fusion_lon": 0.0, "name": "433a5f9b156c31192163202a4c3837c6", "lat": 38.92122033333333}, {"rental_uris": {"ios": "https://dc.lft.to/lastmile_qr_scan", "android": "https://dc.lft.to/lastmile_qr_scan"}, "is_reserved": 0, "fusion_lat": 0.0, "type": "electric_scooter", "bike_id": "44f0701d39049b213012413881db9e8f", "is_disabled": 0, "lon": -77.01911733333333, "fusion_lon": 0.0, "name": "44f0701d39049b213012413881db9e8f", "lat": 38.902385333333335}, {"rental_uris": {"ios": "https://dc.lft.to/lastmile_qr_scan", "android": "https://dc.lft.to/lastmile_qr_scan"}, "is_reserved": 0, "fusion_lat": 0.0, "type": "electric_scooter", "bike_id": "65f25fb4307539059c0dfd22e2309771", "is_disabled": 0, "lon": -77.039738, "fusion_lon": 0.0, "name": "65f25fb4307539059c0dfd22e2309771", "lat": 38.89556066666667}, {"rental_uris": {"ios": "https://dc.lft.to/lastmile_qr_scan", "android": "https://dc.lft.to/lastmile_qr_scan"}, "is_reserved": 0, "fusion_lat": 0.0, "type": "electric_scooter", "bike_id": "f1e7ebb4ca713d3ebb218c0d215755f6", "is_disabled": 0, "lon": -77.029893, "fusion_lon": 0.0, "name": "f1e7ebb4ca713d3ebb218c0d215755f6", "lat": 38.9085995}, {"rental_uris": {"ios": "https://dc.lft.to/lastmile_qr_scan", "android": "https://dc.lft.to/lastmile_qr_scan"}, "is_reserved": 0, "fusion_lat": 0.0, "type": "electric_scooter", "bike_id": "971509e9ccd19b6a191dcd88e8ad6bde", "is_disabled": 0, "lon": -77.0559705, "fusion_lon": 0.0, "name": "971509e9ccd19b6a191dcd88e8ad6bde", "lat": 38.905363666666666}, {"rental_uris": {"ios": "https://dc.lft.to/lastmile_qr_scan", "android": "https://dc.lft.to/lastmile_qr_scan"}, "is_reserved": 0, "fusion_lat": 0.0, "type": "electric_scooter", "bike_id": "0b7f9322650f0f471e0250639832ff87", "is_disabled": 0, "lon": -77.05783183333334, "fusion_lon": 0.0, "name": "0b7f9322650f0f471e0250639832ff87", "lat": 38.905134}, {"rental_uris": {"ios": "https://dc.lft.to/lastmile_qr_scan", "android": "https://dc.lft.to/lastmile_qr_scan"}, "is_reserved": 0, "fusion_lat": 0.0, "type": "electric_scooter", "bike_id": "c72b5e7db6b1bf5fe8bb4173fb33cc12", "is_disabled": 0, "lon": -77.03179333333334, "fusion_lon": 0.0, "name": "c72b5e7db6b1bf5fe8bb4173fb33cc12", "lat": 38.9170885}, {"rental_uris": {"ios": "https://dc.lft.to/lastmile_qr_scan", "android": "https://dc.lft.to/lastmile_qr_scan"}, "is_reserved": 0, "fusion_lat": 0.0, "type": "electric_scooter", "bike_id": "1d63794970e853816c654451057316d2", "is_disabled": 0, "lon": -76.99518233333333, "fusion_lon": 0.0, "name": "1d63794970e853816c654451057316d2", "lat": 38.88610883333333}, {"rental_uris": {"ios": "https://dc.lft.to/lastmile_qr_scan", "android": "https://dc.lft.to/lastmile_qr_scan"}, "is_reserved": 0, "fusion_lat": 0.0, "type": "electric_scooter", "bike_id": "be0dd77b006c2272b243cdf8976d94d4", "is_disabled": 0, "lon": -77.04695433333333, "fusion_lon": 0.0, "name": "be0dd77b006c2272b243cdf8976d94d4", "lat": 38.921792333333336}, {"rental_uris": {"ios": "https://dc.lft.to/lastmile_qr_scan", "android": "https://dc.lft.to/lastmile_qr_scan"}, "is_reserved": 0, "fusion_lat": 0.0, "type": "electric_scooter", "bike_id": "be3a3a8c3e6937c7ef69379fb1fd3c15", "is_disabled": 0, "lon": -77.0213425, "fusion_lon": 0.0, "name": "be3a3a8c3e6937c7ef69379fb1fd3c15", "lat": 38.927501166666666}, {"rental_uris": {"ios": "https://dc.lft.to/lastmile_qr_scan", "android": "https://dc.lft.to/lastmile_qr_scan"}, "is_reserved": 0, "fusion_lat": 0.0, "type": "electric_scooter", "bike_id": "fb8cbae7c8d1224df17b78d3f71c8177", "is_disabled": 0, "lon": -77.03527983333333, "fusion_lon": 0.0, "name": "fb8cbae7c8d1224df17b78d3f71c8177", "lat": 38.92526466666666}, {"rental_uris": {"ios": "https://dc.lft.to/lastmile_qr_scan", "android": "https://dc.lft.to/lastmile_qr_scan"}, "is_reserved": 0, "fusion_lat": 0.0, "type": "electric_scooter", "bike_id": "e0c5cf6fad3df063a2322feffe00e884", "is_disabled": 0, "lon": -77.00916816666667, "fusion_lon": 0.0, "name": "e0c5cf6fad3df063a2322feffe00e884", "lat": 38.87638116666667}, {"rental_uris": {"ios": "https://dc.lft.to/lastmile_qr_scan", "android": "https://dc.lft.to/lastmile_qr_scan"}, "is_reserved": 0, "fusion_lat": 0.0, "type": "electric_scooter", "bike_id": "e8cc7caedc8b6c0487bb1ec6025f205d", "is_disabled": 0, "lon": -77.04349683333334, "fusion_lon": 0.0, "name": "e8cc7caedc8b6c0487bb1ec6025f205d", "lat": 38.90356966666667}, {"rental_uris": {"ios": "https://dc.lft.to/lastmile_qr_scan", "android": "https://dc.lft.to/lastmile_qr_scan"}, "is_reserved": 0, "fusion_lat": 0.0, "type": "electric_scooter", "bike_id": "45866489efb015dddc68392484f2c151", "is_disabled": 0, "lon": -77.02386483333333, "fusion_lon": 0.0, "name": "45866489efb015dddc68392484f2c151", "lat": 38.926564666666664}, {"rental_uris": {"ios": "https://dc.lft.to/lastmile_qr_scan", "android": "https://dc.lft.to/lastmile_qr_scan"}, "is_reserved": 0, "fusion_lat": 0.0, "type": "electric_scooter", "bike_id": "d7312499b07c53303464df68862b8be6", "is_disabled": 0, "lon": -77.053766, "fusion_lon": 0.0, "name": "d7312499b07c53303464df68862b8be6", "lat": 38.9049195}, {"rental_uris": {"ios": "https://dc.lft.to/lastmile_qr_scan", "android": "https://dc.lft.to/lastmile_qr_scan"}, "is_reserved": 0, "fusion_lat": 0.0, "type": "electric_scooter", "bike_id": "4f70448baf6b5d94d2f788a41652383e", "is_disabled": 0, "lon": -77.02289233333333, "fusion_lon": 0.0, "name": "4f70448baf6b5d94d2f788a41652383e", "lat": 38.91444383333334}, {"rental_uris": {"ios": "https://dc.lft.to/lastmile_qr_scan", "android": "https://dc.lft.to/lastmile_qr_scan"}, "is_reserved": 0, "fusion_lat": 0.0, "type": "electric_bike", "bike_id": "374c5cb9deb59ffe39d31edc0212a37a", "is_disabled": 0, "lon": -77.0074375, "fusion_lon": 0.0, "name": "374c5cb9deb59ffe39d31edc0212a37a", "lat": 38.8770345}, {"rental_uris": {"ios": "https://dc.lft.to/lastmile_qr_scan", "android": "https://dc.lft.to/lastmile_qr_scan"}, "is_reserved": 0, "fusion_lat": 0.0, "type": "electric_scooter", "bike_id": "a9f77b5031db479bda7a77eb45a69cdb", "is_disabled": 0, "lon": -77.0167785, "fusion_lon": 0.0, "name": "a9f77b5031db479bda7a77eb45a69cdb", "lat": 38.920404}, {"rental_uris": {"ios": "https://dc.lft.to/lastmile_qr_scan", "android": "https://dc.lft.to/lastmile_qr_scan"}, "is_reserved": 0, "fusion_lat": 0.0, "type": "electric_scooter", "bike_id": "9af0c39b525f4d56d7eeb3e9b5851220", "is_disabled": 0, "lon": -77.0500905, "fusion_lon": 0.0, "name": "9af0c39b525f4d56d7eeb3e9b5851220", "lat": 38.9063215}, {"rental_uris": {"ios": "https://dc.lft.to/lastmile_qr_scan", "android": "https://dc.lft.to/lastmile_qr_scan"}, "is_reserved": 0, "fusion_lat": 0.0, "type": "electric_scooter", "bike_id": "b476c2efdbd47e0ca11c2fd651c93606", "is_disabled": 0, "lon": -76.99943783333333, "fusion_lon": 0.0, "name": "b476c2efdbd47e0ca11c2fd651c93606", "lat": 38.9004}, {"rental_uris": {"ios": "https://dc.lft.to/lastmile_qr_scan", "android": "https://dc.lft.to/lastmile_qr_scan"}, "is_reserved": 0, "fusion_lat": 0.0, "type": "electric_scooter", "bike_id": "906cdd7af74cf8c76a7d6c7eb6f1580e", "is_disabled": 0, "lon": -77.018041, "fusion_lon": 0.0, "name": "906cdd7af74cf8c76a7d6c7eb6f1580e", "lat": 38.901437666666666}, {"rental_uris": {"ios": "https://dc.lft.to/lastmile_qr_scan", "android": "https://dc.lft.to/lastmile_qr_scan"}, "is_reserved": 0, "fusion_lat": 0.0, "type": "electric_scooter", "bike_id": "4fcc93ba5d69a7aa22851e902cc70b5d", "is_disabled": 0, "lon": -77.00584133333334, "fusion_lon": 0.0, "name": "4fcc93ba5d69a7aa22851e902cc70b5d", "lat": 38.885215333333335}, {"rental_uris": {"ios": "https://dc.lft.to/lastmile_qr_scan", "android": "https://dc.lft.to/lastmile_qr_scan"}, "is_reserved": 0, "fusion_lat": 0.0, "type": "electric_scooter", "bike_id": "1873db378177a6050829150cf52bc16e", "is_disabled": 0, "lon": -77.04638183333333, "fusion_lon": 0.0, "name": "1873db378177a6050829150cf52bc16e", "lat": 38.922349833333335}, {"rental_uris": {"ios": "https://dc.lft.to/lastmile_qr_scan", "android": "https://dc.lft.to/lastmile_qr_scan"}, "is_reserved": 0, "fusion_lat": 0.0, "type": "electric_scooter", "bike_id": "f2f6204d2441e0e1ba5f58b47d03b4d2", "is_disabled": 0, "lon": -77.03202516666667, "fusion_lon": 0.0, "name": "f2f6204d2441e0e1ba5f58b47d03b4d2", "lat": 38.90781583333333}, {"rental_uris": {"ios": "https://dc.lft.to/lastmile_qr_scan", "android": "https://dc.lft.to/lastmile_qr_scan"}, "is_reserved": 0, "fusion_lat": 0.0, "type": "electric_scooter", "bike_id": "9e6c9daece518277357ede4c5dcf9fbd", "is_disabled": 0, "lon": -77.00838166666666, "fusion_lon": 0.0, "name": "9e6c9daece518277357ede4c5dcf9fbd", "lat": 38.89718533333333}, {"rental_uris": {"ios": "https://dc.lft.to/lastmile_qr_scan", "android": "https://dc.lft.to/lastmile_qr_scan"}, "is_reserved": 0, "fusion_lat": 0.0, "type": "electric_scooter", "bike_id": "53d5bea40b4023102373a8a65e2c5afc", "is_disabled": 0, "lon": -77.03455133333334, "fusion_lon": 0.0, "name": "53d5bea40b4023102373a8a65e2c5afc", "lat": 38.90478}, {"rental_uris": {"ios": "https://dc.lft.to/lastmile_qr_scan", "android": "https://dc.lft.to/lastmile_qr_scan"}, "is_reserved": 0, "fusion_lat": 0.0, "type": "electric_scooter", "bike_id": "fdeb8d75133dc5c08e2d4176a72847ad", "is_disabled": 0, "lon": -77.0426285, "fusion_lon": 0.0, "name": "fdeb8d75133dc5c08e2d4176a72847ad", "lat": 38.89539883333333}, {"rental_uris": {"ios": "https://dc.lft.to/lastmile_qr_scan", "android": "https://dc.lft.to/lastmile_qr_scan"}, "is_reserved": 0, "fusion_lat": 0.0, "type": "electric_scooter", "bike_id": "03c70c66b837360054449b1068a8d3a8", "is_disabled": 0, "lon": -77.03452233333333, "fusion_lon": 0.0, "name": "03c70c66b837360054449b1068a8d3a8", "lat": 38.905727666666664}, {"rental_uris": {"ios": "https://dc.lft.to/lastmile_qr_scan", "android": "https://dc.lft.to/lastmile_qr_scan"}, "is_reserved": 0, "fusion_lat": 0.0, "type": "electric_scooter", "bike_id": "89dfdbd897368ce1684676183b8d3e62", "is_disabled": 0, "lon": -77.03842116666667, "fusion_lon": 0.0, "name": "89dfdbd897368ce1684676183b8d3e62", "lat": 38.94190533333333}, {"rental_uris": {"ios": "https://dc.lft.to/lastmile_qr_scan", "android": "https://dc.lft.to/lastmile_qr_scan"}, "is_reserved": 0, "fusion_lat": 0.0, "type": "electric_scooter", "bike_id": "01aabda00b24afc582a6df14cc7ac933", "is_disabled": 0, "lon": -77.04068716666667, "fusion_lon": 0.0, "name": "01aabda00b24afc582a6df14cc7ac933", "lat": 38.90494066666667}, {"rental_uris": {"ios": "https://dc.lft.to/lastmile_qr_scan", "android": "https://dc.lft.to/lastmile_qr_scan"}, "is_reserved": 0, "fusion_lat": 0.0, "type": "electric_scooter", "bike_id": "d92dd46943f13ef78b281156c4ad90d6", "is_disabled": 0, "lon": -77.0100205, "fusion_lon": 0.0, "name": "d92dd46943f13ef78b281156c4ad90d6", "lat": 38.902632833333335}, {"rental_uris": {"ios": "https://dc.lft.to/lastmile_qr_scan", "android": "https://dc.lft.to/lastmile_qr_scan"}, "is_reserved": 0, "fusion_lat": 0.0, "type": "electric_scooter", "bike_id": "eed8f04c7b682f04ec3be01636f37830", "is_disabled": 0, "lon": -77.0237975, "fusion_lon": 0.0, "name": "eed8f04c7b682f04ec3be01636f37830", "lat": 38.91157116666667}, {"rental_uris": {"ios": "https://dc.lft.to/lastmile_qr_scan", "android": "https://dc.lft.to/lastmile_qr_scan"}, "is_reserved": 0, "fusion_lat": 0.0, "type": "electric_bike", "bike_id": "bbf9c919d5ca7972f0b60b1b999009a9", "is_disabled": 0, "lon": -76.987513, "fusion_lon": 0.0, "name": "bbf9c919d5ca7972f0b60b1b999009a9", "lat": 38.857731333333334}, {"rental_uris": {"ios": "https://dc.lft.to/lastmile_qr_scan", "android": "https://dc.lft.to/lastmile_qr_scan"}, "is_reserved": 0, "fusion_lat": 0.0, "type": "electric_scooter", "bike_id": "ff9a57acc1a375cb00fb9a8796ad3d51", "is_disabled": 0, "lon": -76.997853, "fusion_lon": 0.0, "name": "ff9a57acc1a375cb00fb9a8796ad3d51", "lat": 38.84182283333333}, {"rental_uris": {"ios": "https://dc.lft.to/lastmile_qr_scan", "android": "https://dc.lft.to/lastmile_qr_scan"}, "is_reserved": 0, "fusion_lat": 0.0, "type": "electric_scooter", "bike_id": "19898c52d8ebe1173388f1804f3bf669", "is_disabled": 0, "lon": -77.00701733333334, "fusion_lon": 0.0, "name": "19898c52d8ebe1173388f1804f3bf669", "lat": 38.95244316666667}, {"rental_uris": {"ios": "https://dc.lft.to/lastmile_qr_scan", "android": "https://dc.lft.to/lastmile_qr_scan"}, "is_reserved": 0, "fusion_lat": 0.0, "type": "electric_scooter", "bike_id": "f929e44325b3d69db03f3f4d712e0e77", "is_disabled": 0, "lon": -77.03147116666666, "fusion_lon": 0.0, "name": "f929e44325b3d69db03f3f4d712e0e77", "lat": 38.91703833333333}, {"rental_uris": {"ios": "https://dc.lft.to/lastmile_qr_scan", "android": "https://dc.lft.to/lastmile_qr_scan"}, "is_reserved": 0, "fusion_lat": 0.0, "type": "electric_scooter", "bike_id": "10999cbd873a997cb4a16018364ed83c", "is_disabled": 0, "lon": -77.03458616666667, "fusion_lon": 0.0, "name": "10999cbd873a997cb4a16018364ed83c", "lat": 38.905787833333335}, {"rental_uris": {"ios": "https://dc.lft.to/lastmile_qr_scan", "android": "https://dc.lft.to/lastmile_qr_scan"}, "is_reserved": 0, "fusion_lat": 0.0, "type": "electric_bike", "bike_id": "659daf9b3986e991ba6948014c047be6", "is_disabled": 0, "lon": -77.026044, "fusion_lon": 0.0, "name": "659daf9b3986e991ba6948014c047be6", "lat": 38.944293333333334}, {"rental_uris": {"ios": "https://dc.lft.to/lastmile_qr_scan", "android": "https://dc.lft.to/lastmile_qr_scan"}, "is_reserved": 0, "fusion_lat": 0.0, "type": "electric_scooter", "bike_id": "47476380e1f16d0a90faeb1198dbcfa8", "is_disabled": 0, "lon": -77.022827, "fusion_lon": 0.0, "name": "47476380e1f16d0a90faeb1198dbcfa8", "lat": 38.89527316666667}, {"rental_uris": {"ios": "https://dc.lft.to/lastmile_qr_scan", "android": "https://dc.lft.to/lastmile_qr_scan"}, "is_reserved": 0, "fusion_lat": 0.0, "type": "electric_scooter", "bike_id": "7ed2d911bcc4127964f1d76e05c3e858", "is_disabled": 0, "lon": -77.02816483333334, "fusion_lon": 0.0, "name": "7ed2d911bcc4127964f1d76e05c3e858", "lat": 38.9172585}, {"rental_uris": {"ios": "https://dc.lft.to/lastmile_qr_scan", "android": "https://dc.lft.to/lastmile_qr_scan"}, "is_reserved": 0, "fusion_lat": 0.0, "type": "electric_scooter", "bike_id": "80005bf4d423a8c962c515090e2bd521", "is_disabled": 0, "lon": -77.02695766666666, "fusion_lon": 0.0, "name": "80005bf4d423a8c962c515090e2bd521", "lat": 38.909297}, {"rental_uris": {"ios": "https://dc.lft.to/lastmile_qr_scan", "android": "https://dc.lft.to/lastmile_qr_scan"}, "is_reserved": 0, "fusion_lat": 0.0, "type": "electric_scooter", "bike_id": "6b086729eff997b1a9a5b780b644cb07", "is_disabled": 0, "lon": -77.03026916666667, "fusion_lon": 0.0, "name": "6b086729eff997b1a9a5b780b644cb07", "lat": 38.91075283333333}, {"rental_uris": {"ios": "https://dc.lft.to/lastmile_qr_scan", "android": "https://dc.lft.to/lastmile_qr_scan"}, "is_reserved": 0, "fusion_lat": 0.0, "type": "electric_scooter", "bike_id": "a25a0cf488ce82991ed7cb5737ced64a", "is_disabled": 0, "lon": -77.04546883333333, "fusion_lon": 0.0, "name": "a25a0cf488ce82991ed7cb5737ced64a", "lat": 38.902345333333336}, {"rental_uris": {"ios": "https://dc.lft.to/lastmile_qr_scan", "android": "https://dc.lft.to/lastmile_qr_scan"}, "is_reserved": 0, "fusion_lat": 0.0, "type": "electric_scooter", "bike_id": "d39e13bf177dc82ab34beea2b0301eeb", "is_disabled": 0, "lon": -77.022383, "fusion_lon": 0.0, "name": "d39e13bf177dc82ab34beea2b0301eeb", "lat": 38.911166333333334}, {"rental_uris": {"ios": "https://dc.lft.to/lastmile_qr_scan", "android": "https://dc.lft.to/lastmile_qr_scan"}, "is_reserved": 0, "fusion_lat": 0.0, "type": "electric_scooter", "bike_id": "1fd1ec9d93655fab41cf9f18cc4b04e1", "is_disabled": 0, "lon": -77.02829733333333, "fusion_lon": 0.0, "name": "1fd1ec9d93655fab41cf9f18cc4b04e1", "lat": 38.88736316666667}, {"rental_uris": {"ios": "https://dc.lft.to/lastmile_qr_scan", "android": "https://dc.lft.to/lastmile_qr_scan"}, "is_reserved": 0, "fusion_lat": 0.0, "type": "electric_scooter", "bike_id": "2afc114fd2bbffa2b6525257b94821d4", "is_disabled": 0, "lon": -76.988861, "fusion_lon": 0.0, "name": "2afc114fd2bbffa2b6525257b94821d4", "lat": 38.866544833333336}, {"rental_uris": {"ios": "https://dc.lft.to/lastmile_qr_scan", "android": "https://dc.lft.to/lastmile_qr_scan"}, "is_reserved": 0, "fusion_lat": 0.0, "type": "electric_scooter", "bike_id": "2e814e11be2d96fed78baea00e1f6a20", "is_disabled": 0, "lon": -77.02601733333333, "fusion_lon": 0.0, "name": "2e814e11be2d96fed78baea00e1f6a20", "lat": 38.94406733333334}, {"rental_uris": {"ios": "https://dc.lft.to/lastmile_qr_scan", "android": "https://dc.lft.to/lastmile_qr_scan"}, "is_reserved": 0, "fusion_lat": 0.0, "type": "electric_scooter", "bike_id": "070e5efb40b6b4a842c00708ab1e1400", "is_disabled": 0, "lon": -76.989107, "fusion_lon": 0.0, "name": "070e5efb40b6b4a842c00708ab1e1400", "lat": 38.857970333333334}, {"rental_uris": {"ios": "https://dc.lft.to/lastmile_qr_scan", "android": "https://dc.lft.to/lastmile_qr_scan"}, "is_reserved": 0, "fusion_lat": 0.0, "type": "electric_scooter", "bike_id": "06ce098698b5b74f5afb44353e235bda", "is_disabled": 0, "lon": -77.0448735, "fusion_lon": 0.0, "name": "06ce098698b5b74f5afb44353e235bda", "lat": 38.913735833333334}, {"rental_uris": {"ios": "https://dc.lft.to/lastmile_qr_scan", "android": "https://dc.lft.to/lastmile_qr_scan"}, "is_reserved": 0, "fusion_lat": 0.0, "type": "electric_bike", "bike_id": "34e5325c015efc6feb27cb48666e5d5d", "is_disabled": 0, "lon": -77.06307883333334, "fusion_lon": 0.0, "name": "34e5325c015efc6feb27cb48666e5d5d", "lat": 38.798582}, {"rental_uris": {"ios": "https://dc.lft.to/lastmile_qr_scan", "android": "https://dc.lft.to/lastmile_qr_scan"}, "is_reserved": 0, "fusion_lat": 0.0, "type": "electric_scooter", "bike_id": "b3d37e528383714767c98c0729ac3a6f", "is_disabled": 0, "lon": -77.02408683333333, "fusion_lon": 0.0, "name": "b3d37e528383714767c98c0729ac3a6f", "lat": 38.879912166666664}, {"rental_uris": {"ios": "https://dc.lft.to/lastmile_qr_scan", "android": "https://dc.lft.to/lastmile_qr_scan"}, "is_reserved": 0, "fusion_lat": 0.0, "type": "electric_scooter", "bike_id": "ace38fb0bc6b2d1f12bb59a5462e0685", "is_disabled": 0, "lon": -77.03718666666667, "fusion_lon": 0.0, "name": "ace38fb0bc6b2d1f12bb59a5462e0685", "lat": 38.918046}, {"rental_uris": {"ios": "https://dc.lft.to/lastmile_qr_scan", "android": "https://dc.lft.to/lastmile_qr_scan"}, "is_reserved": 0, "fusion_lat": 0.0, "type": "electric_scooter", "bike_id": "f24e2707acf56dba4397a36ad9c737a7", "is_disabled": 0, "lon": -77.02955033333333, "fusion_lon": 0.0, "name": "f24e2707acf56dba4397a36ad9c737a7", "lat": 38.91691133333333}, {"rental_uris": {"ios": "https://dc.lft.to/lastmile_qr_scan", "android": "https://dc.lft.to/lastmile_qr_scan"}, "is_reserved": 0, "fusion_lat": 0.0, "type": "electric_scooter", "bike_id": "4018a17fd01e4674734b4e6bc3ba6b01", "is_disabled": 0, "lon": -77.013763, "fusion_lon": 0.0, "name": "4018a17fd01e4674734b4e6bc3ba6b01", "lat": 38.879018333333335}, {"rental_uris": {"ios": "https://dc.lft.to/lastmile_qr_scan", "android": "https://dc.lft.to/lastmile_qr_scan"}, "is_reserved": 0, "fusion_lat": 0.0, "type": "electric_scooter", "bike_id": "e4da94d3ddd54351287326c24f97491b", "is_disabled": 0, "lon": -77.031907, "fusion_lon": 0.0, "name": "e4da94d3ddd54351287326c24f97491b", "lat": 38.915651833333335}, {"rental_uris": {"ios": "https://dc.lft.to/lastmile_qr_scan", "android": "https://dc.lft.to/lastmile_qr_scan"}, "is_reserved": 0, "fusion_lat": 0.0, "type": "electric_scooter", "bike_id": "224c6e3091d3664d665d771e26e02294", "is_disabled": 0, "lon": -77.02013166666667, "fusion_lon": 0.0, "name": "224c6e3091d3664d665d771e26e02294", "lat": 38.903405666666664}, {"rental_uris": {"ios": "https://dc.lft.to/lastmile_qr_scan", "android": "https://dc.lft.to/lastmile_qr_scan"}, "is_reserved": 0, "fusion_lat": 0.0, "type": "electric_scooter", "bike_id": "32f24b18d97305708b9dac6459c9caf4", "is_disabled": 0, "lon": -77.02154466666667, "fusion_lon": 0.0, "name": "32f24b18d97305708b9dac6459c9caf4", "lat": 38.903194}, {"rental_uris": {"ios": "https://dc.lft.to/lastmile_qr_scan", "android": "https://dc.lft.to/lastmile_qr_scan"}, "is_reserved": 0, "fusion_lat": 0.0, "type": "electric_bike", "bike_id": "fbc1b9f1deabaf653e0a0f7e629a2bd1", "is_disabled": 0, "lon": -77.03693, "fusion_lon": 0.0, "name": "fbc1b9f1deabaf653e0a0f7e629a2bd1", "lat": 38.935695833333334}, {"rental_uris": {"ios": "https://dc.lft.to/lastmile_qr_scan", "android": "https://dc.lft.to/lastmile_qr_scan"}, "is_reserved": 0, "fusion_lat": 0.0, "type": "electric_scooter", "bike_id": "9d8229e0c243cafeec0dd3442cb93dfe", "is_disabled": 0, "lon": -77.02224866666667, "fusion_lon": 0.0, "name": "9d8229e0c243cafeec0dd3442cb93dfe", "lat": 38.912594166666665}, {"rental_uris": {"ios": "https://dc.lft.to/lastmile_qr_scan", "android": "https://dc.lft.to/lastmile_qr_scan"}, "is_reserved": 0, "fusion_lat": 0.0, "type": "electric_scooter", "bike_id": "3858370a124da17b735632e7d9be070f", "is_disabled": 0, "lon": -77.04002216666666, "fusion_lon": 0.0, "name": "3858370a124da17b735632e7d9be070f", "lat": 38.934269}, {"rental_uris": {"ios": "https://dc.lft.to/lastmile_qr_scan", "android": "https://dc.lft.to/lastmile_qr_scan"}, "is_reserved": 0, "fusion_lat": 0.0, "type": "electric_scooter", "bike_id": "21a9901c5be340356606e38b0fa5e39e", "is_disabled": 0, "lon": -77.03208383333333, "fusion_lon": 0.0, "name": "21a9901c5be340356606e38b0fa5e39e", "lat": 38.91992583333333}, {"rental_uris": {"ios": "https://dc.lft.to/lastmile_qr_scan", "android": "https://dc.lft.to/lastmile_qr_scan"}, "is_reserved": 0, "fusion_lat": 0.0, "type": "electric_scooter", "bike_id": "549926ea0bd1145a89379864dece69f8", "is_disabled": 0, "lon": -77.02719683333333, "fusion_lon": 0.0, "name": "549926ea0bd1145a89379864dece69f8", "lat": 38.97243}, {"rental_uris": {"ios": "https://dc.lft.to/lastmile_qr_scan", "android": "https://dc.lft.to/lastmile_qr_scan"}, "is_reserved": 0, "fusion_lat": 0.0, "type": "electric_bike", "bike_id": "8710b94770fa153da8de548779872a4b", "is_disabled": 0, "lon": -76.95091433333333, "fusion_lon": 0.0, "name": "8710b94770fa153da8de548779872a4b", "lat": 38.948706666666666}, {"rental_uris": {"ios": "https://dc.lft.to/lastmile_qr_scan", "android": "https://dc.lft.to/lastmile_qr_scan"}, "is_reserved": 0, "fusion_lat": 0.0, "type": "electric_scooter", "bike_id": "adf8ef00b56ac4c080adf98a25028905", "is_disabled": 0, "lon": -77.038338, "fusion_lon": 0.0, "name": "adf8ef00b56ac4c080adf98a25028905", "lat": 38.9033495}, {"rental_uris": {"ios": "https://dc.lft.to/lastmile_qr_scan", "android": "https://dc.lft.to/lastmile_qr_scan"}, "is_reserved": 0, "fusion_lat": 0.0, "type": "electric_scooter", "bike_id": "b97b6e47609e8be51b037764d94ed1ec", "is_disabled": 0, "lon": -77.03317016666666, "fusion_lon": 0.0, "name": "b97b6e47609e8be51b037764d94ed1ec", "lat": 38.92868716666667}, {"rental_uris": {"ios": "https://dc.lft.to/lastmile_qr_scan", "android": "https://dc.lft.to/lastmile_qr_scan"}, "is_reserved": 0, "fusion_lat": 0.0, "type": "electric_scooter", "bike_id": "21095d4ff6f05a6b38ea07505649bb09", "is_disabled": 0, "lon": -76.99409883333334, "fusion_lon": 0.0, "name": "21095d4ff6f05a6b38ea07505649bb09", "lat": 38.877827833333335}, {"rental_uris": {"ios": "https://dc.lft.to/lastmile_qr_scan", "android": "https://dc.lft.to/lastmile_qr_scan"}, "is_reserved": 0, "fusion_lat": 0.0, "type": "electric_scooter", "bike_id": "54880a41fe9b28bd9f1d422f35becbec", "is_disabled": 0, "lon": -77.01967966666666, "fusion_lon": 0.0, "name": "54880a41fe9b28bd9f1d422f35becbec", "lat": 38.9085635}, {"rental_uris": {"ios": "https://dc.lft.to/lastmile_qr_scan", "android": "https://dc.lft.to/lastmile_qr_scan"}, "is_reserved": 0, "fusion_lat": 0.0, "type": "electric_scooter", "bike_id": "a0b20e6086a06801648084788bee1745", "is_disabled": 0, "lon": -77.041733, "fusion_lon": 0.0, "name": "a0b20e6086a06801648084788bee1745", "lat": 38.89945433333333}, {"rental_uris": {"ios": "https://dc.lft.to/lastmile_qr_scan", "android": "https://dc.lft.to/lastmile_qr_scan"}, "is_reserved": 0, "fusion_lat": 0.0, "type": "electric_bike", "bike_id": "de0926bb833f71c9984ecf8d3f99f4f3", "is_disabled": 0, "lon": -77.07840066666667, "fusion_lon": 0.0, "name": "de0926bb833f71c9984ecf8d3f99f4f3", "lat": 38.94922616666667}, {"rental_uris": {"ios": "https://dc.lft.to/lastmile_qr_scan", "android": "https://dc.lft.to/lastmile_qr_scan"}, "is_reserved": 0, "fusion_lat": 0.0, "type": "electric_scooter", "bike_id": "b7f2519dc3d10bc58f787b7b8dd97686", "is_disabled": 0, "lon": -77.0344335, "fusion_lon": 0.0, "name": "b7f2519dc3d10bc58f787b7b8dd97686", "lat": 38.92045566666667}, {"rental_uris": {"ios": "https://dc.lft.to/lastmile_qr_scan", "android": "https://dc.lft.to/lastmile_qr_scan"}, "is_reserved": 0, "fusion_lat": 0.0, "type": "electric_scooter", "bike_id": "dd207033f37ab415cd67e05850987de9", "is_disabled": 0, "lon": -76.97329266666667, "fusion_lon": 0.0, "name": "dd207033f37ab415cd67e05850987de9", "lat": 38.90411133333333}, {"rental_uris": {"ios": "https://dc.lft.to/lastmile_qr_scan", "android": "https://dc.lft.to/lastmile_qr_scan"}, "is_reserved": 0, "fusion_lat": 0.0, "type": "electric_scooter", "bike_id": "8e36e599726ccfe45b20547daf0aab42", "is_disabled": 0, "lon": -77.02798883333334, "fusion_lon": 0.0, "name": "8e36e599726ccfe45b20547daf0aab42", "lat": 38.8992605}, {"rental_uris": {"ios": "https://dc.lft.to/lastmile_qr_scan", "android": "https://dc.lft.to/lastmile_qr_scan"}, "is_reserved": 0, "fusion_lat": 0.0, "type": "electric_scooter", "bike_id": "24ca128fef94d6207f391da1592f4031", "is_disabled": 0, "lon": -77.03840783333334, "fusion_lon": 0.0, "name": "24ca128fef94d6207f391da1592f4031", "lat": 38.9076805}, {"rental_uris": {"ios": "https://dc.lft.to/lastmile_qr_scan", "android": "https://dc.lft.to/lastmile_qr_scan"}, "is_reserved": 0, "fusion_lat": 0.0, "type": "electric_scooter", "bike_id": "d2c82e8ac77932ea419747926b1463db", "is_disabled": 0, "lon": -77.00457516666667, "fusion_lon": 0.0, "name": "d2c82e8ac77932ea419747926b1463db", "lat": 38.91062466666666}, {"rental_uris": {"ios": "https://dc.lft.to/lastmile_qr_scan", "android": "https://dc.lft.to/lastmile_qr_scan"}, "is_reserved": 0, "fusion_lat": 0.0, "type": "electric_scooter", "bike_id": "2816b4741b0074bcb2ed12fba62d02c2", "is_disabled": 0, "lon": -77.0015885, "fusion_lon": 0.0, "name": "2816b4741b0074bcb2ed12fba62d02c2", "lat": 38.907492833333336}, {"rental_uris": {"ios": "https://dc.lft.to/lastmile_qr_scan", "android": "https://dc.lft.to/lastmile_qr_scan"}, "is_reserved": 0, "fusion_lat": 0.0, "type": "electric_scooter", "bike_id": "baa0a0569aa512174b50e0bda1de6f75", "is_disabled": 0, "lon": -77.0221755, "fusion_lon": 0.0, "name": "baa0a0569aa512174b50e0bda1de6f75", "lat": 38.95453933333334}, {"rental_uris": {"ios": "https://dc.lft.to/lastmile_qr_scan", "android": "https://dc.lft.to/lastmile_qr_scan"}, "is_reserved": 0, "fusion_lat": 0.0, "type": "electric_scooter", "bike_id": "7c409e24e7a35115e7a58336fd3869a6", "is_disabled": 0, "lon": -77.07139566666666, "fusion_lon": 0.0, "name": "7c409e24e7a35115e7a58336fd3869a6", "lat": 38.90772033333333}, {"rental_uris": {"ios": "https://dc.lft.to/lastmile_qr_scan", "android": "https://dc.lft.to/lastmile_qr_scan"}, "is_reserved": 0, "fusion_lat": 0.0, "type": "electric_scooter", "bike_id": "f2728958b60f6d3b9194ad3074545d87", "is_disabled": 0, "lon": -77.02799016666667, "fusion_lon": 0.0, "name": "f2728958b60f6d3b9194ad3074545d87", "lat": 38.91692666666667}, {"rental_uris": {"ios": "https://dc.lft.to/lastmile_qr_scan", "android": "https://dc.lft.to/lastmile_qr_scan"}, "is_reserved": 0, "fusion_lat": 0.0, "type": "electric_scooter", "bike_id": "d8aecddf7e5c6683e1e72062a7e84c79", "is_disabled": 0, "lon": -77.059097, "fusion_lon": 0.0, "name": "d8aecddf7e5c6683e1e72062a7e84c79", "lat": 38.9015335}, {"rental_uris": {"ios": "https://dc.lft.to/lastmile_qr_scan", "android": "https://dc.lft.to/lastmile_qr_scan"}, "is_reserved": 0, "fusion_lat": 0.0, "type": "electric_scooter", "bike_id": "e1a58e349013dc83ce44f266c5361566", "is_disabled": 0, "lon": -77.04874233333334, "fusion_lon": 0.0, "name": "e1a58e349013dc83ce44f266c5361566", "lat": 38.89237983333334}, {"rental_uris": {"ios": "https://dc.lft.to/lastmile_qr_scan", "android": "https://dc.lft.to/lastmile_qr_scan"}, "is_reserved": 0, "fusion_lat": 0.0, "type": "electric_scooter", "bike_id": "d3407ec72af8c43804a9b0d60fc383ac", "is_disabled": 0, "lon": -77.01539433333333, "fusion_lon": 0.0, "name": "d3407ec72af8c43804a9b0d60fc383ac", "lat": 38.8863355}, {"rental_uris": {"ios": "https://dc.lft.to/lastmile_qr_scan", "android": "https://dc.lft.to/lastmile_qr_scan"}, "is_reserved": 0, "fusion_lat": 0.0, "type": "electric_scooter", "bike_id": "3794a0dcc5d367913a0300a28ffe1f4a", "is_disabled": 0, "lon": -77.0295155, "fusion_lon": 0.0, "name": "3794a0dcc5d367913a0300a28ffe1f4a", "lat": 38.919103166666666}, {"rental_uris": {"ios": "https://dc.lft.to/lastmile_qr_scan", "android": "https://dc.lft.to/lastmile_qr_scan"}, "is_reserved": 0, "fusion_lat": 0.0, "type": "electric_scooter", "bike_id": "28a296c34f782b795d092a8ad2763be8", "is_disabled": 0, "lon": -76.9883545, "fusion_lon": 0.0, "name": "28a296c34f782b795d092a8ad2763be8", "lat": 38.900588}, {"rental_uris": {"ios": "https://dc.lft.to/lastmile_qr_scan", "android": "https://dc.lft.to/lastmile_qr_scan"}, "is_reserved": 0, "fusion_lat": 0.0, "type": "electric_scooter", "bike_id": "51a9dabc2fedbc3835aed93395bbef9b", "is_disabled": 0, "lon": -77.03775683333333, "fusion_lon": 0.0, "name": "51a9dabc2fedbc3835aed93395bbef9b", "lat": 38.91559433333333}, {"rental_uris": {"ios": "https://dc.lft.to/lastmile_qr_scan", "android": "https://dc.lft.to/lastmile_qr_scan"}, "is_reserved": 0, "fusion_lat": 0.0, "type": "electric_scooter", "bike_id": "5e021db8a1309e76fe67c2d093ddf925", "is_disabled": 0, "lon": -77.00202483333334, "fusion_lon": 0.0, "name": "5e021db8a1309e76fe67c2d093ddf925", "lat": 38.90036116666667}, {"rental_uris": {"ios": "https://dc.lft.to/lastmile_qr_scan", "android": "https://dc.lft.to/lastmile_qr_scan"}, "is_reserved": 0, "fusion_lat": 0.0, "type": "electric_scooter", "bike_id": "8c447d51a5ffa41eed27d41346036ab4", "is_disabled": 0, "lon": -77.05754066666667, "fusion_lon": 0.0, "name": "8c447d51a5ffa41eed27d41346036ab4", "lat": 38.924198}, {"rental_uris": {"ios": "https://dc.lft.to/lastmile_qr_scan", "android": "https://dc.lft.to/lastmile_qr_scan"}, "is_reserved": 0, "fusion_lat": 0.0, "type": "electric_scooter", "bike_id": "eb30d296d3555fa0f31cc00c61591277", "is_disabled": 0, "lon": -77.021487, "fusion_lon": 0.0, "name": "eb30d296d3555fa0f31cc00c61591277", "lat": 38.9252325}, {"rental_uris": {"ios": "https://dc.lft.to/lastmile_qr_scan", "android": "https://dc.lft.to/lastmile_qr_scan"}, "is_reserved": 0, "fusion_lat": 0.0, "type": "electric_scooter", "bike_id": "aa5210585d0e3bd4707327ad8158ae1d", "is_disabled": 0, "lon": -77.05911833333333, "fusion_lon": 0.0, "name": "aa5210585d0e3bd4707327ad8158ae1d", "lat": 38.90437383333333}, {"rental_uris": {"ios": "https://dc.lft.to/lastmile_qr_scan", "android": "https://dc.lft.to/lastmile_qr_scan"}, "is_reserved": 0, "fusion_lat": 0.0, "type": "electric_scooter", "bike_id": "9be3a5f900d587bec5c28c4afbc648d3", "is_disabled": 0, "lon": -77.050308, "fusion_lon": 0.0, "name": "9be3a5f900d587bec5c28c4afbc648d3", "lat": 38.92367866666667}, {"rental_uris": {"ios": "https://dc.lft.to/lastmile_qr_scan", "android": "https://dc.lft.to/lastmile_qr_scan"}, "is_reserved": 0, "fusion_lat": 0.0, "type": "electric_scooter", "bike_id": "83f1844518d88ca24e1073b577b7c6ce", "is_disabled": 0, "lon": -77.00196733333334, "fusion_lon": 0.0, "name": "83f1844518d88ca24e1073b577b7c6ce", "lat": 38.952513333333336}, {"rental_uris": {"ios": "https://dc.lft.to/lastmile_qr_scan", "android": "https://dc.lft.to/lastmile_qr_scan"}, "is_reserved": 0, "fusion_lat": 0.0, "type": "electric_scooter", "bike_id": "714a3f23a593c8def7be0a4a4f9cdb58", "is_disabled": 0, "lon": -77.0051725, "fusion_lon": 0.0, "name": "714a3f23a593c8def7be0a4a4f9cdb58", "lat": 38.87661033333333}, {"rental_uris": {"ios": "https://dc.lft.to/lastmile_qr_scan", "android": "https://dc.lft.to/lastmile_qr_scan"}, "is_reserved": 0, "fusion_lat": 0.0, "type": "electric_scooter", "bike_id": "99343d735acce25a5e5243b7683b990a", "is_disabled": 0, "lon": -77.026157, "fusion_lon": 0.0, "name": "99343d735acce25a5e5243b7683b990a", "lat": 38.896609166666664}, {"rental_uris": {"ios": "https://dc.lft.to/lastmile_qr_scan", "android": "https://dc.lft.to/lastmile_qr_scan"}, "is_reserved": 0, "fusion_lat": 0.0, "type": "electric_scooter", "bike_id": "bb94d7ff608026f48c2296bbeb336dc4", "is_disabled": 0, "lon": -77.01677433333333, "fusion_lon": 0.0, "name": "bb94d7ff608026f48c2296bbeb336dc4", "lat": 38.901274}, {"rental_uris": {"ios": "https://dc.lft.to/lastmile_qr_scan", "android": "https://dc.lft.to/lastmile_qr_scan"}, "is_reserved": 0, "fusion_lat": 0.0, "type": "electric_scooter", "bike_id": "913bc6c0b3fc6af3f9b5da248d264ca3", "is_disabled": 0, "lon": -77.03518216666667, "fusion_lon": 0.0, "name": "913bc6c0b3fc6af3f9b5da248d264ca3", "lat": 38.922581}, {"rental_uris": {"ios": "https://dc.lft.to/lastmile_qr_scan", "android": "https://dc.lft.to/lastmile_qr_scan"}, "is_reserved": 0, "fusion_lat": 0.0, "type": "electric_scooter", "bike_id": "ffdebcd2b7a912e3b945df5552d2c049", "is_disabled": 0, "lon": -77.03085583333333, "fusion_lon": 0.0, "name": "ffdebcd2b7a912e3b945df5552d2c049", "lat": 38.899804833333334}, {"rental_uris": {"ios": "https://dc.lft.to/lastmile_qr_scan", "android": "https://dc.lft.to/lastmile_qr_scan"}, "is_reserved": 0, "fusion_lat": 0.0, "type": "electric_scooter", "bike_id": "e1ea3cb6117b095b2afa40dcb93d7801", "is_disabled": 0, "lon": -76.97550633333333, "fusion_lon": 0.0, "name": "e1ea3cb6117b095b2afa40dcb93d7801", "lat": 38.9032375}, {"rental_uris": {"ios": "https://dc.lft.to/lastmile_qr_scan", "android": "https://dc.lft.to/lastmile_qr_scan"}, "is_reserved": 0, "fusion_lat": 0.0, "type": "electric_scooter", "bike_id": "d0e553c3a39b23bbedfbf7286cb0fb61", "is_disabled": 0, "lon": -77.02315533333334, "fusion_lon": 0.0, "name": "d0e553c3a39b23bbedfbf7286cb0fb61", "lat": 38.91709983333333}, {"rental_uris": {"ios": "https://dc.lft.to/lastmile_qr_scan", "android": "https://dc.lft.to/lastmile_qr_scan"}, "is_reserved": 0, "fusion_lat": 0.0, "type": "electric_scooter", "bike_id": "79244ef6a07ece8bcb3f3204db7ebf61", "is_disabled": 0, "lon": -77.04397433333334, "fusion_lon": 0.0, "name": "79244ef6a07ece8bcb3f3204db7ebf61", "lat": 38.92344116666666}, {"rental_uris": {"ios": "https://dc.lft.to/lastmile_qr_scan", "android": "https://dc.lft.to/lastmile_qr_scan"}, "is_reserved": 0, "fusion_lat": 0.0, "type": "electric_scooter", "bike_id": "1a471e91a39bfe7862e79ae511f3f5f2", "is_disabled": 0, "lon": -77.00712316666667, "fusion_lon": 0.0, "name": "1a471e91a39bfe7862e79ae511f3f5f2", "lat": 38.88488233333333}, {"rental_uris": {"ios": "https://dc.lft.to/lastmile_qr_scan", "android": "https://dc.lft.to/lastmile_qr_scan"}, "is_reserved": 0, "fusion_lat": 0.0, "type": "electric_scooter", "bike_id": "d1f3a804a20751c2d42f46a02ce0f3c8", "is_disabled": 0, "lon": -76.98564333333333, "fusion_lon": 0.0, "name": "d1f3a804a20751c2d42f46a02ce0f3c8", "lat": 38.8668405}, {"rental_uris": {"ios": "https://dc.lft.to/lastmile_qr_scan", "android": "https://dc.lft.to/lastmile_qr_scan"}, "is_reserved": 0, "fusion_lat": 0.0, "type": "electric_scooter", "bike_id": "33867c0cf8118fdf65359ebe71c41aea", "is_disabled": 0, "lon": -77.0253385, "fusion_lon": 0.0, "name": "33867c0cf8118fdf65359ebe71c41aea", "lat": 38.9207915}, {"rental_uris": {"ios": "https://dc.lft.to/lastmile_qr_scan", "android": "https://dc.lft.to/lastmile_qr_scan"}, "is_reserved": 0, "fusion_lat": 0.0, "type": "electric_scooter", "bike_id": "272ee31aec6efcea8568bf36ccfbf804", "is_disabled": 0, "lon": -76.94637533333334, "fusion_lon": 0.0, "name": "272ee31aec6efcea8568bf36ccfbf804", "lat": 38.898635666666664}, {"rental_uris": {"ios": "https://dc.lft.to/lastmile_qr_scan", "android": "https://dc.lft.to/lastmile_qr_scan"}, "is_reserved": 0, "fusion_lat": 0.0, "type": "electric_scooter", "bike_id": "87304f60e31e4daa4a6457d570d84e77", "is_disabled": 0, "lon": -77.019914, "fusion_lon": 0.0, "name": "87304f60e31e4daa4a6457d570d84e77", "lat": 38.93997266666667}, {"rental_uris": {"ios": "https://dc.lft.to/lastmile_qr_scan", "android": "https://dc.lft.to/lastmile_qr_scan"}, "is_reserved": 0, "fusion_lat": 0.0, "type": "electric_scooter", "bike_id": "38643c58ec60027351247085d732494a", "is_disabled": 0, "lon": -77.01729183333333, "fusion_lon": 0.0, "name": "38643c58ec60027351247085d732494a", "lat": 38.8832495}, {"rental_uris": {"ios": "https://dc.lft.to/lastmile_qr_scan", "android": "https://dc.lft.to/lastmile_qr_scan"}, "is_reserved": 0, "fusion_lat": 0.0, "type": "electric_scooter", "bike_id": "ade50f42aef795a17a37c7c4d3cbd2da", "is_disabled": 0, "lon": -77.02621816666667, "fusion_lon": 0.0, "name": "ade50f42aef795a17a37c7c4d3cbd2da", "lat": 38.8964645}, {"rental_uris": {"ios": "https://dc.lft.to/lastmile_qr_scan", "android": "https://dc.lft.to/lastmile_qr_scan"}, "is_reserved": 0, "fusion_lat": 0.0, "type": "electric_scooter", "bike_id": "337393d3cc0191e024d1993b6c47b669", "is_disabled": 0, "lon": -77.00736483333333, "fusion_lon": 0.0, "name": "337393d3cc0191e024d1993b6c47b669", "lat": 38.952449333333334}, {"rental_uris": {"ios": "https://dc.lft.to/lastmile_qr_scan", "android": "https://dc.lft.to/lastmile_qr_scan"}, "is_reserved": 0, "fusion_lat": 0.0, "type": "electric_scooter", "bike_id": "11d1b42c1488acf77e09ce6a55851d01", "is_disabled": 0, "lon": -77.02956416666666, "fusion_lon": 0.0, "name": "11d1b42c1488acf77e09ce6a55851d01", "lat": 38.902759333333336}, {"rental_uris": {"ios": "https://dc.lft.to/lastmile_qr_scan", "android": "https://dc.lft.to/lastmile_qr_scan"}, "is_reserved": 0, "fusion_lat": 0.0, "type": "electric_scooter", "bike_id": "f0d6198957498926dbcf019360eab459", "is_disabled": 0, "lon": -76.9700695, "fusion_lon": 0.0, "name": "f0d6198957498926dbcf019360eab459", "lat": 38.873788833333336}, {"rental_uris": {"ios": "https://dc.lft.to/lastmile_qr_scan", "android": "https://dc.lft.to/lastmile_qr_scan"}, "is_reserved": 0, "fusion_lat": 0.0, "type": "electric_scooter", "bike_id": "2e1159ba348029982900dd486c5fdec6", "is_disabled": 0, "lon": -77.0362565, "fusion_lon": 0.0, "name": "2e1159ba348029982900dd486c5fdec6", "lat": 38.939115666666666}, {"rental_uris": {"ios": "https://dc.lft.to/lastmile_qr_scan", "android": "https://dc.lft.to/lastmile_qr_scan"}, "is_reserved": 0, "fusion_lat": 0.0, "type": "electric_scooter", "bike_id": "6fea98ca8a680f7911656df7430aeccc", "is_disabled": 0, "lon": -77.0469785, "fusion_lon": 0.0, "name": "6fea98ca8a680f7911656df7430aeccc", "lat": 38.915724166666664}, {"rental_uris": {"ios": "https://dc.lft.to/lastmile_qr_scan", "android": "https://dc.lft.to/lastmile_qr_scan"}, "is_reserved": 0, "fusion_lat": 0.0, "type": "electric_scooter", "bike_id": "fac3f4f70dbe83b3813964603594dc6a", "is_disabled": 0, "lon": -77.01762383333333, "fusion_lon": 0.0, "name": "fac3f4f70dbe83b3813964603594dc6a", "lat": 38.883303}, {"rental_uris": {"ios": "https://dc.lft.to/lastmile_qr_scan", "android": "https://dc.lft.to/lastmile_qr_scan"}, "is_reserved": 0, "fusion_lat": 0.0, "type": "electric_scooter", "bike_id": "e94aad2dfbe817eeefcd571a8395c06e", "is_disabled": 0, "lon": -77.03332366666666, "fusion_lon": 0.0, "name": "e94aad2dfbe817eeefcd571a8395c06e", "lat": 38.898422}, {"rental_uris": {"ios": "https://dc.lft.to/lastmile_qr_scan", "android": "https://dc.lft.to/lastmile_qr_scan"}, "is_reserved": 0, "fusion_lat": 0.0, "type": "electric_bike", "bike_id": "0074de1c23c390f55d5f20d501feddaf", "is_disabled": 0, "lon": -77.080693, "fusion_lon": 0.0, "name": "0074de1c23c390f55d5f20d501feddaf", "lat": 39.05249666666667}, {"rental_uris": {"ios": "https://dc.lft.to/lastmile_qr_scan", "android": "https://dc.lft.to/lastmile_qr_scan"}, "is_reserved": 0, "fusion_lat": 0.0, "type": "electric_scooter", "bike_id": "e139c5293745a7c13b4d6b232144b168", "is_disabled": 0, "lon": -77.01741966666667, "fusion_lon": 0.0, "name": "e139c5293745a7c13b4d6b232144b168", "lat": 38.87829116666666}, {"rental_uris": {"ios": "https://dc.lft.to/lastmile_qr_scan", "android": "https://dc.lft.to/lastmile_qr_scan"}, "is_reserved": 0, "fusion_lat": 0.0, "type": "electric_scooter", "bike_id": "24b0c0243f14f8e32048abec783574d4", "is_disabled": 0, "lon": -77.06496883333334, "fusion_lon": 0.0, "name": "24b0c0243f14f8e32048abec783574d4", "lat": 38.909857}, {"rental_uris": {"ios": "https://dc.lft.to/lastmile_qr_scan", "android": "https://dc.lft.to/lastmile_qr_scan"}, "is_reserved": 0, "fusion_lat": 0.0, "type": "electric_scooter", "bike_id": "645b79d7ca1801493666a877049a80c7", "is_disabled": 0, "lon": -77.03314066666667, "fusion_lon": 0.0, "name": "645b79d7ca1801493666a877049a80c7", "lat": 38.9287415}, {"rental_uris": {"ios": "https://dc.lft.to/lastmile_qr_scan", "android": "https://dc.lft.to/lastmile_qr_scan"}, "is_reserved": 0, "fusion_lat": 0.0, "type": "electric_scooter", "bike_id": "ef939e79e29b391d2cb9e927f4518b5c", "is_disabled": 0, "lon": -77.00908333333334, "fusion_lon": 0.0, "name": "ef939e79e29b391d2cb9e927f4518b5c", "lat": 38.89621233333333}, {"rental_uris": {"ios": "https://dc.lft.to/lastmile_qr_scan", "android": "https://dc.lft.to/lastmile_qr_scan"}, "is_reserved": 0, "fusion_lat": 0.0, "type": "electric_bike", "bike_id": "82d3ad5976bc54e6011499d0617edd22", "is_disabled": 0, "lon": -77.02128533333334, "fusion_lon": 0.0, "name": "82d3ad5976bc54e6011499d0617edd22", "lat": 38.8997895}, {"rental_uris": {"ios": "https://dc.lft.to/lastmile_qr_scan", "android": "https://dc.lft.to/lastmile_qr_scan"}, "is_reserved": 0, "fusion_lat": 0.0, "type": "electric_scooter", "bike_id": "e4fb77a31a732d4796c999898e28dc8c", "is_disabled": 0, "lon": -77.0020725, "fusion_lon": 0.0, "name": "e4fb77a31a732d4796c999898e28dc8c", "lat": 38.8953165}, {"rental_uris": {"ios": "https://dc.lft.to/lastmile_qr_scan", "android": "https://dc.lft.to/lastmile_qr_scan"}, "is_reserved": 0, "fusion_lat": 0.0, "type": "electric_scooter", "bike_id": "9defb46b13f0da32216f982fbe877b42", "is_disabled": 0, "lon": -76.997551, "fusion_lon": 0.0, "name": "9defb46b13f0da32216f982fbe877b42", "lat": 38.885072666666666}, {"rental_uris": {"ios": "https://dc.lft.to/lastmile_qr_scan", "android": "https://dc.lft.to/lastmile_qr_scan"}, "is_reserved": 0, "fusion_lat": 0.0, "type": "electric_scooter", "bike_id": "e5f6c06a84819be5f62c11575c5c8f3e", "is_disabled": 0, "lon": -77.01923333333333, "fusion_lon": 0.0, "name": "e5f6c06a84819be5f62c11575c5c8f3e", "lat": 38.91775416666667}, {"rental_uris": {"ios": "https://dc.lft.to/lastmile_qr_scan", "android": "https://dc.lft.to/lastmile_qr_scan"}, "is_reserved": 0, "fusion_lat": 0.0, "type": "electric_scooter", "bike_id": "e9fd13df312019e14b7f07a1f4d263e0", "is_disabled": 0, "lon": -76.98634183333333, "fusion_lon": 0.0, "name": "e9fd13df312019e14b7f07a1f4d263e0", "lat": 38.90913066666667}, {"rental_uris": {"ios": "https://dc.lft.to/lastmile_qr_scan", "android": "https://dc.lft.to/lastmile_qr_scan"}, "is_reserved": 0, "fusion_lat": 0.0, "type": "electric_bike", "bike_id": "5164c7b93560ab8f8f3b572e812ce1d0", "is_disabled": 0, "lon": -76.99654716666667, "fusion_lon": 0.0, "name": "5164c7b93560ab8f8f3b572e812ce1d0", "lat": 38.81613516666667}, {"rental_uris": {"ios": "https://dc.lft.to/lastmile_qr_scan", "android": "https://dc.lft.to/lastmile_qr_scan"}, "is_reserved": 0, "fusion_lat": 0.0, "type": "electric_scooter", "bike_id": "811f7a7c7a7032bd37642a3b8b47f094", "is_disabled": 0, "lon": -77.00946483333334, "fusion_lon": 0.0, "name": "811f7a7c7a7032bd37642a3b8b47f094", "lat": 38.9611215}, {"rental_uris": {"ios": "https://dc.lft.to/lastmile_qr_scan", "android": "https://dc.lft.to/lastmile_qr_scan"}, "is_reserved": 0, "fusion_lat": 0.0, "type": "electric_bike", "bike_id": "80456a1cd9f96430f9804862585e161c", "is_disabled": 0, "lon": -77.09960166666667, "fusion_lon": 0.0, "name": "80456a1cd9f96430f9804862585e161c", "lat": 38.857894333333334}, {"rental_uris": {"ios": "https://dc.lft.to/lastmile_qr_scan", "android": "https://dc.lft.to/lastmile_qr_scan"}, "is_reserved": 0, "fusion_lat": 0.0, "type": "electric_bike", "bike_id": "7321d26ece448a8f1e2a77b276d60e51", "is_disabled": 0, "lon": -77.0449665, "fusion_lon": 0.0, "name": "7321d26ece448a8f1e2a77b276d60e51", "lat": 39.0141715}, {"rental_uris": {"ios": "https://dc.lft.to/lastmile_qr_scan", "android": "https://dc.lft.to/lastmile_qr_scan"}, "is_reserved": 0, "fusion_lat": 0.0, "type": "electric_bike", "bike_id": "c33f81ba03317439e015e1bb820a9997", "is_disabled": 0, "lon": -76.958337, "fusion_lon": 0.0, "name": "c33f81ba03317439e015e1bb820a9997", "lat": 38.93049666666667}, {"rental_uris": {"ios": "https://dc.lft.to/lastmile_qr_scan", "android": "https://dc.lft.to/lastmile_qr_scan"}, "is_reserved": 0, "fusion_lat": 0.0, "type": "electric_bike", "bike_id": "2dadf263ebbbd70cf167424dd7d9e841", "is_disabled": 0, "lon": -76.99060683333333, "fusion_lon": 0.0, "name": "2dadf263ebbbd70cf167424dd7d9e841", "lat": 38.8981625}, {"rental_uris": {"ios": "https://dc.lft.to/lastmile_qr_scan", "android": "https://dc.lft.to/lastmile_qr_scan"}, "is_reserved": 0, "fusion_lat": 0.0, "type": "electric_scooter", "bike_id": "981d09b02de7d2e73afac66b17ae59ee", "is_disabled": 0, "lon": -77.03830833333333, "fusion_lon": 0.0, "name": "981d09b02de7d2e73afac66b17ae59ee", "lat": 38.91111566666667}, {"rental_uris": {"ios": "https://dc.lft.to/lastmile_qr_scan", "android": "https://dc.lft.to/lastmile_qr_scan"}, "is_reserved": 0, "fusion_lat": 0.0, "type": "electric_scooter", "bike_id": "9c2f86030e8249ec5177eaa59ac7952b", "is_disabled": 0, "lon": -77.059109, "fusion_lon": 0.0, "name": "9c2f86030e8249ec5177eaa59ac7952b", "lat": 38.903463333333335}, {"rental_uris": {"ios": "https://dc.lft.to/lastmile_qr_scan", "android": "https://dc.lft.to/lastmile_qr_scan"}, "is_reserved": 0, "fusion_lat": 0.0, "type": "electric_scooter", "bike_id": "f2a7d8bac3ec0451f038c3fea5875a88", "is_disabled": 0, "lon": -76.9959195, "fusion_lon": 0.0, "name": "f2a7d8bac3ec0451f038c3fea5875a88", "lat": 38.857202}, {"rental_uris": {"ios": "https://dc.lft.to/lastmile_qr_scan", "android": "https://dc.lft.to/lastmile_qr_scan"}, "is_reserved": 0, "fusion_lat": 0.0, "type": "electric_bike", "bike_id": "0a5c0ada98fbe7eee578607e6592fee4", "is_disabled": 0, "lon": -76.98780066666667, "fusion_lon": 0.0, "name": "0a5c0ada98fbe7eee578607e6592fee4", "lat": 38.845542}, {"rental_uris": {"ios": "https://dc.lft.to/lastmile_qr_scan", "android": "https://dc.lft.to/lastmile_qr_scan"}, "is_reserved": 0, "fusion_lat": 0.0, "type": "electric_scooter", "bike_id": "d255b3db7f6c186d838c9de23ade6212", "is_disabled": 0, "lon": -77.028972, "fusion_lon": 0.0, "name": "d255b3db7f6c186d838c9de23ade6212", "lat": 38.916997333333335}, {"rental_uris": {"ios": "https://dc.lft.to/lastmile_qr_scan", "android": "https://dc.lft.to/lastmile_qr_scan"}, "is_reserved": 0, "fusion_lat": 0.0, "type": "electric_scooter", "bike_id": "d2d5e0aba49148d4f91671de5c0981ff", "is_disabled": 0, "lon": -77.0423515, "fusion_lon": 0.0, "name": "d2d5e0aba49148d4f91671de5c0981ff", "lat": 38.91121283333333}, {"rental_uris": {"ios": "https://dc.lft.to/lastmile_qr_scan", "android": "https://dc.lft.to/lastmile_qr_scan"}, "is_reserved": 0, "fusion_lat": 0.0, "type": "electric_scooter", "bike_id": "08778050f444c0db6f4441010e1c7e60", "is_disabled": 0, "lon": -76.99765616666667, "fusion_lon": 0.0, "name": "08778050f444c0db6f4441010e1c7e60", "lat": 38.911175666666665}, {"rental_uris": {"ios": "https://dc.lft.to/lastmile_qr_scan", "android": "https://dc.lft.to/lastmile_qr_scan"}, "is_reserved": 0, "fusion_lat": 0.0, "type": "electric_scooter", "bike_id": "687c96a649511886a2307bb59351fc60", "is_disabled": 0, "lon": -76.99959066666666, "fusion_lon": 0.0, "name": "687c96a649511886a2307bb59351fc60", "lat": 38.87289283333333}, {"rental_uris": {"ios": "https://dc.lft.to/lastmile_qr_scan", "android": "https://dc.lft.to/lastmile_qr_scan"}, "is_reserved": 0, "fusion_lat": 0.0, "type": "electric_scooter", "bike_id": "8865d7794a00ed438777ba274a7b74dc", "is_disabled": 0, "lon": -77.0239445, "fusion_lon": 0.0, "name": "8865d7794a00ed438777ba274a7b74dc", "lat": 38.91478333333333}, {"rental_uris": {"ios": "https://dc.lft.to/lastmile_qr_scan", "android": "https://dc.lft.to/lastmile_qr_scan"}, "is_reserved": 0, "fusion_lat": 0.0, "type": "electric_scooter", "bike_id": "f4685b7d8f0e88a1fee25c839a7a7c4b", "is_disabled": 0, "lon": -77.03367483333334, "fusion_lon": 0.0, "name": "f4685b7d8f0e88a1fee25c839a7a7c4b", "lat": 38.91365116666667}, {"rental_uris": {"ios": "https://dc.lft.to/lastmile_qr_scan", "android": "https://dc.lft.to/lastmile_qr_scan"}, "is_reserved": 0, "fusion_lat": 0.0, "type": "electric_bike", "bike_id": "ecf7792ea5c9c641d03f465f59319055", "is_disabled": 0, "lon": -77.22926783333334, "fusion_lon": 0.0, "name": "ecf7792ea5c9c641d03f465f59319055", "lat": 38.931933}, {"rental_uris": {"ios": "https://dc.lft.to/lastmile_qr_scan", "android": "https://dc.lft.to/lastmile_qr_scan"}, "is_reserved": 0, "fusion_lat": 0.0, "type": "electric_scooter", "bike_id": "236e6df1967820fa017bbfd75849c9dc", "is_disabled": 0, "lon": -76.99169283333333, "fusion_lon": 0.0, "name": "236e6df1967820fa017bbfd75849c9dc", "lat": 38.90016266666667}, {"rental_uris": {"ios": "https://dc.lft.to/lastmile_qr_scan", "android": "https://dc.lft.to/lastmile_qr_scan"}, "is_reserved": 0, "fusion_lat": 0.0, "type": "electric_bike", "bike_id": "3ff50af12cac3643c0d9890188b7246a", "is_disabled": 0, "lon": -77.09760866666667, "fusion_lon": 0.0, "name": "3ff50af12cac3643c0d9890188b7246a", "lat": 38.84991983333333}, {"rental_uris": {"ios": "https://dc.lft.to/lastmile_qr_scan", "android": "https://dc.lft.to/lastmile_qr_scan"}, "is_reserved": 0, "fusion_lat": 0.0, "type": "electric_scooter", "bike_id": "9ceb2219fdf3e42ee9179e75215db567", "is_disabled": 0, "lon": -77.02483433333333, "fusion_lon": 0.0, "name": "9ceb2219fdf3e42ee9179e75215db567", "lat": 38.8829515}, {"rental_uris": {"ios": "https://dc.lft.to/lastmile_qr_scan", "android": "https://dc.lft.to/lastmile_qr_scan"}, "is_reserved": 0, "fusion_lat": 0.0, "type": "electric_scooter", "bike_id": "96a8696b58f43e737d141d5f91cc71bd", "is_disabled": 0, "lon": -77.02009966666667, "fusion_lon": 0.0, "name": "96a8696b58f43e737d141d5f91cc71bd", "lat": 38.883911}, {"rental_uris": {"ios": "https://dc.lft.to/lastmile_qr_scan", "android": "https://dc.lft.to/lastmile_qr_scan"}, "is_reserved": 0, "fusion_lat": 0.0, "type": "electric_bike", "bike_id": "d99bd0d4bde82cf9c82b3c507ec12d07", "is_disabled": 0, "lon": -77.05088333333333, "fusion_lon": 0.0, "name": "d99bd0d4bde82cf9c82b3c507ec12d07", "lat": 38.81335583333333}, {"rental_uris": {"ios": "https://dc.lft.to/lastmile_qr_scan", "android": "https://dc.lft.to/lastmile_qr_scan"}, "is_reserved": 0, "fusion_lat": 0.0, "type": "electric_scooter", "bike_id": "603ca20feaed5f028e9130a2f29e5e27", "is_disabled": 0, "lon": -77.03732783333334, "fusion_lon": 0.0, "name": "603ca20feaed5f028e9130a2f29e5e27", "lat": 38.9112305}, {"rental_uris": {"ios": "https://dc.lft.to/lastmile_qr_scan", "android": "https://dc.lft.to/lastmile_qr_scan"}, "is_reserved": 0, "fusion_lat": 0.0, "type": "electric_scooter", "bike_id": "1ec1785e7bf41ad2a90fe6639e8e3226", "is_disabled": 0, "lon": -77.015979, "fusion_lon": 0.0, "name": "1ec1785e7bf41ad2a90fe6639e8e3226", "lat": 38.92715533333333}, {"rental_uris": {"ios": "https://dc.lft.to/lastmile_qr_scan", "android": "https://dc.lft.to/lastmile_qr_scan"}, "is_reserved": 0, "fusion_lat": 0.0, "type": "electric_scooter", "bike_id": "022187ea0d96fe62fcd54c5ecda5fddd", "is_disabled": 0, "lon": -77.04569516666666, "fusion_lon": 0.0, "name": "022187ea0d96fe62fcd54c5ecda5fddd", "lat": 38.899576333333336}, {"rental_uris": {"ios": "https://dc.lft.to/lastmile_qr_scan", "android": "https://dc.lft.to/lastmile_qr_scan"}, "is_reserved": 0, "fusion_lat": 0.0, "type": "electric_scooter", "bike_id": "aba214f1cd963834f7895ee12e997d9a", "is_disabled": 0, "lon": -76.93208466666667, "fusion_lon": 0.0, "name": "aba214f1cd963834f7895ee12e997d9a", "lat": 38.896701}, {"rental_uris": {"ios": "https://dc.lft.to/lastmile_qr_scan", "android": "https://dc.lft.to/lastmile_qr_scan"}, "is_reserved": 0, "fusion_lat": 0.0, "type": "electric_scooter", "bike_id": "beb9337e064df52b48012563beb4c526", "is_disabled": 0, "lon": -77.03859983333334, "fusion_lon": 0.0, "name": "beb9337e064df52b48012563beb4c526", "lat": 38.918086833333334}, {"rental_uris": {"ios": "https://dc.lft.to/lastmile_qr_scan", "android": "https://dc.lft.to/lastmile_qr_scan"}, "is_reserved": 0, "fusion_lat": 0.0, "type": "electric_scooter", "bike_id": "33688c40ae6ed718b83301e2f1ecc606", "is_disabled": 0, "lon": -77.04071383333333, "fusion_lon": 0.0, "name": "33688c40ae6ed718b83301e2f1ecc606", "lat": 38.896231666666665}, {"rental_uris": {"ios": "https://dc.lft.to/lastmile_qr_scan", "android": "https://dc.lft.to/lastmile_qr_scan"}, "is_reserved": 0, "fusion_lat": 0.0, "type": "electric_scooter", "bike_id": "e7c0e7645e3e9c8f7c0bb547bdb646b1", "is_disabled": 0, "lon": -77.02190216666666, "fusion_lon": 0.0, "name": "e7c0e7645e3e9c8f7c0bb547bdb646b1", "lat": 38.91479983333333}, {"rental_uris": {"ios": "https://dc.lft.to/lastmile_qr_scan", "android": "https://dc.lft.to/lastmile_qr_scan"}, "is_reserved": 0, "fusion_lat": 0.0, "type": "electric_scooter", "bike_id": "3cba94f7e4849b5d69b65dc8b9109cfc", "is_disabled": 0, "lon": -77.0073035, "fusion_lon": 0.0, "name": "3cba94f7e4849b5d69b65dc8b9109cfc", "lat": 38.898943}, {"rental_uris": {"ios": "https://dc.lft.to/lastmile_qr_scan", "android": "https://dc.lft.to/lastmile_qr_scan"}, "is_reserved": 0, "fusion_lat": 0.0, "type": "electric_scooter", "bike_id": "6853fb9f50e4f9a6cd8588ac5b33d38b", "is_disabled": 0, "lon": -77.03797433333334, "fusion_lon": 0.0, "name": "6853fb9f50e4f9a6cd8588ac5b33d38b", "lat": 38.930288833333336}, {"rental_uris": {"ios": "https://dc.lft.to/lastmile_qr_scan", "android": "https://dc.lft.to/lastmile_qr_scan"}, "is_reserved": 0, "fusion_lat": 0.0, "type": "electric_scooter", "bike_id": "e847b65c8c561b1822ea744f121ea7d0", "is_disabled": 0, "lon": -76.97478766666667, "fusion_lon": 0.0, "name": "e847b65c8c561b1822ea744f121ea7d0", "lat": 38.903537166666666}, {"rental_uris": {"ios": "https://dc.lft.to/lastmile_qr_scan", "android": "https://dc.lft.to/lastmile_qr_scan"}, "is_reserved": 0, "fusion_lat": 0.0, "type": "electric_scooter", "bike_id": "9cfbcb066bfa7472f7f2d04892255472", "is_disabled": 0, "lon": -77.02677166666666, "fusion_lon": 0.0, "name": "9cfbcb066bfa7472f7f2d04892255472", "lat": 38.8953155}, {"rental_uris": {"ios": "https://dc.lft.to/lastmile_qr_scan", "android": "https://dc.lft.to/lastmile_qr_scan"}, "is_reserved": 0, "fusion_lat": 0.0, "type": "electric_bike", "bike_id": "7175f5db5f291f9700972fa7bcaff1f1", "is_disabled": 0, "lon": -76.94534366666667, "fusion_lon": 0.0, "name": "7175f5db5f291f9700972fa7bcaff1f1", "lat": 38.867558333333335}, {"rental_uris": {"ios": "https://dc.lft.to/lastmile_qr_scan", "android": "https://dc.lft.to/lastmile_qr_scan"}, "is_reserved": 0, "fusion_lat": 0.0, "type": "electric_scooter", "bike_id": "55b6ec7b5c806c050d5998cc04ccbbdf", "is_disabled": 0, "lon": -77.0166225, "fusion_lon": 0.0, "name": "55b6ec7b5c806c050d5998cc04ccbbdf", "lat": 38.89466733333333}, {"rental_uris": {"ios": "https://dc.lft.to/lastmile_qr_scan", "android": "https://dc.lft.to/lastmile_qr_scan"}, "is_reserved": 0, "fusion_lat": 0.0, "type": "electric_scooter", "bike_id": "b52d68ca0ef8b8bc12b26e37a930b9f1", "is_disabled": 0, "lon": -77.060148, "fusion_lon": 0.0, "name": "b52d68ca0ef8b8bc12b26e37a930b9f1", "lat": 38.90439516666667}, {"rental_uris": {"ios": "https://dc.lft.to/lastmile_qr_scan", "android": "https://dc.lft.to/lastmile_qr_scan"}, "is_reserved": 0, "fusion_lat": 0.0, "type": "electric_scooter", "bike_id": "38d70493900bec35026fa3bedb81adb2", "is_disabled": 0, "lon": -77.0344035, "fusion_lon": 0.0, "name": "38d70493900bec35026fa3bedb81adb2", "lat": 38.902313666666664}, {"rental_uris": {"ios": "https://dc.lft.to/lastmile_qr_scan", "android": "https://dc.lft.to/lastmile_qr_scan"}, "is_reserved": 0, "fusion_lat": 0.0, "type": "electric_scooter", "bike_id": "3fa054075daebceb44eead25dd148fd0", "is_disabled": 0, "lon": -77.02648983333333, "fusion_lon": 0.0, "name": "3fa054075daebceb44eead25dd148fd0", "lat": 38.9248145}, {"rental_uris": {"ios": "https://dc.lft.to/lastmile_qr_scan", "android": "https://dc.lft.to/lastmile_qr_scan"}, "is_reserved": 0, "fusion_lat": 0.0, "type": "electric_scooter", "bike_id": "2a3ac30579a030d719be85326591cf9f", "is_disabled": 0, "lon": -77.02904, "fusion_lon": 0.0, "name": "2a3ac30579a030d719be85326591cf9f", "lat": 38.923263166666665}, {"rental_uris": {"ios": "https://dc.lft.to/lastmile_qr_scan", "android": "https://dc.lft.to/lastmile_qr_scan"},