{"data": {"bikes": [{"lat": 38.928983833333334, "fusion_lon": 0.0, "fusion_lat": 0.0, "is_disabled": 0, "type": "electric_scooter", "lon": -76.98470566666667, "rental_uris": {"android": "https://dc.lft.to/lastmile_qr_scan", "ios": "https://dc.lft.to/lastmile_qr_scan"}, "is_reserved": 0, "bike_id": "1a51e981c1b7671ee09ee663b1e6b0aa", "name": "1a51e981c1b7671ee09ee663b1e6b0aa"}, {"lat": 38.931435666666665, "fusion_lon": 0.0, "fusion_lat": 0.0, "is_disabled": 0, "type": "electric_scooter", "lon": -76.976134, "rental_uris": {"android": "https://dc.lft.to/lastmile_qr_scan", "ios": "https://dc.lft.to/lastmile_qr_scan"}, "is_reserved": 0, "bike_id": "03f2e2692d97474377662f178112eb4a", "name": "03f2e2692d97474377662f178112eb4a"}, {"lat": 38.86354433333333, "fusion_lon": 0.0, "fusion_lat": 0.0, "is_disabled": 0, "type": "electric_scooter", "lon": -76.982616, "rental_uris": {"android": "https://dc.lft.to/lastmile_qr_scan", "ios": "https://dc.lft.to/lastmile_qr_scan"}, "is_reserved": 0, "bike_id": "4415808a57431974c977aeda34916cc6", "name": "4415808a57431974c977aeda34916cc6"}, {"lat": 38.93569433333333, "fusion_lon": 0.0, "fusion_lat": 0.0, "is_disabled": 0, "type": "electric_bike", "lon": -76.95463416666666, "rental_uris": {"android": "https://dc.lft.to/lastmile_qr_scan", "ios": "https://dc.lft.to/lastmile_qr_scan"}, "is_reserved": 0, "bike_id": "8408df18f0e798c59cba649b578efa00", "name": "8408df18f0e798c59cba649b578efa00"}, {"lat": 38.880827333333336, "fusion_lon": 0.0, "fusion_lat": 0.0, "is_disabled": 0, "type": "electric_scooter", "lon": -76.98528716666667, "rental_uris": {"android": "https://dc.lft.to/lastmile_qr_scan", "ios": "https://dc.lft.to/lastmile_qr_scan"}, "is_reserved": 0, "bike_id": "56b4d727e9008757265bbaa1e0d245ec", "name": "56b4d727e9008757265bbaa1e0d245ec"}, {"lat": 38.89200316666667, "fusion_lon": 0.0, "fusion_lat": 0.0, "is_disabled": 0, "type": "electric_bike", "lon": -77.02901466666667, "rental_uris": {"android": "https://dc.lft.to/lastmile_qr_scan", "ios": "https://dc.lft.to/lastmile_qr_scan"}, "is_reserved": 0, "bike_id": "b1cfe9119e66de749098416b241bd576", "name": "b1cfe9119e66de749098416b241bd576"}, {"lat": 38.926094166666665, "fusion_lon": 0.0, "fusion_lat": 0.0, "is_disabled": 0, "type": "electric_scooter", "lon": -77.005129, "rental_uris": {"android": "https://dc.lft.to/lastmile_qr_scan", "ios": "https://dc.lft.to/lastmile_qr_scan"}, "is_reserved": 0, "bike_id": "c48e7aab6073776a48ef219cdc2db411", "name": "c48e7aab6073776a48ef219cdc2db411"}, {"lat": 38.900295, "fusion_lon": 0.0, "fusion_lat": 0.0, "is_disabled": 0, "type": "electric_scooter", "lon": -77.02719016666667, "rental_uris": {"android": "https://dc.lft.to/lastmile_qr_scan", "ios": "https://dc.lft.to/lastmile_qr_scan"}, "is_reserved": 0, "bike_id": "902f372e9e48b9ac8ce84819e55a10d8", "name": "902f372e9e48b9ac8ce84819e55a10d8"}, {"lat": 38.876558333333335, "fusion_lon": 0.0, "fusion_lat": 0.0, "is_disabled": 0, "type": "electric_scooter", "lon": -77.0080865, "rental_uris": {"android": "https://dc.lft.to/lastmile_qr_scan", "ios": "https://dc.lft.to/lastmile_qr_scan"}, "is_reserved": 0, "bike_id": "a2b1edd644e05ad3eb54ad585f4cd35d", "name": "a2b1edd644e05ad3eb54ad585f4cd35d"}, {"lat": 38.9185585, "fusion_lon": 0.0, "fusion_lat": 0.0, "is_disabled": 0, "type": "electric_scooter", "lon": -77.03210866666667, "rental_uris": {"android": "https://dc.lft.to/lastmile_qr_scan", "ios": "https://dc.lft.to/lastmile_qr_scan"}, "is_reserved": 0, "bike_id": "426e66f7fac1fe92c23422d6969df2ba", "name": "426e66f7fac1fe92c23422d6969df2ba"}, {"lat": 38.941997, "fusion_lon": 0.0, "fusion_lat": 0.0, "is_disabled": 0, "type": "electric_scooter", "lon": -77.025027, "rental_uris": {"android": "https://dc.lft.to/lastmile_qr_scan", "ios": "https://dc.lft.to/lastmile_qr_scan"}, "is_reserved": 0, "bike_id": "e64abf4798c6e7b18fcf026001d78b31", "name": "e64abf4798c6e7b18fcf026001d78b31"}, {"lat": 38.92969333333333, "fusion_lon": 0.0, "fusion_lat": 0.0, "is_disabled": 0, "type": "electric_scooter", "lon": -77.05515833333334, "rental_uris": {"android": "https://dc.lft.to/lastmile_qr_scan", "ios": "https://dc.lft.to/lastmile_qr_scan"}, "is_reserved": 0, "bike_id": "46d90cc7cf044f700cc09327a17be86c", "name": "46d90cc7cf044f700cc09327a17be86c"}, {"lat": 38.925788833333336, "fusion_lon": 0.0, "fusion_lat": 0.0, "is_disabled": 0, "type": "electric_scooter", "lon": -77.03780866666666, "rental_uris": {"android": "https://dc.lft.to/lastmile_qr_scan", "ios": "https://dc.lft.to/lastmile_qr_scan"}, "is_reserved": 0, "bike_id": "69e770f743c183caa0200ba80fd045a3", "name": "69e770f743c183caa0200ba80fd045a3"}, {"lat": 38.93067666666666, "fusion_lon": 0.0, "fusion_lat": 0.0, "is_disabled": 0, "type": "electric_bike", "lon": -77.0380175, "rental_uris": {"android": "https://dc.lft.to/lastmile_qr_scan", "ios": "https://dc.lft.to/lastmile_qr_scan"}, "is_reserved": 0, "bike_id": "239f42bd20a17a8d89eae6fdc20af4b8", "name": "239f42bd20a17a8d89eae6fdc20af4b8"}, {"lat": 38.896811666666665, "fusion_lon": 0.0, "fusion_lat": 0.0, "is_disabled": 0, "type": "electric_scooter", "lon": -76.94728433333333, "rental_uris": {"android": "https://dc.lft.to/lastmile_qr_scan", "ios": "https://dc.lft.to/lastmile_qr_scan"}, "is_reserved": 0, "bike_id": "57605ca424733f9a4d59c43551d73b7c", "name": "57605ca424733f9a4d59c43551d73b7c"}, {"lat": 38.91192133333333, "fusion_lon": 0.0, "fusion_lat": 0.0, "is_disabled": 0, "type": "electric_scooter", "lon": -77.03361666666666, "rental_uris": {"android": "https://dc.lft.to/lastmile_qr_scan", "ios": "https://dc.lft.to/lastmile_qr_scan"}, "is_reserved": 0, "bike_id": "27d65ea5f3e780eefdb32c21eef990cd", "name": "27d65ea5f3e780eefdb32c21eef990cd"}, {"lat": 38.892353, "fusion_lon": 0.0, "fusion_lat": 0.0, "is_disabled": 0, "type": "electric_scooter", "lon": -77.04364016666666, "rental_uris": {"android": "https://dc.lft.to/lastmile_qr_scan", "ios": "https://dc.lft.to/lastmile_qr_scan"}, "is_reserved": 0, "bike_id": "dc7c542bc67804bca7da1287d6d4ca6f", "name": "dc7c542bc67804bca7da1287d6d4ca6f"}, {"lat": 38.842907, "fusion_lon": 0.0, "fusion_lat": 0.0, "is_disabled": 0, "type": "electric_scooter", "lon": -76.99945966666667, "rental_uris": {"android": "https://dc.lft.to/lastmile_qr_scan", "ios": "https://dc.lft.to/lastmile_qr_scan"}, "is_reserved": 0, "bike_id": "cccd9cc17be520d35554383a795aa3ea", "name": "cccd9cc17be520d35554383a795aa3ea"}, {"lat": 38.9167795, "fusion_lon": 0.0, "fusion_lat": 0.0, "is_disabled": 0, "type": "electric_scooter", "lon": -76.98038833333334, "rental_uris": {"android": "https://dc.lft.to/lastmile_qr_scan", "ios": "https://dc.lft.to/lastmile_qr_scan"}, "is_reserved": 0, "bike_id": "1fbd3cae734bea22841c92e34715aa39", "name": "1fbd3cae734bea22841c92e34715aa39"}, {"lat": 38.8873935, "fusion_lon": 0.0, "fusion_lat": 0.0, "is_disabled": 0, "type": "electric_scooter", "lon": -77.0153625, "rental_uris": {"android": "https://dc.lft.to/lastmile_qr_scan", "ios": "https://dc.lft.to/lastmile_qr_scan"}, "is_reserved": 0, "bike_id": "7dde4e2bcd8b6b999a18903156c68ea6", "name": "7dde4e2bcd8b6b999a18903156c68ea6"}, {"lat": 38.885027666666666, "fusion_lon": 0.0, "fusion_lat": 0.0, "is_disabled": 0, "type": "electric_scooter", "lon": -77.0056555, "rental_uris": {"android": "https://dc.lft.to/lastmile_qr_scan", "ios": "https://dc.lft.to/lastmile_qr_scan"}, "is_reserved": 0, "bike_id": "bfd6de55a00a2267d96e97af0585c8e4", "name": "bfd6de55a00a2267d96e97af0585c8e4"}, {"lat": 38.895988833333334, "fusion_lon": 0.0, "fusion_lat": 0.0, "is_disabled": 0, "type": "electric_scooter", "lon": -77.05439583333333, "rental_uris": {"android": "https://dc.lft.to/lastmile_qr_scan", "ios": "https://dc.lft.to/lastmile_qr_scan"}, "is_reserved": 0, "bike_id": "4604a1be70ef6f4a61ee13b8e372599b", "name": "4604a1be70ef6f4a61ee13b8e372599b"}, {"lat": 38.928466666666665, "fusion_lon": 0.0, "fusion_lat": 0.0, "is_disabled": 0, "type": "electric_scooter", "lon": -77.05431516666667, "rental_uris": {"android": "https://dc.lft.to/lastmile_qr_scan", "ios": "https://dc.lft.to/lastmile_qr_scan"}, "is_reserved": 0, "bike_id": "1bf3dc1d8fb46ce89c4feb24e99fcf5f", "name": "1bf3dc1d8fb46ce89c4feb24e99fcf5f"}, {"lat": 38.9175565, "fusion_lon": 0.0, "fusion_lat": 0.0, "is_disabled": 0, "type": "electric_scooter", "lon": -77.02310183333333, "rental_uris": {"android": "https://dc.lft.to/lastmile_qr_scan", "ios": "https://dc.lft.to/lastmile_qr_scan"}, "is_reserved": 0, "bike_id": "32f7dbeb3a132f8a5117457e11d950a9", "name": "32f7dbeb3a132f8a5117457e11d950a9"}, {"lat": 38.922628833333334, "fusion_lon": 0.0, "fusion_lat": 0.0, "is_disabled": 0, "type": "electric_scooter", "lon": -77.032111, "rental_uris": {"android": "https://dc.lft.to/lastmile_qr_scan", "ios": "https://dc.lft.to/lastmile_qr_scan"}, "is_reserved": 0, "bike_id": "19e0c332d9393546c619fc594b707f03", "name": "19e0c332d9393546c619fc594b707f03"}, {"lat": 38.9056115, "fusion_lon": 0.0, "fusion_lat": 0.0, "is_disabled": 0, "type": "electric_scooter", "lon": -77.00599216666667, "rental_uris": {"android": "https://dc.lft.to/lastmile_qr_scan", "ios": "https://dc.lft.to/lastmile_qr_scan"}, "is_reserved": 0, "bike_id": "0b6c753e9bcbe1f37159cb14260e4ac0", "name": "0b6c753e9bcbe1f37159cb14260e4ac0"}, {"lat": 38.97402566666667, "fusion_lon": 0.0, "fusion_lat": 0.0, "is_disabled": 0, "type": "electric_bike", "lon": -77.024902, "rental_uris": {"android": "https://dc.lft.to/lastmile_qr_scan", "ios": "https://dc.lft.to/lastmile_qr_scan"}, "is_reserved": 0, "bike_id": "e398b36fc9171ff5ee30d29a89a0be96", "name": "e398b36fc9171ff5ee30d29a89a0be96"}, {"lat": 38.902787833333335, "fusion_lon": 0.0, "fusion_lat": 0.0, "is_disabled": 0, "type": "electric_scooter", "lon": -77.01747866666666, "rental_uris": {"android": "https://dc.lft.to/lastmile_qr_scan", "ios": "https://dc.lft.to/lastmile_qr_scan"}, "is_reserved": 0, "bike_id": "19355c1ca967f43bd500fe2acb44cf45", "name": "19355c1ca967f43bd500fe2acb44cf45"}, {"lat": 38.8922085, "fusion_lon": 0.0, "fusion_lat": 0.0, "is_disabled": 0, "type": "electric_scooter", "lon": -77.023581, "rental_uris": {"android": "https://dc.lft.to/lastmile_qr_scan", "ios": "https://dc.lft.to/lastmile_qr_scan"}, "is_reserved": 0, "bike_id": "5ca22b1a31d48d81ecbee05bfa365dfa", "name": "5ca22b1a31d48d81ecbee05bfa365dfa"}, {"lat": 38.91268816666667, "fusion_lon": 0.0, "fusion_lat": 0.0, "is_disabled": 0, "type": "electric_scooter", "lon": -77.0386155, "rental_uris": {"android": "https://dc.lft.to/lastmile_qr_scan", "ios": "https://dc.lft.to/lastmile_qr_scan"}, "is_reserved": 0, "bike_id": "cd773776b332a5c9d68dfc6105df56c6", "name": "cd773776b332a5c9d68dfc6105df56c6"}, {"lat": 38.92260433333333, "fusion_lon": 0.0, "fusion_lat": 0.0, "is_disabled": 0, "type": "electric_scooter", "lon": -77.04299483333334, "rental_uris": {"android": "https://dc.lft.to/lastmile_qr_scan", "ios": "https://dc.lft.to/lastmile_qr_scan"}, "is_reserved": 0, "bike_id": "d585677516e272cd8e1d674f01a357fc", "name": "d585677516e272cd8e1d674f01a357fc"}, {"lat": 38.912000666666664, "fusion_lon": 0.0, "fusion_lat": 0.0, "is_disabled": 0, "type": "electric_scooter", "lon": -77.04504966666667, "rental_uris": {"android": "https://dc.lft.to/lastmile_qr_scan", "ios": "https://dc.lft.to/lastmile_qr_scan"}, "is_reserved": 0, "bike_id": "3a58f7ffb9b711998bec98cb330991f5", "name": "3a58f7ffb9b711998bec98cb330991f5"}, {"lat": 38.885009333333336, "fusion_lon": 0.0, "fusion_lat": 0.0, "is_disabled": 0, "type": "electric_scooter", "lon": -77.02161233333334, "rental_uris": {"android": "https://dc.lft.to/lastmile_qr_scan", "ios": "https://dc.lft.to/lastmile_qr_scan"}, "is_reserved": 0, "bike_id": "cfc6016c8920ca2d79f75279ace30240", "name": "cfc6016c8920ca2d79f75279ace30240"}, {"lat": 38.877346333333335, "fusion_lon": 0.0, "fusion_lat": 0.0, "is_disabled": 0, "type": "electric_scooter", "lon": -76.99481066666667, "rental_uris": {"android": "https://dc.lft.to/lastmile_qr_scan", "ios": "https://dc.lft.to/lastmile_qr_scan"}, "is_reserved": 0, "bike_id": "100d2554db16b2b91dc03581f8523693", "name": "100d2554db16b2b91dc03581f8523693"}, {"lat": 38.906597833333336, "fusion_lon": 0.0, "fusion_lat": 0.0, "is_disabled": 0, "type": "electric_scooter", "lon": -77.05137583333334, "rental_uris": {"android": "https://dc.lft.to/lastmile_qr_scan", "ios": "https://dc.lft.to/lastmile_qr_scan"}, "is_reserved": 0, "bike_id": "97f614b2d376e602d9fd5ff52a340cef", "name": "97f614b2d376e602d9fd5ff52a340cef"}, {"lat": 38.87053783333333, "fusion_lon": 0.0, "fusion_lat": 0.0, "is_disabled": 0, "type": "electric_bike", "lon": -77.10988616666667, "rental_uris": {"android": "https://dc.lft.to/lastmile_qr_scan", "ios": "https://dc.lft.to/lastmile_qr_scan"}, "is_reserved": 0, "bike_id": "9bac4878fe6f2e1a61600722c39559de", "name": "9bac4878fe6f2e1a61600722c39559de"}, {"lat": 38.930998833333334, "fusion_lon": 0.0, "fusion_lat": 0.0, "is_disabled": 0, "type": "electric_scooter", "lon": -77.03785266666667, "rental_uris": {"android": "https://dc.lft.to/lastmile_qr_scan", "ios": "https://dc.lft.to/lastmile_qr_scan"}, "is_reserved": 0, "bike_id": "964dbe0ecc7c1b860b8776f421360dfc", "name": "964dbe0ecc7c1b860b8776f421360dfc"}, {"lat": 38.91345033333333, "fusion_lon": 0.0, "fusion_lat": 0.0, "is_disabled": 0, "type": "electric_scooter", "lon": -77.04173783333333, "rental_uris": {"android": "https://dc.lft.to/lastmile_qr_scan", "ios": "https://dc.lft.to/lastmile_qr_scan"}, "is_reserved": 0, "bike_id": "6f119482072980dca7b9c764269eb970", "name": "6f119482072980dca7b9c764269eb970"}, {"lat": 38.900374666666664, "fusion_lon": 0.0, "fusion_lat": 0.0, "is_disabled": 0, "type": "electric_scooter", "lon": -76.9962835, "rental_uris": {"android": "https://dc.lft.to/lastmile_qr_scan", "ios": "https://dc.lft.to/lastmile_qr_scan"}, "is_reserved": 0, "bike_id": "d2f213bdaefc1666e911e6752e03df94", "name": "d2f213bdaefc1666e911e6752e03df94"}, {"lat": 38.9358965, "fusion_lon": 0.0, "fusion_lat": 0.0, "is_disabled": 0, "type": "electric_scooter", "lon": -77.01939466666667, "rental_uris": {"android": "https://dc.lft.to/lastmile_qr_scan", "ios": "https://dc.lft.to/lastmile_qr_scan"}, "is_reserved": 0, "bike_id": "7cb77cb408335e5f493122073f278bbd", "name": "7cb77cb408335e5f493122073f278bbd"}, {"lat": 38.90196783333333, "fusion_lon": 0.0, "fusion_lat": 0.0, "is_disabled": 0, "type": "electric_scooter", "lon": -77.02533616666666, "rental_uris": {"android": "https://dc.lft.to/lastmile_qr_scan", "ios": "https://dc.lft.to/lastmile_qr_scan"}, "is_reserved": 0, "bike_id": "8e0ff75b5af5176e8d0382d5cb6643c8", "name": "8e0ff75b5af5176e8d0382d5cb6643c8"}, {"lat": 38.934522333333334, "fusion_lon": 0.0, "fusion_lat": 0.0, "is_disabled": 0, "type": "electric_scooter", "lon": -76.96412383333333, "rental_uris": {"android": "https://dc.lft.to/lastmile_qr_scan", "ios": "https://dc.lft.to/lastmile_qr_scan"}, "is_reserved": 0, "bike_id": "d07509345f8c76a54b605a113d6b8da4", "name": "d07509345f8c76a54b605a113d6b8da4"}, {"lat": 38.926780666666666, "fusion_lon": 0.0, "fusion_lat": 0.0, "is_disabled": 0, "type": "electric_scooter", "lon": -77.007523, "rental_uris": {"android": "https://dc.lft.to/lastmile_qr_scan", "ios": "https://dc.lft.to/lastmile_qr_scan"}, "is_reserved": 0, "bike_id": "96ee2e11b07fc61ed71df01c55211e74", "name": "96ee2e11b07fc61ed71df01c55211e74"}, {"lat": 38.864443333333334, "fusion_lon": 0.0, "fusion_lat": 0.0, "is_disabled": 0, "type": "electric_scooter", "lon": -76.989919, "rental_uris": {"android": "https://dc.lft.to/lastmile_qr_scan", "ios": "https://dc.lft.to/lastmile_qr_scan"}, "is_reserved": 0, "bike_id": "8b57336cb5aa18c50c0d796ebb04b7e5", "name": "8b57336cb5aa18c50c0d796ebb04b7e5"}, {"lat": 38.905569166666666, "fusion_lon": 0.0, "fusion_lat": 0.0, "is_disabled": 0, "type": "electric_scooter", "lon": -77.00557566666667, "rental_uris": {"android": "https://dc.lft.to/lastmile_qr_scan", "ios": "https://dc.lft.to/lastmile_qr_scan"}, "is_reserved": 0, "bike_id": "7bba6b185a9c9e905503a16721216971", "name": "7bba6b185a9c9e905503a16721216971"}, {"lat": 38.962043333333334, "fusion_lon": 0.0, "fusion_lat": 0.0, "is_disabled": 0, "type": "electric_scooter", "lon": -77.023451, "rental_uris": {"android": "https://dc.lft.to/lastmile_qr_scan", "ios": "https://dc.lft.to/lastmile_qr_scan"}, "is_reserved": 0, "bike_id": "9836d17cfcb3aeedc1369f4e927230ee", "name": "9836d17cfcb3aeedc1369f4e927230ee"}, {"lat": 38.903134333333334, "fusion_lon": 0.0, "fusion_lat": 0.0, "is_disabled": 0, "type": "electric_scooter", "lon": -77.0348425, "rental_uris": {"android": "https://dc.lft.to/lastmile_qr_scan", "ios": "https://dc.lft.to/lastmile_qr_scan"}, "is_reserved": 0, "bike_id": "161831d310b8b6e7194b794342c60893", "name": "161831d310b8b6e7194b794342c60893"}, {"lat": 38.933683, "fusion_lon": 0.0, "fusion_lat": 0.0, "is_disabled": 0, "type": "electric_scooter", "lon": -77.05732383333333, "rental_uris": {"android": "https://dc.lft.to/lastmile_qr_scan", "ios": "https://dc.lft.to/lastmile_qr_scan"}, "is_reserved": 0, "bike_id": "a2ad060f61d84929e9dfb83c67c8e603", "name": "a2ad060f61d84929e9dfb83c67c8e603"}, {"lat": 38.921797, "fusion_lon": 0.0, "fusion_lat": 0.0, "is_disabled": 0, "type": "electric_scooter", "lon": -77.03222616666666, "rental_uris": {"android": "https://dc.lft.to/lastmile_qr_scan", "ios": "https://dc.lft.to/lastmile_qr_scan"}, "is_reserved": 0, "bike_id": "e412aa6fe26340526d205e25a5554889", "name": "e412aa6fe26340526d205e25a5554889"}, {"lat": 38.928452, "fusion_lon": 0.0, "fusion_lat": 0.0, "is_disabled": 0, "type": "electric_bike", "lon": -77.1050045, "rental_uris": {"android": "https://dc.lft.to/lastmile_qr_scan", "ios": "https://dc.lft.to/lastmile_qr_scan"}, "is_reserved": 0, "bike_id": "c0283ef8a3d0e35e22b21941165b6213", "name": "c0283ef8a3d0e35e22b21941165b6213"}, {"lat": 38.858655666666664, "fusion_lon": 0.0, "fusion_lat": 0.0, "is_disabled": 0, "type": "electric_bike", "lon": -77.10097766666667, "rental_uris": {"android": "https://dc.lft.to/lastmile_qr_scan", "ios": "https://dc.lft.to/lastmile_qr_scan"}, "is_reserved": 0, "bike_id": "bea95b02f4886eecf1374954d318a7f5", "name": "bea95b02f4886eecf1374954d318a7f5"}, {"lat": 38.93513, "fusion_lon": 0.0, "fusion_lat": 0.0, "is_disabled": 0, "type": "electric_scooter", "lon": -77.03346283333333, "rental_uris": {"android": "https://dc.lft.to/lastmile_qr_scan", "ios": "https://dc.lft.to/lastmile_qr_scan"}, "is_reserved": 0, "bike_id": "bd5580108a49bc934e5e0502fcd68732", "name": "bd5580108a49bc934e5e0502fcd68732"}, {"lat": 38.959140166666664, "fusion_lon": 0.0, "fusion_lat": 0.0, "is_disabled": 0, "type": "electric_bike", "lon": -77.072513, "rental_uris": {"android": "https://dc.lft.to/lastmile_qr_scan", "ios": "https://dc.lft.to/lastmile_qr_scan"}, "is_reserved": 0, "bike_id": "f5878ec778a6213d6c4ed2415f1c81a6", "name": "f5878ec778a6213d6c4ed2415f1c81a6"}, {"lat": 38.85974016666667, "fusion_lon": 0.0, "fusion_lat": 0.0, "is_disabled": 0, "type": "electric_scooter", "lon": -76.98407666666667, "rental_uris": {"android": "https://dc.lft.to/lastmile_qr_scan", "ios": "https://dc.lft.to/lastmile_qr_scan"}, "is_reserved": 0, "bike_id": "d036d0b89e547bf21125014b130e180e", "name": "d036d0b89e547bf21125014b130e180e"}, {"lat": 38.90784883333333, "fusion_lon": 0.0, "fusion_lat": 0.0, "is_disabled": 0, "type": "electric_scooter", "lon": -77.02966966666666, "rental_uris": {"android": "https://dc.lft.to/lastmile_qr_scan", "ios": "https://dc.lft.to/lastmile_qr_scan"}, "is_reserved": 0, "bike_id": "f887d2915a6416f0078440e0861c602b", "name": "f887d2915a6416f0078440e0861c602b"}, {"lat": 38.9078425, "fusion_lon": 0.0, "fusion_lat": 0.0, "is_disabled": 0, "type": "electric_scooter", "lon": -77.04513833333333, "rental_uris": {"android": "https://dc.lft.to/lastmile_qr_scan", "ios": "https://dc.lft.to/lastmile_qr_scan"}, "is_reserved": 0, "bike_id": "98b6c095eae50398f31208c2f3c703e2", "name": "98b6c095eae50398f31208c2f3c703e2"}, {"lat": 38.94289216666667, "fusion_lon": 0.0, "fusion_lat": 0.0, "is_disabled": 0, "type": "electric_scooter", "lon": -77.02764, "rental_uris": {"android": "https://dc.lft.to/lastmile_qr_scan", "ios": "https://dc.lft.to/lastmile_qr_scan"}, "is_reserved": 0, "bike_id": "6f037aad2514bad5f656ead9504b5e67", "name": "6f037aad2514bad5f656ead9504b5e67"}, {"lat": 38.83809566666667, "fusion_lon": 0.0, "fusion_lat": 0.0, "is_disabled": 0, "type": "electric_bike", "lon": -77.0954935, "rental_uris": {"android": "https://dc.lft.to/lastmile_qr_scan", "ios": "https://dc.lft.to/lastmile_qr_scan"}, "is_reserved": 0, "bike_id": "72b81fc755ab74a312b157969ac145ee", "name": "72b81fc755ab74a312b157969ac145ee"}, {"lat": 38.91785, "fusion_lon": 0.0, "fusion_lat": 0.0, "is_disabled": 0, "type": "electric_scooter", "lon": -77.0424745, "rental_uris": {"android": "https://dc.lft.to/lastmile_qr_scan", "ios": "https://dc.lft.to/lastmile_qr_scan"}, "is_reserved": 0, "bike_id": "ba0ee386deb3db3221fd89f68b44415e", "name": "ba0ee386deb3db3221fd89f68b44415e"}, {"lat": 38.928247, "fusion_lon": 0.0, "fusion_lat": 0.0, "is_disabled": 0, "type": "electric_scooter", "lon": -77.02253216666666, "rental_uris": {"android": "https://dc.lft.to/lastmile_qr_scan", "ios": "https://dc.lft.to/lastmile_qr_scan"}, "is_reserved": 0, "bike_id": "3952dc69cc6f573c55b1ae65dd190746", "name": "3952dc69cc6f573c55b1ae65dd190746"}, {"lat": 38.88489383333334, "fusion_lon": 0.0, "fusion_lat": 0.0, "is_disabled": 0, "type": "electric_scooter", "lon": -77.00711583333333, "rental_uris": {"android": "https://dc.lft.to/lastmile_qr_scan", "ios": "https://dc.lft.to/lastmile_qr_scan"}, "is_reserved": 0, "bike_id": "dcd52934c129d49f5dec61ed554e7ccb", "name": "dcd52934c129d49f5dec61ed554e7ccb"}, {"lat": 38.904918333333335, "fusion_lon": 0.0, "fusion_lat": 0.0, "is_disabled": 0, "type": "electric_scooter", "lon": -76.986871, "rental_uris": {"android": "https://dc.lft.to/lastmile_qr_scan", "ios": "https://dc.lft.to/lastmile_qr_scan"}, "is_reserved": 0, "bike_id": "beb95f9ac300cfb951ced3e4c7bb82b3", "name": "beb95f9ac300cfb951ced3e4c7bb82b3"}, {"lat": 38.87708, "fusion_lon": 0.0, "fusion_lat": 0.0, "is_disabled": 0, "type": "electric_scooter", "lon": -77.01730816666667, "rental_uris": {"android": "https://dc.lft.to/lastmile_qr_scan", "ios": "https://dc.lft.to/lastmile_qr_scan"}, "is_reserved": 0, "bike_id": "b5dd31683246fa3f71aab5704b9fcb43", "name": "b5dd31683246fa3f71aab5704b9fcb43"}, {"lat": 38.904157833333336, "fusion_lon": 0.0, "fusion_lat": 0.0, "is_disabled": 0, "type": "electric_scooter", "lon": -77.00134866666667, "rental_uris": {"android": "https://dc.lft.to/lastmile_qr_scan", "ios": "https://dc.lft.to/lastmile_qr_scan"}, "is_reserved": 0, "bike_id": "0d6b0d624ee65ecd20042a2af2d337b5", "name": "0d6b0d624ee65ecd20042a2af2d337b5"}, {"lat": 38.91964483333334, "fusion_lon": 0.0, "fusion_lat": 0.0, "is_disabled": 0, "type": "electric_scooter", "lon": -77.07126566666666, "rental_uris": {"android": "https://dc.lft.to/lastmile_qr_scan", "ios": "https://dc.lft.to/lastmile_qr_scan"}, "is_reserved": 0, "bike_id": "a0d110516f2f745ef62e08afc11a5f66", "name": "a0d110516f2f745ef62e08afc11a5f66"}, {"lat": 38.89989533333333, "fusion_lon": 0.0, "fusion_lat": 0.0, "is_disabled": 0, "type": "electric_scooter", "lon": -77.02895, "rental_uris": {"android": "https://dc.lft.to/lastmile_qr_scan", "ios": "https://dc.lft.to/lastmile_qr_scan"}, "is_reserved": 0, "bike_id": "761b32e721c955e75c00beecb8466645", "name": "761b32e721c955e75c00beecb8466645"}, {"lat": 38.90483716666667, "fusion_lon": 0.0, "fusion_lat": 0.0, "is_disabled": 0, "type": "electric_scooter", "lon": -76.97323716666666, "rental_uris": {"android": "https://dc.lft.to/lastmile_qr_scan", "ios": "https://dc.lft.to/lastmile_qr_scan"}, "is_reserved": 0, "bike_id": "20cc4e13bd135fb4096453658fec4aa1", "name": "20cc4e13bd135fb4096453658fec4aa1"}, {"lat": 38.905131833333336, "fusion_lon": 0.0, "fusion_lat": 0.0, "is_disabled": 0, "type": "electric_scooter", "lon": -77.04991883333334, "rental_uris": {"android": "https://dc.lft.to/lastmile_qr_scan", "ios": "https://dc.lft.to/lastmile_qr_scan"}, "is_reserved": 0, "bike_id": "d1d8b5853d832d23b3efc677025d1184", "name": "d1d8b5853d832d23b3efc677025d1184"}, {"lat": 38.91024683333333, "fusion_lon": 0.0, "fusion_lat": 0.0, "is_disabled": 0, "type": "electric_scooter", "lon": -77.04153083333334, "rental_uris": {"android": "https://dc.lft.to/lastmile_qr_scan", "ios": "https://dc.lft.to/lastmile_qr_scan"}, "is_reserved": 0, "bike_id": "107da85ddde3ae4b9f4b9a92983e6dd0", "name": "107da85ddde3ae4b9f4b9a92983e6dd0"}, {"lat": 38.891843333333334, "fusion_lon": 0.0, "fusion_lat": 0.0, "is_disabled": 0, "type": "electric_bike", "lon": -76.95028633333334, "rental_uris": {"android": "https://dc.lft.to/lastmile_qr_scan", "ios": "https://dc.lft.to/lastmile_qr_scan"}, "is_reserved": 0, "bike_id": "e058b21b46510b156a3ca8547dcdbdd7", "name": "e058b21b46510b156a3ca8547dcdbdd7"}, {"lat": 38.963040166666666, "fusion_lon": 0.0, "fusion_lat": 0.0, "is_disabled": 0, "type": "electric_bike", "lon": -77.01113683333334, "rental_uris": {"android": "https://dc.lft.to/lastmile_qr_scan", "ios": "https://dc.lft.to/lastmile_qr_scan"}, "is_reserved": 0, "bike_id": "2908284ae052ad55b8f6224239222199", "name": "2908284ae052ad55b8f6224239222199"}, {"lat": 38.940662, "fusion_lon": 0.0, "fusion_lat": 0.0, "is_disabled": 0, "type": "electric_scooter", "lon": -77.02977216666666, "rental_uris": {"android": "https://dc.lft.to/lastmile_qr_scan", "ios": "https://dc.lft.to/lastmile_qr_scan"}, "is_reserved": 0, "bike_id": "50b056287612344bfdb8528c0cd70972", "name": "50b056287612344bfdb8528c0cd70972"}, {"lat": 38.942967, "fusion_lon": 0.0, "fusion_lat": 0.0, "is_disabled": 0, "type": "electric_scooter", "lon": -77.02168733333333, "rental_uris": {"android": "https://dc.lft.to/lastmile_qr_scan", "ios": "https://dc.lft.to/lastmile_qr_scan"}, "is_reserved": 0, "bike_id": "7cfd217d02b237e05d23ab2ad1f1af1e", "name": "7cfd217d02b237e05d23ab2ad1f1af1e"}, {"lat": 38.92808183333333, "fusion_lon": 0.0, "fusion_lat": 0.0, "is_disabled": 0, "type": "electric_scooter", "lon": -77.03377116666667, "rental_uris": {"android": "https://dc.lft.to/lastmile_qr_scan", "ios": "https://dc.lft.to/lastmile_qr_scan"}, "is_reserved": 0, "bike_id": "e357dfcfb3c143a0ad039df31d8261fb", "name": "e357dfcfb3c143a0ad039df31d8261fb"}, {"lat": 38.934765166666665, "fusion_lon": 0.0, "fusion_lat": 0.0, "is_disabled": 0, "type": "electric_scooter", "lon": -77.03583083333334, "rental_uris": {"android": "https://dc.lft.to/lastmile_qr_scan", "ios": "https://dc.lft.to/lastmile_qr_scan"}, "is_reserved": 0, "bike_id": "a35eda979c74869a3b8c738981822f48", "name": "a35eda979c74869a3b8c738981822f48"}, {"lat": 38.93435733333333, "fusion_lon": 0.0, "fusion_lat": 0.0, "is_disabled": 0, "type": "electric_scooter", "lon": -77.034378, "rental_uris": {"android": "https://dc.lft.to/lastmile_qr_scan", "ios": "https://dc.lft.to/lastmile_qr_scan"}, "is_reserved": 0, "bike_id": "a465dcbf08bccc9421b9bca3f2dbe4d5", "name": "a465dcbf08bccc9421b9bca3f2dbe4d5"}, {"lat": 38.878945, "fusion_lon": 0.0, "fusion_lat": 0.0, "is_disabled": 0, "type": "electric_scooter", "lon": -77.01414666666666, "rental_uris": {"android": "https://dc.lft.to/lastmile_qr_scan", "ios": "https://dc.lft.to/lastmile_qr_scan"}, "is_reserved": 0, "bike_id": "5a7b2da3273785673969386641860110", "name": "5a7b2da3273785673969386641860110"}, {"lat": 38.92221216666667, "fusion_lon": 0.0, "fusion_lat": 0.0, "is_disabled": 0, "type": "electric_scooter", "lon": -77.03291866666666, "rental_uris": {"android": "https://dc.lft.to/lastmile_qr_scan", "ios": "https://dc.lft.to/lastmile_qr_scan"}, "is_reserved": 0, "bike_id": "1f10c3e8edb73b495c1f08a883190acc", "name": "1f10c3e8edb73b495c1f08a883190acc"}, {"lat": 38.90022533333333, "fusion_lon": 0.0, "fusion_lat": 0.0, "is_disabled": 0, "type": "electric_scooter", "lon": -77.03991983333333, "rental_uris": {"android": "https://dc.lft.to/lastmile_qr_scan", "ios": "https://dc.lft.to/lastmile_qr_scan"}, "is_reserved": 0, "bike_id": "08799413f9c99f0f09b23884394a8241", "name": "08799413f9c99f0f09b23884394a8241"}, {"lat": 38.92066766666667, "fusion_lon": 0.0, "fusion_lat": 0.0, "is_disabled": 0, "type": "electric_scooter", "lon": -77.0317245, "rental_uris": {"android": "https://dc.lft.to/lastmile_qr_scan", "ios": "https://dc.lft.to/lastmile_qr_scan"}, "is_reserved": 0, "bike_id": "8ca9e5eba2b61e331f4a6318021c1672", "name": "8ca9e5eba2b61e331f4a6318021c1672"}, {"lat": 38.90038583333333, "fusion_lon": 0.0, "fusion_lat": 0.0, "is_disabled": 0, "type": "electric_scooter", "lon": -76.99625233333333, "rental_uris": {"android": "https://dc.lft.to/lastmile_qr_scan", "ios": "https://dc.lft.to/lastmile_qr_scan"}, "is_reserved": 0, "bike_id": "5c40e8c0dbbd99a489198421adc68a4e", "name": "5c40e8c0dbbd99a489198421adc68a4e"}, {"lat": 38.8922675, "fusion_lon": 0.0, "fusion_lat": 0.0, "is_disabled": 0, "type": "electric_bike", "lon": -77.01371116666667, "rental_uris": {"android": "https://dc.lft.to/lastmile_qr_scan", "ios": "https://dc.lft.to/lastmile_qr_scan"}, "is_reserved": 0, "bike_id": "ce62613fd768e1221f7c3c83de03f5de", "name": "ce62613fd768e1221f7c3c83de03f5de"}, {"lat": 38.9057515, "fusion_lon": 0.0, "fusion_lat": 0.0, "is_disabled": 0, "type": "electric_scooter", "lon": -77.037884, "rental_uris": {"android": "https://dc.lft.to/lastmile_qr_scan", "ios": "https://dc.lft.to/lastmile_qr_scan"}, "is_reserved": 0, "bike_id": "79de2315b1323c116c4edacd910cbc30", "name": "79de2315b1323c116c4edacd910cbc30"}, {"lat": 38.877932, "fusion_lon": 0.0, "fusion_lat": 0.0, "is_disabled": 0, "type": "electric_scooter", "lon": -77.00116933333334, "rental_uris": {"android": "https://dc.lft.to/lastmile_qr_scan", "ios": "https://dc.lft.to/lastmile_qr_scan"}, "is_reserved": 0, "bike_id": "f1f871c0df49131f738d1ffdaef6a118", "name": "f1f871c0df49131f738d1ffdaef6a118"}, {"lat": 38.91738483333334, "fusion_lon": 0.0, "fusion_lat": 0.0, "is_disabled": 0, "type": "electric_scooter", "lon": -77.02112033333333, "rental_uris": {"android": "https://dc.lft.to/lastmile_qr_scan", "ios": "https://dc.lft.to/lastmile_qr_scan"}, "is_reserved": 0, "bike_id": "7fb4a16b0456a4ab8e6f9543ffa75536", "name": "7fb4a16b0456a4ab8e6f9543ffa75536"}, {"lat": 38.892349833333334, "fusion_lon": 0.0, "fusion_lat": 0.0, "is_disabled": 0, "type": "electric_scooter", "lon": -77.04361033333333, "rental_uris": {"android": "https://dc.lft.to/lastmile_qr_scan", "ios": "https://dc.lft.to/lastmile_qr_scan"}, "is_reserved": 0, "bike_id": "cd438ce8b539bcc313a9d9ced6a8723d", "name": "cd438ce8b539bcc313a9d9ced6a8723d"}, {"lat": 38.8850455, "fusion_lon": 0.0, "fusion_lat": 0.0, "is_disabled": 0, "type": "electric_scooter", "lon": -77.00569383333334, "rental_uris": {"android": "https://dc.lft.to/lastmile_qr_scan", "ios": "https://dc.lft.to/lastmile_qr_scan"}, "is_reserved": 0, "bike_id": "534f5239637a18ac6126e72e94dd61aa", "name": "534f5239637a18ac6126e72e94dd61aa"}, {"lat": 38.915958333333336, "fusion_lon": 0.0, "fusion_lat": 0.0, "is_disabled": 0, "type": "electric_scooter", "lon": -77.0229775, "rental_uris": {"android": "https://dc.lft.to/lastmile_qr_scan", "ios": "https://dc.lft.to/lastmile_qr_scan"}, "is_reserved": 0, "bike_id": "96bba5d51b475bd7b4c21ea29805a0e9", "name": "96bba5d51b475bd7b4c21ea29805a0e9"}, {"lat": 38.898246666666665, "fusion_lon": 0.0, "fusion_lat": 0.0, "is_disabled": 0, "type": "electric_scooter", "lon": -77.02602783333333, "rental_uris": {"android": "https://dc.lft.to/lastmile_qr_scan", "ios": "https://dc.lft.to/lastmile_qr_scan"}, "is_reserved": 0, "bike_id": "d289047f3b003294f904395fc4c99d4b", "name": "d289047f3b003294f904395fc4c99d4b"}, {"lat": 38.90009883333333, "fusion_lon": 0.0, "fusion_lat": 0.0, "is_disabled": 0, "type": "electric_scooter", "lon": -77.0262765, "rental_uris": {"android": "https://dc.lft.to/lastmile_qr_scan", "ios": "https://dc.lft.to/lastmile_qr_scan"}, "is_reserved": 0, "bike_id": "20091f09e51c8187d9fca6219e7bf85e", "name": "20091f09e51c8187d9fca6219e7bf85e"}, {"lat": 38.91944383333333, "fusion_lon": 0.0, "fusion_lat": 0.0, "is_disabled": 0, "type": "electric_scooter", "lon": -77.01800783333333, "rental_uris": {"android": "https://dc.lft.to/lastmile_qr_scan", "ios": "https://dc.lft.to/lastmile_qr_scan"}, "is_reserved": 0, "bike_id": "06bd118bb17560fda4ec493dc843eede", "name": "06bd118bb17560fda4ec493dc843eede"}, {"lat": 38.9508985, "fusion_lon": 0.0, "fusion_lat": 0.0, "is_disabled": 0, "type": "electric_scooter", "lon": -77.02821, "rental_uris": {"android": "https://dc.lft.to/lastmile_qr_scan", "ios": "https://dc.lft.to/lastmile_qr_scan"}, "is_reserved": 0, "bike_id": "2edbcfeae412fd75e8720ed8b7995971", "name": "2edbcfeae412fd75e8720ed8b7995971"}, {"lat": 38.90381383333333, "fusion_lon": 0.0, "fusion_lat": 0.0, "is_disabled": 0, "type": "electric_scooter", "lon": -77.0026995, "rental_uris": {"android": "https://dc.lft.to/lastmile_qr_scan", "ios": "https://dc.lft.to/lastmile_qr_scan"}, "is_reserved": 0, "bike_id": "88f3e92893dce690eb41e582ae7554de", "name": "88f3e92893dce690eb41e582ae7554de"}, {"lat": 38.900613666666665, "fusion_lon": 0.0, "fusion_lat": 0.0, "is_disabled": 0, "type": "electric_bike", "lon": -77.04648766666666, "rental_uris": {"android": "https://dc.lft.to/lastmile_qr_scan", "ios": "https://dc.lft.to/lastmile_qr_scan"}, "is_reserved": 0, "bike_id": "2973ad1ac12526b96ec5f5e615387bb6", "name": "2973ad1ac12526b96ec5f5e615387bb6"}, {"lat": 38.879357, "fusion_lon": 0.0, "fusion_lat": 0.0, "is_disabled": 0, "type": "electric_scooter", "lon": -77.00404516666667, "rental_uris": {"android": "https://dc.lft.to/lastmile_qr_scan", "ios": "https://dc.lft.to/lastmile_qr_scan"}, "is_reserved": 0, "bike_id": "c17373e8bbf3c0e84107a1a1a109a33e", "name": "c17373e8bbf3c0e84107a1a1a109a33e"}, {"lat": 38.902843, "fusion_lon": 0.0, "fusion_lat": 0.0, "is_disabled": 0, "type": "electric_scooter", "lon": -77.036455, "rental_uris": {"android": "https://dc.lft.to/lastmile_qr_scan", "ios": "https://dc.lft.to/lastmile_qr_scan"}, "is_reserved": 0, "bike_id": "9b30512450d25f555aa9d24d276329f1", "name": "9b30512450d25f555aa9d24d276329f1"}, {"lat": 38.92987466666666, "fusion_lon": 0.0, "fusion_lat": 0.0, "is_disabled": 0, "type": "electric_scooter", "lon": -77.01055166666667, "rental_uris": {"android": "https://dc.lft.to/lastmile_qr_scan", "ios": "https://dc.lft.to/lastmile_qr_scan"}, "is_reserved": 0, "bike_id": "106390e0fa29a1bdfbef2ecde06613b7", "name": "106390e0fa29a1bdfbef2ecde06613b7"}, {"lat": 38.90772066666667, "fusion_lon": 0.0, "fusion_lat": 0.0, "is_disabled": 0, "type": "electric_scooter", "lon": -77.03192983333334, "rental_uris": {"android": "https://dc.lft.to/lastmile_qr_scan", "ios": "https://dc.lft.to/lastmile_qr_scan"}, "is_reserved": 0, "bike_id": "1af348129c311823e4a7242b61920086", "name": "1af348129c311823e4a7242b61920086"}, {"lat": 38.90668016666667, "fusion_lon": 0.0, "fusion_lat": 0.0, "is_disabled": 0, "type": "electric_scooter", "lon": -77.012083, "rental_uris": {"android": "https://dc.lft.to/lastmile_qr_scan", "ios": "https://dc.lft.to/lastmile_qr_scan"}, "is_reserved": 0, "bike_id": "77fe58bcfc259693849dab5ce4fa1f07", "name": "77fe58bcfc259693849dab5ce4fa1f07"}, {"lat": 38.89846033333333, "fusion_lon": 0.0, "fusion_lat": 0.0, "is_disabled": 0, "type": "electric_scooter", "lon": -77.03324716666667, "rental_uris": {"android": "https://dc.lft.to/lastmile_qr_scan", "ios": "https://dc.lft.to/lastmile_qr_scan"}, "is_reserved": 0, "bike_id": "0377ac5847f45db5ed2ab591b245b647", "name": "0377ac5847f45db5ed2ab591b245b647"}, {"lat": 38.89222766666666, "fusion_lon": 0.0, "fusion_lat": 0.0, "is_disabled": 0, "type": "electric_scooter", "lon": -77.02718516666667, "rental_uris": {"android": "https://dc.lft.to/lastmile_qr_scan", "ios": "https://dc.lft.to/lastmile_qr_scan"}, "is_reserved": 0, "bike_id": "5fe4bbf8785434aa37f6844623c74bbb", "name": "5fe4bbf8785434aa37f6844623c74bbb"}, {"lat": 38.8792495, "fusion_lon": 0.0, "fusion_lat": 0.0, "is_disabled": 0, "type": "electric_scooter", "lon": -76.99167066666666, "rental_uris": {"android": "https://dc.lft.to/lastmile_qr_scan", "ios": "https://dc.lft.to/lastmile_qr_scan"}, "is_reserved": 0, "bike_id": "84306690b99337aea206d38f06aee040", "name": "84306690b99337aea206d38f06aee040"}, {"lat": 38.89223283333333, "fusion_lon": 0.0, "fusion_lat": 0.0, "is_disabled": 0, "type": "electric_scooter", "lon": -77.03219983333334, "rental_uris": {"android": "https://dc.lft.to/lastmile_qr_scan", "ios": "https://dc.lft.to/lastmile_qr_scan"}, "is_reserved": 0, "bike_id": "57861c10480b83dfe4b204a60762b756", "name": "57861c10480b83dfe4b204a60762b756"}, {"lat": 38.8922695, "fusion_lon": 0.0, "fusion_lat": 0.0, "is_disabled": 0, "type": "electric_scooter", "lon": -77.0432495, "rental_uris": {"android": "https://dc.lft.to/lastmile_qr_scan", "ios": "https://dc.lft.to/lastmile_qr_scan"}, "is_reserved": 0, "bike_id": "0caa52ef5b727557b020445d497bdfda", "name": "0caa52ef5b727557b020445d497bdfda"}, {"lat": 38.973836, "fusion_lon": 0.0, "fusion_lat": 0.0, "is_disabled": 0, "type": "electric_bike", "lon": -77.0647275, "rental_uris": {"android": "https://dc.lft.to/lastmile_qr_scan", "ios": "https://dc.lft.to/lastmile_qr_scan"}, "is_reserved": 0, "bike_id": "f0bde3ffc025b4589a60e5c64f6f0e1f", "name": "f0bde3ffc025b4589a60e5c64f6f0e1f"}, {"lat": 38.9608995, "fusion_lon": 0.0, "fusion_lat": 0.0, "is_disabled": 0, "type": "electric_bike", "lon": -77.0093615, "rental_uris": {"android": "https://dc.lft.to/lastmile_qr_scan", "ios": "https://dc.lft.to/lastmile_qr_scan"}, "is_reserved": 0, "bike_id": "c43814b6f96ca4c1ac1ae863008c6280", "name": "c43814b6f96ca4c1ac1ae863008c6280"}, {"lat": 38.903680666666666, "fusion_lon": 0.0, "fusion_lat": 0.0, "is_disabled": 0, "type": "electric_scooter", "lon": -77.03311216666667, "rental_uris": {"android": "https://dc.lft.to/lastmile_qr_scan", "ios": "https://dc.lft.to/lastmile_qr_scan"}, "is_reserved": 0, "bike_id": "2e71415f35ddeb46dedd8b130684ae59", "name": "2e71415f35ddeb46dedd8b130684ae59"}, {"lat": 38.89252616666667, "fusion_lon": 0.0, "fusion_lat": 0.0, "is_disabled": 0, "type": "electric_scooter", "lon": -77.02175866666667, "rental_uris": {"android": "https://dc.lft.to/lastmile_qr_scan", "ios": "https://dc.lft.to/lastmile_qr_scan"}, "is_reserved": 0, "bike_id": "1f87af9dc357c338920f425a6ca4ed4d", "name": "1f87af9dc357c338920f425a6ca4ed4d"}, {"lat": 38.899266833333336, "fusion_lon": 0.0, "fusion_lat": 0.0, "is_disabled": 0, "type": "electric_scooter", "lon": -77.03296416666667, "rental_uris": {"android": "https://dc.lft.to/lastmile_qr_scan", "ios": "https://dc.lft.to/lastmile_qr_scan"}, "is_reserved": 0, "bike_id": "a3b12db50568d95a55e9468fd7892223", "name": "a3b12db50568d95a55e9468fd7892223"}, {"lat": 38.911199333333336, "fusion_lon": 0.0, "fusion_lat": 0.0, "is_disabled": 0, "type": "electric_scooter", "lon": -77.03834683333334, "rental_uris": {"android": "https://dc.lft.to/lastmile_qr_scan", "ios": "https://dc.lft.to/lastmile_qr_scan"}, "is_reserved": 0, "bike_id": "1a407e1cd5e1fcaa6cc7077539c77cdb", "name": "1a407e1cd5e1fcaa6cc7077539c77cdb"}, {"lat": 38.882192, "fusion_lon": 0.0, "fusion_lat": 0.0, "is_disabled": 0, "type": "electric_scooter", "lon": -76.99156283333333, "rental_uris": {"android": "https://dc.lft.to/lastmile_qr_scan", "ios": "https://dc.lft.to/lastmile_qr_scan"}, "is_reserved": 0, "bike_id": "050a9c1c3e68fa8a90234d230aaf57d9", "name": "050a9c1c3e68fa8a90234d230aaf57d9"}, {"lat": 38.951300333333336, "fusion_lon": 0.0, "fusion_lat": 0.0, "is_disabled": 0, "type": "electric_scooter", "lon": -77.02723333333333, "rental_uris": {"android": "https://dc.lft.to/lastmile_qr_scan", "ios": "https://dc.lft.to/lastmile_qr_scan"}, "is_reserved": 0, "bike_id": "c5d370ebfcfef878eaaa1bd9f8a7b24a", "name": "c5d370ebfcfef878eaaa1bd9f8a7b24a"}, {"lat": 38.895096333333335, "fusion_lon": 0.0, "fusion_lat": 0.0, "is_disabled": 0, "type": "electric_scooter", "lon": -77.0467425, "rental_uris": {"android": "https://dc.lft.to/lastmile_qr_scan", "ios": "https://dc.lft.to/lastmile_qr_scan"}, "is_reserved": 0, "bike_id": "ae5e85aac785f80330b2aa27a9a2c988", "name": "ae5e85aac785f80330b2aa27a9a2c988"}, {"lat": 38.89617166666667, "fusion_lon": 0.0, "fusion_lat": 0.0, "is_disabled": 0, "type": "electric_scooter", "lon": -76.999331, "rental_uris": {"android": "https://dc.lft.to/lastmile_qr_scan", "ios": "https://dc.lft.to/lastmile_qr_scan"}, "is_reserved": 0, "bike_id": "05f395f743a75f3da93c487d2cf7ac10", "name": "05f395f743a75f3da93c487d2cf7ac10"}, {"lat": 38.93319116666667, "fusion_lon": 0.0, "fusion_lat": 0.0, "is_disabled": 0, "type": "electric_scooter", "lon": -77.03789, "rental_uris": {"android": "https://dc.lft.to/lastmile_qr_scan", "ios": "https://dc.lft.to/lastmile_qr_scan"}, "is_reserved": 0, "bike_id": "ae5541145f58aaf39265154b5061aa18", "name": "ae5541145f58aaf39265154b5061aa18"}, {"lat": 38.925111333333334, "fusion_lon": 0.0, "fusion_lat": 0.0, "is_disabled": 0, "type": "electric_scooter", "lon": -77.025751, "rental_uris": {"android": "https://dc.lft.to/lastmile_qr_scan", "ios": "https://dc.lft.to/lastmile_qr_scan"}, "is_reserved": 0, "bike_id": "366fa4bde8770177cdaba35aa87c6042", "name": "366fa4bde8770177cdaba35aa87c6042"}, {"lat": 38.883148166666665, "fusion_lon": 0.0, "fusion_lat": 0.0, "is_disabled": 0, "type": "electric_scooter", "lon": -76.98772183333334, "rental_uris": {"android": "https://dc.lft.to/lastmile_qr_scan", "ios": "https://dc.lft.to/lastmile_qr_scan"}, "is_reserved": 0, "bike_id": "3eab9293e5845efc1122e5b1025b845f", "name": "3eab9293e5845efc1122e5b1025b845f"}, {"lat": 38.9030125, "fusion_lon": 0.0, "fusion_lat": 0.0, "is_disabled": 0, "type": "electric_scooter", "lon": -77.04880633333333, "rental_uris": {"android": "https://dc.lft.to/lastmile_qr_scan", "ios": "https://dc.lft.to/lastmile_qr_scan"}, "is_reserved": 0, "bike_id": "9017e53aec47126c967f42d813298380", "name": "9017e53aec47126c967f42d813298380"}, {"lat": 38.9235615, "fusion_lon": 0.0, "fusion_lat": 0.0, "is_disabled": 0, "type": "electric_scooter", "lon": -77.04151816666666, "rental_uris": {"android": "https://dc.lft.to/lastmile_qr_scan", "ios": "https://dc.lft.to/lastmile_qr_scan"}, "is_reserved": 0, "bike_id": "214443200f00003070f63867aac17268", "name": "214443200f00003070f63867aac17268"}, {"lat": 38.904125666666665, "fusion_lon": 0.0, "fusion_lat": 0.0, "is_disabled": 0, "type": "electric_scooter", "lon": -77.02781783333333, "rental_uris": {"android": "https://dc.lft.to/lastmile_qr_scan", "ios": "https://dc.lft.to/lastmile_qr_scan"}, "is_reserved": 0, "bike_id": "0e18b4e246a0316a5c11a9f79dafdd5a", "name": "0e18b4e246a0316a5c11a9f79dafdd5a"}, {"lat": 38.928801, "fusion_lon": 0.0, "fusion_lat": 0.0, "is_disabled": 0, "type": "electric_scooter", "lon": -77.01390633333334, "rental_uris": {"android": "https://dc.lft.to/lastmile_qr_scan", "ios": "https://dc.lft.to/lastmile_qr_scan"}, "is_reserved": 0, "bike_id": "d8690b23f2419545f94e995304bbb573", "name": "d8690b23f2419545f94e995304bbb573"}, {"lat": 38.928337666666664, "fusion_lon": 0.0, "fusion_lat": 0.0, "is_disabled": 0, "type": "electric_scooter", "lon": -77.032931, "rental_uris": {"android": "https://dc.lft.to/lastmile_qr_scan", "ios": "https://dc.lft.to/lastmile_qr_scan"}, "is_reserved": 0, "bike_id": "0c73cf3be42c3719a17f2426f39784d3", "name": "0c73cf3be42c3719a17f2426f39784d3"}, {"lat": 38.912587333333335, "fusion_lon": 0.0, "fusion_lat": 0.0, "is_disabled": 0, "type": "electric_scooter", "lon": -77.0495975, "rental_uris": {"android": "https://dc.lft.to/lastmile_qr_scan", "ios": "https://dc.lft.to/lastmile_qr_scan"}, "is_reserved": 0, "bike_id": "42dcc388147d8bf5b0d1f47665ac8dcb", "name": "42dcc388147d8bf5b0d1f47665ac8dcb"}, {"lat": 38.864085333333335, "fusion_lon": 0.0, "fusion_lat": 0.0, "is_disabled": 0, "type": "electric_scooter", "lon": -76.9902835, "rental_uris": {"android": "https://dc.lft.to/lastmile_qr_scan", "ios": "https://dc.lft.to/lastmile_qr_scan"}, "is_reserved": 0, "bike_id": "da124afad32597b991c8276d5e513e69", "name": "da124afad32597b991c8276d5e513e69"}, {"lat": 38.887870666666664, "fusion_lon": 0.0, "fusion_lat": 0.0, "is_disabled": 0, "type": "electric_bike", "lon": -76.92339983333333, "rental_uris": {"android": "https://dc.lft.to/lastmile_qr_scan", "ios": "https://dc.lft.to/lastmile_qr_scan"}, "is_reserved": 0, "bike_id": "fd84d069b98c945f701680592d9d4e9e", "name": "fd84d069b98c945f701680592d9d4e9e"}, {"lat": 38.90030383333333, "fusion_lon": 0.0, "fusion_lat": 0.0, "is_disabled": 0, "type": "electric_scooter", "lon": -76.98777583333333, "rental_uris": {"android": "https://dc.lft.to/lastmile_qr_scan", "ios": "https://dc.lft.to/lastmile_qr_scan"}, "is_reserved": 0, "bike_id": "81125a7dfb9f48b1152d7e84368b92c6", "name": "81125a7dfb9f48b1152d7e84368b92c6"}, {"lat": 38.93142366666667, "fusion_lon": 0.0, "fusion_lat": 0.0, "is_disabled": 0, "type": "electric_scooter", "lon": -77.02364533333333, "rental_uris": {"android": "https://dc.lft.to/lastmile_qr_scan", "ios": "https://dc.lft.to/lastmile_qr_scan"}, "is_reserved": 0, "bike_id": "fed009ab8366ee45dfa5c6508c83b684", "name": "fed009ab8366ee45dfa5c6508c83b684"}, {"lat": 38.89251183333333, "fusion_lon": 0.0, "fusion_lat": 0.0, "is_disabled": 0, "type": "electric_scooter", "lon": -77.0218905, "rental_uris": {"android": "https://dc.lft.to/lastmile_qr_scan", "ios": "https://dc.lft.to/lastmile_qr_scan"}, "is_reserved": 0, "bike_id": "8fe1f5a03e700830f4ced37db22a8ed8", "name": "8fe1f5a03e700830f4ced37db22a8ed8"}, {"lat": 38.911751833333334, "fusion_lon": 0.0, "fusion_lat": 0.0, "is_disabled": 0, "type": "electric_bike", "lon": -77.0025335, "rental_uris": {"android": "https://dc.lft.to/lastmile_qr_scan", "ios": "https://dc.lft.to/lastmile_qr_scan"}, "is_reserved": 0, "bike_id": "ddcf6e208569abd8f9842e14bb554e5e", "name": "ddcf6e208569abd8f9842e14bb554e5e"}, {"lat": 38.93477, "fusion_lon": 0.0, "fusion_lat": 0.0, "is_disabled": 0, "type": "electric_scooter", "lon": -77.07267883333333, "rental_uris": {"android": "https://dc.lft.to/lastmile_qr_scan", "ios": "https://dc.lft.to/lastmile_qr_scan"}, "is_reserved": 0, "bike_id": "68a08972f015b4cc606f5ee47e207d23", "name": "68a08972f015b4cc606f5ee47e207d23"}, {"lat": 38.922299333333335, "fusion_lon": 0.0, "fusion_lat": 0.0, "is_disabled": 0, "type": "electric_scooter", "lon": -77.04254516666667, "rental_uris": {"android": "https://dc.lft.to/lastmile_qr_scan", "ios": "https://dc.lft.to/lastmile_qr_scan"}, "is_reserved": 0, "bike_id": "b7ccfdc4c8a8dc05dd33998b2f8aed0b", "name": "b7ccfdc4c8a8dc05dd33998b2f8aed0b"}, {"lat": 38.92847183333333, "fusion_lon": 0.0, "fusion_lat": 0.0, "is_disabled": 0, "type": "electric_scooter", "lon": -77.01587783333333, "rental_uris": {"android": "https://dc.lft.to/lastmile_qr_scan", "ios": "https://dc.lft.to/lastmile_qr_scan"}, "is_reserved": 0, "bike_id": "86d7a251a6a2a999d21094d30da1e4b4", "name": "86d7a251a6a2a999d21094d30da1e4b4"}, {"lat": 38.8966515, "fusion_lon": 0.0, "fusion_lat": 0.0, "is_disabled": 0, "type": "electric_scooter", "lon": -77.0273165, "rental_uris": {"android": "https://dc.lft.to/lastmile_qr_scan", "ios": "https://dc.lft.to/lastmile_qr_scan"}, "is_reserved": 0, "bike_id": "31fe9103e3f5262017f00b0631acfed5", "name": "31fe9103e3f5262017f00b0631acfed5"}, {"lat": 38.89857716666667, "fusion_lon": 0.0, "fusion_lat": 0.0, "is_disabled": 0, "type": "electric_scooter", "lon": -77.03167783333333, "rental_uris": {"android": "https://dc.lft.to/lastmile_qr_scan", "ios": "https://dc.lft.to/lastmile_qr_scan"}, "is_reserved": 0, "bike_id": "857ad28d45f0a6a0143b96f2ecb00975", "name": "857ad28d45f0a6a0143b96f2ecb00975"}, {"lat": 38.872433, "fusion_lon": 0.0, "fusion_lat": 0.0, "is_disabled": 0, "type": "electric_scooter", "lon": -77.01061166666666, "rental_uris": {"android": "https://dc.lft.to/lastmile_qr_scan", "ios": "https://dc.lft.to/lastmile_qr_scan"}, "is_reserved": 0, "bike_id": "61ad5fcfb7639b5a973ccad35a8ab8ae", "name": "61ad5fcfb7639b5a973ccad35a8ab8ae"}, {"lat": 38.89765466666667, "fusion_lon": 0.0, "fusion_lat": 0.0, "is_disabled": 0, "type": "electric_scooter", "lon": -77.0089665, "rental_uris": {"android": "https://dc.lft.to/lastmile_qr_scan", "ios": "https://dc.lft.to/lastmile_qr_scan"}, "is_reserved": 0, "bike_id": "499302cf9157b6f8a3b9415f6ea7ee4a", "name": "499302cf9157b6f8a3b9415f6ea7ee4a"}, {"lat": 38.90038, "fusion_lon": 0.0, "fusion_lat": 0.0, "is_disabled": 0, "type": "electric_scooter", "lon": -76.9963065, "rental_uris": {"android": "https://dc.lft.to/lastmile_qr_scan", "ios": "https://dc.lft.to/lastmile_qr_scan"}, "is_reserved": 0, "bike_id": "4d15dc953e505464de5a798d0ae85915", "name": "4d15dc953e505464de5a798d0ae85915"}, {"lat": 38.915494, "fusion_lon": 0.0, "fusion_lat": 0.0, "is_disabled": 0, "type": "electric_scooter", "lon": -77.01220683333334, "rental_uris": {"android": "https://dc.lft.to/lastmile_qr_scan", "ios": "https://dc.lft.to/lastmile_qr_scan"}, "is_reserved": 0, "bike_id": "341ff93e678a03a97ac8e354326167c9", "name": "341ff93e678a03a97ac8e354326167c9"}, {"lat": 38.895773166666665, "fusion_lon": 0.0, "fusion_lat": 0.0, "is_disabled": 0, "type": "electric_bike", "lon": -76.976183, "rental_uris": {"android": "https://dc.lft.to/lastmile_qr_scan", "ios": "https://dc.lft.to/lastmile_qr_scan"}, "is_reserved": 0, "bike_id": "39fd58d053968da4ae1747fe070edebb", "name": "39fd58d053968da4ae1747fe070edebb"}, {"lat": 38.90030266666667, "fusion_lon": 0.0, "fusion_lat": 0.0, "is_disabled": 0, "type": "electric_scooter", "lon": -77.00723516666666, "rental_uris": {"android": "https://dc.lft.to/lastmile_qr_scan", "ios": "https://dc.lft.to/lastmile_qr_scan"}, "is_reserved": 0, "bike_id": "242149f4083af6c93b5e53e0172d77ba", "name": "242149f4083af6c93b5e53e0172d77ba"}, {"lat": 38.916953166666666, "fusion_lon": 0.0, "fusion_lat": 0.0, "is_disabled": 0, "type": "electric_scooter", "lon": -77.00526633333334, "rental_uris": {"android": "https://dc.lft.to/lastmile_qr_scan", "ios": "https://dc.lft.to/lastmile_qr_scan"}, "is_reserved": 0, "bike_id": "cf5bf07592fba0ae02b314a5586040c7", "name": "cf5bf07592fba0ae02b314a5586040c7"}, {"lat": 38.938827833333335, "fusion_lon": 0.0, "fusion_lat": 0.0, "is_disabled": 0, "type": "electric_scooter", "lon": -77.0248055, "rental_uris": {"android": "https://dc.lft.to/lastmile_qr_scan", "ios": "https://dc.lft.to/lastmile_qr_scan"}, "is_reserved": 0, "bike_id": "92a134a0876e17a12500bdfd5bcfff5e", "name": "92a134a0876e17a12500bdfd5bcfff5e"}, {"lat": 38.936814166666665, "fusion_lon": 0.0, "fusion_lat": 0.0, "is_disabled": 0, "type": "electric_scooter", "lon": -77.03624283333333, "rental_uris": {"android": "https://dc.lft.to/lastmile_qr_scan", "ios": "https://dc.lft.to/lastmile_qr_scan"}, "is_reserved": 0, "bike_id": "bea0a330d952d0f5d04b31058cddd9e2", "name": "bea0a330d952d0f5d04b31058cddd9e2"}, {"lat": 38.90408516666667, "fusion_lon": 0.0, "fusion_lat": 0.0, "is_disabled": 0, "type": "electric_scooter", "lon": -77.00138566666666, "rental_uris": {"android": "https://dc.lft.to/lastmile_qr_scan", "ios": "https://dc.lft.to/lastmile_qr_scan"}, "is_reserved": 0, "bike_id": "ea2356f3a693fdd92f3bad3dfe27ebcf", "name": "ea2356f3a693fdd92f3bad3dfe27ebcf"}, {"lat": 38.903822, "fusion_lon": 0.0, "fusion_lat": 0.0, "is_disabled": 0, "type": "electric_scooter", "lon": -77.0447445, "rental_uris": {"android": "https://dc.lft.to/lastmile_qr_scan", "ios": "https://dc.lft.to/lastmile_qr_scan"}, "is_reserved": 0, "bike_id": "f59e556c1e95336d40382df8fe7c6baa", "name": "f59e556c1e95336d40382df8fe7c6baa"}, {"lat": 38.902071, "fusion_lon": 0.0, "fusion_lat": 0.0, "is_disabled": 0, "type": "electric_scooter", "lon": -77.02213883333333, "rental_uris": {"android": "https://dc.lft.to/lastmile_qr_scan", "ios": "https://dc.lft.to/lastmile_qr_scan"}, "is_reserved": 0, "bike_id": "9879e85e67ce6f677b22d5b9b222194d", "name": "9879e85e67ce6f677b22d5b9b222194d"}, {"lat": 38.85211483333333, "fusion_lon": 0.0, "fusion_lat": 0.0, "is_disabled": 0, "type": "electric_bike", "lon": -77.10127933333334, "rental_uris": {"android": "https://dc.lft.to/lastmile_qr_scan", "ios": "https://dc.lft.to/lastmile_qr_scan"}, "is_reserved": 0, "bike_id": "db2df2c122bd114af041ca4506fc64b5", "name": "db2df2c122bd114af041ca4506fc64b5"}, {"lat": 38.86220866666667, "fusion_lon": 0.0, "fusion_lat": 0.0, "is_disabled": 0, "type": "electric_scooter", "lon": -76.99491866666666, "rental_uris": {"android": "https://dc.lft.to/lastmile_qr_scan", "ios": "https://dc.lft.to/lastmile_qr_scan"}, "is_reserved": 0, "bike_id": "71b79504a9c7a7d380ef2e9cdd8d201e", "name": "71b79504a9c7a7d380ef2e9cdd8d201e"}, {"lat": 38.93125883333333, "fusion_lon": 0.0, "fusion_lat": 0.0, "is_disabled": 0, "type": "electric_scooter", "lon": -77.02349016666666, "rental_uris": {"android": "https://dc.lft.to/lastmile_qr_scan", "ios": "https://dc.lft.to/lastmile_qr_scan"}, "is_reserved": 0, "bike_id": "3b6a057fc5e7f27173569dabe0ef057f", "name": "3b6a057fc5e7f27173569dabe0ef057f"}, {"lat": 38.92357833333333, "fusion_lon": 0.0, "fusion_lat": 0.0, "is_disabled": 0, "type": "electric_scooter", "lon": -77.043994, "rental_uris": {"android": "https://dc.lft.to/lastmile_qr_scan", "ios": "https://dc.lft.to/lastmile_qr_scan"}, "is_reserved": 0, "bike_id": "9a98871288e66fd03e2666be0e734d1e", "name": "9a98871288e66fd03e2666be0e734d1e"}, {"lat": 38.87706716666667, "fusion_lon": 0.0, "fusion_lat": 0.0, "is_disabled": 0, "type": "electric_scooter", "lon": -77.00567133333334, "rental_uris": {"android": "https://dc.lft.to/lastmile_qr_scan", "ios": "https://dc.lft.to/lastmile_qr_scan"}, "is_reserved": 0, "bike_id": "c2774919eb43a12b13e57cdcf1edc78b", "name": "c2774919eb43a12b13e57cdcf1edc78b"}, {"lat": 38.98233783333333, "fusion_lon": 0.0, "fusion_lat": 0.0, "is_disabled": 0, "type": "electric_bike", "lon": -77.026428, "rental_uris": {"android": "https://dc.lft.to/lastmile_qr_scan", "ios": "https://dc.lft.to/lastmile_qr_scan"}, "is_reserved": 0, "bike_id": "32958e3d2f971ac1b2c8653615182cf1", "name": "32958e3d2f971ac1b2c8653615182cf1"}, {"lat": 38.962315, "fusion_lon": 0.0, "fusion_lat": 0.0, "is_disabled": 0, "type": "electric_scooter", "lon": -77.0297865, "rental_uris": {"android": "https://dc.lft.to/lastmile_qr_scan", "ios": "https://dc.lft.to/lastmile_qr_scan"}, "is_reserved": 0, "bike_id": "bd0aaeb7841bf800ebb746cb3c328165", "name": "bd0aaeb7841bf800ebb746cb3c328165"}, {"lat": 38.90366483333333, "fusion_lon": 0.0, "fusion_lat": 0.0, "is_disabled": 0, "type": "electric_scooter", "lon": -77.03449983333333, "rental_uris": {"android": "https://dc.lft.to/lastmile_qr_scan", "ios": "https://dc.lft.to/lastmile_qr_scan"}, "is_reserved": 0, "bike_id": "31cc8b1947c22afa080da8d24fbaf05b", "name": "31cc8b1947c22afa080da8d24fbaf05b"}, {"lat": 38.9346155, "fusion_lon": 0.0, "fusion_lat": 0.0, "is_disabled": 0, "type": "electric_bike", "lon": -77.08950216666666, "rental_uris": {"android": "https://dc.lft.to/lastmile_qr_scan", "ios": "https://dc.lft.to/lastmile_qr_scan"}, "is_reserved": 0, "bike_id": "9fa56f34f0bb953a0d495b37832b819a", "name": "9fa56f34f0bb953a0d495b37832b819a"}, {"lat": 38.896194, "fusion_lon": 0.0, "fusion_lat": 0.0, "is_disabled": 0, "type": "electric_scooter", "lon": -77.011636, "rental_uris": {"android": "https://dc.lft.to/lastmile_qr_scan", "ios": "https://dc.lft.to/lastmile_qr_scan"}, "is_reserved": 0, "bike_id": "002d291843b9f447af0379b38c8ff39c", "name": "002d291843b9f447af0379b38c8ff39c"}, {"lat": 38.898722166666666, "fusion_lon": 0.0, "fusion_lat": 0.0, "is_disabled": 0, "type": "electric_scooter", "lon": -76.94663316666667, "rental_uris": {"android": "https://dc.lft.to/lastmile_qr_scan", "ios": "https://dc.lft.to/lastmile_qr_scan"}, "is_reserved": 0, "bike_id": "5fc083b6ac88e347abca72cc41ee7a33", "name": "5fc083b6ac88e347abca72cc41ee7a33"}, {"lat": 38.914060166666665, "fusion_lon": 0.0, "fusion_lat": 0.0, "is_disabled": 0, "type": "electric_scooter", "lon": -77.04469716666667, "rental_uris": {"android": "https://dc.lft.to/lastmile_qr_scan", "ios": "https://dc.lft.to/lastmile_qr_scan"}, "is_reserved": 0, "bike_id": "3dc4312f3544fb9e146c3224e9d59656", "name": "3dc4312f3544fb9e146c3224e9d59656"}, {"lat": 38.91433, "fusion_lon": 0.0, "fusion_lat": 0.0, "is_disabled": 0, "type": "electric_scooter", "lon": -77.00196416666667, "rental_uris": {"android": "https://dc.lft.to/lastmile_qr_scan", "ios": "https://dc.lft.to/lastmile_qr_scan"}, "is_reserved": 0, "bike_id": "5c57bc86bf9f021a1bb4d0dba5d00b67", "name": "5c57bc86bf9f021a1bb4d0dba5d00b67"}, {"lat": 38.89980966666667, "fusion_lon": 0.0, "fusion_lat": 0.0, "is_disabled": 0, "type": "electric_scooter", "lon": -77.0313345, "rental_uris": {"android": "https://dc.lft.to/lastmile_qr_scan", "ios": "https://dc.lft.to/lastmile_qr_scan"}, "is_reserved": 0, "bike_id": "36626323652ce7a1eba431d02d063d94", "name": "36626323652ce7a1eba431d02d063d94"}, {"lat": 38.9005465, "fusion_lon": 0.0, "fusion_lat": 0.0, "is_disabled": 0, "type": "electric_scooter", "lon": -77.03178466666667, "rental_uris": {"android": "https://dc.lft.to/lastmile_qr_scan", "ios": "https://dc.lft.to/lastmile_qr_scan"}, "is_reserved": 0, "bike_id": "e10608b84558a550ce1a1379ae9b0a62", "name": "e10608b84558a550ce1a1379ae9b0a62"}, {"lat": 38.88312633333334, "fusion_lon": 0.0, "fusion_lat": 0.0, "is_disabled": 0, "type": "electric_scooter", "lon": -77.0161985, "rental_uris": {"android": "https://dc.lft.to/lastmile_qr_scan", "ios": "https://dc.lft.to/lastmile_qr_scan"}, "is_reserved": 0, "bike_id": "ef36896d7e0eba9a5a03a8c3db2fb02a", "name": "ef36896d7e0eba9a5a03a8c3db2fb02a"}, {"lat": 38.90718316666667, "fusion_lon": 0.0, "fusion_lat": 0.0, "is_disabled": 0, "type": "electric_scooter", "lon": -77.03440133333334, "rental_uris": {"android": "https://dc.lft.to/lastmile_qr_scan", "ios": "https://dc.lft.to/lastmile_qr_scan"}, "is_reserved": 0, "bike_id": "0d14557451b735230f5212582a4516cb", "name": "0d14557451b735230f5212582a4516cb"}, {"lat": 38.951368333333335, "fusion_lon": 0.0, "fusion_lat": 0.0, "is_disabled": 0, "type": "electric_scooter", "lon": -77.0272025, "rental_uris": {"android": "https://dc.lft.to/lastmile_qr_scan", "ios": "https://dc.lft.to/lastmile_qr_scan"}, "is_reserved": 0, "bike_id": "7982b4fa94126e31d6a83509ec6f4ce8", "name": "7982b4fa94126e31d6a83509ec6f4ce8"}, {"lat": 38.9027565, "fusion_lon": 0.0, "fusion_lat": 0.0, "is_disabled": 0, "type": "electric_scooter", "lon": -77.03435983333334, "rental_uris": {"android": "https://dc.lft.to/lastmile_qr_scan", "ios": "https://dc.lft.to/lastmile_qr_scan"}, "is_reserved": 0, "bike_id": "a34c6d6c9694789ca3548251c570e0c1", "name": "a34c6d6c9694789ca3548251c570e0c1"}, {"lat": 38.95001933333333, "fusion_lon": 0.0, "fusion_lat": 0.0, "is_disabled": 0, "type": "electric_bike", "lon": -77.3530635, "rental_uris": {"android": "https://dc.lft.to/lastmile_qr_scan", "ios": "https://dc.lft.to/lastmile_qr_scan"}, "is_reserved": 0, "bike_id": "2cf986cee489b0a1b1dfe8e767ba0c24", "name": "2cf986cee489b0a1b1dfe8e767ba0c24"}, {"lat": 38.9219625, "fusion_lon": 0.0, "fusion_lat": 0.0, "is_disabled": 0, "type": "electric_scooter", "lon": -77.04232583333334, "rental_uris": {"android": "https://dc.lft.to/lastmile_qr_scan", "ios": "https://dc.lft.to/lastmile_qr_scan"}, "is_reserved": 0, "bike_id": "7d5d9cb1e6aafddcef94329e3969ef7c", "name": "7d5d9cb1e6aafddcef94329e3969ef7c"}, {"lat": 38.8960745, "fusion_lon": 0.0, "fusion_lat": 0.0, "is_disabled": 0, "type": "electric_scooter", "lon": -77.00929833333333, "rental_uris": {"android": "https://dc.lft.to/lastmile_qr_scan", "ios": "https://dc.lft.to/lastmile_qr_scan"}, "is_reserved": 0, "bike_id": "0da239259bfed0ca68c512d35e791ca6", "name": "0da239259bfed0ca68c512d35e791ca6"}, {"lat": 38.96024933333333, "fusion_lon": 0.0, "fusion_lat": 0.0, "is_disabled": 0, "type": "electric_bike", "lon": -77.02003133333334, "rental_uris": {"android": "https://dc.lft.to/lastmile_qr_scan", "ios": "https://dc.lft.to/lastmile_qr_scan"}, "is_reserved": 0, "bike_id": "ef28879e279c511843f9012c686ad75e", "name": "ef28879e279c511843f9012c686ad75e"}, {"lat": 38.93554783333333, "fusion_lon": 0.0, "fusion_lat": 0.0, "is_disabled": 0, "type": "electric_scooter", "lon": -77.0346375, "rental_uris": {"android": "https://dc.lft.to/lastmile_qr_scan", "ios": "https://dc.lft.to/lastmile_qr_scan"}, "is_reserved": 0, "bike_id": "45a44ddb46da8474c4bf4e004dcb3b62", "name": "45a44ddb46da8474c4bf4e004dcb3b62"}, {"lat": 38.939182833333334, "fusion_lon": 0.0, "fusion_lat": 0.0, "is_disabled": 0, "type": "electric_scooter", "lon": -77.018969, "rental_uris": {"android": "https://dc.lft.to/lastmile_qr_scan", "ios": "https://dc.lft.to/lastmile_qr_scan"}, "is_reserved": 0, "bike_id": "2d4c85dd19c79d9ada5c5be5eed2124a", "name": "2d4c85dd19c79d9ada5c5be5eed2124a"}, {"lat": 38.900245, "fusion_lon": 0.0, "fusion_lat": 0.0, "is_disabled": 0, "type": "electric_scooter", "lon": -77.00207833333333, "rental_uris": {"android": "https://dc.lft.to/lastmile_qr_scan", "ios": "https://dc.lft.to/lastmile_qr_scan"}, "is_reserved": 0, "bike_id": "59539474ff2c6961458f042747b93455", "name": "59539474ff2c6961458f042747b93455"}, {"lat": 38.89252166666667, "fusion_lon": 0.0, "fusion_lat": 0.0, "is_disabled": 0, "type": "electric_scooter", "lon": -77.0321045, "rental_uris": {"android": "https://dc.lft.to/lastmile_qr_scan", "ios": "https://dc.lft.to/lastmile_qr_scan"}, "is_reserved": 0, "bike_id": "0033a7e15b6a4ff4bda793278ebba803", "name": "0033a7e15b6a4ff4bda793278ebba803"}, {"lat": 38.92035033333333, "fusion_lon": 0.0, "fusion_lat": 0.0, "is_disabled": 0, "type": "electric_scooter", "lon": -76.970172, "rental_uris": {"android": "https://dc.lft.to/lastmile_qr_scan", "ios": "https://dc.lft.to/lastmile_qr_scan"}, "is_reserved": 0, "bike_id": "a9d3673f103ee3bf94baaa5eeeac20bc", "name": "a9d3673f103ee3bf94baaa5eeeac20bc"}, {"lat": 38.8849915, "fusion_lon": 0.0, "fusion_lat": 0.0, "is_disabled": 0, "type": "electric_scooter", "lon": -77.02090833333334, "rental_uris": {"android": "https://dc.lft.to/lastmile_qr_scan", "ios": "https://dc.lft.to/lastmile_qr_scan"}, "is_reserved": 0, "bike_id": "53221aeef0d153a740ea9d9af6596d09", "name": "53221aeef0d153a740ea9d9af6596d09"}, {"lat": 38.923150666666665, "fusion_lon": 0.0, "fusion_lat": 0.0, "is_disabled": 0, "type": "electric_scooter", "lon": -77.02972666666666, "rental_uris": {"android": "https://dc.lft.to/lastmile_qr_scan", "ios": "https://dc.lft.to/lastmile_qr_scan"}, "is_reserved": 0, "bike_id": "0a1974a83069b98dc56179910b689dbd", "name": "0a1974a83069b98dc56179910b689dbd"}, {"lat": 38.89255466666667, "fusion_lon": 0.0, "fusion_lat": 0.0, "is_disabled": 0, "type": "electric_scooter", "lon": -77.03348783333334, "rental_uris": {"android": "https://dc.lft.to/lastmile_qr_scan", "ios": "https://dc.lft.to/lastmile_qr_scan"}, "is_reserved": 0, "bike_id": "7bab70d5bc982394e6d3e026ef0927ed", "name": "7bab70d5bc982394e6d3e026ef0927ed"}, {"lat": 38.9020145, "fusion_lon": 0.0, "fusion_lat": 0.0, "is_disabled": 0, "type": "electric_scooter", "lon": -77.02379183333333, "rental_uris": {"android": "https://dc.lft.to/lastmile_qr_scan", "ios": "https://dc.lft.to/lastmile_qr_scan"}, "is_reserved": 0, "bike_id": "190923aa353fd85d5c6f5b22f502b9ec", "name": "190923aa353fd85d5c6f5b22f502b9ec"}, {"lat": 38.90416666666667, "fusion_lon": 0.0, "fusion_lat": 0.0, "is_disabled": 0, "type": "electric_scooter", "lon": -77.05143983333333, "rental_uris": {"android": "https://dc.lft.to/lastmile_qr_scan", "ios": "https://dc.lft.to/lastmile_qr_scan"}, "is_reserved": 0, "bike_id": "8c2e9a0142526c765a2600ed2af20c89", "name": "8c2e9a0142526c765a2600ed2af20c89"}, {"lat": 38.8428975, "fusion_lon": 0.0, "fusion_lat": 0.0, "is_disabled": 0, "type": "electric_scooter", "lon": -76.99077183333333, "rental_uris": {"android": "https://dc.lft.to/lastmile_qr_scan", "ios": "https://dc.lft.to/lastmile_qr_scan"}, "is_reserved": 0, "bike_id": "1d9b2bdcdaa264e2550e8f2d8167bc57", "name": "1d9b2bdcdaa264e2550e8f2d8167bc57"}, {"lat": 38.90376233333333, "fusion_lon": 0.0, "fusion_lat": 0.0, "is_disabled": 0, "type": "electric_scooter", "lon": -77.0299175, "rental_uris": {"android": "https://dc.lft.to/lastmile_qr_scan", "ios": "https://dc.lft.to/lastmile_qr_scan"}, "is_reserved": 0, "bike_id": "46af56a648dd30fb65ab4e0d01161a25", "name": "46af56a648dd30fb65ab4e0d01161a25"}, {"lat": 38.896435833333335, "fusion_lon": 0.0, "fusion_lat": 0.0, "is_disabled": 0, "type": "electric_bike", "lon": -76.94772666666667, "rental_uris": {"android": "https://dc.lft.to/lastmile_qr_scan", "ios": "https://dc.lft.to/lastmile_qr_scan"}, "is_reserved": 0, "bike_id": "d09bea560ff1eb3f102d24b05a618aab", "name": "d09bea560ff1eb3f102d24b05a618aab"}, {"lat": 38.902026166666666, "fusion_lon": 0.0, "fusion_lat": 0.0, "is_disabled": 0, "type": "electric_scooter", "lon": -77.02376183333334, "rental_uris": {"android": "https://dc.lft.to/lastmile_qr_scan", "ios": "https://dc.lft.to/lastmile_qr_scan"}, "is_reserved": 0, "bike_id": "43416c526a8e72cd1ea1dc4ee3d85710", "name": "43416c526a8e72cd1ea1dc4ee3d85710"}, {"lat": 38.88744616666666, "fusion_lon": 0.0, "fusion_lat": 0.0, "is_disabled": 0, "type": "electric_scooter", "lon": -77.028282, "rental_uris": {"android": "https://dc.lft.to/lastmile_qr_scan", "ios": "https://dc.lft.to/lastmile_qr_scan"}, "is_reserved": 0, "bike_id": "c20fa156fd13eefb8b904659b8786acb", "name": "c20fa156fd13eefb8b904659b8786acb"}, {"lat": 38.892205833333335, "fusion_lon": 0.0, "fusion_lat": 0.0, "is_disabled": 0, "type": "electric_scooter", "lon": -77.02719533333334, "rental_uris": {"android": "https://dc.lft.to/lastmile_qr_scan", "ios": "https://dc.lft.to/lastmile_qr_scan"}, "is_reserved": 0, "bike_id": "aad3c20d48fab42d7667fb9ee5d01651", "name": "aad3c20d48fab42d7667fb9ee5d01651"}, {"lat": 38.9035885, "fusion_lon": 0.0, "fusion_lat": 0.0, "is_disabled": 0, "type": "electric_scooter", "lon": -77.01103666666667, "rental_uris": {"android": "https://dc.lft.to/lastmile_qr_scan", "ios": "https://dc.lft.to/lastmile_qr_scan"}, "is_reserved": 0, "bike_id": "f35cb7ca19ba235a31f1e5887bd71a79", "name": "f35cb7ca19ba235a31f1e5887bd71a79"}, {"lat": 38.901318833333335, "fusion_lon": 0.0, "fusion_lat": 0.0, "is_disabled": 0, "type": "electric_bike", "lon": -77.04990666666667, "rental_uris": {"android": "https://dc.lft.to/lastmile_qr_scan", "ios": "https://dc.lft.to/lastmile_qr_scan"}, "is_reserved": 0, "bike_id": "3c1444404bc70e893f3d5e6ad6395158", "name": "3c1444404bc70e893f3d5e6ad6395158"}, {"lat": 38.90742183333333, "fusion_lon": 0.0, "fusion_lat": 0.0, "is_disabled": 0, "type": "electric_scooter", "lon": -77.03205016666666, "rental_uris": {"android": "https://dc.lft.to/lastmile_qr_scan", "ios": "https://dc.lft.to/lastmile_qr_scan"}, "is_reserved": 0, "bike_id": "44a611b0f473969ec66d7290a4c26129", "name": "44a611b0f473969ec66d7290a4c26129"}, {"lat": 38.897365, "fusion_lon": 0.0, "fusion_lat": 0.0, "is_disabled": 0, "type": "electric_scooter", "lon": -77.0480835, "rental_uris": {"android": "https://dc.lft.to/lastmile_qr_scan", "ios": "https://dc.lft.to/lastmile_qr_scan"}, "is_reserved": 0, "bike_id": "321e85da903641b6229574638835f01d", "name": "321e85da903641b6229574638835f01d"}, {"lat": 38.9350205, "fusion_lon": 0.0, "fusion_lat": 0.0, "is_disabled": 0, "type": "electric_bike", "lon": -76.94955833333333, "rental_uris": {"android": "https://dc.lft.to/lastmile_qr_scan", "ios": "https://dc.lft.to/lastmile_qr_scan"}, "is_reserved": 0, "bike_id": "76374706107711195ede1cbd83aa86c4", "name": "76374706107711195ede1cbd83aa86c4"}, {"lat": 38.90741716666667, "fusion_lon": 0.0, "fusion_lat": 0.0, "is_disabled": 0, "type": "electric_scooter", "lon": -77.02487533333333, "rental_uris": {"android": "https://dc.lft.to/lastmile_qr_scan", "ios": "https://dc.lft.to/lastmile_qr_scan"}, "is_reserved": 0, "bike_id": "173893af5a08c0f5837ed427a0391c04", "name": "173893af5a08c0f5837ed427a0391c04"}, {"lat": 38.90595033333334, "fusion_lon": 0.0, "fusion_lat": 0.0, "is_disabled": 0, "type": "electric_bike", "lon": -77.0471765, "rental_uris": {"android": "https://dc.lft.to/lastmile_qr_scan", "ios": "https://dc.lft.to/lastmile_qr_scan"}, "is_reserved": 0, "bike_id": "6bf2cbcfda102a85b2d1b12d76c332c6", "name": "6bf2cbcfda102a85b2d1b12d76c332c6"}, {"lat": 38.86254, "fusion_lon": 0.0, "fusion_lat": 0.0, "is_disabled": 0, "type": "electric_scooter", "lon": -76.983376, "rental_uris": {"android": "https://dc.lft.to/lastmile_qr_scan", "ios": "https://dc.lft.to/lastmile_qr_scan"}, "is_reserved": 0, "bike_id": "cc9d483af4d61862b372915171a7fda7", "name": "cc9d483af4d61862b372915171a7fda7"}, {"lat": 38.84511283333333, "fusion_lon": 0.0, "fusion_lat": 0.0, "is_disabled": 0, "type": "electric_bike", "lon": -77.0779575, "rental_uris": {"android": "https://dc.lft.to/lastmile_qr_scan", "ios": "https://dc.lft.to/lastmile_qr_scan"}, "is_reserved": 0, "bike_id": "57867d4918967504e8ac7c0c4df9e22d", "name": "57867d4918967504e8ac7c0c4df9e22d"}, {"lat": 38.957318666666666, "fusion_lon": 0.0, "fusion_lat": 0.0, "is_disabled": 0, "type": "electric_scooter", "lon": -77.02404516666667, "rental_uris": {"android": "https://dc.lft.to/lastmile_qr_scan", "ios": "https://dc.lft.to/lastmile_qr_scan"}, "is_reserved": 0, "bike_id": "382108eb35782a1793206352a2ebd83a", "name": "382108eb35782a1793206352a2ebd83a"}, {"lat": 38.84292466666667, "fusion_lon": 0.0, "fusion_lat": 0.0, "is_disabled": 0, "type": "electric_scooter", "lon": -76.999473, "rental_uris": {"android": "https://dc.lft.to/lastmile_qr_scan", "ios": "https://dc.lft.to/lastmile_qr_scan"}, "is_reserved": 0, "bike_id": "f8b7ab683fd139b8b23fc6921b7bbd0f", "name": "f8b7ab683fd139b8b23fc6921b7bbd0f"}, {"lat": 38.89271733333333, "fusion_lon": 0.0, "fusion_lat": 0.0, "is_disabled": 0, "type": "electric_scooter", "lon": -77.02027433333333, "rental_uris": {"android": "https://dc.lft.to/lastmile_qr_scan", "ios": "https://dc.lft.to/lastmile_qr_scan"}, "is_reserved": 0, "bike_id": "aa03d455216952bafbdbb045e855eab7", "name": "aa03d455216952bafbdbb045e855eab7"}, {"lat": 38.90321083333333, "fusion_lon": 0.0, "fusion_lat": 0.0, "is_disabled": 0, "type": "electric_scooter", "lon": -77.03661, "rental_uris": {"android": "https://dc.lft.to/lastmile_qr_scan", "ios": "https://dc.lft.to/lastmile_qr_scan"}, "is_reserved": 0, "bike_id": "341ceb2119098e52b71845771215e6af", "name": "341ceb2119098e52b71845771215e6af"}, {"lat": 38.906892666666664, "fusion_lon": 0.0, "fusion_lat": 0.0, "is_disabled": 0, "type": "electric_scooter", "lon": -77.03759883333333, "rental_uris": {"android": "https://dc.lft.to/lastmile_qr_scan", "ios": "https://dc.lft.to/lastmile_qr_scan"}, "is_reserved": 0, "bike_id": "2782fe5c149bbd4a0208fe6f6be77f41", "name": "2782fe5c149bbd4a0208fe6f6be77f41"}, {"lat": 38.897377666666664, "fusion_lon": 0.0, "fusion_lat": 0.0, "is_disabled": 0, "type": "electric_bike", "lon": -76.90532916666666, "rental_uris": {"android": "https://dc.lft.to/lastmile_qr_scan", "ios": "https://dc.lft.to/lastmile_qr_scan"}, "is_reserved": 0, "bike_id": "dbe17a89b85dc6dd972b461e46817e9b", "name": "dbe17a89b85dc6dd972b461e46817e9b"}, {"lat": 38.89773616666667, "fusion_lon": 0.0, "fusion_lat": 0.0, "is_disabled": 0, "type": "electric_scooter", "lon": -77.0273255, "rental_uris": {"android": "https://dc.lft.to/lastmile_qr_scan", "ios": "https://dc.lft.to/lastmile_qr_scan"}, "is_reserved": 0, "bike_id": "5f36d31f0b0c861d41b9fdcc5c36f232", "name": "5f36d31f0b0c861d41b9fdcc5c36f232"}, {"lat": 38.90271333333333, "fusion_lon": 0.0, "fusion_lat": 0.0, "is_disabled": 0, "type": "electric_scooter", "lon": -77.03268233333333, "rental_uris": {"android": "https://dc.lft.to/lastmile_qr_scan", "ios": "https://dc.lft.to/lastmile_qr_scan"}, "is_reserved": 0, "bike_id": "1cd1629341a69233495a903022e2f59e", "name": "1cd1629341a69233495a903022e2f59e"}, {"lat": 38.926505166666665, "fusion_lon": 0.0, "fusion_lat": 0.0, "is_disabled": 0, "type": "electric_scooter", "lon": -77.04056866666667, "rental_uris": {"android": "https://dc.lft.to/lastmile_qr_scan", "ios": "https://dc.lft.to/lastmile_qr_scan"}, "is_reserved": 0, "bike_id": "15e2dcbc9bbd2398458bdf7309c16b5b", "name": "15e2dcbc9bbd2398458bdf7309c16b5b"}, {"lat": 38.887456666666665, "fusion_lon": 0.0, "fusion_lat": 0.0, "is_disabled": 0, "type": "electric_scooter", "lon": -77.02164783333333, "rental_uris": {"android": "https://dc.lft.to/lastmile_qr_scan", "ios": "https://dc.lft.to/lastmile_qr_scan"}, "is_reserved": 0, "bike_id": "95b3476f9ae0e45dc5ebdd6fd7cd2621", "name": "95b3476f9ae0e45dc5ebdd6fd7cd2621"}, {"lat": 38.92371516666667, "fusion_lon": 0.0, "fusion_lat": 0.0, "is_disabled": 0, "type": "electric_scooter", "lon": -77.05262666666667, "rental_uris": {"android": "https://dc.lft.to/lastmile_qr_scan", "ios": "https://dc.lft.to/lastmile_qr_scan"}, "is_reserved": 0, "bike_id": "2fa43fd9a2cf41921e308a129189f479", "name": "2fa43fd9a2cf41921e308a129189f479"}, {"lat": 38.944174, "fusion_lon": 0.0, "fusion_lat": 0.0, "is_disabled": 0, "type": "electric_scooter", "lon": -77.0551645, "rental_uris": {"android": "https://dc.lft.to/lastmile_qr_scan", "ios": "https://dc.lft.to/lastmile_qr_scan"}, "is_reserved": 0, "bike_id": "df6eb793cff264c805da84da3f376f4e", "name": "df6eb793cff264c805da84da3f376f4e"}, {"lat": 38.9209855, "fusion_lon": 0.0, "fusion_lat": 0.0, "is_disabled": 0, "type": "electric_scooter", "lon": -77.03175166666666, "rental_uris": {"android": "https://dc.lft.to/lastmile_qr_scan", "ios": "https://dc.lft.to/lastmile_qr_scan"}, "is_reserved": 0, "bike_id": "629ca2d7817fd3c92bb04c10bc026e68", "name": "629ca2d7817fd3c92bb04c10bc026e68"}, {"lat": 38.901318333333336, "fusion_lon": 0.0, "fusion_lat": 0.0, "is_disabled": 0, "type": "electric_scooter", "lon": -77.03204566666666, "rental_uris": {"android": "https://dc.lft.to/lastmile_qr_scan", "ios": "https://dc.lft.to/lastmile_qr_scan"}, "is_reserved": 0, "bike_id": "6531db70422de761d50d19c78650eac3", "name": "6531db70422de761d50d19c78650eac3"}, {"lat": 38.892714166666664, "fusion_lon": 0.0, "fusion_lat": 0.0, "is_disabled": 0, "type": "electric_scooter", "lon": -77.02599266666667, "rental_uris": {"android": "https://dc.lft.to/lastmile_qr_scan", "ios": "https://dc.lft.to/lastmile_qr_scan"}, "is_reserved": 0, "bike_id": "c958ca21ec1fb3149168ec282694820e", "name": "c958ca21ec1fb3149168ec282694820e"}, {"lat": 38.915722333333335, "fusion_lon": 0.0, "fusion_lat": 0.0, "is_disabled": 0, "type": "electric_scooter", "lon": -77.0082995, "rental_uris": {"android": "https://dc.lft.to/lastmile_qr_scan", "ios": "https://dc.lft.to/lastmile_qr_scan"}, "is_reserved": 0, "bike_id": "4a3beba025c8b068d8ef961feaed54ca", "name": "4a3beba025c8b068d8ef961feaed54ca"}, {"lat": 38.90882283333333, "fusion_lon": 0.0, "fusion_lat": 0.0, "is_disabled": 0, "type": "electric_scooter", "lon": -77.043351, "rental_uris": {"android": "https://dc.lft.to/lastmile_qr_scan", "ios": "https://dc.lft.to/lastmile_qr_scan"}, "is_reserved": 0, "bike_id": "2f2f93b013ecc24dfb1adbf8a6803b3a", "name": "2f2f93b013ecc24dfb1adbf8a6803b3a"}, {"lat": 38.906882, "fusion_lon": 0.0, "fusion_lat": 0.0, "is_disabled": 0, "type": "electric_scooter", "lon": -77.02695866666667, "rental_uris": {"android": "https://dc.lft.to/lastmile_qr_scan", "ios": "https://dc.lft.to/lastmile_qr_scan"}, "is_reserved": 0, "bike_id": "e2740de59911faecc37306856cd002cb", "name": "e2740de59911faecc37306856cd002cb"}, {"lat": 38.937055, "fusion_lon": 0.0, "fusion_lat": 0.0, "is_disabled": 0, "type": "electric_scooter", "lon": -77.02395683333333, "rental_uris": {"android": "https://dc.lft.to/lastmile_qr_scan", "ios": "https://dc.lft.to/lastmile_qr_scan"}, "is_reserved": 0, "bike_id": "a58407b4209e9d028b67451a7c420266", "name": "a58407b4209e9d028b67451a7c420266"}, {"lat": 38.88669066666667, "fusion_lon": 0.0, "fusion_lat": 0.0, "is_disabled": 0, "type": "electric_scooter", "lon": -76.951929, "rental_uris": {"android": "https://dc.lft.to/lastmile_qr_scan", "ios": "https://dc.lft.to/lastmile_qr_scan"}, "is_reserved": 0, "bike_id": "b1c6186f43534ceac5057871325b172b", "name": "b1c6186f43534ceac5057871325b172b"}, {"lat": 38.9057185, "fusion_lon": 0.0, "fusion_lat": 0.0, "is_disabled": 0, "type": "electric_scooter", "lon": -77.0467095, "rental_uris": {"android": "https://dc.lft.to/lastmile_qr_scan", "ios": "https://dc.lft.to/lastmile_qr_scan"}, "is_reserved": 0, "bike_id": "45cc453412ddc9ba145a2fd4085846c3", "name": "45cc453412ddc9ba145a2fd4085846c3"}, {"lat": 38.911411333333334, "fusion_lon": 0.0, "fusion_lat": 0.0, "is_disabled": 0, "type": "electric_scooter", "lon": -76.99010916666667, "rental_uris": {"android": "https://dc.lft.to/lastmile_qr_scan", "ios": "https://dc.lft.to/lastmile_qr_scan"}, "is_reserved": 0, "bike_id": "5756f1c7a835770afa369d5928b46a92", "name": "5756f1c7a835770afa369d5928b46a92"}, {"lat": 38.900312666666665, "fusion_lon": 0.0, "fusion_lat": 0.0, "is_disabled": 0, "type": "electric_scooter", "lon": -77.02972233333334, "rental_uris": {"android": "https://dc.lft.to/lastmile_qr_scan", "ios": "https://dc.lft.to/lastmile_qr_scan"}, "is_reserved": 0, "bike_id": "1a16191da15d58826d92aa5c7117075a", "name": "1a16191da15d58826d92aa5c7117075a"}, {"lat": 38.9024635, "fusion_lon": 0.0, "fusion_lat": 0.0, "is_disabled": 0, "type": "electric_scooter", "lon": -77.04570516666666, "rental_uris": {"android": "https://dc.lft.to/lastmile_qr_scan", "ios": "https://dc.lft.to/lastmile_qr_scan"}, "is_reserved": 0, "bike_id": "1988f58655fb6dab72084ebd2915cabc", "name": "1988f58655fb6dab72084ebd2915cabc"}, {"lat": 38.91194933333333, "fusion_lon": 0.0, "fusion_lat": 0.0, "is_disabled": 0, "type": "electric_scooter", "lon": -77.038571, "rental_uris": {"android": "https://dc.lft.to/lastmile_qr_scan", "ios": "https://dc.lft.to/lastmile_qr_scan"}, "is_reserved": 0, "bike_id": "f28548e29174c9c0d97dd0388d864472", "name": "f28548e29174c9c0d97dd0388d864472"}, {"lat": 38.90389616666667, "fusion_lon": 0.0, "fusion_lat": 0.0, "is_disabled": 0, "type": "electric_scooter", "lon": -77.01353833333333, "rental_uris": {"android": "https://dc.lft.to/lastmile_qr_scan", "ios": "https://dc.lft.to/lastmile_qr_scan"}, "is_reserved": 0, "bike_id": "fbe6f68900c6cb6c8427cf34e970165f", "name": "fbe6f68900c6cb6c8427cf34e970165f"}, {"lat": 38.919344833333334, "fusion_lon": 0.0, "fusion_lat": 0.0, "is_disabled": 0, "type": "electric_scooter", "lon": -77.02507466666667, "rental_uris": {"android": "https://dc.lft.to/lastmile_qr_scan", "ios": "https://dc.lft.to/lastmile_qr_scan"}, "is_reserved": 0, "bike_id": "163e105e9b75381a391738a09c3ad81c", "name": "163e105e9b75381a391738a09c3ad81c"}, {"lat": 38.889837166666666, "fusion_lon": 0.0, "fusion_lat": 0.0, "is_disabled": 0, "type": "electric_scooter", "lon": -76.99820116666666, "rental_uris": {"android": "https://dc.lft.to/lastmile_qr_scan", "ios": "https://dc.lft.to/lastmile_qr_scan"}, "is_reserved": 0, "bike_id": "870a0b06a7d99711935a5404e55770e5", "name": "870a0b06a7d99711935a5404e55770e5"}, {"lat": 38.903885333333335, "fusion_lon": 0.0, "fusion_lat": 0.0, "is_disabled": 0, "type": "electric_scooter", "lon": -76.97907766666667, "rental_uris": {"android": "https://dc.lft.to/lastmile_qr_scan", "ios": "https://dc.lft.to/lastmile_qr_scan"}, "is_reserved": 0, "bike_id": "38120c621bd9df75e22f399f2cc08057", "name": "38120c621bd9df75e22f399f2cc08057"}, {"lat": 39.01038233333333, "fusion_lon": 0.0, "fusion_lat": 0.0, "is_disabled": 0, "type": "electric_bike", "lon": -76.91124266666667, "rental_uris": {"android": "https://dc.lft.to/lastmile_qr_scan", "ios": "https://dc.lft.to/lastmile_qr_scan"}, "is_reserved": 0, "bike_id": "eda857cfa9343ce25c471c39d8074b5a", "name": "eda857cfa9343ce25c471c39d8074b5a"}, {"lat": 38.893719833333336, "fusion_lon": 0.0, "fusion_lat": 0.0, "is_disabled": 0, "type": "electric_scooter", "lon": -77.04791383333334, "rental_uris": {"android": "https://dc.lft.to/lastmile_qr_scan", "ios": "https://dc.lft.to/lastmile_qr_scan"}, "is_reserved": 0, "bike_id": "3b5d2ca7f87a4e43f62fe871e386d7bf", "name": "3b5d2ca7f87a4e43f62fe871e386d7bf"}, {"lat": 38.884530833333336, "fusion_lon": 0.0, "fusion_lat": 0.0, "is_disabled": 0, "type": "electric_scooter", "lon": -77.0104155, "rental_uris": {"android": "https://dc.lft.to/lastmile_qr_scan", "ios": "https://dc.lft.to/lastmile_qr_scan"}, "is_reserved": 0, "bike_id": "b15918b9ac368ed3be8f9d2f1b7acd40", "name": "b15918b9ac368ed3be8f9d2f1b7acd40"}, {"lat": 38.90271366666666, "fusion_lon": 0.0, "fusion_lat": 0.0, "is_disabled": 0, "type": "electric_scooter", "lon": -77.03324516666666, "rental_uris": {"android": "https://dc.lft.to/lastmile_qr_scan", "ios": "https://dc.lft.to/lastmile_qr_scan"}, "is_reserved": 0, "bike_id": "4b70c7c2e669156c116b8140345b3f65", "name": "4b70c7c2e669156c116b8140345b3f65"}, {"lat": 38.90801066666667, "fusion_lon": 0.0, "fusion_lat": 0.0, "is_disabled": 0, "type": "electric_scooter", "lon": -76.99690433333333, "rental_uris": {"android": "https://dc.lft.to/lastmile_qr_scan", "ios": "https://dc.lft.to/lastmile_qr_scan"}, "is_reserved": 0, "bike_id": "9d9c3f1b7f8440a98b185d98951ae154", "name": "9d9c3f1b7f8440a98b185d98951ae154"}, {"lat": 38.86538, "fusion_lon": 0.0, "fusion_lat": 0.0, "is_disabled": 0, "type": "electric_scooter", "lon": -76.98700883333333, "rental_uris": {"android": "https://dc.lft.to/lastmile_qr_scan", "ios": "https://dc.lft.to/lastmile_qr_scan"}, "is_reserved": 0, "bike_id": "aebc781d04083c681d619d7176f6ec76", "name": "aebc781d04083c681d619d7176f6ec76"}, {"lat": 38.9059895, "fusion_lon": 0.0, "fusion_lat": 0.0, "is_disabled": 0, "type": "electric_scooter", "lon": -77.03981566666667, "rental_uris": {"android": "https://dc.lft.to/lastmile_qr_scan", "ios": "https://dc.lft.to/lastmile_qr_scan"}, "is_reserved": 0, "bike_id": "ac0c6ea812ce95fc4c5405b49e9ff84e", "name": "ac0c6ea812ce95fc4c5405b49e9ff84e"}, {"lat": 38.929065333333334, "fusion_lon": 0.0, "fusion_lat": 0.0, "is_disabled": 0, "type": "electric_scooter", "lon": -77.06394566666667, "rental_uris": {"android": "https://dc.lft.to/lastmile_qr_scan", "ios": "https://dc.lft.to/lastmile_qr_scan"}, "is_reserved": 0, "bike_id": "2a2803ea6fd99d5264b80bcdf779c077", "name": "2a2803ea6fd99d5264b80bcdf779c077"}, {"lat": 38.92165766666667, "fusion_lon": 0.0, "fusion_lat": 0.0, "is_disabled": 0, "type": "electric_scooter", "lon": -77.025194, "rental_uris": {"android": "https://dc.lft.to/lastmile_qr_scan", "ios": "https://dc.lft.to/lastmile_qr_scan"}, "is_reserved": 0, "bike_id": "c8dbeef5ca38cc95c2f0ae17e96e7aa0", "name": "c8dbeef5ca38cc95c2f0ae17e96e7aa0"}, {"lat": 38.79987333333333, "fusion_lon": 0.0, "fusion_lat": 0.0, "is_disabled": 0, "type": "electric_bike", "lon": -77.12980466666667, "rental_uris": {"android": "https://dc.lft.to/lastmile_qr_scan", "ios": "https://dc.lft.to/lastmile_qr_scan"}, "is_reserved": 0, "bike_id": "ea36d316442236ab8828c7bae739127d", "name": "ea36d316442236ab8828c7bae739127d"}, {"lat": 38.896762833333334, "fusion_lon": 0.0, "fusion_lat": 0.0, "is_disabled": 0, "type": "electric_scooter", "lon": -76.94721583333333, "rental_uris": {"android": "https://dc.lft.to/lastmile_qr_scan", "ios": "https://dc.lft.to/lastmile_qr_scan"}, "is_reserved": 0, "bike_id": "2917a9d96799bfdccf54e9f9c6684ebd", "name": "2917a9d96799bfdccf54e9f9c6684ebd"}, {"lat": 38.865385833333335, "fusion_lon": 0.0, "fusion_lat": 0.0, "is_disabled": 0, "type": "electric_bike", "lon": -77.12812633333333, "rental_uris": {"android": "https://dc.lft.to/lastmile_qr_scan", "ios": "https://dc.lft.to/lastmile_qr_scan"}, "is_reserved": 0, "bike_id": "b1cfb026737a38d4c0b6e3ca408faf15", "name": "b1cfb026737a38d4c0b6e3ca408faf15"}, {"lat": 38.8243945, "fusion_lon": 0.0, "fusion_lat": 0.0, "is_disabled": 0, "type": "electric_bike", "lon": -77.0704335, "rental_uris": {"android": "https://dc.lft.to/lastmile_qr_scan", "ios": "https://dc.lft.to/lastmile_qr_scan"}, "is_reserved": 0, "bike_id": "247f4b69aa501565780bb5cc0b71a97e", "name": "247f4b69aa501565780bb5cc0b71a97e"}, {"lat": 38.92366066666666, "fusion_lon": 0.0, "fusion_lat": 0.0, "is_disabled": 0, "type": "electric_scooter", "lon": -77.05051483333334, "rental_uris": {"android": "https://dc.lft.to/lastmile_qr_scan", "ios": "https://dc.lft.to/lastmile_qr_scan"}, "is_reserved": 0, "bike_id": "41f3cee4cd4defaa488f0a42f4b1c6a8", "name": "41f3cee4cd4defaa488f0a42f4b1c6a8"}, {"lat": 38.9289885, "fusion_lon": 0.0, "fusion_lat": 0.0, "is_disabled": 0, "type": "electric_scooter", "lon": -77.0326205, "rental_uris": {"android": "https://dc.lft.to/lastmile_qr_scan", "ios": "https://dc.lft.to/lastmile_qr_scan"}, "is_reserved": 0, "bike_id": "af7c8e4bf47018637b08bd09db3c226c", "name": "af7c8e4bf47018637b08bd09db3c226c"}, {"lat": 38.928217833333335, "fusion_lon": 0.0, "fusion_lat": 0.0, "is_disabled": 0, "type": "electric_scooter", "lon": -77.02257816666666, "rental_uris": {"android": "https://dc.lft.to/lastmile_qr_scan", "ios": "https://dc.lft.to/lastmile_qr_scan"}, "is_reserved": 0, "bike_id": "822ad94e95c8b53260946ae04546eef0", "name": "822ad94e95c8b53260946ae04546eef0"}, {"lat": 38.877125, "fusion_lon": 0.0, "fusion_lat": 0.0, "is_disabled": 0, "type": "electric_scooter", "lon": -77.00604966666667, "rental_uris": {"android": "https://dc.lft.to/lastmile_qr_scan", "ios": "https://dc.lft.to/lastmile_qr_scan"}, "is_reserved": 0, "bike_id": "004a425508b8ffa3296df84759a4b185", "name": "004a425508b8ffa3296df84759a4b185"}, {"lat": 38.894859333333336, "fusion_lon": 0.0, "fusion_lat": 0.0, "is_disabled": 0, "type": "electric_scooter", "lon": -76.94839633333333, "rental_uris": {"android": "https://dc.lft.to/lastmile_qr_scan", "ios": "https://dc.lft.to/lastmile_qr_scan"}, "is_reserved": 0, "bike_id": "b6ec6765356fadef78eb591108e49c40", "name": "b6ec6765356fadef78eb591108e49c40"}, {"lat": 38.92174, "fusion_lon": 0.0, "fusion_lat": 0.0, "is_disabled": 0, "type": "electric_scooter", "lon": -77.06318433333334, "rental_uris": {"android": "https://dc.lft.to/lastmile_qr_scan", "ios": "https://dc.lft.to/lastmile_qr_scan"}, "is_reserved": 0, "bike_id": "134404b879b952428da02b108a91c4b5", "name": "134404b879b952428da02b108a91c4b5"}, {"lat": 38.90360716666667, "fusion_lon": 0.0, "fusion_lat": 0.0, "is_disabled": 0, "type": "electric_scooter", "lon": -77.01126516666666, "rental_uris": {"android": "https://dc.lft.to/lastmile_qr_scan", "ios": "https://dc.lft.to/lastmile_qr_scan"}, "is_reserved": 0, "bike_id": "33765bb4dd3ee7f98310c4bae6533184", "name": "33765bb4dd3ee7f98310c4bae6533184"}, {"lat": 38.892243666666666, "fusion_lon": 0.0, "fusion_lat": 0.0, "is_disabled": 0, "type": "electric_scooter", "lon": -77.025478, "rental_uris": {"android": "https://dc.lft.to/lastmile_qr_scan", "ios": "https://dc.lft.to/lastmile_qr_scan"}, "is_reserved": 0, "bike_id": "1fd77dacafe3f3c435e67e0982e2498d", "name": "1fd77dacafe3f3c435e67e0982e2498d"}, {"lat": 38.9133245, "fusion_lon": 0.0, "fusion_lat": 0.0, "is_disabled": 0, "type": "electric_scooter", "lon": -77.04833166666667, "rental_uris": {"android": "https://dc.lft.to/lastmile_qr_scan", "ios": "https://dc.lft.to/lastmile_qr_scan"}, "is_reserved": 0, "bike_id": "8486ee23761a3fe9eb858c0fae096d61", "name": "8486ee23761a3fe9eb858c0fae096d61"}, {"lat": 38.89535733333334, "fusion_lon": 0.0, "fusion_lat": 0.0, "is_disabled": 0, "type": "electric_scooter", "lon": -77.003427, "rental_uris": {"android": "https://dc.lft.to/lastmile_qr_scan", "ios": "https://dc.lft.to/lastmile_qr_scan"}, "is_reserved": 0, "bike_id": "0224fd1f4bef897cd1bb439ab8bb3272", "name": "0224fd1f4bef897cd1bb439ab8bb3272"}, {"lat": 39.0038295, "fusion_lon": 0.0, "fusion_lat": 0.0, "is_disabled": 0, "type": "electric_bike", "lon": -77.01291333333333, "rental_uris": {"android": "https://dc.lft.to/lastmile_qr_scan", "ios": "https://dc.lft.to/lastmile_qr_scan"}, "is_reserved": 0, "bike_id": "0453244f87503f0aa0b8bff3c264fe03", "name": "0453244f87503f0aa0b8bff3c264fe03"}, {"lat": 38.904377, "fusion_lon": 0.0, "fusion_lat": 0.0, "is_disabled": 0, "type": "electric_scooter", "lon": -77.02799483333334, "rental_uris": {"android": "https://dc.lft.to/lastmile_qr_scan", "ios": "https://dc.lft.to/lastmile_qr_scan"}, "is_reserved": 0, "bike_id": "0ad2ee9a2f2cd86381ecb7a9a5a8fdb2", "name": "0ad2ee9a2f2cd86381ecb7a9a5a8fdb2"}, {"lat": 38.856507, "fusion_lon": 0.0, "fusion_lat": 0.0, "is_disabled": 0, "type": "electric_bike", "lon": -77.085265, "rental_uris": {"android": "https://dc.lft.to/lastmile_qr_scan", "ios": "https://dc.lft.to/lastmile_qr_scan"}, "is_reserved": 0, "bike_id": "3be82c44e1dfdd41d9ed7d92050f37a4", "name": "3be82c44e1dfdd41d9ed7d92050f37a4"}, {"lat": 38.885929, "fusion_lon": 0.0, "fusion_lat": 0.0, "is_disabled": 0, "type": "electric_scooter", "lon": -77.01723533333333, "rental_uris": {"android": "https://dc.lft.to/lastmile_qr_scan", "ios": "https://dc.lft.to/lastmile_qr_scan"}, "is_reserved": 0, "bike_id": "ed477ef8c611805466842ece7f619c95", "name": "ed477ef8c611805466842ece7f619c95"}, {"lat": 39.089039, "fusion_lon": 0.0, "fusion_lat": 0.0, "is_disabled": 0, "type": "electric_bike", "lon": -77.17853633333333, "rental_uris": {"android": "https://dc.lft.to/lastmile_qr_scan", "ios": "https://dc.lft.to/lastmile_qr_scan"}, "is_reserved": 0, "bike_id": "8326d12ca595fa08170bf45fa3c6e40b", "name": "8326d12ca595fa08170bf45fa3c6e40b"}, {"lat": 39.05449733333333, "fusion_lon": 0.0, "fusion_lat": 0.0, "is_disabled": 0, "type": "electric_bike", "lon": -77.0430295, "rental_uris": {"android": "https://dc.lft.to/lastmile_qr_scan", "ios": "https://dc.lft.to/lastmile_qr_scan"}, "is_reserved": 0, "bike_id": "afe772196fb6adac57aaef83b2dbf236", "name": "afe772196fb6adac57aaef83b2dbf236"}, {"lat": 38.9134595, "fusion_lon": 0.0, "fusion_lat": 0.0, "is_disabled": 0, "type": "electric_scooter", "lon": -77.02404883333334, "rental_uris": {"android": "https://dc.lft.to/lastmile_qr_scan", "ios": "https://dc.lft.to/lastmile_qr_scan"}, "is_reserved": 0, "bike_id": "1e9e60cd646ead622f65c8fb778f6c1d", "name": "1e9e60cd646ead622f65c8fb778f6c1d"}, {"lat": 38.89852366666667, "fusion_lon": 0.0, "fusion_lat": 0.0, "is_disabled": 0, "type": "electric_scooter", "lon": -77.0286555, "rental_uris": {"android": "https://dc.lft.to/lastmile_qr_scan", "ios": "https://dc.lft.to/lastmile_qr_scan"}, "is_reserved": 0, "bike_id": "2ebe3e5bc0694145db9e9e93a9b77458", "name": "2ebe3e5bc0694145db9e9e93a9b77458"}, {"lat": 38.93547483333333, "fusion_lon": 0.0, "fusion_lat": 0.0, "is_disabled": 0, "type": "electric_scooter", "lon": -77.082051, "rental_uris": {"android": "https://dc.lft.to/lastmile_qr_scan", "ios": "https://dc.lft.to/lastmile_qr_scan"}, "is_reserved": 0, "bike_id": "467c665706c5b445676d12fbc3ec0b01", "name": "467c665706c5b445676d12fbc3ec0b01"}, {"lat": 38.89897916666666, "fusion_lon": 0.0, "fusion_lat": 0.0, "is_disabled": 0, "type": "electric_scooter", "lon": -77.04994083333334, "rental_uris": {"android": "https://dc.lft.to/lastmile_qr_scan", "ios": "https://dc.lft.to/lastmile_qr_scan"}, "is_reserved": 0, "bike_id": "91b4e099754757e4a47da9712703dbb7", "name": "91b4e099754757e4a47da9712703dbb7"}, {"lat": 38.930022666666666, "fusion_lon": 0.0, "fusion_lat": 0.0, "is_disabled": 0, "type": "electric_scooter", "lon": -77.02354, "rental_uris": {"android": "https://dc.lft.to/lastmile_qr_scan", "ios": "https://dc.lft.to/lastmile_qr_scan"}, "is_reserved": 0, "bike_id": "10f0e7242513d0ff8c502dd2e2647185", "name": "10f0e7242513d0ff8c502dd2e2647185"}, {"lat": 38.9499695, "fusion_lon": 0.0, "fusion_lat": 0.0, "is_disabled": 0, "type": "electric_scooter", "lon": -77.02707266666667, "rental_uris": {"android": "https://dc.lft.to/lastmile_qr_scan", "ios": "https://dc.lft.to/lastmile_qr_scan"}, "is_reserved": 0, "bike_id": "986e1b6c36bdc04a759282f70ac761f0", "name": "986e1b6c36bdc04a759282f70ac761f0"}, {"lat": 38.922385, "fusion_lon": 0.0, "fusion_lat": 0.0, "is_disabled": 0, "type": "electric_scooter", "lon": -77.04399633333334, "rental_uris": {"android": "https://dc.lft.to/lastmile_qr_scan", "ios": "https://dc.lft.to/lastmile_qr_scan"}, "is_reserved": 0, "bike_id": "4fd5eba5ad7e411a28ba17662759e0c5", "name": "4fd5eba5ad7e411a28ba17662759e0c5"}, {"lat": 38.913548166666665, "fusion_lon": 0.0, "fusion_lat": 0.0, "is_disabled": 0, "type": "electric_scooter", "lon": -77.01525583333333, "rental_uris": {"android": "https://dc.lft.to/lastmile_qr_scan", "ios": "https://dc.lft.to/lastmile_qr_scan"}, "is_reserved": 0, "bike_id": "c0c5d569bfb58f158d60841611f44dbf", "name": "c0c5d569bfb58f158d60841611f44dbf"}, {"lat": 38.892213166666664, "fusion_lon": 0.0, "fusion_lat": 0.0, "is_disabled": 0, "type": "electric_scooter", "lon": -77.0272085, "rental_uris": {"android": "https://dc.lft.to/lastmile_qr_scan", "ios": "https://dc.lft.to/lastmile_qr_scan"}, "is_reserved": 0, "bike_id": "ca112fabf5db9f3deaf00fd9f06c065e", "name": "ca112fabf5db9f3deaf00fd9f06c065e"}, {"lat": 38.89433566666666, "fusion_lon": 0.0, "fusion_lat": 0.0, "is_disabled": 0, "type": "electric_scooter", "lon": -77.00113033333334, "rental_uris": {"android": "https://dc.lft.to/lastmile_qr_scan", "ios": "https://dc.lft.to/lastmile_qr_scan"}, "is_reserved": 0, "bike_id": "f75813d7ac6636dbbf7393015f732ede", "name": "f75813d7ac6636dbbf7393015f732ede"}, {"lat": 38.935550166666665, "fusion_lon": 0.0, "fusion_lat": 0.0, "is_disabled": 0, "type": "electric_scooter", "lon": -77.08215916666667, "rental_uris": {"android": "https://dc.lft.to/lastmile_qr_scan", "ios": "https://dc.lft.to/lastmile_qr_scan"}, "is_reserved": 0, "bike_id": "505b2748e6d17d0061ecf5e6ad59e431", "name": "505b2748e6d17d0061ecf5e6ad59e431"}, {"lat": 38.944557833333334, "fusion_lon": 0.0, "fusion_lat": 0.0, "is_disabled": 0, "type": "electric_scooter", "lon": -77.02806316666667, "rental_uris": {"android": "https://dc.lft.to/lastmile_qr_scan", "ios": "https://dc.lft.to/lastmile_qr_scan"}, "is_reserved": 0, "bike_id": "9a5d7b2788374336d2990fc7db44a538", "name": "9a5d7b2788374336d2990fc7db44a538"}, {"lat": 38.90473466666667, "fusion_lon": 0.0, "fusion_lat": 0.0, "is_disabled": 0, "type": "electric_scooter", "lon": -76.9921285, "rental_uris": {"android": "https://dc.lft.to/lastmile_qr_scan", "ios": "https://dc.lft.to/lastmile_qr_scan"}, "is_reserved": 0, "bike_id": "0a0dc1724fcc3845a1a31aa5363f0e99", "name": "0a0dc1724fcc3845a1a31aa5363f0e99"}, {"lat": 38.913498833333335, "fusion_lon": 0.0, "fusion_lat": 0.0, "is_disabled": 0, "type": "electric_scooter", "lon": -77.00344316666667, "rental_uris": {"android": "https://dc.lft.to/lastmile_qr_scan", "ios": "https://dc.lft.to/lastmile_qr_scan"}, "is_reserved": 0, "bike_id": "e6656a45e154e0c92fa3f14b940598de", "name": "e6656a45e154e0c92fa3f14b940598de"}, {"lat": 38.897665, "fusion_lon": 0.0, "fusion_lat": 0.0, "is_disabled": 0, "type": "electric_scooter", "lon": -76.9383075, "rental_uris": {"android": "https://dc.lft.to/lastmile_qr_scan", "ios": "https://dc.lft.to/lastmile_qr_scan"}, "is_reserved": 0, "bike_id": "4f811ce3814b011ec3c52b99beae86b3", "name": "4f811ce3814b011ec3c52b99beae86b3"}, {"lat": 38.8948445, "fusion_lon": 0.0, "fusion_lat": 0.0, "is_disabled": 0, "type": "electric_scooter", "lon": -76.94841283333334, "rental_uris": {"android": "https://dc.lft.to/lastmile_qr_scan", "ios": "https://dc.lft.to/lastmile_qr_scan"}, "is_reserved": 0, "bike_id": "0b004abb953e06745c1865b282cd5c67", "name": "0b004abb953e06745c1865b282cd5c67"}, {"lat": 38.90041216666667, "fusion_lon": 0.0, "fusion_lat": 0.0, "is_disabled": 0, "type": "electric_scooter", "lon": -77.04342833333334, "rental_uris": {"android": "https://dc.lft.to/lastmile_qr_scan", "ios": "https://dc.lft.to/lastmile_qr_scan"}, "is_reserved": 0, "bike_id": "58c4a46186d21c57e921163995bb6e27", "name": "58c4a46186d21c57e921163995bb6e27"}, {"lat": 38.910511666666665, "fusion_lon": 0.0, "fusion_lat": 0.0, "is_disabled": 0, "type": "electric_scooter", "lon": -77.00923616666667, "rental_uris": {"android": "https://dc.lft.to/lastmile_qr_scan", "ios": "https://dc.lft.to/lastmile_qr_scan"}, "is_reserved": 0, "bike_id": "61b6d2f92b1888c0e9f842be52df970e", "name": "61b6d2f92b1888c0e9f842be52df970e"}, {"lat": 38.919358333333335, "fusion_lon": 0.0, "fusion_lat": 0.0, "is_disabled": 0, "type": "electric_scooter", "lon": -77.030555, "rental_uris": {"android": "https://dc.lft.to/lastmile_qr_scan", "ios": "https://dc.lft.to/lastmile_qr_scan"}, "is_reserved": 0, "bike_id": "2dc7d8b201972f57119e653805a82858", "name": "2dc7d8b201972f57119e653805a82858"}, {"lat": 38.89877, "fusion_lon": 0.0, "fusion_lat": 0.0, "is_disabled": 0, "type": "electric_scooter", "lon": -76.93183633333334, "rental_uris": {"android": "https://dc.lft.to/lastmile_qr_scan", "ios": "https://dc.lft.to/lastmile_qr_scan"}, "is_reserved": 0, "bike_id": "488e3db2436b9be57121a7edb335ac40", "name": "488e3db2436b9be57121a7edb335ac40"}, {"lat": 38.902458, "fusion_lon": 0.0, "fusion_lat": 0.0, "is_disabled": 0, "type": "electric_scooter", "lon": -76.9988355, "rental_uris": {"android": "https://dc.lft.to/lastmile_qr_scan", "ios": "https://dc.lft.to/lastmile_qr_scan"}, "is_reserved": 0, "bike_id": "f50112fcf363577694f01f1d02eb6560", "name": "f50112fcf363577694f01f1d02eb6560"}, {"lat": 38.903905333333334, "fusion_lon": 0.0, "fusion_lat": 0.0, "is_disabled": 0, "type": "electric_scooter", "lon": -77.04340516666667, "rental_uris": {"android": "https://dc.lft.to/lastmile_qr_scan", "ios": "https://dc.lft.to/lastmile_qr_scan"}, "is_reserved": 0, "bike_id": "4a7a6f5bfc2d1991a2e04b3f4e937df1", "name": "4a7a6f5bfc2d1991a2e04b3f4e937df1"}, {"lat": 38.90793633333333, "fusion_lon": 0.0, "fusion_lat": 0.0, "is_disabled": 0, "type": "electric_scooter", "lon": -76.9411685, "rental_uris": {"android": "https://dc.lft.to/lastmile_qr_scan", "ios": "https://dc.lft.to/lastmile_qr_scan"}, "is_reserved": 0, "bike_id": "e0c2887e69b1ffd2442b7a7e64204c47", "name": "e0c2887e69b1ffd2442b7a7e64204c47"}, {"lat": 38.8873885, "fusion_lon": 0.0, "fusion_lat": 0.0, "is_disabled": 0, "type": "electric_scooter", "lon": -77.02389033333333, "rental_uris": {"android": "https://dc.lft.to/lastmile_qr_scan", "ios": "https://dc.lft.to/lastmile_qr_scan"}, "is_reserved": 0, "bike_id": "817fee328ff6558ba372322a1c9d81a6", "name": "817fee328ff6558ba372322a1c9d81a6"}, {"lat": 38.911747166666665, "fusion_lon": 0.0, "fusion_lat": 0.0, "is_disabled": 0, "type": "electric_scooter", "lon": -76.98769766666666, "rental_uris": {"android": "https://dc.lft.to/lastmile_qr_scan", "ios": "https://dc.lft.to/lastmile_qr_scan"}, "is_reserved": 0, "bike_id": "08d69b4ac1cc911588ebdc4d152579e2", "name": "08d69b4ac1cc911588ebdc4d152579e2"}, {"lat": 38.914376, "fusion_lon": 0.0, "fusion_lat": 0.0, "is_disabled": 0, "type": "electric_scooter", "lon": -77.07557, "rental_uris": {"android": "https://dc.lft.to/lastmile_qr_scan", "ios": "https://dc.lft.to/lastmile_qr_scan"}, "is_reserved": 0, "bike_id": "94ec3be8f1f5e5acf6a9e93be376be7a", "name": "94ec3be8f1f5e5acf6a9e93be376be7a"}, {"lat": 38.9420645, "fusion_lon": 0.0, "fusion_lat": 0.0, "is_disabled": 0, "type": "electric_scooter", "lon": -77.0615215, "rental_uris": {"android": "https://dc.lft.to/lastmile_qr_scan", "ios": "https://dc.lft.to/lastmile_qr_scan"}, "is_reserved": 0, "bike_id": "afc20a4c368c5aa42c247990028a0beb", "name": "afc20a4c368c5aa42c247990028a0beb"}, {"lat": 38.85570216666667, "fusion_lon": 0.0, "fusion_lat": 0.0, "is_disabled": 0, "type": "electric_scooter", "lon": -76.9867495, "rental_uris": {"android": "https://dc.lft.to/lastmile_qr_scan", "ios": "https://dc.lft.to/lastmile_qr_scan"}, "is_reserved": 0, "bike_id": "76a4d11eca0fb53f1af639a7d6cf2f17", "name": "76a4d11eca0fb53f1af639a7d6cf2f17"}, {"lat": 38.88820533333333, "fusion_lon": 0.0, "fusion_lat": 0.0, "is_disabled": 0, "type": "electric_bike", "lon": -77.127368, "rental_uris": {"android": "https://dc.lft.to/lastmile_qr_scan", "ios": "https://dc.lft.to/lastmile_qr_scan"}, "is_reserved": 0, "bike_id": "68c18ea42fc9e62da03ea2cb921d317f", "name": "68c18ea42fc9e62da03ea2cb921d317f"}, {"lat": 38.905330166666666, "fusion_lon": 0.0, "fusion_lat": 0.0, "is_disabled": 0, "type": "electric_scooter", "lon": -77.05012183333334, "rental_uris": {"android": "https://dc.lft.to/lastmile_qr_scan", "ios": "https://dc.lft.to/lastmile_qr_scan"}, "is_reserved": 0, "bike_id": "489c666a5f7099df3cfb333aa5686084", "name": "489c666a5f7099df3cfb333aa5686084"},