{"data": {"bikes": [{"lat": 38.93716233333333, "lon": -77.0351765, "is_disabled": 0, "fusion_lon": 0.0, "is_reserved": 0, "name": "692bf750d73eb498fe4adaf1d4bfba73", "type": "electric_scooter", "bike_id": "692bf750d73eb498fe4adaf1d4bfba73", "rental_uris": {"ios": "https://dc.lft.to/lastmile_qr_scan", "android": "https://dc.lft.to/lastmile_qr_scan"}, "fusion_lat": 0.0}, {"lat": 38.9227085, "lon": -77.0369055, "is_disabled": 0, "fusion_lon": 0.0, "is_reserved": 0, "name": "3146fcbaba96f98b8ba58a133e8c1527", "type": "electric_scooter", "bike_id": "3146fcbaba96f98b8ba58a133e8c1527", "rental_uris": {"ios": "https://dc.lft.to/lastmile_qr_scan", "android": "https://dc.lft.to/lastmile_qr_scan"}, "fusion_lat": 0.0}, {"lat": 38.92349866666667, "lon": -77.0191325, "is_disabled": 0, "fusion_lon": 0.0, "is_reserved": 0, "name": "076ea2db3d24744ccd490270faf54e2f", "type": "electric_scooter", "bike_id": "076ea2db3d24744ccd490270faf54e2f", "rental_uris": {"ios": "https://dc.lft.to/lastmile_qr_scan", "android": "https://dc.lft.to/lastmile_qr_scan"}, "fusion_lat": 0.0}, {"lat": 38.905926, "lon": -77.03859966666667, "is_disabled": 0, "fusion_lon": 0.0, "is_reserved": 0, "name": "3e610901d4afcdca33b8aeaea2793b4d", "type": "electric_scooter", "bike_id": "3e610901d4afcdca33b8aeaea2793b4d", "rental_uris": {"ios": "https://dc.lft.to/lastmile_qr_scan", "android": "https://dc.lft.to/lastmile_qr_scan"}, "fusion_lat": 0.0}, {"lat": 38.895771, "lon": -76.983208, "is_disabled": 0, "fusion_lon": 0.0, "is_reserved": 0, "name": "e023a212fd8159e8203225a6148cab5a", "type": "electric_scooter", "bike_id": "e023a212fd8159e8203225a6148cab5a", "rental_uris": {"ios": "https://dc.lft.to/lastmile_qr_scan", "android": "https://dc.lft.to/lastmile_qr_scan"}, "fusion_lat": 0.0}, {"lat": 38.88701283333333, "lon": -76.99383133333333, "is_disabled": 0, "fusion_lon": 0.0, "is_reserved": 0, "name": "2f02a486ebb7ab2fdd319089b050b009", "type": "electric_scooter", "bike_id": "2f02a486ebb7ab2fdd319089b050b009", "rental_uris": {"ios": "https://dc.lft.to/lastmile_qr_scan", "android": "https://dc.lft.to/lastmile_qr_scan"}, "fusion_lat": 0.0}, {"lat": 38.916262, "lon": -77.04518583333333, "is_disabled": 0, "fusion_lon": 0.0, "is_reserved": 0, "name": "cd17ab829facc29fc34185d6f4c48c7d", "type": "electric_scooter", "bike_id": "cd17ab829facc29fc34185d6f4c48c7d", "rental_uris": {"ios": "https://dc.lft.to/lastmile_qr_scan", "android": "https://dc.lft.to/lastmile_qr_scan"}, "fusion_lat": 0.0}, {"lat": 38.92010883333333, "lon": -77.02145833333333, "is_disabled": 0, "fusion_lon": 0.0, "is_reserved": 0, "name": "2d2105674f5a91c4461990aa543eca92", "type": "electric_scooter", "bike_id": "2d2105674f5a91c4461990aa543eca92", "rental_uris": {"ios": "https://dc.lft.to/lastmile_qr_scan", "android": "https://dc.lft.to/lastmile_qr_scan"}, "fusion_lat": 0.0}, {"lat": 38.925676833333334, "lon": -77.052577, "is_disabled": 0, "fusion_lon": 0.0, "is_reserved": 0, "name": "9cd5a010ce3cf826cfa2089760d338fd", "type": "electric_scooter", "bike_id": "9cd5a010ce3cf826cfa2089760d338fd", "rental_uris": {"ios": "https://dc.lft.to/lastmile_qr_scan", "android": "https://dc.lft.to/lastmile_qr_scan"}, "fusion_lat": 0.0}, {"lat": 38.90964183333333, "lon": -77.04435666666667, "is_disabled": 0, "fusion_lon": 0.0, "is_reserved": 0, "name": "7b031d920f2c60ac44d8f45c76060cd9", "type": "electric_scooter", "bike_id": "7b031d920f2c60ac44d8f45c76060cd9", "rental_uris": {"ios": "https://dc.lft.to/lastmile_qr_scan", "android": "https://dc.lft.to/lastmile_qr_scan"}, "fusion_lat": 0.0}, {"lat": 38.92292316666666, "lon": -77.03662066666666, "is_disabled": 0, "fusion_lon": 0.0, "is_reserved": 0, "name": "bd090a95db0d7f066d28fedf2273b4c3", "type": "electric_scooter", "bike_id": "bd090a95db0d7f066d28fedf2273b4c3", "rental_uris": {"ios": "https://dc.lft.to/lastmile_qr_scan", "android": "https://dc.lft.to/lastmile_qr_scan"}, "fusion_lat": 0.0}, {"lat": 38.90154833333333, "lon": -77.04649183333333, "is_disabled": 0, "fusion_lon": 0.0, "is_reserved": 0, "name": "06a065e41a213be3ac5113409781b27c", "type": "electric_scooter", "bike_id": "06a065e41a213be3ac5113409781b27c", "rental_uris": {"ios": "https://dc.lft.to/lastmile_qr_scan", "android": "https://dc.lft.to/lastmile_qr_scan"}, "fusion_lat": 0.0}, {"lat": 38.96382533333333, "lon": -76.94527416666666, "is_disabled": 0, "fusion_lon": 0.0, "is_reserved": 0, "name": "8c9c6fbb2a4c43e00a82a4aa33daeb80", "type": "electric_bike", "bike_id": "8c9c6fbb2a4c43e00a82a4aa33daeb80", "rental_uris": {"ios": "https://dc.lft.to/lastmile_qr_scan", "android": "https://dc.lft.to/lastmile_qr_scan"}, "fusion_lat": 0.0}, {"lat": 38.91634, "lon": -77.04013366666666, "is_disabled": 0, "fusion_lon": 0.0, "is_reserved": 0, "name": "a13deb1a25da5031ae9e015912becfc3", "type": "electric_scooter", "bike_id": "a13deb1a25da5031ae9e015912becfc3", "rental_uris": {"ios": "https://dc.lft.to/lastmile_qr_scan", "android": "https://dc.lft.to/lastmile_qr_scan"}, "fusion_lat": 0.0}, {"lat": 38.9015125, "lon": -76.98066266666666, "is_disabled": 0, "fusion_lon": 0.0, "is_reserved": 0, "name": "0b31f4f1c85d34d3c9dadad84a8eec5e", "type": "electric_scooter", "bike_id": "0b31f4f1c85d34d3c9dadad84a8eec5e", "rental_uris": {"ios": "https://dc.lft.to/lastmile_qr_scan", "android": "https://dc.lft.to/lastmile_qr_scan"}, "fusion_lat": 0.0}, {"lat": 38.902770833333335, "lon": -77.01524483333333, "is_disabled": 0, "fusion_lon": 0.0, "is_reserved": 0, "name": "b67d1f1ae6fce82f4804833d610b1f63", "type": "electric_scooter", "bike_id": "b67d1f1ae6fce82f4804833d610b1f63", "rental_uris": {"ios": "https://dc.lft.to/lastmile_qr_scan", "android": "https://dc.lft.to/lastmile_qr_scan"}, "fusion_lat": 0.0}, {"lat": 38.8993705, "lon": -77.02799033333334, "is_disabled": 0, "fusion_lon": 0.0, "is_reserved": 0, "name": "efb4b41af065116dfd95e009d5c3c228", "type": "electric_scooter", "bike_id": "efb4b41af065116dfd95e009d5c3c228", "rental_uris": {"ios": "https://dc.lft.to/lastmile_qr_scan", "android": "https://dc.lft.to/lastmile_qr_scan"}, "fusion_lat": 0.0}, {"lat": 38.915563666666664, "lon": -77.0218365, "is_disabled": 0, "fusion_lon": 0.0, "is_reserved": 0, "name": "b437dc1b38911a42f9a8655f0f39a892", "type": "electric_scooter", "bike_id": "b437dc1b38911a42f9a8655f0f39a892", "rental_uris": {"ios": "https://dc.lft.to/lastmile_qr_scan", "android": "https://dc.lft.to/lastmile_qr_scan"}, "fusion_lat": 0.0}, {"lat": 38.91815616666667, "lon": -77.0267895, "is_disabled": 0, "fusion_lon": 0.0, "is_reserved": 0, "name": "7f344f54104a4f5865e4e06c88e41411", "type": "electric_scooter", "bike_id": "7f344f54104a4f5865e4e06c88e41411", "rental_uris": {"ios": "https://dc.lft.to/lastmile_qr_scan", "android": "https://dc.lft.to/lastmile_qr_scan"}, "fusion_lat": 0.0}, {"lat": 38.910125666666666, "lon": -77.034392, "is_disabled": 0, "fusion_lon": 0.0, "is_reserved": 0, "name": "e843bf21b51f6349b4b30d7f5f1360d9", "type": "electric_scooter", "bike_id": "e843bf21b51f6349b4b30d7f5f1360d9", "rental_uris": {"ios": "https://dc.lft.to/lastmile_qr_scan", "android": "https://dc.lft.to/lastmile_qr_scan"}, "fusion_lat": 0.0}, {"lat": 38.90289766666667, "lon": -77.03645033333333, "is_disabled": 0, "fusion_lon": 0.0, "is_reserved": 0, "name": "8c1968201742dfdfb62907ff83c82b1d", "type": "electric_scooter", "bike_id": "8c1968201742dfdfb62907ff83c82b1d", "rental_uris": {"ios": "https://dc.lft.to/lastmile_qr_scan", "android": "https://dc.lft.to/lastmile_qr_scan"}, "fusion_lat": 0.0}, {"lat": 38.923390833333336, "lon": -77.03614083333333, "is_disabled": 0, "fusion_lon": 0.0, "is_reserved": 0, "name": "3e8e5bea31019eb9bfecffc31363aa6f", "type": "electric_scooter", "bike_id": "3e8e5bea31019eb9bfecffc31363aa6f", "rental_uris": {"ios": "https://dc.lft.to/lastmile_qr_scan", "android": "https://dc.lft.to/lastmile_qr_scan"}, "fusion_lat": 0.0}, {"lat": 38.898666, "lon": -77.03347483333333, "is_disabled": 0, "fusion_lon": 0.0, "is_reserved": 0, "name": "cc77196919753ec066d7be9f78ac9f1b", "type": "electric_scooter", "bike_id": "cc77196919753ec066d7be9f78ac9f1b", "rental_uris": {"ios": "https://dc.lft.to/lastmile_qr_scan", "android": "https://dc.lft.to/lastmile_qr_scan"}, "fusion_lat": 0.0}, {"lat": 38.906875166666666, "lon": -76.98504183333333, "is_disabled": 0, "fusion_lon": 0.0, "is_reserved": 0, "name": "5b57b981e7d3726ba9d494241f1e305c", "type": "electric_scooter", "bike_id": "5b57b981e7d3726ba9d494241f1e305c", "rental_uris": {"ios": "https://dc.lft.to/lastmile_qr_scan", "android": "https://dc.lft.to/lastmile_qr_scan"}, "fusion_lat": 0.0}, {"lat": 38.902685, "lon": -77.04346683333333, "is_disabled": 0, "fusion_lon": 0.0, "is_reserved": 0, "name": "038001e75912fb3de7e5b085ab401cfb", "type": "electric_scooter", "bike_id": "038001e75912fb3de7e5b085ab401cfb", "rental_uris": {"ios": "https://dc.lft.to/lastmile_qr_scan", "android": "https://dc.lft.to/lastmile_qr_scan"}, "fusion_lat": 0.0}, {"lat": 38.918791, "lon": -76.96437866666666, "is_disabled": 0, "fusion_lon": 0.0, "is_reserved": 0, "name": "e5f6292ed027ee55ee601ac9cb79c0b3", "type": "electric_bike", "bike_id": "e5f6292ed027ee55ee601ac9cb79c0b3", "rental_uris": {"ios": "https://dc.lft.to/lastmile_qr_scan", "android": "https://dc.lft.to/lastmile_qr_scan"}, "fusion_lat": 0.0}, {"lat": 38.904771833333335, "lon": -77.03439683333333, "is_disabled": 0, "fusion_lon": 0.0, "is_reserved": 0, "name": "5c84df5a507dab3b5b850c85cdc19b07", "type": "electric_bike", "bike_id": "5c84df5a507dab3b5b850c85cdc19b07", "rental_uris": {"ios": "https://dc.lft.to/lastmile_qr_scan", "android": "https://dc.lft.to/lastmile_qr_scan"}, "fusion_lat": 0.0}, {"lat": 38.89224216666667, "lon": -77.0419805, "is_disabled": 0, "fusion_lon": 0.0, "is_reserved": 0, "name": "78e4f9a7be9833a09a46483ed57fcae3", "type": "electric_scooter", "bike_id": "78e4f9a7be9833a09a46483ed57fcae3", "rental_uris": {"ios": "https://dc.lft.to/lastmile_qr_scan", "android": "https://dc.lft.to/lastmile_qr_scan"}, "fusion_lat": 0.0}, {"lat": 38.897403, "lon": -77.0209245, "is_disabled": 0, "fusion_lon": 0.0, "is_reserved": 0, "name": "2de9f2c7dfbf7d9eb8609c58df1390d3", "type": "electric_scooter", "bike_id": "2de9f2c7dfbf7d9eb8609c58df1390d3", "rental_uris": {"ios": "https://dc.lft.to/lastmile_qr_scan", "android": "https://dc.lft.to/lastmile_qr_scan"}, "fusion_lat": 0.0}, {"lat": 38.91187933333333, "lon": -77.04828166666667, "is_disabled": 0, "fusion_lon": 0.0, "is_reserved": 0, "name": "4279b22e77dcb26f658f510f1bf04762", "type": "electric_scooter", "bike_id": "4279b22e77dcb26f658f510f1bf04762", "rental_uris": {"ios": "https://dc.lft.to/lastmile_qr_scan", "android": "https://dc.lft.to/lastmile_qr_scan"}, "fusion_lat": 0.0}, {"lat": 38.87668633333333, "lon": -77.00120133333333, "is_disabled": 0, "fusion_lon": 0.0, "is_reserved": 0, "name": "7dbbd8f540db683394802acd3fd5ee0a", "type": "electric_scooter", "bike_id": "7dbbd8f540db683394802acd3fd5ee0a", "rental_uris": {"ios": "https://dc.lft.to/lastmile_qr_scan", "android": "https://dc.lft.to/lastmile_qr_scan"}, "fusion_lat": 0.0}, {"lat": 38.913311, "lon": -77.04864266666667, "is_disabled": 0, "fusion_lon": 0.0, "is_reserved": 0, "name": "b0acca8f0badeb6f85b0bece58110822", "type": "electric_scooter", "bike_id": "b0acca8f0badeb6f85b0bece58110822", "rental_uris": {"ios": "https://dc.lft.to/lastmile_qr_scan", "android": "https://dc.lft.to/lastmile_qr_scan"}, "fusion_lat": 0.0}, {"lat": 38.917691166666664, "lon": -77.01492383333333, "is_disabled": 0, "fusion_lon": 0.0, "is_reserved": 0, "name": "61785b5c018c0136dbe315568528f128", "type": "electric_scooter", "bike_id": "61785b5c018c0136dbe315568528f128", "rental_uris": {"ios": "https://dc.lft.to/lastmile_qr_scan", "android": "https://dc.lft.to/lastmile_qr_scan"}, "fusion_lat": 0.0}, {"lat": 38.89550216666667, "lon": -76.94960316666666, "is_disabled": 0, "fusion_lon": 0.0, "is_reserved": 0, "name": "922dea3066167e0b07917717d1dd4773", "type": "electric_scooter", "bike_id": "922dea3066167e0b07917717d1dd4773", "rental_uris": {"ios": "https://dc.lft.to/lastmile_qr_scan", "android": "https://dc.lft.to/lastmile_qr_scan"}, "fusion_lat": 0.0}, {"lat": 38.909696, "lon": -77.03956066666667, "is_disabled": 0, "fusion_lon": 0.0, "is_reserved": 0, "name": "0211fa2e9b909e4ad2357b9cffb31a85", "type": "electric_scooter", "bike_id": "0211fa2e9b909e4ad2357b9cffb31a85", "rental_uris": {"ios": "https://dc.lft.to/lastmile_qr_scan", "android": "https://dc.lft.to/lastmile_qr_scan"}, "fusion_lat": 0.0}, {"lat": 38.90850666666667, "lon": -77.0125735, "is_disabled": 0, "fusion_lon": 0.0, "is_reserved": 0, "name": "7f46170dddd0bd6d9d6bb9119e5018ed", "type": "electric_scooter", "bike_id": "7f46170dddd0bd6d9d6bb9119e5018ed", "rental_uris": {"ios": "https://dc.lft.to/lastmile_qr_scan", "android": "https://dc.lft.to/lastmile_qr_scan"}, "fusion_lat": 0.0}, {"lat": 38.8448195, "lon": -76.99808483333334, "is_disabled": 0, "fusion_lon": 0.0, "is_reserved": 0, "name": "a60d30567c1c302a3382238cff2e7c23", "type": "electric_bike", "bike_id": "a60d30567c1c302a3382238cff2e7c23", "rental_uris": {"ios": "https://dc.lft.to/lastmile_qr_scan", "android": "https://dc.lft.to/lastmile_qr_scan"}, "fusion_lat": 0.0}, {"lat": 38.90151016666667, "lon": -77.01911016666666, "is_disabled": 0, "fusion_lon": 0.0, "is_reserved": 0, "name": "ea9713f7b3823119ad92e46f0a592a2a", "type": "electric_scooter", "bike_id": "ea9713f7b3823119ad92e46f0a592a2a", "rental_uris": {"ios": "https://dc.lft.to/lastmile_qr_scan", "android": "https://dc.lft.to/lastmile_qr_scan"}, "fusion_lat": 0.0}, {"lat": 38.9485185, "lon": -77.02364633333333, "is_disabled": 0, "fusion_lon": 0.0, "is_reserved": 0, "name": "95e17a6cf6d831376ba3e55a2e3c6a98", "type": "electric_scooter", "bike_id": "95e17a6cf6d831376ba3e55a2e3c6a98", "rental_uris": {"ios": "https://dc.lft.to/lastmile_qr_scan", "android": "https://dc.lft.to/lastmile_qr_scan"}, "fusion_lat": 0.0}, {"lat": 38.91030683333334, "lon": -77.02406733333333, "is_disabled": 0, "fusion_lon": 0.0, "is_reserved": 0, "name": "55dcd9981a17c4042018a8bf071728cf", "type": "electric_scooter", "bike_id": "55dcd9981a17c4042018a8bf071728cf", "rental_uris": {"ios": "https://dc.lft.to/lastmile_qr_scan", "android": "https://dc.lft.to/lastmile_qr_scan"}, "fusion_lat": 0.0}, {"lat": 38.914187, "lon": -77.01071966666666, "is_disabled": 0, "fusion_lon": 0.0, "is_reserved": 0, "name": "bf9e6012116cb00544a1009d3b818106", "type": "electric_scooter", "bike_id": "bf9e6012116cb00544a1009d3b818106", "rental_uris": {"ios": "https://dc.lft.to/lastmile_qr_scan", "android": "https://dc.lft.to/lastmile_qr_scan"}, "fusion_lat": 0.0}, {"lat": 38.885219166666666, "lon": -77.01131966666667, "is_disabled": 0, "fusion_lon": 0.0, "is_reserved": 0, "name": "a5baa4e4efb15b11bf20df5338aa59b8", "type": "electric_scooter", "bike_id": "a5baa4e4efb15b11bf20df5338aa59b8", "rental_uris": {"ios": "https://dc.lft.to/lastmile_qr_scan", "android": "https://dc.lft.to/lastmile_qr_scan"}, "fusion_lat": 0.0}, {"lat": 38.935832166666664, "lon": -77.03361916666667, "is_disabled": 0, "fusion_lon": 0.0, "is_reserved": 0, "name": "eeea74b911b48acec5e548ed723620f6", "type": "electric_scooter", "bike_id": "eeea74b911b48acec5e548ed723620f6", "rental_uris": {"ios": "https://dc.lft.to/lastmile_qr_scan", "android": "https://dc.lft.to/lastmile_qr_scan"}, "fusion_lat": 0.0}, {"lat": 38.944055666666664, "lon": -77.03907916666667, "is_disabled": 0, "fusion_lon": 0.0, "is_reserved": 0, "name": "1b2464363ad30a0d666dbf2beeeab6e2", "type": "electric_scooter", "bike_id": "1b2464363ad30a0d666dbf2beeeab6e2", "rental_uris": {"ios": "https://dc.lft.to/lastmile_qr_scan", "android": "https://dc.lft.to/lastmile_qr_scan"}, "fusion_lat": 0.0}, {"lat": 38.892488666666665, "lon": -77.02789766666666, "is_disabled": 0, "fusion_lon": 0.0, "is_reserved": 0, "name": "29c6f103f41e44dc89f5152e0933a6bb", "type": "electric_scooter", "bike_id": "29c6f103f41e44dc89f5152e0933a6bb", "rental_uris": {"ios": "https://dc.lft.to/lastmile_qr_scan", "android": "https://dc.lft.to/lastmile_qr_scan"}, "fusion_lat": 0.0}, {"lat": 38.9025775, "lon": -77.0194355, "is_disabled": 0, "fusion_lon": 0.0, "is_reserved": 0, "name": "7084f381f8a0cb3d6bf774ba322fe95f", "type": "electric_scooter", "bike_id": "7084f381f8a0cb3d6bf774ba322fe95f", "rental_uris": {"ios": "https://dc.lft.to/lastmile_qr_scan", "android": "https://dc.lft.to/lastmile_qr_scan"}, "fusion_lat": 0.0}, {"lat": 38.90757766666667, "lon": -77.03075216666667, "is_disabled": 0, "fusion_lon": 0.0, "is_reserved": 0, "name": "d90b7ee7f57be8841a218911a4c03da5", "type": "electric_scooter", "bike_id": "d90b7ee7f57be8841a218911a4c03da5", "rental_uris": {"ios": "https://dc.lft.to/lastmile_qr_scan", "android": "https://dc.lft.to/lastmile_qr_scan"}, "fusion_lat": 0.0}, {"lat": 38.930468833333336, "lon": -77.07306466666667, "is_disabled": 0, "fusion_lon": 0.0, "is_reserved": 0, "name": "8563330fe901c1538843427927f55bbc", "type": "electric_scooter", "bike_id": "8563330fe901c1538843427927f55bbc", "rental_uris": {"ios": "https://dc.lft.to/lastmile_qr_scan", "android": "https://dc.lft.to/lastmile_qr_scan"}, "fusion_lat": 0.0}, {"lat": 38.90633966666667, "lon": -77.00565566666667, "is_disabled": 0, "fusion_lon": 0.0, "is_reserved": 0, "name": "43cf5d9b5342373562c996853370a2f2", "type": "electric_scooter", "bike_id": "43cf5d9b5342373562c996853370a2f2", "rental_uris": {"ios": "https://dc.lft.to/lastmile_qr_scan", "android": "https://dc.lft.to/lastmile_qr_scan"}, "fusion_lat": 0.0}, {"lat": 38.897008, "lon": -77.04329266666667, "is_disabled": 0, "fusion_lon": 0.0, "is_reserved": 0, "name": "c5ab9436d11851e7af858eb8aa0f0bcc", "type": "electric_scooter", "bike_id": "c5ab9436d11851e7af858eb8aa0f0bcc", "rental_uris": {"ios": "https://dc.lft.to/lastmile_qr_scan", "android": "https://dc.lft.to/lastmile_qr_scan"}, "fusion_lat": 0.0}, {"lat": 38.904359166666666, "lon": -77.043542, "is_disabled": 0, "fusion_lon": 0.0, "is_reserved": 0, "name": "59c095dac833efc416eed84c72a88f34", "type": "electric_scooter", "bike_id": "59c095dac833efc416eed84c72a88f34", "rental_uris": {"ios": "https://dc.lft.to/lastmile_qr_scan", "android": "https://dc.lft.to/lastmile_qr_scan"}, "fusion_lat": 0.0}, {"lat": 38.94810716666667, "lon": -76.95970083333333, "is_disabled": 0, "fusion_lon": 0.0, "is_reserved": 0, "name": "a928d17a3646b8a0089b376ca94c6f5e", "type": "electric_bike", "bike_id": "a928d17a3646b8a0089b376ca94c6f5e", "rental_uris": {"ios": "https://dc.lft.to/lastmile_qr_scan", "android": "https://dc.lft.to/lastmile_qr_scan"}, "fusion_lat": 0.0}, {"lat": 38.929020333333334, "lon": -77.032653, "is_disabled": 0, "fusion_lon": 0.0, "is_reserved": 0, "name": "a135d47fab183f5eb59af227ad70db8f", "type": "electric_scooter", "bike_id": "a135d47fab183f5eb59af227ad70db8f", "rental_uris": {"ios": "https://dc.lft.to/lastmile_qr_scan", "android": "https://dc.lft.to/lastmile_qr_scan"}, "fusion_lat": 0.0}, {"lat": 38.929138333333334, "lon": -77.03265166666667, "is_disabled": 0, "fusion_lon": 0.0, "is_reserved": 0, "name": "13b3979e31025f142c04d8198e3d51e0", "type": "electric_scooter", "bike_id": "13b3979e31025f142c04d8198e3d51e0", "rental_uris": {"ios": "https://dc.lft.to/lastmile_qr_scan", "android": "https://dc.lft.to/lastmile_qr_scan"}, "fusion_lat": 0.0}, {"lat": 38.896090666666666, "lon": -77.021958, "is_disabled": 0, "fusion_lon": 0.0, "is_reserved": 0, "name": "c018cb98fb4ab808a6d63d480d51cfdc", "type": "electric_scooter", "bike_id": "c018cb98fb4ab808a6d63d480d51cfdc", "rental_uris": {"ios": "https://dc.lft.to/lastmile_qr_scan", "android": "https://dc.lft.to/lastmile_qr_scan"}, "fusion_lat": 0.0}, {"lat": 38.88990783333333, "lon": -76.914192, "is_disabled": 0, "fusion_lon": 0.0, "is_reserved": 0, "name": "919ac6fe607b5af2c30868478d0adcdd", "type": "electric_scooter", "bike_id": "919ac6fe607b5af2c30868478d0adcdd", "rental_uris": {"ios": "https://dc.lft.to/lastmile_qr_scan", "android": "https://dc.lft.to/lastmile_qr_scan"}, "fusion_lat": 0.0}, {"lat": 38.92401183333333, "lon": -77.05059466666667, "is_disabled": 0, "fusion_lon": 0.0, "is_reserved": 0, "name": "4f7bae2e127cb3477106cd4714b2c261", "type": "electric_scooter", "bike_id": "4f7bae2e127cb3477106cd4714b2c261", "rental_uris": {"ios": "https://dc.lft.to/lastmile_qr_scan", "android": "https://dc.lft.to/lastmile_qr_scan"}, "fusion_lat": 0.0}, {"lat": 38.88657083333333, "lon": -77.019887, "is_disabled": 0, "fusion_lon": 0.0, "is_reserved": 0, "name": "e7044062520fd590020a01d4098ee61d", "type": "electric_scooter", "bike_id": "e7044062520fd590020a01d4098ee61d", "rental_uris": {"ios": "https://dc.lft.to/lastmile_qr_scan", "android": "https://dc.lft.to/lastmile_qr_scan"}, "fusion_lat": 0.0}, {"lat": 38.932637, "lon": -76.9889915, "is_disabled": 0, "fusion_lon": 0.0, "is_reserved": 0, "name": "0881b89327efc92b34a9e69c84bbf8b4", "type": "electric_scooter", "bike_id": "0881b89327efc92b34a9e69c84bbf8b4", "rental_uris": {"ios": "https://dc.lft.to/lastmile_qr_scan", "android": "https://dc.lft.to/lastmile_qr_scan"}, "fusion_lat": 0.0}, {"lat": 38.91404966666666, "lon": -77.02943516666667, "is_disabled": 0, "fusion_lon": 0.0, "is_reserved": 0, "name": "59eab3ebc6e35a00725403140fcdd48a", "type": "electric_scooter", "bike_id": "59eab3ebc6e35a00725403140fcdd48a", "rental_uris": {"ios": "https://dc.lft.to/lastmile_qr_scan", "android": "https://dc.lft.to/lastmile_qr_scan"}, "fusion_lat": 0.0}, {"lat": 38.90004166666667, "lon": -77.03197966666667, "is_disabled": 0, "fusion_lon": 0.0, "is_reserved": 0, "name": "eac6a8ff987f474eb56324751195bdb9", "type": "electric_scooter", "bike_id": "eac6a8ff987f474eb56324751195bdb9", "rental_uris": {"ios": "https://dc.lft.to/lastmile_qr_scan", "android": "https://dc.lft.to/lastmile_qr_scan"}, "fusion_lat": 0.0}, {"lat": 38.90230233333333, "lon": -77.03214, "is_disabled": 0, "fusion_lon": 0.0, "is_reserved": 0, "name": "f0d36d45e68cef381680e045ad8a29a8", "type": "electric_scooter", "bike_id": "f0d36d45e68cef381680e045ad8a29a8", "rental_uris": {"ios": "https://dc.lft.to/lastmile_qr_scan", "android": "https://dc.lft.to/lastmile_qr_scan"}, "fusion_lat": 0.0}, {"lat": 38.910880666666664, "lon": -77.02177183333333, "is_disabled": 0, "fusion_lon": 0.0, "is_reserved": 0, "name": "d19c4c5f9aa5592c2a3d34a6220c6c95", "type": "electric_bike", "bike_id": "d19c4c5f9aa5592c2a3d34a6220c6c95", "rental_uris": {"ios": "https://dc.lft.to/lastmile_qr_scan", "android": "https://dc.lft.to/lastmile_qr_scan"}, "fusion_lat": 0.0}, {"lat": 38.92519516666667, "lon": -77.04447933333333, "is_disabled": 0, "fusion_lon": 0.0, "is_reserved": 0, "name": "bbe6aed3ea0ca4b43cf92d2ef7fd5e0c", "type": "electric_scooter", "bike_id": "bbe6aed3ea0ca4b43cf92d2ef7fd5e0c", "rental_uris": {"ios": "https://dc.lft.to/lastmile_qr_scan", "android": "https://dc.lft.to/lastmile_qr_scan"}, "fusion_lat": 0.0}, {"lat": 38.8634045, "lon": -76.98727433333333, "is_disabled": 0, "fusion_lon": 0.0, "is_reserved": 0, "name": "4690629b28cd93d5d0633a6450b81c72", "type": "electric_bike", "bike_id": "4690629b28cd93d5d0633a6450b81c72", "rental_uris": {"ios": "https://dc.lft.to/lastmile_qr_scan", "android": "https://dc.lft.to/lastmile_qr_scan"}, "fusion_lat": 0.0}, {"lat": 38.9219125, "lon": -77.04199183333333, "is_disabled": 0, "fusion_lon": 0.0, "is_reserved": 0, "name": "7bcc952723d74cf16cf2501ee2758174", "type": "electric_scooter", "bike_id": "7bcc952723d74cf16cf2501ee2758174", "rental_uris": {"ios": "https://dc.lft.to/lastmile_qr_scan", "android": "https://dc.lft.to/lastmile_qr_scan"}, "fusion_lat": 0.0}, {"lat": 38.928574833333336, "lon": -77.0360835, "is_disabled": 0, "fusion_lon": 0.0, "is_reserved": 0, "name": "6347418bdac5c1d6e0c1e6e97a73a920", "type": "electric_scooter", "bike_id": "6347418bdac5c1d6e0c1e6e97a73a920", "rental_uris": {"ios": "https://dc.lft.to/lastmile_qr_scan", "android": "https://dc.lft.to/lastmile_qr_scan"}, "fusion_lat": 0.0}, {"lat": 38.91686766666667, "lon": -76.98023616666667, "is_disabled": 0, "fusion_lon": 0.0, "is_reserved": 0, "name": "190f4fcddfd270a29657312e4977a438", "type": "electric_scooter", "bike_id": "190f4fcddfd270a29657312e4977a438", "rental_uris": {"ios": "https://dc.lft.to/lastmile_qr_scan", "android": "https://dc.lft.to/lastmile_qr_scan"}, "fusion_lat": 0.0}, {"lat": 38.932175666666666, "lon": -77.0349255, "is_disabled": 0, "fusion_lon": 0.0, "is_reserved": 0, "name": "2f986364145482c2228fb70b4652919b", "type": "electric_scooter", "bike_id": "2f986364145482c2228fb70b4652919b", "rental_uris": {"ios": "https://dc.lft.to/lastmile_qr_scan", "android": "https://dc.lft.to/lastmile_qr_scan"}, "fusion_lat": 0.0}, {"lat": 38.848696, "lon": -77.09901033333334, "is_disabled": 0, "fusion_lon": 0.0, "is_reserved": 0, "name": "d3efe6f32ce6115c805ebce3c169932f", "type": "electric_bike", "bike_id": "d3efe6f32ce6115c805ebce3c169932f", "rental_uris": {"ios": "https://dc.lft.to/lastmile_qr_scan", "android": "https://dc.lft.to/lastmile_qr_scan"}, "fusion_lat": 0.0}, {"lat": 38.799858666666665, "lon": -77.1297545, "is_disabled": 0, "fusion_lon": 0.0, "is_reserved": 0, "name": "b4ebf5cf85f1e4f59e97e30d240e6ae0", "type": "electric_bike", "bike_id": "b4ebf5cf85f1e4f59e97e30d240e6ae0", "rental_uris": {"ios": "https://dc.lft.to/lastmile_qr_scan", "android": "https://dc.lft.to/lastmile_qr_scan"}, "fusion_lat": 0.0}, {"lat": 38.93047883333333, "lon": -77.0347255, "is_disabled": 0, "fusion_lon": 0.0, "is_reserved": 0, "name": "7a48eb7ccbbe6f765e07e76d23f5b473", "type": "electric_scooter", "bike_id": "7a48eb7ccbbe6f765e07e76d23f5b473", "rental_uris": {"ios": "https://dc.lft.to/lastmile_qr_scan", "android": "https://dc.lft.to/lastmile_qr_scan"}, "fusion_lat": 0.0}, {"lat": 38.92467533333333, "lon": -77.05236616666667, "is_disabled": 0, "fusion_lon": 0.0, "is_reserved": 0, "name": "93aa4238ef2cb8a55114b03c976f8e31", "type": "electric_scooter", "bike_id": "93aa4238ef2cb8a55114b03c976f8e31", "rental_uris": {"ios": "https://dc.lft.to/lastmile_qr_scan", "android": "https://dc.lft.to/lastmile_qr_scan"}, "fusion_lat": 0.0}, {"lat": 38.9084145, "lon": -77.06346183333333, "is_disabled": 0, "fusion_lon": 0.0, "is_reserved": 0, "name": "b22183dcf0511cf67dd44565eeff8482", "type": "electric_scooter", "bike_id": "b22183dcf0511cf67dd44565eeff8482", "rental_uris": {"ios": "https://dc.lft.to/lastmile_qr_scan", "android": "https://dc.lft.to/lastmile_qr_scan"}, "fusion_lat": 0.0}, {"lat": 38.87662233333333, "lon": -77.00311533333333, "is_disabled": 0, "fusion_lon": 0.0, "is_reserved": 0, "name": "b6a2696fff7c10dbe6a02b5bf8fd343f", "type": "electric_scooter", "bike_id": "b6a2696fff7c10dbe6a02b5bf8fd343f", "rental_uris": {"ios": "https://dc.lft.to/lastmile_qr_scan", "android": "https://dc.lft.to/lastmile_qr_scan"}, "fusion_lat": 0.0}, {"lat": 38.9241835, "lon": -77.05060233333333, "is_disabled": 0, "fusion_lon": 0.0, "is_reserved": 0, "name": "11942643d31761a3114f9928db900f37", "type": "electric_scooter", "bike_id": "11942643d31761a3114f9928db900f37", "rental_uris": {"ios": "https://dc.lft.to/lastmile_qr_scan", "android": "https://dc.lft.to/lastmile_qr_scan"}, "fusion_lat": 0.0}, {"lat": 38.89736933333333, "lon": -77.05522716666667, "is_disabled": 0, "fusion_lon": 0.0, "is_reserved": 0, "name": "f54f2de639e41f6cf5fac3d29b6193ec", "type": "electric_scooter", "bike_id": "f54f2de639e41f6cf5fac3d29b6193ec", "rental_uris": {"ios": "https://dc.lft.to/lastmile_qr_scan", "android": "https://dc.lft.to/lastmile_qr_scan"}, "fusion_lat": 0.0}, {"lat": 38.948234166666666, "lon": -77.10008133333334, "is_disabled": 0, "fusion_lon": 0.0, "is_reserved": 0, "name": "553151ce5de64264187af58bd9f3a59c", "type": "electric_bike", "bike_id": "553151ce5de64264187af58bd9f3a59c", "rental_uris": {"ios": "https://dc.lft.to/lastmile_qr_scan", "android": "https://dc.lft.to/lastmile_qr_scan"}, "fusion_lat": 0.0}, {"lat": 38.91603833333333, "lon": -76.99364116666666, "is_disabled": 0, "fusion_lon": 0.0, "is_reserved": 0, "name": "877654c7138c56f04c5bdcb59b49ec5d", "type": "electric_scooter", "bike_id": "877654c7138c56f04c5bdcb59b49ec5d", "rental_uris": {"ios": "https://dc.lft.to/lastmile_qr_scan", "android": "https://dc.lft.to/lastmile_qr_scan"}, "fusion_lat": 0.0}, {"lat": 38.8475965, "lon": -76.99501566666666, "is_disabled": 0, "fusion_lon": 0.0, "is_reserved": 0, "name": "8e9ed4873ce98b59eaf04cab403606ad", "type": "electric_scooter", "bike_id": "8e9ed4873ce98b59eaf04cab403606ad", "rental_uris": {"ios": "https://dc.lft.to/lastmile_qr_scan", "android": "https://dc.lft.to/lastmile_qr_scan"}, "fusion_lat": 0.0}, {"lat": 38.90025516666667, "lon": -77.03762516666667, "is_disabled": 0, "fusion_lon": 0.0, "is_reserved": 0, "name": "181e87c68bf6fc40f936713653b4752a", "type": "electric_scooter", "bike_id": "181e87c68bf6fc40f936713653b4752a", "rental_uris": {"ios": "https://dc.lft.to/lastmile_qr_scan", "android": "https://dc.lft.to/lastmile_qr_scan"}, "fusion_lat": 0.0}, {"lat": 38.926573166666664, "lon": -77.043126, "is_disabled": 0, "fusion_lon": 0.0, "is_reserved": 0, "name": "77fb8499421e136cc14cc918b2e2ca76", "type": "electric_scooter", "bike_id": "77fb8499421e136cc14cc918b2e2ca76", "rental_uris": {"ios": "https://dc.lft.to/lastmile_qr_scan", "android": "https://dc.lft.to/lastmile_qr_scan"}, "fusion_lat": 0.0}, {"lat": 38.85982516666667, "lon": -76.996514, "is_disabled": 0, "fusion_lon": 0.0, "is_reserved": 0, "name": "6b91f6dba4cfec300dd03fcdc60a75b3", "type": "electric_scooter", "bike_id": "6b91f6dba4cfec300dd03fcdc60a75b3", "rental_uris": {"ios": "https://dc.lft.to/lastmile_qr_scan", "android": "https://dc.lft.to/lastmile_qr_scan"}, "fusion_lat": 0.0}, {"lat": 38.89339716666667, "lon": -77.03165083333333, "is_disabled": 0, "fusion_lon": 0.0, "is_reserved": 0, "name": "6cf8c767fb87dc341f5bdd5c8c563f9c", "type": "electric_scooter", "bike_id": "6cf8c767fb87dc341f5bdd5c8c563f9c", "rental_uris": {"ios": "https://dc.lft.to/lastmile_qr_scan", "android": "https://dc.lft.to/lastmile_qr_scan"}, "fusion_lat": 0.0}, {"lat": 38.91725683333333, "lon": -77.0460865, "is_disabled": 0, "fusion_lon": 0.0, "is_reserved": 0, "name": "caa4a16aca95ab3b8b274045ec4f2771", "type": "electric_scooter", "bike_id": "caa4a16aca95ab3b8b274045ec4f2771", "rental_uris": {"ios": "https://dc.lft.to/lastmile_qr_scan", "android": "https://dc.lft.to/lastmile_qr_scan"}, "fusion_lat": 0.0}, {"lat": 38.91639716666667, "lon": -77.0301155, "is_disabled": 0, "fusion_lon": 0.0, "is_reserved": 0, "name": "6ba385214754c18776f0b3ccfdea5400", "type": "electric_scooter", "bike_id": "6ba385214754c18776f0b3ccfdea5400", "rental_uris": {"ios": "https://dc.lft.to/lastmile_qr_scan", "android": "https://dc.lft.to/lastmile_qr_scan"}, "fusion_lat": 0.0}, {"lat": 38.92288416666667, "lon": -77.03660483333333, "is_disabled": 0, "fusion_lon": 0.0, "is_reserved": 0, "name": "a4dcaf1afef1dfc3d785105941268e09", "type": "electric_scooter", "bike_id": "a4dcaf1afef1dfc3d785105941268e09", "rental_uris": {"ios": "https://dc.lft.to/lastmile_qr_scan", "android": "https://dc.lft.to/lastmile_qr_scan"}, "fusion_lat": 0.0}, {"lat": 38.91899466666667, "lon": -77.02179483333333, "is_disabled": 0, "fusion_lon": 0.0, "is_reserved": 0, "name": "642341f0a634f02c81575281291d6313", "type": "electric_scooter", "bike_id": "642341f0a634f02c81575281291d6313", "rental_uris": {"ios": "https://dc.lft.to/lastmile_qr_scan", "android": "https://dc.lft.to/lastmile_qr_scan"}, "fusion_lat": 0.0}, {"lat": 38.892261500000004, "lon": -77.049976, "is_disabled": 0, "fusion_lon": 0.0, "is_reserved": 0, "name": "b34957e719e423138ea7bd34cf6ddf0b", "type": "electric_scooter", "bike_id": "b34957e719e423138ea7bd34cf6ddf0b", "rental_uris": {"ios": "https://dc.lft.to/lastmile_qr_scan", "android": "https://dc.lft.to/lastmile_qr_scan"}, "fusion_lat": 0.0}, {"lat": 38.93747583333333, "lon": -77.03618983333334, "is_disabled": 0, "fusion_lon": 0.0, "is_reserved": 0, "name": "259099a5f9183e12e1ae1b989581c1b9", "type": "electric_scooter", "bike_id": "259099a5f9183e12e1ae1b989581c1b9", "rental_uris": {"ios": "https://dc.lft.to/lastmile_qr_scan", "android": "https://dc.lft.to/lastmile_qr_scan"}, "fusion_lat": 0.0}, {"lat": 38.887701, "lon": -77.01305183333334, "is_disabled": 0, "fusion_lon": 0.0, "is_reserved": 0, "name": "3726b44f4aefe90270e5063c18fe2160", "type": "electric_scooter", "bike_id": "3726b44f4aefe90270e5063c18fe2160", "rental_uris": {"ios": "https://dc.lft.to/lastmile_qr_scan", "android": "https://dc.lft.to/lastmile_qr_scan"}, "fusion_lat": 0.0}, {"lat": 38.95426166666667, "lon": -77.02762883333334, "is_disabled": 0, "fusion_lon": 0.0, "is_reserved": 0, "name": "98d2f9925d208f8cbf5e352182a198e2", "type": "electric_scooter", "bike_id": "98d2f9925d208f8cbf5e352182a198e2", "rental_uris": {"ios": "https://dc.lft.to/lastmile_qr_scan", "android": "https://dc.lft.to/lastmile_qr_scan"}, "fusion_lat": 0.0}, {"lat": 38.9318765, "lon": -77.04305983333333, "is_disabled": 0, "fusion_lon": 0.0, "is_reserved": 0, "name": "ae00e33d2ff8551a2c72eb218736b6ab", "type": "electric_scooter", "bike_id": "ae00e33d2ff8551a2c72eb218736b6ab", "rental_uris": {"ios": "https://dc.lft.to/lastmile_qr_scan", "android": "https://dc.lft.to/lastmile_qr_scan"}, "fusion_lat": 0.0}, {"lat": 38.915925, "lon": -77.01725466666667, "is_disabled": 0, "fusion_lon": 0.0, "is_reserved": 0, "name": "dec4b40c89c2c49d933fcbe1555227d8", "type": "electric_scooter", "bike_id": "dec4b40c89c2c49d933fcbe1555227d8", "rental_uris": {"ios": "https://dc.lft.to/lastmile_qr_scan", "android": "https://dc.lft.to/lastmile_qr_scan"}, "fusion_lat": 0.0}, {"lat": 38.8993105, "lon": -77.0203535, "is_disabled": 0, "fusion_lon": 0.0, "is_reserved": 0, "name": "edcb5f6e0d844ddca9a5624b4ed97ac1", "type": "electric_scooter", "bike_id": "edcb5f6e0d844ddca9a5624b4ed97ac1", "rental_uris": {"ios": "https://dc.lft.to/lastmile_qr_scan", "android": "https://dc.lft.to/lastmile_qr_scan"}, "fusion_lat": 0.0}, {"lat": 38.874712, "lon": -77.0145555, "is_disabled": 0, "fusion_lon": 0.0, "is_reserved": 0, "name": "ffd757daf3c7400c132d9b2e3d49bc62", "type": "electric_scooter", "bike_id": "ffd757daf3c7400c132d9b2e3d49bc62", "rental_uris": {"ios": "https://dc.lft.to/lastmile_qr_scan", "android": "https://dc.lft.to/lastmile_qr_scan"}, "fusion_lat": 0.0}, {"lat": 38.89224083333333, "lon": -77.02651733333333, "is_disabled": 0, "fusion_lon": 0.0, "is_reserved": 0, "name": "58deaa7d3a1a89d15d2a3d9278b2a9e1", "type": "electric_scooter", "bike_id": "58deaa7d3a1a89d15d2a3d9278b2a9e1", "rental_uris": {"ios": "https://dc.lft.to/lastmile_qr_scan", "android": "https://dc.lft.to/lastmile_qr_scan"}, "fusion_lat": 0.0}, {"lat": 38.9112415, "lon": -77.04538216666667, "is_disabled": 0, "fusion_lon": 0.0, "is_reserved": 0, "name": "d222fab0b0b8c3a025c9c13485f0f35b", "type": "electric_scooter", "bike_id": "d222fab0b0b8c3a025c9c13485f0f35b", "rental_uris": {"ios": "https://dc.lft.to/lastmile_qr_scan", "android": "https://dc.lft.to/lastmile_qr_scan"}, "fusion_lat": 0.0}, {"lat": 38.9234, "lon": -77.05682, "is_disabled": 0, "fusion_lon": 0.0, "is_reserved": 0, "name": "13da80603d054b3e8320031bd1f073c5", "type": "electric_scooter", "bike_id": "13da80603d054b3e8320031bd1f073c5", "rental_uris": {"ios": "https://dc.lft.to/lastmile_qr_scan", "android": "https://dc.lft.to/lastmile_qr_scan"}, "fusion_lat": 0.0}, {"lat": 38.84305666666667, "lon": -76.99534783333333, "is_disabled": 0, "fusion_lon": 0.0, "is_reserved": 0, "name": "eebc5a7b722fe617e859b0b594e9d4d8", "type": "electric_scooter", "bike_id": "eebc5a7b722fe617e859b0b594e9d4d8", "rental_uris": {"ios": "https://dc.lft.to/lastmile_qr_scan", "android": "https://dc.lft.to/lastmile_qr_scan"}, "fusion_lat": 0.0}, {"lat": 38.89226216666667, "lon": -77.04198466666666, "is_disabled": 0, "fusion_lon": 0.0, "is_reserved": 0, "name": "3aa2d87c4ae49ba3759839932eb2e2cc", "type": "electric_scooter", "bike_id": "3aa2d87c4ae49ba3759839932eb2e2cc", "rental_uris": {"ios": "https://dc.lft.to/lastmile_qr_scan", "android": "https://dc.lft.to/lastmile_qr_scan"}, "fusion_lat": 0.0}, {"lat": 38.9260735, "lon": -77.2102015, "is_disabled": 0, "fusion_lon": 0.0, "is_reserved": 0, "name": "7ac0ed2bd8d9f96b25fb63232f8b08aa", "type": "electric_bike", "bike_id": "7ac0ed2bd8d9f96b25fb63232f8b08aa", "rental_uris": {"ios": "https://dc.lft.to/lastmile_qr_scan", "android": "https://dc.lft.to/lastmile_qr_scan"}, "fusion_lat": 0.0}, {"lat": 38.9231415, "lon": -77.04106533333334, "is_disabled": 0, "fusion_lon": 0.0, "is_reserved": 0, "name": "8a5ab6940d29f5bdc5b0a24385d35b13", "type": "electric_scooter", "bike_id": "8a5ab6940d29f5bdc5b0a24385d35b13", "rental_uris": {"ios": "https://dc.lft.to/lastmile_qr_scan", "android": "https://dc.lft.to/lastmile_qr_scan"}, "fusion_lat": 0.0}, {"lat": 38.91695216666667, "lon": -77.026025, "is_disabled": 0, "fusion_lon": 0.0, "is_reserved": 0, "name": "9d9eb041ff80f240c45443ddcc463a3e", "type": "electric_scooter", "bike_id": "9d9eb041ff80f240c45443ddcc463a3e", "rental_uris": {"ios": "https://dc.lft.to/lastmile_qr_scan", "android": "https://dc.lft.to/lastmile_qr_scan"}, "fusion_lat": 0.0}, {"lat": 38.906387333333335, "lon": -77.02507416666667, "is_disabled": 0, "fusion_lon": 0.0, "is_reserved": 0, "name": "9bfa8d7282f87af4ad444a48fa80d82f", "type": "electric_scooter", "bike_id": "9bfa8d7282f87af4ad444a48fa80d82f", "rental_uris": {"ios": "https://dc.lft.to/lastmile_qr_scan", "android": "https://dc.lft.to/lastmile_qr_scan"}, "fusion_lat": 0.0}, {"lat": 38.916235, "lon": -77.03198066666667, "is_disabled": 0, "fusion_lon": 0.0, "is_reserved": 0, "name": "a821cac2f792336b68a6b27b21e9b754", "type": "electric_scooter", "bike_id": "a821cac2f792336b68a6b27b21e9b754", "rental_uris": {"ios": "https://dc.lft.to/lastmile_qr_scan", "android": "https://dc.lft.to/lastmile_qr_scan"}, "fusion_lat": 0.0}, {"lat": 38.827939666666666, "lon": -77.12487233333333, "is_disabled": 0, "fusion_lon": 0.0, "is_reserved": 0, "name": "dda613af81efbc2c288bdd5fa656bfac", "type": "electric_bike", "bike_id": "dda613af81efbc2c288bdd5fa656bfac", "rental_uris": {"ios": "https://dc.lft.to/lastmile_qr_scan", "android": "https://dc.lft.to/lastmile_qr_scan"}, "fusion_lat": 0.0}, {"lat": 38.915113166666664, "lon": -77.0157915, "is_disabled": 0, "fusion_lon": 0.0, "is_reserved": 0, "name": "5ed12a55064cccc5ad191da159d97e00", "type": "electric_scooter", "bike_id": "5ed12a55064cccc5ad191da159d97e00", "rental_uris": {"ios": "https://dc.lft.to/lastmile_qr_scan", "android": "https://dc.lft.to/lastmile_qr_scan"}, "fusion_lat": 0.0}, {"lat": 38.90104916666667, "lon": -77.0209215, "is_disabled": 0, "fusion_lon": 0.0, "is_reserved": 0, "name": "e0fe22ceb7d89b93508b83d039b2301c", "type": "electric_scooter", "bike_id": "e0fe22ceb7d89b93508b83d039b2301c", "rental_uris": {"ios": "https://dc.lft.to/lastmile_qr_scan", "android": "https://dc.lft.to/lastmile_qr_scan"}, "fusion_lat": 0.0}, {"lat": 38.92474383333333, "lon": -77.05232683333334, "is_disabled": 0, "fusion_lon": 0.0, "is_reserved": 0, "name": "815fe125cc861d7ee610472dc1f97236", "type": "electric_scooter", "bike_id": "815fe125cc861d7ee610472dc1f97236", "rental_uris": {"ios": "https://dc.lft.to/lastmile_qr_scan", "android": "https://dc.lft.to/lastmile_qr_scan"}, "fusion_lat": 0.0}, {"lat": 38.90952766666667, "lon": -77.04424283333333, "is_disabled": 0, "fusion_lon": 0.0, "is_reserved": 0, "name": "ec98c1b26472aeeafa6b731720586b28", "type": "electric_scooter", "bike_id": "ec98c1b26472aeeafa6b731720586b28", "rental_uris": {"ios": "https://dc.lft.to/lastmile_qr_scan", "android": "https://dc.lft.to/lastmile_qr_scan"}, "fusion_lat": 0.0}, {"lat": 38.90948816666667, "lon": -77.0449605, "is_disabled": 0, "fusion_lon": 0.0, "is_reserved": 0, "name": "4e55a9de4fad82562391b841e2a81c8e", "type": "electric_scooter", "bike_id": "4e55a9de4fad82562391b841e2a81c8e", "rental_uris": {"ios": "https://dc.lft.to/lastmile_qr_scan", "android": "https://dc.lft.to/lastmile_qr_scan"}, "fusion_lat": 0.0}, {"lat": 38.95675416666667, "lon": -77.01358983333333, "is_disabled": 0, "fusion_lon": 0.0, "is_reserved": 0, "name": "d53703aed1ffcf70fd1a222d1088afdd", "type": "electric_scooter", "bike_id": "d53703aed1ffcf70fd1a222d1088afdd", "rental_uris": {"ios": "https://dc.lft.to/lastmile_qr_scan", "android": "https://dc.lft.to/lastmile_qr_scan"}, "fusion_lat": 0.0}, {"lat": 38.917994, "lon": -77.02709683333333, "is_disabled": 0, "fusion_lon": 0.0, "is_reserved": 0, "name": "e435ba10d74b025163cbbea715a6f583", "type": "electric_scooter", "bike_id": "e435ba10d74b025163cbbea715a6f583", "rental_uris": {"ios": "https://dc.lft.to/lastmile_qr_scan", "android": "https://dc.lft.to/lastmile_qr_scan"}, "fusion_lat": 0.0}, {"lat": 38.88399316666667, "lon": -77.0257595, "is_disabled": 0, "fusion_lon": 0.0, "is_reserved": 0, "name": "8d9efa682776bbf44a2fbb6f101fa2ac", "type": "electric_scooter", "bike_id": "8d9efa682776bbf44a2fbb6f101fa2ac", "rental_uris": {"ios": "https://dc.lft.to/lastmile_qr_scan", "android": "https://dc.lft.to/lastmile_qr_scan"}, "fusion_lat": 0.0}, {"lat": 38.89469666666667, "lon": -77.020194, "is_disabled": 0, "fusion_lon": 0.0, "is_reserved": 0, "name": "b4fca645ce980e03a56e51f0bfd5cb5d", "type": "electric_scooter", "bike_id": "b4fca645ce980e03a56e51f0bfd5cb5d", "rental_uris": {"ios": "https://dc.lft.to/lastmile_qr_scan", "android": "https://dc.lft.to/lastmile_qr_scan"}, "fusion_lat": 0.0}, {"lat": 38.897820333333335, "lon": -77.05480183333333, "is_disabled": 0, "fusion_lon": 0.0, "is_reserved": 0, "name": "ddc799d9f59ffe901c8337b19294c53b", "type": "electric_scooter", "bike_id": "ddc799d9f59ffe901c8337b19294c53b", "rental_uris": {"ios": "https://dc.lft.to/lastmile_qr_scan", "android": "https://dc.lft.to/lastmile_qr_scan"}, "fusion_lat": 0.0}, {"lat": 38.8873455, "lon": -77.02384116666667, "is_disabled": 0, "fusion_lon": 0.0, "is_reserved": 0, "name": "3f862938f08593e3cb743fa064be76ca", "type": "electric_scooter", "bike_id": "3f862938f08593e3cb743fa064be76ca", "rental_uris": {"ios": "https://dc.lft.to/lastmile_qr_scan", "android": "https://dc.lft.to/lastmile_qr_scan"}, "fusion_lat": 0.0}, {"lat": 38.89603666666667, "lon": -77.0091685, "is_disabled": 0, "fusion_lon": 0.0, "is_reserved": 0, "name": "1d66252a72204df627114d397ba25acc", "type": "electric_scooter", "bike_id": "1d66252a72204df627114d397ba25acc", "rental_uris": {"ios": "https://dc.lft.to/lastmile_qr_scan", "android": "https://dc.lft.to/lastmile_qr_scan"}, "fusion_lat": 0.0}, {"lat": 38.9224525, "lon": -77.07312316666666, "is_disabled": 0, "fusion_lon": 0.0, "is_reserved": 0, "name": "ec595ad5beeae113397338497394ed59", "type": "electric_scooter", "bike_id": "ec595ad5beeae113397338497394ed59", "rental_uris": {"ios": "https://dc.lft.to/lastmile_qr_scan", "android": "https://dc.lft.to/lastmile_qr_scan"}, "fusion_lat": 0.0}, {"lat": 38.9180275, "lon": -77.024882, "is_disabled": 0, "fusion_lon": 0.0, "is_reserved": 0, "name": "74d00d2b29bf5874b0bf5f5bb9149d4b", "type": "electric_scooter", "bike_id": "74d00d2b29bf5874b0bf5f5bb9149d4b", "rental_uris": {"ios": "https://dc.lft.to/lastmile_qr_scan", "android": "https://dc.lft.to/lastmile_qr_scan"}, "fusion_lat": 0.0}, {"lat": 38.924141, "lon": -77.021064, "is_disabled": 0, "fusion_lon": 0.0, "is_reserved": 0, "name": "1d01b170bda874bbf241d371053e6228", "type": "electric_scooter", "bike_id": "1d01b170bda874bbf241d371053e6228", "rental_uris": {"ios": "https://dc.lft.to/lastmile_qr_scan", "android": "https://dc.lft.to/lastmile_qr_scan"}, "fusion_lat": 0.0}, {"lat": 38.874619833333334, "lon": -77.005433, "is_disabled": 0, "fusion_lon": 0.0, "is_reserved": 0, "name": "8a44f5e714e73432b91df3e2274098ff", "type": "electric_scooter", "bike_id": "8a44f5e714e73432b91df3e2274098ff", "rental_uris": {"ios": "https://dc.lft.to/lastmile_qr_scan", "android": "https://dc.lft.to/lastmile_qr_scan"}, "fusion_lat": 0.0}, {"lat": 38.921949833333336, "lon": -77.04021833333333, "is_disabled": 0, "fusion_lon": 0.0, "is_reserved": 0, "name": "992d488a5baaa79eae6d729c4acea11b", "type": "electric_scooter", "bike_id": "992d488a5baaa79eae6d729c4acea11b", "rental_uris": {"ios": "https://dc.lft.to/lastmile_qr_scan", "android": "https://dc.lft.to/lastmile_qr_scan"}, "fusion_lat": 0.0}, {"lat": 38.93902466666667, "lon": -76.98608833333333, "is_disabled": 0, "fusion_lon": 0.0, "is_reserved": 0, "name": "84feef11c74f714efa4b74770114f179", "type": "electric_scooter", "bike_id": "84feef11c74f714efa4b74770114f179", "rental_uris": {"ios": "https://dc.lft.to/lastmile_qr_scan", "android": "https://dc.lft.to/lastmile_qr_scan"}, "fusion_lat": 0.0}, {"lat": 38.89848766666667, "lon": -76.94252833333333, "is_disabled": 0, "fusion_lon": 0.0, "is_reserved": 0, "name": "46a7af06974c20843b12f7b8c805436e", "type": "electric_scooter", "bike_id": "46a7af06974c20843b12f7b8c805436e", "rental_uris": {"ios": "https://dc.lft.to/lastmile_qr_scan", "android": "https://dc.lft.to/lastmile_qr_scan"}, "fusion_lat": 0.0}, {"lat": 38.902655333333335, "lon": -77.05321683333334, "is_disabled": 0, "fusion_lon": 0.0, "is_reserved": 0, "name": "654ad5a2d58c854a579f57aec51d2589", "type": "electric_scooter", "bike_id": "654ad5a2d58c854a579f57aec51d2589", "rental_uris": {"ios": "https://dc.lft.to/lastmile_qr_scan", "android": "https://dc.lft.to/lastmile_qr_scan"}, "fusion_lat": 0.0}, {"lat": 38.897430166666666, "lon": -77.0497155, "is_disabled": 0, "fusion_lon": 0.0, "is_reserved": 0, "name": "dea57ef1987dcc67c5f52b587e4be562", "type": "electric_scooter", "bike_id": "dea57ef1987dcc67c5f52b587e4be562", "rental_uris": {"ios": "https://dc.lft.to/lastmile_qr_scan", "android": "https://dc.lft.to/lastmile_qr_scan"}, "fusion_lat": 0.0}, {"lat": 38.9051345, "lon": -77.0592295, "is_disabled": 0, "fusion_lon": 0.0, "is_reserved": 0, "name": "3d35a5e5586d9f666830b159ec4f182d", "type": "electric_scooter", "bike_id": "3d35a5e5586d9f666830b159ec4f182d", "rental_uris": {"ios": "https://dc.lft.to/lastmile_qr_scan", "android": "https://dc.lft.to/lastmile_qr_scan"}, "fusion_lat": 0.0}, {"lat": 38.92301883333333, "lon": -76.99779816666667, "is_disabled": 0, "fusion_lon": 0.0, "is_reserved": 0, "name": "d483a94bccf48c11289f131e6bdb5ea6", "type": "electric_scooter", "bike_id": "d483a94bccf48c11289f131e6bdb5ea6", "rental_uris": {"ios": "https://dc.lft.to/lastmile_qr_scan", "android": "https://dc.lft.to/lastmile_qr_scan"}, "fusion_lat": 0.0}, {"lat": 38.881282166666665, "lon": -77.01652366666667, "is_disabled": 0, "fusion_lon": 0.0, "is_reserved": 0, "name": "806efaf0d0b0099f00f0f1f7f8a4c27d", "type": "electric_scooter", "bike_id": "806efaf0d0b0099f00f0f1f7f8a4c27d", "rental_uris": {"ios": "https://dc.lft.to/lastmile_qr_scan", "android": "https://dc.lft.to/lastmile_qr_scan"}, "fusion_lat": 0.0}, {"lat": 38.918274833333335, "lon": -77.0121115, "is_disabled": 0, "fusion_lon": 0.0, "is_reserved": 0, "name": "f6d2130a371293fa31da07ce24534820", "type": "electric_scooter", "bike_id": "f6d2130a371293fa31da07ce24534820", "rental_uris": {"ios": "https://dc.lft.to/lastmile_qr_scan", "android": "https://dc.lft.to/lastmile_qr_scan"}, "fusion_lat": 0.0}, {"lat": 38.942611, "lon": -76.990707, "is_disabled": 0, "fusion_lon": 0.0, "is_reserved": 0, "name": "1ae8b03ba0f3d6fea656465b56be6f26", "type": "electric_bike", "bike_id": "1ae8b03ba0f3d6fea656465b56be6f26", "rental_uris": {"ios": "https://dc.lft.to/lastmile_qr_scan", "android": "https://dc.lft.to/lastmile_qr_scan"}, "fusion_lat": 0.0}, {"lat": 38.91629066666667, "lon": -77.02696116666667, "is_disabled": 0, "fusion_lon": 0.0, "is_reserved": 0, "name": "7e8316c6cd16583b25e691f5c86a31b0", "type": "electric_scooter", "bike_id": "7e8316c6cd16583b25e691f5c86a31b0", "rental_uris": {"ios": "https://dc.lft.to/lastmile_qr_scan", "android": "https://dc.lft.to/lastmile_qr_scan"}, "fusion_lat": 0.0}, {"lat": 38.911078833333335, "lon": -77.04467066666666, "is_disabled": 0, "fusion_lon": 0.0, "is_reserved": 0, "name": "797ed6e78585432c18d23971b9a6fb9c", "type": "electric_scooter", "bike_id": "797ed6e78585432c18d23971b9a6fb9c", "rental_uris": {"ios": "https://dc.lft.to/lastmile_qr_scan", "android": "https://dc.lft.to/lastmile_qr_scan"}, "fusion_lat": 0.0}, {"lat": 38.895471666666666, "lon": -76.94949316666667, "is_disabled": 0, "fusion_lon": 0.0, "is_reserved": 0, "name": "76e2b444b650ed2bc0dd169f6098af48", "type": "electric_scooter", "bike_id": "76e2b444b650ed2bc0dd169f6098af48", "rental_uris": {"ios": "https://dc.lft.to/lastmile_qr_scan", "android": "https://dc.lft.to/lastmile_qr_scan"}, "fusion_lat": 0.0}, {"lat": 38.895554833333335, "lon": -76.948735, "is_disabled": 0, "fusion_lon": 0.0, "is_reserved": 0, "name": "c8687f4ff7cadb730b05dd39c0e5b99e", "type": "electric_scooter", "bike_id": "c8687f4ff7cadb730b05dd39c0e5b99e", "rental_uris": {"ios": "https://dc.lft.to/lastmile_qr_scan", "android": "https://dc.lft.to/lastmile_qr_scan"}, "fusion_lat": 0.0}, {"lat": 38.893674, "lon": -77.046295, "is_disabled": 0, "fusion_lon": 0.0, "is_reserved": 0, "name": "d36b5614ccc8134c80dad8ae723f1f5e", "type": "electric_scooter", "bike_id": "d36b5614ccc8134c80dad8ae723f1f5e", "rental_uris": {"ios": "https://dc.lft.to/lastmile_qr_scan", "android": "https://dc.lft.to/lastmile_qr_scan"}, "fusion_lat": 0.0}, {"lat": 38.8982645, "lon": -76.94652666666667, "is_disabled": 0, "fusion_lon": 0.0, "is_reserved": 0, "name": "b2b8c656a34cd9918646abb5992a25d1", "type": "electric_scooter", "bike_id": "b2b8c656a34cd9918646abb5992a25d1", "rental_uris": {"ios": "https://dc.lft.to/lastmile_qr_scan", "android": "https://dc.lft.to/lastmile_qr_scan"}, "fusion_lat": 0.0}, {"lat": 38.881817, "lon": -76.99258066666667, "is_disabled": 0, "fusion_lon": 0.0, "is_reserved": 0, "name": "acabdfaee958345618c2525245ff300e", "type": "electric_scooter", "bike_id": "acabdfaee958345618c2525245ff300e", "rental_uris": {"ios": "https://dc.lft.to/lastmile_qr_scan", "android": "https://dc.lft.to/lastmile_qr_scan"}, "fusion_lat": 0.0}, {"lat": 38.8961835, "lon": -77.02141183333333, "is_disabled": 0, "fusion_lon": 0.0, "is_reserved": 0, "name": "7cbc54f4afb07ae633d697571aba0bd1", "type": "electric_scooter", "bike_id": "7cbc54f4afb07ae633d697571aba0bd1", "rental_uris": {"ios": "https://dc.lft.to/lastmile_qr_scan", "android": "https://dc.lft.to/lastmile_qr_scan"}, "fusion_lat": 0.0}, {"lat": 38.9191115, "lon": -77.03204216666667, "is_disabled": 0, "fusion_lon": 0.0, "is_reserved": 0, "name": "2200bb02a7450851d4d5d0f46f0a51d4", "type": "electric_scooter", "bike_id": "2200bb02a7450851d4d5d0f46f0a51d4", "rental_uris": {"ios": "https://dc.lft.to/lastmile_qr_scan", "android": "https://dc.lft.to/lastmile_qr_scan"}, "fusion_lat": 0.0}, {"lat": 38.878273, "lon": -77.02240966666666, "is_disabled": 0, "fusion_lon": 0.0, "is_reserved": 0, "name": "9c4acb5afd9f798ade2befa625eac25b", "type": "electric_scooter", "bike_id": "9c4acb5afd9f798ade2befa625eac25b", "rental_uris": {"ios": "https://dc.lft.to/lastmile_qr_scan", "android": "https://dc.lft.to/lastmile_qr_scan"}, "fusion_lat": 0.0}, {"lat": 38.90291933333334, "lon": -77.0241815, "is_disabled": 0, "fusion_lon": 0.0, "is_reserved": 0, "name": "3b4c1657c94ebdb277a321d0e7d81199", "type": "electric_scooter", "bike_id": "3b4c1657c94ebdb277a321d0e7d81199", "rental_uris": {"ios": "https://dc.lft.to/lastmile_qr_scan", "android": "https://dc.lft.to/lastmile_qr_scan"}, "fusion_lat": 0.0}, {"lat": 38.904153, "lon": -77.0199055, "is_disabled": 0, "fusion_lon": 0.0, "is_reserved": 0, "name": "45eb6f88caaa951de10eb53ce4748018", "type": "electric_scooter", "bike_id": "45eb6f88caaa951de10eb53ce4748018", "rental_uris": {"ios": "https://dc.lft.to/lastmile_qr_scan", "android": "https://dc.lft.to/lastmile_qr_scan"}, "fusion_lat": 0.0}, {"lat": 38.90409233333333, "lon": -77.02945483333333, "is_disabled": 0, "fusion_lon": 0.0, "is_reserved": 0, "name": "793a4b5d20948ad75684efc03ccae637", "type": "electric_scooter", "bike_id": "793a4b5d20948ad75684efc03ccae637", "rental_uris": {"ios": "https://dc.lft.to/lastmile_qr_scan", "android": "https://dc.lft.to/lastmile_qr_scan"}, "fusion_lat": 0.0}, {"lat": 38.917129, "lon": -77.0247765, "is_disabled": 0, "fusion_lon": 0.0, "is_reserved": 0, "name": "b1633c5aa1bb3bcfa1e1a402e046ee9e", "type": "electric_scooter", "bike_id": "b1633c5aa1bb3bcfa1e1a402e046ee9e", "rental_uris": {"ios": "https://dc.lft.to/lastmile_qr_scan", "android": "https://dc.lft.to/lastmile_qr_scan"}, "fusion_lat": 0.0}, {"lat": 38.902602333333334, "lon": -77.04696816666667, "is_disabled": 0, "fusion_lon": 0.0, "is_reserved": 0, "name": "84378a96e69085711225f7fcc33e0fc3", "type": "electric_scooter", "bike_id": "84378a96e69085711225f7fcc33e0fc3", "rental_uris": {"ios": "https://dc.lft.to/lastmile_qr_scan", "android": "https://dc.lft.to/lastmile_qr_scan"}, "fusion_lat": 0.0}, {"lat": 38.9287355, "lon": -77.03454133333334, "is_disabled": 0, "fusion_lon": 0.0, "is_reserved": 0, "name": "e79409602f2cda875acd13fbcb39143d", "type": "electric_scooter", "bike_id": "e79409602f2cda875acd13fbcb39143d", "rental_uris": {"ios": "https://dc.lft.to/lastmile_qr_scan", "android": "https://dc.lft.to/lastmile_qr_scan"}, "fusion_lat": 0.0}, {"lat": 38.8922515, "lon": -77.04194566666666, "is_disabled": 0, "fusion_lon": 0.0, "is_reserved": 0, "name": "46f44978b29866cbc28adb64727543da", "type": "electric_scooter", "bike_id": "46f44978b29866cbc28adb64727543da", "rental_uris": {"ios": "https://dc.lft.to/lastmile_qr_scan", "android": "https://dc.lft.to/lastmile_qr_scan"}, "fusion_lat": 0.0}, {"lat": 38.90147316666667, "lon": -77.01904333333333, "is_disabled": 0, "fusion_lon": 0.0, "is_reserved": 0, "name": "0a81c421d773c2bc59560204b7437ca3", "type": "electric_scooter", "bike_id": "0a81c421d773c2bc59560204b7437ca3", "rental_uris": {"ios": "https://dc.lft.to/lastmile_qr_scan", "android": "https://dc.lft.to/lastmile_qr_scan"}, "fusion_lat": 0.0}, {"lat": 38.90911083333334, "lon": -77.04418216666667, "is_disabled": 0, "fusion_lon": 0.0, "is_reserved": 0, "name": "c2d810caa845bb989e645873358849b2", "type": "electric_scooter", "bike_id": "c2d810caa845bb989e645873358849b2", "rental_uris": {"ios": "https://dc.lft.to/lastmile_qr_scan", "android": "https://dc.lft.to/lastmile_qr_scan"}, "fusion_lat": 0.0}, {"lat": 38.91119416666667, "lon": -77.04538383333333, "is_disabled": 0, "fusion_lon": 0.0, "is_reserved": 0, "name": "cbcef8c0a4b405088ea6aa7074cc3360", "type": "electric_scooter", "bike_id": "cbcef8c0a4b405088ea6aa7074cc3360", "rental_uris": {"ios": "https://dc.lft.to/lastmile_qr_scan", "android": "https://dc.lft.to/lastmile_qr_scan"}, "fusion_lat": 0.0}, {"lat": 38.875393333333335, "lon": -77.0050885, "is_disabled": 0, "fusion_lon": 0.0, "is_reserved": 0, "name": "048eb5e2fe146afb0407a3108ddaf80f", "type": "electric_scooter", "bike_id": "048eb5e2fe146afb0407a3108ddaf80f", "rental_uris": {"ios": "https://dc.lft.to/lastmile_qr_scan", "android": "https://dc.lft.to/lastmile_qr_scan"}, "fusion_lat": 0.0}, {"lat": 38.900655, "lon": -76.927487, "is_disabled": 0, "fusion_lon": 0.0, "is_reserved": 0, "name": "4756d0c08a575a0f0e9947b468efd926", "type": "electric_scooter", "bike_id": "4756d0c08a575a0f0e9947b468efd926", "rental_uris": {"ios": "https://dc.lft.to/lastmile_qr_scan", "android": "https://dc.lft.to/lastmile_qr_scan"}, "fusion_lat": 0.0}, {"lat": 38.807656333333334, "lon": -77.1298545, "is_disabled": 0, "fusion_lon": 0.0, "is_reserved": 0, "name": "a4b8ca2935be1e7ab801119e213c0e51", "type": "electric_bike", "bike_id": "a4b8ca2935be1e7ab801119e213c0e51", "rental_uris": {"ios": "https://dc.lft.to/lastmile_qr_scan", "android": "https://dc.lft.to/lastmile_qr_scan"}, "fusion_lat": 0.0}, {"lat": 38.9110265, "lon": -77.0318325, "is_disabled": 0, "fusion_lon": 0.0, "is_reserved": 0, "name": "82be371aefdff713d9633baf96fdf849", "type": "electric_scooter", "bike_id": "82be371aefdff713d9633baf96fdf849", "rental_uris": {"ios": "https://dc.lft.to/lastmile_qr_scan", "android": "https://dc.lft.to/lastmile_qr_scan"}, "fusion_lat": 0.0}, {"lat": 38.92470616666667, "lon": -77.05236333333333, "is_disabled": 0, "fusion_lon": 0.0, "is_reserved": 0, "name": "11b1779dc453be6ff7c223adc670067b", "type": "electric_scooter", "bike_id": "11b1779dc453be6ff7c223adc670067b", "rental_uris": {"ios": "https://dc.lft.to/lastmile_qr_scan", "android": "https://dc.lft.to/lastmile_qr_scan"}, "fusion_lat": 0.0}, {"lat": 38.89930483333333, "lon": -77.04492616666667, "is_disabled": 0, "fusion_lon": 0.0, "is_reserved": 0, "name": "c190906b89ebbbcde3315a1d0aa69ea1", "type": "electric_scooter", "bike_id": "c190906b89ebbbcde3315a1d0aa69ea1", "rental_uris": {"ios": "https://dc.lft.to/lastmile_qr_scan", "android": "https://dc.lft.to/lastmile_qr_scan"}, "fusion_lat": 0.0}, {"lat": 38.9408585, "lon": -77.0272275, "is_disabled": 0, "fusion_lon": 0.0, "is_reserved": 0, "name": "9154acbde20987cc2abb2429a9165b67", "type": "electric_scooter", "bike_id": "9154acbde20987cc2abb2429a9165b67", "rental_uris": {"ios": "https://dc.lft.to/lastmile_qr_scan", "android": "https://dc.lft.to/lastmile_qr_scan"}, "fusion_lat": 0.0}, {"lat": 38.92153866666666, "lon": -77.03228066666667, "is_disabled": 0, "fusion_lon": 0.0, "is_reserved": 0, "name": "ac013427d6519be0f4c8dccc71b300c0", "type": "electric_scooter", "bike_id": "ac013427d6519be0f4c8dccc71b300c0", "rental_uris": {"ios": "https://dc.lft.to/lastmile_qr_scan", "android": "https://dc.lft.to/lastmile_qr_scan"}, "fusion_lat": 0.0}, {"lat": 38.887467666666666, "lon": -77.02774083333334, "is_disabled": 0, "fusion_lon": 0.0, "is_reserved": 0, "name": "873f4196f8606cd4dbe121918b7bf661", "type": "electric_scooter", "bike_id": "873f4196f8606cd4dbe121918b7bf661", "rental_uris": {"ios": "https://dc.lft.to/lastmile_qr_scan", "android": "https://dc.lft.to/lastmile_qr_scan"}, "fusion_lat": 0.0}, {"lat": 38.931039, "lon": -77.01224416666666, "is_disabled": 0, "fusion_lon": 0.0, "is_reserved": 0, "name": "cec024a15d8ee6927c227ab23ce9758a", "type": "electric_scooter", "bike_id": "cec024a15d8ee6927c227ab23ce9758a", "rental_uris": {"ios": "https://dc.lft.to/lastmile_qr_scan", "android": "https://dc.lft.to/lastmile_qr_scan"}, "fusion_lat": 0.0}, {"lat": 38.924103333333335, "lon": -77.02545433333333, "is_disabled": 0, "fusion_lon": 0.0, "is_reserved": 0, "name": "65255f6096f92d8a9a950cf374dedc25", "type": "electric_scooter", "bike_id": "65255f6096f92d8a9a950cf374dedc25", "rental_uris": {"ios": "https://dc.lft.to/lastmile_qr_scan", "android": "https://dc.lft.to/lastmile_qr_scan"}, "fusion_lat": 0.0}, {"lat": 38.90541233333333, "lon": -77.05036283333334, "is_disabled": 0, "fusion_lon": 0.0, "is_reserved": 0, "name": "25b541372a51a5a251fc77a57641b3b1", "type": "electric_scooter", "bike_id": "25b541372a51a5a251fc77a57641b3b1", "rental_uris": {"ios": "https://dc.lft.to/lastmile_qr_scan", "android": "https://dc.lft.to/lastmile_qr_scan"}, "fusion_lat": 0.0}, {"lat": 38.90750666666667, "lon": -77.00745266666667, "is_disabled": 0, "fusion_lon": 0.0, "is_reserved": 0, "name": "d947403b77a425b6e446482b07c6bf46", "type": "electric_scooter", "bike_id": "d947403b77a425b6e446482b07c6bf46", "rental_uris": {"ios": "https://dc.lft.to/lastmile_qr_scan", "android": "https://dc.lft.to/lastmile_qr_scan"}, "fusion_lat": 0.0}, {"lat": 38.857716, "lon": -76.98769133333333, "is_disabled": 0, "fusion_lon": 0.0, "is_reserved": 0, "name": "a3fda0fa49dd02824ef9a25e61af19fa", "type": "electric_bike", "bike_id": "a3fda0fa49dd02824ef9a25e61af19fa", "rental_uris": {"ios": "https://dc.lft.to/lastmile_qr_scan", "android": "https://dc.lft.to/lastmile_qr_scan"}, "fusion_lat": 0.0}, {"lat": 38.89977433333333, "lon": -77.02467716666666, "is_disabled": 0, "fusion_lon": 0.0, "is_reserved": 0, "name": "66b68628a2f0036f84ce38ab747353ea", "type": "electric_scooter", "bike_id": "66b68628a2f0036f84ce38ab747353ea", "rental_uris": {"ios": "https://dc.lft.to/lastmile_qr_scan", "android": "https://dc.lft.to/lastmile_qr_scan"}, "fusion_lat": 0.0}, {"lat": 38.8843395, "lon": -76.95751933333334, "is_disabled": 0, "fusion_lon": 0.0, "is_reserved": 0, "name": "8b017f8f932b38f153d22116930d3df5", "type": "electric_scooter", "bike_id": "8b017f8f932b38f153d22116930d3df5", "rental_uris": {"ios": "https://dc.lft.to/lastmile_qr_scan", "android": "https://dc.lft.to/lastmile_qr_scan"}, "fusion_lat": 0.0}, {"lat": 38.916349333333336, "lon": -77.0507085, "is_disabled": 0, "fusion_lon": 0.0, "is_reserved": 0, "name": "b331643142f6e9fbbd371ca8289aaeaa", "type": "electric_scooter", "bike_id": "b331643142f6e9fbbd371ca8289aaeaa", "rental_uris": {"ios": "https://dc.lft.to/lastmile_qr_scan", "android": "https://dc.lft.to/lastmile_qr_scan"}, "fusion_lat": 0.0}, {"lat": 38.91479416666667, "lon": -77.04612166666666, "is_disabled": 0, "fusion_lon": 0.0, "is_reserved": 0, "name": "1fe29994685107a3e104cf72d618a4a4", "type": "electric_scooter", "bike_id": "1fe29994685107a3e104cf72d618a4a4", "rental_uris": {"ios": "https://dc.lft.to/lastmile_qr_scan", "android": "https://dc.lft.to/lastmile_qr_scan"}, "fusion_lat": 0.0}, {"lat": 38.89655616666667, "lon": -77.0093065, "is_disabled": 0, "fusion_lon": 0.0, "is_reserved": 0, "name": "85937cd9d28389447d4cb4b1e7750ce7", "type": "electric_scooter", "bike_id": "85937cd9d28389447d4cb4b1e7750ce7", "rental_uris": {"ios": "https://dc.lft.to/lastmile_qr_scan", "android": "https://dc.lft.to/lastmile_qr_scan"}, "fusion_lat": 0.0}, {"lat": 38.93921783333333, "lon": -77.02483016666666, "is_disabled": 0, "fusion_lon": 0.0, "is_reserved": 0, "name": "86c5782152abbaf47bb5f8e5777b04c8", "type": "electric_scooter", "bike_id": "86c5782152abbaf47bb5f8e5777b04c8", "rental_uris": {"ios": "https://dc.lft.to/lastmile_qr_scan", "android": "https://dc.lft.to/lastmile_qr_scan"}, "fusion_lat": 0.0}, {"lat": 38.901067833333336, "lon": -76.993825, "is_disabled": 0, "fusion_lon": 0.0, "is_reserved": 0, "name": "e6a7d9b7ce92d6eb3172e69ba3848f4c", "type": "electric_scooter", "bike_id": "e6a7d9b7ce92d6eb3172e69ba3848f4c", "rental_uris": {"ios": "https://dc.lft.to/lastmile_qr_scan", "android": "https://dc.lft.to/lastmile_qr_scan"}, "fusion_lat": 0.0}, {"lat": 38.90637433333333, "lon": -77.00576316666667, "is_disabled": 0, "fusion_lon": 0.0, "is_reserved": 0, "name": "85620f2b70792d9af7e2e662dc4560b9", "type": "electric_scooter", "bike_id": "85620f2b70792d9af7e2e662dc4560b9", "rental_uris": {"ios": "https://dc.lft.to/lastmile_qr_scan", "android": "https://dc.lft.to/lastmile_qr_scan"}, "fusion_lat": 0.0}, {"lat": 38.92901083333334, "lon": -77.0325515, "is_disabled": 0, "fusion_lon": 0.0, "is_reserved": 0, "name": "52b4dbe4623246e6e60e71198d674fa5", "type": "electric_scooter", "bike_id": "52b4dbe4623246e6e60e71198d674fa5", "rental_uris": {"ios": "https://dc.lft.to/lastmile_qr_scan", "android": "https://dc.lft.to/lastmile_qr_scan"}, "fusion_lat": 0.0}, {"lat": 38.90273783333333, "lon": -77.03463166666667, "is_disabled": 0, "fusion_lon": 0.0, "is_reserved": 0, "name": "bbae2589545e22a840897812f6647bce", "type": "electric_scooter", "bike_id": "bbae2589545e22a840897812f6647bce", "rental_uris": {"ios": "https://dc.lft.to/lastmile_qr_scan", "android": "https://dc.lft.to/lastmile_qr_scan"}, "fusion_lat": 0.0}, {"lat": 38.90138316666667, "lon": -77.016508, "is_disabled": 0, "fusion_lon": 0.0, "is_reserved": 0, "name": "f0b0c49dcaa9869a6b954b78710aacbc", "type": "electric_scooter", "bike_id": "f0b0c49dcaa9869a6b954b78710aacbc", "rental_uris": {"ios": "https://dc.lft.to/lastmile_qr_scan", "android": "https://dc.lft.to/lastmile_qr_scan"}, "fusion_lat": 0.0}, {"lat": 38.90695816666667, "lon": -77.06339966666667, "is_disabled": 0, "fusion_lon": 0.0, "is_reserved": 0, "name": "b61d37db02321c31b8ecd4c225a5c798", "type": "electric_scooter", "bike_id": "b61d37db02321c31b8ecd4c225a5c798", "rental_uris": {"ios": "https://dc.lft.to/lastmile_qr_scan", "android": "https://dc.lft.to/lastmile_qr_scan"}, "fusion_lat": 0.0}, {"lat": 38.89463333333333, "lon": -77.02256466666667, "is_disabled": 0, "fusion_lon": 0.0, "is_reserved": 0, "name": "fbf9823ab6eb85a5f17b8ea8af0c529d", "type": "electric_scooter", "bike_id": "fbf9823ab6eb85a5f17b8ea8af0c529d", "rental_uris": {"ios": "https://dc.lft.to/lastmile_qr_scan", "android": "https://dc.lft.to/lastmile_qr_scan"}, "fusion_lat": 0.0}, {"lat": 38.92330483333333, "lon": -77.01953583333334, "is_disabled": 0, "fusion_lon": 0.0, "is_reserved": 0, "name": "8dc4307b555ca00b6b5b0ed70a6e9217", "type": "electric_scooter", "bike_id": "8dc4307b555ca00b6b5b0ed70a6e9217", "rental_uris": {"ios": "https://dc.lft.to/lastmile_qr_scan", "android": "https://dc.lft.to/lastmile_qr_scan"}, "fusion_lat": 0.0}, {"lat": 38.90096466666667, "lon": -77.0437755, "is_disabled": 0, "fusion_lon": 0.0, "is_reserved": 0, "name": "ea6c2fd37cb93a9db836bcf00e3298ac", "type": "electric_scooter", "bike_id": "ea6c2fd37cb93a9db836bcf00e3298ac", "rental_uris": {"ios": "https://dc.lft.to/lastmile_qr_scan", "android": "https://dc.lft.to/lastmile_qr_scan"}, "fusion_lat": 0.0}, {"lat": 38.892184, "lon": -77.02756683333334, "is_disabled": 0, "fusion_lon": 0.0, "is_reserved": 0, "name": "8d0d7caea7ccde380f3efed72c2df3b4", "type": "electric_scooter", "bike_id": "8d0d7caea7ccde380f3efed72c2df3b4", "rental_uris": {"ios": "https://dc.lft.to/lastmile_qr_scan", "android": "https://dc.lft.to/lastmile_qr_scan"}, "fusion_lat": 0.0}, {"lat": 38.92345733333333, "lon": -77.05180083333333, "is_disabled": 0, "fusion_lon": 0.0, "is_reserved": 0, "name": "0d05772b4bebd301437ac4be7d3aaaa1", "type": "electric_scooter", "bike_id": "0d05772b4bebd301437ac4be7d3aaaa1", "rental_uris": {"ios": "https://dc.lft.to/lastmile_qr_scan", "android": "https://dc.lft.to/lastmile_qr_scan"}, "fusion_lat": 0.0}, {"lat": 38.9014055, "lon": -77.04422683333334, "is_disabled": 0, "fusion_lon": 0.0, "is_reserved": 0, "name": "931ba5ea44228f568e999afeff06d52a", "type": "electric_scooter", "bike_id": "931ba5ea44228f568e999afeff06d52a", "rental_uris": {"ios": "https://dc.lft.to/lastmile_qr_scan", "android": "https://dc.lft.to/lastmile_qr_scan"}, "fusion_lat": 0.0}, {"lat": 38.90501116666667, "lon": -77.05811133333333, "is_disabled": 0, "fusion_lon": 0.0, "is_reserved": 0, "name": "729e418385771bd3abf8c4ac45dd0d61", "type": "electric_scooter", "bike_id": "729e418385771bd3abf8c4ac45dd0d61", "rental_uris": {"ios": "https://dc.lft.to/lastmile_qr_scan", "android": "https://dc.lft.to/lastmile_qr_scan"}, "fusion_lat": 0.0}, {"lat": 38.912820833333335, "lon": -76.98682166666667, "is_disabled": 0, "fusion_lon": 0.0, "is_reserved": 0, "name": "5ed67fa67d15a60136dcce93c790e8b1", "type": "electric_scooter", "bike_id": "5ed67fa67d15a60136dcce93c790e8b1", "rental_uris": {"ios": "https://dc.lft.to/lastmile_qr_scan", "android": "https://dc.lft.to/lastmile_qr_scan"}, "fusion_lat": 0.0}, {"lat": 38.91362816666667, "lon": -77.02051283333333, "is_disabled": 0, "fusion_lon": 0.0, "is_reserved": 0, "name": "b285fe46f840b089abd877be03676c71", "type": "electric_scooter", "bike_id": "b285fe46f840b089abd877be03676c71", "rental_uris": {"ios": "https://dc.lft.to/lastmile_qr_scan", "android": "https://dc.lft.to/lastmile_qr_scan"}, "fusion_lat": 0.0}, {"lat": 38.9180195, "lon": -77.04010783333334, "is_disabled": 0, "fusion_lon": 0.0, "is_reserved": 0, "name": "a068f438e619be32900d041dfeff2977", "type": "electric_scooter", "bike_id": "a068f438e619be32900d041dfeff2977", "rental_uris": {"ios": "https://dc.lft.to/lastmile_qr_scan", "android": "https://dc.lft.to/lastmile_qr_scan"}, "fusion_lat": 0.0}, {"lat": 38.9017825, "lon": -77.01617283333333, "is_disabled": 0, "fusion_lon": 0.0, "is_reserved": 0, "name": "1907583c9fa12a8e01828fb7f723df97", "type": "electric_scooter", "bike_id": "1907583c9fa12a8e01828fb7f723df97", "rental_uris": {"ios": "https://dc.lft.to/lastmile_qr_scan", "android": "https://dc.lft.to/lastmile_qr_scan"}, "fusion_lat": 0.0}, {"lat": 38.906718166666664, "lon": -77.038181, "is_disabled": 0, "fusion_lon": 0.0, "is_reserved": 0, "name": "0f2397555bb4bea273e1f469f4fcdb74", "type": "electric_scooter", "bike_id": "0f2397555bb4bea273e1f469f4fcdb74", "rental_uris": {"ios": "https://dc.lft.to/lastmile_qr_scan", "android": "https://dc.lft.to/lastmile_qr_scan"}, "fusion_lat": 0.0}, {"lat": 39.004829666666666, "lon": -77.02181733333333, "is_disabled": 0, "fusion_lon": 0.0, "is_reserved": 0, "name": "d9bc844b6bebf948e78e01178c144bcb", "type": "electric_bike", "bike_id": "d9bc844b6bebf948e78e01178c144bcb", "rental_uris": {"ios": "https://dc.lft.to/lastmile_qr_scan", "android": "https://dc.lft.to/lastmile_qr_scan"}, "fusion_lat": 0.0}, {"lat": 38.92744233333333, "lon": -76.995598, "is_disabled": 0, "fusion_lon": 0.0, "is_reserved": 0, "name": "3d9e08454ff0e17a227612ea3522bccb", "type": "electric_scooter", "bike_id": "3d9e08454ff0e17a227612ea3522bccb", "rental_uris": {"ios": "https://dc.lft.to/lastmile_qr_scan", "android": "https://dc.lft.to/lastmile_qr_scan"}, "fusion_lat": 0.0}, {"lat": 38.89806816666667, "lon": -77.0189965, "is_disabled": 0, "fusion_lon": 0.0, "is_reserved": 0, "name": "12078b11cabbd06e12bfe154b65ec81b", "type": "electric_scooter", "bike_id": "12078b11cabbd06e12bfe154b65ec81b", "rental_uris": {"ios": "https://dc.lft.to/lastmile_qr_scan", "android": "https://dc.lft.to/lastmile_qr_scan"}, "fusion_lat": 0.0}, {"lat": 38.90534016666667, "lon": -77.048474, "is_disabled": 0, "fusion_lon": 0.0, "is_reserved": 0, "name": "593e5ad97905b9fc7c2116dd8d47eb89", "type": "electric_scooter", "bike_id": "593e5ad97905b9fc7c2116dd8d47eb89", "rental_uris": {"ios": "https://dc.lft.to/lastmile_qr_scan", "android": "https://dc.lft.to/lastmile_qr_scan"}, "fusion_lat": 0.0}, {"lat": 38.871035, "lon": -76.942058, "is_disabled": 0, "fusion_lon": 0.0, "is_reserved": 0, "name": "9b4a5534188db0b10c7985b3c0a06dc4", "type": "electric_scooter", "bike_id": "9b4a5534188db0b10c7985b3c0a06dc4", "rental_uris": {"ios": "https://dc.lft.to/lastmile_qr_scan", "android": "https://dc.lft.to/lastmile_qr_scan"}, "fusion_lat": 0.0}, {"lat": 38.903706166666666, "lon": -77.0388525, "is_disabled": 0, "fusion_lon": 0.0, "is_reserved": 0, "name": "30472de5802a5ec3cfeb7c92b57435bb", "type": "electric_scooter", "bike_id": "30472de5802a5ec3cfeb7c92b57435bb", "rental_uris": {"ios": "https://dc.lft.to/lastmile_qr_scan", "android": "https://dc.lft.to/lastmile_qr_scan"}, "fusion_lat": 0.0}, {"lat": 38.83974533333333, "lon": -76.9773555, "is_disabled": 0, "fusion_lon": 0.0, "is_reserved": 0, "name": "d70f3ec2fe6fc9fdf5424d27c904093d", "type": "electric_bike", "bike_id": "d70f3ec2fe6fc9fdf5424d27c904093d", "rental_uris": {"ios": "https://dc.lft.to/lastmile_qr_scan", "android": "https://dc.lft.to/lastmile_qr_scan"}, "fusion_lat": 0.0}, {"lat": 38.8840835, "lon": -76.96057983333333, "is_disabled": 0, "fusion_lon": 0.0, "is_reserved": 0, "name": "1474e452ae135e64b02d946520f5067f", "type": "electric_bike", "bike_id": "1474e452ae135e64b02d946520f5067f", "rental_uris": {"ios": "https://dc.lft.to/lastmile_qr_scan", "android": "https://dc.lft.to/lastmile_qr_scan"}, "fusion_lat": 0.0}, {"lat": 38.89249233333334, "lon": -76.98850433333334, "is_disabled": 0, "fusion_lon": 0.0, "is_reserved": 0, "name": "1ad7f7e163e270a93d81870612fb1bfe", "type": "electric_scooter", "bike_id": "1ad7f7e163e270a93d81870612fb1bfe", "rental_uris": {"ios": "https://dc.lft.to/lastmile_qr_scan", "android": "https://dc.lft.to/lastmile_qr_scan"}, "fusion_lat": 0.0}, {"lat": 38.9109005, "lon": -77.044867, "is_disabled": 0, "fusion_lon": 0.0, "is_reserved": 0, "name": "5352abc6c375b05c9ec8a434b0e6e680", "type": "electric_scooter", "bike_id": "5352abc6c375b05c9ec8a434b0e6e680", "rental_uris": {"ios": "https://dc.lft.to/lastmile_qr_scan", "android": "https://dc.lft.to/lastmile_qr_scan"}, "fusion_lat": 0.0}, {"lat": 38.8771385, "lon": -77.01650216666667, "is_disabled": 0, "fusion_lon": 0.0, "is_reserved": 0, "name": "93242f7f3e586800c84dcae6d38ca4b0", "type": "electric_scooter", "bike_id": "93242f7f3e586800c84dcae6d38ca4b0", "rental_uris": {"ios": "https://dc.lft.to/lastmile_qr_scan", "android": "https://dc.lft.to/lastmile_qr_scan"}, "fusion_lat": 0.0}, {"lat": 38.8316095, "lon": -76.99574383333334, "is_disabled": 0, "fusion_lon": 0.0, "is_reserved": 0, "name": "ae87a6e64a1e268690adb0b3e165eddb", "type": "electric_bike", "bike_id": "ae87a6e64a1e268690adb0b3e165eddb", "rental_uris": {"ios": "https://dc.lft.to/lastmile_qr_scan", "android": "https://dc.lft.to/lastmile_qr_scan"}, "fusion_lat": 0.0}, {"lat": 38.887372, "lon": -77.023813, "is_disabled": 0, "fusion_lon": 0.0, "is_reserved": 0, "name": "39693aed4e5ed31caed76c51f5b05982", "type": "electric_scooter", "bike_id": "39693aed4e5ed31caed76c51f5b05982", "rental_uris": {"ios": "https://dc.lft.to/lastmile_qr_scan", "android": "https://dc.lft.to/lastmile_qr_scan"}, "fusion_lat": 0.0}, {"lat": 38.8989635, "lon": -77.00831033333333, "is_disabled": 0, "fusion_lon": 0.0, "is_reserved": 0, "name": "c9907859163df352319dff709260158c", "type": "electric_scooter", "bike_id": "c9907859163df352319dff709260158c", "rental_uris": {"ios": "https://dc.lft.to/lastmile_qr_scan", "android": "https://dc.lft.to/lastmile_qr_scan"}, "fusion_lat": 0.0}, {"lat": 38.9019655, "lon": -77.0237475, "is_disabled": 0, "fusion_lon": 0.0, "is_reserved": 0, "name": "98b8e36c56b3c170fb95c34eeef3c881", "type": "electric_scooter", "bike_id": "98b8e36c56b3c170fb95c34eeef3c881", "rental_uris": {"ios": "https://dc.lft.to/lastmile_qr_scan", "android": "https://dc.lft.to/lastmile_qr_scan"}, "fusion_lat": 0.0}, {"lat": 38.907226, "lon": -77.02981666666666, "is_disabled": 0, "fusion_lon": 0.0, "is_reserved": 0, "name": "8566bc35a5c3f6a7ea456c926cdec65c", "type": "electric_scooter", "bike_id": "8566bc35a5c3f6a7ea456c926cdec65c", "rental_uris": {"ios": "https://dc.lft.to/lastmile_qr_scan", "android": "https://dc.lft.to/lastmile_qr_scan"}, "fusion_lat": 0.0}, {"lat": 38.88692866666667, "lon": -76.97640883333334, "is_disabled": 0, "fusion_lon": 0.0, "is_reserved": 0, "name": "d3cf01efbfea7ea57607aa017417b08b", "type": "electric_scooter", "bike_id": "d3cf01efbfea7ea57607aa017417b08b", "rental_uris": {"ios": "https://dc.lft.to/lastmile_qr_scan", "android": "https://dc.lft.to/lastmile_qr_scan"}, "fusion_lat": 0.0}, {"lat": 38.928413666666664, "lon": -77.05423666666667, "is_disabled": 0, "fusion_lon": 0.0, "is_reserved": 0, "name": "da91f4950d9a506c9dbada4a8005e140", "type": "electric_scooter", "bike_id": "da91f4950d9a506c9dbada4a8005e140", "rental_uris": {"ios": "https://dc.lft.to/lastmile_qr_scan", "android": "https://dc.lft.to/lastmile_qr_scan"}, "fusion_lat": 0.0}, {"lat": 38.89228083333333, "lon": -77.0220555, "is_disabled": 0, "fusion_lon": 0.0, "is_reserved": 0, "name": "feb46a6c34e7dbae6690e3aac2e6594c", "type": "electric_scooter", "bike_id": "feb46a6c34e7dbae6690e3aac2e6594c", "rental_uris": {"ios": "https://dc.lft.to/lastmile_qr_scan", "android": "https://dc.lft.to/lastmile_qr_scan"}, "fusion_lat": 0.0}, {"lat": 38.8740065, "lon": -77.00201666666666, "is_disabled": 0, "fusion_lon": 0.0, "is_reserved": 0, "name": "afa8f53f11460b073e7c86b3d187c441", "type": "electric_scooter", "bike_id": "afa8f53f11460b073e7c86b3d187c441", "rental_uris": {"ios": "https://dc.lft.to/lastmile_qr_scan", "android": "https://dc.lft.to/lastmile_qr_scan"}, "fusion_lat": 0.0}, {"lat": 38.878255833333334, "lon": -76.9960915, "is_disabled": 0, "fusion_lon": 0.0, "is_reserved": 0, "name": "0882f2c0254862a1d7a2a310d0b1b784", "type": "electric_scooter", "bike_id": "0882f2c0254862a1d7a2a310d0b1b784", "rental_uris": {"ios": "https://dc.lft.to/lastmile_qr_scan", "android": "https://dc.lft.to/lastmile_qr_scan"}, "fusion_lat": 0.0}, {"lat": 38.91591, "lon": -77.044829, "is_disabled": 0, "fusion_lon": 0.0, "is_reserved": 0, "name": "669fa1adc295a579e642b4d974cef8bb", "type": "electric_scooter", "bike_id": "669fa1adc295a579e642b4d974cef8bb", "rental_uris": {"ios": "https://dc.lft.to/lastmile_qr_scan", "android": "https://dc.lft.to/lastmile_qr_scan"}, "fusion_lat": 0.0}, {"lat": 38.9203005, "lon": -77.07161033333334, "is_disabled": 0, "fusion_lon": 0.0, "is_reserved": 0, "name": "0d956a236ae89b7792dfff7813e8f083", "type": "electric_scooter", "bike_id": "0d956a236ae89b7792dfff7813e8f083", "rental_uris": {"ios": "https://dc.lft.to/lastmile_qr_scan", "android": "https://dc.lft.to/lastmile_qr_scan"}, "fusion_lat": 0.0}, {"lat": 38.91608466666667, "lon": -77.04908466666667, "is_disabled": 0, "fusion_lon": 0.0, "is_reserved": 0, "name": "f92b8ebc842b678015b56e947922c26f", "type": "electric_scooter", "bike_id": "f92b8ebc842b678015b56e947922c26f", "rental_uris": {"ios": "https://dc.lft.to/lastmile_qr_scan", "android": "https://dc.lft.to/lastmile_qr_scan"}, "fusion_lat": 0.0}, {"lat": 38.90381133333333, "lon": -77.0400395, "is_disabled": 0, "fusion_lon": 0.0, "is_reserved": 0, "name": "8f6aabf8e8b7298467a49d43f58ac061", "type": "electric_scooter", "bike_id": "8f6aabf8e8b7298467a49d43f58ac061", "rental_uris": {"ios": "https://dc.lft.to/lastmile_qr_scan", "android": "https://dc.lft.to/lastmile_qr_scan"}, "fusion_lat": 0.0}, {"lat": 38.899221, "lon": -76.9337625, "is_disabled": 0, "fusion_lon": 0.0, "is_reserved": 0, "name": "00e60c1fba3b7a1e3530635ac2f3df84", "type": "electric_scooter", "bike_id": "00e60c1fba3b7a1e3530635ac2f3df84", "rental_uris": {"ios": "https://dc.lft.to/lastmile_qr_scan", "android": "https://dc.lft.to/lastmile_qr_scan"}, "fusion_lat": 0.0}, {"lat": 38.938341333333334, "lon": -76.98997366666667, "is_disabled": 0, "fusion_lon": 0.0, "is_reserved": 0, "name": "ac0990e8cff71884d242d236c84c6e57", "type": "electric_scooter", "bike_id": "ac0990e8cff71884d242d236c84c6e57", "rental_uris": {"ios": "https://dc.lft.to/lastmile_qr_scan", "android": "https://dc.lft.to/lastmile_qr_scan"}, "fusion_lat": 0.0}, {"lat": 38.91633616666667, "lon": -77.01587783333333, "is_disabled": 0, "fusion_lon": 0.0, "is_reserved": 0, "name": "d8fb6933b9eda3684e8a23fb50ab75fc", "type": "electric_scooter", "bike_id": "d8fb6933b9eda3684e8a23fb50ab75fc", "rental_uris": {"ios": "https://dc.lft.to/lastmile_qr_scan", "android": "https://dc.lft.to/lastmile_qr_scan"}, "fusion_lat": 0.0}, {"lat": 38.910495833333336, "lon": -77.04287366666667, "is_disabled": 0, "fusion_lon": 0.0, "is_reserved": 0, "name": "c40993c3a04a51365550ba37667ec6af", "type": "electric_scooter", "bike_id": "c40993c3a04a51365550ba37667ec6af", "rental_uris": {"ios": "https://dc.lft.to/lastmile_qr_scan", "android": "https://dc.lft.to/lastmile_qr_scan"}, "fusion_lat": 0.0}, {"lat": 38.92112216666666, "lon": -77.047082, "is_disabled": 0, "fusion_lon": 0.0, "is_reserved": 0, "name": "459b5a0f028ff8da41aed72acb7f642f", "type": "electric_scooter", "bike_id": "459b5a0f028ff8da41aed72acb7f642f", "rental_uris": {"ios": "https://dc.lft.to/lastmile_qr_scan", "android": "https://dc.lft.to/lastmile_qr_scan"}, "fusion_lat": 0.0}, {"lat": 38.87497966666667, "lon": -76.9997435, "is_disabled": 0, "fusion_lon": 0.0, "is_reserved": 0, "name": "6f241e44bc963b655a6b1b9ae62ff9be", "type": "electric_scooter", "bike_id": "6f241e44bc963b655a6b1b9ae62ff9be", "rental_uris": {"ios": "https://dc.lft.to/lastmile_qr_scan", "android": "https://dc.lft.to/lastmile_qr_scan"}, "fusion_lat": 0.0}, {"lat": 38.919996166666664, "lon": -77.02527166666667, "is_disabled": 0, "fusion_lon": 0.0, "is_reserved": 0, "name": "95ba634270057b07a73b49cad3a29fe0", "type": "electric_scooter", "bike_id": "95ba634270057b07a73b49cad3a29fe0", "rental_uris": {"ios": "https://dc.lft.to/lastmile_qr_scan", "android": "https://dc.lft.to/lastmile_qr_scan"}, "fusion_lat": 0.0}, {"lat": 38.9230445, "lon": -77.03528183333333, "is_disabled": 0, "fusion_lon": 0.0, "is_reserved": 0, "name": "45e30ed5d02af1c58616aa3114dce61d", "type": "electric_scooter", "bike_id": "45e30ed5d02af1c58616aa3114dce61d", "rental_uris": {"ios": "https://dc.lft.to/lastmile_qr_scan", "android": "https://dc.lft.to/lastmile_qr_scan"}, "fusion_lat": 0.0}, {"lat": 38.9112115, "lon": -77.04324233333334, "is_disabled": 0, "fusion_lon": 0.0, "is_reserved": 0, "name": "e851b79f17164f34eacaf7d0b5a6a996", "type": "electric_scooter", "bike_id": "e851b79f17164f34eacaf7d0b5a6a996", "rental_uris": {"ios": "https://dc.lft.to/lastmile_qr_scan", "android": "https://dc.lft.to/lastmile_qr_scan"}, "fusion_lat": 0.0}, {"lat": 39.01486116666667, "lon": -77.099476, "is_disabled": 0, "fusion_lon": 0.0, "is_reserved": 0, "name": "362c2cfe0b7a3c15c1260a30d2e45b20", "type": "electric_bike", "bike_id": "362c2cfe0b7a3c15c1260a30d2e45b20", "rental_uris": {"ios": "https://dc.lft.to/lastmile_qr_scan", "android": "https://dc.lft.to/lastmile_qr_scan"}, "fusion_lat": 0.0}, {"lat": 38.924575833333336, "lon": -77.0519625, "is_disabled": 0, "fusion_lon": 0.0, "is_reserved": 0, "name": "748951d90625e729ce3ecc17511fe345", "type": "electric_scooter", "bike_id": "748951d90625e729ce3ecc17511fe345", "rental_uris": {"ios": "https://dc.lft.to/lastmile_qr_scan", "android": "https://dc.lft.to/lastmile_qr_scan"}, "fusion_lat": 0.0}, {"lat": 38.9155715, "lon": -77.03251366666667, "is_disabled": 0, "fusion_lon": 0.0, "is_reserved": 0, "name": "ad488e3cf53d221869c7120f88b2901a", "type": "electric_scooter", "bike_id": "ad488e3cf53d221869c7120f88b2901a", "rental_uris": {"ios": "https://dc.lft.to/lastmile_qr_scan", "android": "https://dc.lft.to/lastmile_qr_scan"}, "fusion_lat": 0.0}, {"lat": 38.92971583333333, "lon": -77.02331333333333, "is_disabled": 0, "fusion_lon": 0.0, "is_reserved": 0, "name": "09f31876be5c9518cfc74dcd919d12b7", "type": "electric_scooter", "bike_id": "09f31876be5c9518cfc74dcd919d12b7", "rental_uris": {"ios": "https://dc.lft.to/lastmile_qr_scan", "android": "https://dc.lft.to/lastmile_qr_scan"}, "fusion_lat": 0.0}, {"lat": 38.91024433333333, "lon": -76.99725366666667, "is_disabled": 0, "fusion_lon": 0.0, "is_reserved": 0, "name": "608e00f3b6b3292fb6a0c182f08f4bd3", "type": "electric_scooter", "bike_id": "608e00f3b6b3292fb6a0c182f08f4bd3", "rental_uris": {"ios": "https://dc.lft.to/lastmile_qr_scan", "android": "https://dc.lft.to/lastmile_qr_scan"}, "fusion_lat": 0.0}, {"lat": 38.9038875, "lon": -77.01982, "is_disabled": 0, "fusion_lon": 0.0, "is_reserved": 0, "name": "28b008d2cea7af81a481f663bb8d9ac5", "type": "electric_scooter", "bike_id": "28b008d2cea7af81a481f663bb8d9ac5", "rental_uris": {"ios": "https://dc.lft.to/lastmile_qr_scan", "android": "https://dc.lft.to/lastmile_qr_scan"}, "fusion_lat": 0.0}, {"lat": 38.87821116666667, "lon": -77.00577533333333, "is_disabled": 0, "fusion_lon": 0.0, "is_reserved": 0, "name": "769b7abb05430629e0bee14936159d15", "type": "electric_scooter", "bike_id": "769b7abb05430629e0bee14936159d15", "rental_uris": {"ios": "https://dc.lft.to/lastmile_qr_scan", "android": "https://dc.lft.to/lastmile_qr_scan"}, "fusion_lat": 0.0}, {"lat": 38.9086545, "lon": -76.99157416666667, "is_disabled": 0, "fusion_lon": 0.0, "is_reserved": 0, "name": "4132f180c830f90f6479b1344709569c", "type": "electric_scooter", "bike_id": "4132f180c830f90f6479b1344709569c", "rental_uris": {"ios": "https://dc.lft.to/lastmile_qr_scan", "android": "https://dc.lft.to/lastmile_qr_scan"}, "fusion_lat": 0.0}, {"lat": 38.90170833333333, "lon": -77.0268645, "is_disabled": 0, "fusion_lon": 0.0, "is_reserved": 0, "name": "d0ef280f1f9f5b9e1f11872f990829c9", "type": "electric_scooter", "bike_id": "d0ef280f1f9f5b9e1f11872f990829c9", "rental_uris": {"ios": "https://dc.lft.to/lastmile_qr_scan", "android": "https://dc.lft.to/lastmile_qr_scan"}, "fusion_lat": 0.0}, {"lat": 38.901339666666665, "lon": -77.03253833333333, "is_disabled": 0, "fusion_lon": 0.0, "is_reserved": 0, "name": "a3e3a7b6c5aba802cc1fbca7ba760094", "type": "electric_bike", "bike_id": "a3e3a7b6c5aba802cc1fbca7ba760094", "rental_uris": {"ios": "https://dc.lft.to/lastmile_qr_scan", "android": "https://dc.lft.to/lastmile_qr_scan"}, "fusion_lat": 0.0}, {"lat": 38.94276116666666, "lon": -77.03259866666667, "is_disabled": 0, "fusion_lon": 0.0, "is_reserved": 0, "name": "30b8d85f2fbf33262635242cb8cb6f3f", "type": "electric_scooter", "bike_id": "30b8d85f2fbf33262635242cb8cb6f3f", "rental_uris": {"ios": "https://dc.lft.to/lastmile_qr_scan", "android": "https://dc.lft.to/lastmile_qr_scan"}, "fusion_lat": 0.0}, {"lat": 38.87038916666667, "lon": -77.22905833333333, "is_disabled": 0, "fusion_lon": 0.0, "is_reserved": 0, "name": "f5c11270caede738e7a23c5ade0c032b", "type": "electric_bike", "bike_id": "f5c11270caede738e7a23c5ade0c032b", "rental_uris": {"ios": "https://dc.lft.to/lastmile_qr_scan", "android": "https://dc.lft.to/lastmile_qr_scan"}, "fusion_lat": 0.0}, {"lat": 38.919229666666666, "lon": -77.032654, "is_disabled": 0, "fusion_lon": 0.0, "is_reserved": 0, "name": "28c66b3fdb3f8081b3b5bcec2111667f", "type": "electric_scooter", "bike_id": "28c66b3fdb3f8081b3b5bcec2111667f", "rental_uris": {"ios": "https://dc.lft.to/lastmile_qr_scan", "android": "https://dc.lft.to/lastmile_qr_scan"}, "fusion_lat": 0.0}, {"lat": 38.90273883333333, "lon": -77.04593983333334, "is_disabled": 0, "fusion_lon": 0.0, "is_reserved": 0, "name": "0932c45de8ba000bc6d95e5b7811fe45", "type": "electric_scooter", "bike_id": "0932c45de8ba000bc6d95e5b7811fe45", "rental_uris": {"ios": "https://dc.lft.to/lastmile_qr_scan", "android": "https://dc.lft.to/lastmile_qr_scan"}, "fusion_lat": 0.0}, {"lat": 38.923652, "lon": -77.02112933333333, "is_disabled": 0, "fusion_lon": 0.0, "is_reserved": 0, "name": "07bd17366fb4d22a4cb4f91565d8f266", "type": "electric_scooter", "bike_id": "07bd17366fb4d22a4cb4f91565d8f266", "rental_uris": {"ios": "https://dc.lft.to/lastmile_qr_scan", "android": "https://dc.lft.to/lastmile_qr_scan"}, "fusion_lat": 0.0}, {"lat": 38.907121833333335, "lon": -77.0760255, "is_disabled": 0, "fusion_lon": 0.0, "is_reserved": 0, "name": "ef069e3d35ca7d1b403698c40531ed56", "type": "electric_scooter", "bike_id": "ef069e3d35ca7d1b403698c40531ed56", "rental_uris": {"ios": "https://dc.lft.to/lastmile_qr_scan", "android": "https://dc.lft.to/lastmile_qr_scan"}, "fusion_lat": 0.0}, {"lat": 38.889349333333335, "lon": -76.993695, "is_disabled": 0, "fusion_lon": 0.0, "is_reserved": 0, "name": "ebbb4e85072117952fb605cdc5b37e87", "type": "electric_scooter", "bike_id": "ebbb4e85072117952fb605cdc5b37e87", "rental_uris": {"ios": "https://dc.lft.to/lastmile_qr_scan", "android": "https://dc.lft.to/lastmile_qr_scan"}, "fusion_lat": 0.0}, {"lat": 38.88759683333333, "lon": -76.9960505, "is_disabled": 0, "fusion_lon": 0.0, "is_reserved": 0, "name": "863d1bc767a33fb0627b67a5a0331917", "type": "electric_scooter", "bike_id": "863d1bc767a33fb0627b67a5a0331917", "rental_uris": {"ios": "https://dc.lft.to/lastmile_qr_scan", "android": "https://dc.lft.to/lastmile_qr_scan"}, "fusion_lat": 0.0}, {"lat": 38.897474833333334, "lon": -77.04623833333333, "is_disabled": 0, "fusion_lon": 0.0, "is_reserved": 0, "name": "6df7b2dd52a5f29794a10a17cbec6639", "type": "electric_scooter", "bike_id": "6df7b2dd52a5f29794a10a17cbec6639", "rental_uris": {"ios": "https://dc.lft.to/lastmile_qr_scan", "android": "https://dc.lft.to/lastmile_qr_scan"}, "fusion_lat": 0.0}, {"lat": 38.8475995, "lon": -76.99499783333333, "is_disabled": 0, "fusion_lon": 0.0, "is_reserved": 0, "name": "f679b10744bf898ceb67937dd51bbc3f", "type": "electric_scooter", "bike_id": "f679b10744bf898ceb67937dd51bbc3f", "rental_uris": {"ios": "https://dc.lft.to/lastmile_qr_scan", "android": "https://dc.lft.to/lastmile_qr_scan"}, "fusion_lat": 0.0}, {"lat": 38.903731, "lon": -77.03152566666667, "is_disabled": 0, "fusion_lon": 0.0, "is_reserved": 0, "name": "3af2ac66e5ca34d87b100af12801ab21", "type": "electric_scooter", "bike_id": "3af2ac66e5ca34d87b100af12801ab21", "rental_uris": {"ios": "https://dc.lft.to/lastmile_qr_scan", "android": "https://dc.lft.to/lastmile_qr_scan"}, "fusion_lat": 0.0}, {"lat": 38.90745066666667, "lon": -77.01311033333333, "is_disabled": 0, "fusion_lon": 0.0, "is_reserved": 0, "name": "1aebc431f7f512d307b64b53acfba605", "type": "electric_scooter", "bike_id": "1aebc431f7f512d307b64b53acfba605", "rental_uris": {"ios": "https://dc.lft.to/lastmile_qr_scan", "android": "https://dc.lft.to/lastmile_qr_scan"}, "fusion_lat": 0.0}, {"lat": 38.9239, "lon": -77.03669316666667, "is_disabled": 0, "fusion_lon": 0.0, "is_reserved": 0, "name": "03100c5cefa16db3a12cf02f151a7499", "type": "electric_scooter", "bike_id": "03100c5cefa16db3a12cf02f151a7499", "rental_uris": {"ios": "https://dc.lft.to/lastmile_qr_scan", "android": "https://dc.lft.to/lastmile_qr_scan"}, "fusion_lat": 0.0}, {"lat": 38.89857533333333, "lon": -77.01370333333334, "is_disabled": 0, "fusion_lon": 0.0, "is_reserved": 0, "name": "6890972f9d749ef5233922605ebc093a", "type": "electric_scooter", "bike_id": "6890972f9d749ef5233922605ebc093a", "rental_uris": {"ios": "https://dc.lft.to/lastmile_qr_scan", "android": "https://dc.lft.to/lastmile_qr_scan"}, "fusion_lat": 0.0}, {"lat": 38.897032833333334, "lon": -76.963076, "is_disabled": 0, "fusion_lon": 0.0, "is_reserved": 0, "name": "263fb60a808ca6600ed04ed3275e11fb", "type": "electric_bike", "bike_id": "263fb60a808ca6600ed04ed3275e11fb", "rental_uris": {"ios": "https://dc.lft.to/lastmile_qr_scan", "android": "https://dc.lft.to/lastmile_qr_scan"}, "fusion_lat": 0.0}, {"lat": 38.924513833333336, "lon": -76.989861, "is_disabled": 0, "fusion_lon": 0.0, "is_reserved": 0, "name": "96c0783a656abad0fe270b23871ecfee", "type": "electric_scooter", "bike_id": "96c0783a656abad0fe270b23871ecfee", "rental_uris": {"ios": "https://dc.lft.to/lastmile_qr_scan", "android": "https://dc.lft.to/lastmile_qr_scan"}, "fusion_lat": 0.0}, {"lat": 38.906535166666664, "lon": -77.01416516666667, "is_disabled": 0, "fusion_lon": 0.0, "is_reserved": 0, "name": "4b698bf0181a2559abadb47a0f1dc8d0", "type": "electric_scooter", "bike_id": "4b698bf0181a2559abadb47a0f1dc8d0", "rental_uris": {"ios": "https://dc.lft.to/lastmile_qr_scan", "android": "https://dc.lft.to/lastmile_qr_scan"}, "fusion_lat": 0.0}, {"lat": 38.904893666666666, "lon": -76.98879083333334, "is_disabled": 0, "fusion_lon": 0.0, "is_reserved": 0, "name": "12546008e852920a405647afe083a5cb", "type": "electric_scooter", "bike_id": "12546008e852920a405647afe083a5cb", "rental_uris": {"ios": "https://dc.lft.to/lastmile_qr_scan", "android": "https://dc.lft.to/lastmile_qr_scan"}, "fusion_lat": 0.0}, {"lat": 38.9037805, "lon": -77.0502485, "is_disabled": 0, "fusion_lon": 0.0, "is_reserved": 0, "name": "048f6a2638f85ea0bcbf0e6477f44f5e", "type": "electric_scooter", "bike_id": "048f6a2638f85ea0bcbf0e6477f44f5e", "rental_uris": {"ios": "https://dc.lft.to/lastmile_qr_scan", "android": "https://dc.lft.to/lastmile_qr_scan"}, "fusion_lat": 0.0}, {"lat": 38.93024466666667, "lon": -77.0277525, "is_disabled": 0, "fusion_lon": 0.0, "is_reserved": 0, "name": "9ba9da68f19c42aca737cc098e1bbfa1", "type": "electric_scooter", "bike_id": "9ba9da68f19c42aca737cc098e1bbfa1", "rental_uris": {"ios": "https://dc.lft.to/lastmile_qr_scan", "android": "https://dc.lft.to/lastmile_qr_scan"}, "fusion_lat": 0.0}, {"lat": 38.92321333333334, "lon": -77.03973033333334, "is_disabled": 0, "fusion_lon": 0.0, "is_reserved": 0, "name": "be12ec4310c5d4eb982a55dbbfbf6b5f", "type": "electric_scooter", "bike_id": "be12ec4310c5d4eb982a55dbbfbf6b5f", "rental_uris": {"ios": "https://dc.lft.to/lastmile_qr_scan", "android": "https://dc.lft.to/lastmile_qr_scan"}, "fusion_lat": 0.0}, {"lat": 38.9180325, "lon": -77.02485816666666, "is_disabled": 0, "fusion_lon": 0.0, "is_reserved": 0, "name": "db43079e0388e969d35740aba981662a", "type": "electric_scooter", "bike_id": "db43079e0388e969d35740aba981662a", "rental_uris": {"ios": "https://dc.lft.to/lastmile_qr_scan", "android": "https://dc.lft.to/lastmile_qr_scan"}, "fusion_lat": 0.0}, {"lat": 38.909879833333335, "lon": -77.0319945, "is_disabled": 0, "fusion_lon": 0.0, "is_reserved": 0, "name": "7882e8d7edbc4ea7ef2bc1fc874ac83c", "type": "electric_scooter", "bike_id": "7882e8d7edbc4ea7ef2bc1fc874ac83c", "rental_uris": {"ios": "https://dc.lft.to/lastmile_qr_scan", "android": "https://dc.lft.to/lastmile_qr_scan"}, "fusion_lat": 0.0}, {"lat": 38.9191295, "lon": -77.02366783333333, "is_disabled": 0, "fusion_lon": 0.0, "is_reserved": 0, "name": "46ee310b563fae83ca8ae5c19e3489c9", "type": "electric_scooter", "bike_id": "46ee310b563fae83ca8ae5c19e3489c9", "rental_uris": {"ios": "https://dc.lft.to/lastmile_qr_scan", "android": "https://dc.lft.to/lastmile_qr_scan"}, "fusion_lat": 0.0}, {"lat": 38.916386833333334, "lon": -77.05075316666667, "is_disabled": 0, "fusion_lon": 0.0, "is_reserved": 0, "name": "23700814cd55a0ce6c7fd02d9786a74d", "type": "electric_scooter", "bike_id": "23700814cd55a0ce6c7fd02d9786a74d", "rental_uris": {"ios": "https://dc.lft.to/lastmile_qr_scan", "android": "https://dc.lft.to/lastmile_qr_scan"}, "fusion_lat": 0.0}, {"lat": 38.90024833333333, "lon": -76.993108, "is_disabled": 0, "fusion_lon": 0.0, "is_reserved": 0, "name": "453d14261f88a8e851f8a03a7e6b460d", "type": "electric_scooter", "bike_id": "453d14261f88a8e851f8a03a7e6b460d", "rental_uris": {"ios": "https://dc.lft.to/lastmile_qr_scan", "android": "https://dc.lft.to/lastmile_qr_scan"}, "fusion_lat": 0.0}, {"lat": 38.93703216666667, "lon": -77.02120133333334, "is_disabled": 0, "fusion_lon": 0.0, "is_reserved": 0, "name": "91a971d455d136426b0eb6b7a38ad3c7", "type": "electric_scooter", "bike_id": "91a971d455d136426b0eb6b7a38ad3c7", "rental_uris": {"ios": "https://dc.lft.to/lastmile_qr_scan", "android": "https://dc.lft.to/lastmile_qr_scan"}, "fusion_lat": 0.0}, {"lat": 38.923269, "lon": -77.02695866666667, "is_disabled": 0, "fusion_lon": 0.0, "is_reserved": 0, "name": "d6aa8f21e8f617d16095a70b3faacc16", "type": "electric_scooter", "bike_id": "d6aa8f21e8f617d16095a70b3faacc16", "rental_uris": {"ios": "https://dc.lft.to/lastmile_qr_scan", "android": "https://dc.lft.to/lastmile_qr_scan"}, "fusion_lat": 0.0}, {"lat": 38.90184683333333, "lon": -77.02627483333333, "is_disabled": 0, "fusion_lon": 0.0, "is_reserved": 0, "name": "34e06c2df6c59873c2eee734c9f1a0bd", "type": "electric_scooter", "bike_id": "34e06c2df6c59873c2eee734c9f1a0bd", "rental_uris": {"ios": "https://dc.lft.to/lastmile_qr_scan", "android": "https://dc.lft.to/lastmile_qr_scan"}, "fusion_lat": 0.0}, {"lat": 38.90663083333333, "lon": -77.02692883333333, "is_disabled": 0, "fusion_lon": 0.0, "is_reserved": 0, "name": "cd569f6f09b3dedfef6614d93f0a6c31", "type": "electric_scooter", "bike_id": "cd569f6f09b3dedfef6614d93f0a6c31", "rental_uris": {"ios": "https://dc.lft.to/lastmile_qr_scan", "android": "https://dc.lft.to/lastmile_qr_scan"}, "fusion_lat": 0.0}, {"lat": 38.9171985, "lon": -77.02709133333333, "is_disabled": 0, "fusion_lon": 0.0, "is_reserved": 0, "name": "d7808634534ed9fe4fc4c1c5dba3e2a9", "type": "electric_scooter", "bike_id": "d7808634534ed9fe4fc4c1c5dba3e2a9", "rental_uris": {"ios": "https://dc.lft.to/lastmile_qr_scan", "android": "https://dc.lft.to/lastmile_qr_scan"}, "fusion_lat": 0.0}, {"lat": 38.8935985, "lon": -76.98655733333334, "is_disabled": 0, "fusion_lon": 0.0, "is_reserved": 0, "name": "eaafafc10087ccc1e7f10cd1f68b78af", "type": "electric_scooter", "bike_id": "eaafafc10087ccc1e7f10cd1f68b78af", "rental_uris": {"ios": "https://dc.lft.to/lastmile_qr_scan", "android": "https://dc.lft.to/lastmile_qr_scan"}, "fusion_lat": 0.0}, {"lat": 38.92174466666667, "lon": -77.03829316666666, "is_disabled": 0, "fusion_lon": 0.0, "is_reserved": 0, "name": "69cd0b58c5cf39442f5a5fb3cc3db8ea", "type": "electric_scooter", "bike_id": "69cd0b58c5cf39442f5a5fb3cc3db8ea", "rental_uris": {"ios": "https://dc.lft.to/lastmile_qr_scan", "android": "https://dc.lft.to/lastmile_qr_scan"}, "fusion_lat": 0.0}, {"lat": 38.958036, "lon": -77.01511516666666, "is_disabled": 0, "fusion_lon": 0.0, "is_reserved": 0, "name": "31754d94c925ec2b0b8cffc1087f470e", "type": "electric_scooter", "bike_id": "31754d94c925ec2b0b8cffc1087f470e", "rental_uris": {"ios": "https://dc.lft.to/lastmile_qr_scan", "android": "https://dc.lft.to/lastmile_qr_scan"}, "fusion_lat": 0.0}, {"lat": 38.898278, "lon": -76.94654566666667, "is_disabled": 0, "fusion_lon": 0.0, "is_reserved": 0, "name": "06c1a1a9aa5ee07bba694876661f612f", "type": "electric_scooter", "bike_id": "06c1a1a9aa5ee07bba694876661f612f", "rental_uris": {"ios": "https://dc.lft.to/lastmile_qr_scan", "android": "https://dc.lft.to/lastmile_qr_scan"}, "fusion_lat": 0.0}, {"lat": 38.90518483333334, "lon": -77.04786016666667, "is_disabled": 0, "fusion_lon": 0.0, "is_reserved": 0, "name": "7483db4ad4f6eff5075a5add29427272", "type": "electric_scooter", "bike_id": "7483db4ad4f6eff5075a5add29427272", "rental_uris": {"ios": "https://dc.lft.to/lastmile_qr_scan", "android": "https://dc.lft.to/lastmile_qr_scan"}, "fusion_lat": 0.0}, {"lat": 38.90783533333333, "lon": -77.071688, "is_disabled": 0, "fusion_lon": 0.0, "is_reserved": 0, "name": "47b0f04758a4bf7edfcc3084aece8031", "type": "electric_scooter", "bike_id": "47b0f04758a4bf7edfcc3084aece8031", "rental_uris": {"ios": "https://dc.lft.to/lastmile_qr_scan", "android": "https://dc.lft.to/lastmile_qr_scan"}, "fusion_lat": 0.0}, {"lat": 38.9196, "lon": -76.9918565, "is_disabled": 0, "fusion_lon": 0.0, "is_reserved": 0, "name": "7c4c90818e5b2e2aea72a8d72df42d0d", "type": "electric_bike", "bike_id": "7c4c90818e5b2e2aea72a8d72df42d0d", "rental_uris": {"ios": "https://dc.lft.to/lastmile_qr_scan", "android": "https://dc.lft.to/lastmile_qr_scan"}, "fusion_lat": 0.0}, {"lat": 38.89596066666667, "lon": -77.00606733333333, "is_disabled": 0, "fusion_lon": 0.0, "is_reserved": 0, "name": "d828e69f89fd43ff87ef149da7aa0b66", "type": "electric_scooter", "bike_id": "d828e69f89fd43ff87ef149da7aa0b66", "rental_uris": {"ios": "https://dc.lft.to/lastmile_qr_scan", "android": "https://dc.lft.to/lastmile_qr_scan"}, "fusion_lat": 0.0}, {"lat": 38.908911, "lon": -77.04419883333334, "is_disabled": 0, "fusion_lon": 0.0, "is_reserved": 0, "name": "bf1fb793190054bc1f3b91cb5570e71a", "type": "electric_scooter", "bike_id": "bf1fb793190054bc1f3b91cb5570e71a", "rental_uris": {"ios": "https://dc.lft.to/lastmile_qr_scan", "android": "https://dc.lft.to/lastmile_qr_scan"}, "fusion_lat": 0.0}, {"lat": 38.9009405, "lon": -77.02299216666667, "is_disabled": 0, "fusion_lon": 0.0, "is_reserved": 0, "name": "31e903e1548bbfee9f641ac8f64c1ae7", "type": "electric_scooter", "bike_id": "31e903e1548bbfee9f641ac8f64c1ae7", "rental_uris": {"ios": "https://dc.lft.to/lastmile_qr_scan", "android": "https://dc.lft.to/lastmile_qr_scan"}, "fusion_lat": 0.0}, {"lat": 38.9005495, "lon": -77.0449095, "is_disabled": 0, "fusion_lon": 0.0, "is_reserved": 0, "name": "074545f6108c90476c26e79e52c7c872", "type": "electric_scooter", "bike_id": "074545f6108c90476c26e79e52c7c872", "rental_uris": {"ios": "https://dc.lft.to/lastmile_qr_scan", "android": "https://dc.lft.to/lastmile_qr_scan"}, "fusion_lat": 0.0}, {"lat": 38.980511166666666, "lon": -76.95786816666667, "is_disabled": 0, "fusion_lon": 0.0, "is_reserved": 0, "name": "c24ed745fd634564d1ab014a08b7fe1c", "type": "electric_bike", "bike_id": "c24ed745fd634564d1ab014a08b7fe1c", "rental_uris": {"ios": "https://dc.lft.to/lastmile_qr_scan", "android": "https://dc.lft.to/lastmile_qr_scan"}, "fusion_lat": 0.0}, {"lat": 38.9100385, "lon": -77.04005883333333, "is_disabled": 0, "fusion_lon": 0.0, "is_reserved": 0, "name": "8f575d9d2481b3952d92c54abdba1dab", "type": "electric_scooter", "bike_id": "8f575d9d2481b3952d92c54abdba1dab", "rental_uris": {"ios": "https://dc.lft.to/lastmile_qr_scan", "android": "https://dc.lft.to/lastmile_qr_scan"}, "fusion_lat": 0.0}, {"lat": 38.961331666666666, "lon": -77.02796633333334, "is_disabled": 0, "fusion_lon": 0.0, "is_reserved": 0, "name": "c432bc19914cd3537f2bc40b8b32f102", "type": "electric_scooter", "bike_id": "c432bc19914cd3537f2bc40b8b32f102", "rental_uris": {"ios": "https://dc.lft.to/lastmile_qr_scan", "android": "https://dc.lft.to/lastmile_qr_scan"}, "fusion_lat": 0.0}, {"lat": 38.900770333333334, "lon": -77.02616983333333, "is_disabled": 0, "fusion_lon": 0.0, "is_reserved": 0, "name": "080fa766e5cb239e10e9a0926041464f", "type": "electric_scooter", "bike_id": "080fa766e5cb239e10e9a0926041464f", "rental_uris": {"ios": "https://dc.lft.to/lastmile_qr_scan", "android": "https://dc.lft.to/lastmile_qr_scan"}, "fusion_lat": 0.0}, {"lat": 38.9345885, "lon": -77.02911966666667, "is_disabled": 0, "fusion_lon": 0.0, "is_reserved": 0, "name": "c26488a844b784c89483d3929c1778de", "type": "electric_scooter", "bike_id": "c26488a844b784c89483d3929c1778de", "rental_uris": {"ios": "https://dc.lft.to/lastmile_qr_scan", "android": "https://dc.lft.to/lastmile_qr_scan"}, "fusion_lat": 0.0},