{"data": {"bikes": [{"lat": 38.90710216666667, "lon": -77.04345183333334, "is_disabled": 0, "fusion_lon": 0.0, "is_reserved": 0, "name": "f2301983cb42e01fb94ce5af0718a7f0", "type": "electric_scooter", "bike_id": "f2301983cb42e01fb94ce5af0718a7f0", "rental_uris": {"ios": "https://dc.lft.to/lastmile_qr_scan", "android": "https://dc.lft.to/lastmile_qr_scan"}, "fusion_lat": 0.0}, {"lat": 38.907365, "lon": -77.02802533333333, "is_disabled": 0, "fusion_lon": 0.0, "is_reserved": 0, "name": "652ddb9bde393b4a2ac78c99d0a098bc", "type": "electric_scooter", "bike_id": "652ddb9bde393b4a2ac78c99d0a098bc", "rental_uris": {"ios": "https://dc.lft.to/lastmile_qr_scan", "android": "https://dc.lft.to/lastmile_qr_scan"}, "fusion_lat": 0.0}, {"lat": 38.917070833333334, "lon": -77.032438, "is_disabled": 0, "fusion_lon": 0.0, "is_reserved": 0, "name": "74fc6d86ec32b08bac79ff2d65592b45", "type": "electric_scooter", "bike_id": "74fc6d86ec32b08bac79ff2d65592b45", "rental_uris": {"ios": "https://dc.lft.to/lastmile_qr_scan", "android": "https://dc.lft.to/lastmile_qr_scan"}, "fusion_lat": 0.0}, {"lat": 38.8600165, "lon": -77.0575735, "is_disabled": 0, "fusion_lon": 0.0, "is_reserved": 0, "name": "6481fd742b8fbaa3f0033f42deb30789", "type": "electric_bike", "bike_id": "6481fd742b8fbaa3f0033f42deb30789", "rental_uris": {"ios": "https://dc.lft.to/lastmile_qr_scan", "android": "https://dc.lft.to/lastmile_qr_scan"}, "fusion_lat": 0.0}, {"lat": 38.997786, "lon": -77.04719316666667, "is_disabled": 0, "fusion_lon": 0.0, "is_reserved": 0, "name": "6471a27bab40168b98a7dff95b222ca9", "type": "electric_bike", "bike_id": "6471a27bab40168b98a7dff95b222ca9", "rental_uris": {"ios": "https://dc.lft.to/lastmile_qr_scan", "android": "https://dc.lft.to/lastmile_qr_scan"}, "fusion_lat": 0.0}, {"lat": 38.92435366666667, "lon": -77.04036166666667, "is_disabled": 0, "fusion_lon": 0.0, "is_reserved": 0, "name": "8153e49bb2db5b953660752c9f12e4d3", "type": "electric_scooter", "bike_id": "8153e49bb2db5b953660752c9f12e4d3", "rental_uris": {"ios": "https://dc.lft.to/lastmile_qr_scan", "android": "https://dc.lft.to/lastmile_qr_scan"}, "fusion_lat": 0.0}, {"lat": 38.919607166666665, "lon": -77.01490316666667, "is_disabled": 0, "fusion_lon": 0.0, "is_reserved": 0, "name": "0ff772161ed23d9cbf7a4bf2d3a02ecc", "type": "electric_scooter", "bike_id": "0ff772161ed23d9cbf7a4bf2d3a02ecc", "rental_uris": {"ios": "https://dc.lft.to/lastmile_qr_scan", "android": "https://dc.lft.to/lastmile_qr_scan"}, "fusion_lat": 0.0}, {"lat": 38.94284666666667, "lon": -77.02928366666667, "is_disabled": 0, "fusion_lon": 0.0, "is_reserved": 0, "name": "423b444b4ce66d1f56ec463657a4745b", "type": "electric_scooter", "bike_id": "423b444b4ce66d1f56ec463657a4745b", "rental_uris": {"ios": "https://dc.lft.to/lastmile_qr_scan", "android": "https://dc.lft.to/lastmile_qr_scan"}, "fusion_lat": 0.0}, {"lat": 38.89236916666667, "lon": -77.03189666666667, "is_disabled": 0, "fusion_lon": 0.0, "is_reserved": 0, "name": "0cc0c0c032f60844263a9856a0861bdb", "type": "electric_scooter", "bike_id": "0cc0c0c032f60844263a9856a0861bdb", "rental_uris": {"ios": "https://dc.lft.to/lastmile_qr_scan", "android": "https://dc.lft.to/lastmile_qr_scan"}, "fusion_lat": 0.0}, {"lat": 38.9202465, "lon": -77.0716005, "is_disabled": 0, "fusion_lon": 0.0, "is_reserved": 0, "name": "067f8239d10cc8e021136359f2f2c12f", "type": "electric_scooter", "bike_id": "067f8239d10cc8e021136359f2f2c12f", "rental_uris": {"ios": "https://dc.lft.to/lastmile_qr_scan", "android": "https://dc.lft.to/lastmile_qr_scan"}, "fusion_lat": 0.0}, {"lat": 38.923973833333335, "lon": -77.02533583333333, "is_disabled": 0, "fusion_lon": 0.0, "is_reserved": 0, "name": "7dc17a5134975484caec52954b07cc14", "type": "electric_scooter", "bike_id": "7dc17a5134975484caec52954b07cc14", "rental_uris": {"ios": "https://dc.lft.to/lastmile_qr_scan", "android": "https://dc.lft.to/lastmile_qr_scan"}, "fusion_lat": 0.0}, {"lat": 38.909948666666665, "lon": -77.07352216666666, "is_disabled": 0, "fusion_lon": 0.0, "is_reserved": 0, "name": "c408066bb3e9e039b4df9a844b0e5ea0", "type": "electric_scooter", "bike_id": "c408066bb3e9e039b4df9a844b0e5ea0", "rental_uris": {"ios": "https://dc.lft.to/lastmile_qr_scan", "android": "https://dc.lft.to/lastmile_qr_scan"}, "fusion_lat": 0.0}, {"lat": 38.922068, "lon": -77.08196166666667, "is_disabled": 0, "fusion_lon": 0.0, "is_reserved": 0, "name": "3e9bf2dc04ea0c4373cf1929e74a3b0b", "type": "electric_bike", "bike_id": "3e9bf2dc04ea0c4373cf1929e74a3b0b", "rental_uris": {"ios": "https://dc.lft.to/lastmile_qr_scan", "android": "https://dc.lft.to/lastmile_qr_scan"}, "fusion_lat": 0.0}, {"lat": 38.9213785, "lon": -77.0352345, "is_disabled": 0, "fusion_lon": 0.0, "is_reserved": 0, "name": "acf5af2c99f41b523ee902a02177ac59", "type": "electric_scooter", "bike_id": "acf5af2c99f41b523ee902a02177ac59", "rental_uris": {"ios": "https://dc.lft.to/lastmile_qr_scan", "android": "https://dc.lft.to/lastmile_qr_scan"}, "fusion_lat": 0.0}, {"lat": 38.93966916666667, "lon": -77.03256283333333, "is_disabled": 0, "fusion_lon": 0.0, "is_reserved": 0, "name": "6105533dffc54d4b1537ee210cd7811b", "type": "electric_scooter", "bike_id": "6105533dffc54d4b1537ee210cd7811b", "rental_uris": {"ios": "https://dc.lft.to/lastmile_qr_scan", "android": "https://dc.lft.to/lastmile_qr_scan"}, "fusion_lat": 0.0}, {"lat": 38.8972705, "lon": -77.01762033333333, "is_disabled": 0, "fusion_lon": 0.0, "is_reserved": 0, "name": "6ad2db93d070aa7843d264b5a2ac3866", "type": "electric_scooter", "bike_id": "6ad2db93d070aa7843d264b5a2ac3866", "rental_uris": {"ios": "https://dc.lft.to/lastmile_qr_scan", "android": "https://dc.lft.to/lastmile_qr_scan"}, "fusion_lat": 0.0}, {"lat": 38.9019715, "lon": -77.0216875, "is_disabled": 0, "fusion_lon": 0.0, "is_reserved": 0, "name": "43f7fc29768dfb78fb1e48d0d46feea7", "type": "electric_scooter", "bike_id": "43f7fc29768dfb78fb1e48d0d46feea7", "rental_uris": {"ios": "https://dc.lft.to/lastmile_qr_scan", "android": "https://dc.lft.to/lastmile_qr_scan"}, "fusion_lat": 0.0}, {"lat": 38.924931666666666, "lon": -77.02447766666667, "is_disabled": 0, "fusion_lon": 0.0, "is_reserved": 0, "name": "e605bfe3b6fe33253bd5f5c8d32682b9", "type": "electric_scooter", "bike_id": "e605bfe3b6fe33253bd5f5c8d32682b9", "rental_uris": {"ios": "https://dc.lft.to/lastmile_qr_scan", "android": "https://dc.lft.to/lastmile_qr_scan"}, "fusion_lat": 0.0}, {"lat": 38.899907166666665, "lon": -77.02704766666666, "is_disabled": 0, "fusion_lon": 0.0, "is_reserved": 0, "name": "1d73314fb2c4e16d75d1cdc9faebb2d0", "type": "electric_scooter", "bike_id": "1d73314fb2c4e16d75d1cdc9faebb2d0", "rental_uris": {"ios": "https://dc.lft.to/lastmile_qr_scan", "android": "https://dc.lft.to/lastmile_qr_scan"}, "fusion_lat": 0.0}, {"lat": 38.90307983333334, "lon": -77.06110166666667, "is_disabled": 0, "fusion_lon": 0.0, "is_reserved": 0, "name": "969b6e2229e5b1338617adc0941ad138", "type": "electric_scooter", "bike_id": "969b6e2229e5b1338617adc0941ad138", "rental_uris": {"ios": "https://dc.lft.to/lastmile_qr_scan", "android": "https://dc.lft.to/lastmile_qr_scan"}, "fusion_lat": 0.0}, {"lat": 38.91986283333333, "lon": -77.04162233333334, "is_disabled": 0, "fusion_lon": 0.0, "is_reserved": 0, "name": "c07406345fb5cfe97e93427274e69c58", "type": "electric_scooter", "bike_id": "c07406345fb5cfe97e93427274e69c58", "rental_uris": {"ios": "https://dc.lft.to/lastmile_qr_scan", "android": "https://dc.lft.to/lastmile_qr_scan"}, "fusion_lat": 0.0}, {"lat": 38.917440666666664, "lon": -77.06938583333333, "is_disabled": 0, "fusion_lon": 0.0, "is_reserved": 0, "name": "cc8620695c53c7d4ef7ce3b3e3f28163", "type": "electric_scooter", "bike_id": "cc8620695c53c7d4ef7ce3b3e3f28163", "rental_uris": {"ios": "https://dc.lft.to/lastmile_qr_scan", "android": "https://dc.lft.to/lastmile_qr_scan"}, "fusion_lat": 0.0}, {"lat": 38.878537, "lon": -77.00576383333333, "is_disabled": 0, "fusion_lon": 0.0, "is_reserved": 0, "name": "12f606a75a531504c50a4beb9619b67a", "type": "electric_scooter", "bike_id": "12f606a75a531504c50a4beb9619b67a", "rental_uris": {"ios": "https://dc.lft.to/lastmile_qr_scan", "android": "https://dc.lft.to/lastmile_qr_scan"}, "fusion_lat": 0.0}, {"lat": 38.92258116666667, "lon": -77.0352115, "is_disabled": 0, "fusion_lon": 0.0, "is_reserved": 0, "name": "2b7a12a3ad8f59e76ab08798e8a68d6f", "type": "electric_scooter", "bike_id": "2b7a12a3ad8f59e76ab08798e8a68d6f", "rental_uris": {"ios": "https://dc.lft.to/lastmile_qr_scan", "android": "https://dc.lft.to/lastmile_qr_scan"}, "fusion_lat": 0.0}, {"lat": 38.89815483333334, "lon": -77.006113, "is_disabled": 0, "fusion_lon": 0.0, "is_reserved": 0, "name": "2260353390295da61a6cf483a1f06198", "type": "electric_bike", "bike_id": "2260353390295da61a6cf483a1f06198", "rental_uris": {"ios": "https://dc.lft.to/lastmile_qr_scan", "android": "https://dc.lft.to/lastmile_qr_scan"}, "fusion_lat": 0.0}, {"lat": 38.915688833333334, "lon": -77.02192416666666, "is_disabled": 0, "fusion_lon": 0.0, "is_reserved": 0, "name": "ad5ab8e6fee809fb3388f3ae6c03f744", "type": "electric_scooter", "bike_id": "ad5ab8e6fee809fb3388f3ae6c03f744", "rental_uris": {"ios": "https://dc.lft.to/lastmile_qr_scan", "android": "https://dc.lft.to/lastmile_qr_scan"}, "fusion_lat": 0.0}, {"lat": 38.91110466666667, "lon": -77.04219933333333, "is_disabled": 0, "fusion_lon": 0.0, "is_reserved": 0, "name": "34c95225b50e0279278277ec6604e1b9", "type": "electric_scooter", "bike_id": "34c95225b50e0279278277ec6604e1b9", "rental_uris": {"ios": "https://dc.lft.to/lastmile_qr_scan", "android": "https://dc.lft.to/lastmile_qr_scan"}, "fusion_lat": 0.0}, {"lat": 38.878594666666665, "lon": -77.01760483333334, "is_disabled": 0, "fusion_lon": 0.0, "is_reserved": 0, "name": "b1f65bc6aabbb55f962bdc413d6d94ba", "type": "electric_scooter", "bike_id": "b1f65bc6aabbb55f962bdc413d6d94ba", "rental_uris": {"ios": "https://dc.lft.to/lastmile_qr_scan", "android": "https://dc.lft.to/lastmile_qr_scan"}, "fusion_lat": 0.0}, {"lat": 38.90352983333333, "lon": -77.01748983333333, "is_disabled": 0, "fusion_lon": 0.0, "is_reserved": 0, "name": "0d4c0ae1bdc56068af985bd3f5b40438", "type": "electric_scooter", "bike_id": "0d4c0ae1bdc56068af985bd3f5b40438", "rental_uris": {"ios": "https://dc.lft.to/lastmile_qr_scan", "android": "https://dc.lft.to/lastmile_qr_scan"}, "fusion_lat": 0.0}, {"lat": 38.9002955, "lon": -77.00201716666666, "is_disabled": 0, "fusion_lon": 0.0, "is_reserved": 0, "name": "ced073f54408dbc9b5b25d92a91226db", "type": "electric_scooter", "bike_id": "ced073f54408dbc9b5b25d92a91226db", "rental_uris": {"ios": "https://dc.lft.to/lastmile_qr_scan", "android": "https://dc.lft.to/lastmile_qr_scan"}, "fusion_lat": 0.0}, {"lat": 38.9319485, "lon": -77.02822516666667, "is_disabled": 0, "fusion_lon": 0.0, "is_reserved": 0, "name": "ec8d2d7fbbeb782a936e2091c710d59d", "type": "electric_scooter", "bike_id": "ec8d2d7fbbeb782a936e2091c710d59d", "rental_uris": {"ios": "https://dc.lft.to/lastmile_qr_scan", "android": "https://dc.lft.to/lastmile_qr_scan"}, "fusion_lat": 0.0}, {"lat": 38.91756733333333, "lon": -77.03193816666666, "is_disabled": 0, "fusion_lon": 0.0, "is_reserved": 0, "name": "e70de796bef7be39def4d2f562d12aa6", "type": "electric_scooter", "bike_id": "e70de796bef7be39def4d2f562d12aa6", "rental_uris": {"ios": "https://dc.lft.to/lastmile_qr_scan", "android": "https://dc.lft.to/lastmile_qr_scan"}, "fusion_lat": 0.0}, {"lat": 38.923402333333335, "lon": -77.00915083333334, "is_disabled": 0, "fusion_lon": 0.0, "is_reserved": 0, "name": "0f80062180745bbde220fb6b3646ea0c", "type": "electric_scooter", "bike_id": "0f80062180745bbde220fb6b3646ea0c", "rental_uris": {"ios": "https://dc.lft.to/lastmile_qr_scan", "android": "https://dc.lft.to/lastmile_qr_scan"}, "fusion_lat": 0.0}, {"lat": 38.87392783333333, "lon": -77.00029816666667, "is_disabled": 0, "fusion_lon": 0.0, "is_reserved": 0, "name": "0d22f56d9a79397de20e29a77fc085ff", "type": "electric_scooter", "bike_id": "0d22f56d9a79397de20e29a77fc085ff", "rental_uris": {"ios": "https://dc.lft.to/lastmile_qr_scan", "android": "https://dc.lft.to/lastmile_qr_scan"}, "fusion_lat": 0.0}, {"lat": 38.91573733333333, "lon": -77.02178833333333, "is_disabled": 0, "fusion_lon": 0.0, "is_reserved": 0, "name": "08687ccaa6c306effc9f01f075d6f972", "type": "electric_scooter", "bike_id": "08687ccaa6c306effc9f01f075d6f972", "rental_uris": {"ios": "https://dc.lft.to/lastmile_qr_scan", "android": "https://dc.lft.to/lastmile_qr_scan"}, "fusion_lat": 0.0}, {"lat": 38.92773416666667, "lon": -77.027876, "is_disabled": 0, "fusion_lon": 0.0, "is_reserved": 0, "name": "1513aca37d295f8b7afb130130ad17c0", "type": "electric_scooter", "bike_id": "1513aca37d295f8b7afb130130ad17c0", "rental_uris": {"ios": "https://dc.lft.to/lastmile_qr_scan", "android": "https://dc.lft.to/lastmile_qr_scan"}, "fusion_lat": 0.0}, {"lat": 38.928814333333335, "lon": -77.036233, "is_disabled": 0, "fusion_lon": 0.0, "is_reserved": 0, "name": "f2c4ece84bc264928e551966a61f7f3c", "type": "electric_bike", "bike_id": "f2c4ece84bc264928e551966a61f7f3c", "rental_uris": {"ios": "https://dc.lft.to/lastmile_qr_scan", "android": "https://dc.lft.to/lastmile_qr_scan"}, "fusion_lat": 0.0}, {"lat": 38.91789816666667, "lon": -77.03219166666666, "is_disabled": 0, "fusion_lon": 0.0, "is_reserved": 0, "name": "9b01e548050168ec16bd8272ed431d36", "type": "electric_scooter", "bike_id": "9b01e548050168ec16bd8272ed431d36", "rental_uris": {"ios": "https://dc.lft.to/lastmile_qr_scan", "android": "https://dc.lft.to/lastmile_qr_scan"}, "fusion_lat": 0.0}, {"lat": 38.88203266666667, "lon": -77.00364783333333, "is_disabled": 0, "fusion_lon": 0.0, "is_reserved": 0, "name": "8794d55d175eb06f41706b9b53f3728f", "type": "electric_scooter", "bike_id": "8794d55d175eb06f41706b9b53f3728f", "rental_uris": {"ios": "https://dc.lft.to/lastmile_qr_scan", "android": "https://dc.lft.to/lastmile_qr_scan"}, "fusion_lat": 0.0}, {"lat": 38.936027, "lon": -77.0365625, "is_disabled": 0, "fusion_lon": 0.0, "is_reserved": 0, "name": "e154904685596a07ded359d232dadc69", "type": "electric_scooter", "bike_id": "e154904685596a07ded359d232dadc69", "rental_uris": {"ios": "https://dc.lft.to/lastmile_qr_scan", "android": "https://dc.lft.to/lastmile_qr_scan"}, "fusion_lat": 0.0}, {"lat": 38.902502166666665, "lon": -77.026629, "is_disabled": 0, "fusion_lon": 0.0, "is_reserved": 0, "name": "159dd5a9b2627cfad0ec3cc925394899", "type": "electric_scooter", "bike_id": "159dd5a9b2627cfad0ec3cc925394899", "rental_uris": {"ios": "https://dc.lft.to/lastmile_qr_scan", "android": "https://dc.lft.to/lastmile_qr_scan"}, "fusion_lat": 0.0}, {"lat": 39.00313716666667, "lon": -76.90327883333333, "is_disabled": 0, "fusion_lon": 0.0, "is_reserved": 0, "name": "4f89db949c65dd3e59da7f1d2d8481e0", "type": "electric_bike", "bike_id": "4f89db949c65dd3e59da7f1d2d8481e0", "rental_uris": {"ios": "https://dc.lft.to/lastmile_qr_scan", "android": "https://dc.lft.to/lastmile_qr_scan"}, "fusion_lat": 0.0}, {"lat": 38.90200733333333, "lon": -77.02373766666666, "is_disabled": 0, "fusion_lon": 0.0, "is_reserved": 0, "name": "bd86ef41ab55b2e5b46c7f2fe94ea13b", "type": "electric_scooter", "bike_id": "bd86ef41ab55b2e5b46c7f2fe94ea13b", "rental_uris": {"ios": "https://dc.lft.to/lastmile_qr_scan", "android": "https://dc.lft.to/lastmile_qr_scan"}, "fusion_lat": 0.0}, {"lat": 38.91809816666667, "lon": -77.0142, "is_disabled": 0, "fusion_lon": 0.0, "is_reserved": 0, "name": "f3a536c1a1a00359385de4b9f4082fde", "type": "electric_scooter", "bike_id": "f3a536c1a1a00359385de4b9f4082fde", "rental_uris": {"ios": "https://dc.lft.to/lastmile_qr_scan", "android": "https://dc.lft.to/lastmile_qr_scan"}, "fusion_lat": 0.0}, {"lat": 38.91035633333333, "lon": -77.06478883333334, "is_disabled": 0, "fusion_lon": 0.0, "is_reserved": 0, "name": "029e067d2b4ad271433a57b1f91e01e8", "type": "electric_scooter", "bike_id": "029e067d2b4ad271433a57b1f91e01e8", "rental_uris": {"ios": "https://dc.lft.to/lastmile_qr_scan", "android": "https://dc.lft.to/lastmile_qr_scan"}, "fusion_lat": 0.0}, {"lat": 38.9073355, "lon": -77.02390266666667, "is_disabled": 0, "fusion_lon": 0.0, "is_reserved": 0, "name": "c1372336ac6bc67846414250ce3c5934", "type": "electric_scooter", "bike_id": "c1372336ac6bc67846414250ce3c5934", "rental_uris": {"ios": "https://dc.lft.to/lastmile_qr_scan", "android": "https://dc.lft.to/lastmile_qr_scan"}, "fusion_lat": 0.0}, {"lat": 38.916778, "lon": -77.01577233333333, "is_disabled": 0, "fusion_lon": 0.0, "is_reserved": 0, "name": "0a1cebe5664c006f97e64093ec64a182", "type": "electric_scooter", "bike_id": "0a1cebe5664c006f97e64093ec64a182", "rental_uris": {"ios": "https://dc.lft.to/lastmile_qr_scan", "android": "https://dc.lft.to/lastmile_qr_scan"}, "fusion_lat": 0.0}, {"lat": 38.9450525, "lon": -77.03835233333334, "is_disabled": 0, "fusion_lon": 0.0, "is_reserved": 0, "name": "fc829329924d6f0c2966c26c17e22465", "type": "electric_scooter", "bike_id": "fc829329924d6f0c2966c26c17e22465", "rental_uris": {"ios": "https://dc.lft.to/lastmile_qr_scan", "android": "https://dc.lft.to/lastmile_qr_scan"}, "fusion_lat": 0.0}, {"lat": 38.9073685, "lon": -77.02394383333333, "is_disabled": 0, "fusion_lon": 0.0, "is_reserved": 0, "name": "9bcb33fcb6452d9877cc79026f0f8ffb", "type": "electric_scooter", "bike_id": "9bcb33fcb6452d9877cc79026f0f8ffb", "rental_uris": {"ios": "https://dc.lft.to/lastmile_qr_scan", "android": "https://dc.lft.to/lastmile_qr_scan"}, "fusion_lat": 0.0}, {"lat": 38.931807166666665, "lon": -77.03106216666667, "is_disabled": 0, "fusion_lon": 0.0, "is_reserved": 0, "name": "b7114e6506130fcb6899099ff79c96a3", "type": "electric_scooter", "bike_id": "b7114e6506130fcb6899099ff79c96a3", "rental_uris": {"ios": "https://dc.lft.to/lastmile_qr_scan", "android": "https://dc.lft.to/lastmile_qr_scan"}, "fusion_lat": 0.0}, {"lat": 38.92879033333333, "lon": -77.0328345, "is_disabled": 0, "fusion_lon": 0.0, "is_reserved": 0, "name": "7b7e3d748c00be0c655339911dad1b4b", "type": "electric_scooter", "bike_id": "7b7e3d748c00be0c655339911dad1b4b", "rental_uris": {"ios": "https://dc.lft.to/lastmile_qr_scan", "android": "https://dc.lft.to/lastmile_qr_scan"}, "fusion_lat": 0.0}, {"lat": 38.97347233333333, "lon": -77.027871, "is_disabled": 0, "fusion_lon": 0.0, "is_reserved": 0, "name": "72dacb332f11f4f232b703ec707c772d", "type": "electric_scooter", "bike_id": "72dacb332f11f4f232b703ec707c772d", "rental_uris": {"ios": "https://dc.lft.to/lastmile_qr_scan", "android": "https://dc.lft.to/lastmile_qr_scan"}, "fusion_lat": 0.0}, {"lat": 38.909563166666665, "lon": -77.0342445, "is_disabled": 0, "fusion_lon": 0.0, "is_reserved": 0, "name": "9d271b0ea830ca5b9c96896d31161b9a", "type": "electric_scooter", "bike_id": "9d271b0ea830ca5b9c96896d31161b9a", "rental_uris": {"ios": "https://dc.lft.to/lastmile_qr_scan", "android": "https://dc.lft.to/lastmile_qr_scan"}, "fusion_lat": 0.0}, {"lat": 38.924446, "lon": -77.02162666666666, "is_disabled": 0, "fusion_lon": 0.0, "is_reserved": 0, "name": "2c6d0e295e3101b1f4b6c14b723b0dd4", "type": "electric_scooter", "bike_id": "2c6d0e295e3101b1f4b6c14b723b0dd4", "rental_uris": {"ios": "https://dc.lft.to/lastmile_qr_scan", "android": "https://dc.lft.to/lastmile_qr_scan"}, "fusion_lat": 0.0}, {"lat": 38.926567166666665, "lon": -77.02420083333334, "is_disabled": 0, "fusion_lon": 0.0, "is_reserved": 0, "name": "bb589bce09e649ce172505fa887c85bd", "type": "electric_scooter", "bike_id": "bb589bce09e649ce172505fa887c85bd", "rental_uris": {"ios": "https://dc.lft.to/lastmile_qr_scan", "android": "https://dc.lft.to/lastmile_qr_scan"}, "fusion_lat": 0.0}, {"lat": 38.909595333333336, "lon": -77.01650633333334, "is_disabled": 0, "fusion_lon": 0.0, "is_reserved": 0, "name": "0195da850f95f49bea254b17479422f9", "type": "electric_scooter", "bike_id": "0195da850f95f49bea254b17479422f9", "rental_uris": {"ios": "https://dc.lft.to/lastmile_qr_scan", "android": "https://dc.lft.to/lastmile_qr_scan"}, "fusion_lat": 0.0}, {"lat": 38.874705666666664, "lon": -77.004675, "is_disabled": 0, "fusion_lon": 0.0, "is_reserved": 0, "name": "26c0c9de31aa1b3fb6b414cfd9cbcd5f", "type": "electric_scooter", "bike_id": "26c0c9de31aa1b3fb6b414cfd9cbcd5f", "rental_uris": {"ios": "https://dc.lft.to/lastmile_qr_scan", "android": "https://dc.lft.to/lastmile_qr_scan"}, "fusion_lat": 0.0}, {"lat": 38.87394316666666, "lon": -77.01449266666667, "is_disabled": 0, "fusion_lon": 0.0, "is_reserved": 0, "name": "49f32b7216da79a70a85dc0022502b0c", "type": "electric_scooter", "bike_id": "49f32b7216da79a70a85dc0022502b0c", "rental_uris": {"ios": "https://dc.lft.to/lastmile_qr_scan", "android": "https://dc.lft.to/lastmile_qr_scan"}, "fusion_lat": 0.0}, {"lat": 38.89512166666667, "lon": -77.0281925, "is_disabled": 0, "fusion_lon": 0.0, "is_reserved": 0, "name": "d2658c36ca47afb6122f5b5e4fb72c8c", "type": "electric_scooter", "bike_id": "d2658c36ca47afb6122f5b5e4fb72c8c", "rental_uris": {"ios": "https://dc.lft.to/lastmile_qr_scan", "android": "https://dc.lft.to/lastmile_qr_scan"}, "fusion_lat": 0.0}, {"lat": 38.91774683333333, "lon": -77.04422483333333, "is_disabled": 0, "fusion_lon": 0.0, "is_reserved": 0, "name": "d306914886963b1a98637076e10b7dfa", "type": "electric_scooter", "bike_id": "d306914886963b1a98637076e10b7dfa", "rental_uris": {"ios": "https://dc.lft.to/lastmile_qr_scan", "android": "https://dc.lft.to/lastmile_qr_scan"}, "fusion_lat": 0.0}, {"lat": 38.917088, "lon": -77.03864033333333, "is_disabled": 0, "fusion_lon": 0.0, "is_reserved": 0, "name": "e7987748251e45e8481a1d2cee676b64", "type": "electric_scooter", "bike_id": "e7987748251e45e8481a1d2cee676b64", "rental_uris": {"ios": "https://dc.lft.to/lastmile_qr_scan", "android": "https://dc.lft.to/lastmile_qr_scan"}, "fusion_lat": 0.0}, {"lat": 38.90370816666667, "lon": -77.03533783333333, "is_disabled": 0, "fusion_lon": 0.0, "is_reserved": 0, "name": "515de24ff5aac00264860650a6711ffa", "type": "electric_scooter", "bike_id": "515de24ff5aac00264860650a6711ffa", "rental_uris": {"ios": "https://dc.lft.to/lastmile_qr_scan", "android": "https://dc.lft.to/lastmile_qr_scan"}, "fusion_lat": 0.0}, {"lat": 38.889975166666666, "lon": -76.98368733333334, "is_disabled": 0, "fusion_lon": 0.0, "is_reserved": 0, "name": "51caa08e0539474613cfbe7f29a8d909", "type": "electric_scooter", "bike_id": "51caa08e0539474613cfbe7f29a8d909", "rental_uris": {"ios": "https://dc.lft.to/lastmile_qr_scan", "android": "https://dc.lft.to/lastmile_qr_scan"}, "fusion_lat": 0.0}, {"lat": 38.90273633333334, "lon": -77.03462866666666, "is_disabled": 0, "fusion_lon": 0.0, "is_reserved": 0, "name": "3ec98577a1f06d02a412eab3db511b3b", "type": "electric_scooter", "bike_id": "3ec98577a1f06d02a412eab3db511b3b", "rental_uris": {"ios": "https://dc.lft.to/lastmile_qr_scan", "android": "https://dc.lft.to/lastmile_qr_scan"}, "fusion_lat": 0.0}, {"lat": 38.876445833333335, "lon": -77.01476833333334, "is_disabled": 0, "fusion_lon": 0.0, "is_reserved": 0, "name": "98b656c90bfad9786955c016768854a9", "type": "electric_scooter", "bike_id": "98b656c90bfad9786955c016768854a9", "rental_uris": {"ios": "https://dc.lft.to/lastmile_qr_scan", "android": "https://dc.lft.to/lastmile_qr_scan"}, "fusion_lat": 0.0}, {"lat": 38.9131145, "lon": -77.04162333333333, "is_disabled": 0, "fusion_lon": 0.0, "is_reserved": 0, "name": "1e1aca6c3ee8f665fec2c9e24767297b", "type": "electric_scooter", "bike_id": "1e1aca6c3ee8f665fec2c9e24767297b", "rental_uris": {"ios": "https://dc.lft.to/lastmile_qr_scan", "android": "https://dc.lft.to/lastmile_qr_scan"}, "fusion_lat": 0.0}, {"lat": 38.93214783333333, "lon": -77.03268033333333, "is_disabled": 0, "fusion_lon": 0.0, "is_reserved": 0, "name": "011701c37b4853738222071bd7dbbee3", "type": "electric_scooter", "bike_id": "011701c37b4853738222071bd7dbbee3", "rental_uris": {"ios": "https://dc.lft.to/lastmile_qr_scan", "android": "https://dc.lft.to/lastmile_qr_scan"}, "fusion_lat": 0.0}, {"lat": 38.926262666666666, "lon": -77.03830833333333, "is_disabled": 0, "fusion_lon": 0.0, "is_reserved": 0, "name": "804bd0e1e5b43ee199822a43f9183d2e", "type": "electric_scooter", "bike_id": "804bd0e1e5b43ee199822a43f9183d2e", "rental_uris": {"ios": "https://dc.lft.to/lastmile_qr_scan", "android": "https://dc.lft.to/lastmile_qr_scan"}, "fusion_lat": 0.0}, {"lat": 38.90015366666667, "lon": -77.01196483333334, "is_disabled": 0, "fusion_lon": 0.0, "is_reserved": 0, "name": "5218a14f61399cbc0ad9fa1ffef11a10", "type": "electric_scooter", "bike_id": "5218a14f61399cbc0ad9fa1ffef11a10", "rental_uris": {"ios": "https://dc.lft.to/lastmile_qr_scan", "android": "https://dc.lft.to/lastmile_qr_scan"}, "fusion_lat": 0.0}, {"lat": 38.89833183333333, "lon": -76.94638733333333, "is_disabled": 0, "fusion_lon": 0.0, "is_reserved": 0, "name": "9e4664d524cdc588af27deaa8e0fbca1", "type": "electric_scooter", "bike_id": "9e4664d524cdc588af27deaa8e0fbca1", "rental_uris": {"ios": "https://dc.lft.to/lastmile_qr_scan", "android": "https://dc.lft.to/lastmile_qr_scan"}, "fusion_lat": 0.0}, {"lat": 38.887287666666666, "lon": -76.98355416666666, "is_disabled": 0, "fusion_lon": 0.0, "is_reserved": 0, "name": "e1d4d2946d0ca14c11c952bfe5dcb7c8", "type": "electric_scooter", "bike_id": "e1d4d2946d0ca14c11c952bfe5dcb7c8", "rental_uris": {"ios": "https://dc.lft.to/lastmile_qr_scan", "android": "https://dc.lft.to/lastmile_qr_scan"}, "fusion_lat": 0.0}, {"lat": 38.92101483333333, "lon": -77.07191083333333, "is_disabled": 0, "fusion_lon": 0.0, "is_reserved": 0, "name": "ecf7b409df53a0e3d052e4e119aa236c", "type": "electric_scooter", "bike_id": "ecf7b409df53a0e3d052e4e119aa236c", "rental_uris": {"ios": "https://dc.lft.to/lastmile_qr_scan", "android": "https://dc.lft.to/lastmile_qr_scan"}, "fusion_lat": 0.0}, {"lat": 38.902480833333335, "lon": -77.0275505, "is_disabled": 0, "fusion_lon": 0.0, "is_reserved": 0, "name": "58d90549e9371254213abdbb526f34be", "type": "electric_scooter", "bike_id": "58d90549e9371254213abdbb526f34be", "rental_uris": {"ios": "https://dc.lft.to/lastmile_qr_scan", "android": "https://dc.lft.to/lastmile_qr_scan"}, "fusion_lat": 0.0}, {"lat": 38.90424616666667, "lon": -77.02775166666666, "is_disabled": 0, "fusion_lon": 0.0, "is_reserved": 0, "name": "3d61e1247fe30d84394f9df7fb60d097", "type": "electric_bike", "bike_id": "3d61e1247fe30d84394f9df7fb60d097", "rental_uris": {"ios": "https://dc.lft.to/lastmile_qr_scan", "android": "https://dc.lft.to/lastmile_qr_scan"}, "fusion_lat": 0.0}, {"lat": 38.9750105, "lon": -77.01681183333334, "is_disabled": 0, "fusion_lon": 0.0, "is_reserved": 0, "name": "1605fd285ac0405d9de050be69bb0d09", "type": "electric_scooter", "bike_id": "1605fd285ac0405d9de050be69bb0d09", "rental_uris": {"ios": "https://dc.lft.to/lastmile_qr_scan", "android": "https://dc.lft.to/lastmile_qr_scan"}, "fusion_lat": 0.0}, {"lat": 38.875482166666664, "lon": -77.0057015, "is_disabled": 0, "fusion_lon": 0.0, "is_reserved": 0, "name": "2f84d417cdef12b6bddb53a111e61f28", "type": "electric_scooter", "bike_id": "2f84d417cdef12b6bddb53a111e61f28", "rental_uris": {"ios": "https://dc.lft.to/lastmile_qr_scan", "android": "https://dc.lft.to/lastmile_qr_scan"}, "fusion_lat": 0.0}, {"lat": 38.923412166666665, "lon": -77.05168266666666, "is_disabled": 0, "fusion_lon": 0.0, "is_reserved": 0, "name": "542b740cf7f25e5d04754b4cda247e2a", "type": "electric_scooter", "bike_id": "542b740cf7f25e5d04754b4cda247e2a", "rental_uris": {"ios": "https://dc.lft.to/lastmile_qr_scan", "android": "https://dc.lft.to/lastmile_qr_scan"}, "fusion_lat": 0.0}, {"lat": 38.92281966666667, "lon": -77.03192033333333, "is_disabled": 0, "fusion_lon": 0.0, "is_reserved": 0, "name": "84e2bcfa6c08cf04d8544894955aeb1b", "type": "electric_scooter", "bike_id": "84e2bcfa6c08cf04d8544894955aeb1b", "rental_uris": {"ios": "https://dc.lft.to/lastmile_qr_scan", "android": "https://dc.lft.to/lastmile_qr_scan"}, "fusion_lat": 0.0}, {"lat": 38.884160666666666, "lon": -76.94215633333333, "is_disabled": 0, "fusion_lon": 0.0, "is_reserved": 0, "name": "93ddfab0edbd92cbf33d5e52eda87701", "type": "electric_scooter", "bike_id": "93ddfab0edbd92cbf33d5e52eda87701", "rental_uris": {"ios": "https://dc.lft.to/lastmile_qr_scan", "android": "https://dc.lft.to/lastmile_qr_scan"}, "fusion_lat": 0.0}, {"lat": 38.933295333333334, "lon": -77.03263583333333, "is_disabled": 0, "fusion_lon": 0.0, "is_reserved": 0, "name": "a7e978b32b0bda8e6e630cce1afbc51d", "type": "electric_scooter", "bike_id": "a7e978b32b0bda8e6e630cce1afbc51d", "rental_uris": {"ios": "https://dc.lft.to/lastmile_qr_scan", "android": "https://dc.lft.to/lastmile_qr_scan"}, "fusion_lat": 0.0}, {"lat": 38.926033833333335, "lon": -77.02157416666667, "is_disabled": 0, "fusion_lon": 0.0, "is_reserved": 0, "name": "3bfc98217e0760716b79ba4024374cae", "type": "electric_scooter", "bike_id": "3bfc98217e0760716b79ba4024374cae", "rental_uris": {"ios": "https://dc.lft.to/lastmile_qr_scan", "android": "https://dc.lft.to/lastmile_qr_scan"}, "fusion_lat": 0.0}, {"lat": 38.9185865, "lon": -77.03659816666666, "is_disabled": 0, "fusion_lon": 0.0, "is_reserved": 0, "name": "7bb1b222d294306cb699842a32d4c672", "type": "electric_scooter", "bike_id": "7bb1b222d294306cb699842a32d4c672", "rental_uris": {"ios": "https://dc.lft.to/lastmile_qr_scan", "android": "https://dc.lft.to/lastmile_qr_scan"}, "fusion_lat": 0.0}, {"lat": 38.90837116666667, "lon": -76.99975466666666, "is_disabled": 0, "fusion_lon": 0.0, "is_reserved": 0, "name": "f1cd567c54a0bbe300eaaf039528556e", "type": "electric_scooter", "bike_id": "f1cd567c54a0bbe300eaaf039528556e", "rental_uris": {"ios": "https://dc.lft.to/lastmile_qr_scan", "android": "https://dc.lft.to/lastmile_qr_scan"}, "fusion_lat": 0.0}, {"lat": 38.913998, "lon": -77.024783, "is_disabled": 0, "fusion_lon": 0.0, "is_reserved": 0, "name": "29e45ea11f98736ee8f71c05f63b33c2", "type": "electric_scooter", "bike_id": "29e45ea11f98736ee8f71c05f63b33c2", "rental_uris": {"ios": "https://dc.lft.to/lastmile_qr_scan", "android": "https://dc.lft.to/lastmile_qr_scan"}, "fusion_lat": 0.0}, {"lat": 38.91597983333333, "lon": -77.04905033333333, "is_disabled": 0, "fusion_lon": 0.0, "is_reserved": 0, "name": "461a22d80be5c2248731a9c37579288a", "type": "electric_scooter", "bike_id": "461a22d80be5c2248731a9c37579288a", "rental_uris": {"ios": "https://dc.lft.to/lastmile_qr_scan", "android": "https://dc.lft.to/lastmile_qr_scan"}, "fusion_lat": 0.0}, {"lat": 38.89878983333333, "lon": -77.053548, "is_disabled": 0, "fusion_lon": 0.0, "is_reserved": 0, "name": "15eb6616f7ed1e91d6e5e6600af4b21e", "type": "electric_scooter", "bike_id": "15eb6616f7ed1e91d6e5e6600af4b21e", "rental_uris": {"ios": "https://dc.lft.to/lastmile_qr_scan", "android": "https://dc.lft.to/lastmile_qr_scan"}, "fusion_lat": 0.0}, {"lat": 38.892200333333335, "lon": -77.0450375, "is_disabled": 0, "fusion_lon": 0.0, "is_reserved": 0, "name": "20266c8546a0a4c2715dcbd0b6c4ca98", "type": "electric_scooter", "bike_id": "20266c8546a0a4c2715dcbd0b6c4ca98", "rental_uris": {"ios": "https://dc.lft.to/lastmile_qr_scan", "android": "https://dc.lft.to/lastmile_qr_scan"}, "fusion_lat": 0.0}, {"lat": 38.878383166666666, "lon": -77.01936183333333, "is_disabled": 0, "fusion_lon": 0.0, "is_reserved": 0, "name": "8f45f5db47266395042a2b507852ccd4", "type": "electric_scooter", "bike_id": "8f45f5db47266395042a2b507852ccd4", "rental_uris": {"ios": "https://dc.lft.to/lastmile_qr_scan", "android": "https://dc.lft.to/lastmile_qr_scan"}, "fusion_lat": 0.0}, {"lat": 38.90259366666667, "lon": -77.01532983333334, "is_disabled": 0, "fusion_lon": 0.0, "is_reserved": 0, "name": "6979f31aab1d685899952b361d58598b", "type": "electric_scooter", "bike_id": "6979f31aab1d685899952b361d58598b", "rental_uris": {"ios": "https://dc.lft.to/lastmile_qr_scan", "android": "https://dc.lft.to/lastmile_qr_scan"}, "fusion_lat": 0.0}, {"lat": 38.934516333333335, "lon": -77.0386615, "is_disabled": 0, "fusion_lon": 0.0, "is_reserved": 0, "name": "6b2a4fd49523b8adb3edd58d58d8d622", "type": "electric_scooter", "bike_id": "6b2a4fd49523b8adb3edd58d58d8d622", "rental_uris": {"ios": "https://dc.lft.to/lastmile_qr_scan", "android": "https://dc.lft.to/lastmile_qr_scan"}, "fusion_lat": 0.0}, {"lat": 38.887395166666664, "lon": -77.0212315, "is_disabled": 0, "fusion_lon": 0.0, "is_reserved": 0, "name": "c765d18026dec181937c8c99871a83e5", "type": "electric_scooter", "bike_id": "c765d18026dec181937c8c99871a83e5", "rental_uris": {"ios": "https://dc.lft.to/lastmile_qr_scan", "android": "https://dc.lft.to/lastmile_qr_scan"}, "fusion_lat": 0.0}, {"lat": 38.91690766666667, "lon": -77.027434, "is_disabled": 0, "fusion_lon": 0.0, "is_reserved": 0, "name": "1bafb41466158cec7b0020effab482ed", "type": "electric_scooter", "bike_id": "1bafb41466158cec7b0020effab482ed", "rental_uris": {"ios": "https://dc.lft.to/lastmile_qr_scan", "android": "https://dc.lft.to/lastmile_qr_scan"}, "fusion_lat": 0.0}, {"lat": 38.898553666666665, "lon": -77.02205083333334, "is_disabled": 0, "fusion_lon": 0.0, "is_reserved": 0, "name": "4a50c1d87e74ae882877c88697ca2855", "type": "electric_scooter", "bike_id": "4a50c1d87e74ae882877c88697ca2855", "rental_uris": {"ios": "https://dc.lft.to/lastmile_qr_scan", "android": "https://dc.lft.to/lastmile_qr_scan"}, "fusion_lat": 0.0}, {"lat": 38.9466155, "lon": -76.95668116666667, "is_disabled": 0, "fusion_lon": 0.0, "is_reserved": 0, "name": "b5cfdf01490decf8d79742351a90dd2f", "type": "electric_bike", "bike_id": "b5cfdf01490decf8d79742351a90dd2f", "rental_uris": {"ios": "https://dc.lft.to/lastmile_qr_scan", "android": "https://dc.lft.to/lastmile_qr_scan"}, "fusion_lat": 0.0}, {"lat": 38.94747016666667, "lon": -77.0328325, "is_disabled": 0, "fusion_lon": 0.0, "is_reserved": 0, "name": "ecec4481a70c2997fd50a53131c7cd58", "type": "electric_scooter", "bike_id": "ecec4481a70c2997fd50a53131c7cd58", "rental_uris": {"ios": "https://dc.lft.to/lastmile_qr_scan", "android": "https://dc.lft.to/lastmile_qr_scan"}, "fusion_lat": 0.0}, {"lat": 38.8874735, "lon": -77.01404916666667, "is_disabled": 0, "fusion_lon": 0.0, "is_reserved": 0, "name": "b0fe0fa0b12299dc903a2d32a7b0d627", "type": "electric_scooter", "bike_id": "b0fe0fa0b12299dc903a2d32a7b0d627", "rental_uris": {"ios": "https://dc.lft.to/lastmile_qr_scan", "android": "https://dc.lft.to/lastmile_qr_scan"}, "fusion_lat": 0.0}, {"lat": 38.92028083333334, "lon": -77.03058566666667, "is_disabled": 0, "fusion_lon": 0.0, "is_reserved": 0, "name": "3fce0a12ff147f56e793d55c75ef472e", "type": "electric_scooter", "bike_id": "3fce0a12ff147f56e793d55c75ef472e", "rental_uris": {"ios": "https://dc.lft.to/lastmile_qr_scan", "android": "https://dc.lft.to/lastmile_qr_scan"}, "fusion_lat": 0.0}, {"lat": 38.876145, "lon": -77.00575283333333, "is_disabled": 0, "fusion_lon": 0.0, "is_reserved": 0, "name": "c82b094ac57de900afd4da003ed77b4c", "type": "electric_scooter", "bike_id": "c82b094ac57de900afd4da003ed77b4c", "rental_uris": {"ios": "https://dc.lft.to/lastmile_qr_scan", "android": "https://dc.lft.to/lastmile_qr_scan"}, "fusion_lat": 0.0}, {"lat": 38.93991033333333, "lon": -77.02528466666666, "is_disabled": 0, "fusion_lon": 0.0, "is_reserved": 0, "name": "3ac8fd54d0e563c28063cc27d8e51022", "type": "electric_scooter", "bike_id": "3ac8fd54d0e563c28063cc27d8e51022", "rental_uris": {"ios": "https://dc.lft.to/lastmile_qr_scan", "android": "https://dc.lft.to/lastmile_qr_scan"}, "fusion_lat": 0.0}, {"lat": 38.89999233333333, "lon": -77.00188116666666, "is_disabled": 0, "fusion_lon": 0.0, "is_reserved": 0, "name": "bcaceb0552c59d5fed5c2259b480df3d", "type": "electric_scooter", "bike_id": "bcaceb0552c59d5fed5c2259b480df3d", "rental_uris": {"ios": "https://dc.lft.to/lastmile_qr_scan", "android": "https://dc.lft.to/lastmile_qr_scan"}, "fusion_lat": 0.0}, {"lat": 38.92110916666667, "lon": -77.04382633333333, "is_disabled": 0, "fusion_lon": 0.0, "is_reserved": 0, "name": "eddc5d54d134b4ae286a1c3c2225ad8e", "type": "electric_scooter", "bike_id": "eddc5d54d134b4ae286a1c3c2225ad8e", "rental_uris": {"ios": "https://dc.lft.to/lastmile_qr_scan", "android": "https://dc.lft.to/lastmile_qr_scan"}, "fusion_lat": 0.0}, {"lat": 38.91303216666667, "lon": -77.01454916666667, "is_disabled": 0, "fusion_lon": 0.0, "is_reserved": 0, "name": "cfc4c7c7e3977de009db12a302eb8834", "type": "electric_scooter", "bike_id": "cfc4c7c7e3977de009db12a302eb8834", "rental_uris": {"ios": "https://dc.lft.to/lastmile_qr_scan", "android": "https://dc.lft.to/lastmile_qr_scan"}, "fusion_lat": 0.0}, {"lat": 38.905518666666666, "lon": -77.0059015, "is_disabled": 0, "fusion_lon": 0.0, "is_reserved": 0, "name": "36b2d197e54801dc881ac47e805debb5", "type": "electric_scooter", "bike_id": "36b2d197e54801dc881ac47e805debb5", "rental_uris": {"ios": "https://dc.lft.to/lastmile_qr_scan", "android": "https://dc.lft.to/lastmile_qr_scan"}, "fusion_lat": 0.0}, {"lat": 38.92171533333333, "lon": -77.03831466666666, "is_disabled": 0, "fusion_lon": 0.0, "is_reserved": 0, "name": "4535f4dc5bb5b71be943faf5ecff1470", "type": "electric_scooter", "bike_id": "4535f4dc5bb5b71be943faf5ecff1470", "rental_uris": {"ios": "https://dc.lft.to/lastmile_qr_scan", "android": "https://dc.lft.to/lastmile_qr_scan"}, "fusion_lat": 0.0}, {"lat": 38.937105833333334, "lon": -77.03643483333333, "is_disabled": 0, "fusion_lon": 0.0, "is_reserved": 0, "name": "393ef5c3b6510fe054220dacde0903d9", "type": "electric_scooter", "bike_id": "393ef5c3b6510fe054220dacde0903d9", "rental_uris": {"ios": "https://dc.lft.to/lastmile_qr_scan", "android": "https://dc.lft.to/lastmile_qr_scan"}, "fusion_lat": 0.0}, {"lat": 38.922886, "lon": -76.99781516666667, "is_disabled": 0, "fusion_lon": 0.0, "is_reserved": 0, "name": "608cc7cc2adbe12c6ace54dd1e1673c5", "type": "electric_bike", "bike_id": "608cc7cc2adbe12c6ace54dd1e1673c5", "rental_uris": {"ios": "https://dc.lft.to/lastmile_qr_scan", "android": "https://dc.lft.to/lastmile_qr_scan"}, "fusion_lat": 0.0}, {"lat": 38.91114833333334, "lon": -77.04472116666666, "is_disabled": 0, "fusion_lon": 0.0, "is_reserved": 0, "name": "384fdec5eb5458dc9268015689f2ae94", "type": "electric_scooter", "bike_id": "384fdec5eb5458dc9268015689f2ae94", "rental_uris": {"ios": "https://dc.lft.to/lastmile_qr_scan", "android": "https://dc.lft.to/lastmile_qr_scan"}, "fusion_lat": 0.0}, {"lat": 38.9072705, "lon": -77.03174016666667, "is_disabled": 0, "fusion_lon": 0.0, "is_reserved": 0, "name": "af63a48c9974b25b99bed93a95182480", "type": "electric_scooter", "bike_id": "af63a48c9974b25b99bed93a95182480", "rental_uris": {"ios": "https://dc.lft.to/lastmile_qr_scan", "android": "https://dc.lft.to/lastmile_qr_scan"}, "fusion_lat": 0.0}, {"lat": 38.9095975, "lon": -77.03422216666667, "is_disabled": 0, "fusion_lon": 0.0, "is_reserved": 0, "name": "323072c5f05674aa1fafd9806fac155f", "type": "electric_scooter", "bike_id": "323072c5f05674aa1fafd9806fac155f", "rental_uris": {"ios": "https://dc.lft.to/lastmile_qr_scan", "android": "https://dc.lft.to/lastmile_qr_scan"}, "fusion_lat": 0.0}, {"lat": 38.863247666666666, "lon": -76.9892865, "is_disabled": 0, "fusion_lon": 0.0, "is_reserved": 0, "name": "ef615a2849ad45270eed2ad05794f7d8", "type": "electric_scooter", "bike_id": "ef615a2849ad45270eed2ad05794f7d8", "rental_uris": {"ios": "https://dc.lft.to/lastmile_qr_scan", "android": "https://dc.lft.to/lastmile_qr_scan"}, "fusion_lat": 0.0}, {"lat": 38.848188666666665, "lon": -77.07893966666667, "is_disabled": 0, "fusion_lon": 0.0, "is_reserved": 0, "name": "bafd9839c0e6c25d621f53547b9bbe46", "type": "electric_bike", "bike_id": "bafd9839c0e6c25d621f53547b9bbe46", "rental_uris": {"ios": "https://dc.lft.to/lastmile_qr_scan", "android": "https://dc.lft.to/lastmile_qr_scan"}, "fusion_lat": 0.0}, {"lat": 38.90978166666667, "lon": -77.03842766666666, "is_disabled": 0, "fusion_lon": 0.0, "is_reserved": 0, "name": "08eaf00e03fbc0a4504df34e0104d980", "type": "electric_scooter", "bike_id": "08eaf00e03fbc0a4504df34e0104d980", "rental_uris": {"ios": "https://dc.lft.to/lastmile_qr_scan", "android": "https://dc.lft.to/lastmile_qr_scan"}, "fusion_lat": 0.0}, {"lat": 38.91696266666667, "lon": -77.02436766666666, "is_disabled": 0, "fusion_lon": 0.0, "is_reserved": 0, "name": "ed2d5b06788edc738b4c38c52f39fbbf", "type": "electric_scooter", "bike_id": "ed2d5b06788edc738b4c38c52f39fbbf", "rental_uris": {"ios": "https://dc.lft.to/lastmile_qr_scan", "android": "https://dc.lft.to/lastmile_qr_scan"}, "fusion_lat": 0.0}, {"lat": 38.90549733333334, "lon": -77.04647366666667, "is_disabled": 0, "fusion_lon": 0.0, "is_reserved": 0, "name": "a5eef2b9aafcc7780283b6c07458f246", "type": "electric_scooter", "bike_id": "a5eef2b9aafcc7780283b6c07458f246", "rental_uris": {"ios": "https://dc.lft.to/lastmile_qr_scan", "android": "https://dc.lft.to/lastmile_qr_scan"}, "fusion_lat": 0.0}, {"lat": 38.91751083333333, "lon": -77.03194083333334, "is_disabled": 0, "fusion_lon": 0.0, "is_reserved": 0, "name": "40de0c8bd8b1905806aded946a4d2bca", "type": "electric_scooter", "bike_id": "40de0c8bd8b1905806aded946a4d2bca", "rental_uris": {"ios": "https://dc.lft.to/lastmile_qr_scan", "android": "https://dc.lft.to/lastmile_qr_scan"}, "fusion_lat": 0.0}, {"lat": 38.941819333333335, "lon": -77.02531933333333, "is_disabled": 0, "fusion_lon": 0.0, "is_reserved": 0, "name": "58548a7f2cdb5724d1b2db463730f015", "type": "electric_scooter", "bike_id": "58548a7f2cdb5724d1b2db463730f015", "rental_uris": {"ios": "https://dc.lft.to/lastmile_qr_scan", "android": "https://dc.lft.to/lastmile_qr_scan"}, "fusion_lat": 0.0}, {"lat": 38.91809383333333, "lon": -77.0267855, "is_disabled": 0, "fusion_lon": 0.0, "is_reserved": 0, "name": "5a23c75a765121a65fd87c67f70ab40f", "type": "electric_scooter", "bike_id": "5a23c75a765121a65fd87c67f70ab40f", "rental_uris": {"ios": "https://dc.lft.to/lastmile_qr_scan", "android": "https://dc.lft.to/lastmile_qr_scan"}, "fusion_lat": 0.0}, {"lat": 38.900101166666666, "lon": -76.9890645, "is_disabled": 0, "fusion_lon": 0.0, "is_reserved": 0, "name": "939839d31717151237ffcb3e889b6ecf", "type": "electric_scooter", "bike_id": "939839d31717151237ffcb3e889b6ecf", "rental_uris": {"ios": "https://dc.lft.to/lastmile_qr_scan", "android": "https://dc.lft.to/lastmile_qr_scan"}, "fusion_lat": 0.0}, {"lat": 38.91488866666667, "lon": -77.04162533333333, "is_disabled": 0, "fusion_lon": 0.0, "is_reserved": 0, "name": "67f15feea81eedb9e8ca5604dd02470a", "type": "electric_scooter", "bike_id": "67f15feea81eedb9e8ca5604dd02470a", "rental_uris": {"ios": "https://dc.lft.to/lastmile_qr_scan", "android": "https://dc.lft.to/lastmile_qr_scan"}, "fusion_lat": 0.0}, {"lat": 38.91797016666666, "lon": -77.0248535, "is_disabled": 0, "fusion_lon": 0.0, "is_reserved": 0, "name": "60a03c85c574f05f4ef7b3ee0b750347", "type": "electric_scooter", "bike_id": "60a03c85c574f05f4ef7b3ee0b750347", "rental_uris": {"ios": "https://dc.lft.to/lastmile_qr_scan", "android": "https://dc.lft.to/lastmile_qr_scan"}, "fusion_lat": 0.0}, {"lat": 38.912335, "lon": -77.01525683333334, "is_disabled": 0, "fusion_lon": 0.0, "is_reserved": 0, "name": "e2df50dfadf43d0a5466e8b98f14879d", "type": "electric_scooter", "bike_id": "e2df50dfadf43d0a5466e8b98f14879d", "rental_uris": {"ios": "https://dc.lft.to/lastmile_qr_scan", "android": "https://dc.lft.to/lastmile_qr_scan"}, "fusion_lat": 0.0}, {"lat": 38.916681833333335, "lon": -77.04712266666667, "is_disabled": 0, "fusion_lon": 0.0, "is_reserved": 0, "name": "03d2350bbead8e86a55fa0f9de2e6486", "type": "electric_scooter", "bike_id": "03d2350bbead8e86a55fa0f9de2e6486", "rental_uris": {"ios": "https://dc.lft.to/lastmile_qr_scan", "android": "https://dc.lft.to/lastmile_qr_scan"}, "fusion_lat": 0.0}, {"lat": 38.92359616666667, "lon": -77.03200033333333, "is_disabled": 0, "fusion_lon": 0.0, "is_reserved": 0, "name": "2606d5bcb6dc5403b3c30bdb74feb39e", "type": "electric_scooter", "bike_id": "2606d5bcb6dc5403b3c30bdb74feb39e", "rental_uris": {"ios": "https://dc.lft.to/lastmile_qr_scan", "android": "https://dc.lft.to/lastmile_qr_scan"}, "fusion_lat": 0.0}, {"lat": 38.917963666666665, "lon": -77.02706216666667, "is_disabled": 0, "fusion_lon": 0.0, "is_reserved": 0, "name": "195ead9e46206f5718377c28ff0361de", "type": "electric_scooter", "bike_id": "195ead9e46206f5718377c28ff0361de", "rental_uris": {"ios": "https://dc.lft.to/lastmile_qr_scan", "android": "https://dc.lft.to/lastmile_qr_scan"}, "fusion_lat": 0.0}, {"lat": 38.9078875, "lon": -77.038643, "is_disabled": 0, "fusion_lon": 0.0, "is_reserved": 0, "name": "1e28bf97d83b3e04eee50d4f6435f697", "type": "electric_scooter", "bike_id": "1e28bf97d83b3e04eee50d4f6435f697", "rental_uris": {"ios": "https://dc.lft.to/lastmile_qr_scan", "android": "https://dc.lft.to/lastmile_qr_scan"}, "fusion_lat": 0.0}, {"lat": 38.92613566666667, "lon": -77.02161083333333, "is_disabled": 0, "fusion_lon": 0.0, "is_reserved": 0, "name": "2038d3c6c60203f2ff2a3cb7b50b2368", "type": "electric_scooter", "bike_id": "2038d3c6c60203f2ff2a3cb7b50b2368", "rental_uris": {"ios": "https://dc.lft.to/lastmile_qr_scan", "android": "https://dc.lft.to/lastmile_qr_scan"}, "fusion_lat": 0.0}, {"lat": 38.91672483333333, "lon": -77.02374383333333, "is_disabled": 0, "fusion_lon": 0.0, "is_reserved": 0, "name": "c22ec9a009a5c64af905e9e15bced0a9", "type": "electric_scooter", "bike_id": "c22ec9a009a5c64af905e9e15bced0a9", "rental_uris": {"ios": "https://dc.lft.to/lastmile_qr_scan", "android": "https://dc.lft.to/lastmile_qr_scan"}, "fusion_lat": 0.0}, {"lat": 38.90942316666667, "lon": -77.04466266666667, "is_disabled": 0, "fusion_lon": 0.0, "is_reserved": 0, "name": "3f75c1df5b2b98f7d358c1c86955dc9d", "type": "electric_scooter", "bike_id": "3f75c1df5b2b98f7d358c1c86955dc9d", "rental_uris": {"ios": "https://dc.lft.to/lastmile_qr_scan", "android": "https://dc.lft.to/lastmile_qr_scan"}, "fusion_lat": 0.0}, {"lat": 38.88751083333333, "lon": -76.99763216666666, "is_disabled": 0, "fusion_lon": 0.0, "is_reserved": 0, "name": "746e107eef2b1ed6306a04acd86b24cb", "type": "electric_scooter", "bike_id": "746e107eef2b1ed6306a04acd86b24cb", "rental_uris": {"ios": "https://dc.lft.to/lastmile_qr_scan", "android": "https://dc.lft.to/lastmile_qr_scan"}, "fusion_lat": 0.0}, {"lat": 38.89985016666667, "lon": -77.016335, "is_disabled": 0, "fusion_lon": 0.0, "is_reserved": 0, "name": "4671dce8720c7a6e50db443a21444e15", "type": "electric_scooter", "bike_id": "4671dce8720c7a6e50db443a21444e15", "rental_uris": {"ios": "https://dc.lft.to/lastmile_qr_scan", "android": "https://dc.lft.to/lastmile_qr_scan"}, "fusion_lat": 0.0}, {"lat": 38.887341, "lon": -77.02382483333334, "is_disabled": 0, "fusion_lon": 0.0, "is_reserved": 0, "name": "98383ac0b3bb4fc82868a56275c013b5", "type": "electric_scooter", "bike_id": "98383ac0b3bb4fc82868a56275c013b5", "rental_uris": {"ios": "https://dc.lft.to/lastmile_qr_scan", "android": "https://dc.lft.to/lastmile_qr_scan"}, "fusion_lat": 0.0}, {"lat": 38.9223945, "lon": -77.07312816666666, "is_disabled": 0, "fusion_lon": 0.0, "is_reserved": 0, "name": "d27f8f7a1b899db97ecc566457fe4bc9", "type": "electric_scooter", "bike_id": "d27f8f7a1b899db97ecc566457fe4bc9", "rental_uris": {"ios": "https://dc.lft.to/lastmile_qr_scan", "android": "https://dc.lft.to/lastmile_qr_scan"}, "fusion_lat": 0.0}, {"lat": 38.961531666666666, "lon": -77.0278745, "is_disabled": 0, "fusion_lon": 0.0, "is_reserved": 0, "name": "385b7cc7fb62b0def0d81ef57a74955d", "type": "electric_scooter", "bike_id": "385b7cc7fb62b0def0d81ef57a74955d", "rental_uris": {"ios": "https://dc.lft.to/lastmile_qr_scan", "android": "https://dc.lft.to/lastmile_qr_scan"}, "fusion_lat": 0.0}, {"lat": 38.90388866666667, "lon": -77.018112, "is_disabled": 0, "fusion_lon": 0.0, "is_reserved": 0, "name": "6ef61df94a20edd381420e3e509583a3", "type": "electric_scooter", "bike_id": "6ef61df94a20edd381420e3e509583a3", "rental_uris": {"ios": "https://dc.lft.to/lastmile_qr_scan", "android": "https://dc.lft.to/lastmile_qr_scan"}, "fusion_lat": 0.0}, {"lat": 38.90379733333333, "lon": -77.0388175, "is_disabled": 0, "fusion_lon": 0.0, "is_reserved": 0, "name": "d944e5a9a66d31fd023a58bd0d071c65", "type": "electric_scooter", "bike_id": "d944e5a9a66d31fd023a58bd0d071c65", "rental_uris": {"ios": "https://dc.lft.to/lastmile_qr_scan", "android": "https://dc.lft.to/lastmile_qr_scan"}, "fusion_lat": 0.0}, {"lat": 38.89902383333333, "lon": -76.94558549999999, "is_disabled": 0, "fusion_lon": 0.0, "is_reserved": 0, "name": "3b54eeccd68adcd48d39e174b3550132", "type": "electric_scooter", "bike_id": "3b54eeccd68adcd48d39e174b3550132", "rental_uris": {"ios": "https://dc.lft.to/lastmile_qr_scan", "android": "https://dc.lft.to/lastmile_qr_scan"}, "fusion_lat": 0.0}, {"lat": 38.917568, "lon": -77.02404516666667, "is_disabled": 0, "fusion_lon": 0.0, "is_reserved": 0, "name": "95431310a4d84b68510c00f733b7d3d9", "type": "electric_scooter", "bike_id": "95431310a4d84b68510c00f733b7d3d9", "rental_uris": {"ios": "https://dc.lft.to/lastmile_qr_scan", "android": "https://dc.lft.to/lastmile_qr_scan"}, "fusion_lat": 0.0}, {"lat": 38.91151416666666, "lon": -77.034704, "is_disabled": 0, "fusion_lon": 0.0, "is_reserved": 0, "name": "bf9c132cb65fe14ac99a917e4c2aa63f", "type": "electric_scooter", "bike_id": "bf9c132cb65fe14ac99a917e4c2aa63f", "rental_uris": {"ios": "https://dc.lft.to/lastmile_qr_scan", "android": "https://dc.lft.to/lastmile_qr_scan"}, "fusion_lat": 0.0}, {"lat": 38.916603, "lon": -77.04375216666666, "is_disabled": 0, "fusion_lon": 0.0, "is_reserved": 0, "name": "d178b25f7bb526b70d473322a1bcb1e0", "type": "electric_scooter", "bike_id": "d178b25f7bb526b70d473322a1bcb1e0", "rental_uris": {"ios": "https://dc.lft.to/lastmile_qr_scan", "android": "https://dc.lft.to/lastmile_qr_scan"}, "fusion_lat": 0.0}, {"lat": 38.90075733333333, "lon": -77.03355133333334, "is_disabled": 0, "fusion_lon": 0.0, "is_reserved": 0, "name": "a96a955babbb802a10b0ffe72f9747e2", "type": "electric_scooter", "bike_id": "a96a955babbb802a10b0ffe72f9747e2", "rental_uris": {"ios": "https://dc.lft.to/lastmile_qr_scan", "android": "https://dc.lft.to/lastmile_qr_scan"}, "fusion_lat": 0.0}, {"lat": 38.923164166666666, "lon": -77.03408483333334, "is_disabled": 0, "fusion_lon": 0.0, "is_reserved": 0, "name": "42bfb8fe32c729bf67361eb51bb7d325", "type": "electric_scooter", "bike_id": "42bfb8fe32c729bf67361eb51bb7d325", "rental_uris": {"ios": "https://dc.lft.to/lastmile_qr_scan", "android": "https://dc.lft.to/lastmile_qr_scan"}, "fusion_lat": 0.0}, {"lat": 38.91920983333333, "lon": -77.03423783333334, "is_disabled": 0, "fusion_lon": 0.0, "is_reserved": 0, "name": "90fc4c0f65a70f4fe0f2f48e27ee96b0", "type": "electric_scooter", "bike_id": "90fc4c0f65a70f4fe0f2f48e27ee96b0", "rental_uris": {"ios": "https://dc.lft.to/lastmile_qr_scan", "android": "https://dc.lft.to/lastmile_qr_scan"}, "fusion_lat": 0.0}, {"lat": 38.914553833333336, "lon": -77.041558, "is_disabled": 0, "fusion_lon": 0.0, "is_reserved": 0, "name": "458b6061d866a97556c9c9e693b15eed", "type": "electric_scooter", "bike_id": "458b6061d866a97556c9c9e693b15eed", "rental_uris": {"ios": "https://dc.lft.to/lastmile_qr_scan", "android": "https://dc.lft.to/lastmile_qr_scan"}, "fusion_lat": 0.0}, {"lat": 38.91293483333333, "lon": -77.02227966666666, "is_disabled": 0, "fusion_lon": 0.0, "is_reserved": 0, "name": "04423c5583ddd1fd21520409bca6dd40", "type": "electric_scooter", "bike_id": "04423c5583ddd1fd21520409bca6dd40", "rental_uris": {"ios": "https://dc.lft.to/lastmile_qr_scan", "android": "https://dc.lft.to/lastmile_qr_scan"}, "fusion_lat": 0.0}, {"lat": 38.912549166666665, "lon": -77.0155575, "is_disabled": 0, "fusion_lon": 0.0, "is_reserved": 0, "name": "19ef81b52c95d011f52e1e2836bba161", "type": "electric_scooter", "bike_id": "19ef81b52c95d011f52e1e2836bba161", "rental_uris": {"ios": "https://dc.lft.to/lastmile_qr_scan", "android": "https://dc.lft.to/lastmile_qr_scan"}, "fusion_lat": 0.0}, {"lat": 38.947354833333335, "lon": -77.01615383333333, "is_disabled": 0, "fusion_lon": 0.0, "is_reserved": 0, "name": "b34618d20b9284edecee55d48f7b2ada", "type": "electric_scooter", "bike_id": "b34618d20b9284edecee55d48f7b2ada", "rental_uris": {"ios": "https://dc.lft.to/lastmile_qr_scan", "android": "https://dc.lft.to/lastmile_qr_scan"}, "fusion_lat": 0.0}, {"lat": 38.92280083333333, "lon": -77.03625433333333, "is_disabled": 0, "fusion_lon": 0.0, "is_reserved": 0, "name": "ef7de781e28101a4a4c98df5872f2efd", "type": "electric_scooter", "bike_id": "ef7de781e28101a4a4c98df5872f2efd", "rental_uris": {"ios": "https://dc.lft.to/lastmile_qr_scan", "android": "https://dc.lft.to/lastmile_qr_scan"}, "fusion_lat": 0.0}, {"lat": 38.90479166666667, "lon": -77.0072335, "is_disabled": 0, "fusion_lon": 0.0, "is_reserved": 0, "name": "f5a6fa53830a77c64c486a2854088324", "type": "electric_scooter", "bike_id": "f5a6fa53830a77c64c486a2854088324", "rental_uris": {"ios": "https://dc.lft.to/lastmile_qr_scan", "android": "https://dc.lft.to/lastmile_qr_scan"}, "fusion_lat": 0.0}, {"lat": 38.90568366666667, "lon": -77.022142, "is_disabled": 0, "fusion_lon": 0.0, "is_reserved": 0, "name": "1cdfe704a6d8735f0756d93f5801362e", "type": "electric_scooter", "bike_id": "1cdfe704a6d8735f0756d93f5801362e", "rental_uris": {"ios": "https://dc.lft.to/lastmile_qr_scan", "android": "https://dc.lft.to/lastmile_qr_scan"}, "fusion_lat": 0.0}, {"lat": 38.83244, "lon": -77.00724583333333, "is_disabled": 0, "fusion_lon": 0.0, "is_reserved": 0, "name": "9bee72e6ebae97b6dc6fab003a0b7088", "type": "electric_bike", "bike_id": "9bee72e6ebae97b6dc6fab003a0b7088", "rental_uris": {"ios": "https://dc.lft.to/lastmile_qr_scan", "android": "https://dc.lft.to/lastmile_qr_scan"}, "fusion_lat": 0.0}, {"lat": 38.9159925, "lon": -77.04653733333333, "is_disabled": 0, "fusion_lon": 0.0, "is_reserved": 0, "name": "81e87dd35198cea37325d5461843d382", "type": "electric_scooter", "bike_id": "81e87dd35198cea37325d5461843d382", "rental_uris": {"ios": "https://dc.lft.to/lastmile_qr_scan", "android": "https://dc.lft.to/lastmile_qr_scan"}, "fusion_lat": 0.0}, {"lat": 38.92178783333333, "lon": -77.04188283333333, "is_disabled": 0, "fusion_lon": 0.0, "is_reserved": 0, "name": "3240dc75c71a5c69d8af683b6c3f2d9d", "type": "electric_scooter", "bike_id": "3240dc75c71a5c69d8af683b6c3f2d9d", "rental_uris": {"ios": "https://dc.lft.to/lastmile_qr_scan", "android": "https://dc.lft.to/lastmile_qr_scan"}, "fusion_lat": 0.0}, {"lat": 38.9310655, "lon": -77.03029466666666, "is_disabled": 0, "fusion_lon": 0.0, "is_reserved": 0, "name": "aab99541c7fb1edcd296a4c2201b2c93", "type": "electric_scooter", "bike_id": "aab99541c7fb1edcd296a4c2201b2c93", "rental_uris": {"ios": "https://dc.lft.to/lastmile_qr_scan", "android": "https://dc.lft.to/lastmile_qr_scan"}, "fusion_lat": 0.0}, {"lat": 38.93200516666667, "lon": -77.03502066666667, "is_disabled": 0, "fusion_lon": 0.0, "is_reserved": 0, "name": "88667ff36e553b86ace1bf414dc78d25", "type": "electric_scooter", "bike_id": "88667ff36e553b86ace1bf414dc78d25", "rental_uris": {"ios": "https://dc.lft.to/lastmile_qr_scan", "android": "https://dc.lft.to/lastmile_qr_scan"}, "fusion_lat": 0.0}, {"lat": 38.921385666666666, "lon": -77.03502166666667, "is_disabled": 0, "fusion_lon": 0.0, "is_reserved": 0, "name": "4dc53616aa95f852617311311ff722d7", "type": "electric_scooter", "bike_id": "4dc53616aa95f852617311311ff722d7", "rental_uris": {"ios": "https://dc.lft.to/lastmile_qr_scan", "android": "https://dc.lft.to/lastmile_qr_scan"}, "fusion_lat": 0.0}, {"lat": 38.863315666666665, "lon": -76.9872035, "is_disabled": 0, "fusion_lon": 0.0, "is_reserved": 0, "name": "cb155cbac991a0a70e2f5539d4d060b0", "type": "electric_bike", "bike_id": "cb155cbac991a0a70e2f5539d4d060b0", "rental_uris": {"ios": "https://dc.lft.to/lastmile_qr_scan", "android": "https://dc.lft.to/lastmile_qr_scan"}, "fusion_lat": 0.0}, {"lat": 38.91791383333333, "lon": -77.02300266666667, "is_disabled": 0, "fusion_lon": 0.0, "is_reserved": 0, "name": "dd6478fc6f66d1fd5108e2188f10b96e", "type": "electric_scooter", "bike_id": "dd6478fc6f66d1fd5108e2188f10b96e", "rental_uris": {"ios": "https://dc.lft.to/lastmile_qr_scan", "android": "https://dc.lft.to/lastmile_qr_scan"}, "fusion_lat": 0.0}, {"lat": 38.9126585, "lon": -77.03534233333333, "is_disabled": 0, "fusion_lon": 0.0, "is_reserved": 0, "name": "e8ed7d19f8bc505cabf5671721bcb354", "type": "electric_scooter", "bike_id": "e8ed7d19f8bc505cabf5671721bcb354", "rental_uris": {"ios": "https://dc.lft.to/lastmile_qr_scan", "android": "https://dc.lft.to/lastmile_qr_scan"}, "fusion_lat": 0.0}, {"lat": 38.886481, "lon": -77.01980683333333, "is_disabled": 0, "fusion_lon": 0.0, "is_reserved": 0, "name": "105984d185d8adc304b9e707f60469b6", "type": "electric_scooter", "bike_id": "105984d185d8adc304b9e707f60469b6", "rental_uris": {"ios": "https://dc.lft.to/lastmile_qr_scan", "android": "https://dc.lft.to/lastmile_qr_scan"}, "fusion_lat": 0.0}, {"lat": 38.914035166666665, "lon": -77.0294145, "is_disabled": 0, "fusion_lon": 0.0, "is_reserved": 0, "name": "f86406ff1f6243dcdd539d0f9f6bffdd", "type": "electric_scooter", "bike_id": "f86406ff1f6243dcdd539d0f9f6bffdd", "rental_uris": {"ios": "https://dc.lft.to/lastmile_qr_scan", "android": "https://dc.lft.to/lastmile_qr_scan"}, "fusion_lat": 0.0}, {"lat": 38.9167625, "lon": -76.9802855, "is_disabled": 0, "fusion_lon": 0.0, "is_reserved": 0, "name": "b336c124aad8c902d4c309549119a80c", "type": "electric_scooter", "bike_id": "b336c124aad8c902d4c309549119a80c", "rental_uris": {"ios": "https://dc.lft.to/lastmile_qr_scan", "android": "https://dc.lft.to/lastmile_qr_scan"}, "fusion_lat": 0.0}, {"lat": 38.932574333333335, "lon": -76.98901466666666, "is_disabled": 0, "fusion_lon": 0.0, "is_reserved": 0, "name": "344a564609a7cf1dfab8cb67d3681a69", "type": "electric_scooter", "bike_id": "344a564609a7cf1dfab8cb67d3681a69", "rental_uris": {"ios": "https://dc.lft.to/lastmile_qr_scan", "android": "https://dc.lft.to/lastmile_qr_scan"}, "fusion_lat": 0.0}, {"lat": 38.93063566666667, "lon": -76.9732615, "is_disabled": 0, "fusion_lon": 0.0, "is_reserved": 0, "name": "e1c3c71c8d63bad640cdf48e0e0c4212", "type": "electric_bike", "bike_id": "e1c3c71c8d63bad640cdf48e0e0c4212", "rental_uris": {"ios": "https://dc.lft.to/lastmile_qr_scan", "android": "https://dc.lft.to/lastmile_qr_scan"}, "fusion_lat": 0.0}, {"lat": 38.9213065, "lon": -77.038869, "is_disabled": 0, "fusion_lon": 0.0, "is_reserved": 0, "name": "4df0abfa65724b4991ad3169eaca52a0", "type": "electric_bike", "bike_id": "4df0abfa65724b4991ad3169eaca52a0", "rental_uris": {"ios": "https://dc.lft.to/lastmile_qr_scan", "android": "https://dc.lft.to/lastmile_qr_scan"}, "fusion_lat": 0.0}, {"lat": 38.90843233333333, "lon": -77.06345516666667, "is_disabled": 0, "fusion_lon": 0.0, "is_reserved": 0, "name": "9fb8f00aac5b834c6bd670fe76d52d96", "type": "electric_scooter", "bike_id": "9fb8f00aac5b834c6bd670fe76d52d96", "rental_uris": {"ios": "https://dc.lft.to/lastmile_qr_scan", "android": "https://dc.lft.to/lastmile_qr_scan"}, "fusion_lat": 0.0}, {"lat": 38.925113, "lon": -77.04438333333333, "is_disabled": 0, "fusion_lon": 0.0, "is_reserved": 0, "name": "d5e527519dfdb9197b4d95fc68756c8a", "type": "electric_scooter", "bike_id": "d5e527519dfdb9197b4d95fc68756c8a", "rental_uris": {"ios": "https://dc.lft.to/lastmile_qr_scan", "android": "https://dc.lft.to/lastmile_qr_scan"}, "fusion_lat": 0.0}, {"lat": 38.931793666666664, "lon": -77.03663866666666, "is_disabled": 0, "fusion_lon": 0.0, "is_reserved": 0, "name": "45d6c6c477141abd94241603481b6cda", "type": "electric_scooter", "bike_id": "45d6c6c477141abd94241603481b6cda", "rental_uris": {"ios": "https://dc.lft.to/lastmile_qr_scan", "android": "https://dc.lft.to/lastmile_qr_scan"}, "fusion_lat": 0.0}, {"lat": 38.79982833333333, "lon": -77.1297555, "is_disabled": 0, "fusion_lon": 0.0, "is_reserved": 0, "name": "0dd92ebc228d394ecf6d507555ec5aac", "type": "electric_bike", "bike_id": "0dd92ebc228d394ecf6d507555ec5aac", "rental_uris": {"ios": "https://dc.lft.to/lastmile_qr_scan", "android": "https://dc.lft.to/lastmile_qr_scan"}, "fusion_lat": 0.0}, {"lat": 38.917312833333334, "lon": -77.04171316666667, "is_disabled": 0, "fusion_lon": 0.0, "is_reserved": 0, "name": "b8d207468f5ea323c6285752a19bdab4", "type": "electric_scooter", "bike_id": "b8d207468f5ea323c6285752a19bdab4", "rental_uris": {"ios": "https://dc.lft.to/lastmile_qr_scan", "android": "https://dc.lft.to/lastmile_qr_scan"}, "fusion_lat": 0.0}, {"lat": 38.848643833333334, "lon": -77.09899433333334, "is_disabled": 0, "fusion_lon": 0.0, "is_reserved": 0, "name": "7988a8574c8310bf64a9dfd16b9fa3ca", "type": "electric_bike", "bike_id": "7988a8574c8310bf64a9dfd16b9fa3ca", "rental_uris": {"ios": "https://dc.lft.to/lastmile_qr_scan", "android": "https://dc.lft.to/lastmile_qr_scan"}, "fusion_lat": 0.0}, {"lat": 38.86015883333334, "lon": -76.967049, "is_disabled": 0, "fusion_lon": 0.0, "is_reserved": 0, "name": "0ae9a1931553edd53217fc6a8471e7ea", "type": "electric_scooter", "bike_id": "0ae9a1931553edd53217fc6a8471e7ea", "rental_uris": {"ios": "https://dc.lft.to/lastmile_qr_scan", "android": "https://dc.lft.to/lastmile_qr_scan"}, "fusion_lat": 0.0}, {"lat": 38.92713833333333, "lon": -77.0226855, "is_disabled": 0, "fusion_lon": 0.0, "is_reserved": 0, "name": "4d4864fd89673aefa035a5b8dbd86d6e", "type": "electric_scooter", "bike_id": "4d4864fd89673aefa035a5b8dbd86d6e", "rental_uris": {"ios": "https://dc.lft.to/lastmile_qr_scan", "android": "https://dc.lft.to/lastmile_qr_scan"}, "fusion_lat": 0.0}, {"lat": 38.9038015, "lon": -77.05145066666667, "is_disabled": 0, "fusion_lon": 0.0, "is_reserved": 0, "name": "e0000408ee99ac25c7a66a177a6f9fd4", "type": "electric_scooter", "bike_id": "e0000408ee99ac25c7a66a177a6f9fd4", "rental_uris": {"ios": "https://dc.lft.to/lastmile_qr_scan", "android": "https://dc.lft.to/lastmile_qr_scan"}, "fusion_lat": 0.0}, {"lat": 38.9120885, "lon": -77.03840966666667, "is_disabled": 0, "fusion_lon": 0.0, "is_reserved": 0, "name": "0aecda31ab1d8c1b99bd8380ab1a4734", "type": "electric_scooter", "bike_id": "0aecda31ab1d8c1b99bd8380ab1a4734", "rental_uris": {"ios": "https://dc.lft.to/lastmile_qr_scan", "android": "https://dc.lft.to/lastmile_qr_scan"}, "fusion_lat": 0.0}, {"lat": 38.9261625, "lon": -77.03232416666667, "is_disabled": 0, "fusion_lon": 0.0, "is_reserved": 0, "name": "a8828139ca60dc581aae1efb0b85b3c5", "type": "electric_scooter", "bike_id": "a8828139ca60dc581aae1efb0b85b3c5", "rental_uris": {"ios": "https://dc.lft.to/lastmile_qr_scan", "android": "https://dc.lft.to/lastmile_qr_scan"}, "fusion_lat": 0.0}, {"lat": 38.91048116666666, "lon": -77.02165816666667, "is_disabled": 0, "fusion_lon": 0.0, "is_reserved": 0, "name": "5c1a07b7f165b9b0847320bc6227ce2d", "type": "electric_scooter", "bike_id": "5c1a07b7f165b9b0847320bc6227ce2d", "rental_uris": {"ios": "https://dc.lft.to/lastmile_qr_scan", "android": "https://dc.lft.to/lastmile_qr_scan"}, "fusion_lat": 0.0}, {"lat": 38.912042, "lon": -77.0118545, "is_disabled": 0, "fusion_lon": 0.0, "is_reserved": 0, "name": "f6ce12fbe3b41c7ead12483f4c8280ff", "type": "electric_scooter", "bike_id": "f6ce12fbe3b41c7ead12483f4c8280ff", "rental_uris": {"ios": "https://dc.lft.to/lastmile_qr_scan", "android": "https://dc.lft.to/lastmile_qr_scan"}, "fusion_lat": 0.0}, {"lat": 38.918186166666665, "lon": -77.02421766666667, "is_disabled": 0, "fusion_lon": 0.0, "is_reserved": 0, "name": "4a904b35edc4778ffa141d53b29be3e3", "type": "electric_scooter", "bike_id": "4a904b35edc4778ffa141d53b29be3e3", "rental_uris": {"ios": "https://dc.lft.to/lastmile_qr_scan", "android": "https://dc.lft.to/lastmile_qr_scan"}, "fusion_lat": 0.0}, {"lat": 38.911167166666665, "lon": -77.02194683333333, "is_disabled": 0, "fusion_lon": 0.0, "is_reserved": 0, "name": "e4cd1fe76d6fff8738a330deddd36d54", "type": "electric_scooter", "bike_id": "e4cd1fe76d6fff8738a330deddd36d54", "rental_uris": {"ios": "https://dc.lft.to/lastmile_qr_scan", "android": "https://dc.lft.to/lastmile_qr_scan"}, "fusion_lat": 0.0}, {"lat": 38.90804416666667, "lon": -77.03387366666666, "is_disabled": 0, "fusion_lon": 0.0, "is_reserved": 0, "name": "32a047fd70b86e82874588d69874c51e", "type": "electric_scooter", "bike_id": "32a047fd70b86e82874588d69874c51e", "rental_uris": {"ios": "https://dc.lft.to/lastmile_qr_scan", "android": "https://dc.lft.to/lastmile_qr_scan"}, "fusion_lat": 0.0}, {"lat": 38.899854500000004, "lon": -77.01639166666666, "is_disabled": 0, "fusion_lon": 0.0, "is_reserved": 0, "name": "693261487bdf1914a9dca39710f0e4bc", "type": "electric_scooter", "bike_id": "693261487bdf1914a9dca39710f0e4bc", "rental_uris": {"ios": "https://dc.lft.to/lastmile_qr_scan", "android": "https://dc.lft.to/lastmile_qr_scan"}, "fusion_lat": 0.0}, {"lat": 38.908563, "lon": -77.02242366666667, "is_disabled": 0, "fusion_lon": 0.0, "is_reserved": 0, "name": "0184c17f1c146918f269402c69caa585", "type": "electric_scooter", "bike_id": "0184c17f1c146918f269402c69caa585", "rental_uris": {"ios": "https://dc.lft.to/lastmile_qr_scan", "android": "https://dc.lft.to/lastmile_qr_scan"}, "fusion_lat": 0.0}, {"lat": 38.91679116666667, "lon": -77.0317685, "is_disabled": 0, "fusion_lon": 0.0, "is_reserved": 0, "name": "0bb25f6ac5886a22b1d5a801d84e1f4a", "type": "electric_scooter", "bike_id": "0bb25f6ac5886a22b1d5a801d84e1f4a", "rental_uris": {"ios": "https://dc.lft.to/lastmile_qr_scan", "android": "https://dc.lft.to/lastmile_qr_scan"}, "fusion_lat": 0.0}, {"lat": 38.9010165, "lon": -76.93046033333333, "is_disabled": 0, "fusion_lon": 0.0, "is_reserved": 0, "name": "ba8c0cb219b2a7a68bba183b5cf93fea", "type": "electric_scooter", "bike_id": "ba8c0cb219b2a7a68bba183b5cf93fea", "rental_uris": {"ios": "https://dc.lft.to/lastmile_qr_scan", "android": "https://dc.lft.to/lastmile_qr_scan"}, "fusion_lat": 0.0}, {"lat": 38.90395483333333, "lon": -77.05070016666667, "is_disabled": 0, "fusion_lon": 0.0, "is_reserved": 0, "name": "6cbd33b9f2e5e08df08686cf22d5ac1e", "type": "electric_scooter", "bike_id": "6cbd33b9f2e5e08df08686cf22d5ac1e", "rental_uris": {"ios": "https://dc.lft.to/lastmile_qr_scan", "android": "https://dc.lft.to/lastmile_qr_scan"}, "fusion_lat": 0.0}, {"lat": 38.91282283333334, "lon": -77.03659816666666, "is_disabled": 0, "fusion_lon": 0.0, "is_reserved": 0, "name": "2bbaa3c5f3e691eb2fbb362f54366c6e", "type": "electric_scooter", "bike_id": "2bbaa3c5f3e691eb2fbb362f54366c6e", "rental_uris": {"ios": "https://dc.lft.to/lastmile_qr_scan", "android": "https://dc.lft.to/lastmile_qr_scan"}, "fusion_lat": 0.0}, {"lat": 38.90395616666667, "lon": -77.0218665, "is_disabled": 0, "fusion_lon": 0.0, "is_reserved": 0, "name": "f2677ffa397a66d9e052e4227209c0e1", "type": "electric_scooter", "bike_id": "f2677ffa397a66d9e052e4227209c0e1", "rental_uris": {"ios": "https://dc.lft.to/lastmile_qr_scan", "android": "https://dc.lft.to/lastmile_qr_scan"}, "fusion_lat": 0.0}, {"lat": 38.927122833333335, "lon": -77.0208155, "is_disabled": 0, "fusion_lon": 0.0, "is_reserved": 0, "name": "a44b17149b99eb862cae09d245de57b3", "type": "electric_scooter", "bike_id": "a44b17149b99eb862cae09d245de57b3", "rental_uris": {"ios": "https://dc.lft.to/lastmile_qr_scan", "android": "https://dc.lft.to/lastmile_qr_scan"}, "fusion_lat": 0.0}, {"lat": 38.88725633333333, "lon": -76.9835665, "is_disabled": 0, "fusion_lon": 0.0, "is_reserved": 0, "name": "2711a28d4ae2de6777506a3bf4ed9bce", "type": "electric_scooter", "bike_id": "2711a28d4ae2de6777506a3bf4ed9bce", "rental_uris": {"ios": "https://dc.lft.to/lastmile_qr_scan", "android": "https://dc.lft.to/lastmile_qr_scan"}, "fusion_lat": 0.0}, {"lat": 38.90262233333333, "lon": -77.0177665, "is_disabled": 0, "fusion_lon": 0.0, "is_reserved": 0, "name": "bcf35bb70eacf085efc182d5099cf4d9", "type": "electric_scooter", "bike_id": "bcf35bb70eacf085efc182d5099cf4d9", "rental_uris": {"ios": "https://dc.lft.to/lastmile_qr_scan", "android": "https://dc.lft.to/lastmile_qr_scan"}, "fusion_lat": 0.0}, {"lat": 38.872230333333334, "lon": -77.00589566666666, "is_disabled": 0, "fusion_lon": 0.0, "is_reserved": 0, "name": "d49ec948b26abc624eadb3b34f232dd4", "type": "electric_scooter", "bike_id": "d49ec948b26abc624eadb3b34f232dd4", "rental_uris": {"ios": "https://dc.lft.to/lastmile_qr_scan", "android": "https://dc.lft.to/lastmile_qr_scan"}, "fusion_lat": 0.0}, {"lat": 38.91263933333333, "lon": -77.03535483333333, "is_disabled": 0, "fusion_lon": 0.0, "is_reserved": 0, "name": "09e94ba7b4e12ce59d521afc27653912", "type": "electric_scooter", "bike_id": "09e94ba7b4e12ce59d521afc27653912", "rental_uris": {"ios": "https://dc.lft.to/lastmile_qr_scan", "android": "https://dc.lft.to/lastmile_qr_scan"}, "fusion_lat": 0.0}, {"lat": 38.88735783333333, "lon": -77.02386733333333, "is_disabled": 0, "fusion_lon": 0.0, "is_reserved": 0, "name": "b82cca7543a3b3cbe443667acde73f4b", "type": "electric_scooter", "bike_id": "b82cca7543a3b3cbe443667acde73f4b", "rental_uris": {"ios": "https://dc.lft.to/lastmile_qr_scan", "android": "https://dc.lft.to/lastmile_qr_scan"}, "fusion_lat": 0.0}, {"lat": 38.9051635, "lon": -77.04784516666666, "is_disabled": 0, "fusion_lon": 0.0, "is_reserved": 0, "name": "86883f8df4d2f44df9aa8b870a17010a", "type": "electric_scooter", "bike_id": "86883f8df4d2f44df9aa8b870a17010a", "rental_uris": {"ios": "https://dc.lft.to/lastmile_qr_scan", "android": "https://dc.lft.to/lastmile_qr_scan"}, "fusion_lat": 0.0}, {"lat": 38.846129, "lon": -76.96912366666666, "is_disabled": 0, "fusion_lon": 0.0, "is_reserved": 0, "name": "d5a00969afeef4c4db27dd11b7ff45f0", "type": "electric_bike", "bike_id": "d5a00969afeef4c4db27dd11b7ff45f0", "rental_uris": {"ios": "https://dc.lft.to/lastmile_qr_scan", "android": "https://dc.lft.to/lastmile_qr_scan"}, "fusion_lat": 0.0}, {"lat": 38.916084, "lon": -77.04180366666667, "is_disabled": 0, "fusion_lon": 0.0, "is_reserved": 0, "name": "f20dc977688ad554b8c10789591a2390", "type": "electric_scooter", "bike_id": "f20dc977688ad554b8c10789591a2390", "rental_uris": {"ios": "https://dc.lft.to/lastmile_qr_scan", "android": "https://dc.lft.to/lastmile_qr_scan"}, "fusion_lat": 0.0}, {"lat": 38.894724333333336, "lon": -76.98598483333333, "is_disabled": 0, "fusion_lon": 0.0, "is_reserved": 0, "name": "9e42b384948c2b66dd3ea292369a6d4e", "type": "electric_scooter", "bike_id": "9e42b384948c2b66dd3ea292369a6d4e", "rental_uris": {"ios": "https://dc.lft.to/lastmile_qr_scan", "android": "https://dc.lft.to/lastmile_qr_scan"}, "fusion_lat": 0.0}, {"lat": 38.994912666666664, "lon": -77.07786066666667, "is_disabled": 0, "fusion_lon": 0.0, "is_reserved": 0, "name": "1bb2895c4c1c5f00672303ed71ef94b5", "type": "electric_bike", "bike_id": "1bb2895c4c1c5f00672303ed71ef94b5", "rental_uris": {"ios": "https://dc.lft.to/lastmile_qr_scan", "android": "https://dc.lft.to/lastmile_qr_scan"}, "fusion_lat": 0.0}, {"lat": 38.92307983333333, "lon": -77.03657683333333, "is_disabled": 0, "fusion_lon": 0.0, "is_reserved": 0, "name": "69fae24809d4b664a2892df80fe89faa", "type": "electric_scooter", "bike_id": "69fae24809d4b664a2892df80fe89faa", "rental_uris": {"ios": "https://dc.lft.to/lastmile_qr_scan", "android": "https://dc.lft.to/lastmile_qr_scan"}, "fusion_lat": 0.0}, {"lat": 38.954292333333335, "lon": -77.01850883333333, "is_disabled": 0, "fusion_lon": 0.0, "is_reserved": 0, "name": "963db5175321a1fdc459ec75c1eb7ea5", "type": "electric_scooter", "bike_id": "963db5175321a1fdc459ec75c1eb7ea5", "rental_uris": {"ios": "https://dc.lft.to/lastmile_qr_scan", "android": "https://dc.lft.to/lastmile_qr_scan"}, "fusion_lat": 0.0}, {"lat": 38.919347, "lon": -77.031562, "is_disabled": 0, "fusion_lon": 0.0, "is_reserved": 0, "name": "912f7dd6c5debd926d3c896c36413a88", "type": "electric_scooter", "bike_id": "912f7dd6c5debd926d3c896c36413a88", "rental_uris": {"ios": "https://dc.lft.to/lastmile_qr_scan", "android": "https://dc.lft.to/lastmile_qr_scan"}, "fusion_lat": 0.0}, {"lat": 38.91996116666667, "lon": -77.0178495, "is_disabled": 0, "fusion_lon": 0.0, "is_reserved": 0, "name": "8f419c95f4b70713b41ba2b5f6ec9a8e", "type": "electric_scooter", "bike_id": "8f419c95f4b70713b41ba2b5f6ec9a8e", "rental_uris": {"ios": "https://dc.lft.to/lastmile_qr_scan", "android": "https://dc.lft.to/lastmile_qr_scan"}, "fusion_lat": 0.0}, {"lat": 38.90722366666667, "lon": -77.03300916666667, "is_disabled": 0, "fusion_lon": 0.0, "is_reserved": 0, "name": "05e6f8073ac1ce613d8c3785f1a1ddbf", "type": "electric_scooter", "bike_id": "05e6f8073ac1ce613d8c3785f1a1ddbf", "rental_uris": {"ios": "https://dc.lft.to/lastmile_qr_scan", "android": "https://dc.lft.to/lastmile_qr_scan"}, "fusion_lat": 0.0}, {"lat": 38.90720666666667, "lon": -77.07609, "is_disabled": 0, "fusion_lon": 0.0, "is_reserved": 0, "name": "d4b7cdc72c4454be3e38f1fe6cfe562c", "type": "electric_scooter", "bike_id": "d4b7cdc72c4454be3e38f1fe6cfe562c", "rental_uris": {"ios": "https://dc.lft.to/lastmile_qr_scan", "android": "https://dc.lft.to/lastmile_qr_scan"}, "fusion_lat": 0.0}, {"lat": 38.89754833333333, "lon": -77.03302, "is_disabled": 0, "fusion_lon": 0.0, "is_reserved": 0, "name": "f99f322e21212c8cf9f8c30603535aa4", "type": "electric_scooter", "bike_id": "f99f322e21212c8cf9f8c30603535aa4", "rental_uris": {"ios": "https://dc.lft.to/lastmile_qr_scan", "android": "https://dc.lft.to/lastmile_qr_scan"}, "fusion_lat": 0.0}, {"lat": 38.9112895, "lon": -77.0219685, "is_disabled": 0, "fusion_lon": 0.0, "is_reserved": 0, "name": "ea493a6102634a0e6f9c86e486d703e8", "type": "electric_scooter", "bike_id": "ea493a6102634a0e6f9c86e486d703e8", "rental_uris": {"ios": "https://dc.lft.to/lastmile_qr_scan", "android": "https://dc.lft.to/lastmile_qr_scan"}, "fusion_lat": 0.0}, {"lat": 38.8922245, "lon": -77.04328533333333, "is_disabled": 0, "fusion_lon": 0.0, "is_reserved": 0, "name": "0c28a2f8cfe700a28fea2efa42ec842c", "type": "electric_scooter", "bike_id": "0c28a2f8cfe700a28fea2efa42ec842c", "rental_uris": {"ios": "https://dc.lft.to/lastmile_qr_scan", "android": "https://dc.lft.to/lastmile_qr_scan"}, "fusion_lat": 0.0}, {"lat": 38.8767735, "lon": -77.00339133333334, "is_disabled": 0, "fusion_lon": 0.0, "is_reserved": 0, "name": "a0efac1649fe8ae4425c8afc42212804", "type": "electric_scooter", "bike_id": "a0efac1649fe8ae4425c8afc42212804", "rental_uris": {"ios": "https://dc.lft.to/lastmile_qr_scan", "android": "https://dc.lft.to/lastmile_qr_scan"}, "fusion_lat": 0.0}, {"lat": 38.929452833333336, "lon": -77.0276275, "is_disabled": 0, "fusion_lon": 0.0, "is_reserved": 0, "name": "3a85cf942159fcff10f90d244ee0f411", "type": "electric_scooter", "bike_id": "3a85cf942159fcff10f90d244ee0f411", "rental_uris": {"ios": "https://dc.lft.to/lastmile_qr_scan", "android": "https://dc.lft.to/lastmile_qr_scan"}, "fusion_lat": 0.0}, {"lat": 38.91409983333333, "lon": -77.02188816666667, "is_disabled": 0, "fusion_lon": 0.0, "is_reserved": 0, "name": "1ba6d80a7dcb8198cb775110c07afa72", "type": "electric_scooter", "bike_id": "1ba6d80a7dcb8198cb775110c07afa72", "rental_uris": {"ios": "https://dc.lft.to/lastmile_qr_scan", "android": "https://dc.lft.to/lastmile_qr_scan"}, "fusion_lat": 0.0}, {"lat": 38.908744166666665, "lon": -77.03255316666667, "is_disabled": 0, "fusion_lon": 0.0, "is_reserved": 0, "name": "6b326618f41d211fffaaec0e90436bc4", "type": "electric_scooter", "bike_id": "6b326618f41d211fffaaec0e90436bc4", "rental_uris": {"ios": "https://dc.lft.to/lastmile_qr_scan", "android": "https://dc.lft.to/lastmile_qr_scan"}, "fusion_lat": 0.0}, {"lat": 38.9050535, "lon": -77.06610233333333, "is_disabled": 0, "fusion_lon": 0.0, "is_reserved": 0, "name": "8677e0d7076a9fa34ff5374e839a0f7d", "type": "electric_scooter", "bike_id": "8677e0d7076a9fa34ff5374e839a0f7d", "rental_uris": {"ios": "https://dc.lft.to/lastmile_qr_scan", "android": "https://dc.lft.to/lastmile_qr_scan"}, "fusion_lat": 0.0}, {"lat": 38.91816266666667, "lon": -77.02531783333333, "is_disabled": 0, "fusion_lon": 0.0, "is_reserved": 0, "name": "4a45db73c0c9c4482e8db59208599578", "type": "electric_scooter", "bike_id": "4a45db73c0c9c4482e8db59208599578", "rental_uris": {"ios": "https://dc.lft.to/lastmile_qr_scan", "android": "https://dc.lft.to/lastmile_qr_scan"}, "fusion_lat": 0.0}, {"lat": 38.900715, "lon": -77.013179, "is_disabled": 0, "fusion_lon": 0.0, "is_reserved": 0, "name": "5cbe8e08b2e288019ad21f9d4255eadd", "type": "electric_scooter", "bike_id": "5cbe8e08b2e288019ad21f9d4255eadd", "rental_uris": {"ios": "https://dc.lft.to/lastmile_qr_scan", "android": "https://dc.lft.to/lastmile_qr_scan"}, "fusion_lat": 0.0}, {"lat": 38.918932, "lon": -77.02951, "is_disabled": 0, "fusion_lon": 0.0, "is_reserved": 0, "name": "2ca534711a932f8f2fdb28a8ae5745eb", "type": "electric_scooter", "bike_id": "2ca534711a932f8f2fdb28a8ae5745eb", "rental_uris": {"ios": "https://dc.lft.to/lastmile_qr_scan", "android": "https://dc.lft.to/lastmile_qr_scan"}, "fusion_lat": 0.0}, {"lat": 38.93242983333333, "lon": -77.03277533333333, "is_disabled": 0, "fusion_lon": 0.0, "is_reserved": 0, "name": "5a10dc0085f6a35fc8867c5b33f2d711", "type": "electric_scooter", "bike_id": "5a10dc0085f6a35fc8867c5b33f2d711", "rental_uris": {"ios": "https://dc.lft.to/lastmile_qr_scan", "android": "https://dc.lft.to/lastmile_qr_scan"}, "fusion_lat": 0.0}, {"lat": 38.91692116666667, "lon": -77.02628183333333, "is_disabled": 0, "fusion_lon": 0.0, "is_reserved": 0, "name": "92ff6adc21575968da782edd75e06f02", "type": "electric_scooter", "bike_id": "92ff6adc21575968da782edd75e06f02", "rental_uris": {"ios": "https://dc.lft.to/lastmile_qr_scan", "android": "https://dc.lft.to/lastmile_qr_scan"}, "fusion_lat": 0.0}, {"lat": 38.93100716666667, "lon": -77.026588, "is_disabled": 0, "fusion_lon": 0.0, "is_reserved": 0, "name": "4a6e234a210611fce58df680cb951522", "type": "electric_scooter", "bike_id": "4a6e234a210611fce58df680cb951522", "rental_uris": {"ios": "https://dc.lft.to/lastmile_qr_scan", "android": "https://dc.lft.to/lastmile_qr_scan"}, "fusion_lat": 0.0}, {"lat": 38.9310765, "lon": -77.03481733333334, "is_disabled": 0, "fusion_lon": 0.0, "is_reserved": 0, "name": "7149aa9db0ad0a33e6a9eeb22420afc5", "type": "electric_bike", "bike_id": "7149aa9db0ad0a33e6a9eeb22420afc5", "rental_uris": {"ios": "https://dc.lft.to/lastmile_qr_scan", "android": "https://dc.lft.to/lastmile_qr_scan"}, "fusion_lat": 0.0}, {"lat": 38.924783166666664, "lon": -77.035321, "is_disabled": 0, "fusion_lon": 0.0, "is_reserved": 0, "name": "62a8bc63818286550a04cb30b390b59d", "type": "electric_scooter", "bike_id": "62a8bc63818286550a04cb30b390b59d", "rental_uris": {"ios": "https://dc.lft.to/lastmile_qr_scan", "android": "https://dc.lft.to/lastmile_qr_scan"}, "fusion_lat": 0.0}, {"lat": 38.9938335, "lon": -76.92879733333334, "is_disabled": 0, "fusion_lon": 0.0, "is_reserved": 0, "name": "1948ef88be54c6cbf1f38ca443156dea", "type": "electric_bike", "bike_id": "1948ef88be54c6cbf1f38ca443156dea", "rental_uris": {"ios": "https://dc.lft.to/lastmile_qr_scan", "android": "https://dc.lft.to/lastmile_qr_scan"}, "fusion_lat": 0.0}, {"lat": 38.884556333333336, "lon": -76.95231, "is_disabled": 0, "fusion_lon": 0.0, "is_reserved": 0, "name": "8a27e805e3620e483addc2b5f20ad139", "type": "electric_bike", "bike_id": "8a27e805e3620e483addc2b5f20ad139", "rental_uris": {"ios": "https://dc.lft.to/lastmile_qr_scan", "android": "https://dc.lft.to/lastmile_qr_scan"}, "fusion_lat": 0.0}, {"lat": 38.8982155, "lon": -76.99070933333333, "is_disabled": 0, "fusion_lon": 0.0, "is_reserved": 0, "name": "885dfa2327a587f9c0cd4541c3928178", "type": "electric_bike", "bike_id": "885dfa2327a587f9c0cd4541c3928178", "rental_uris": {"ios": "https://dc.lft.to/lastmile_qr_scan", "android": "https://dc.lft.to/lastmile_qr_scan"}, "fusion_lat": 0.0}, {"lat": 38.94919566666667, "lon": -77.0080325, "is_disabled": 0, "fusion_lon": 0.0, "is_reserved": 0, "name": "1ad7839d1f728f6d3b6c0bd2ade81b99", "type": "electric_bike", "bike_id": "1ad7839d1f728f6d3b6c0bd2ade81b99", "rental_uris": {"ios": "https://dc.lft.to/lastmile_qr_scan", "android": "https://dc.lft.to/lastmile_qr_scan"}, "fusion_lat": 0.0}, {"lat": 38.91493416666667, "lon": -77.0345795, "is_disabled": 0, "fusion_lon": 0.0, "is_reserved": 0, "name": "9bd14acccfe977f24e225f007c15e42e", "type": "electric_scooter", "bike_id": "9bd14acccfe977f24e225f007c15e42e", "rental_uris": {"ios": "https://dc.lft.to/lastmile_qr_scan", "android": "https://dc.lft.to/lastmile_qr_scan"}, "fusion_lat": 0.0}, {"lat": 38.89625183333333, "lon": -77.02133616666667, "is_disabled": 0, "fusion_lon": 0.0, "is_reserved": 0, "name": "ce0c32029ef348038c009826ec865b68", "type": "electric_scooter", "bike_id": "ce0c32029ef348038c009826ec865b68", "rental_uris": {"ios": "https://dc.lft.to/lastmile_qr_scan", "android": "https://dc.lft.to/lastmile_qr_scan"}, "fusion_lat": 0.0}, {"lat": 38.91411033333333, "lon": -77.021831, "is_disabled": 0, "fusion_lon": 0.0, "is_reserved": 0, "name": "d6ca9d3ceae2874223d0dca554ddd9ee", "type": "electric_scooter", "bike_id": "d6ca9d3ceae2874223d0dca554ddd9ee", "rental_uris": {"ios": "https://dc.lft.to/lastmile_qr_scan", "android": "https://dc.lft.to/lastmile_qr_scan"}, "fusion_lat": 0.0}, {"lat": 38.932006666666666, "lon": -77.02819783333334, "is_disabled": 0, "fusion_lon": 0.0, "is_reserved": 0, "name": "884ae59d9fff9af41334731496ce782b", "type": "electric_scooter", "bike_id": "884ae59d9fff9af41334731496ce782b", "rental_uris": {"ios": "https://dc.lft.to/lastmile_qr_scan", "android": "https://dc.lft.to/lastmile_qr_scan"}, "fusion_lat": 0.0}, {"lat": 38.898408333333336, "lon": -77.05037433333334, "is_disabled": 0, "fusion_lon": 0.0, "is_reserved": 0, "name": "e7cdc98709e46697a8552f3c2ee8706a", "type": "electric_scooter", "bike_id": "e7cdc98709e46697a8552f3c2ee8706a", "rental_uris": {"ios": "https://dc.lft.to/lastmile_qr_scan", "android": "https://dc.lft.to/lastmile_qr_scan"}, "fusion_lat": 0.0}, {"lat": 38.9017115, "lon": -77.0247695, "is_disabled": 0, "fusion_lon": 0.0, "is_reserved": 0, "name": "387bed1d3dad0bd1b755522a4bd5a4ef", "type": "electric_scooter", "bike_id": "387bed1d3dad0bd1b755522a4bd5a4ef", "rental_uris": {"ios": "https://dc.lft.to/lastmile_qr_scan", "android": "https://dc.lft.to/lastmile_qr_scan"}, "fusion_lat": 0.0}, {"lat": 38.9236095, "lon": -77.03201583333333, "is_disabled": 0, "fusion_lon": 0.0, "is_reserved": 0, "name": "fbbdb7d7c75cc2bd0df915bf68c5a796", "type": "electric_scooter", "bike_id": "fbbdb7d7c75cc2bd0df915bf68c5a796", "rental_uris": {"ios": "https://dc.lft.to/lastmile_qr_scan", "android": "https://dc.lft.to/lastmile_qr_scan"}, "fusion_lat": 0.0}, {"lat": 38.91001683333333, "lon": -77.04010166666667, "is_disabled": 0, "fusion_lon": 0.0, "is_reserved": 0, "name": "8284acd6e510018bfdb64f16091c7d45", "type": "electric_scooter", "bike_id": "8284acd6e510018bfdb64f16091c7d45", "rental_uris": {"ios": "https://dc.lft.to/lastmile_qr_scan", "android": "https://dc.lft.to/lastmile_qr_scan"}, "fusion_lat": 0.0}, {"lat": 38.915217166666665, "lon": -77.01426233333333, "is_disabled": 0, "fusion_lon": 0.0, "is_reserved": 0, "name": "09fef3009022fc97fecf7a4f0d29cd79", "type": "electric_scooter", "bike_id": "09fef3009022fc97fecf7a4f0d29cd79", "rental_uris": {"ios": "https://dc.lft.to/lastmile_qr_scan", "android": "https://dc.lft.to/lastmile_qr_scan"}, "fusion_lat": 0.0}, {"lat": 38.9180485, "lon": -77.03174533333333, "is_disabled": 0, "fusion_lon": 0.0, "is_reserved": 0, "name": "850ce58efdb02493783ac283c7083153", "type": "electric_scooter", "bike_id": "850ce58efdb02493783ac283c7083153", "rental_uris": {"ios": "https://dc.lft.to/lastmile_qr_scan", "android": "https://dc.lft.to/lastmile_qr_scan"}, "fusion_lat": 0.0}, {"lat": 38.92300266666667, "lon": -77.042702, "is_disabled": 0, "fusion_lon": 0.0, "is_reserved": 0, "name": "d44980a687408a2866f188a336851a49", "type": "electric_scooter", "bike_id": "d44980a687408a2866f188a336851a49", "rental_uris": {"ios": "https://dc.lft.to/lastmile_qr_scan", "android": "https://dc.lft.to/lastmile_qr_scan"}, "fusion_lat": 0.0}, {"lat": 38.923648166666666, "lon": -77.0440465, "is_disabled": 0, "fusion_lon": 0.0, "is_reserved": 0, "name": "04938abafcb54ed4bf5d95ff713ba997", "type": "electric_scooter", "bike_id": "04938abafcb54ed4bf5d95ff713ba997", "rental_uris": {"ios": "https://dc.lft.to/lastmile_qr_scan", "android": "https://dc.lft.to/lastmile_qr_scan"}, "fusion_lat": 0.0}, {"lat": 38.91681633333334, "lon": -77.03690766666666, "is_disabled": 0, "fusion_lon": 0.0, "is_reserved": 0, "name": "141c1ccae7240a44412a961552db5923", "type": "electric_scooter", "bike_id": "141c1ccae7240a44412a961552db5923", "rental_uris": {"ios": "https://dc.lft.to/lastmile_qr_scan", "android": "https://dc.lft.to/lastmile_qr_scan"}, "fusion_lat": 0.0}, {"lat": 38.90959216666667, "lon": -77.02414383333333, "is_disabled": 0, "fusion_lon": 0.0, "is_reserved": 0, "name": "41255569b86d2599c41fa680b07177df", "type": "electric_scooter", "bike_id": "41255569b86d2599c41fa680b07177df", "rental_uris": {"ios": "https://dc.lft.to/lastmile_qr_scan", "android": "https://dc.lft.to/lastmile_qr_scan"}, "fusion_lat": 0.0}, {"lat": 38.906828833333336, "lon": -77.03642666666667, "is_disabled": 0, "fusion_lon": 0.0, "is_reserved": 0, "name": "f9a85e3bfcffc2df5301d1e02a83e103", "type": "electric_scooter", "bike_id": "f9a85e3bfcffc2df5301d1e02a83e103", "rental_uris": {"ios": "https://dc.lft.to/lastmile_qr_scan", "android": "https://dc.lft.to/lastmile_qr_scan"}, "fusion_lat": 0.0}, {"lat": 38.91020316666667, "lon": -76.99722316666667, "is_disabled": 0, "fusion_lon": 0.0, "is_reserved": 0, "name": "94a0a6b3de8e8dc21386a9dffb0e138e", "type": "electric_scooter", "bike_id": "94a0a6b3de8e8dc21386a9dffb0e138e", "rental_uris": {"ios": "https://dc.lft.to/lastmile_qr_scan", "android": "https://dc.lft.to/lastmile_qr_scan"}, "fusion_lat": 0.0}, {"lat": 38.908586, "lon": -76.991565, "is_disabled": 0, "fusion_lon": 0.0, "is_reserved": 0, "name": "4e13e982709f4c4b5c843e26775cff50", "type": "electric_scooter", "bike_id": "4e13e982709f4c4b5c843e26775cff50", "rental_uris": {"ios": "https://dc.lft.to/lastmile_qr_scan", "android": "https://dc.lft.to/lastmile_qr_scan"}, "fusion_lat": 0.0}, {"lat": 38.90323466666667, "lon": -77.01988516666667, "is_disabled": 0, "fusion_lon": 0.0, "is_reserved": 0, "name": "ce1d1e07d47b5b44b4fc1ae67f82ee51", "type": "electric_scooter", "bike_id": "ce1d1e07d47b5b44b4fc1ae67f82ee51", "rental_uris": {"ios": "https://dc.lft.to/lastmile_qr_scan", "android": "https://dc.lft.to/lastmile_qr_scan"}, "fusion_lat": 0.0}, {"lat": 38.92734316666667, "lon": -77.0342215, "is_disabled": 0, "fusion_lon": 0.0, "is_reserved": 0, "name": "121b87acc85755ff9611e4a2a0cb30bc", "type": "electric_scooter", "bike_id": "121b87acc85755ff9611e4a2a0cb30bc", "rental_uris": {"ios": "https://dc.lft.to/lastmile_qr_scan", "android": "https://dc.lft.to/lastmile_qr_scan"}, "fusion_lat": 0.0}, {"lat": 38.91038866666667, "lon": -77.04283616666666, "is_disabled": 0, "fusion_lon": 0.0, "is_reserved": 0, "name": "0fa85b3bb51447f0ea0d53edc245f6b3", "type": "electric_scooter", "bike_id": "0fa85b3bb51447f0ea0d53edc245f6b3", "rental_uris": {"ios": "https://dc.lft.to/lastmile_qr_scan", "android": "https://dc.lft.to/lastmile_qr_scan"}, "fusion_lat": 0.0}, {"lat": 38.9185355, "lon": -77.07000116666667, "is_disabled": 0, "fusion_lon": 0.0, "is_reserved": 0, "name": "8c68603e67011c436a27aa0e24cc1792", "type": "electric_scooter", "bike_id": "8c68603e67011c436a27aa0e24cc1792", "rental_uris": {"ios": "https://dc.lft.to/lastmile_qr_scan", "android": "https://dc.lft.to/lastmile_qr_scan"}, "fusion_lat": 0.0}, {"lat": 38.915440333333336, "lon": -77.03852633333334, "is_disabled": 0, "fusion_lon": 0.0, "is_reserved": 0, "name": "611a4cdbe855d14833583170b7fbcab6", "type": "electric_scooter", "bike_id": "611a4cdbe855d14833583170b7fbcab6", "rental_uris": {"ios": "https://dc.lft.to/lastmile_qr_scan", "android": "https://dc.lft.to/lastmile_qr_scan"}, "fusion_lat": 0.0}, {"lat": 38.87112916666667, "lon": -77.007549, "is_disabled": 0, "fusion_lon": 0.0, "is_reserved": 0, "name": "7af0b13af0d1efe92fb3558206265058", "type": "electric_scooter", "bike_id": "7af0b13af0d1efe92fb3558206265058", "rental_uris": {"ios": "https://dc.lft.to/lastmile_qr_scan", "android": "https://dc.lft.to/lastmile_qr_scan"}, "fusion_lat": 0.0}, {"lat": 38.874915, "lon": -76.999673, "is_disabled": 0, "fusion_lon": 0.0, "is_reserved": 0, "name": "86ddcdf79ecb9dd566b844dfb73f2fe3", "type": "electric_scooter", "bike_id": "86ddcdf79ecb9dd566b844dfb73f2fe3", "rental_uris": {"ios": "https://dc.lft.to/lastmile_qr_scan", "android": "https://dc.lft.to/lastmile_qr_scan"}, "fusion_lat": 0.0}, {"lat": 38.92099316666667, "lon": -77.0470495, "is_disabled": 0, "fusion_lon": 0.0, "is_reserved": 0, "name": "f8fb29af79ddeb0a9e6b1cd32707c7ad", "type": "electric_scooter", "bike_id": "f8fb29af79ddeb0a9e6b1cd32707c7ad", "rental_uris": {"ios": "https://dc.lft.to/lastmile_qr_scan", "android": "https://dc.lft.to/lastmile_qr_scan"}, "fusion_lat": 0.0}, {"lat": 39.01487316666667, "lon": -77.09949616666667, "is_disabled": 0, "fusion_lon": 0.0, "is_reserved": 0, "name": "9c714113325c8889642385a6c13cb409", "type": "electric_bike", "bike_id": "9c714113325c8889642385a6c13cb409", "rental_uris": {"ios": "https://dc.lft.to/lastmile_qr_scan", "android": "https://dc.lft.to/lastmile_qr_scan"}, "fusion_lat": 0.0}, {"lat": 38.898933666666665, "lon": -77.04842383333333, "is_disabled": 0, "fusion_lon": 0.0, "is_reserved": 0, "name": "d5b984f879df6780a51d693473de3109", "type": "electric_scooter", "bike_id": "d5b984f879df6780a51d693473de3109", "rental_uris": {"ios": "https://dc.lft.to/lastmile_qr_scan", "android": "https://dc.lft.to/lastmile_qr_scan"}, "fusion_lat": 0.0}, {"lat": 38.93718666666667, "lon": -77.03266033333334, "is_disabled": 0, "fusion_lon": 0.0, "is_reserved": 0, "name": "77954dec15f83547a81b1cbfe69cd8aa", "type": "electric_scooter", "bike_id": "77954dec15f83547a81b1cbfe69cd8aa", "rental_uris": {"ios": "https://dc.lft.to/lastmile_qr_scan", "android": "https://dc.lft.to/lastmile_qr_scan"}, "fusion_lat": 0.0}, {"lat": 38.938325666666664, "lon": -76.98992983333333, "is_disabled": 0, "fusion_lon": 0.0, "is_reserved": 0, "name": "0ec73812a2a759b06f37ed99c172bdcb", "type": "electric_scooter", "bike_id": "0ec73812a2a759b06f37ed99c172bdcb", "rental_uris": {"ios": "https://dc.lft.to/lastmile_qr_scan", "android": "https://dc.lft.to/lastmile_qr_scan"}, "fusion_lat": 0.0}, {"lat": 38.919888, "lon": -77.0253735, "is_disabled": 0, "fusion_lon": 0.0, "is_reserved": 0, "name": "b5ebee6d52630e7206d5ce6a0327c249", "type": "electric_scooter", "bike_id": "b5ebee6d52630e7206d5ce6a0327c249", "rental_uris": {"ios": "https://dc.lft.to/lastmile_qr_scan", "android": "https://dc.lft.to/lastmile_qr_scan"}, "fusion_lat": 0.0}, {"lat": 38.915515166666665, "lon": -77.032549, "is_disabled": 0, "fusion_lon": 0.0, "is_reserved": 0, "name": "c4ed9254bf3930f9567158213ce5e5d4", "type": "electric_scooter", "bike_id": "c4ed9254bf3930f9567158213ce5e5d4", "rental_uris": {"ios": "https://dc.lft.to/lastmile_qr_scan", "android": "https://dc.lft.to/lastmile_qr_scan"}, "fusion_lat": 0.0}, {"lat": 38.92298666666667, "lon": -77.035324, "is_disabled": 0, "fusion_lon": 0.0, "is_reserved": 0, "name": "72fef89cef2aeef82cadd7e23ad9423a", "type": "electric_scooter", "bike_id": "72fef89cef2aeef82cadd7e23ad9423a", "rental_uris": {"ios": "https://dc.lft.to/lastmile_qr_scan", "android": "https://dc.lft.to/lastmile_qr_scan"}, "fusion_lat": 0.0}, {"lat": 38.924494833333334, "lon": -77.05197133333333, "is_disabled": 0, "fusion_lon": 0.0, "is_reserved": 0, "name": "247433233f2e09bb524dc7dc1046b6c2", "type": "electric_scooter", "bike_id": "247433233f2e09bb524dc7dc1046b6c2", "rental_uris": {"ios": "https://dc.lft.to/lastmile_qr_scan", "android": "https://dc.lft.to/lastmile_qr_scan"}, "fusion_lat": 0.0}, {"lat": 38.900638, "lon": -76.927449, "is_disabled": 0, "fusion_lon": 0.0, "is_reserved": 0, "name": "460e9ae922cd7c29ae7f7e6512015af3", "type": "electric_scooter", "bike_id": "460e9ae922cd7c29ae7f7e6512015af3", "rental_uris": {"ios": "https://dc.lft.to/lastmile_qr_scan", "android": "https://dc.lft.to/lastmile_qr_scan"}, "fusion_lat": 0.0}, {"lat": 38.897290166666664, "lon": -77.02324416666667, "is_disabled": 0, "fusion_lon": 0.0, "is_reserved": 0, "name": "c5f2f065a77fc0e54d171e6d030e5aaf", "type": "electric_scooter", "bike_id": "c5f2f065a77fc0e54d171e6d030e5aaf", "rental_uris": {"ios": "https://dc.lft.to/lastmile_qr_scan", "android": "https://dc.lft.to/lastmile_qr_scan"}, "fusion_lat": 0.0}, {"lat": 38.903408166666665, "lon": -77.02355033333333, "is_disabled": 0, "fusion_lon": 0.0, "is_reserved": 0, "name": "3e220f1512031a051e4b2fc2a748a44c", "type": "electric_scooter", "bike_id": "3e220f1512031a051e4b2fc2a748a44c", "rental_uris": {"ios": "https://dc.lft.to/lastmile_qr_scan", "android": "https://dc.lft.to/lastmile_qr_scan"}, "fusion_lat": 0.0}, {"lat": 38.92566716666666, "lon": -77.03996283333333, "is_disabled": 0, "fusion_lon": 0.0, "is_reserved": 0, "name": "987db55c6c8d7d19926890f31f03b331", "type": "electric_scooter", "bike_id": "987db55c6c8d7d19926890f31f03b331", "rental_uris": {"ios": "https://dc.lft.to/lastmile_qr_scan", "android": "https://dc.lft.to/lastmile_qr_scan"}, "fusion_lat": 0.0}, {"lat": 38.9239895, "lon": -77.03528, "is_disabled": 0, "fusion_lon": 0.0, "is_reserved": 0, "name": "f4c8821a6a132a5d73678ccf51af8fff", "type": "electric_scooter", "bike_id": "f4c8821a6a132a5d73678ccf51af8fff", "rental_uris": {"ios": "https://dc.lft.to/lastmile_qr_scan", "android": "https://dc.lft.to/lastmile_qr_scan"}, "fusion_lat": 0.0}, {"lat": 38.875361, "lon": -77.005082, "is_disabled": 0, "fusion_lon": 0.0, "is_reserved": 0, "name": "0ad25fc302d1ad8f019f5a12c062b2b5", "type": "electric_scooter", "bike_id": "0ad25fc302d1ad8f019f5a12c062b2b5", "rental_uris": {"ios": "https://dc.lft.to/lastmile_qr_scan", "android": "https://dc.lft.to/lastmile_qr_scan"}, "fusion_lat": 0.0}, {"lat": 38.80760433333333, "lon": -77.1298365, "is_disabled": 0, "fusion_lon": 0.0, "is_reserved": 0, "name": "e78e2c26dd28dad96706e5876f7fda01", "type": "electric_bike", "bike_id": "e78e2c26dd28dad96706e5876f7fda01", "rental_uris": {"ios": "https://dc.lft.to/lastmile_qr_scan", "android": "https://dc.lft.to/lastmile_qr_scan"}, "fusion_lat": 0.0}, {"lat": 38.89550583333333, "lon": -76.9493855, "is_disabled": 0, "fusion_lon": 0.0, "is_reserved": 0, "name": "f6665314054b25f24dd72048ca9f9aa9", "type": "electric_scooter", "bike_id": "f6665314054b25f24dd72048ca9f9aa9", "rental_uris": {"ios": "https://dc.lft.to/lastmile_qr_scan", "android": "https://dc.lft.to/lastmile_qr_scan"}, "fusion_lat": 0.0}, {"lat": 38.922382, "lon": -77.0352325, "is_disabled": 0, "fusion_lon": 0.0, "is_reserved": 0, "name": "c1f0222041a8a9c62d0a5ba10a6fdf67", "type": "electric_scooter", "bike_id": "c1f0222041a8a9c62d0a5ba10a6fdf67", "rental_uris": {"ios": "https://dc.lft.to/lastmile_qr_scan", "android": "https://dc.lft.to/lastmile_qr_scan"}, "fusion_lat": 0.0}, {"lat": 38.881837833333336, "lon": -76.992549, "is_disabled": 0, "fusion_lon": 0.0, "is_reserved": 0, "name": "3ed60f2d5df07cd88be9f476bca30502", "type": "electric_scooter", "bike_id": "3ed60f2d5df07cd88be9f476bca30502", "rental_uris": {"ios": "https://dc.lft.to/lastmile_qr_scan", "android": "https://dc.lft.to/lastmile_qr_scan"}, "fusion_lat": 0.0}, {"lat": 38.9053515, "lon": -77.00684783333334, "is_disabled": 0, "fusion_lon": 0.0, "is_reserved": 0, "name": "8e35a4aa89cbe0b05bf87674ccb48da7", "type": "electric_scooter", "bike_id": "8e35a4aa89cbe0b05bf87674ccb48da7", "rental_uris": {"ios": "https://dc.lft.to/lastmile_qr_scan", "android": "https://dc.lft.to/lastmile_qr_scan"}, "fusion_lat": 0.0}, {"lat": 38.895531166666665, "lon": -76.94872933333333, "is_disabled": 0, "fusion_lon": 0.0, "is_reserved": 0, "name": "988e0decc0cf59206305c524dd4453c9", "type": "electric_scooter", "bike_id": "988e0decc0cf59206305c524dd4453c9", "rental_uris": {"ios": "https://dc.lft.to/lastmile_qr_scan", "android": "https://dc.lft.to/lastmile_qr_scan"}, "fusion_lat": 0.0}, {"lat": 38.878256, "lon": -77.02232733333334, "is_disabled": 0, "fusion_lon": 0.0, "is_reserved": 0, "name": "f1223cdbb622dc85833c18d2c8fa6f66", "type": "electric_scooter", "bike_id": "f1223cdbb622dc85833c18d2c8fa6f66", "rental_uris": {"ios": "https://dc.lft.to/lastmile_qr_scan", "android": "https://dc.lft.to/lastmile_qr_scan"}, "fusion_lat": 0.0}, {"lat": 38.91915016666667, "lon": -77.03206666666667, "is_disabled": 0, "fusion_lon": 0.0, "is_reserved": 0, "name": "dab4b41cee2ee9f99a5cc50f7e2aef99", "type": "electric_scooter", "bike_id": "dab4b41cee2ee9f99a5cc50f7e2aef99", "rental_uris": {"ios": "https://dc.lft.to/lastmile_qr_scan", "android": "https://dc.lft.to/lastmile_qr_scan"}, "fusion_lat": 0.0}, {"lat": 38.917963, "lon": -77.03441933333333, "is_disabled": 0, "fusion_lon": 0.0, "is_reserved": 0, "name": "5bb4c9b8ff154886c6bebc97dafaf19d", "type": "electric_scooter", "bike_id": "5bb4c9b8ff154886c6bebc97dafaf19d", "rental_uris": {"ios": "https://dc.lft.to/lastmile_qr_scan", "android": "https://dc.lft.to/lastmile_qr_scan"}, "fusion_lat": 0.0}, {"lat": 38.91708333333333, "lon": -77.024765, "is_disabled": 0, "fusion_lon": 0.0, "is_reserved": 0, "name": "b5c953698ee83e447e60ce53da08a388", "type": "electric_scooter", "bike_id": "b5c953698ee83e447e60ce53da08a388", "rental_uris": {"ios": "https://dc.lft.to/lastmile_qr_scan", "android": "https://dc.lft.to/lastmile_qr_scan"}, "fusion_lat": 0.0}, {"lat": 38.902427333333335, "lon": -77.04699366666667, "is_disabled": 0, "fusion_lon": 0.0, "is_reserved": 0, "name": "d12a5b9147657a5070489e69fec0bc3a", "type": "electric_scooter", "bike_id": "d12a5b9147657a5070489e69fec0bc3a", "rental_uris": {"ios": "https://dc.lft.to/lastmile_qr_scan", "android": "https://dc.lft.to/lastmile_qr_scan"}, "fusion_lat": 0.0}, {"lat": 38.90408383333333, "lon": -77.02015983333334, "is_disabled": 0, "fusion_lon": 0.0, "is_reserved": 0, "name": "9495ad6ede1123cc64504f25156c6080", "type": "electric_scooter", "bike_id": "9495ad6ede1123cc64504f25156c6080", "rental_uris": {"ios": "https://dc.lft.to/lastmile_qr_scan", "android": "https://dc.lft.to/lastmile_qr_scan"}, "fusion_lat": 0.0}, {"lat": 38.928748, "lon": -77.03456633333333, "is_disabled": 0, "fusion_lon": 0.0, "is_reserved": 0, "name": "2bed28984ba2c1679983df1086487b49", "type": "electric_scooter", "bike_id": "2bed28984ba2c1679983df1086487b49", "rental_uris": {"ios": "https://dc.lft.to/lastmile_qr_scan", "android": "https://dc.lft.to/lastmile_qr_scan"}, "fusion_lat": 0.0}, {"lat": 38.901473, "lon": -77.01905666666667, "is_disabled": 0, "fusion_lon": 0.0, "is_reserved": 0, "name": "1cdaf2e2d8c2bdcbde8795286f32f537", "type": "electric_scooter", "bike_id": "1cdaf2e2d8c2bdcbde8795286f32f537", "rental_uris": {"ios": "https://dc.lft.to/lastmile_qr_scan", "android": "https://dc.lft.to/lastmile_qr_scan"}, "fusion_lat": 0.0}, {"lat": 38.911059333333334, "lon": -77.04534533333333, "is_disabled": 0, "fusion_lon": 0.0, "is_reserved": 0, "name": "66896dc97628306c4f9b929a2a2cee6d", "type": "electric_scooter", "bike_id": "66896dc97628306c4f9b929a2a2cee6d", "rental_uris": {"ios": "https://dc.lft.to/lastmile_qr_scan", "android": "https://dc.lft.to/lastmile_qr_scan"}, "fusion_lat": 0.0}, {"lat": 38.898308, "lon": -77.03160516666667, "is_disabled": 0, "fusion_lon": 0.0, "is_reserved": 0, "name": "4a53b33f4facaf5938fedc113b57ed55", "type": "electric_scooter", "bike_id": "4a53b33f4facaf5938fedc113b57ed55", "rental_uris": {"ios": "https://dc.lft.to/lastmile_qr_scan", "android": "https://dc.lft.to/lastmile_qr_scan"}, "fusion_lat": 0.0}, {"lat": 38.936042666666665, "lon": -77.03188216666666, "is_disabled": 0, "fusion_lon": 0.0, "is_reserved": 0, "name": "8716c5484d0b1063e89f1df5084650b7", "type": "electric_scooter", "bike_id": "8716c5484d0b1063e89f1df5084650b7", "rental_uris": {"ios": "https://dc.lft.to/lastmile_qr_scan", "android": "https://dc.lft.to/lastmile_qr_scan"}, "fusion_lat": 0.0}, {"lat": 38.9573005, "lon": -77.02400416666667, "is_disabled": 0, "fusion_lon": 0.0, "is_reserved": 0, "name": "ef12cea8469ed129e3b420f575ccbf73", "type": "electric_scooter", "bike_id": "ef12cea8469ed129e3b420f575ccbf73", "rental_uris": {"ios": "https://dc.lft.to/lastmile_qr_scan", "android": "https://dc.lft.to/lastmile_qr_scan"}, "fusion_lat": 0.0}, {"lat": 38.9169585, "lon": -77.028832, "is_disabled": 0, "fusion_lon": 0.0, "is_reserved": 0, "name": "049c4ca6819552235376180e4928f826", "type": "electric_scooter", "bike_id": "049c4ca6819552235376180e4928f826", "rental_uris": {"ios": "https://dc.lft.to/lastmile_qr_scan", "android": "https://dc.lft.to/lastmile_qr_scan"}, "fusion_lat": 0.0},