{"data": {"bikes": [{"is_disabled": 0, "rental_uris": {"ios": "https://dc.lft.to/lastmile_qr_scan", "android": "https://dc.lft.to/lastmile_qr_scan"}, "is_reserved": 0, "fusion_lon": 0.0, "lat": 38.883899666666665, "type": "electric_scooter", "name": "93c482783cc12a7d838bac1f62982c95", "bike_id": "93c482783cc12a7d838bac1f62982c95", "fusion_lat": 0.0, "lon": -76.95762133333334}, {"is_disabled": 0, "rental_uris": {"ios": "https://dc.lft.to/lastmile_qr_scan", "android": "https://dc.lft.to/lastmile_qr_scan"}, "is_reserved": 0, "fusion_lon": 0.0, "lat": 38.917572666666665, "type": "electric_scooter", "name": "7b561d87565840660c756dc1f0b2c76e", "bike_id": "7b561d87565840660c756dc1f0b2c76e", "fusion_lat": 0.0, "lon": -77.038918}, {"is_disabled": 0, "rental_uris": {"ios": "https://dc.lft.to/lastmile_qr_scan", "android": "https://dc.lft.to/lastmile_qr_scan"}, "is_reserved": 0, "fusion_lon": 0.0, "lat": 38.900488, "type": "electric_bike", "name": "3ffb9a19ea806770ca1291f023abf3f4", "bike_id": "3ffb9a19ea806770ca1291f023abf3f4", "fusion_lat": 0.0, "lon": -76.939736}, {"is_disabled": 0, "rental_uris": {"ios": "https://dc.lft.to/lastmile_qr_scan", "android": "https://dc.lft.to/lastmile_qr_scan"}, "is_reserved": 0, "fusion_lon": 0.0, "lat": 38.920682166666666, "type": "electric_scooter", "name": "6385dbf7d648e369c3ec0f7b2de1411e", "bike_id": "6385dbf7d648e369c3ec0f7b2de1411e", "fusion_lat": 0.0, "lon": -77.02509983333333}, {"is_disabled": 0, "rental_uris": {"ios": "https://dc.lft.to/lastmile_qr_scan", "android": "https://dc.lft.to/lastmile_qr_scan"}, "is_reserved": 0, "fusion_lon": 0.0, "lat": 38.9098455, "type": "electric_bike", "name": "9beb33676261e7efcf7167700ae8b203", "bike_id": "9beb33676261e7efcf7167700ae8b203", "fusion_lat": 0.0, "lon": -77.009124}, {"is_disabled": 0, "rental_uris": {"ios": "https://dc.lft.to/lastmile_qr_scan", "android": "https://dc.lft.to/lastmile_qr_scan"}, "is_reserved": 0, "fusion_lon": 0.0, "lat": 38.906929166666664, "type": "electric_scooter", "name": "6b43a47164ef035799cd3ec2d48c2cc9", "bike_id": "6b43a47164ef035799cd3ec2d48c2cc9", "fusion_lat": 0.0, "lon": -77.02178966666666}, {"is_disabled": 0, "rental_uris": {"ios": "https://dc.lft.to/lastmile_qr_scan", "android": "https://dc.lft.to/lastmile_qr_scan"}, "is_reserved": 0, "fusion_lon": 0.0, "lat": 38.918141, "type": "electric_scooter", "name": "1786fd27b3a142a5fd7462640b154c8c", "bike_id": "1786fd27b3a142a5fd7462640b154c8c", "fusion_lat": 0.0, "lon": -77.02710483333334}, {"is_disabled": 0, "rental_uris": {"ios": "https://dc.lft.to/lastmile_qr_scan", "android": "https://dc.lft.to/lastmile_qr_scan"}, "is_reserved": 0, "fusion_lon": 0.0, "lat": 38.91993683333333, "type": "electric_scooter", "name": "73e0247c5de1063b5579d317a23c0de8", "bike_id": "73e0247c5de1063b5579d317a23c0de8", "fusion_lat": 0.0, "lon": -77.04745566666666}, {"is_disabled": 0, "rental_uris": {"ios": "https://dc.lft.to/lastmile_qr_scan", "android": "https://dc.lft.to/lastmile_qr_scan"}, "is_reserved": 0, "fusion_lon": 0.0, "lat": 38.90476983333333, "type": "electric_scooter", "name": "4a262cb86e88cf6ca09a5eaebf45f196", "bike_id": "4a262cb86e88cf6ca09a5eaebf45f196", "fusion_lat": 0.0, "lon": -77.04875833333334}, {"is_disabled": 0, "rental_uris": {"ios": "https://dc.lft.to/lastmile_qr_scan", "android": "https://dc.lft.to/lastmile_qr_scan"}, "is_reserved": 0, "fusion_lon": 0.0, "lat": 38.8901585, "type": "electric_scooter", "name": "14bd6c9f984697c27b92355248dd5faf", "bike_id": "14bd6c9f984697c27b92355248dd5faf", "fusion_lat": 0.0, "lon": -76.9373205}, {"is_disabled": 0, "rental_uris": {"ios": "https://dc.lft.to/lastmile_qr_scan", "android": "https://dc.lft.to/lastmile_qr_scan"}, "is_reserved": 0, "fusion_lon": 0.0, "lat": 38.892162666666664, "type": "electric_scooter", "name": "666a553c8f6f208f1d32b5e0ed28e9ed", "bike_id": "666a553c8f6f208f1d32b5e0ed28e9ed", "fusion_lat": 0.0, "lon": -77.027851}, {"is_disabled": 0, "rental_uris": {"ios": "https://dc.lft.to/lastmile_qr_scan", "android": "https://dc.lft.to/lastmile_qr_scan"}, "is_reserved": 0, "fusion_lon": 0.0, "lat": 38.90469783333333, "type": "electric_scooter", "name": "68d8aa11a22ccd3332965cd0a015535a", "bike_id": "68d8aa11a22ccd3332965cd0a015535a", "fusion_lat": 0.0, "lon": -76.95051516666666}, {"is_disabled": 0, "rental_uris": {"ios": "https://dc.lft.to/lastmile_qr_scan", "android": "https://dc.lft.to/lastmile_qr_scan"}, "is_reserved": 0, "fusion_lon": 0.0, "lat": 38.87514866666667, "type": "electric_bike", "name": "93fac8fd3a3fa051d076d21bb84e0a2e", "bike_id": "93fac8fd3a3fa051d076d21bb84e0a2e", "fusion_lat": 0.0, "lon": -77.1175595}, {"is_disabled": 0, "rental_uris": {"ios": "https://dc.lft.to/lastmile_qr_scan", "android": "https://dc.lft.to/lastmile_qr_scan"}, "is_reserved": 0, "fusion_lon": 0.0, "lat": 38.91755083333334, "type": "electric_scooter", "name": "f01c2dfb0b453499fd3e29815f6b97fe", "bike_id": "f01c2dfb0b453499fd3e29815f6b97fe", "fusion_lat": 0.0, "lon": -77.0239835}, {"is_disabled": 0, "rental_uris": {"ios": "https://dc.lft.to/lastmile_qr_scan", "android": "https://dc.lft.to/lastmile_qr_scan"}, "is_reserved": 0, "fusion_lon": 0.0, "lat": 38.855313, "type": "electric_scooter", "name": "e68fd10e57bbb067faa5d28b386e9ec4", "bike_id": "e68fd10e57bbb067faa5d28b386e9ec4", "fusion_lat": 0.0, "lon": -76.99177466666667}, {"is_disabled": 0, "rental_uris": {"ios": "https://dc.lft.to/lastmile_qr_scan", "android": "https://dc.lft.to/lastmile_qr_scan"}, "is_reserved": 0, "fusion_lon": 0.0, "lat": 38.985622166666666, "type": "electric_bike", "name": "786157b51763f39d188e9c607ab6d55d", "bike_id": "786157b51763f39d188e9c607ab6d55d", "fusion_lat": 0.0, "lon": -77.08746933333333}, {"is_disabled": 0, "rental_uris": {"ios": "https://dc.lft.to/lastmile_qr_scan", "android": "https://dc.lft.to/lastmile_qr_scan"}, "is_reserved": 0, "fusion_lon": 0.0, "lat": 38.919882, "type": "electric_scooter", "name": "a74d42747dfe4ee255bf7b9a5993e569", "bike_id": "a74d42747dfe4ee255bf7b9a5993e569", "fusion_lat": 0.0, "lon": -77.04172033333333}, {"is_disabled": 0, "rental_uris": {"ios": "https://dc.lft.to/lastmile_qr_scan", "android": "https://dc.lft.to/lastmile_qr_scan"}, "is_reserved": 0, "fusion_lon": 0.0, "lat": 38.9171655, "type": "electric_scooter", "name": "76c67a5ec6125f0defe87ae30d1d69da", "bike_id": "76c67a5ec6125f0defe87ae30d1d69da", "fusion_lat": 0.0, "lon": -77.04026733333333}, {"is_disabled": 0, "rental_uris": {"ios": "https://dc.lft.to/lastmile_qr_scan", "android": "https://dc.lft.to/lastmile_qr_scan"}, "is_reserved": 0, "fusion_lon": 0.0, "lat": 38.923351, "type": "electric_scooter", "name": "4ba7824a523f4b70527bfc394df574e5", "bike_id": "4ba7824a523f4b70527bfc394df574e5", "fusion_lat": 0.0, "lon": -77.0347215}, {"is_disabled": 0, "rental_uris": {"ios": "https://dc.lft.to/lastmile_qr_scan", "android": "https://dc.lft.to/lastmile_qr_scan"}, "is_reserved": 0, "fusion_lon": 0.0, "lat": 38.9089175, "type": "electric_scooter", "name": "9a421d4710c4a92b91c10856893eae93", "bike_id": "9a421d4710c4a92b91c10856893eae93", "fusion_lat": 0.0, "lon": -77.04394666666667}, {"is_disabled": 0, "rental_uris": {"ios": "https://dc.lft.to/lastmile_qr_scan", "android": "https://dc.lft.to/lastmile_qr_scan"}, "is_reserved": 0, "fusion_lon": 0.0, "lat": 38.909951166666666, "type": "electric_scooter", "name": "0563b6099927dd7ed37ec2015da36d45", "bike_id": "0563b6099927dd7ed37ec2015da36d45", "fusion_lat": 0.0, "lon": -77.02181733333333}, {"is_disabled": 0, "rental_uris": {"ios": "https://dc.lft.to/lastmile_qr_scan", "android": "https://dc.lft.to/lastmile_qr_scan"}, "is_reserved": 0, "fusion_lon": 0.0, "lat": 38.87909766666667, "type": "electric_bike", "name": "9fa331c888ea29db47454447fb72d4df", "bike_id": "9fa331c888ea29db47454447fb72d4df", "fusion_lat": 0.0, "lon": -77.0055735}, {"is_disabled": 0, "rental_uris": {"ios": "https://dc.lft.to/lastmile_qr_scan", "android": "https://dc.lft.to/lastmile_qr_scan"}, "is_reserved": 0, "fusion_lon": 0.0, "lat": 38.920017, "type": "electric_scooter", "name": "9902be44b571e184bdee547194e6e78d", "bike_id": "9902be44b571e184bdee547194e6e78d", "fusion_lat": 0.0, "lon": -77.02173783333333}, {"is_disabled": 0, "rental_uris": {"ios": "https://dc.lft.to/lastmile_qr_scan", "android": "https://dc.lft.to/lastmile_qr_scan"}, "is_reserved": 0, "fusion_lon": 0.0, "lat": 38.902120833333335, "type": "electric_scooter", "name": "5b34f4a2e9e10f2711fddd1adb6dfe85", "bike_id": "5b34f4a2e9e10f2711fddd1adb6dfe85", "fusion_lat": 0.0, "lon": -77.062396}, {"is_disabled": 0, "rental_uris": {"ios": "https://dc.lft.to/lastmile_qr_scan", "android": "https://dc.lft.to/lastmile_qr_scan"}, "is_reserved": 0, "fusion_lon": 0.0, "lat": 38.91542483333333, "type": "electric_scooter", "name": "053eb30a23f08db37b4e12da919c5df6", "bike_id": "053eb30a23f08db37b4e12da919c5df6", "fusion_lat": 0.0, "lon": -77.01221433333333}, {"is_disabled": 0, "rental_uris": {"ios": "https://dc.lft.to/lastmile_qr_scan", "android": "https://dc.lft.to/lastmile_qr_scan"}, "is_reserved": 0, "fusion_lon": 0.0, "lat": 38.924326666666666, "type": "electric_scooter", "name": "45c8de80666322f6753571e399dab547", "bike_id": "45c8de80666322f6753571e399dab547", "fusion_lat": 0.0, "lon": -77.02217116666667}, {"is_disabled": 0, "rental_uris": {"ios": "https://dc.lft.to/lastmile_qr_scan", "android": "https://dc.lft.to/lastmile_qr_scan"}, "is_reserved": 0, "fusion_lon": 0.0, "lat": 38.90177683333334, "type": "electric_scooter", "name": "d5ac8ec9b35f2af28519d7ef1dc53fcb", "bike_id": "d5ac8ec9b35f2af28519d7ef1dc53fcb", "fusion_lat": 0.0, "lon": -77.05026516666666}, {"is_disabled": 0, "rental_uris": {"ios": "https://dc.lft.to/lastmile_qr_scan", "android": "https://dc.lft.to/lastmile_qr_scan"}, "is_reserved": 0, "fusion_lon": 0.0, "lat": 38.904198666666666, "type": "electric_scooter", "name": "78d75116a8392db57e25ac768bb9e53d", "bike_id": "78d75116a8392db57e25ac768bb9e53d", "fusion_lat": 0.0, "lon": -77.048658}, {"is_disabled": 0, "rental_uris": {"ios": "https://dc.lft.to/lastmile_qr_scan", "android": "https://dc.lft.to/lastmile_qr_scan"}, "is_reserved": 0, "fusion_lon": 0.0, "lat": 38.9135625, "type": "electric_scooter", "name": "5c31f5db44f8b20893c9098874a2357a", "bike_id": "5c31f5db44f8b20893c9098874a2357a", "fusion_lat": 0.0, "lon": -77.03850183333333}, {"is_disabled": 0, "rental_uris": {"ios": "https://dc.lft.to/lastmile_qr_scan", "android": "https://dc.lft.to/lastmile_qr_scan"}, "is_reserved": 0, "fusion_lon": 0.0, "lat": 38.9017545, "type": "electric_scooter", "name": "7b7b4f9f05e049cf3138c0b8a9a8111d", "bike_id": "7b7b4f9f05e049cf3138c0b8a9a8111d", "fusion_lat": 0.0, "lon": -76.94157233333334}, {"is_disabled": 0, "rental_uris": {"ios": "https://dc.lft.to/lastmile_qr_scan", "android": "https://dc.lft.to/lastmile_qr_scan"}, "is_reserved": 0, "fusion_lon": 0.0, "lat": 38.847535666666666, "type": "electric_bike", "name": "b881d25838bdb88b110fc0a0aa1c4f00", "bike_id": "b881d25838bdb88b110fc0a0aa1c4f00", "fusion_lat": 0.0, "lon": -77.05371166666667}, {"is_disabled": 0, "rental_uris": {"ios": "https://dc.lft.to/lastmile_qr_scan", "android": "https://dc.lft.to/lastmile_qr_scan"}, "is_reserved": 0, "fusion_lon": 0.0, "lat": 38.926748833333335, "type": "electric_scooter", "name": "31501fcf40e41c9c3295076c94b75c9c", "bike_id": "31501fcf40e41c9c3295076c94b75c9c", "fusion_lat": 0.0, "lon": -77.00761733333333}, {"is_disabled": 0, "rental_uris": {"ios": "https://dc.lft.to/lastmile_qr_scan", "android": "https://dc.lft.to/lastmile_qr_scan"}, "is_reserved": 0, "fusion_lon": 0.0, "lat": 38.93194916666667, "type": "electric_scooter", "name": "0587d4eed26b583b8e8a9a4ca217ba0a", "bike_id": "0587d4eed26b583b8e8a9a4ca217ba0a", "fusion_lat": 0.0, "lon": -77.0245255}, {"is_disabled": 0, "rental_uris": {"ios": "https://dc.lft.to/lastmile_qr_scan", "android": "https://dc.lft.to/lastmile_qr_scan"}, "is_reserved": 0, "fusion_lon": 0.0, "lat": 38.913960833333334, "type": "electric_scooter", "name": "b8f37aa462ef3b966d5da9ac76d99a50", "bike_id": "b8f37aa462ef3b966d5da9ac76d99a50", "fusion_lat": 0.0, "lon": -77.048794}, {"is_disabled": 0, "rental_uris": {"ios": "https://dc.lft.to/lastmile_qr_scan", "android": "https://dc.lft.to/lastmile_qr_scan"}, "is_reserved": 0, "fusion_lon": 0.0, "lat": 38.895139666666665, "type": "electric_scooter", "name": "8c067fea7a0a9d5fd025c75b3209307f", "bike_id": "8c067fea7a0a9d5fd025c75b3209307f", "fusion_lat": 0.0, "lon": -76.97728433333333}, {"is_disabled": 0, "rental_uris": {"ios": "https://dc.lft.to/lastmile_qr_scan", "android": "https://dc.lft.to/lastmile_qr_scan"}, "is_reserved": 0, "fusion_lon": 0.0, "lat": 38.93057016666667, "type": "electric_scooter", "name": "d1e4b906ee25fda20fbce6897b753ce0", "bike_id": "d1e4b906ee25fda20fbce6897b753ce0", "fusion_lat": 0.0, "lon": -77.0285025}, {"is_disabled": 0, "rental_uris": {"ios": "https://dc.lft.to/lastmile_qr_scan", "android": "https://dc.lft.to/lastmile_qr_scan"}, "is_reserved": 0, "fusion_lon": 0.0, "lat": 38.91264366666667, "type": "electric_scooter", "name": "08d1efd132e9d8e69710e0af0dbeffa9", "bike_id": "08d1efd132e9d8e69710e0af0dbeffa9", "fusion_lat": 0.0, "lon": -77.00504733333334}, {"is_disabled": 0, "rental_uris": {"ios": "https://dc.lft.to/lastmile_qr_scan", "android": "https://dc.lft.to/lastmile_qr_scan"}, "is_reserved": 0, "fusion_lon": 0.0, "lat": 38.911745, "type": "electric_scooter", "name": "fa2c427c6be21312af27ab352d81df11", "bike_id": "fa2c427c6be21312af27ab352d81df11", "fusion_lat": 0.0, "lon": -77.03862133333334}, {"is_disabled": 0, "rental_uris": {"ios": "https://dc.lft.to/lastmile_qr_scan", "android": "https://dc.lft.to/lastmile_qr_scan"}, "is_reserved": 0, "fusion_lon": 0.0, "lat": 38.9182395, "type": "electric_scooter", "name": "63a9564f3e73ddc0bf71c5599d1e7f1a", "bike_id": "63a9564f3e73ddc0bf71c5599d1e7f1a", "fusion_lat": 0.0, "lon": -77.03635966666667}, {"is_disabled": 0, "rental_uris": {"ios": "https://dc.lft.to/lastmile_qr_scan", "android": "https://dc.lft.to/lastmile_qr_scan"}, "is_reserved": 0, "fusion_lon": 0.0, "lat": 38.922005, "type": "electric_scooter", "name": "d2af4871fcf3ed94c4f86c4c37e40d79", "bike_id": "d2af4871fcf3ed94c4f86c4c37e40d79", "fusion_lat": 0.0, "lon": -77.020318}, {"is_disabled": 0, "rental_uris": {"ios": "https://dc.lft.to/lastmile_qr_scan", "android": "https://dc.lft.to/lastmile_qr_scan"}, "is_reserved": 0, "fusion_lon": 0.0, "lat": 38.916193, "type": "electric_scooter", "name": "60903687c2b12be3b51420f2c3d7cc83", "bike_id": "60903687c2b12be3b51420f2c3d7cc83", "fusion_lat": 0.0, "lon": -77.05070616666667}, {"is_disabled": 0, "rental_uris": {"ios": "https://dc.lft.to/lastmile_qr_scan", "android": "https://dc.lft.to/lastmile_qr_scan"}, "is_reserved": 0, "fusion_lon": 0.0, "lat": 38.974735833333334, "type": "electric_scooter", "name": "eb3629bf588cfb4ed00dea551ab5f27c", "bike_id": "eb3629bf588cfb4ed00dea551ab5f27c", "fusion_lat": 0.0, "lon": -77.01488233333333}, {"is_disabled": 0, "rental_uris": {"ios": "https://dc.lft.to/lastmile_qr_scan", "android": "https://dc.lft.to/lastmile_qr_scan"}, "is_reserved": 0, "fusion_lon": 0.0, "lat": 38.8999685, "type": "electric_scooter", "name": "09deb053e81be7b83edf2147b064871f", "bike_id": "09deb053e81be7b83edf2147b064871f", "fusion_lat": 0.0, "lon": -77.027117}, {"is_disabled": 0, "rental_uris": {"ios": "https://dc.lft.to/lastmile_qr_scan", "android": "https://dc.lft.to/lastmile_qr_scan"}, "is_reserved": 0, "fusion_lon": 0.0, "lat": 38.9056295, "type": "electric_scooter", "name": "7f686a9678325b319a03b32bbfb221a8", "bike_id": "7f686a9678325b319a03b32bbfb221a8", "fusion_lat": 0.0, "lon": -77.06277883333334}, {"is_disabled": 0, "rental_uris": {"ios": "https://dc.lft.to/lastmile_qr_scan", "android": "https://dc.lft.to/lastmile_qr_scan"}, "is_reserved": 0, "fusion_lon": 0.0, "lat": 38.91550316666667, "type": "electric_scooter", "name": "bf547fa000bffd2eb3d40a37838569a2", "bike_id": "bf547fa000bffd2eb3d40a37838569a2", "fusion_lat": 0.0, "lon": -77.0312645}, {"is_disabled": 0, "rental_uris": {"ios": "https://dc.lft.to/lastmile_qr_scan", "android": "https://dc.lft.to/lastmile_qr_scan"}, "is_reserved": 0, "fusion_lon": 0.0, "lat": 38.9256985, "type": "electric_scooter", "name": "1c0f963f7cee6fe26940b7330eb21670", "bike_id": "1c0f963f7cee6fe26940b7330eb21670", "fusion_lat": 0.0, "lon": -77.02562966666666}, {"is_disabled": 0, "rental_uris": {"ios": "https://dc.lft.to/lastmile_qr_scan", "android": "https://dc.lft.to/lastmile_qr_scan"}, "is_reserved": 0, "fusion_lon": 0.0, "lat": 38.907850333333336, "type": "electric_scooter", "name": "b853b20a4c3d08b1ea8aed85b07df75e", "bike_id": "b853b20a4c3d08b1ea8aed85b07df75e", "fusion_lat": 0.0, "lon": -77.0724115}, {"is_disabled": 0, "rental_uris": {"ios": "https://dc.lft.to/lastmile_qr_scan", "android": "https://dc.lft.to/lastmile_qr_scan"}, "is_reserved": 0, "fusion_lon": 0.0, "lat": 38.895077666666666, "type": "electric_scooter", "name": "b55f6050f907993cbf7ac75c7bcbd2e0", "bike_id": "b55f6050f907993cbf7ac75c7bcbd2e0", "fusion_lat": 0.0, "lon": -77.04672416666666}, {"is_disabled": 0, "rental_uris": {"ios": "https://dc.lft.to/lastmile_qr_scan", "android": "https://dc.lft.to/lastmile_qr_scan"}, "is_reserved": 0, "fusion_lon": 0.0, "lat": 38.89962666666667, "type": "electric_scooter", "name": "89f16eef71a7363fb2f0e430f4e65065", "bike_id": "89f16eef71a7363fb2f0e430f4e65065", "fusion_lat": 0.0, "lon": -77.04502666666667}, {"is_disabled": 0, "rental_uris": {"ios": "https://dc.lft.to/lastmile_qr_scan", "android": "https://dc.lft.to/lastmile_qr_scan"}, "is_reserved": 0, "fusion_lon": 0.0, "lat": 38.80733216666667, "type": "electric_bike", "name": "fcc440a3ca0255ff9ddbab28d9f3cf36", "bike_id": "fcc440a3ca0255ff9ddbab28d9f3cf36", "fusion_lat": 0.0, "lon": -77.09689066666667}, {"is_disabled": 0, "rental_uris": {"ios": "https://dc.lft.to/lastmile_qr_scan", "android": "https://dc.lft.to/lastmile_qr_scan"}, "is_reserved": 0, "fusion_lon": 0.0, "lat": 38.927448, "type": "electric_scooter", "name": "151f808987138b9e75fbfbd10e174f00", "bike_id": "151f808987138b9e75fbfbd10e174f00", "fusion_lat": 0.0, "lon": -77.00546666666666}, {"is_disabled": 0, "rental_uris": {"ios": "https://dc.lft.to/lastmile_qr_scan", "android": "https://dc.lft.to/lastmile_qr_scan"}, "is_reserved": 0, "fusion_lon": 0.0, "lat": 38.87340433333333, "type": "electric_scooter", "name": "d77e58500886978283c62ee3428a64f2", "bike_id": "d77e58500886978283c62ee3428a64f2", "fusion_lat": 0.0, "lon": -76.991625}, {"is_disabled": 0, "rental_uris": {"ios": "https://dc.lft.to/lastmile_qr_scan", "android": "https://dc.lft.to/lastmile_qr_scan"}, "is_reserved": 0, "fusion_lon": 0.0, "lat": 38.884945, "type": "electric_scooter", "name": "8e33bbe44f7dc38de8c05600c0055164", "bike_id": "8e33bbe44f7dc38de8c05600c0055164", "fusion_lat": 0.0, "lon": -77.00712516666667}, {"is_disabled": 0, "rental_uris": {"ios": "https://dc.lft.to/lastmile_qr_scan", "android": "https://dc.lft.to/lastmile_qr_scan"}, "is_reserved": 0, "fusion_lon": 0.0, "lat": 38.89215683333333, "type": "electric_scooter", "name": "abeaec641f6a50b409db616b2500286d", "bike_id": "abeaec641f6a50b409db616b2500286d", "fusion_lat": 0.0, "lon": -77.0222005}, {"is_disabled": 0, "rental_uris": {"ios": "https://dc.lft.to/lastmile_qr_scan", "android": "https://dc.lft.to/lastmile_qr_scan"}, "is_reserved": 0, "fusion_lon": 0.0, "lat": 38.90129683333333, "type": "electric_scooter", "name": "094532f1722292366c01ef252f267520", "bike_id": "094532f1722292366c01ef252f267520", "fusion_lat": 0.0, "lon": -77.04330683333333}, {"is_disabled": 0, "rental_uris": {"ios": "https://dc.lft.to/lastmile_qr_scan", "android": "https://dc.lft.to/lastmile_qr_scan"}, "is_reserved": 0, "fusion_lon": 0.0, "lat": 38.882428833333336, "type": "electric_bike", "name": "3b2540aa0f9741139fb1e821b502d0f3", "bike_id": "3b2540aa0f9741139fb1e821b502d0f3", "fusion_lat": 0.0, "lon": -76.9625825}, {"is_disabled": 0, "rental_uris": {"ios": "https://dc.lft.to/lastmile_qr_scan", "android": "https://dc.lft.to/lastmile_qr_scan"}, "is_reserved": 0, "fusion_lon": 0.0, "lat": 38.89616983333333, "type": "electric_scooter", "name": "b5942a9757c11b319471fab20dc5a0a2", "bike_id": "b5942a9757c11b319471fab20dc5a0a2", "fusion_lat": 0.0, "lon": -77.04409416666667}, {"is_disabled": 0, "rental_uris": {"ios": "https://dc.lft.to/lastmile_qr_scan", "android": "https://dc.lft.to/lastmile_qr_scan"}, "is_reserved": 0, "fusion_lon": 0.0, "lat": 38.93527866666667, "type": "electric_scooter", "name": "8656a201d0362fd65ff0b83dfc955749", "bike_id": "8656a201d0362fd65ff0b83dfc955749", "fusion_lat": 0.0, "lon": -77.02352183333333}, {"is_disabled": 0, "rental_uris": {"ios": "https://dc.lft.to/lastmile_qr_scan", "android": "https://dc.lft.to/lastmile_qr_scan"}, "is_reserved": 0, "fusion_lon": 0.0, "lat": 38.90679183333334, "type": "electric_scooter", "name": "6d459b1bd7c018cbd89561e75bff52ec", "bike_id": "6d459b1bd7c018cbd89561e75bff52ec", "fusion_lat": 0.0, "lon": -77.07209716666667}, {"is_disabled": 0, "rental_uris": {"ios": "https://dc.lft.to/lastmile_qr_scan", "android": "https://dc.lft.to/lastmile_qr_scan"}, "is_reserved": 0, "fusion_lon": 0.0, "lat": 38.876473, "type": "electric_scooter", "name": "1efe93c1f4a27b993a652f03b995204b", "bike_id": "1efe93c1f4a27b993a652f03b995204b", "fusion_lat": 0.0, "lon": -77.00758283333333}, {"is_disabled": 0, "rental_uris": {"ios": "https://dc.lft.to/lastmile_qr_scan", "android": "https://dc.lft.to/lastmile_qr_scan"}, "is_reserved": 0, "fusion_lon": 0.0, "lat": 38.880764666666664, "type": "electric_bike", "name": "23231fb9fc50f039b7306a9a9ec0b365", "bike_id": "23231fb9fc50f039b7306a9a9ec0b365", "fusion_lat": 0.0, "lon": -77.03258533333333}, {"is_disabled": 0, "rental_uris": {"ios": "https://dc.lft.to/lastmile_qr_scan", "android": "https://dc.lft.to/lastmile_qr_scan"}, "is_reserved": 0, "fusion_lon": 0.0, "lat": 38.925752, "type": "electric_scooter", "name": "d59864d8296718f321659e1267a1df2a", "bike_id": "d59864d8296718f321659e1267a1df2a", "fusion_lat": 0.0, "lon": -77.02603233333333}, {"is_disabled": 0, "rental_uris": {"ios": "https://dc.lft.to/lastmile_qr_scan", "android": "https://dc.lft.to/lastmile_qr_scan"}, "is_reserved": 0, "fusion_lon": 0.0, "lat": 38.88183333333333, "type": "electric_scooter", "name": "1f80e094a0e23112ee39d77597a12d43", "bike_id": "1f80e094a0e23112ee39d77597a12d43", "fusion_lat": 0.0, "lon": -77.02857083333333}, {"is_disabled": 0, "rental_uris": {"ios": "https://dc.lft.to/lastmile_qr_scan", "android": "https://dc.lft.to/lastmile_qr_scan"}, "is_reserved": 0, "fusion_lon": 0.0, "lat": 38.895714, "type": "electric_scooter", "name": "941ec5c19ecec7879de68bcef52be081", "bike_id": "941ec5c19ecec7879de68bcef52be081", "fusion_lat": 0.0, "lon": -77.02835083333333}, {"is_disabled": 0, "rental_uris": {"ios": "https://dc.lft.to/lastmile_qr_scan", "android": "https://dc.lft.to/lastmile_qr_scan"}, "is_reserved": 0, "fusion_lon": 0.0, "lat": 38.9004745, "type": "electric_scooter", "name": "047f236da07b47d6158a5a475254e868", "bike_id": "047f236da07b47d6158a5a475254e868", "fusion_lat": 0.0, "lon": -77.00740333333333}, {"is_disabled": 0, "rental_uris": {"ios": "https://dc.lft.to/lastmile_qr_scan", "android": "https://dc.lft.to/lastmile_qr_scan"}, "is_reserved": 0, "fusion_lon": 0.0, "lat": 38.9055955, "type": "electric_scooter", "name": "f06a82dd46bc7095ee607eb811a46983", "bike_id": "f06a82dd46bc7095ee607eb811a46983", "fusion_lat": 0.0, "lon": -77.03283733333333}, {"is_disabled": 0, "rental_uris": {"ios": "https://dc.lft.to/lastmile_qr_scan", "android": "https://dc.lft.to/lastmile_qr_scan"}, "is_reserved": 0, "fusion_lon": 0.0, "lat": 38.9162765, "type": "electric_scooter", "name": "86de7b721f98770fcf08a34db25dacb4", "bike_id": "86de7b721f98770fcf08a34db25dacb4", "fusion_lat": 0.0, "lon": -77.03132933333333}, {"is_disabled": 0, "rental_uris": {"ios": "https://dc.lft.to/lastmile_qr_scan", "android": "https://dc.lft.to/lastmile_qr_scan"}, "is_reserved": 0, "fusion_lon": 0.0, "lat": 38.915743, "type": "electric_scooter", "name": "d2246b5bf570e5975cd8346c257294cb", "bike_id": "d2246b5bf570e5975cd8346c257294cb", "fusion_lat": 0.0, "lon": -77.0503475}, {"is_disabled": 0, "rental_uris": {"ios": "https://dc.lft.to/lastmile_qr_scan", "android": "https://dc.lft.to/lastmile_qr_scan"}, "is_reserved": 0, "fusion_lon": 0.0, "lat": 38.8954885, "type": "electric_scooter", "name": "81d38e999edc866dfb5f87904c92d56b", "bike_id": "81d38e999edc866dfb5f87904c92d56b", "fusion_lat": 0.0, "lon": -77.00919183333333}, {"is_disabled": 0, "rental_uris": {"ios": "https://dc.lft.to/lastmile_qr_scan", "android": "https://dc.lft.to/lastmile_qr_scan"}, "is_reserved": 0, "fusion_lon": 0.0, "lat": 38.886534, "type": "electric_scooter", "name": "049dde1128c4f9836d956eff13d7d081", "bike_id": "049dde1128c4f9836d956eff13d7d081", "fusion_lat": 0.0, "lon": -77.028105}, {"is_disabled": 0, "rental_uris": {"ios": "https://dc.lft.to/lastmile_qr_scan", "android": "https://dc.lft.to/lastmile_qr_scan"}, "is_reserved": 0, "fusion_lon": 0.0, "lat": 38.8688315, "type": "electric_scooter", "name": "34617a46b61218e61a5fb376a0a37031", "bike_id": "34617a46b61218e61a5fb376a0a37031", "fusion_lat": 0.0, "lon": -76.98999316666666}, {"is_disabled": 0, "rental_uris": {"ios": "https://dc.lft.to/lastmile_qr_scan", "android": "https://dc.lft.to/lastmile_qr_scan"}, "is_reserved": 0, "fusion_lon": 0.0, "lat": 38.895959166666664, "type": "electric_scooter", "name": "413e3d8cdc2e161b2bf55683cb08b10e", "bike_id": "413e3d8cdc2e161b2bf55683cb08b10e", "fusion_lat": 0.0, "lon": -76.9831375}, {"is_disabled": 0, "rental_uris": {"ios": "https://dc.lft.to/lastmile_qr_scan", "android": "https://dc.lft.to/lastmile_qr_scan"}, "is_reserved": 0, "fusion_lon": 0.0, "lat": 38.89299616666667, "type": "electric_scooter", "name": "e0700b7d4624ca810f3fbf94701ef2b8", "bike_id": "e0700b7d4624ca810f3fbf94701ef2b8", "fusion_lat": 0.0, "lon": -76.9995685}, {"is_disabled": 0, "rental_uris": {"ios": "https://dc.lft.to/lastmile_qr_scan", "android": "https://dc.lft.to/lastmile_qr_scan"}, "is_reserved": 0, "fusion_lon": 0.0, "lat": 38.89728383333333, "type": "electric_scooter", "name": "439f5d9cdee66c00e97db29278b7c9f1", "bike_id": "439f5d9cdee66c00e97db29278b7c9f1", "fusion_lat": 0.0, "lon": -77.04502933333333}, {"is_disabled": 0, "rental_uris": {"ios": "https://dc.lft.to/lastmile_qr_scan", "android": "https://dc.lft.to/lastmile_qr_scan"}, "is_reserved": 0, "fusion_lon": 0.0, "lat": 38.900454333333336, "type": "electric_scooter", "name": "8da5216ab0e58f94845782bbb37acaba", "bike_id": "8da5216ab0e58f94845782bbb37acaba", "fusion_lat": 0.0, "lon": -77.0321195}, {"is_disabled": 0, "rental_uris": {"ios": "https://dc.lft.to/lastmile_qr_scan", "android": "https://dc.lft.to/lastmile_qr_scan"}, "is_reserved": 0, "fusion_lon": 0.0, "lat": 38.9221235, "type": "electric_scooter", "name": "6dcbe29ec97fbc35eda1fc9cb1b65c68", "bike_id": "6dcbe29ec97fbc35eda1fc9cb1b65c68", "fusion_lat": 0.0, "lon": -77.042418}, {"is_disabled": 0, "rental_uris": {"ios": "https://dc.lft.to/lastmile_qr_scan", "android": "https://dc.lft.to/lastmile_qr_scan"}, "is_reserved": 0, "fusion_lon": 0.0, "lat": 38.922339, "type": "electric_scooter", "name": "ef6c461830526ea461669567b1205a50", "bike_id": "ef6c461830526ea461669567b1205a50", "fusion_lat": 0.0, "lon": -77.04013033333334}, {"is_disabled": 0, "rental_uris": {"ios": "https://dc.lft.to/lastmile_qr_scan", "android": "https://dc.lft.to/lastmile_qr_scan"}, "is_reserved": 0, "fusion_lon": 0.0, "lat": 38.90902216666667, "type": "electric_scooter", "name": "ffdf29a6b0612644358bcb04c5e8988f", "bike_id": "ffdf29a6b0612644358bcb04c5e8988f", "fusion_lat": 0.0, "lon": -77.00455566666666}, {"is_disabled": 0, "rental_uris": {"ios": "https://dc.lft.to/lastmile_qr_scan", "android": "https://dc.lft.to/lastmile_qr_scan"}, "is_reserved": 0, "fusion_lon": 0.0, "lat": 38.928642333333336, "type": "electric_scooter", "name": "b8ec5b1e0035806afe3479a8dc30db8e", "bike_id": "b8ec5b1e0035806afe3479a8dc30db8e", "fusion_lat": 0.0, "lon": -77.03111133333333}, {"is_disabled": 0, "rental_uris": {"ios": "https://dc.lft.to/lastmile_qr_scan", "android": "https://dc.lft.to/lastmile_qr_scan"}, "is_reserved": 0, "fusion_lon": 0.0, "lat": 38.89871816666667, "type": "electric_scooter", "name": "6dbc69e355a41952c133d992009b9742", "bike_id": "6dbc69e355a41952c133d992009b9742", "fusion_lat": 0.0, "lon": -76.9318035}, {"is_disabled": 0, "rental_uris": {"ios": "https://dc.lft.to/lastmile_qr_scan", "android": "https://dc.lft.to/lastmile_qr_scan"}, "is_reserved": 0, "fusion_lon": 0.0, "lat": 38.91707516666666, "type": "electric_scooter", "name": "7914865bffe7c3c8035df33d16298090", "bike_id": "7914865bffe7c3c8035df33d16298090", "fusion_lat": 0.0, "lon": -77.03348683333333}, {"is_disabled": 0, "rental_uris": {"ios": "https://dc.lft.to/lastmile_qr_scan", "android": "https://dc.lft.to/lastmile_qr_scan"}, "is_reserved": 0, "fusion_lon": 0.0, "lat": 38.916729833333335, "type": "electric_scooter", "name": "1df865fdc25bc9049e20c613fa691cc0", "bike_id": "1df865fdc25bc9049e20c613fa691cc0", "fusion_lat": 0.0, "lon": -77.03753416666666}, {"is_disabled": 0, "rental_uris": {"ios": "https://dc.lft.to/lastmile_qr_scan", "android": "https://dc.lft.to/lastmile_qr_scan"}, "is_reserved": 0, "fusion_lon": 0.0, "lat": 38.9070285, "type": "electric_scooter", "name": "5704ded88c1b0a25293e963ef9c1483f", "bike_id": "5704ded88c1b0a25293e963ef9c1483f", "fusion_lat": 0.0, "lon": -77.00584516666666}, {"is_disabled": 0, "rental_uris": {"ios": "https://dc.lft.to/lastmile_qr_scan", "android": "https://dc.lft.to/lastmile_qr_scan"}, "is_reserved": 0, "fusion_lon": 0.0, "lat": 38.898181666666666, "type": "electric_scooter", "name": "1dca256d2b18e8f1682569b6073fe5e6", "bike_id": "1dca256d2b18e8f1682569b6073fe5e6", "fusion_lat": 0.0, "lon": -76.92599166666666}, {"is_disabled": 0, "rental_uris": {"ios": "https://dc.lft.to/lastmile_qr_scan", "android": "https://dc.lft.to/lastmile_qr_scan"}, "is_reserved": 0, "fusion_lon": 0.0, "lat": 38.94049583333333, "type": "electric_scooter", "name": "b0859f689fc3817228db5c442ff267dc", "bike_id": "b0859f689fc3817228db5c442ff267dc", "fusion_lat": 0.0, "lon": -77.02975233333333}, {"is_disabled": 0, "rental_uris": {"ios": "https://dc.lft.to/lastmile_qr_scan", "android": "https://dc.lft.to/lastmile_qr_scan"}, "is_reserved": 0, "fusion_lon": 0.0, "lat": 38.904278166666664, "type": "electric_scooter", "name": "999d7d3e8e84c02f1e8553c427c8d1ef", "bike_id": "999d7d3e8e84c02f1e8553c427c8d1ef", "fusion_lat": 0.0, "lon": -77.0259845}, {"is_disabled": 0, "rental_uris": {"ios": "https://dc.lft.to/lastmile_qr_scan", "android": "https://dc.lft.to/lastmile_qr_scan"}, "is_reserved": 0, "fusion_lon": 0.0, "lat": 38.900223833333335, "type": "electric_scooter", "name": "1244b5f3fa5a1c74cfc54ad9f06c067a", "bike_id": "1244b5f3fa5a1c74cfc54ad9f06c067a", "fusion_lat": 0.0, "lon": -77.01184283333333}, {"is_disabled": 0, "rental_uris": {"ios": "https://dc.lft.to/lastmile_qr_scan", "android": "https://dc.lft.to/lastmile_qr_scan"}, "is_reserved": 0, "fusion_lon": 0.0, "lat": 38.926971, "type": "electric_scooter", "name": "5e0d277a9f9a704291ce1f8b1bedce13", "bike_id": "5e0d277a9f9a704291ce1f8b1bedce13", "fusion_lat": 0.0, "lon": -76.96075933333333}, {"is_disabled": 0, "rental_uris": {"ios": "https://dc.lft.to/lastmile_qr_scan", "android": "https://dc.lft.to/lastmile_qr_scan"}, "is_reserved": 0, "fusion_lon": 0.0, "lat": 38.9168835, "type": "electric_scooter", "name": "df24463b9b0e7440a67c01fd0d735fd4", "bike_id": "df24463b9b0e7440a67c01fd0d735fd4", "fusion_lat": 0.0, "lon": -77.03796766666666}, {"is_disabled": 0, "rental_uris": {"ios": "https://dc.lft.to/lastmile_qr_scan", "android": "https://dc.lft.to/lastmile_qr_scan"}, "is_reserved": 0, "fusion_lon": 0.0, "lat": 38.949112666666664, "type": "electric_scooter", "name": "4ba4e35fc539182f05882b7bebb68cea", "bike_id": "4ba4e35fc539182f05882b7bebb68cea", "fusion_lat": 0.0, "lon": -77.02077716666666}, {"is_disabled": 0, "rental_uris": {"ios": "https://dc.lft.to/lastmile_qr_scan", "android": "https://dc.lft.to/lastmile_qr_scan"}, "is_reserved": 0, "fusion_lon": 0.0, "lat": 38.896703333333335, "type": "electric_scooter", "name": "c66824cf42e14b383e849a44c3a7af67", "bike_id": "c66824cf42e14b383e849a44c3a7af67", "fusion_lat": 0.0, "lon": -77.02423333333333}, {"is_disabled": 0, "rental_uris": {"ios": "https://dc.lft.to/lastmile_qr_scan", "android": "https://dc.lft.to/lastmile_qr_scan"}, "is_reserved": 0, "fusion_lon": 0.0, "lat": 38.89546583333333, "type": "electric_scooter", "name": "b836e1e44d73eee04b6c64ffafe05345", "bike_id": "b836e1e44d73eee04b6c64ffafe05345", "fusion_lat": 0.0, "lon": -76.9265775}, {"is_disabled": 0, "rental_uris": {"ios": "https://dc.lft.to/lastmile_qr_scan", "android": "https://dc.lft.to/lastmile_qr_scan"}, "is_reserved": 0, "fusion_lon": 0.0, "lat": 38.91815116666667, "type": "electric_scooter", "name": "7fbd6ce3245503c1ed7252ff676e097a", "bike_id": "7fbd6ce3245503c1ed7252ff676e097a", "fusion_lat": 0.0, "lon": -77.02528083333333}, {"is_disabled": 0, "rental_uris": {"ios": "https://dc.lft.to/lastmile_qr_scan", "android": "https://dc.lft.to/lastmile_qr_scan"}, "is_reserved": 0, "fusion_lon": 0.0, "lat": 38.92005983333333, "type": "electric_scooter", "name": "35574dcef64f24fe3792d5b91f061ee2", "bike_id": "35574dcef64f24fe3792d5b91f061ee2", "fusion_lat": 0.0, "lon": -77.04172866666667}, {"is_disabled": 0, "rental_uris": {"ios": "https://dc.lft.to/lastmile_qr_scan", "android": "https://dc.lft.to/lastmile_qr_scan"}, "is_reserved": 0, "fusion_lon": 0.0, "lat": 38.91669816666667, "type": "electric_scooter", "name": "f7204d624512084bcc00b9cb25771268", "bike_id": "f7204d624512084bcc00b9cb25771268", "fusion_lat": 0.0, "lon": -77.02715733333334}, {"is_disabled": 0, "rental_uris": {"ios": "https://dc.lft.to/lastmile_qr_scan", "android": "https://dc.lft.to/lastmile_qr_scan"}, "is_reserved": 0, "fusion_lon": 0.0, "lat": 38.898194, "type": "electric_scooter", "name": "b9000f49f557b54663a5a008345ca27b", "bike_id": "b9000f49f557b54663a5a008345ca27b", "fusion_lat": 0.0, "lon": -77.02392183333333}, {"is_disabled": 0, "rental_uris": {"ios": "https://dc.lft.to/lastmile_qr_scan", "android": "https://dc.lft.to/lastmile_qr_scan"}, "is_reserved": 0, "fusion_lon": 0.0, "lat": 38.875146, "type": "electric_scooter", "name": "b1d2ed0c2ca997d196940a1efd1c6b16", "bike_id": "b1d2ed0c2ca997d196940a1efd1c6b16", "fusion_lat": 0.0, "lon": -77.0123025}, {"is_disabled": 0, "rental_uris": {"ios": "https://dc.lft.to/lastmile_qr_scan", "android": "https://dc.lft.to/lastmile_qr_scan"}, "is_reserved": 0, "fusion_lon": 0.0, "lat": 38.87931433333333, "type": "electric_scooter", "name": "aae2da96091703b2271c95a741857714", "bike_id": "aae2da96091703b2271c95a741857714", "fusion_lat": 0.0, "lon": -77.00404883333333}, {"is_disabled": 0, "rental_uris": {"ios": "https://dc.lft.to/lastmile_qr_scan", "android": "https://dc.lft.to/lastmile_qr_scan"}, "is_reserved": 0, "fusion_lon": 0.0, "lat": 38.90320916666667, "type": "electric_scooter", "name": "369e2ad6d9c7e3619876e70a43f06639", "bike_id": "369e2ad6d9c7e3619876e70a43f06639", "fusion_lat": 0.0, "lon": -77.0396275}, {"is_disabled": 0, "rental_uris": {"ios": "https://dc.lft.to/lastmile_qr_scan", "android": "https://dc.lft.to/lastmile_qr_scan"}, "is_reserved": 0, "fusion_lon": 0.0, "lat": 38.9084175, "type": "electric_scooter", "name": "a9c0ded0c5ff5e45d7618a7fe53c0459", "bike_id": "a9c0ded0c5ff5e45d7618a7fe53c0459", "fusion_lat": 0.0, "lon": -77.04734283333333}, {"is_disabled": 0, "rental_uris": {"ios": "https://dc.lft.to/lastmile_qr_scan", "android": "https://dc.lft.to/lastmile_qr_scan"}, "is_reserved": 0, "fusion_lon": 0.0, "lat": 38.89221383333334, "type": "electric_scooter", "name": "425515ef55b0653b670ec72bc27085fe", "bike_id": "425515ef55b0653b670ec72bc27085fe", "fusion_lat": 0.0, "lon": -77.04498466666666}, {"is_disabled": 0, "rental_uris": {"ios": "https://dc.lft.to/lastmile_qr_scan", "android": "https://dc.lft.to/lastmile_qr_scan"}, "is_reserved": 0, "fusion_lon": 0.0, "lat": 38.97471266666667, "type": "electric_bike", "name": "15f1aeeac39c37659414b2e92ef151b8", "bike_id": "15f1aeeac39c37659414b2e92ef151b8", "fusion_lat": 0.0, "lon": -76.98656666666666}, {"is_disabled": 0, "rental_uris": {"ios": "https://dc.lft.to/lastmile_qr_scan", "android": "https://dc.lft.to/lastmile_qr_scan"}, "is_reserved": 0, "fusion_lon": 0.0, "lat": 38.90847766666667, "type": "electric_scooter", "name": "771d214c5d9203059f0b9f0a71bae8d1", "bike_id": "771d214c5d9203059f0b9f0a71bae8d1", "fusion_lat": 0.0, "lon": -76.99797016666666}, {"is_disabled": 0, "rental_uris": {"ios": "https://dc.lft.to/lastmile_qr_scan", "android": "https://dc.lft.to/lastmile_qr_scan"}, "is_reserved": 0, "fusion_lon": 0.0, "lat": 38.9155045, "type": "electric_scooter", "name": "0b0c99d7860d5e868760227d3b7d2e55", "bike_id": "0b0c99d7860d5e868760227d3b7d2e55", "fusion_lat": 0.0, "lon": -77.025066}, {"is_disabled": 0, "rental_uris": {"ios": "https://dc.lft.to/lastmile_qr_scan", "android": "https://dc.lft.to/lastmile_qr_scan"}, "is_reserved": 0, "fusion_lon": 0.0, "lat": 38.84643533333333, "type": "electric_bike", "name": "6b58fa0802f8bc7dbeebc8be5acfdf90", "bike_id": "6b58fa0802f8bc7dbeebc8be5acfdf90", "fusion_lat": 0.0, "lon": -76.97069166666667}, {"is_disabled": 0, "rental_uris": {"ios": "https://dc.lft.to/lastmile_qr_scan", "android": "https://dc.lft.to/lastmile_qr_scan"}, "is_reserved": 0, "fusion_lon": 0.0, "lat": 39.029215, "type": "electric_bike", "name": "e2e801cddba827cf67219d8bdd727d44", "bike_id": "e2e801cddba827cf67219d8bdd727d44", "fusion_lat": 0.0, "lon": -77.013524}, {"is_disabled": 0, "rental_uris": {"ios": "https://dc.lft.to/lastmile_qr_scan", "android": "https://dc.lft.to/lastmile_qr_scan"}, "is_reserved": 0, "fusion_lon": 0.0, "lat": 38.88707433333333, "type": "electric_scooter", "name": "c74b3bb0b546d0e5394aeb4e99aaaf64", "bike_id": "c74b3bb0b546d0e5394aeb4e99aaaf64", "fusion_lat": 0.0, "lon": -76.996085}, {"is_disabled": 0, "rental_uris": {"ios": "https://dc.lft.to/lastmile_qr_scan", "android": "https://dc.lft.to/lastmile_qr_scan"}, "is_reserved": 0, "fusion_lon": 0.0, "lat": 38.90080433333333, "type": "electric_scooter", "name": "5d6a460ad807be6ff9913052ab4785ab", "bike_id": "5d6a460ad807be6ff9913052ab4785ab", "fusion_lat": 0.0, "lon": -77.0489225}, {"is_disabled": 0, "rental_uris": {"ios": "https://dc.lft.to/lastmile_qr_scan", "android": "https://dc.lft.to/lastmile_qr_scan"}, "is_reserved": 0, "fusion_lon": 0.0, "lat": 38.92668416666667, "type": "electric_scooter", "name": "e9718fe437a9bd18f8007478b7c2ea31", "bike_id": "e9718fe437a9bd18f8007478b7c2ea31", "fusion_lat": 0.0, "lon": -77.03047716666667}, {"is_disabled": 0, "rental_uris": {"ios": "https://dc.lft.to/lastmile_qr_scan", "android": "https://dc.lft.to/lastmile_qr_scan"}, "is_reserved": 0, "fusion_lon": 0.0, "lat": 38.892132333333336, "type": "electric_scooter", "name": "2a64a6b783fea8cca336a036229bfe23", "bike_id": "2a64a6b783fea8cca336a036229bfe23", "fusion_lat": 0.0, "lon": -77.0463485}, {"is_disabled": 0, "rental_uris": {"ios": "https://dc.lft.to/lastmile_qr_scan", "android": "https://dc.lft.to/lastmile_qr_scan"}, "is_reserved": 0, "fusion_lon": 0.0, "lat": 38.91265533333333, "type": "electric_scooter", "name": "8d7cf6b1eeee048d86dc877893679496", "bike_id": "8d7cf6b1eeee048d86dc877893679496", "fusion_lat": 0.0, "lon": -77.022212}, {"is_disabled": 0, "rental_uris": {"ios": "https://dc.lft.to/lastmile_qr_scan", "android": "https://dc.lft.to/lastmile_qr_scan"}, "is_reserved": 0, "fusion_lon": 0.0, "lat": 38.834861, "type": "electric_bike", "name": "84bf2b6ad304aefe5b36155856ce2a48", "bike_id": "84bf2b6ad304aefe5b36155856ce2a48", "fusion_lat": 0.0, "lon": -77.00432433333333}, {"is_disabled": 0, "rental_uris": {"ios": "https://dc.lft.to/lastmile_qr_scan", "android": "https://dc.lft.to/lastmile_qr_scan"}, "is_reserved": 0, "fusion_lon": 0.0, "lat": 38.879129666666664, "type": "electric_scooter", "name": "23977a2151b230b76a4174568c1f9e15", "bike_id": "23977a2151b230b76a4174568c1f9e15", "fusion_lat": 0.0, "lon": -77.00700383333333}, {"is_disabled": 0, "rental_uris": {"ios": "https://dc.lft.to/lastmile_qr_scan", "android": "https://dc.lft.to/lastmile_qr_scan"}, "is_reserved": 0, "fusion_lon": 0.0, "lat": 38.9219575, "type": "electric_scooter", "name": "bb6ab2a97553f757de2ef8c5dbc44076", "bike_id": "bb6ab2a97553f757de2ef8c5dbc44076", "fusion_lat": 0.0, "lon": -77.04245583333334}, {"is_disabled": 0, "rental_uris": {"ios": "https://dc.lft.to/lastmile_qr_scan", "android": "https://dc.lft.to/lastmile_qr_scan"}, "is_reserved": 0, "fusion_lon": 0.0, "lat": 38.94036166666667, "type": "electric_scooter", "name": "3cb6c204a943b554323004dd4be1e4ed", "bike_id": "3cb6c204a943b554323004dd4be1e4ed", "fusion_lat": 0.0, "lon": -77.017613}, {"is_disabled": 0, "rental_uris": {"ios": "https://dc.lft.to/lastmile_qr_scan", "android": "https://dc.lft.to/lastmile_qr_scan"}, "is_reserved": 0, "fusion_lon": 0.0, "lat": 38.921973, "type": "electric_scooter", "name": "571a28667a426160f22a357734988e44", "bike_id": "571a28667a426160f22a357734988e44", "fusion_lat": 0.0, "lon": -77.035112}, {"is_disabled": 0, "rental_uris": {"ios": "https://dc.lft.to/lastmile_qr_scan", "android": "https://dc.lft.to/lastmile_qr_scan"}, "is_reserved": 0, "fusion_lon": 0.0, "lat": 38.9071645, "type": "electric_scooter", "name": "490f04b3eaddcad211c60d9160e145cd", "bike_id": "490f04b3eaddcad211c60d9160e145cd", "fusion_lat": 0.0, "lon": -77.02888166666666}, {"is_disabled": 0, "rental_uris": {"ios": "https://dc.lft.to/lastmile_qr_scan", "android": "https://dc.lft.to/lastmile_qr_scan"}, "is_reserved": 0, "fusion_lon": 0.0, "lat": 38.923226166666666, "type": "electric_scooter", "name": "31d72ef8c6f3b5fd94344ab4d691507a", "bike_id": "31d72ef8c6f3b5fd94344ab4d691507a", "fusion_lat": 0.0, "lon": -77.019561}, {"is_disabled": 0, "rental_uris": {"ios": "https://dc.lft.to/lastmile_qr_scan", "android": "https://dc.lft.to/lastmile_qr_scan"}, "is_reserved": 0, "fusion_lon": 0.0, "lat": 38.88175666666667, "type": "electric_scooter", "name": "a5bf58a6586564308b8fa2259d756853", "bike_id": "a5bf58a6586564308b8fa2259d756853", "fusion_lat": 0.0, "lon": -77.00596233333333}, {"is_disabled": 0, "rental_uris": {"ios": "https://dc.lft.to/lastmile_qr_scan", "android": "https://dc.lft.to/lastmile_qr_scan"}, "is_reserved": 0, "fusion_lon": 0.0, "lat": 38.9289765, "type": "electric_scooter", "name": "07c309fcfb789b8ff2004b1a30dcd8e9", "bike_id": "07c309fcfb789b8ff2004b1a30dcd8e9", "fusion_lat": 0.0, "lon": -77.02352333333333}, {"is_disabled": 0, "rental_uris": {"ios": "https://dc.lft.to/lastmile_qr_scan", "android": "https://dc.lft.to/lastmile_qr_scan"}, "is_reserved": 0, "fusion_lon": 0.0, "lat": 38.909696333333336, "type": "electric_bike", "name": "91c18567ca3568376b9c1602ce3d8059", "bike_id": "91c18567ca3568376b9c1602ce3d8059", "fusion_lat": 0.0, "lon": -77.08823183333334}, {"is_disabled": 0, "rental_uris": {"ios": "https://dc.lft.to/lastmile_qr_scan", "android": "https://dc.lft.to/lastmile_qr_scan"}, "is_reserved": 0, "fusion_lon": 0.0, "lat": 38.89950066666667, "type": "electric_scooter", "name": "2e7c1f5d93a5f6f523de9cac2205f6dd", "bike_id": "2e7c1f5d93a5f6f523de9cac2205f6dd", "fusion_lat": 0.0, "lon": -77.0452015}, {"is_disabled": 0, "rental_uris": {"ios": "https://dc.lft.to/lastmile_qr_scan", "android": "https://dc.lft.to/lastmile_qr_scan"}, "is_reserved": 0, "fusion_lon": 0.0, "lat": 38.92184816666666, "type": "electric_scooter", "name": "52c4bdd5bc6201d27837a2f4d75fc552", "bike_id": "52c4bdd5bc6201d27837a2f4d75fc552", "fusion_lat": 0.0, "lon": -77.04018033333334}, {"is_disabled": 0, "rental_uris": {"ios": "https://dc.lft.to/lastmile_qr_scan", "android": "https://dc.lft.to/lastmile_qr_scan"}, "is_reserved": 0, "fusion_lon": 0.0, "lat": 38.933676166666665, "type": "electric_scooter", "name": "e02d7599ad7c542e197f8bff5aa35634", "bike_id": "e02d7599ad7c542e197f8bff5aa35634", "fusion_lat": 0.0, "lon": -77.02402583333334}, {"is_disabled": 0, "rental_uris": {"ios": "https://dc.lft.to/lastmile_qr_scan", "android": "https://dc.lft.to/lastmile_qr_scan"}, "is_reserved": 0, "fusion_lon": 0.0, "lat": 38.888710833333334, "type": "electric_bike", "name": "54406748046ff4dc724b5a0ff3604164", "bike_id": "54406748046ff4dc724b5a0ff3604164", "fusion_lat": 0.0, "lon": -76.956978}, {"is_disabled": 0, "rental_uris": {"ios": "https://dc.lft.to/lastmile_qr_scan", "android": "https://dc.lft.to/lastmile_qr_scan"}, "is_reserved": 0, "fusion_lon": 0.0, "lat": 38.900293833333336, "type": "electric_scooter", "name": "2232ee134e862e5e3495edf19d2d5291", "bike_id": "2232ee134e862e5e3495edf19d2d5291", "fusion_lat": 0.0, "lon": -76.99939166666667}, {"is_disabled": 0, "rental_uris": {"ios": "https://dc.lft.to/lastmile_qr_scan", "android": "https://dc.lft.to/lastmile_qr_scan"}, "is_reserved": 0, "fusion_lon": 0.0, "lat": 38.9063755, "type": "electric_scooter", "name": "8f131eaba1a68b4e6cca0ede7c7bb81d", "bike_id": "8f131eaba1a68b4e6cca0ede7c7bb81d", "fusion_lat": 0.0, "lon": -77.02456866666667}, {"is_disabled": 0, "rental_uris": {"ios": "https://dc.lft.to/lastmile_qr_scan", "android": "https://dc.lft.to/lastmile_qr_scan"}, "is_reserved": 0, "fusion_lon": 0.0, "lat": 38.83578333333333, "type": "electric_bike", "name": "49a134dc5c7a0b02d1f34cbdf1b11c90", "bike_id": "49a134dc5c7a0b02d1f34cbdf1b11c90", "fusion_lat": 0.0, "lon": -76.99025533333334}, {"is_disabled": 0, "rental_uris": {"ios": "https://dc.lft.to/lastmile_qr_scan", "android": "https://dc.lft.to/lastmile_qr_scan"}, "is_reserved": 0, "fusion_lon": 0.0, "lat": 38.9053115, "type": "electric_scooter", "name": "9f1ab9d240d6c21acca6b68a2d017542", "bike_id": "9f1ab9d240d6c21acca6b68a2d017542", "fusion_lat": 0.0, "lon": -77.0418455}, {"is_disabled": 0, "rental_uris": {"ios": "https://dc.lft.to/lastmile_qr_scan", "android": "https://dc.lft.to/lastmile_qr_scan"}, "is_reserved": 0, "fusion_lon": 0.0, "lat": 38.920652833333335, "type": "electric_scooter", "name": "d3067030e55e2734bf462d1f159aa03c", "bike_id": "d3067030e55e2734bf462d1f159aa03c", "fusion_lat": 0.0, "lon": -77.0317645}, {"is_disabled": 0, "rental_uris": {"ios": "https://dc.lft.to/lastmile_qr_scan", "android": "https://dc.lft.to/lastmile_qr_scan"}, "is_reserved": 0, "fusion_lon": 0.0, "lat": 38.9057255, "type": "electric_scooter", "name": "956fb8a620b834f8d191ad8189306d8b", "bike_id": "956fb8a620b834f8d191ad8189306d8b", "fusion_lat": 0.0, "lon": -77.0404075}, {"is_disabled": 0, "rental_uris": {"ios": "https://dc.lft.to/lastmile_qr_scan", "android": "https://dc.lft.to/lastmile_qr_scan"}, "is_reserved": 0, "fusion_lon": 0.0, "lat": 38.89999866666667, "type": "electric_scooter", "name": "26412d5176535e49d0b0ab2adcecef82", "bike_id": "26412d5176535e49d0b0ab2adcecef82", "fusion_lat": 0.0, "lon": -77.006715}, {"is_disabled": 0, "rental_uris": {"ios": "https://dc.lft.to/lastmile_qr_scan", "android": "https://dc.lft.to/lastmile_qr_scan"}, "is_reserved": 0, "fusion_lon": 0.0, "lat": 38.89176766666667, "type": "electric_scooter", "name": "fdbf26e2cb209f0958e7a8b44ef52e25", "bike_id": "fdbf26e2cb209f0958e7a8b44ef52e25", "fusion_lat": 0.0, "lon": -77.01571783333333}, {"is_disabled": 0, "rental_uris": {"ios": "https://dc.lft.to/lastmile_qr_scan", "android": "https://dc.lft.to/lastmile_qr_scan"}, "is_reserved": 0, "fusion_lon": 0.0, "lat": 38.907771833333335, "type": "electric_scooter", "name": "7cae149e5e78caf092ec1b49485235de", "bike_id": "7cae149e5e78caf092ec1b49485235de", "fusion_lat": 0.0, "lon": -77.04652133333333}, {"is_disabled": 0, "rental_uris": {"ios": "https://dc.lft.to/lastmile_qr_scan", "android": "https://dc.lft.to/lastmile_qr_scan"}, "is_reserved": 0, "fusion_lon": 0.0, "lat": 38.9050595, "type": "electric_scooter", "name": "586a60b87ca28151e00170a20098f0d8", "bike_id": "586a60b87ca28151e00170a20098f0d8", "fusion_lat": 0.0, "lon": -77.07010183333334}, {"is_disabled": 0, "rental_uris": {"ios": "https://dc.lft.to/lastmile_qr_scan", "android": "https://dc.lft.to/lastmile_qr_scan"}, "is_reserved": 0, "fusion_lon": 0.0, "lat": 38.9189095, "type": "electric_bike", "name": "d7179c908fa9ff28298ee58739de1126", "bike_id": "d7179c908fa9ff28298ee58739de1126", "fusion_lat": 0.0, "lon": -77.10171766666667}, {"is_disabled": 0, "rental_uris": {"ios": "https://dc.lft.to/lastmile_qr_scan", "android": "https://dc.lft.to/lastmile_qr_scan"}, "is_reserved": 0, "fusion_lon": 0.0, "lat": 38.897722, "type": "electric_scooter", "name": "e4c14c5e28ed2153e152a1089f600d56", "bike_id": "e4c14c5e28ed2153e152a1089f600d56", "fusion_lat": 0.0, "lon": -77.02724933333333}, {"is_disabled": 0, "rental_uris": {"ios": "https://dc.lft.to/lastmile_qr_scan", "android": "https://dc.lft.to/lastmile_qr_scan"}, "is_reserved": 0, "fusion_lon": 0.0, "lat": 38.93607466666667, "type": "electric_scooter", "name": "701e0c885587341b654d078324757761", "bike_id": "701e0c885587341b654d078324757761", "fusion_lat": 0.0, "lon": -77.03872933333334}, {"is_disabled": 0, "rental_uris": {"ios": "https://dc.lft.to/lastmile_qr_scan", "android": "https://dc.lft.to/lastmile_qr_scan"}, "is_reserved": 0, "fusion_lon": 0.0, "lat": 38.89940983333334, "type": "electric_scooter", "name": "5abf534a20eea05ff643d993ff00c6ab", "bike_id": "5abf534a20eea05ff643d993ff00c6ab", "fusion_lat": 0.0, "lon": -77.02098866666667}, {"is_disabled": 0, "rental_uris": {"ios": "https://dc.lft.to/lastmile_qr_scan", "android": "https://dc.lft.to/lastmile_qr_scan"}, "is_reserved": 0, "fusion_lon": 0.0, "lat": 38.965467333333336, "type": "electric_scooter", "name": "2d389824e0ecab3a497ae01223a02a70", "bike_id": "2d389824e0ecab3a497ae01223a02a70", "fusion_lat": 0.0, "lon": -77.02745866666666}, {"is_disabled": 0, "rental_uris": {"ios": "https://dc.lft.to/lastmile_qr_scan", "android": "https://dc.lft.to/lastmile_qr_scan"}, "is_reserved": 0, "fusion_lon": 0.0, "lat": 38.8921655, "type": "electric_scooter", "name": "843780f69a0505276b6a508315d79e49", "bike_id": "843780f69a0505276b6a508315d79e49", "fusion_lat": 0.0, "lon": -77.02220133333333}, {"is_disabled": 0, "rental_uris": {"ios": "https://dc.lft.to/lastmile_qr_scan", "android": "https://dc.lft.to/lastmile_qr_scan"}, "is_reserved": 0, "fusion_lon": 0.0, "lat": 38.89766616666667, "type": "electric_scooter", "name": "025890acfe6b12e571dee5aa11e1960e", "bike_id": "025890acfe6b12e571dee5aa11e1960e", "fusion_lat": 0.0, "lon": -77.022266}, {"is_disabled": 0, "rental_uris": {"ios": "https://dc.lft.to/lastmile_qr_scan", "android": "https://dc.lft.to/lastmile_qr_scan"}, "is_reserved": 0, "fusion_lon": 0.0, "lat": 38.9106925, "type": "electric_scooter", "name": "3348d319a6344d4c3ae63943db4c6288", "bike_id": "3348d319a6344d4c3ae63943db4c6288", "fusion_lat": 0.0, "lon": -77.01994583333334}, {"is_disabled": 0, "rental_uris": {"ios": "https://dc.lft.to/lastmile_qr_scan", "android": "https://dc.lft.to/lastmile_qr_scan"}, "is_reserved": 0, "fusion_lon": 0.0, "lat": 38.892194833333335, "type": "electric_scooter", "name": "49f59a59d00758902a1f16e444cf3d34", "bike_id": "49f59a59d00758902a1f16e444cf3d34", "fusion_lat": 0.0, "lon": -77.041917}, {"is_disabled": 0, "rental_uris": {"ios": "https://dc.lft.to/lastmile_qr_scan", "android": "https://dc.lft.to/lastmile_qr_scan"}, "is_reserved": 0, "fusion_lon": 0.0, "lat": 38.92535733333333, "type": "electric_bike", "name": "b08f782a50ffbf66e77833db92fd552f", "bike_id": "b08f782a50ffbf66e77833db92fd552f", "fusion_lat": 0.0, "lon": -77.00112933333334}, {"is_disabled": 0, "rental_uris": {"ios": "https://dc.lft.to/lastmile_qr_scan", "android": "https://dc.lft.to/lastmile_qr_scan"}, "is_reserved": 0, "fusion_lon": 0.0, "lat": 38.956517, "type": "electric_scooter", "name": "1fa24cfbac9445412e9e87cfb9ac6cf5", "bike_id": "1fa24cfbac9445412e9e87cfb9ac6cf5", "fusion_lat": 0.0, "lon": -77.01277666666667}, {"is_disabled": 0, "rental_uris": {"ios": "https://dc.lft.to/lastmile_qr_scan", "android": "https://dc.lft.to/lastmile_qr_scan"}, "is_reserved": 0, "fusion_lon": 0.0, "lat": 38.983646, "type": "electric_bike", "name": "b674ae39af3861904cc989a69859ec33", "bike_id": "b674ae39af3861904cc989a69859ec33", "fusion_lat": 0.0, "lon": -76.98844516666666}, {"is_disabled": 0, "rental_uris": {"ios": "https://dc.lft.to/lastmile_qr_scan", "android": "https://dc.lft.to/lastmile_qr_scan"}, "is_reserved": 0, "fusion_lon": 0.0, "lat": 38.89225316666667, "type": "electric_scooter", "name": "997c6ec0fce90854e98d3ec9f63f931b", "bike_id": "997c6ec0fce90854e98d3ec9f63f931b", "fusion_lat": 0.0, "lon": -77.05004083333333}, {"is_disabled": 0, "rental_uris": {"ios": "https://dc.lft.to/lastmile_qr_scan", "android": "https://dc.lft.to/lastmile_qr_scan"}, "is_reserved": 0, "fusion_lon": 0.0, "lat": 38.932480166666664, "type": "electric_scooter", "name": "d809c9056e202a71cdbcb436eb609273", "bike_id": "d809c9056e202a71cdbcb436eb609273", "fusion_lat": 0.0, "lon": -77.02946716666666}, {"is_disabled": 0, "rental_uris": {"ios": "https://dc.lft.to/lastmile_qr_scan", "android": "https://dc.lft.to/lastmile_qr_scan"}, "is_reserved": 0, "fusion_lon": 0.0, "lat": 38.89482916666667, "type": "electric_scooter", "name": "61aaa9e64f6838fa36bc539d010beec6", "bike_id": "61aaa9e64f6838fa36bc539d010beec6", "fusion_lat": 0.0, "lon": -77.0416505}, {"is_disabled": 0, "rental_uris": {"ios": "https://dc.lft.to/lastmile_qr_scan", "android": "https://dc.lft.to/lastmile_qr_scan"}, "is_reserved": 0, "fusion_lon": 0.0, "lat": 38.91102433333333, "type": "electric_scooter", "name": "6cf63f9948116fce83797f731b0c1d1e", "bike_id": "6cf63f9948116fce83797f731b0c1d1e", "fusion_lat": 0.0, "lon": -77.02712233333334}, {"is_disabled": 0, "rental_uris": {"ios": "https://dc.lft.to/lastmile_qr_scan", "android": "https://dc.lft.to/lastmile_qr_scan"}, "is_reserved": 0, "fusion_lon": 0.0, "lat": 38.9161285, "type": "electric_scooter", "name": "945b3a485f6815c50d86a97557d85173", "bike_id": "945b3a485f6815c50d86a97557d85173", "fusion_lat": 0.0, "lon": -77.048589}, {"is_disabled": 0, "rental_uris": {"ios": "https://dc.lft.to/lastmile_qr_scan", "android": "https://dc.lft.to/lastmile_qr_scan"}, "is_reserved": 0, "fusion_lon": 0.0, "lat": 38.923286, "type": "electric_scooter", "name": "dad1666c08525ec7ea394f63ebca4fa6", "bike_id": "dad1666c08525ec7ea394f63ebca4fa6", "fusion_lat": 0.0, "lon": -77.05677766666666}, {"is_disabled": 0, "rental_uris": {"ios": "https://dc.lft.to/lastmile_qr_scan", "android": "https://dc.lft.to/lastmile_qr_scan"}, "is_reserved": 0, "fusion_lon": 0.0, "lat": 38.90526083333334, "type": "electric_scooter", "name": "58d5c2e73f96d297043f8bf1b0ac762e", "bike_id": "58d5c2e73f96d297043f8bf1b0ac762e", "fusion_lat": 0.0, "lon": -77.0610015}, {"is_disabled": 0, "rental_uris": {"ios": "https://dc.lft.to/lastmile_qr_scan", "android": "https://dc.lft.to/lastmile_qr_scan"}, "is_reserved": 0, "fusion_lon": 0.0, "lat": 38.9068665, "type": "electric_scooter", "name": "2c68491c0092dd26a4dcf2b5deb452fd", "bike_id": "2c68491c0092dd26a4dcf2b5deb452fd", "fusion_lat": 0.0, "lon": -77.029875}, {"is_disabled": 0, "rental_uris": {"ios": "https://dc.lft.to/lastmile_qr_scan", "android": "https://dc.lft.to/lastmile_qr_scan"}, "is_reserved": 0, "fusion_lon": 0.0, "lat": 38.8439465, "type": "electric_scooter", "name": "25d52aac04a6adcbfc7267bdac4fd274", "bike_id": "25d52aac04a6adcbfc7267bdac4fd274", "fusion_lat": 0.0, "lon": -76.99530033333333}, {"is_disabled": 0, "rental_uris": {"ios": "https://dc.lft.to/lastmile_qr_scan", "android": "https://dc.lft.to/lastmile_qr_scan"}, "is_reserved": 0, "fusion_lon": 0.0, "lat": 38.917994666666665, "type": "electric_scooter", "name": "62836dd3d3714c7d51545ef529d660dd", "bike_id": "62836dd3d3714c7d51545ef529d660dd", "fusion_lat": 0.0, "lon": -77.03437566666666}, {"is_disabled": 0, "rental_uris": {"ios": "https://dc.lft.to/lastmile_qr_scan", "android": "https://dc.lft.to/lastmile_qr_scan"}, "is_reserved": 0, "fusion_lon": 0.0, "lat": 38.8555625, "type": "electric_bike", "name": "88c773d4316c3f13ffc7f2bcf233113d", "bike_id": "88c773d4316c3f13ffc7f2bcf233113d", "fusion_lat": 0.0, "lon": -77.06324633333334}, {"is_disabled": 0, "rental_uris": {"ios": "https://dc.lft.to/lastmile_qr_scan", "android": "https://dc.lft.to/lastmile_qr_scan"}, "is_reserved": 0, "fusion_lon": 0.0, "lat": 38.94294933333333, "type": "electric_scooter", "name": "0c03325e31ea0d786b527539dbc4eb32", "bike_id": "0c03325e31ea0d786b527539dbc4eb32", "fusion_lat": 0.0, "lon": -77.05930616666667}, {"is_disabled": 0, "rental_uris": {"ios": "https://dc.lft.to/lastmile_qr_scan", "android": "https://dc.lft.to/lastmile_qr_scan"}, "is_reserved": 0, "fusion_lon": 0.0, "lat": 38.917956833333335, "type": "electric_scooter", "name": "dddf2ec9d376b3be380589feeab37548", "bike_id": "dddf2ec9d376b3be380589feeab37548", "fusion_lat": 0.0, "lon": -77.0343285}, {"is_disabled": 0, "rental_uris": {"ios": "https://dc.lft.to/lastmile_qr_scan", "android": "https://dc.lft.to/lastmile_qr_scan"}, "is_reserved": 0, "fusion_lon": 0.0, "lat": 38.89512383333334, "type": "electric_scooter", "name": "79b061f0fb7a7d155287970f21149ea5", "bike_id": "79b061f0fb7a7d155287970f21149ea5", "fusion_lat": 0.0, "lon": -77.01977133333334}, {"is_disabled": 0, "rental_uris": {"ios": "https://dc.lft.to/lastmile_qr_scan", "android": "https://dc.lft.to/lastmile_qr_scan"}, "is_reserved": 0, "fusion_lon": 0.0, "lat": 38.88501633333333, "type": "electric_scooter", "name": "e9a638a9233a100c79569bf8b25a8c1f", "bike_id": "e9a638a9233a100c79569bf8b25a8c1f", "fusion_lat": 0.0, "lon": -77.0056635}, {"is_disabled": 0, "rental_uris": {"ios": "https://dc.lft.to/lastmile_qr_scan", "android": "https://dc.lft.to/lastmile_qr_scan"}, "is_reserved": 0, "fusion_lon": 0.0, "lat": 38.90131383333333, "type": "electric_scooter", "name": "89c86b8074a5ad73595c637e0c415230", "bike_id": "89c86b8074a5ad73595c637e0c415230", "fusion_lat": 0.0, "lon": -77.04438966666666}, {"is_disabled": 0, "rental_uris": {"ios": "https://dc.lft.to/lastmile_qr_scan", "android": "https://dc.lft.to/lastmile_qr_scan"}, "is_reserved": 0, "fusion_lon": 0.0, "lat": 38.920170666666664, "type": "electric_scooter", "name": "30b43a09f7dc1aaedde5864950bae35c", "bike_id": "30b43a09f7dc1aaedde5864950bae35c", "fusion_lat": 0.0, "lon": -77.03166616666667}, {"is_disabled": 0, "rental_uris": {"ios": "https://dc.lft.to/lastmile_qr_scan", "android": "https://dc.lft.to/lastmile_qr_scan"}, "is_reserved": 0, "fusion_lon": 0.0, "lat": 38.924654, "type": "electric_scooter", "name": "df8a01b216ffb4b99b9c4f8083abe79f", "bike_id": "df8a01b216ffb4b99b9c4f8083abe79f", "fusion_lat": 0.0, "lon": -77.02213016666667}, {"is_disabled": 0, "rental_uris": {"ios": "https://dc.lft.to/lastmile_qr_scan", "android": "https://dc.lft.to/lastmile_qr_scan"}, "is_reserved": 0, "fusion_lon": 0.0, "lat": 38.905998333333336, "type": "electric_bike", "name": "5507f0529bc98442efcb38ca8e39f4fa", "bike_id": "5507f0529bc98442efcb38ca8e39f4fa", "fusion_lat": 0.0, "lon": -77.128859}, {"is_disabled": 0, "rental_uris": {"ios": "https://dc.lft.to/lastmile_qr_scan", "android": "https://dc.lft.to/lastmile_qr_scan"}, "is_reserved": 0, "fusion_lon": 0.0, "lat": 38.8876125, "type": "electric_scooter", "name": "7b5840013764da8c88c69573c39a395d", "bike_id": "7b5840013764da8c88c69573c39a395d", "fusion_lat": 0.0, "lon": -77.0019125}, {"is_disabled": 0, "rental_uris": {"ios": "https://dc.lft.to/lastmile_qr_scan", "android": "https://dc.lft.to/lastmile_qr_scan"}, "is_reserved": 0, "fusion_lon": 0.0, "lat": 38.90357516666667, "type": "electric_scooter", "name": "8025cfeccc83ba6cd72e32926e2faf43", "bike_id": "8025cfeccc83ba6cd72e32926e2faf43", "fusion_lat": 0.0, "lon": -77.0281365}, {"is_disabled": 0, "rental_uris": {"ios": "https://dc.lft.to/lastmile_qr_scan", "android": "https://dc.lft.to/lastmile_qr_scan"}, "is_reserved": 0, "fusion_lon": 0.0, "lat": 38.934428833333335, "type": "electric_scooter", "name": "d8101989b7f21f045605d73ca663994a", "bike_id": "d8101989b7f21f045605d73ca663994a", "fusion_lat": 0.0, "lon": -77.029747}, {"is_disabled": 0, "rental_uris": {"ios": "https://dc.lft.to/lastmile_qr_scan", "android": "https://dc.lft.to/lastmile_qr_scan"}, "is_reserved": 0, "fusion_lon": 0.0, "lat": 38.89215683333333, "type": "electric_scooter", "name": "f49f9f088e090fdfda90c80e88155c67", "bike_id": "f49f9f088e090fdfda90c80e88155c67", "fusion_lat": 0.0, "lon": -77.02422116666666}, {"is_disabled": 0, "rental_uris": {"ios": "https://dc.lft.to/lastmile_qr_scan", "android": "https://dc.lft.to/lastmile_qr_scan"}, "is_reserved": 0, "fusion_lon": 0.0, "lat": 38.892223, "type": "electric_scooter", "name": "6777d77dc06adc0cdc61e4deff1cf86f", "bike_id": "6777d77dc06adc0cdc61e4deff1cf86f", "fusion_lat": 0.0, "lon": -77.03019033333334}, {"is_disabled": 0, "rental_uris": {"ios": "https://dc.lft.to/lastmile_qr_scan", "android": "https://dc.lft.to/lastmile_qr_scan"}, "is_reserved": 0, "fusion_lon": 0.0, "lat": 38.933425166666666, "type": "electric_scooter", "name": "df1e00cb9dc2a748bd1202e334e40331", "bike_id": "df1e00cb9dc2a748bd1202e334e40331", "fusion_lat": 0.0, "lon": -77.072588}, {"is_disabled": 0, "rental_uris": {"ios": "https://dc.lft.to/lastmile_qr_scan", "android": "https://dc.lft.to/lastmile_qr_scan"}, "is_reserved": 0, "fusion_lon": 0.0, "lat": 38.8961275, "type": "electric_scooter", "name": "afebc0ea2d16013744a800e0afc53945", "bike_id": "afebc0ea2d16013744a800e0afc53945", "fusion_lat": 0.0, "lon": -77.05073633333333}, {"is_disabled": 0, "rental_uris": {"ios": "https://dc.lft.to/lastmile_qr_scan", "android": "https://dc.lft.to/lastmile_qr_scan"}, "is_reserved": 0, "fusion_lon": 0.0, "lat": 38.92127683333333, "type": "electric_scooter", "name": "0c5cfb3cb506d417f8f17715a1739270", "bike_id": "0c5cfb3cb506d417f8f17715a1739270", "fusion_lat": 0.0, "lon": -77.00941916666666}, {"is_disabled": 0, "rental_uris": {"ios": "https://dc.lft.to/lastmile_qr_scan", "android": "https://dc.lft.to/lastmile_qr_scan"}, "is_reserved": 0, "fusion_lon": 0.0, "lat": 38.94140066666667, "type": "electric_scooter", "name": "91608b9f62f3073f881ca5fe3f024109", "bike_id": "91608b9f62f3073f881ca5fe3f024109", "fusion_lat": 0.0, "lon": -77.02322016666666}, {"is_disabled": 0, "rental_uris": {"ios": "https://dc.lft.to/lastmile_qr_scan", "android": "https://dc.lft.to/lastmile_qr_scan"}, "is_reserved": 0, "fusion_lon": 0.0, "lat": 38.89219533333333, "type": "electric_scooter", "name": "da3d8eb11cddf9299ad2f949d36ba42d", "bike_id": "da3d8eb11cddf9299ad2f949d36ba42d", "fusion_lat": 0.0, "lon": -77.0433325}, {"is_disabled": 0, "rental_uris": {"ios": "https://dc.lft.to/lastmile_qr_scan", "android": "https://dc.lft.to/lastmile_qr_scan"}, "is_reserved": 0, "fusion_lon": 0.0, "lat": 38.875603, "type": "electric_scooter", "name": "d6db430fe68fe318d0c092cbab77ef5e", "bike_id": "d6db430fe68fe318d0c092cbab77ef5e", "fusion_lat": 0.0, "lon": -77.00601916666666}, {"is_disabled": 0, "rental_uris": {"ios": "https://dc.lft.to/lastmile_qr_scan", "android": "https://dc.lft.to/lastmile_qr_scan"}, "is_reserved": 0, "fusion_lon": 0.0, "lat": 38.950973166666664, "type": "electric_scooter", "name": "7d3389e745a9a814f8a9045ae8bd2edb", "bike_id": "7d3389e745a9a814f8a9045ae8bd2edb", "fusion_lat": 0.0, "lon": -77.02960033333333}, {"is_disabled": 0, "rental_uris": {"ios": "https://dc.lft.to/lastmile_qr_scan", "android": "https://dc.lft.to/lastmile_qr_scan"}, "is_reserved": 0, "fusion_lon": 0.0, "lat": 38.9060645, "type": "electric_scooter", "name": "a0cec146db1be7a7f56454fce364f429", "bike_id": "a0cec146db1be7a7f56454fce364f429", "fusion_lat": 0.0, "lon": -77.056924}, {"is_disabled": 0, "rental_uris": {"ios": "https://dc.lft.to/lastmile_qr_scan", "android": "https://dc.lft.to/lastmile_qr_scan"}, "is_reserved": 0, "fusion_lon": 0.0, "lat": 38.90995483333333, "type": "electric_scooter", "name": "58c684d8438e1e8e79b959ed388f41fb", "bike_id": "58c684d8438e1e8e79b959ed388f41fb", "fusion_lat": 0.0, "lon": -77.0416875}, {"is_disabled": 0, "rental_uris": {"ios": "https://dc.lft.to/lastmile_qr_scan", "android": "https://dc.lft.to/lastmile_qr_scan"}, "is_reserved": 0, "fusion_lon": 0.0, "lat": 38.904539, "type": "electric_scooter", "name": "4bb6707c646b7da00380cb3bb04cdf7c", "bike_id": "4bb6707c646b7da00380cb3bb04cdf7c", "fusion_lat": 0.0, "lon": -77.05005383333334}, {"is_disabled": 0, "rental_uris": {"ios": "https://dc.lft.to/lastmile_qr_scan", "android": "https://dc.lft.to/lastmile_qr_scan"}, "is_reserved": 0, "fusion_lon": 0.0, "lat": 38.897357, "type": "electric_scooter", "name": "a56be7215eb5e882804b196d35f7ea1d", "bike_id": "a56be7215eb5e882804b196d35f7ea1d", "fusion_lat": 0.0, "lon": -76.990366}, {"is_disabled": 0, "rental_uris": {"ios": "https://dc.lft.to/lastmile_qr_scan", "android": "https://dc.lft.to/lastmile_qr_scan"}, "is_reserved": 0, "fusion_lon": 0.0, "lat": 38.89177383333333, "type": "electric_scooter", "name": "7be3c47da32e0dd732590ff6e70c878e", "bike_id": "7be3c47da32e0dd732590ff6e70c878e", "fusion_lat": 0.0, "lon": -77.01564483333334}, {"is_disabled": 0, "rental_uris": {"ios": "https://dc.lft.to/lastmile_qr_scan", "android": "https://dc.lft.to/lastmile_qr_scan"}, "is_reserved": 0, "fusion_lon": 0.0, "lat": 38.903695166666665, "type": "electric_scooter", "name": "377fd2a213cb5199dcf72c1806d66bd2", "bike_id": "377fd2a213cb5199dcf72c1806d66bd2", "fusion_lat": 0.0, "lon": -77.0371975}, {"is_disabled": 0, "rental_uris": {"ios": "https://dc.lft.to/lastmile_qr_scan", "android": "https://dc.lft.to/lastmile_qr_scan"}, "is_reserved": 0, "fusion_lon": 0.0, "lat": 38.90954133333334, "type": "electric_scooter", "name": "a84dbe54e8ee3e0a0bbaaa1ceeb663d5", "bike_id": "a84dbe54e8ee3e0a0bbaaa1ceeb663d5", "fusion_lat": 0.0, "lon": -77.03492266666667}, {"is_disabled": 0, "rental_uris": {"ios": "https://dc.lft.to/lastmile_qr_scan", "android": "https://dc.lft.to/lastmile_qr_scan"}, "is_reserved": 0, "fusion_lon": 0.0, "lat": 38.92434866666667, "type": "electric_scooter", "name": "91f7bf6ff95ca4143f85f4346bdc2843", "bike_id": "91f7bf6ff95ca4143f85f4346bdc2843", "fusion_lat": 0.0, "lon": -77.020164}, {"is_disabled": 0, "rental_uris": {"ios": "https://dc.lft.to/lastmile_qr_scan", "android": "https://dc.lft.to/lastmile_qr_scan"}, "is_reserved": 0, "fusion_lon": 0.0, "lat": 38.92014283333334, "type": "electric_scooter", "name": "30b34bbeab13306c2571defd37fb1e9b", "bike_id": "30b34bbeab13306c2571defd37fb1e9b", "fusion_lat": 0.0, "lon": -77.02516833333334}, {"is_disabled": 0, "rental_uris": {"ios": "https://dc.lft.to/lastmile_qr_scan", "android": "https://dc.lft.to/lastmile_qr_scan"}, "is_reserved": 0, "fusion_lon": 0.0, "lat": 38.89173433333333, "type": "electric_scooter", "name": "a6a9b896cb4282b6db11a629f543f9c3", "bike_id": "a6a9b896cb4282b6db11a629f543f9c3", "fusion_lat": 0.0, "lon": -77.0156195}, {"is_disabled": 0, "rental_uris": {"ios": "https://dc.lft.to/lastmile_qr_scan", "android": "https://dc.lft.to/lastmile_qr_scan"}, "is_reserved": 0, "fusion_lon": 0.0, "lat": 38.91731166666667, "type": "electric_scooter", "name": "1778f71c8ec31171072c9c18e0c978dc", "bike_id": "1778f71c8ec31171072c9c18e0c978dc", "fusion_lat": 0.0, "lon": -77.01441183333333}, {"is_disabled": 0, "rental_uris": {"ios": "https://dc.lft.to/lastmile_qr_scan", "android": "https://dc.lft.to/lastmile_qr_scan"}, "is_reserved": 0, "fusion_lon": 0.0, "lat": 38.924324, "type": "electric_scooter", "name": "c03873ab5d91b7263f17987de2e8712b", "bike_id": "c03873ab5d91b7263f17987de2e8712b", "fusion_lat": 0.0, "lon": -77.03403816666666}, {"is_disabled": 0, "rental_uris": {"ios": "https://dc.lft.to/lastmile_qr_scan", "android": "https://dc.lft.to/lastmile_qr_scan"}, "is_reserved": 0, "fusion_lon": 0.0, "lat": 38.89264433333334, "type": "electric_scooter", "name": "b82115c5186ace27e6d9edaa9621aa6e", "bike_id": "b82115c5186ace27e6d9edaa9621aa6e", "fusion_lat": 0.0, "lon": -77.04200583333333}, {"is_disabled": 0, "rental_uris": {"ios": "https://dc.lft.to/lastmile_qr_scan", "android": "https://dc.lft.to/lastmile_qr_scan"}, "is_reserved": 0, "fusion_lon": 0.0, "lat": 38.91471266666667, "type": "electric_scooter", "name": "bfa7814b93ee4e5e853c577ad8094982", "bike_id": "bfa7814b93ee4e5e853c577ad8094982", "fusion_lat": 0.0, "lon": -77.00947166666667}, {"is_disabled": 0, "rental_uris": {"ios": "https://dc.lft.to/lastmile_qr_scan", "android": "https://dc.lft.to/lastmile_qr_scan"}, "is_reserved": 0, "fusion_lon": 0.0, "lat": 38.996663166666664, "type": "electric_bike", "name": "e7596d6c192be64e89690994905139f9", "bike_id": "e7596d6c192be64e89690994905139f9", "fusion_lat": 0.0, "lon": -77.0379075}, {"is_disabled": 0, "rental_uris": {"ios": "https://dc.lft.to/lastmile_qr_scan", "android": "https://dc.lft.to/lastmile_qr_scan"}, "is_reserved": 0, "fusion_lon": 0.0, "lat": 38.91136483333333, "type": "electric_scooter", "name": "1e5124b81a467c19e6de96de84f5e47b", "bike_id": "1e5124b81a467c19e6de96de84f5e47b", "fusion_lat": 0.0, "lon": -77.03838383333333}, {"is_disabled": 0, "rental_uris": {"ios": "https://dc.lft.to/lastmile_qr_scan", "android": "https://dc.lft.to/lastmile_qr_scan"}, "is_reserved": 0, "fusion_lon": 0.0, "lat": 38.89956566666667, "type": "electric_scooter", "name": "b413e2947c7526c8c94206740b385dfc", "bike_id": "b413e2947c7526c8c94206740b385dfc", "fusion_lat": 0.0, "lon": -77.046574}, {"is_disabled": 0, "rental_uris": {"ios": "https://dc.lft.to/lastmile_qr_scan", "android": "https://dc.lft.to/lastmile_qr_scan"}, "is_reserved": 0, "fusion_lon": 0.0, "lat": 38.89896133333333, "type": "electric_scooter", "name": "268edd83b38f739eec1dc6f21c2c23f6", "bike_id": "268edd83b38f739eec1dc6f21c2c23f6", "fusion_lat": 0.0, "lon": -77.029651}, {"is_disabled": 0, "rental_uris": {"ios": "https://dc.lft.to/lastmile_qr_scan", "android": "https://dc.lft.to/lastmile_qr_scan"}, "is_reserved": 0, "fusion_lon": 0.0, "lat": 38.90257483333333, "type": "electric_scooter", "name": "a4244474b85b96e697cf6a5884c9819d", "bike_id": "a4244474b85b96e697cf6a5884c9819d", "fusion_lat": 0.0, "lon": -77.00168933333333}, {"is_disabled": 0, "rental_uris": {"ios": "https://dc.lft.to/lastmile_qr_scan", "android": "https://dc.lft.to/lastmile_qr_scan"}, "is_reserved": 0, "fusion_lon": 0.0, "lat": 38.9195675, "type": "electric_bike", "name": "102c3f459ad697b5c5b5c6cec82a2001", "bike_id": "102c3f459ad697b5c5b5c6cec82a2001", "fusion_lat": 0.0, "lon": -77.04223566666667}, {"is_disabled": 0, "rental_uris": {"ios": "https://dc.lft.to/lastmile_qr_scan", "android": "https://dc.lft.to/lastmile_qr_scan"}, "is_reserved": 0, "fusion_lon": 0.0, "lat": 38.905251166666666, "type": "electric_scooter", "name": "27eb3add01c37194ff0dc34ef9a943bc", "bike_id": "27eb3add01c37194ff0dc34ef9a943bc", "fusion_lat": 0.0, "lon": -77.06525733333334}, {"is_disabled": 0, "rental_uris": {"ios": "https://dc.lft.to/lastmile_qr_scan", "android": "https://dc.lft.to/lastmile_qr_scan"}, "is_reserved": 0, "fusion_lon": 0.0, "lat": 38.95102966666666, "type": "electric_scooter", "name": "486309ea7325d924dbc8c7d944e38160", "bike_id": "486309ea7325d924dbc8c7d944e38160", "fusion_lat": 0.0, "lon": -77.01578233333333}, {"is_disabled": 0, "rental_uris": {"ios": "https://dc.lft.to/lastmile_qr_scan", "android": "https://dc.lft.to/lastmile_qr_scan"}, "is_reserved": 0, "fusion_lon": 0.0, "lat": 38.918914, "type": "electric_scooter", "name": "261de983433aab46ee5bea147bc0eea6", "bike_id": "261de983433aab46ee5bea147bc0eea6", "fusion_lat": 0.0, "lon": -77.04034883333334}, {"is_disabled": 0, "rental_uris": {"ios": "https://dc.lft.to/lastmile_qr_scan", "android": "https://dc.lft.to/lastmile_qr_scan"}, "is_reserved": 0, "fusion_lon": 0.0, "lat": 38.934467, "type": "electric_scooter", "name": "8f91dddb43a213b02290e39e77c4e732", "bike_id": "8f91dddb43a213b02290e39e77c4e732", "fusion_lat": 0.0, "lon": -77.089634}, {"is_disabled": 0, "rental_uris": {"ios": "https://dc.lft.to/lastmile_qr_scan", "android": "https://dc.lft.to/lastmile_qr_scan"}, "is_reserved": 0, "fusion_lon": 0.0, "lat": 38.907374833333336, "type": "electric_scooter", "name": "22e427901053495bf9d8cbd986150b96", "bike_id": "22e427901053495bf9d8cbd986150b96", "fusion_lat": 0.0, "lon": -77.0306615}, {"is_disabled": 0, "rental_uris": {"ios": "https://dc.lft.to/lastmile_qr_scan", "android": "https://dc.lft.to/lastmile_qr_scan"}, "is_reserved": 0, "fusion_lon": 0.0, "lat": 38.89230583333333, "type": "electric_scooter", "name": "a88f44d1901b84d3fefe29308cd1992e", "bike_id": "a88f44d1901b84d3fefe29308cd1992e", "fusion_lat": 0.0, "lon": -77.0500125}, {"is_disabled": 0, "rental_uris": {"ios": "https://dc.lft.to/lastmile_qr_scan", "android": "https://dc.lft.to/lastmile_qr_scan"}, "is_reserved": 0, "fusion_lon": 0.0, "lat": 38.89608316666666, "type": "electric_scooter", "name": "66202a640a841098c6dceb4949047278", "bike_id": "66202a640a841098c6dceb4949047278", "fusion_lat": 0.0, "lon": -77.027252}, {"is_disabled": 0, "rental_uris": {"ios": "https://dc.lft.to/lastmile_qr_scan", "android": "https://dc.lft.to/lastmile_qr_scan"}, "is_reserved": 0, "fusion_lon": 0.0, "lat": 38.908364166666665, "type": "electric_scooter", "name": "eef0a3770973697e4f55ac3d09ffb8d5", "bike_id": "eef0a3770973697e4f55ac3d09ffb8d5", "fusion_lat": 0.0, "lon": -77.00208816666667}, {"is_disabled": 0, "rental_uris": {"ios": "https://dc.lft.to/lastmile_qr_scan", "android": "https://dc.lft.to/lastmile_qr_scan"}, "is_reserved": 0, "fusion_lon": 0.0, "lat": 38.92517866666667, "type": "electric_scooter", "name": "ae74cb5373093dacf37864d1f9b30ab1", "bike_id": "ae74cb5373093dacf37864d1f9b30ab1", "fusion_lat": 0.0, "lon": -77.022957}, {"is_disabled": 0, "rental_uris": {"ios": "https://dc.lft.to/lastmile_qr_scan", "android": "https://dc.lft.to/lastmile_qr_scan"}, "is_reserved": 0, "fusion_lon": 0.0, "lat": 38.883731833333336, "type": "electric_scooter", "name": "364b54a14aedb1c43f19d6de8a9a093b", "bike_id": "364b54a14aedb1c43f19d6de8a9a093b", "fusion_lat": 0.0, "lon": -77.019729}, {"is_disabled": 0, "rental_uris": {"ios": "https://dc.lft.to/lastmile_qr_scan", "android": "https://dc.lft.to/lastmile_qr_scan"}, "is_reserved": 0, "fusion_lon": 0.0, "lat": 38.918194166666666, "type": "electric_scooter", "name": "0ab31fccebc0290544779646e8215658", "bike_id": "0ab31fccebc0290544779646e8215658", "fusion_lat": 0.0, "lon": -77.041542}, {"is_disabled": 0, "rental_uris": {"ios": "https://dc.lft.to/lastmile_qr_scan", "android": "https://dc.lft.to/lastmile_qr_scan"}, "is_reserved": 0, "fusion_lon": 0.0, "lat": 38.928553, "type": "electric_scooter", "name": "4a6bd2e37b88a5002f8fe01fae2f54f1", "bike_id": "4a6bd2e37b88a5002f8fe01fae2f54f1", "fusion_lat": 0.0, "lon": -77.03283416666666}, {"is_disabled": 0, "rental_uris": {"ios": "https://dc.lft.to/lastmile_qr_scan", "android": "https://dc.lft.to/lastmile_qr_scan"}, "is_reserved": 0, "fusion_lon": 0.0, "lat": 38.91419666666667, "type": "electric_scooter", "name": "fe180c2cdfc12b788f0531b6a29e2a86", "bike_id": "fe180c2cdfc12b788f0531b6a29e2a86", "fusion_lat": 0.0, "lon": -77.02179366666667}, {"is_disabled": 0, "rental_uris": {"ios": "https://dc.lft.to/lastmile_qr_scan", "android": "https://dc.lft.to/lastmile_qr_scan"}, "is_reserved": 0, "fusion_lon": 0.0, "lat": 38.93070133333333, "type": "electric_scooter", "name": "6f10202c7bbcfcf9a6cc0d8265abc25d", "bike_id": "6f10202c7bbcfcf9a6cc0d8265abc25d", "fusion_lat": 0.0, "lon": -77.04027416666666}, {"is_disabled": 0, "rental_uris": {"ios": "https://dc.lft.to/lastmile_qr_scan", "android": "https://dc.lft.to/lastmile_qr_scan"}, "is_reserved": 0, "fusion_lon": 0.0, "lat": 38.871712, "type": "electric_scooter", "name": "cf2b6e4239398c84ea58121787a6dd71", "bike_id": "cf2b6e4239398c84ea58121787a6dd71", "fusion_lat": 0.0, "lon": -77.006319}, {"is_disabled": 0, "rental_uris": {"ios": "https://dc.lft.to/lastmile_qr_scan", "android": "https://dc.lft.to/lastmile_qr_scan"}, "is_reserved": 0, "fusion_lon": 0.0, "lat": 38.925056, "type": "electric_scooter", "name": "7f9efcf42f2808f0096f878aeff90d25", "bike_id": "7f9efcf42f2808f0096f878aeff90d25", "fusion_lat": 0.0, "lon": -77.002267}, {"is_disabled": 0, "rental_uris": {"ios": "https://dc.lft.to/lastmile_qr_scan", "android": "https://dc.lft.to/lastmile_qr_scan"}, "is_reserved": 0, "fusion_lon": 0.0, "lat": 38.93660033333333, "type": "electric_scooter", "name": "478dd9b73d5c98ef9eac37e5a4468db1", "bike_id": "478dd9b73d5c98ef9eac37e5a4468db1", "fusion_lat": 0.0, "lon": -77.06606733333334}, {"is_disabled": 0, "rental_uris": {"ios": "https://dc.lft.to/lastmile_qr_scan", "android": "https://dc.lft.to/lastmile_qr_scan"}, "is_reserved": 0, "fusion_lon": 0.0, "lat": 38.88261516666667, "type": "electric_scooter", "name": "e610209607739f9f191bddbc91b619bb", "bike_id": "e610209607739f9f191bddbc91b619bb", "fusion_lat": 0.0, "lon": -77.00069433333333}, {"is_disabled": 0, "rental_uris": {"ios": "https://dc.lft.to/lastmile_qr_scan", "android": "https://dc.lft.to/lastmile_qr_scan"}, "is_reserved": 0, "fusion_lon": 0.0, "lat": 38.90050816666667, "type": "electric_scooter", "name": "f7ce4be20ed08dc8a1f176ad8426bc99", "bike_id": "f7ce4be20ed08dc8a1f176ad8426bc99", "fusion_lat": 0.0, "lon": -77.0487385}, {"is_disabled": 0, "rental_uris": {"ios": "https://dc.lft.to/lastmile_qr_scan", "android": "https://dc.lft.to/lastmile_qr_scan"}, "is_reserved": 0, "fusion_lon": 0.0, "lat": 38.9224415, "type": "electric_scooter", "name": "a872f8cd2668b4c1149d631dad87860d", "bike_id": "a872f8cd2668b4c1149d631dad87860d", "fusion_lat": 0.0, "lon": -77.03474083333333}, {"is_disabled": 0, "rental_uris": {"ios": "https://dc.lft.to/lastmile_qr_scan", "android": "https://dc.lft.to/lastmile_qr_scan"}, "is_reserved": 0, "fusion_lon": 0.0, "lat": 38.982315666666665, "type": "electric_bike", "name": "354d7f2688bff2390343036dc3c0966a", "bike_id": "354d7f2688bff2390343036dc3c0966a", "fusion_lat": 0.0, "lon": -77.09346266666667}, {"is_disabled": 0, "rental_uris": {"ios": "https://dc.lft.to/lastmile_qr_scan", "android": "https://dc.lft.to/lastmile_qr_scan"}, "is_reserved": 0, "fusion_lon": 0.0, "lat": 38.923777666666666, "type": "electric_scooter", "name": "36b8f74ea5066c4c57ecfaaf176b9533", "bike_id": "36b8f74ea5066c4c57ecfaaf176b9533", "fusion_lat": 0.0, "lon": -77.0379855}, {"is_disabled": 0, "rental_uris": {"ios": "https://dc.lft.to/lastmile_qr_scan", "android": "https://dc.lft.to/lastmile_qr_scan"}, "is_reserved": 0, "fusion_lon": 0.0, "lat": 38.915722333333335, "type": "electric_scooter", "name": "04d54f8dc1739172fdebf5ece1e1f5e8", "bike_id": "04d54f8dc1739172fdebf5ece1e1f5e8", "fusion_lat": 0.0, "lon": -77.04637316666667}, {"is_disabled": 0, "rental_uris": {"ios": "https://dc.lft.to/lastmile_qr_scan", "android": "https://dc.lft.to/lastmile_qr_scan"}, "is_reserved": 0, "fusion_lon": 0.0, "lat": 38.90063333333333, "type": "electric_scooter", "name": "dfa7bc53243c7ea03cdefb12a2196d9b", "bike_id": "dfa7bc53243c7ea03cdefb12a2196d9b", "fusion_lat": 0.0, "lon": -77.048204}, {"is_disabled": 0, "rental_uris": {"ios": "https://dc.lft.to/lastmile_qr_scan", "android": "https://dc.lft.to/lastmile_qr_scan"}, "is_reserved": 0, "fusion_lon": 0.0, "lat": 38.906671, "type": "electric_scooter", "name": "6d3318c0ac49f04e214fc48b1e9ef2f9", "bike_id": "6d3318c0ac49f04e214fc48b1e9ef2f9", "fusion_lat": 0.0, "lon": -77.02696166666666}, {"is_disabled": 0, "rental_uris": {"ios": "https://dc.lft.to/lastmile_qr_scan", "android": "https://dc.lft.to/lastmile_qr_scan"}, "is_reserved": 0, "fusion_lon": 0.0, "lat": 38.904889, "type": "electric_scooter", "name": "89f5adc7d0ac943179d8430d72717fc8", "bike_id": "89f5adc7d0ac943179d8430d72717fc8", "fusion_lat": 0.0, "lon": -77.02961166666667}, {"is_disabled": 0, "rental_uris": {"ios": "https://dc.lft.to/lastmile_qr_scan", "android": "https://dc.lft.to/lastmile_qr_scan"}, "is_reserved": 0, "fusion_lon": 0.0, "lat": 38.899189166666666, "type": "electric_scooter", "name": "4f0c8d485c86222ec5bbaaef4ff7a018", "bike_id": "4f0c8d485c86222ec5bbaaef4ff7a018", "fusion_lat": 0.0, "lon": -77.02407083333334}, {"is_disabled": 0, "rental_uris": {"ios": "https://dc.lft.to/lastmile_qr_scan", "android": "https://dc.lft.to/lastmile_qr_scan"}, "is_reserved": 0, "fusion_lon": 0.0, "lat": 38.91254416666666, "type": "electric_scooter", "name": "3b742c23ab1acb758a4e228d3cf384a9", "bike_id": "3b742c23ab1acb758a4e228d3cf384a9", "fusion_lat": 0.0, "lon": -76.93739033333334}, {"is_disabled": 0, "rental_uris": {"ios": "https://dc.lft.to/lastmile_qr_scan", "android": "https://dc.lft.to/lastmile_qr_scan"}, "is_reserved": 0, "fusion_lon": 0.0, "lat": 38.89832966666667, "type": "electric_scooter", "name": "59691b9fe8ab1efe0e94b1186300f501", "bike_id": "59691b9fe8ab1efe0e94b1186300f501", "fusion_lat": 0.0, "lon": -76.981071}, {"is_disabled": 0, "rental_uris": {"ios": "https://dc.lft.to/lastmile_qr_scan", "android": "https://dc.lft.to/lastmile_qr_scan"}, "is_reserved": 0, "fusion_lon": 0.0, "lat": 38.9111345, "type": "electric_scooter", "name": "9ccc4b46ef3abb6d44aff857e3b11d01", "bike_id": "9ccc4b46ef3abb6d44aff857e3b11d01", "fusion_lat": 0.0, "lon": -77.00353616666666}, {"is_disabled": 0, "rental_uris": {"ios": "https://dc.lft.to/lastmile_qr_scan", "android": "https://dc.lft.to/lastmile_qr_scan"}, "is_reserved": 0, "fusion_lon": 0.0, "lat": 38.924826833333334, "type": "electric_scooter", "name": "df4d952d2e235ceb2064efa1a6b526dc", "bike_id": "df4d952d2e235ceb2064efa1a6b526dc", "fusion_lat": 0.0, "lon": -77.02137416666666}, {"is_disabled": 0, "rental_uris": {"ios": "https://dc.lft.to/lastmile_qr_scan", "android": "https://dc.lft.to/lastmile_qr_scan"}, "is_reserved": 0, "fusion_lon": 0.0, "lat": 38.90395383333333, "type": "electric_scooter", "name": "a2e754889a197895c67e9dc68f500986", "bike_id": "a2e754889a197895c67e9dc68f500986", "fusion_lat": 0.0, "lon": -77.02816233333333}, {"is_disabled": 0, "rental_uris": {"ios": "https://dc.lft.to/lastmile_qr_scan", "android": "https://dc.lft.to/lastmile_qr_scan"}, "is_reserved": 0, "fusion_lon": 0.0, "lat": 38.8963105, "type": "electric_scooter", "name": "d62b761825e798a576087d84dd6d7926", "bike_id": "d62b761825e798a576087d84dd6d7926", "fusion_lat": 0.0, "lon": -77.04349733333333}, {"is_disabled": 0, "rental_uris": {"ios": "https://dc.lft.to/lastmile_qr_scan", "android": "https://dc.lft.to/lastmile_qr_scan"}, "is_reserved": 0, "fusion_lon": 0.0, "lat": 38.91264666666667, "type": "electric_scooter", "name": "ed1c3c6f41caefaccd6a90a85547e12a", "bike_id": "ed1c3c6f41caefaccd6a90a85547e12a", "fusion_lat": 0.0, "lon": -77.04293683333333}, {"is_disabled": 0, "rental_uris": {"ios": "https://dc.lft.to/lastmile_qr_scan", "android": "https://dc.lft.to/lastmile_qr_scan"}, "is_reserved": 0, "fusion_lon": 0.0, "lat": 38.91116533333334, "type": "electric_scooter", "name": "ef36114c8ab6a2ea77c3dd6a68584bd5", "bike_id": "ef36114c8ab6a2ea77c3dd6a68584bd5", "fusion_lat": 0.0, "lon": -77.04361033333333}, {"is_disabled": 0, "rental_uris": {"ios": "https://dc.lft.to/lastmile_qr_scan", "android": "https://dc.lft.to/lastmile_qr_scan"}, "is_reserved": 0, "fusion_lon": 0.0, "lat": 38.88129883333333, "type": "electric_bike", "name": "3c4101ebb352763d70d984adc4beb31e", "bike_id": "3c4101ebb352763d70d984adc4beb31e", "fusion_lat": 0.0, "lon": -77.01681883333333}, {"is_disabled": 0, "rental_uris": {"ios": "https://dc.lft.to/lastmile_qr_scan", "android": "https://dc.lft.to/lastmile_qr_scan"}, "is_reserved": 0, "fusion_lon": 0.0, "lat": 38.88741816666667, "type": "electric_scooter", "name": "892fa79264150d98e3c6f59827d49640", "bike_id": "892fa79264150d98e3c6f59827d49640", "fusion_lat": 0.0, "lon": -77.02222516666667}, {"is_disabled": 0, "rental_uris": {"ios": "https://dc.lft.to/lastmile_qr_scan", "android": "https://dc.lft.to/lastmile_qr_scan"}, "is_reserved": 0, "fusion_lon": 0.0, "lat": 38.920673, "type": "electric_scooter", "name": "1a95d0b42ce2a5a45bb8662ee0997762", "bike_id": "1a95d0b42ce2a5a45bb8662ee0997762", "fusion_lat": 0.0, "lon": -77.02395916666667}, {"is_disabled": 0, "rental_uris": {"ios": "https://dc.lft.to/lastmile_qr_scan", "android": "https://dc.lft.to/lastmile_qr_scan"}, "is_reserved": 0, "fusion_lon": 0.0, "lat": 38.90239033333334, "type": "electric_scooter", "name": "861f4844fd237e7344859c08ee7ea721", "bike_id": "861f4844fd237e7344859c08ee7ea721", "fusion_lat": 0.0, "lon": -77.02693116666667}, {"is_disabled": 0, "rental_uris": {"ios": "https://dc.lft.to/lastmile_qr_scan", "android": "https://dc.lft.to/lastmile_qr_scan"}, "is_reserved": 0, "fusion_lon": 0.0, "lat": 38.9184855, "type": "electric_bike", "name": "a96d4c63b0a4971bc4a7517893f18018", "bike_id": "a96d4c63b0a4971bc4a7517893f18018", "fusion_lat": 0.0, "lon": -76.96087083333333}, {"is_disabled": 0, "rental_uris": {"ios": "https://dc.lft.to/lastmile_qr_scan", "android": "https://dc.lft.to/lastmile_qr_scan"}, "is_reserved": 0, "fusion_lon": 0.0, "lat": 38.89909516666667, "type": "electric_scooter", "name": "708b533d1bf036808663911eb93a1125", "bike_id": "708b533d1bf036808663911eb93a1125", "fusion_lat": 0.0, "lon": -76.9339035}, {"is_disabled": 0, "rental_uris": {"ios": "https://dc.lft.to/lastmile_qr_scan", "android": "https://dc.lft.to/lastmile_qr_scan"}, "is_reserved": 0, "fusion_lon": 0.0, "lat": 38.892323833333336, "type": "electric_scooter", "name": "ecdd0945caba0e9981f5eec5a1316928", "bike_id": "ecdd0945caba0e9981f5eec5a1316928", "fusion_lat": 0.0, "lon": -77.01973933333333}, {"is_disabled": 0, "rental_uris": {"ios": "https://dc.lft.to/lastmile_qr_scan", "android": "https://dc.lft.to/lastmile_qr_scan"}, "is_reserved": 0, "fusion_lon": 0.0, "lat": 38.90145283333333, "type": "electric_scooter", "name": "135630d57341f162ed01e53e830ed3ae", "bike_id": "135630d57341f162ed01e53e830ed3ae", "fusion_lat": 0.0, "lon": -76.974199}, {"is_disabled": 0, "rental_uris": {"ios": "https://dc.lft.to/lastmile_qr_scan", "android": "https://dc.lft.to/lastmile_qr_scan"}, "is_reserved": 0, "fusion_lon": 0.0, "lat": 38.880368833333335, "type": "electric_scooter", "name": "cc769c8a816fb906f7329607bd3eb65d", "bike_id": "cc769c8a816fb906f7329607bd3eb65d", "fusion_lat": 0.0, "lon": -76.9272095}, {"is_disabled": 0, "rental_uris": {"ios": "https://dc.lft.to/lastmile_qr_scan", "android": "https://dc.lft.to/lastmile_qr_scan"}, "is_reserved": 0, "fusion_lon": 0.0, "lat": 38.91057883333333, "type": "electric_scooter", "name": "67d7224e61afdd0f581d622595b89e8b", "bike_id": "67d7224e61afdd0f581d622595b89e8b", "fusion_lat": 0.0, "lon": -77.04083466666667}, {"is_disabled": 0, "rental_uris": {"ios": "https://dc.lft.to/lastmile_qr_scan", "android": "https://dc.lft.to/lastmile_qr_scan"}, "is_reserved": 0, "fusion_lon": 0.0, "lat": 38.892351, "type": "electric_scooter", "name": "96341b6e8e1e4031717332fe68ae248c", "bike_id": "96341b6e8e1e4031717332fe68ae248c", "fusion_lat": 0.0, "lon": -77.0316435}, {"is_disabled": 0, "rental_uris": {"ios": "https://dc.lft.to/lastmile_qr_scan", "android": "https://dc.lft.to/lastmile_qr_scan"}, "is_reserved": 0, "fusion_lon": 0.0, "lat": 38.90142733333333, "type": "electric_scooter", "name": "3cc92b72b25ee4f745d43040c351921c", "bike_id": "3cc92b72b25ee4f745d43040c351921c", "fusion_lat": 0.0, "lon": -77.02931583333333}, {"is_disabled": 0, "rental_uris": {"ios": "https://dc.lft.to/lastmile_qr_scan", "android": "https://dc.lft.to/lastmile_qr_scan"}, "is_reserved": 0, "fusion_lon": 0.0, "lat": 38.915196333333334, "type": "electric_scooter", "name": "69a27bf612fa5ca0d7e20beb2d6485d1", "bike_id": "69a27bf612fa5ca0d7e20beb2d6485d1", "fusion_lat": 0.0, "lon": -77.01977566666666}, {"is_disabled": 0, "rental_uris": {"ios": "https://dc.lft.to/lastmile_qr_scan", "android": "https://dc.lft.to/lastmile_qr_scan"}, "is_reserved": 0, "fusion_lon": 0.0, "lat": 38.82921433333333, "type": "electric_bike", "name": "5229fd86c1917051e9a75334718ea5d5", "bike_id": "5229fd86c1917051e9a75334718ea5d5", "fusion_lat": 0.0, "lon": -77.06879383333333}, {"is_disabled": 0, "rental_uris": {"ios": "https://dc.lft.to/lastmile_qr_scan", "android": "https://dc.lft.to/lastmile_qr_scan"}, "is_reserved": 0, "fusion_lon": 0.0, "lat": 38.915698666666664, "type": "electric_scooter", "name": "07ba5e3d57fbe6bfc5301e29521f3a00", "bike_id": "07ba5e3d57fbe6bfc5301e29521f3a00", "fusion_lat": 0.0, "lon": -77.0199745}, {"is_disabled": 0, "rental_uris": {"ios": "https://dc.lft.to/lastmile_qr_scan", "android": "https://dc.lft.to/lastmile_qr_scan"}, "is_reserved": 0, "fusion_lon": 0.0, "lat": 38.92360033333333, "type": "electric_scooter", "name": "503d2b68a37678011c8930c5d4b1156e", "bike_id": "503d2b68a37678011c8930c5d4b1156e", "fusion_lat": 0.0, "lon": -77.0431615}, {"is_disabled": 0, "rental_uris": {"ios": "https://dc.lft.to/lastmile_qr_scan", "android": "https://dc.lft.to/lastmile_qr_scan"}, "is_reserved": 0, "fusion_lon": 0.0, "lat": 38.89228516666667, "type": "electric_scooter", "name": "7beb7a44338b9a58c517c9e50844e98c", "bike_id": "7beb7a44338b9a58c517c9e50844e98c", "fusion_lat": 0.0, "lon": -77.05002933333333}, {"is_disabled": 0, "rental_uris": {"ios": "https://dc.lft.to/lastmile_qr_scan", "android": "https://dc.lft.to/lastmile_qr_scan"}, "is_reserved": 0, "fusion_lon": 0.0, "lat": 38.90780016666667, "type": "electric_scooter", "name": "119e0f7f0af67edbef366f31b06c5865", "bike_id": "119e0f7f0af67edbef366f31b06c5865", "fusion_lat": 0.0, "lon": -77.0426395}, {"is_disabled": 0, "rental_uris": {"ios": "https://dc.lft.to/lastmile_qr_scan", "android": "https://dc.lft.to/lastmile_qr_scan"}, "is_reserved": 0, "fusion_lon": 0.0, "lat": 38.933134833333334, "type": "electric_scooter", "name": "23045e737def60fd71cd17840e042361", "bike_id": "23045e737def60fd71cd17840e042361", "fusion_lat": 0.0, "lon": -77.0318455}, {"is_disabled": 0, "rental_uris": {"ios": "https://dc.lft.to/lastmile_qr_scan", "android": "https://dc.lft.to/lastmile_qr_scan"}, "is_reserved": 0, "fusion_lon": 0.0, "lat": 38.892528666666664, "type": "electric_scooter", "name": "90a034c9528e3f1bd57d2cd245fcc9e3", "bike_id": "90a034c9528e3f1bd57d2cd245fcc9e3", "fusion_lat": 0.0, "lon": -77.05023283333334}, {"is_disabled": 0, "rental_uris": {"ios": "https://dc.lft.to/lastmile_qr_scan", "android": "https://dc.lft.to/lastmile_qr_scan"}, "is_reserved": 0, "fusion_lon": 0.0, "lat": 38.876637833333334, "type": "electric_scooter", "name": "b289c24735ecfe101745ae6ed168a365", "bike_id": "b289c24735ecfe101745ae6ed168a365", "fusion_lat": 0.0, "lon": -77.01751583333333}, {"is_disabled": 0, "rental_uris": {"ios": "https://dc.lft.to/lastmile_qr_scan", "android": "https://dc.lft.to/lastmile_qr_scan"}, "is_reserved": 0, "fusion_lon": 0.0, "lat": 38.893785666666666, "type": "electric_scooter", "name": "fb84708e685ba0e7506f87dd31fbde15", "bike_id": "fb84708e685ba0e7506f87dd31fbde15", "fusion_lat": 0.0, "lon": -76.92301783333333}, {"is_disabled": 0, "rental_uris": {"ios": "https://dc.lft.to/lastmile_qr_scan", "android": "https://dc.lft.to/lastmile_qr_scan"}, "is_reserved": 0, "fusion_lon": 0.0, "lat": 38.894607666666666, "type": "electric_scooter", "name": "f3bee07fda41edd094ca52ed3b9bed1e", "bike_id": "f3bee07fda41edd094ca52ed3b9bed1e", "fusion_lat": 0.0, "lon": -77.03187083333333}, {"is_disabled": 0, "rental_uris": {"ios": "https://dc.lft.to/lastmile_qr_scan", "android": "https://dc.lft.to/lastmile_qr_scan"}, "is_reserved": 0, "fusion_lon": 0.0, "lat": 38.8847285, "type": "electric_scooter", "name": "9cebf1f65fa48ada2e8e6680035d8fc7", "bike_id": "9cebf1f65fa48ada2e8e6680035d8fc7", "fusion_lat": 0.0, "lon": -77.03356166666667}, {"is_disabled": 0, "rental_uris": {"ios": "https://dc.lft.to/lastmile_qr_scan", "android": "https://dc.lft.to/lastmile_qr_scan"}, "is_reserved": 0, "fusion_lon": 0.0, "lat": 38.9228015, "type": "electric_scooter", "name": "4a2cb2e511600393c789fbeb480b69b6", "bike_id": "4a2cb2e511600393c789fbeb480b69b6", "fusion_lat": 0.0, "lon": -77.03656033333333}, {"is_disabled": 0, "rental_uris": {"ios": "https://dc.lft.to/lastmile_qr_scan", "android": "https://dc.lft.to/lastmile_qr_scan"}, "is_reserved": 0, "fusion_lon": 0.0, "lat": 38.9110255, "type": "electric_scooter", "name": "55f908729042c7b03ef476ef5a2b9d4c", "bike_id": "55f908729042c7b03ef476ef5a2b9d4c", "fusion_lat": 0.0, "lon": -77.02510433333333}, {"is_disabled": 0, "rental_uris": {"ios": "https://dc.lft.to/lastmile_qr_scan", "android": "https://dc.lft.to/lastmile_qr_scan"}, "is_reserved": 0, "fusion_lon": 0.0, "lat": 38.90214533333334, "type": "electric_scooter", "name": "fefdca6b1acc1ab806c7fdaaad1bbde5", "bike_id": "fefdca6b1acc1ab806c7fdaaad1bbde5", "fusion_lat": 0.0, "lon": -77.02346933333334}, {"is_disabled": 0, "rental_uris": {"ios": "https://dc.lft.to/lastmile_qr_scan", "android": "https://dc.lft.to/lastmile_qr_scan"}, "is_reserved": 0, "fusion_lon": 0.0, "lat": 38.91202116666667, "type": "electric_scooter", "name": "b8a3582c7620b605a224db5f2c6ec151", "bike_id": "b8a3582c7620b605a224db5f2c6ec151", "fusion_lat": 0.0, "lon": -77.0209795}, {"is_disabled": 0, "rental_uris": {"ios": "https://dc.lft.to/lastmile_qr_scan", "android": "https://dc.lft.to/lastmile_qr_scan"}, "is_reserved": 0, "fusion_lon": 0.0, "lat": 38.87640233333333, "type": "electric_bike", "name": "cd00905080fa7c7040a99144a34daaf8", "bike_id": "cd00905080fa7c7040a99144a34daaf8", "fusion_lat": 0.0, "lon": -76.9354625}, {"is_disabled": 0, "rental_uris": {"ios": "https://dc.lft.to/lastmile_qr_scan", "android": "https://dc.lft.to/lastmile_qr_scan"}, "is_reserved": 0, "fusion_lon": 0.0, "lat": 38.907170666666666, "type": "electric_scooter", "name": "10f6949e44c2e99a79ef4fb3de2ac15d", "bike_id": "10f6949e44c2e99a79ef4fb3de2ac15d", "fusion_lat": 0.0, "lon": -77.05312083333334}, {"is_disabled": 0, "rental_uris": {"ios": "https://dc.lft.to/lastmile_qr_scan", "android": "https://dc.lft.to/lastmile_qr_scan"}, "is_reserved": 0, "fusion_lon": 0.0, "lat": 38.904196166666665, "type": "electric_scooter", "name": "6d610fbfca20ee4139c4d3f604be5005", "bike_id": "6d610fbfca20ee4139c4d3f604be5005", "fusion_lat": 0.0, "lon": -77.0259405}, {"is_disabled": 0, "rental_uris": {"ios": "https://dc.lft.to/lastmile_qr_scan", "android": "https://dc.lft.to/lastmile_qr_scan"}, "is_reserved": 0, "fusion_lon": 0.0, "lat": 38.924777, "type": "electric_scooter", "name": "5c5a60f0a2084cedd6d3be20846c1696", "bike_id": "5c5a60f0a2084cedd6d3be20846c1696", "fusion_lat": 0.0, "lon": -77.02139533333333}, {"is_disabled": 0, "rental_uris": {"ios": "https://dc.lft.to/lastmile_qr_scan", "android": "https://dc.lft.to/lastmile_qr_scan"}, "is_reserved": 0, "fusion_lon": 0.0, "lat": 38.901342166666666, "type": "electric_scooter", "name": "536c9926cc73aaad7e9316878e26d47a", "bike_id": "536c9926cc73aaad7e9316878e26d47a", "fusion_lat": 0.0, "lon": -77.04011833333334}, {"is_disabled": 0, "rental_uris": {"ios": "https://dc.lft.to/lastmile_qr_scan", "android": "https://dc.lft.to/lastmile_qr_scan"}, "is_reserved": 0, "fusion_lon": 0.0, "lat": 38.93303816666667, "type": "electric_scooter", "name": "bf84a124e7a1d5fe2a6d81d4d879429b", "bike_id": "bf84a124e7a1d5fe2a6d81d4d879429b", "fusion_lat": 0.0, "lon": -77.03081066666667}, {"is_disabled": 0, "rental_uris": {"ios": "https://dc.lft.to/lastmile_qr_scan", "android": "https://dc.lft.to/lastmile_qr_scan"}, "is_reserved": 0, "fusion_lon": 0.0, "lat": 38.907382166666665, "type": "electric_scooter", "name": "a0a263e8e415582ea7bcde84c4a4eadd", "bike_id": "a0a263e8e415582ea7bcde84c4a4eadd", "fusion_lat": 0.0, "lon": -77.02795166666667}, {"is_disabled": 0, "rental_uris": {"ios": "https://dc.lft.to/lastmile_qr_scan", "android": "https://dc.lft.to/lastmile_qr_scan"}, "is_reserved": 0, "fusion_lon": 0.0, "lat": 38.874617666666666, "type": "electric_scooter", "name": "a86858b7ff0dc088d0804a013a3ab60a", "bike_id": "a86858b7ff0dc088d0804a013a3ab60a", "fusion_lat": 0.0, "lon": -77.0050475}, {"is_disabled": 0, "rental_uris": {"ios": "https://dc.lft.to/lastmile_qr_scan", "android": "https://dc.lft.to/lastmile_qr_scan"}, "is_reserved": 0, "fusion_lon": 0.0, "lat": 38.921599666666665, "type": "electric_scooter", "name": "c20be645996937dd3c681a16967a7130", "bike_id": "c20be645996937dd3c681a16967a7130", "fusion_lat": 0.0, "lon": -77.051337}, {"is_disabled": 0, "rental_uris": {"ios": "https://dc.lft.to/lastmile_qr_scan", "android": "https://dc.lft.to/lastmile_qr_scan"}, "is_reserved": 0, "fusion_lon": 0.0, "lat": 38.96406866666667, "type": "electric_scooter", "name": "a9c207513f8f13aa1f783f2880b340e9", "bike_id": "a9c207513f8f13aa1f783f2880b340e9", "fusion_lat": 0.0, "lon": -77.03281616666666}, {"is_disabled": 0, "rental_uris": {"ios": "https://dc.lft.to/lastmile_qr_scan", "android": "https://dc.lft.to/lastmile_qr_scan"}, "is_reserved": 0, "fusion_lon": 0.0, "lat": 38.90700016666667, "type": "electric_scooter", "name": "9701d7ea4b5331fcdecfd15a73af437e", "bike_id": "9701d7ea4b5331fcdecfd15a73af437e", "fusion_lat": 0.0, "lon": -76.98693583333333}, {"is_disabled": 0, "rental_uris": {"ios": "https://dc.lft.to/lastmile_qr_scan", "android": "https://dc.lft.to/lastmile_qr_scan"}, "is_reserved": 0, "fusion_lon": 0.0, "lat": 38.891754666666664, "type": "electric_scooter", "name": "b2bc6b8868ebb7061cc47f14b856d2b2", "bike_id": "b2bc6b8868ebb7061cc47f14b856d2b2", "fusion_lat": 0.0, "lon": -77.01574066666667}, {"is_disabled": 0, "rental_uris": {"ios": "https://dc.lft.to/lastmile_qr_scan", "android": "https://dc.lft.to/lastmile_qr_scan"}, "is_reserved": 0, "fusion_lon": 0.0, "lat": 38.9210335, "type": "electric_scooter", "name": "e69cf8e20210854c4fa2780e45f69900", "bike_id": "e69cf8e20210854c4fa2780e45f69900", "fusion_lat": 0.0, "lon": -77.02207433333334}, {"is_disabled": 0, "rental_uris": {"ios": "https://dc.lft.to/lastmile_qr_scan", "android": "https://dc.lft.to/lastmile_qr_scan"}, "is_reserved": 0, "fusion_lon": 0.0, "lat": 38.905020666666665, "type": "electric_scooter", "name": "0192d7a6fac38b4895b9aed640f4ee6a", "bike_id": "0192d7a6fac38b4895b9aed640f4ee6a", "fusion_lat": 0.0, "lon": -77.03647666666667}, {"is_disabled": 0, "rental_uris": {"ios": "https://dc.lft.to/lastmile_qr_scan", "android": "https://dc.lft.to/lastmile_qr_scan"}, "is_reserved": 0, "fusion_lon": 0.0, "lat": 38.8717385, "type": "electric_bike", "name": "1760855a8fd0d6bd67c5b5bcd7d5bfc7", "bike_id": "1760855a8fd0d6bd67c5b5bcd7d5bfc7", "fusion_lat": 0.0, "lon": -77.00608216666667}, {"is_disabled": 0, "rental_uris": {"ios": "https://dc.lft.to/lastmile_qr_scan", "android": "https://dc.lft.to/lastmile_qr_scan"}, "is_reserved": 0, "fusion_lon": 0.0, "lat": 38.897239166666665, "type": "electric_scooter", "name": "b2befe113f1dc7093b2540e361c68956", "bike_id": "b2befe113f1dc7093b2540e361c68956", "fusion_lat": 0.0, "lon": -77.04986233333334}, {"is_disabled": 0, "rental_uris": {"ios": "https://dc.lft.to/lastmile_qr_scan", "android": "https://dc.lft.to/lastmile_qr_scan"}, "is_reserved": 0, "fusion_lon": 0.0, "lat": 38.87061383333333, "type": "electric_bike", "name": "509f5a9bdf5687b9feaf90613cc2a6b7", "bike_id": "509f5a9bdf5687b9feaf90613cc2a6b7", "fusion_lat": 0.0, "lon": -77.11040766666666}, {"is_disabled": 0, "rental_uris": {"ios": "https://dc.lft.to/lastmile_qr_scan", "android": "https://dc.lft.to/lastmile_qr_scan"}, "is_reserved": 0, "fusion_lon": 0.0, "lat": 38.914189, "type": "electric_scooter", "name": "38ca1ac6dfdce833bf0cde29ae40ed76", "bike_id": "38ca1ac6dfdce833bf0cde29ae40ed76", "fusion_lat": 0.0, "lon": -77.01798566666666}, {"is_disabled": 0, "rental_uris": {"ios": "https://dc.lft.to/lastmile_qr_scan", "android": "https://dc.lft.to/lastmile_qr_scan"}, "is_reserved": 0, "fusion_lon": 0.0, "lat": 38.91965583333333, "type": "electric_scooter", "name": "333313a72247279ce98071a9116444e2", "bike_id": "333313a72247279ce98071a9116444e2", "fusion_lat": 0.0, "lon": -77.0463425}, {"is_disabled": 0, "rental_uris": {"ios": "https://dc.lft.to/lastmile_qr_scan", "android": "https://dc.lft.to/lastmile_qr_scan"}, "is_reserved": 0, "fusion_lon": 0.0, "lat": 38.9102925, "type": "electric_bike", "name": "2f1a41bbf6be237c5776082674c8ece1", "bike_id": "2f1a41bbf6be237c5776082674c8ece1", "fusion_lat": 0.0, "lon": -76.92335333333334}, {"is_disabled": 0, "rental_uris": {"ios": "https://dc.lft.to/lastmile_qr_scan", "android": "https://dc.lft.to/lastmile_qr_scan"}, "is_reserved": 0, "fusion_lon": 0.0, "lat": 38.8904865, "type": "electric_scooter", "name": "af4f6f200cb4cad228d944d21d29c711", "bike_id": "af4f6f200cb4cad228d944d21d29c711", "fusion_lat": 0.0, "lon": -77.01963533333333}, {"is_disabled": 0, "rental_uris": {"ios": "https://dc.lft.to/lastmile_qr_scan", "android": "https://dc.lft.to/lastmile_qr_scan"},