{"data": {"bikes": [{"lon": -77.0500155, "rental_uris": {"android": "https://dc.lft.to/lastmile_qr_scan", "ios": "https://dc.lft.to/lastmile_qr_scan"}, "fusion_lon": 0.0, "is_reserved": 0, "is_disabled": 0, "fusion_lat": 0.0, "type": "electric_scooter", "name": "def88804a177cbbbac34464c5a729bf7", "lat": 38.89923616666667, "bike_id": "def88804a177cbbbac34464c5a729bf7"}, {"lon": -77.03883066666667, "rental_uris": {"android": "https://dc.lft.to/lastmile_qr_scan", "ios": "https://dc.lft.to/lastmile_qr_scan"}, "fusion_lon": 0.0, "is_reserved": 0, "is_disabled": 0, "fusion_lat": 0.0, "type": "electric_scooter", "name": "ef0364838a8d5e0549d5218e53a57543", "lat": 38.9063815, "bike_id": "ef0364838a8d5e0549d5218e53a57543"}, {"lon": -77.036442, "rental_uris": {"android": "https://dc.lft.to/lastmile_qr_scan", "ios": "https://dc.lft.to/lastmile_qr_scan"}, "fusion_lon": 0.0, "is_reserved": 0, "is_disabled": 0, "fusion_lat": 0.0, "type": "electric_scooter", "name": "d0f0b007bc80c4321d10b46a132a4429", "lat": 38.90370083333333, "bike_id": "d0f0b007bc80c4321d10b46a132a4429"}, {"lon": -77.04580616666667, "rental_uris": {"android": "https://dc.lft.to/lastmile_qr_scan", "ios": "https://dc.lft.to/lastmile_qr_scan"}, "fusion_lon": 0.0, "is_reserved": 0, "is_disabled": 0, "fusion_lat": 0.0, "type": "electric_scooter", "name": "cc2309c923705ad3363a8eaebbf28029", "lat": 38.9138755, "bike_id": "cc2309c923705ad3363a8eaebbf28029"}, {"lon": -77.03662583333333, "rental_uris": {"android": "https://dc.lft.to/lastmile_qr_scan", "ios": "https://dc.lft.to/lastmile_qr_scan"}, "fusion_lon": 0.0, "is_reserved": 0, "is_disabled": 0, "fusion_lat": 0.0, "type": "electric_scooter", "name": "d01dc81287795ab49641fbcee6942e29", "lat": 38.909124, "bike_id": "d01dc81287795ab49641fbcee6942e29"}, {"lon": -77.0433675, "rental_uris": {"android": "https://dc.lft.to/lastmile_qr_scan", "ios": "https://dc.lft.to/lastmile_qr_scan"}, "fusion_lon": 0.0, "is_reserved": 0, "is_disabled": 0, "fusion_lat": 0.0, "type": "electric_scooter", "name": "a753573dd06c44683442f4f719dbf95e", "lat": 38.9061685, "bike_id": "a753573dd06c44683442f4f719dbf95e"}, {"lon": -76.937503, "rental_uris": {"android": "https://dc.lft.to/lastmile_qr_scan", "ios": "https://dc.lft.to/lastmile_qr_scan"}, "fusion_lon": 0.0, "is_reserved": 0, "is_disabled": 0, "fusion_lat": 0.0, "type": "electric_scooter", "name": "1b13b059ba60e7328961877cf9b08f3f", "lat": 38.890442, "bike_id": "1b13b059ba60e7328961877cf9b08f3f"}, {"lon": -77.04261116666666, "rental_uris": {"android": "https://dc.lft.to/lastmile_qr_scan", "ios": "https://dc.lft.to/lastmile_qr_scan"}, "fusion_lon": 0.0, "is_reserved": 0, "is_disabled": 0, "fusion_lat": 0.0, "type": "electric_scooter", "name": "556e93ff05e5ab18fa9a4a7b134f2b29", "lat": 38.89940283333333, "bike_id": "556e93ff05e5ab18fa9a4a7b134f2b29"}, {"lon": -76.962574, "rental_uris": {"android": "https://dc.lft.to/lastmile_qr_scan", "ios": "https://dc.lft.to/lastmile_qr_scan"}, "fusion_lon": 0.0, "is_reserved": 0, "is_disabled": 0, "fusion_lat": 0.0, "type": "electric_scooter", "name": "4bb154963f5a3046ba8e0aba4c72e05a", "lat": 38.8786705, "bike_id": "4bb154963f5a3046ba8e0aba4c72e05a"}, {"lon": -77.01133316666666, "rental_uris": {"android": "https://dc.lft.to/lastmile_qr_scan", "ios": "https://dc.lft.to/lastmile_qr_scan"}, "fusion_lon": 0.0, "is_reserved": 0, "is_disabled": 0, "fusion_lat": 0.0, "type": "electric_scooter", "name": "b9161741fb84055bd16b905bb57a58af", "lat": 38.906323666666665, "bike_id": "b9161741fb84055bd16b905bb57a58af"}, {"lon": -77.0034345, "rental_uris": {"android": "https://dc.lft.to/lastmile_qr_scan", "ios": "https://dc.lft.to/lastmile_qr_scan"}, "fusion_lon": 0.0, "is_reserved": 0, "is_disabled": 0, "fusion_lat": 0.0, "type": "electric_scooter", "name": "7dd82e873c799a95bf1eee462d28f44b", "lat": 38.899336, "bike_id": "7dd82e873c799a95bf1eee462d28f44b"}, {"lon": -77.02848283333333, "rental_uris": {"android": "https://dc.lft.to/lastmile_qr_scan", "ios": "https://dc.lft.to/lastmile_qr_scan"}, "fusion_lon": 0.0, "is_reserved": 0, "is_disabled": 0, "fusion_lat": 0.0, "type": "electric_scooter", "name": "7de0a6137805a3434d4d61b1bcf92907", "lat": 38.9350795, "bike_id": "7de0a6137805a3434d4d61b1bcf92907"}, {"lon": -77.01406416666667, "rental_uris": {"android": "https://dc.lft.to/lastmile_qr_scan", "ios": "https://dc.lft.to/lastmile_qr_scan"}, "fusion_lon": 0.0, "is_reserved": 0, "is_disabled": 0, "fusion_lat": 0.0, "type": "electric_scooter", "name": "8045d231a839a0380e6ebf0679b67f16", "lat": 38.89217333333333, "bike_id": "8045d231a839a0380e6ebf0679b67f16"}, {"lon": -77.033475, "rental_uris": {"android": "https://dc.lft.to/lastmile_qr_scan", "ios": "https://dc.lft.to/lastmile_qr_scan"}, "fusion_lon": 0.0, "is_reserved": 0, "is_disabled": 0, "fusion_lat": 0.0, "type": "electric_scooter", "name": "224fae29c094dea8c141068cfa9087ef", "lat": 38.92748066666667, "bike_id": "224fae29c094dea8c141068cfa9087ef"}, {"lon": -76.98686633333334, "rental_uris": {"android": "https://dc.lft.to/lastmile_qr_scan", "ios": "https://dc.lft.to/lastmile_qr_scan"}, "fusion_lon": 0.0, "is_reserved": 0, "is_disabled": 0, "fusion_lat": 0.0, "type": "electric_bike", "name": "b89a622746eb414073e6051157c0b511", "lat": 38.944753666666664, "bike_id": "b89a622746eb414073e6051157c0b511"}, {"lon": -77.06999833333333, "rental_uris": {"android": "https://dc.lft.to/lastmile_qr_scan", "ios": "https://dc.lft.to/lastmile_qr_scan"}, "fusion_lon": 0.0, "is_reserved": 0, "is_disabled": 0, "fusion_lat": 0.0, "type": "electric_scooter", "name": "fb0bd167cbbe62c13d78f44130419184", "lat": 38.905979, "bike_id": "fb0bd167cbbe62c13d78f44130419184"}, {"lon": -77.02222566666667, "rental_uris": {"android": "https://dc.lft.to/lastmile_qr_scan", "ios": "https://dc.lft.to/lastmile_qr_scan"}, "fusion_lon": 0.0, "is_reserved": 0, "is_disabled": 0, "fusion_lat": 0.0, "type": "electric_bike", "name": "79e933260b1336b0fba5d7ec2a35ec2d", "lat": 38.91253616666667, "bike_id": "79e933260b1336b0fba5d7ec2a35ec2d"}, {"lon": -77.01984133333333, "rental_uris": {"android": "https://dc.lft.to/lastmile_qr_scan", "ios": "https://dc.lft.to/lastmile_qr_scan"}, "fusion_lon": 0.0, "is_reserved": 0, "is_disabled": 0, "fusion_lat": 0.0, "type": "electric_scooter", "name": "e6c6e16e5f1502ebd217d306737ab71a", "lat": 38.91046083333333, "bike_id": "e6c6e16e5f1502ebd217d306737ab71a"}, {"lon": -77.02461133333334, "rental_uris": {"android": "https://dc.lft.to/lastmile_qr_scan", "ios": "https://dc.lft.to/lastmile_qr_scan"}, "fusion_lon": 0.0, "is_reserved": 0, "is_disabled": 0, "fusion_lat": 0.0, "type": "electric_bike", "name": "513212eb2b09d5216ec6b9957d3ce342", "lat": 38.8983495, "bike_id": "513212eb2b09d5216ec6b9957d3ce342"}, {"lon": -77.027133, "rental_uris": {"android": "https://dc.lft.to/lastmile_qr_scan", "ios": "https://dc.lft.to/lastmile_qr_scan"}, "fusion_lon": 0.0, "is_reserved": 0, "is_disabled": 0, "fusion_lat": 0.0, "type": "electric_scooter", "name": "46ee6bf0070acb59d8a4f15569d31e07", "lat": 38.898373166666666, "bike_id": "46ee6bf0070acb59d8a4f15569d31e07"}, {"lon": -77.0229965, "rental_uris": {"android": "https://dc.lft.to/lastmile_qr_scan", "ios": "https://dc.lft.to/lastmile_qr_scan"}, "fusion_lon": 0.0, "is_reserved": 0, "is_disabled": 0, "fusion_lat": 0.0, "type": "electric_scooter", "name": "777308eb4d14f863c8bd322388649f77", "lat": 38.917699999999996, "bike_id": "777308eb4d14f863c8bd322388649f77"}, {"lon": -77.03135, "rental_uris": {"android": "https://dc.lft.to/lastmile_qr_scan", "ios": "https://dc.lft.to/lastmile_qr_scan"}, "fusion_lon": 0.0, "is_reserved": 0, "is_disabled": 0, "fusion_lat": 0.0, "type": "electric_scooter", "name": "2e32e2c6dcc6cd9ea3009c2d43ba3d5d", "lat": 38.89948733333333, "bike_id": "2e32e2c6dcc6cd9ea3009c2d43ba3d5d"}, {"lon": -77.029598, "rental_uris": {"android": "https://dc.lft.to/lastmile_qr_scan", "ios": "https://dc.lft.to/lastmile_qr_scan"}, "fusion_lon": 0.0, "is_reserved": 0, "is_disabled": 0, "fusion_lat": 0.0, "type": "electric_scooter", "name": "27357ab89ee8bc0a7e074d4b37570807", "lat": 38.911767, "bike_id": "27357ab89ee8bc0a7e074d4b37570807"}, {"lon": -77.02597966666667, "rental_uris": {"android": "https://dc.lft.to/lastmile_qr_scan", "ios": "https://dc.lft.to/lastmile_qr_scan"}, "fusion_lon": 0.0, "is_reserved": 0, "is_disabled": 0, "fusion_lat": 0.0, "type": "electric_scooter", "name": "591191bc8e5a2474552b54366d07127f", "lat": 38.8985835, "bike_id": "591191bc8e5a2474552b54366d07127f"}, {"lon": -77.06086533333334, "rental_uris": {"android": "https://dc.lft.to/lastmile_qr_scan", "ios": "https://dc.lft.to/lastmile_qr_scan"}, "fusion_lon": 0.0, "is_reserved": 0, "is_disabled": 0, "fusion_lat": 0.0, "type": "electric_scooter", "name": "9bdd8e565337c68673ecbb8ba98eedb7", "lat": 38.902278333333335, "bike_id": "9bdd8e565337c68673ecbb8ba98eedb7"}, {"lon": -76.95818766666666, "rental_uris": {"android": "https://dc.lft.to/lastmile_qr_scan", "ios": "https://dc.lft.to/lastmile_qr_scan"}, "fusion_lon": 0.0, "is_reserved": 0, "is_disabled": 0, "fusion_lat": 0.0, "type": "electric_bike", "name": "35895a2495f3c4672d29e60694d81443", "lat": 38.919917166666664, "bike_id": "35895a2495f3c4672d29e60694d81443"}, {"lon": -77.03163566666667, "rental_uris": {"android": "https://dc.lft.to/lastmile_qr_scan", "ios": "https://dc.lft.to/lastmile_qr_scan"}, "fusion_lon": 0.0, "is_reserved": 0, "is_disabled": 0, "fusion_lat": 0.0, "type": "electric_scooter", "name": "a5ceb6769429d51a4c8546f175f61387", "lat": 38.90493516666667, "bike_id": "a5ceb6769429d51a4c8546f175f61387"}, {"lon": -76.9930815, "rental_uris": {"android": "https://dc.lft.to/lastmile_qr_scan", "ios": "https://dc.lft.to/lastmile_qr_scan"}, "fusion_lon": 0.0, "is_reserved": 0, "is_disabled": 0, "fusion_lat": 0.0, "type": "electric_bike", "name": "a0a0c33cf1e607b874111f41af346033", "lat": 38.94632433333334, "bike_id": "a0a0c33cf1e607b874111f41af346033"}, {"lon": -77.00346466666667, "rental_uris": {"android": "https://dc.lft.to/lastmile_qr_scan", "ios": "https://dc.lft.to/lastmile_qr_scan"}, "fusion_lon": 0.0, "is_reserved": 0, "is_disabled": 0, "fusion_lat": 0.0, "type": "electric_scooter", "name": "cbc77358c4bba740f1de53afec705913", "lat": 38.876568666666664, "bike_id": "cbc77358c4bba740f1de53afec705913"}, {"lon": -76.97982683333333, "rental_uris": {"android": "https://dc.lft.to/lastmile_qr_scan", "ios": "https://dc.lft.to/lastmile_qr_scan"}, "fusion_lon": 0.0, "is_reserved": 0, "is_disabled": 0, "fusion_lat": 0.0, "type": "electric_scooter", "name": "91eedb595423cb9604dff8486f4a5744", "lat": 38.907331666666664, "bike_id": "91eedb595423cb9604dff8486f4a5744"}, {"lon": -77.0323775, "rental_uris": {"android": "https://dc.lft.to/lastmile_qr_scan", "ios": "https://dc.lft.to/lastmile_qr_scan"}, "fusion_lon": 0.0, "is_reserved": 0, "is_disabled": 0, "fusion_lat": 0.0, "type": "electric_scooter", "name": "f902f3e9f0cffe82031502667f37daa5", "lat": 38.92865466666667, "bike_id": "f902f3e9f0cffe82031502667f37daa5"}, {"lon": -77.04162833333334, "rental_uris": {"android": "https://dc.lft.to/lastmile_qr_scan", "ios": "https://dc.lft.to/lastmile_qr_scan"}, "fusion_lon": 0.0, "is_reserved": 0, "is_disabled": 0, "fusion_lat": 0.0, "type": "electric_scooter", "name": "72236bae79bfca02d5dc026ebd044546", "lat": 38.899564166666664, "bike_id": "72236bae79bfca02d5dc026ebd044546"}, {"lon": -77.003185, "rental_uris": {"android": "https://dc.lft.to/lastmile_qr_scan", "ios": "https://dc.lft.to/lastmile_qr_scan"}, "fusion_lon": 0.0, "is_reserved": 0, "is_disabled": 0, "fusion_lat": 0.0, "type": "electric_scooter", "name": "3b15eb661cbca84fce1e8b60527ed3ca", "lat": 38.908508, "bike_id": "3b15eb661cbca84fce1e8b60527ed3ca"}, {"lon": -77.07370666666667, "rental_uris": {"android": "https://dc.lft.to/lastmile_qr_scan", "ios": "https://dc.lft.to/lastmile_qr_scan"}, "fusion_lon": 0.0, "is_reserved": 0, "is_disabled": 0, "fusion_lat": 0.0, "type": "electric_scooter", "name": "792334d6d843ede4eb489bc61b0b776d", "lat": 38.961515166666665, "bike_id": "792334d6d843ede4eb489bc61b0b776d"}, {"lon": -77.03278116666667, "rental_uris": {"android": "https://dc.lft.to/lastmile_qr_scan", "ios": "https://dc.lft.to/lastmile_qr_scan"}, "fusion_lon": 0.0, "is_reserved": 0, "is_disabled": 0, "fusion_lat": 0.0, "type": "electric_scooter", "name": "7914c8b4c5342df0462a2336e1db8c53", "lat": 38.93257233333333, "bike_id": "7914c8b4c5342df0462a2336e1db8c53"}, {"lon": -77.0486655, "rental_uris": {"android": "https://dc.lft.to/lastmile_qr_scan", "ios": "https://dc.lft.to/lastmile_qr_scan"}, "fusion_lon": 0.0, "is_reserved": 0, "is_disabled": 0, "fusion_lat": 0.0, "type": "electric_scooter", "name": "e3eccaf537f86e45f3e443960021687a", "lat": 38.9152905, "bike_id": "e3eccaf537f86e45f3e443960021687a"}, {"lon": -77.04819783333333, "rental_uris": {"android": "https://dc.lft.to/lastmile_qr_scan", "ios": "https://dc.lft.to/lastmile_qr_scan"}, "fusion_lon": 0.0, "is_reserved": 0, "is_disabled": 0, "fusion_lat": 0.0, "type": "electric_scooter", "name": "336932b0b8949ec2f81eb9cad008707b", "lat": 38.90511466666667, "bike_id": "336932b0b8949ec2f81eb9cad008707b"}, {"lon": -77.09057233333333, "rental_uris": {"android": "https://dc.lft.to/lastmile_qr_scan", "ios": "https://dc.lft.to/lastmile_qr_scan"}, "fusion_lon": 0.0, "is_reserved": 0, "is_disabled": 0, "fusion_lat": 0.0, "type": "electric_scooter", "name": "bf579ebf3cf44c8704d53786229b992d", "lat": 38.934454833333334, "bike_id": "bf579ebf3cf44c8704d53786229b992d"}, {"lon": -77.0505875, "rental_uris": {"android": "https://dc.lft.to/lastmile_qr_scan", "ios": "https://dc.lft.to/lastmile_qr_scan"}, "fusion_lon": 0.0, "is_reserved": 0, "is_disabled": 0, "fusion_lat": 0.0, "type": "electric_scooter", "name": "17c5070454b14442fef4aba50bf8c4e3", "lat": 38.900745666666666, "bike_id": "17c5070454b14442fef4aba50bf8c4e3"}, {"lon": -77.00327733333333, "rental_uris": {"android": "https://dc.lft.to/lastmile_qr_scan", "ios": "https://dc.lft.to/lastmile_qr_scan"}, "fusion_lon": 0.0, "is_reserved": 0, "is_disabled": 0, "fusion_lat": 0.0, "type": "electric_scooter", "name": "86aefc8abbfe0575f0c155bc5948812b", "lat": 38.89721516666667, "bike_id": "86aefc8abbfe0575f0c155bc5948812b"}, {"lon": -77.23407816666666, "rental_uris": {"android": "https://dc.lft.to/lastmile_qr_scan", "ios": "https://dc.lft.to/lastmile_qr_scan"}, "fusion_lon": 0.0, "is_reserved": 0, "is_disabled": 0, "fusion_lat": 0.0, "type": "electric_bike", "name": "734b6d0f92c212b63a522c69f628b822", "lat": 38.87576466666667, "bike_id": "734b6d0f92c212b63a522c69f628b822"}, {"lon": -77.00313083333333, "rental_uris": {"android": "https://dc.lft.to/lastmile_qr_scan", "ios": "https://dc.lft.to/lastmile_qr_scan"}, "fusion_lon": 0.0, "is_reserved": 0, "is_disabled": 0, "fusion_lat": 0.0, "type": "electric_scooter", "name": "da21789a8c1a5254c36ce2b84f8a3216", "lat": 38.923489333333336, "bike_id": "da21789a8c1a5254c36ce2b84f8a3216"}, {"lon": -77.05026933333333, "rental_uris": {"android": "https://dc.lft.to/lastmile_qr_scan", "ios": "https://dc.lft.to/lastmile_qr_scan"}, "fusion_lon": 0.0, "is_reserved": 0, "is_disabled": 0, "fusion_lat": 0.0, "type": "electric_scooter", "name": "68d1f643d3f42828ba8fa8aabda5fab2", "lat": 38.892398666666665, "bike_id": "68d1f643d3f42828ba8fa8aabda5fab2"}, {"lon": -77.04618683333334, "rental_uris": {"android": "https://dc.lft.to/lastmile_qr_scan", "ios": "https://dc.lft.to/lastmile_qr_scan"}, "fusion_lon": 0.0, "is_reserved": 0, "is_disabled": 0, "fusion_lat": 0.0, "type": "electric_scooter", "name": "aa474b3cfc5e46c41794e8f7160ec899", "lat": 38.9024045, "bike_id": "aa474b3cfc5e46c41794e8f7160ec899"}, {"lon": -77.025917, "rental_uris": {"android": "https://dc.lft.to/lastmile_qr_scan", "ios": "https://dc.lft.to/lastmile_qr_scan"}, "fusion_lon": 0.0, "is_reserved": 0, "is_disabled": 0, "fusion_lat": 0.0, "type": "electric_scooter", "name": "e4d25aac41cb6ec334deb10e4ad11033", "lat": 38.917212, "bike_id": "e4d25aac41cb6ec334deb10e4ad11033"}, {"lon": -77.05519183333334, "rental_uris": {"android": "https://dc.lft.to/lastmile_qr_scan", "ios": "https://dc.lft.to/lastmile_qr_scan"}, "fusion_lon": 0.0, "is_reserved": 0, "is_disabled": 0, "fusion_lat": 0.0, "type": "electric_scooter", "name": "395c931bb27f4340fa654fe6ad18c07d", "lat": 38.8972955, "bike_id": "395c931bb27f4340fa654fe6ad18c07d"}, {"lon": -77.02175116666666, "rental_uris": {"android": "https://dc.lft.to/lastmile_qr_scan", "ios": "https://dc.lft.to/lastmile_qr_scan"}, "fusion_lon": 0.0, "is_reserved": 0, "is_disabled": 0, "fusion_lat": 0.0, "type": "electric_scooter", "name": "8f7c540d47543f0b3abc896a539eee05", "lat": 38.887338166666666, "bike_id": "8f7c540d47543f0b3abc896a539eee05"}, {"lon": -77.00061866666667, "rental_uris": {"android": "https://dc.lft.to/lastmile_qr_scan", "ios": "https://dc.lft.to/lastmile_qr_scan"}, "fusion_lon": 0.0, "is_reserved": 0, "is_disabled": 0, "fusion_lat": 0.0, "type": "electric_scooter", "name": "c2baf75716dbea082c455f5bd9fe2d03", "lat": 38.8768865, "bike_id": "c2baf75716dbea082c455f5bd9fe2d03"}, {"lon": -77.04303033333333, "rental_uris": {"android": "https://dc.lft.to/lastmile_qr_scan", "ios": "https://dc.lft.to/lastmile_qr_scan"}, "fusion_lon": 0.0, "is_reserved": 0, "is_disabled": 0, "fusion_lat": 0.0, "type": "electric_scooter", "name": "ecc5c098e1c24e4d8098e4dfbe291c83", "lat": 38.91254083333333, "bike_id": "ecc5c098e1c24e4d8098e4dfbe291c83"}, {"lon": -77.032442, "rental_uris": {"android": "https://dc.lft.to/lastmile_qr_scan", "ios": "https://dc.lft.to/lastmile_qr_scan"}, "fusion_lon": 0.0, "is_reserved": 0, "is_disabled": 0, "fusion_lat": 0.0, "type": "electric_scooter", "name": "38dba518f1c437ecaa90b127c2a147f1", "lat": 38.919882666666666, "bike_id": "38dba518f1c437ecaa90b127c2a147f1"}, {"lon": -76.96302566666667, "rental_uris": {"android": "https://dc.lft.to/lastmile_qr_scan", "ios": "https://dc.lft.to/lastmile_qr_scan"}, "fusion_lon": 0.0, "is_reserved": 0, "is_disabled": 0, "fusion_lat": 0.0, "type": "electric_bike", "name": "f52fe295400b0cb86da9b4ff8840857c", "lat": 38.9350415, "bike_id": "f52fe295400b0cb86da9b4ff8840857c"}, {"lon": -77.022314, "rental_uris": {"android": "https://dc.lft.to/lastmile_qr_scan", "ios": "https://dc.lft.to/lastmile_qr_scan"}, "fusion_lon": 0.0, "is_reserved": 0, "is_disabled": 0, "fusion_lat": 0.0, "type": "electric_scooter", "name": "9577a495acf7b16675c17cda4e61daf5", "lat": 38.92477016666667, "bike_id": "9577a495acf7b16675c17cda4e61daf5"}, {"lon": -77.03626783333333, "rental_uris": {"android": "https://dc.lft.to/lastmile_qr_scan", "ios": "https://dc.lft.to/lastmile_qr_scan"}, "fusion_lon": 0.0, "is_reserved": 0, "is_disabled": 0, "fusion_lat": 0.0, "type": "electric_scooter", "name": "66d8eaa9cd451fcfd028f82ae4fe56d9", "lat": 38.939304, "bike_id": "66d8eaa9cd451fcfd028f82ae4fe56d9"}, {"lon": -77.01007983333334, "rental_uris": {"android": "https://dc.lft.to/lastmile_qr_scan", "ios": "https://dc.lft.to/lastmile_qr_scan"}, "fusion_lon": 0.0, "is_reserved": 0, "is_disabled": 0, "fusion_lat": 0.0, "type": "electric_bike", "name": "91df42344fcbca787f88973218c42c7a", "lat": 38.95594583333333, "bike_id": "91df42344fcbca787f88973218c42c7a"}, {"lon": -77.050744, "rental_uris": {"android": "https://dc.lft.to/lastmile_qr_scan", "ios": "https://dc.lft.to/lastmile_qr_scan"}, "fusion_lon": 0.0, "is_reserved": 0, "is_disabled": 0, "fusion_lat": 0.0, "type": "electric_scooter", "name": "a732480cc16439ebd26e0ca814a01dbe", "lat": 38.905085, "bike_id": "a732480cc16439ebd26e0ca814a01dbe"}, {"lon": -77.058339, "rental_uris": {"android": "https://dc.lft.to/lastmile_qr_scan", "ios": "https://dc.lft.to/lastmile_qr_scan"}, "fusion_lon": 0.0, "is_reserved": 0, "is_disabled": 0, "fusion_lat": 0.0, "type": "electric_scooter", "name": "876bfccf1a6dbc9d01307641cfe3573d", "lat": 38.93049283333333, "bike_id": "876bfccf1a6dbc9d01307641cfe3573d"}, {"lon": -77.025702, "rental_uris": {"android": "https://dc.lft.to/lastmile_qr_scan", "ios": "https://dc.lft.to/lastmile_qr_scan"}, "fusion_lon": 0.0, "is_reserved": 0, "is_disabled": 0, "fusion_lat": 0.0, "type": "electric_scooter", "name": "e3eed2183b829c65b7393818835557df", "lat": 38.920404166666664, "bike_id": "e3eed2183b829c65b7393818835557df"}, {"lon": -77.02288016666667, "rental_uris": {"android": "https://dc.lft.to/lastmile_qr_scan", "ios": "https://dc.lft.to/lastmile_qr_scan"}, "fusion_lon": 0.0, "is_reserved": 0, "is_disabled": 0, "fusion_lat": 0.0, "type": "electric_scooter", "name": "d482b4ff7cd7b84578b57c136959aaf2", "lat": 38.9145055, "bike_id": "d482b4ff7cd7b84578b57c136959aaf2"}, {"lon": -77.019342, "rental_uris": {"android": "https://dc.lft.to/lastmile_qr_scan", "ios": "https://dc.lft.to/lastmile_qr_scan"}, "fusion_lon": 0.0, "is_reserved": 0, "is_disabled": 0, "fusion_lat": 0.0, "type": "electric_scooter", "name": "5338831b388d235faa810d17034b1684", "lat": 38.8992265, "bike_id": "5338831b388d235faa810d17034b1684"}, {"lon": -77.00328533333334, "rental_uris": {"android": "https://dc.lft.to/lastmile_qr_scan", "ios": "https://dc.lft.to/lastmile_qr_scan"}, "fusion_lon": 0.0, "is_reserved": 0, "is_disabled": 0, "fusion_lat": 0.0, "type": "electric_scooter", "name": "ea5a66b9a1c22afd4e94885d313fd20b", "lat": 38.8934765, "bike_id": "ea5a66b9a1c22afd4e94885d313fd20b"}, {"lon": -77.000321, "rental_uris": {"android": "https://dc.lft.to/lastmile_qr_scan", "ios": "https://dc.lft.to/lastmile_qr_scan"}, "fusion_lon": 0.0, "is_reserved": 0, "is_disabled": 0, "fusion_lat": 0.0, "type": "electric_scooter", "name": "ff35d6940a3f07ac2c16ce959e339985", "lat": 38.874844, "bike_id": "ff35d6940a3f07ac2c16ce959e339985"}, {"lon": -77.0333165, "rental_uris": {"android": "https://dc.lft.to/lastmile_qr_scan", "ios": "https://dc.lft.to/lastmile_qr_scan"}, "fusion_lon": 0.0, "is_reserved": 0, "is_disabled": 0, "fusion_lat": 0.0, "type": "electric_scooter", "name": "716e0981d931890b6eedbacb4189f6b0", "lat": 38.97211383333333, "bike_id": "716e0981d931890b6eedbacb4189f6b0"}, {"lon": -76.95225033333334, "rental_uris": {"android": "https://dc.lft.to/lastmile_qr_scan", "ios": "https://dc.lft.to/lastmile_qr_scan"}, "fusion_lon": 0.0, "is_reserved": 0, "is_disabled": 0, "fusion_lat": 0.0, "type": "electric_scooter", "name": "5415195ee5fb9c6400f6d3c0bea76861", "lat": 38.893460166666664, "bike_id": "5415195ee5fb9c6400f6d3c0bea76861"}, {"lon": -76.992614, "rental_uris": {"android": "https://dc.lft.to/lastmile_qr_scan", "ios": "https://dc.lft.to/lastmile_qr_scan"}, "fusion_lon": 0.0, "is_reserved": 0, "is_disabled": 0, "fusion_lat": 0.0, "type": "electric_scooter", "name": "296c42f333b60e422da9c9a799de7f88", "lat": 38.902958, "bike_id": "296c42f333b60e422da9c9a799de7f88"}, {"lon": -77.04747583333334, "rental_uris": {"android": "https://dc.lft.to/lastmile_qr_scan", "ios": "https://dc.lft.to/lastmile_qr_scan"}, "fusion_lon": 0.0, "is_reserved": 0, "is_disabled": 0, "fusion_lat": 0.0, "type": "electric_scooter", "name": "fa1b376253f1bbbf23896bd1264b8719", "lat": 38.90536133333333, "bike_id": "fa1b376253f1bbbf23896bd1264b8719"}, {"lon": -77.03583033333334, "rental_uris": {"android": "https://dc.lft.to/lastmile_qr_scan", "ios": "https://dc.lft.to/lastmile_qr_scan"}, "fusion_lon": 0.0, "is_reserved": 0, "is_disabled": 0, "fusion_lat": 0.0, "type": "electric_scooter", "name": "d922fc3359160c91096805a5dd90f0c4", "lat": 38.92622816666667, "bike_id": "d922fc3359160c91096805a5dd90f0c4"}, {"lon": -77.0590185, "rental_uris": {"android": "https://dc.lft.to/lastmile_qr_scan", "ios": "https://dc.lft.to/lastmile_qr_scan"}, "fusion_lon": 0.0, "is_reserved": 0, "is_disabled": 0, "fusion_lat": 0.0, "type": "electric_bike", "name": "4c6d17136149ca92195b1fe41ef2a5cb", "lat": 38.9007925, "bike_id": "4c6d17136149ca92195b1fe41ef2a5cb"}, {"lon": -77.106144, "rental_uris": {"android": "https://dc.lft.to/lastmile_qr_scan", "ios": "https://dc.lft.to/lastmile_qr_scan"}, "fusion_lon": 0.0, "is_reserved": 0, "is_disabled": 0, "fusion_lat": 0.0, "type": "electric_bike", "name": "bcaa37a15bc82e26af80d43ec9b687e6", "lat": 38.935689833333335, "bike_id": "bcaa37a15bc82e26af80d43ec9b687e6"}, {"lon": -77.00640366666667, "rental_uris": {"android": "https://dc.lft.to/lastmile_qr_scan", "ios": "https://dc.lft.to/lastmile_qr_scan"}, "fusion_lon": 0.0, "is_reserved": 0, "is_disabled": 0, "fusion_lat": 0.0, "type": "electric_scooter", "name": "ddbfc32af554f09097b2c436b5330b67", "lat": 38.8718315, "bike_id": "ddbfc32af554f09097b2c436b5330b67"}, {"lon": -77.05950183333333, "rental_uris": {"android": "https://dc.lft.to/lastmile_qr_scan", "ios": "https://dc.lft.to/lastmile_qr_scan"}, "fusion_lon": 0.0, "is_reserved": 0, "is_disabled": 0, "fusion_lat": 0.0, "type": "electric_scooter", "name": "e19518b994083df46158660900d0e54b", "lat": 38.919597, "bike_id": "e19518b994083df46158660900d0e54b"}, {"lon": -77.02163416666667, "rental_uris": {"android": "https://dc.lft.to/lastmile_qr_scan", "ios": "https://dc.lft.to/lastmile_qr_scan"}, "fusion_lon": 0.0, "is_reserved": 0, "is_disabled": 0, "fusion_lat": 0.0, "type": "electric_scooter", "name": "a18be0b1eaa2ccd707f87dad84d4d319", "lat": 38.8860215, "bike_id": "a18be0b1eaa2ccd707f87dad84d4d319"}, {"lon": -76.99472116666666, "rental_uris": {"android": "https://dc.lft.to/lastmile_qr_scan", "ios": "https://dc.lft.to/lastmile_qr_scan"}, "fusion_lon": 0.0, "is_reserved": 0, "is_disabled": 0, "fusion_lat": 0.0, "type": "electric_scooter", "name": "e56acb98c10eaa13ab1d912549f521e1", "lat": 38.9054325, "bike_id": "e56acb98c10eaa13ab1d912549f521e1"}, {"lon": -77.0006805, "rental_uris": {"android": "https://dc.lft.to/lastmile_qr_scan", "ios": "https://dc.lft.to/lastmile_qr_scan"}, "fusion_lon": 0.0, "is_reserved": 0, "is_disabled": 0, "fusion_lat": 0.0, "type": "electric_scooter", "name": "35816356856e56396661861d3a5261da", "lat": 38.8760325, "bike_id": "35816356856e56396661861d3a5261da"}, {"lon": -77.023951, "rental_uris": {"android": "https://dc.lft.to/lastmile_qr_scan", "ios": "https://dc.lft.to/lastmile_qr_scan"}, "fusion_lon": 0.0, "is_reserved": 0, "is_disabled": 0, "fusion_lat": 0.0, "type": "electric_scooter", "name": "e7a99e57848c2c203ea9d1c6dcc7daa4", "lat": 38.90188833333333, "bike_id": "e7a99e57848c2c203ea9d1c6dcc7daa4"}, {"lon": -77.026546, "rental_uris": {"android": "https://dc.lft.to/lastmile_qr_scan", "ios": "https://dc.lft.to/lastmile_qr_scan"}, "fusion_lon": 0.0, "is_reserved": 0, "is_disabled": 0, "fusion_lat": 0.0, "type": "electric_scooter", "name": "98175090e4a0a741567f08e49e1eb7a2", "lat": 38.89216116666667, "bike_id": "98175090e4a0a741567f08e49e1eb7a2"}, {"lon": -77.075593, "rental_uris": {"android": "https://dc.lft.to/lastmile_qr_scan", "ios": "https://dc.lft.to/lastmile_qr_scan"}, "fusion_lon": 0.0, "is_reserved": 0, "is_disabled": 0, "fusion_lat": 0.0, "type": "electric_scooter", "name": "1aa7371514d63960089a50ef17895c4a", "lat": 38.920828666666665, "bike_id": "1aa7371514d63960089a50ef17895c4a"}, {"lon": -76.9805745, "rental_uris": {"android": "https://dc.lft.to/lastmile_qr_scan", "ios": "https://dc.lft.to/lastmile_qr_scan"}, "fusion_lon": 0.0, "is_reserved": 0, "is_disabled": 0, "fusion_lat": 0.0, "type": "electric_scooter", "name": "fc27ab8fa84011fdb9fc319070250ff0", "lat": 38.884920666666666, "bike_id": "fc27ab8fa84011fdb9fc319070250ff0"}, {"lon": -76.9419575, "rental_uris": {"android": "https://dc.lft.to/lastmile_qr_scan", "ios": "https://dc.lft.to/lastmile_qr_scan"}, "fusion_lon": 0.0, "is_reserved": 0, "is_disabled": 0, "fusion_lat": 0.0, "type": "electric_scooter", "name": "4f67a2e10b0bdacf660de8c905622bf8", "lat": 38.902208333333334, "bike_id": "4f67a2e10b0bdacf660de8c905622bf8"}, {"lon": -77.02638766666666, "rental_uris": {"android": "https://dc.lft.to/lastmile_qr_scan", "ios": "https://dc.lft.to/lastmile_qr_scan"}, "fusion_lon": 0.0, "is_reserved": 0, "is_disabled": 0, "fusion_lat": 0.0, "type": "electric_scooter", "name": "92245a5df8520677962bd922a591f486", "lat": 38.894780833333336, "bike_id": "92245a5df8520677962bd922a591f486"}, {"lon": -77.02846016666666, "rental_uris": {"android": "https://dc.lft.to/lastmile_qr_scan", "ios": "https://dc.lft.to/lastmile_qr_scan"}, "fusion_lon": 0.0, "is_reserved": 0, "is_disabled": 0, "fusion_lat": 0.0, "type": "electric_scooter", "name": "2a53f6e269a2f40c18a7a9593185ed40", "lat": 38.935878, "bike_id": "2a53f6e269a2f40c18a7a9593185ed40"}, {"lon": -77.03664183333333, "rental_uris": {"android": "https://dc.lft.to/lastmile_qr_scan", "ios": "https://dc.lft.to/lastmile_qr_scan"}, "fusion_lon": 0.0, "is_reserved": 0, "is_disabled": 0, "fusion_lat": 0.0, "type": "electric_scooter", "name": "ff2299bff85b8969be1f97f14a3bf822", "lat": 38.91812566666667, "bike_id": "ff2299bff85b8969be1f97f14a3bf822"}, {"lon": -77.049938, "rental_uris": {"android": "https://dc.lft.to/lastmile_qr_scan", "ios": "https://dc.lft.to/lastmile_qr_scan"}, "fusion_lon": 0.0, "is_reserved": 0, "is_disabled": 0, "fusion_lat": 0.0, "type": "electric_scooter", "name": "5655859c8a7795718d051f5e8622e62b", "lat": 38.9012695, "bike_id": "5655859c8a7795718d051f5e8622e62b"}, {"lon": -77.00539233333333, "rental_uris": {"android": "https://dc.lft.to/lastmile_qr_scan", "ios": "https://dc.lft.to/lastmile_qr_scan"}, "fusion_lon": 0.0, "is_reserved": 0, "is_disabled": 0, "fusion_lat": 0.0, "type": "electric_scooter", "name": "84eba24942f981622c53135c43599b00", "lat": 38.900188, "bike_id": "84eba24942f981622c53135c43599b00"}, {"lon": -77.04381833333333, "rental_uris": {"android": "https://dc.lft.to/lastmile_qr_scan", "ios": "https://dc.lft.to/lastmile_qr_scan"}, "fusion_lon": 0.0, "is_reserved": 0, "is_disabled": 0, "fusion_lat": 0.0, "type": "electric_scooter", "name": "e6c257b80038071fe01c8147391768c3", "lat": 38.90386633333333, "bike_id": "e6c257b80038071fe01c8147391768c3"}, {"lon": -77.041497, "rental_uris": {"android": "https://dc.lft.to/lastmile_qr_scan", "ios": "https://dc.lft.to/lastmile_qr_scan"}, "fusion_lon": 0.0, "is_reserved": 0, "is_disabled": 0, "fusion_lat": 0.0, "type": "electric_scooter", "name": "16f49557bacd0078d53f2ead25ab320f", "lat": 38.923354, "bike_id": "16f49557bacd0078d53f2ead25ab320f"}, {"lon": -76.9509455, "rental_uris": {"android": "https://dc.lft.to/lastmile_qr_scan", "ios": "https://dc.lft.to/lastmile_qr_scan"}, "fusion_lon": 0.0, "is_reserved": 0, "is_disabled": 0, "fusion_lat": 0.0, "type": "electric_scooter", "name": "85c5a59c50ea1729d2b12b7209345e28", "lat": 38.8844995, "bike_id": "85c5a59c50ea1729d2b12b7209345e28"}, {"lon": -77.0335105, "rental_uris": {"android": "https://dc.lft.to/lastmile_qr_scan", "ios": "https://dc.lft.to/lastmile_qr_scan"}, "fusion_lon": 0.0, "is_reserved": 0, "is_disabled": 0, "fusion_lat": 0.0, "type": "electric_scooter", "name": "6566efa05b22e69a7835e2986e61cd06", "lat": 38.892392666666666, "bike_id": "6566efa05b22e69a7835e2986e61cd06"}, {"lon": -77.03673816666667, "rental_uris": {"android": "https://dc.lft.to/lastmile_qr_scan", "ios": "https://dc.lft.to/lastmile_qr_scan"}, "fusion_lon": 0.0, "is_reserved": 0, "is_disabled": 0, "fusion_lat": 0.0, "type": "electric_scooter", "name": "ce5614da5ed279062a3800ba737735c2", "lat": 38.900264166666666, "bike_id": "ce5614da5ed279062a3800ba737735c2"}, {"lon": -77.003328, "rental_uris": {"android": "https://dc.lft.to/lastmile_qr_scan", "ios": "https://dc.lft.to/lastmile_qr_scan"}, "fusion_lon": 0.0, "is_reserved": 0, "is_disabled": 0, "fusion_lat": 0.0, "type": "electric_scooter", "name": "9543f2486f4e44b49a113aeeb8ee5ea7", "lat": 38.923519166666665, "bike_id": "9543f2486f4e44b49a113aeeb8ee5ea7"}, {"lon": -77.0609, "rental_uris": {"android": "https://dc.lft.to/lastmile_qr_scan", "ios": "https://dc.lft.to/lastmile_qr_scan"}, "fusion_lon": 0.0, "is_reserved": 0, "is_disabled": 0, "fusion_lat": 0.0, "type": "electric_scooter", "name": "385a77090fa4a663a9c5d8da17f0db30", "lat": 38.902356, "bike_id": "385a77090fa4a663a9c5d8da17f0db30"}, {"lon": -76.98841966666667, "rental_uris": {"android": "https://dc.lft.to/lastmile_qr_scan", "ios": "https://dc.lft.to/lastmile_qr_scan"}, "fusion_lon": 0.0, "is_reserved": 0, "is_disabled": 0, "fusion_lat": 0.0, "type": "electric_scooter", "name": "44e97023a65b9294c4094149c8ba92fb", "lat": 38.90026616666667, "bike_id": "44e97023a65b9294c4094149c8ba92fb"}, {"lon": -77.04744883333333, "rental_uris": {"android": "https://dc.lft.to/lastmile_qr_scan", "ios": "https://dc.lft.to/lastmile_qr_scan"}, "fusion_lon": 0.0, "is_reserved": 0, "is_disabled": 0, "fusion_lat": 0.0, "type": "electric_scooter", "name": "c5b4a53feef7568b86f7f01ced60ec5b", "lat": 38.9053405, "bike_id": "c5b4a53feef7568b86f7f01ced60ec5b"}, {"lon": -77.01037183333334, "rental_uris": {"android": "https://dc.lft.to/lastmile_qr_scan", "ios": "https://dc.lft.to/lastmile_qr_scan"}, "fusion_lon": 0.0, "is_reserved": 0, "is_disabled": 0, "fusion_lat": 0.0, "type": "electric_scooter", "name": "fd10151ec2acde6e135533ccd147e815", "lat": 38.897498, "bike_id": "fd10151ec2acde6e135533ccd147e815"}, {"lon": -77.037859, "rental_uris": {"android": "https://dc.lft.to/lastmile_qr_scan", "ios": "https://dc.lft.to/lastmile_qr_scan"}, "fusion_lon": 0.0, "is_reserved": 0, "is_disabled": 0, "fusion_lat": 0.0, "type": "electric_scooter", "name": "67d5c173913e4192a5ebee736ec97fa1", "lat": 38.900284166666665, "bike_id": "67d5c173913e4192a5ebee736ec97fa1"}, {"lon": -77.02881333333333, "rental_uris": {"android": "https://dc.lft.to/lastmile_qr_scan", "ios": "https://dc.lft.to/lastmile_qr_scan"}, "fusion_lon": 0.0, "is_reserved": 0, "is_disabled": 0, "fusion_lat": 0.0, "type": "electric_scooter", "name": "a356b9eb5b84b506076cdcf38e1cee7f", "lat": 38.91707683333333, "bike_id": "a356b9eb5b84b506076cdcf38e1cee7f"}, {"lon": -77.019704, "rental_uris": {"android": "https://dc.lft.to/lastmile_qr_scan", "ios": "https://dc.lft.to/lastmile_qr_scan"}, "fusion_lon": 0.0, "is_reserved": 0, "is_disabled": 0, "fusion_lat": 0.0, "type": "electric_scooter", "name": "3f6ba4c1330b0481f3d4c003685f8020", "lat": 38.893096166666666, "bike_id": "3f6ba4c1330b0481f3d4c003685f8020"}, {"lon": -77.03179266666666, "rental_uris": {"android": "https://dc.lft.to/lastmile_qr_scan", "ios": "https://dc.lft.to/lastmile_qr_scan"}, "fusion_lon": 0.0, "is_reserved": 0, "is_disabled": 0, "fusion_lat": 0.0, "type": "electric_scooter", "name": "dcfb661f564f249ed33e4c7944756e23", "lat": 38.93603316666667, "bike_id": "dcfb661f564f249ed33e4c7944756e23"}, {"lon": -77.00708933333334, "rental_uris": {"android": "https://dc.lft.to/lastmile_qr_scan", "ios": "https://dc.lft.to/lastmile_qr_scan"}, "fusion_lon": 0.0, "is_reserved": 0, "is_disabled": 0, "fusion_lat": 0.0, "type": "electric_scooter", "name": "c9f7f0eecfa36fcdee300ad35f20d597", "lat": 38.884915666666664, "bike_id": "c9f7f0eecfa36fcdee300ad35f20d597"}, {"lon": -77.03098583333333, "rental_uris": {"android": "https://dc.lft.to/lastmile_qr_scan", "ios": "https://dc.lft.to/lastmile_qr_scan"}, "fusion_lon": 0.0, "is_reserved": 0, "is_disabled": 0, "fusion_lat": 0.0, "type": "electric_scooter", "name": "6e5d2f370d9db4681a48765608c232ec", "lat": 38.923792166666665, "bike_id": "6e5d2f370d9db4681a48765608c232ec"}, {"lon": -77.05080416666667, "rental_uris": {"android": "https://dc.lft.to/lastmile_qr_scan", "ios": "https://dc.lft.to/lastmile_qr_scan"}, "fusion_lon": 0.0, "is_reserved": 0, "is_disabled": 0, "fusion_lat": 0.0, "type": "electric_scooter", "name": "ec350a642b20feb5cbbdfa91d19f4e90", "lat": 38.89981183333333, "bike_id": "ec350a642b20feb5cbbdfa91d19f4e90"}, {"lon": -77.03476316666666, "rental_uris": {"android": "https://dc.lft.to/lastmile_qr_scan", "ios": "https://dc.lft.to/lastmile_qr_scan"}, "fusion_lon": 0.0, "is_reserved": 0, "is_disabled": 0, "fusion_lat": 0.0, "type": "electric_scooter", "name": "a02a5432f65519dee70945fac2a2b208", "lat": 38.88489933333334, "bike_id": "a02a5432f65519dee70945fac2a2b208"}, {"lon": -77.029481, "rental_uris": {"android": "https://dc.lft.to/lastmile_qr_scan", "ios": "https://dc.lft.to/lastmile_qr_scan"}, "fusion_lon": 0.0, "is_reserved": 0, "is_disabled": 0, "fusion_lat": 0.0, "type": "electric_scooter", "name": "ad03e2778fa2567c26ee72c8269c6909", "lat": 38.91683233333333, "bike_id": "ad03e2778fa2567c26ee72c8269c6909"}, {"lon": -77.01192166666667, "rental_uris": {"android": "https://dc.lft.to/lastmile_qr_scan", "ios": "https://dc.lft.to/lastmile_qr_scan"}, "fusion_lon": 0.0, "is_reserved": 0, "is_disabled": 0, "fusion_lat": 0.0, "type": "electric_scooter", "name": "751544d2267f60bfefca4d19ffb2ffeb", "lat": 38.89790266666667, "bike_id": "751544d2267f60bfefca4d19ffb2ffeb"}, {"lon": -77.034293, "rental_uris": {"android": "https://dc.lft.to/lastmile_qr_scan", "ios": "https://dc.lft.to/lastmile_qr_scan"}, "fusion_lon": 0.0, "is_reserved": 0, "is_disabled": 0, "fusion_lat": 0.0, "type": "electric_bike", "name": "6cf64722947138bb464141e178a7f54c", "lat": 38.966195, "bike_id": "6cf64722947138bb464141e178a7f54c"}, {"lon": -76.96152716666667, "rental_uris": {"android": "https://dc.lft.to/lastmile_qr_scan", "ios": "https://dc.lft.to/lastmile_qr_scan"}, "fusion_lon": 0.0, "is_reserved": 0, "is_disabled": 0, "fusion_lat": 0.0, "type": "electric_bike", "name": "edbb423a82d7a9bd93f71658b6000efd", "lat": 38.8561685, "bike_id": "edbb423a82d7a9bd93f71658b6000efd"}, {"lon": -76.9943055, "rental_uris": {"android": "https://dc.lft.to/lastmile_qr_scan", "ios": "https://dc.lft.to/lastmile_qr_scan"}, "fusion_lon": 0.0, "is_reserved": 0, "is_disabled": 0, "fusion_lat": 0.0, "type": "electric_scooter", "name": "d8ea05d1adffcd4d01b9447ce8928bce", "lat": 38.9417385, "bike_id": "d8ea05d1adffcd4d01b9447ce8928bce"}, {"lon": -77.0229955, "rental_uris": {"android": "https://dc.lft.to/lastmile_qr_scan", "ios": "https://dc.lft.to/lastmile_qr_scan"}, "fusion_lon": 0.0, "is_reserved": 0, "is_disabled": 0, "fusion_lat": 0.0, "type": "electric_scooter", "name": "e4fff5d3b756bdbbc0bd1428cac3bdc2", "lat": 38.92769116666667, "bike_id": "e4fff5d3b756bdbbc0bd1428cac3bdc2"}, {"lon": -77.04866983333334, "rental_uris": {"android": "https://dc.lft.to/lastmile_qr_scan", "ios": "https://dc.lft.to/lastmile_qr_scan"}, "fusion_lon": 0.0, "is_reserved": 0, "is_disabled": 0, "fusion_lat": 0.0, "type": "electric_scooter", "name": "5bab8466603783e2874f70bafd4a7165", "lat": 38.89222516666667, "bike_id": "5bab8466603783e2874f70bafd4a7165"}, {"lon": -77.04075433333334, "rental_uris": {"android": "https://dc.lft.to/lastmile_qr_scan", "ios": "https://dc.lft.to/lastmile_qr_scan"}, "fusion_lon": 0.0, "is_reserved": 0, "is_disabled": 0, "fusion_lat": 0.0, "type": "electric_scooter", "name": "6b73bb4a517bf5a35aec79316def3382", "lat": 38.9327785, "bike_id": "6b73bb4a517bf5a35aec79316def3382"}, {"lon": -76.98454366666667, "rental_uris": {"android": "https://dc.lft.to/lastmile_qr_scan", "ios": "https://dc.lft.to/lastmile_qr_scan"}, "fusion_lon": 0.0, "is_reserved": 0, "is_disabled": 0, "fusion_lat": 0.0, "type": "electric_scooter", "name": "4c692727e9aece31485066a267453ce4", "lat": 38.91434533333333, "bike_id": "4c692727e9aece31485066a267453ce4"}, {"lon": -77.02980983333333, "rental_uris": {"android": "https://dc.lft.to/lastmile_qr_scan", "ios": "https://dc.lft.to/lastmile_qr_scan"}, "fusion_lon": 0.0, "is_reserved": 0, "is_disabled": 0, "fusion_lat": 0.0, "type": "electric_scooter", "name": "5c2a9cce959c18abe51b0c1010553cb1", "lat": 38.94978283333333, "bike_id": "5c2a9cce959c18abe51b0c1010553cb1"}, {"lon": -77.02943766666667, "rental_uris": {"android": "https://dc.lft.to/lastmile_qr_scan", "ios": "https://dc.lft.to/lastmile_qr_scan"}, "fusion_lon": 0.0, "is_reserved": 0, "is_disabled": 0, "fusion_lat": 0.0, "type": "electric_scooter", "name": "968a7bdc8a9883fdd26c2ef59aef1bf1", "lat": 38.94282283333333, "bike_id": "968a7bdc8a9883fdd26c2ef59aef1bf1"}, {"lon": -77.04155583333333, "rental_uris": {"android": "https://dc.lft.to/lastmile_qr_scan", "ios": "https://dc.lft.to/lastmile_qr_scan"}, "fusion_lon": 0.0, "is_reserved": 0, "is_disabled": 0, "fusion_lat": 0.0, "type": "electric_scooter", "name": "f165bf6e8600ed85c2ca063ca1c59afd", "lat": 38.90498483333333, "bike_id": "f165bf6e8600ed85c2ca063ca1c59afd"}, {"lon": -77.03173983333333, "rental_uris": {"android": "https://dc.lft.to/lastmile_qr_scan", "ios": "https://dc.lft.to/lastmile_qr_scan"}, "fusion_lon": 0.0, "is_reserved": 0, "is_disabled": 0, "fusion_lat": 0.0, "type": "electric_scooter", "name": "b3a681ab4d7e9b9e4735fc0385e4c8dc", "lat": 38.887282166666665, "bike_id": "b3a681ab4d7e9b9e4735fc0385e4c8dc"}, {"lon": -77.02166633333333, "rental_uris": {"android": "https://dc.lft.to/lastmile_qr_scan", "ios": "https://dc.lft.to/lastmile_qr_scan"}, "fusion_lon": 0.0, "is_reserved": 0, "is_disabled": 0, "fusion_lat": 0.0, "type": "electric_scooter", "name": "8640b6adf357dfa6674f2e1422e473bb", "lat": 38.89873683333333, "bike_id": "8640b6adf357dfa6674f2e1422e473bb"}, {"lon": -77.04628416666667, "rental_uris": {"android": "https://dc.lft.to/lastmile_qr_scan", "ios": "https://dc.lft.to/lastmile_qr_scan"}, "fusion_lon": 0.0, "is_reserved": 0, "is_disabled": 0, "fusion_lat": 0.0, "type": "electric_scooter", "name": "7124a96c1d3d1d372f1b798f9dd3b946", "lat": 38.903566166666664, "bike_id": "7124a96c1d3d1d372f1b798f9dd3b946"}, {"lon": -77.01823283333333, "rental_uris": {"android": "https://dc.lft.to/lastmile_qr_scan", "ios": "https://dc.lft.to/lastmile_qr_scan"}, "fusion_lon": 0.0, "is_reserved": 0, "is_disabled": 0, "fusion_lat": 0.0, "type": "electric_scooter", "name": "a9e9644f8e325d4f6871dbb22ef98665", "lat": 38.9225665, "bike_id": "a9e9644f8e325d4f6871dbb22ef98665"}, {"lon": -77.04710816666666, "rental_uris": {"android": "https://dc.lft.to/lastmile_qr_scan", "ios": "https://dc.lft.to/lastmile_qr_scan"}, "fusion_lon": 0.0, "is_reserved": 0, "is_disabled": 0, "fusion_lat": 0.0, "type": "electric_bike", "name": "91fa44df0140587e1c19bb50ce59417a", "lat": 38.99770683333333, "bike_id": "91fa44df0140587e1c19bb50ce59417a"}, {"lon": -77.00285533333333, "rental_uris": {"android": "https://dc.lft.to/lastmile_qr_scan", "ios": "https://dc.lft.to/lastmile_qr_scan"}, "fusion_lon": 0.0, "is_reserved": 0, "is_disabled": 0, "fusion_lat": 0.0, "type": "electric_scooter", "name": "62181e5d973ef8f0443addbc205c4d34", "lat": 38.892247833333336, "bike_id": "62181e5d973ef8f0443addbc205c4d34"}, {"lon": -77.0464465, "rental_uris": {"android": "https://dc.lft.to/lastmile_qr_scan", "ios": "https://dc.lft.to/lastmile_qr_scan"}, "fusion_lon": 0.0, "is_reserved": 0, "is_disabled": 0, "fusion_lat": 0.0, "type": "electric_scooter", "name": "e68586803acdce8bdb7b1a4e164f43ff", "lat": 38.9102245, "bike_id": "e68586803acdce8bdb7b1a4e164f43ff"}, {"lon": -77.04528166666667, "rental_uris": {"android": "https://dc.lft.to/lastmile_qr_scan", "ios": "https://dc.lft.to/lastmile_qr_scan"}, "fusion_lon": 0.0, "is_reserved": 0, "is_disabled": 0, "fusion_lat": 0.0, "type": "electric_scooter", "name": "7dd7bae64228551140ffe4c5d029fa2b", "lat": 38.90122616666667, "bike_id": "7dd7bae64228551140ffe4c5d029fa2b"}, {"lon": -76.99571233333333, "rental_uris": {"android": "https://dc.lft.to/lastmile_qr_scan", "ios": "https://dc.lft.to/lastmile_qr_scan"}, "fusion_lon": 0.0, "is_reserved": 0, "is_disabled": 0, "fusion_lat": 0.0, "type": "electric_scooter", "name": "78f36360302eb790bd3e959e89c40b70", "lat": 38.86272316666667, "bike_id": "78f36360302eb790bd3e959e89c40b70"}, {"lon": -76.9732825, "rental_uris": {"android": "https://dc.lft.to/lastmile_qr_scan", "ios": "https://dc.lft.to/lastmile_qr_scan"}, "fusion_lon": 0.0, "is_reserved": 0, "is_disabled": 0, "fusion_lat": 0.0, "type": "electric_scooter", "name": "3287e045e43848468b4430f8f0feee13", "lat": 38.9041, "bike_id": "3287e045e43848468b4430f8f0feee13"}, {"lon": -76.9864745, "rental_uris": {"android": "https://dc.lft.to/lastmile_qr_scan", "ios": "https://dc.lft.to/lastmile_qr_scan"}, "fusion_lon": 0.0, "is_reserved": 0, "is_disabled": 0, "fusion_lat": 0.0, "type": "electric_scooter", "name": "7ef166caaa5218565acbdb04ae145e6d", "lat": 38.897606, "bike_id": "7ef166caaa5218565acbdb04ae145e6d"}, {"lon": -77.03285883333334, "rental_uris": {"android": "https://dc.lft.to/lastmile_qr_scan", "ios": "https://dc.lft.to/lastmile_qr_scan"}, "fusion_lon": 0.0, "is_reserved": 0, "is_disabled": 0, "fusion_lat": 0.0, "type": "electric_scooter", "name": "3b71b10018f1e726e8179f5d29fbb8f3", "lat": 38.93772833333333, "bike_id": "3b71b10018f1e726e8179f5d29fbb8f3"}, {"lon": -77.0144575, "rental_uris": {"android": "https://dc.lft.to/lastmile_qr_scan", "ios": "https://dc.lft.to/lastmile_qr_scan"}, "fusion_lon": 0.0, "is_reserved": 0, "is_disabled": 0, "fusion_lat": 0.0, "type": "electric_scooter", "name": "6c2fd159aebd9303fc4b40dbad2638f3", "lat": 38.902447, "bike_id": "6c2fd159aebd9303fc4b40dbad2638f3"}, {"lon": -77.03258966666667, "rental_uris": {"android": "https://dc.lft.to/lastmile_qr_scan", "ios": "https://dc.lft.to/lastmile_qr_scan"}, "fusion_lon": 0.0, "is_reserved": 0, "is_disabled": 0, "fusion_lat": 0.0, "type": "electric_scooter", "name": "459d273bf0160d6cd8ca420696721345", "lat": 38.92164116666667, "bike_id": "459d273bf0160d6cd8ca420696721345"}, {"lon": -77.032168, "rental_uris": {"android": "https://dc.lft.to/lastmile_qr_scan", "ios": "https://dc.lft.to/lastmile_qr_scan"}, "fusion_lon": 0.0, "is_reserved": 0, "is_disabled": 0, "fusion_lat": 0.0, "type": "electric_scooter", "name": "a32a615c086fe8f1fc511540a381f493", "lat": 38.930455333333335, "bike_id": "a32a615c086fe8f1fc511540a381f493"}, {"lon": -77.02699566666666, "rental_uris": {"android": "https://dc.lft.to/lastmile_qr_scan", "ios": "https://dc.lft.to/lastmile_qr_scan"}, "fusion_lon": 0.0, "is_reserved": 0, "is_disabled": 0, "fusion_lat": 0.0, "type": "electric_scooter", "name": "8a346124b35b740eff60ae3345abbcd0", "lat": 38.90665283333333, "bike_id": "8a346124b35b740eff60ae3345abbcd0"}, {"lon": -77.02825716666666, "rental_uris": {"android": "https://dc.lft.to/lastmile_qr_scan", "ios": "https://dc.lft.to/lastmile_qr_scan"}, "fusion_lon": 0.0, "is_reserved": 0, "is_disabled": 0, "fusion_lat": 0.0, "type": "electric_scooter", "name": "2907e8ff8772f7b3bfb48f63911c54a2", "lat": 38.886631333333334, "bike_id": "2907e8ff8772f7b3bfb48f63911c54a2"}, {"lon": -77.0259625, "rental_uris": {"android": "https://dc.lft.to/lastmile_qr_scan", "ios": "https://dc.lft.to/lastmile_qr_scan"}, "fusion_lon": 0.0, "is_reserved": 0, "is_disabled": 0, "fusion_lat": 0.0, "type": "electric_scooter", "name": "c0ed9cffcf6dca47d1217b74ea5199e6", "lat": 38.90594316666667, "bike_id": "c0ed9cffcf6dca47d1217b74ea5199e6"}, {"lon": -77.02777516666667, "rental_uris": {"android": "https://dc.lft.to/lastmile_qr_scan", "ios": "https://dc.lft.to/lastmile_qr_scan"}, "fusion_lon": 0.0, "is_reserved": 0, "is_disabled": 0, "fusion_lat": 0.0, "type": "electric_scooter", "name": "e5a4fcb63cb48221827238ce4db1bba3", "lat": 38.89220316666667, "bike_id": "e5a4fcb63cb48221827238ce4db1bba3"}, {"lon": -77.01944816666666, "rental_uris": {"android": "https://dc.lft.to/lastmile_qr_scan", "ios": "https://dc.lft.to/lastmile_qr_scan"}, "fusion_lon": 0.0, "is_reserved": 0, "is_disabled": 0, "fusion_lat": 0.0, "type": "electric_scooter", "name": "4814084f188c26fe0e67d86c94ee5669", "lat": 38.9226015, "bike_id": "4814084f188c26fe0e67d86c94ee5669"}, {"lon": -77.032715, "rental_uris": {"android": "https://dc.lft.to/lastmile_qr_scan", "ios": "https://dc.lft.to/lastmile_qr_scan"}, "fusion_lon": 0.0, "is_reserved": 0, "is_disabled": 0, "fusion_lat": 0.0, "type": "electric_scooter", "name": "b09f56b3412b824ce016a751fb25cfa8", "lat": 38.89878816666667, "bike_id": "b09f56b3412b824ce016a751fb25cfa8"}, {"lon": -77.03113466666667, "rental_uris": {"android": "https://dc.lft.to/lastmile_qr_scan", "ios": "https://dc.lft.to/lastmile_qr_scan"}, "fusion_lon": 0.0, "is_reserved": 0, "is_disabled": 0, "fusion_lat": 0.0, "type": "electric_scooter", "name": "3123811444a14b4a457efd15451360d6", "lat": 38.897166666666664, "bike_id": "3123811444a14b4a457efd15451360d6"}, {"lon": -77.04531933333334, "rental_uris": {"android": "https://dc.lft.to/lastmile_qr_scan", "ios": "https://dc.lft.to/lastmile_qr_scan"}, "fusion_lon": 0.0, "is_reserved": 0, "is_disabled": 0, "fusion_lat": 0.0, "type": "electric_scooter", "name": "43b51a86afbc3898a5aeafc98d526374", "lat": 38.9118925, "bike_id": "43b51a86afbc3898a5aeafc98d526374"}, {"lon": -77.04336866666667, "rental_uris": {"android": "https://dc.lft.to/lastmile_qr_scan", "ios": "https://dc.lft.to/lastmile_qr_scan"}, "fusion_lon": 0.0, "is_reserved": 0, "is_disabled": 0, "fusion_lat": 0.0, "type": "electric_scooter", "name": "9de7d1c7a3fb0944123133c739f9138e", "lat": 38.905665666666664, "bike_id": "9de7d1c7a3fb0944123133c739f9138e"}, {"lon": -77.029293, "rental_uris": {"android": "https://dc.lft.to/lastmile_qr_scan", "ios": "https://dc.lft.to/lastmile_qr_scan"}, "fusion_lon": 0.0, "is_reserved": 0, "is_disabled": 0, "fusion_lat": 0.0, "type": "electric_scooter", "name": "7387e31d88abfd1b7db1ac442a62300f", "lat": 38.9427765, "bike_id": "7387e31d88abfd1b7db1ac442a62300f"}, {"lon": -77.03042433333333, "rental_uris": {"android": "https://dc.lft.to/lastmile_qr_scan", "ios": "https://dc.lft.to/lastmile_qr_scan"}, "fusion_lon": 0.0, "is_reserved": 0, "is_disabled": 0, "fusion_lat": 0.0, "type": "electric_scooter", "name": "65bbab43550d0dd28bfd00a5e56f2740", "lat": 38.897575333333336, "bike_id": "65bbab43550d0dd28bfd00a5e56f2740"}, {"lon": -77.03237616666667, "rental_uris": {"android": "https://dc.lft.to/lastmile_qr_scan", "ios": "https://dc.lft.to/lastmile_qr_scan"}, "fusion_lon": 0.0, "is_reserved": 0, "is_disabled": 0, "fusion_lat": 0.0, "type": "electric_scooter", "name": "7f2d25d08132bd679d3b1f3211cb06f9", "lat": 38.96154966666667, "bike_id": "7f2d25d08132bd679d3b1f3211cb06f9"}, {"lon": -76.99055283333334, "rental_uris": {"android": "https://dc.lft.to/lastmile_qr_scan", "ios": "https://dc.lft.to/lastmile_qr_scan"}, "fusion_lon": 0.0, "is_reserved": 0, "is_disabled": 0, "fusion_lat": 0.0, "type": "electric_bike", "name": "97d8617909a812fc6ab83013954a6fb7", "lat": 38.93688066666667, "bike_id": "97d8617909a812fc6ab83013954a6fb7"}, {"lon": -77.02174733333334, "rental_uris": {"android": "https://dc.lft.to/lastmile_qr_scan", "ios": "https://dc.lft.to/lastmile_qr_scan"}, "fusion_lon": 0.0, "is_reserved": 0, "is_disabled": 0, "fusion_lat": 0.0, "type": "electric_scooter", "name": "d9d20c6f5a85c18b245fd0a70044a6ad", "lat": 38.9394435, "bike_id": "d9d20c6f5a85c18b245fd0a70044a6ad"}, {"lon": -77.010339, "rental_uris": {"android": "https://dc.lft.to/lastmile_qr_scan", "ios": "https://dc.lft.to/lastmile_qr_scan"}, "fusion_lon": 0.0, "is_reserved": 0, "is_disabled": 0, "fusion_lat": 0.0, "type": "electric_scooter", "name": "d79fc20e3192e458e23841c6b39201da", "lat": 38.92026166666667, "bike_id": "d79fc20e3192e458e23841c6b39201da"}, {"lon": -77.0407005, "rental_uris": {"android": "https://dc.lft.to/lastmile_qr_scan", "ios": "https://dc.lft.to/lastmile_qr_scan"}, "fusion_lon": 0.0, "is_reserved": 0, "is_disabled": 0, "fusion_lat": 0.0, "type": "electric_scooter", "name": "ff2a256df60817eede5977d82dac9026", "lat": 38.9087705, "bike_id": "ff2a256df60817eede5977d82dac9026"}, {"lon": -77.0379735, "rental_uris": {"android": "https://dc.lft.to/lastmile_qr_scan", "ios": "https://dc.lft.to/lastmile_qr_scan"}, "fusion_lon": 0.0, "is_reserved": 0, "is_disabled": 0, "fusion_lat": 0.0, "type": "electric_scooter", "name": "f8f378182df5799c2b023680703c3a71", "lat": 38.9180495, "bike_id": "f8f378182df5799c2b023680703c3a71"}, {"lon": -77.0224075, "rental_uris": {"android": "https://dc.lft.to/lastmile_qr_scan", "ios": "https://dc.lft.to/lastmile_qr_scan"}, "fusion_lon": 0.0, "is_reserved": 0, "is_disabled": 0, "fusion_lat": 0.0, "type": "electric_scooter", "name": "3ab6f4738552093f39c2c40c3dca2b2d", "lat": 38.92462116666667, "bike_id": "3ab6f4738552093f39c2c40c3dca2b2d"}, {"lon": -77.01183733333333, "rental_uris": {"android": "https://dc.lft.to/lastmile_qr_scan", "ios": "https://dc.lft.to/lastmile_qr_scan"}, "fusion_lon": 0.0, "is_reserved": 0, "is_disabled": 0, "fusion_lat": 0.0, "type": "electric_scooter", "name": "5ccf0c2e399b8d0f5f8dbceb12635ee9", "lat": 38.89788133333333, "bike_id": "5ccf0c2e399b8d0f5f8dbceb12635ee9"}, {"lon": -77.02160866666667, "rental_uris": {"android": "https://dc.lft.to/lastmile_qr_scan", "ios": "https://dc.lft.to/lastmile_qr_scan"}, "fusion_lon": 0.0, "is_reserved": 0, "is_disabled": 0, "fusion_lat": 0.0, "type": "electric_scooter", "name": "13029be47d61a2e4cb94ea567a087938", "lat": 38.92611216666667, "bike_id": "13029be47d61a2e4cb94ea567a087938"}, {"lon": -77.0396455, "rental_uris": {"android": "https://dc.lft.to/lastmile_qr_scan", "ios": "https://dc.lft.to/lastmile_qr_scan"}, "fusion_lon": 0.0, "is_reserved": 0, "is_disabled": 0, "fusion_lat": 0.0, "type": "electric_scooter", "name": "4719a165318bc4ccc63f9c9dff8493e5", "lat": 38.90148466666667, "bike_id": "4719a165318bc4ccc63f9c9dff8493e5"}, {"lon": -76.98055183333334, "rental_uris": {"android": "https://dc.lft.to/lastmile_qr_scan", "ios": "https://dc.lft.to/lastmile_qr_scan"}, "fusion_lon": 0.0, "is_reserved": 0, "is_disabled": 0, "fusion_lat": 0.0, "type": "electric_scooter", "name": "897cd4ea6e814400358ef05ef1c7f5a2", "lat": 38.884919, "bike_id": "897cd4ea6e814400358ef05ef1c7f5a2"}, {"lon": -77.03299416666667, "rental_uris": {"android": "https://dc.lft.to/lastmile_qr_scan", "ios": "https://dc.lft.to/lastmile_qr_scan"}, "fusion_lon": 0.0, "is_reserved": 0, "is_disabled": 0, "fusion_lat": 0.0, "type": "electric_scooter", "name": "906bf4a5bc0cbdea0e0ff1e5c0935a8f", "lat": 38.898716, "bike_id": "906bf4a5bc0cbdea0e0ff1e5c0935a8f"}, {"lon": -76.93380616666667, "rental_uris": {"android": "https://dc.lft.to/lastmile_qr_scan", "ios": "https://dc.lft.to/lastmile_qr_scan"}, "fusion_lon": 0.0, "is_reserved": 0, "is_disabled": 0, "fusion_lat": 0.0, "type": "electric_scooter", "name": "c7f46df0593ae4539b60203e4d97714e", "lat": 38.89911333333333, "bike_id": "c7f46df0593ae4539b60203e4d97714e"}, {"lon": -77.0691075, "rental_uris": {"android": "https://dc.lft.to/lastmile_qr_scan", "ios": "https://dc.lft.to/lastmile_qr_scan"}, "fusion_lon": 0.0, "is_reserved": 0, "is_disabled": 0, "fusion_lat": 0.0, "type": "electric_bike", "name": "7ebc70827eb90ac61e6cd18700135c1b", "lat": 38.806804, "bike_id": "7ebc70827eb90ac61e6cd18700135c1b"}, {"lon": -77.02153016666666, "rental_uris": {"android": "https://dc.lft.to/lastmile_qr_scan", "ios": "https://dc.lft.to/lastmile_qr_scan"}, "fusion_lon": 0.0, "is_reserved": 0, "is_disabled": 0, "fusion_lat": 0.0, "type": "electric_scooter", "name": "54c3bab3f36f535a16b0939481fa4a2a", "lat": 38.926000333333334, "bike_id": "54c3bab3f36f535a16b0939481fa4a2a"}, {"lon": -76.93175016666666, "rental_uris": {"android": "https://dc.lft.to/lastmile_qr_scan", "ios": "https://dc.lft.to/lastmile_qr_scan"}, "fusion_lon": 0.0, "is_reserved": 0, "is_disabled": 0, "fusion_lat": 0.0, "type": "electric_scooter", "name": "f0ba7b5a2c1895819623cdf01b9759a1", "lat": 38.898856, "bike_id": "f0ba7b5a2c1895819623cdf01b9759a1"}, {"lon": -77.010124, "rental_uris": {"android": "https://dc.lft.to/lastmile_qr_scan", "ios": "https://dc.lft.to/lastmile_qr_scan"}, "fusion_lon": 0.0, "is_reserved": 0, "is_disabled": 0, "fusion_lat": 0.0, "type": "electric_scooter", "name": "20b449cf98856c544b0937c5e8f5c2ad", "lat": 38.91397716666667, "bike_id": "20b449cf98856c544b0937c5e8f5c2ad"}, {"lon": -77.03204366666667, "rental_uris": {"android": "https://dc.lft.to/lastmile_qr_scan", "ios": "https://dc.lft.to/lastmile_qr_scan"}, "fusion_lon": 0.0, "is_reserved": 0, "is_disabled": 0, "fusion_lat": 0.0, "type": "electric_scooter", "name": "d2803a74d384c85a39ca9e0b6e497803", "lat": 38.9163825, "bike_id": "d2803a74d384c85a39ca9e0b6e497803"}, {"lon": -77.04337683333334, "rental_uris": {"android": "https://dc.lft.to/lastmile_qr_scan", "ios": "https://dc.lft.to/lastmile_qr_scan"}, "fusion_lon": 0.0, "is_reserved": 0, "is_disabled": 0, "fusion_lat": 0.0, "type": "electric_scooter", "name": "46a4b0eb12e7456ce69be7c0e6b60d50", "lat": 38.903590333333334, "bike_id": "46a4b0eb12e7456ce69be7c0e6b60d50"}, {"lon": -77.02798583333333, "rental_uris": {"android": "https://dc.lft.to/lastmile_qr_scan", "ios": "https://dc.lft.to/lastmile_qr_scan"}, "fusion_lon": 0.0, "is_reserved": 0, "is_disabled": 0, "fusion_lat": 0.0, "type": "electric_scooter", "name": "1cce85b41000bf991256383e5fabd3f0", "lat": 38.944482, "bike_id": "1cce85b41000bf991256383e5fabd3f0"}, {"lon": -77.01889633333333, "rental_uris": {"android": "https://dc.lft.to/lastmile_qr_scan", "ios": "https://dc.lft.to/lastmile_qr_scan"}, "fusion_lon": 0.0, "is_reserved": 0, "is_disabled": 0, "fusion_lat": 0.0, "type": "electric_scooter", "name": "d941268972600ec8970e196898bd166c", "lat": 38.92275866666667, "bike_id": "d941268972600ec8970e196898bd166c"}, {"lon": -77.04243916666667, "rental_uris": {"android": "https://dc.lft.to/lastmile_qr_scan", "ios": "https://dc.lft.to/lastmile_qr_scan"}, "fusion_lon": 0.0, "is_reserved": 0, "is_disabled": 0, "fusion_lat": 0.0, "type": "electric_scooter", "name": "692c6218073ae637bc05ea45b55896e9", "lat": 38.92190866666667, "bike_id": "692c6218073ae637bc05ea45b55896e9"}, {"lon": -77.01998916666666, "rental_uris": {"android": "https://dc.lft.to/lastmile_qr_scan", "ios": "https://dc.lft.to/lastmile_qr_scan"}, "fusion_lon": 0.0, "is_reserved": 0, "is_disabled": 0, "fusion_lat": 0.0, "type": "electric_scooter", "name": "d254b19b48ccc4161ba51b4576571cd0", "lat": 38.9149715, "bike_id": "d254b19b48ccc4161ba51b4576571cd0"}, {"lon": -77.02376983333333, "rental_uris": {"android": "https://dc.lft.to/lastmile_qr_scan", "ios": "https://dc.lft.to/lastmile_qr_scan"}, "fusion_lon": 0.0, "is_reserved": 0, "is_disabled": 0, "fusion_lat": 0.0, "type": "electric_scooter", "name": "fb590e6faa14aaf84ef0d5abcd490cdf", "lat": 38.891958, "bike_id": "fb590e6faa14aaf84ef0d5abcd490cdf"}, {"lon": -76.984378, "rental_uris": {"android": "https://dc.lft.to/lastmile_qr_scan", "ios": "https://dc.lft.to/lastmile_qr_scan"}, "fusion_lon": 0.0, "is_reserved": 0, "is_disabled": 0, "fusion_lat": 0.0, "type": "electric_scooter", "name": "aff2c1f957d758424ab11608747ab247", "lat": 38.93276516666667, "bike_id": "aff2c1f957d758424ab11608747ab247"}, {"lon": -77.05266966666667, "rental_uris": {"android": "https://dc.lft.to/lastmile_qr_scan", "ios": "https://dc.lft.to/lastmile_qr_scan"}, "fusion_lon": 0.0, "is_reserved": 0, "is_disabled": 0, "fusion_lat": 0.0, "type": "electric_scooter", "name": "95a02e26878d4c058824fdc7950630cf", "lat": 38.927616, "bike_id": "95a02e26878d4c058824fdc7950630cf"}, {"lon": -76.9890915, "rental_uris": {"android": "https://dc.lft.to/lastmile_qr_scan", "ios": "https://dc.lft.to/lastmile_qr_scan"}, "fusion_lon": 0.0, "is_reserved": 0, "is_disabled": 0, "fusion_lat": 0.0, "type": "electric_scooter", "name": "ef4ffa4d0071dd65b1e7478b8326521d", "lat": 38.86107283333333, "bike_id": "ef4ffa4d0071dd65b1e7478b8326521d"}, {"lon": -77.02744666666666, "rental_uris": {"android": "https://dc.lft.to/lastmile_qr_scan", "ios": "https://dc.lft.to/lastmile_qr_scan"}, "fusion_lon": 0.0, "is_reserved": 0, "is_disabled": 0, "fusion_lat": 0.0, "type": "electric_scooter", "name": "35593ee3925895e99aeb5d784aa3b9ed", "lat": 38.966085666666665, "bike_id": "35593ee3925895e99aeb5d784aa3b9ed"}, {"lon": -77.07794633333333, "rental_uris": {"android": "https://dc.lft.to/lastmile_qr_scan", "ios": "https://dc.lft.to/lastmile_qr_scan"}, "fusion_lon": 0.0, "is_reserved": 0, "is_disabled": 0, "fusion_lat": 0.0, "type": "electric_bike", "name": "278e121180a1f727abc0ac80e9132a54", "lat": 38.94554516666667, "bike_id": "278e121180a1f727abc0ac80e9132a54"}, {"lon": -77.02973566666667, "rental_uris": {"android": "https://dc.lft.to/lastmile_qr_scan", "ios": "https://dc.lft.to/lastmile_qr_scan"}, "fusion_lon": 0.0, "is_reserved": 0, "is_disabled": 0, "fusion_lat": 0.0, "type": "electric_scooter", "name": "d636f7d8859a6e2a8b7f225e8097f174", "lat": 38.91112233333333, "bike_id": "d636f7d8859a6e2a8b7f225e8097f174"}, {"lon": -77.04202733333334, "rental_uris": {"android": "https://dc.lft.to/lastmile_qr_scan", "ios": "https://dc.lft.to/lastmile_qr_scan"}, "fusion_lon": 0.0, "is_reserved": 0, "is_disabled": 0, "fusion_lat": 0.0, "type": "electric_scooter", "name": "37fef1118d246fa95b49496ea565d662", "lat": 38.907340833333336, "bike_id": "37fef1118d246fa95b49496ea565d662"}, {"lon": -77.07230283333334, "rental_uris": {"android": "https://dc.lft.to/lastmile_qr_scan", "ios": "https://dc.lft.to/lastmile_qr_scan"}, "fusion_lon": 0.0, "is_reserved": 0, "is_disabled": 0, "fusion_lat": 0.0, "type": "electric_scooter", "name": "dcc2b6954d912cf7e43941e4643c2c25", "lat": 38.93845133333333, "bike_id": "dcc2b6954d912cf7e43941e4643c2c25"}, {"lon": -77.033176, "rental_uris": {"android": "https://dc.lft.to/lastmile_qr_scan", "ios": "https://dc.lft.to/lastmile_qr_scan"}, "fusion_lon": 0.0, "is_reserved": 0, "is_disabled": 0, "fusion_lat": 0.0, "type": "electric_scooter", "name": "caad47cfc8cd7a5916816550a14494d2", "lat": 38.887682, "bike_id": "caad47cfc8cd7a5916816550a14494d2"}, {"lon": -77.05742933333333, "rental_uris": {"android": "https://dc.lft.to/lastmile_qr_scan", "ios": "https://dc.lft.to/lastmile_qr_scan"}, "fusion_lon": 0.0, "is_reserved": 0, "is_disabled": 0, "fusion_lat": 0.0, "type": "electric_scooter", "name": "36fe1b20f7ed7c5a42b92508b51198de", "lat": 38.935400666666666, "bike_id": "36fe1b20f7ed7c5a42b92508b51198de"}, {"lon": -77.01310916666667, "rental_uris": {"android": "https://dc.lft.to/lastmile_qr_scan", "ios": "https://dc.lft.to/lastmile_qr_scan"}, "fusion_lon": 0.0, "is_reserved": 0, "is_disabled": 0, "fusion_lat": 0.0, "type": "electric_scooter", "name": "9e3c1139846298afcec0f71cebea5a90", "lat": 38.919711666666664, "bike_id": "9e3c1139846298afcec0f71cebea5a90"}, {"lon": -77.0045155, "rental_uris": {"android": "https://dc.lft.to/lastmile_qr_scan", "ios": "https://dc.lft.to/lastmile_qr_scan"}, "fusion_lon": 0.0, "is_reserved": 0, "is_disabled": 0, "fusion_lat": 0.0, "type": "electric_scooter", "name": "fa17e95f771d86ca585090b0baebee07", "lat": 38.837881833333334, "bike_id": "fa17e95f771d86ca585090b0baebee07"}, {"lon": -77.01850116666667, "rental_uris": {"android": "https://dc.lft.to/lastmile_qr_scan", "ios": "https://dc.lft.to/lastmile_qr_scan"}, "fusion_lon": 0.0, "is_reserved": 0, "is_disabled": 0, "fusion_lat": 0.0, "type": "electric_scooter", "name": "3aa94c0817dade131fa916acb6db195f", "lat": 38.948861666666666, "bike_id": "3aa94c0817dade131fa916acb6db195f"}, {"lon": -77.05010816666666, "rental_uris": {"android": "https://dc.lft.to/lastmile_qr_scan", "ios": "https://dc.lft.to/lastmile_qr_scan"}, "fusion_lon": 0.0, "is_reserved": 0, "is_disabled": 0, "fusion_lat": 0.0, "type": "electric_scooter", "name": "a8809f3374ff2a3ccc3c46099cb8e1b8", "lat": 38.923368333333336, "bike_id": "a8809f3374ff2a3ccc3c46099cb8e1b8"}, {"lon": -76.99225333333334, "rental_uris": {"android": "https://dc.lft.to/lastmile_qr_scan", "ios": "https://dc.lft.to/lastmile_qr_scan"}, "fusion_lon": 0.0, "is_reserved": 0, "is_disabled": 0, "fusion_lat": 0.0, "type": "electric_scooter", "name": "6ac0a0f58898ed55f9d464bfc3031a23", "lat": 38.8628885, "bike_id": "6ac0a0f58898ed55f9d464bfc3031a23"}, {"lon": -77.03861083333334, "rental_uris": {"android": "https://dc.lft.to/lastmile_qr_scan", "ios": "https://dc.lft.to/lastmile_qr_scan"}, "fusion_lon": 0.0, "is_reserved": 0, "is_disabled": 0, "fusion_lat": 0.0, "type": "electric_scooter", "name": "7d30b19c7fe7a295f787defd4612aa49", "lat": 38.902707666666664, "bike_id": "7d30b19c7fe7a295f787defd4612aa49"}, {"lon": -76.95543416666666, "rental_uris": {"android": "https://dc.lft.to/lastmile_qr_scan", "ios": "https://dc.lft.to/lastmile_qr_scan"}, "fusion_lon": 0.0, "is_reserved": 0, "is_disabled": 0, "fusion_lat": 0.0, "type": "electric_scooter", "name": "745662e7ac1f262b6af683e355927740", "lat": 38.92737783333333, "bike_id": "745662e7ac1f262b6af683e355927740"}, {"lon": -76.980781, "rental_uris": {"android": "https://dc.lft.to/lastmile_qr_scan", "ios": "https://dc.lft.to/lastmile_qr_scan"}, "fusion_lon": 0.0, "is_reserved": 0, "is_disabled": 0, "fusion_lat": 0.0, "type": "electric_scooter", "name": "2096a05a3a49506b529c423806813495", "lat": 38.866919, "bike_id": "2096a05a3a49506b529c423806813495"}, {"lon": -77.07907583333333, "rental_uris": {"android": "https://dc.lft.to/lastmile_qr_scan", "ios": "https://dc.lft.to/lastmile_qr_scan"}, "fusion_lon": 0.0, "is_reserved": 0, "is_disabled": 0, "fusion_lat": 0.0, "type": "electric_bike", "name": "7e1280ac9673898fd2dd3fe7493c114c", "lat": 38.848250666666665, "bike_id": "7e1280ac9673898fd2dd3fe7493c114c"}, {"lon": -77.05031683333333, "rental_uris": {"android": "https://dc.lft.to/lastmile_qr_scan", "ios": "https://dc.lft.to/lastmile_qr_scan"}, "fusion_lon": 0.0, "is_reserved": 0, "is_disabled": 0, "fusion_lat": 0.0, "type": "electric_scooter", "name": "cf94c75a76ad9c8c5e3373fc127f8caa", "lat": 38.898240666666666, "bike_id": "cf94c75a76ad9c8c5e3373fc127f8caa"}, {"lon": -77.021165, "rental_uris": {"android": "https://dc.lft.to/lastmile_qr_scan", "ios": "https://dc.lft.to/lastmile_qr_scan"}, "fusion_lon": 0.0, "is_reserved": 0, "is_disabled": 0, "fusion_lat": 0.0, "type": "electric_scooter", "name": "751d5a477749431571da3352cd75784d", "lat": 38.92358683333333, "bike_id": "751d5a477749431571da3352cd75784d"}, {"lon": -77.07271416666667, "rental_uris": {"android": "https://dc.lft.to/lastmile_qr_scan", "ios": "https://dc.lft.to/lastmile_qr_scan"}, "fusion_lon": 0.0, "is_reserved": 0, "is_disabled": 0, "fusion_lat": 0.0, "type": "electric_scooter", "name": "59e47b591db35e43c88c77df0c4fc866", "lat": 38.909132, "bike_id": "59e47b591db35e43c88c77df0c4fc866"}, {"lon": -77.03831083333333, "rental_uris": {"android": "https://dc.lft.to/lastmile_qr_scan", "ios": "https://dc.lft.to/lastmile_qr_scan"}, "fusion_lon": 0.0, "is_reserved": 0, "is_disabled": 0, "fusion_lat": 0.0, "type": "electric_scooter", "name": "5d53d2369c37d5b5d244824847711338", "lat": 38.907747, "bike_id": "5d53d2369c37d5b5d244824847711338"}, {"lon": -77.028633, "rental_uris": {"android": "https://dc.lft.to/lastmile_qr_scan", "ios": "https://dc.lft.to/lastmile_qr_scan"}, "fusion_lon": 0.0, "is_reserved": 0, "is_disabled": 0, "fusion_lat": 0.0, "type": "electric_scooter", "name": "060f40c956318090071165e4c8542e5f", "lat": 38.887404, "bike_id": "060f40c956318090071165e4c8542e5f"}, {"lon": -77.04532733333333, "rental_uris": {"android": "https://dc.lft.to/lastmile_qr_scan", "ios": "https://dc.lft.to/lastmile_qr_scan"}, "fusion_lon": 0.0, "is_reserved": 0, "is_disabled": 0, "fusion_lat": 0.0, "type": "electric_scooter", "name": "110d0744e6df0c1cf71dc88954fd3e96", "lat": 38.91411033333333, "bike_id": "110d0744e6df0c1cf71dc88954fd3e96"}, {"lon": -76.99575916666667, "rental_uris": {"android": "https://dc.lft.to/lastmile_qr_scan", "ios": "https://dc.lft.to/lastmile_qr_scan"}, "fusion_lon": 0.0, "is_reserved": 0, "is_disabled": 0, "fusion_lat": 0.0, "type": "electric_scooter", "name": "b2f2fd6c3782a6d719505a9c3974e0d6", "lat": 38.9204925, "bike_id": "b2f2fd6c3782a6d719505a9c3974e0d6"}, {"lon": -77.055612, "rental_uris": {"android": "https://dc.lft.to/lastmile_qr_scan", "ios": "https://dc.lft.to/lastmile_qr_scan"}, "fusion_lon": 0.0, "is_reserved": 0, "is_disabled": 0, "fusion_lat": 0.0, "type": "electric_scooter", "name": "1519d2eaa98394807fe686fd422d1378", "lat": 38.93030566666667, "bike_id": "1519d2eaa98394807fe686fd422d1378"}, {"lon": -77.006452, "rental_uris": {"android": "https://dc.lft.to/lastmile_qr_scan", "ios": "https://dc.lft.to/lastmile_qr_scan"}, "fusion_lon": 0.0, "is_reserved": 0, "is_disabled": 0, "fusion_lat": 0.0, "type": "electric_scooter", "name": "2cb846afd7db30e55eb3c04301896299", "lat": 38.876931166666665, "bike_id": "2cb846afd7db30e55eb3c04301896299"}, {"lon": -77.0167235, "rental_uris": {"android": "https://dc.lft.to/lastmile_qr_scan", "ios": "https://dc.lft.to/lastmile_qr_scan"}, "fusion_lon": 0.0, "is_reserved": 0, "is_disabled": 0, "fusion_lat": 0.0, "type": "electric_scooter", "name": "a133b6d3a3df38f6e195a97db2d7e936", "lat": 38.92041366666667, "bike_id": "a133b6d3a3df38f6e195a97db2d7e936"}, {"lon": -77.048693, "rental_uris": {"android": "https://dc.lft.to/lastmile_qr_scan", "ios": "https://dc.lft.to/lastmile_qr_scan"}, "fusion_lon": 0.0, "is_reserved": 0, "is_disabled": 0, "fusion_lat": 0.0, "type": "electric_scooter", "name": "5254438d655388faa33880cb3e9406e9", "lat": 38.900082, "bike_id": "5254438d655388faa33880cb3e9406e9"}, {"lon": -77.02235433333334, "rental_uris": {"android": "https://dc.lft.to/lastmile_qr_scan", "ios": "https://dc.lft.to/lastmile_qr_scan"}, "fusion_lon": 0.0, "is_reserved": 0, "is_disabled": 0, "fusion_lat": 0.0, "type": "electric_scooter", "name": "b1ecc151990cbdd08ee47093470f1d2b", "lat": 38.88764666666667, "bike_id": "b1ecc151990cbdd08ee47093470f1d2b"}, {"lon": -77.04538233333334, "rental_uris": {"android": "https://dc.lft.to/lastmile_qr_scan", "ios": "https://dc.lft.to/lastmile_qr_scan"}, "fusion_lon": 0.0, "is_reserved": 0, "is_disabled": 0, "fusion_lat": 0.0, "type": "electric_scooter", "name": "1a4490b4839497f77ab35fd8d194042c", "lat": 38.89952383333333, "bike_id": "1a4490b4839497f77ab35fd8d194042c"}, {"lon": -77.00318483333334, "rental_uris": {"android": "https://dc.lft.to/lastmile_qr_scan", "ios": "https://dc.lft.to/lastmile_qr_scan"}, "fusion_lon": 0.0, "is_reserved": 0, "is_disabled": 0, "fusion_lat": 0.0, "type": "electric_scooter", "name": "a953b7fde2567b18d617ba93395e6786", "lat": 38.912540666666665, "bike_id": "a953b7fde2567b18d617ba93395e6786"}, {"lon": -77.03192933333334, "rental_uris": {"android": "https://dc.lft.to/lastmile_qr_scan", "ios": "https://dc.lft.to/lastmile_qr_scan"}, "fusion_lon": 0.0, "is_reserved": 0, "is_disabled": 0, "fusion_lat": 0.0, "type": "electric_scooter", "name": "5167b1f38837c6bd06566af055c82b41", "lat": 38.9167915, "bike_id": "5167b1f38837c6bd06566af055c82b41"}, {"lon": -76.99380733333334, "rental_uris": {"android": "https://dc.lft.to/lastmile_qr_scan", "ios": "https://dc.lft.to/lastmile_qr_scan"}, "fusion_lon": 0.0, "is_reserved": 0, "is_disabled": 0, "fusion_lat": 0.0, "type": "electric_scooter", "name": "b102e70275c090a4f2ed1ebffca5750a", "lat": 38.8933865, "bike_id": "b102e70275c090a4f2ed1ebffca5750a"}, {"lon": -77.0060725, "rental_uris": {"android": "https://dc.lft.to/lastmile_qr_scan", "ios": "https://dc.lft.to/lastmile_qr_scan"}, "fusion_lon": 0.0, "is_reserved": 0, "is_disabled": 0, "fusion_lat": 0.0, "type": "electric_scooter", "name": "31a5f03a3fe63e4adcca56b20ef1d708", "lat": 38.911140333333336, "bike_id": "31a5f03a3fe63e4adcca56b20ef1d708"}, {"lon": -77.03207316666666, "rental_uris": {"android": "https://dc.lft.to/lastmile_qr_scan", "ios": "https://dc.lft.to/lastmile_qr_scan"}, "fusion_lon": 0.0, "is_reserved": 0, "is_disabled": 0, "fusion_lat": 0.0, "type": "electric_scooter", "name": "0bde6996a3e9f9eb3836c2736c4cab12", "lat": 38.9163305, "bike_id": "0bde6996a3e9f9eb3836c2736c4cab12"}, {"lon": -77.01948716666666, "rental_uris": {"android": "https://dc.lft.to/lastmile_qr_scan", "ios": "https://dc.lft.to/lastmile_qr_scan"}, "fusion_lon": 0.0, "is_reserved": 0, "is_disabled": 0, "fusion_lat": 0.0, "type": "electric_scooter", "name": "d98b27b9510cf19b067a5640b08b5295", "lat": 38.922467166666664, "bike_id": "d98b27b9510cf19b067a5640b08b5295"}, {"lon": -76.9906785, "rental_uris": {"android": "https://dc.lft.to/lastmile_qr_scan", "ios": "https://dc.lft.to/lastmile_qr_scan"}, "fusion_lon": 0.0, "is_reserved": 0, "is_disabled": 0, "fusion_lat": 0.0, "type": "electric_bike", "name": "ecc070938c2d83e66330635a86f4a704", "lat": 38.898094666666665, "bike_id": "ecc070938c2d83e66330635a86f4a704"}, {"lon": -77.041085, "rental_uris": {"android": "https://dc.lft.to/lastmile_qr_scan", "ios": "https://dc.lft.to/lastmile_qr_scan"}, "fusion_lon": 0.0, "is_reserved": 0, "is_disabled": 0, "fusion_lat": 0.0, "type": "electric_scooter", "name": "583d1d71c2f77593c3b5d1712fefb270", "lat": 38.898176166666666, "bike_id": "583d1d71c2f77593c3b5d1712fefb270"}, {"lon": -77.00273583333333, "rental_uris": {"android": "https://dc.lft.to/lastmile_qr_scan", "ios": "https://dc.lft.to/lastmile_qr_scan"}, "fusion_lon": 0.0, "is_reserved": 0, "is_disabled": 0, "fusion_lat": 0.0, "type": "electric_scooter", "name": "e26b278870f8d8d475df2c72a317555d", "lat": 38.95234333333333, "bike_id": "e26b278870f8d8d475df2c72a317555d"}, {"lon": -77.038399, "rental_uris": {"android": "https://dc.lft.to/lastmile_qr_scan", "ios": "https://dc.lft.to/lastmile_qr_scan"}, "fusion_lon": 0.0, "is_reserved": 0, "is_disabled": 0, "fusion_lat": 0.0, "type": "electric_scooter", "name": "5d0b61685060b7a68a44e6665b0d11b6", "lat": 38.90324566666666, "bike_id": "5d0b61685060b7a68a44e6665b0d11b6"}, {"lon": -77.04339233333333, "rental_uris": {"android": "https://dc.lft.to/lastmile_qr_scan", "ios": "https://dc.lft.to/lastmile_qr_scan"}, "fusion_lon": 0.0, "is_reserved": 0, "is_disabled": 0, "fusion_lat": 0.0, "type": "electric_scooter", "name": "fad159e100851b3d593dcfa26eea4c68", "lat": 38.9023015, "bike_id": "fad159e100851b3d593dcfa26eea4c68"}, {"lon": -77.03502783333333, "rental_uris": {"android": "https://dc.lft.to/lastmile_qr_scan", "ios": "https://dc.lft.to/lastmile_qr_scan"}, "fusion_lon": 0.0, "is_reserved": 0, "is_disabled": 0, "fusion_lat": 0.0, "type": "electric_scooter", "name": "ceb9157b92a93142ecdee352b885d797", "lat": 38.92624333333333, "bike_id": "ceb9157b92a93142ecdee352b885d797"}, {"lon": -77.03663983333334, "rental_uris": {"android": "https://dc.lft.to/lastmile_qr_scan", "ios": "https://dc.lft.to/lastmile_qr_scan"}, "fusion_lon": 0.0, "is_reserved": 0, "is_disabled": 0, "fusion_lat": 0.0, "type": "electric_scooter", "name": "2e9853b81b3d6aae6bd0950f6c3d99b3", "lat": 38.909159, "bike_id": "2e9853b81b3d6aae6bd0950f6c3d99b3"}, {"lon": -77.043509, "rental_uris": {"android": "https://dc.lft.to/lastmile_qr_scan", "ios": "https://dc.lft.to/lastmile_qr_scan"}, "fusion_lon": 0.0, "is_reserved": 0, "is_disabled": 0, "fusion_lat": 0.0, "type": "electric_scooter", "name": "79fa8290dcd366e353591760a6583c86", "lat": 38.92178716666667, "bike_id": "79fa8290dcd366e353591760a6583c86"}, {"lon": -77.035746, "rental_uris": {"android": "https://dc.lft.to/lastmile_qr_scan", "ios": "https://dc.lft.to/lastmile_qr_scan"}, "fusion_lon": 0.0, "is_reserved": 0, "is_disabled": 0, "fusion_lat": 0.0, "type": "electric_bike", "name": "f69b2df646ddbe04f448efd13fd007a4", "lat": 38.9646475, "bike_id": "f69b2df646ddbe04f448efd13fd007a4"}, {"lon": -77.02219483333333, "rental_uris": {"android": "https://dc.lft.to/lastmile_qr_scan", "ios": "https://dc.lft.to/lastmile_qr_scan"}, "fusion_lon": 0.0, "is_reserved": 0, "is_disabled": 0, "fusion_lat": 0.0, "type": "electric_scooter", "name": "b2d0ca557693b336781083e0c01a0057", "lat": 38.92069683333333, "bike_id": "b2d0ca557693b336781083e0c01a0057"}, {"lon": -77.02142316666666, "rental_uris": {"android": "https://dc.lft.to/lastmile_qr_scan", "ios": "https://dc.lft.to/lastmile_qr_scan"}, "fusion_lon": 0.0, "is_reserved": 0, "is_disabled": 0, "fusion_lat": 0.0, "type": "electric_scooter", "name": "9319da54bf73fd538a4d5ccddab08f41", "lat": 38.92440083333334, "bike_id": "9319da54bf73fd538a4d5ccddab08f41"}, {"lon": -77.0236795, "rental_uris": {"android": "https://dc.lft.to/lastmile_qr_scan", "ios": "https://dc.lft.to/lastmile_qr_scan"}, "fusion_lon": 0.0, "is_reserved": 0, "is_disabled": 0, "fusion_lat": 0.0, "type": "electric_scooter", "name": "14c50808a7bffd25688494e90883cc91", "lat": 38.8792855, "bike_id": "14c50808a7bffd25688494e90883cc91"}, {"lon": -77.0489195, "rental_uris": {"android": "https://dc.lft.to/lastmile_qr_scan", "ios": "https://dc.lft.to/lastmile_qr_scan"}, "fusion_lon": 0.0, "is_reserved": 0, "is_disabled": 0, "fusion_lat": 0.0, "type": "electric_scooter", "name": "72127ebf5ca85408b0321118e41e49bc", "lat": 38.89228466666667, "bike_id": "72127ebf5ca85408b0321118e41e49bc"}, {"lon": -77.028235, "rental_uris": {"android": "https://dc.lft.to/lastmile_qr_scan", "ios": "https://dc.lft.to/lastmile_qr_scan"}, "fusion_lon": 0.0, "is_reserved": 0, "is_disabled": 0, "fusion_lat": 0.0, "type": "electric_scooter", "name": "d2576b1149ade5f603fee5bdf842e752", "lat": 38.9223985, "bike_id": "d2576b1149ade5f603fee5bdf842e752"}, {"lon": -77.03659516666667, "rental_uris": {"android": "https://dc.lft.to/lastmile_qr_scan", "ios": "https://dc.lft.to/lastmile_qr_scan"}, "fusion_lon": 0.0, "is_reserved": 0, "is_disabled": 0, "fusion_lat": 0.0, "type": "electric_scooter", "name": "3fb0a5fbf1dda8cb1f36a32de9c2b869", "lat": 38.91131983333333, "bike_id": "3fb0a5fbf1dda8cb1f36a32de9c2b869"}, {"lon": -76.98723566666666, "rental_uris": {"android": "https://dc.lft.to/lastmile_qr_scan", "ios": "https://dc.lft.to/lastmile_qr_scan"}, "fusion_lon": 0.0, "is_reserved": 0, "is_disabled": 0, "fusion_lat": 0.0, "type": "electric_bike", "name": "9890603011f267f08cc74fca1e0b8e6a", "lat": 38.8632865, "bike_id": "9890603011f267f08cc74fca1e0b8e6a"}, {"lon": -77.072749, "rental_uris": {"android": "https://dc.lft.to/lastmile_qr_scan", "ios": "https://dc.lft.to/lastmile_qr_scan"}, "fusion_lon": 0.0, "is_reserved": 0, "is_disabled": 0, "fusion_lat": 0.0, "type": "electric_scooter", "name": "d0bd48eb5c9644ac422e50c23bc6f18a", "lat": 38.909220166666664, "bike_id": "d0bd48eb5c9644ac422e50c23bc6f18a"}, {"lon": -77.0338865, "rental_uris": {"android": "https://dc.lft.to/lastmile_qr_scan", "ios": "https://dc.lft.to/lastmile_qr_scan"}, "fusion_lon": 0.0, "is_reserved": 0, "is_disabled": 0, "fusion_lat": 0.0, "type": "electric_scooter", "name": "abc4aa8c7a72bf447d07edfaefde2df8", "lat": 38.938492, "bike_id": "abc4aa8c7a72bf447d07edfaefde2df8"}, {"lon": -77.23674933333334, "rental_uris": {"android": "https://dc.lft.to/lastmile_qr_scan", "ios": "https://dc.lft.to/lastmile_qr_scan"}, "fusion_lon": 0.0, "is_reserved": 0, "is_disabled": 0, "fusion_lat": 0.0, "type": "electric_bike", "name": "5a758a23280cf11a87c4632b30a9c086", "lat": 38.92110133333333, "bike_id": "5a758a23280cf11a87c4632b30a9c086"}, {"lon": -77.00345966666667, "rental_uris": {"android": "https://dc.lft.to/lastmile_qr_scan", "ios": "https://dc.lft.to/lastmile_qr_scan"}, "fusion_lon": 0.0, "is_reserved": 0, "is_disabled": 0, "fusion_lat": 0.0, "type": "electric_scooter", "name": "e0a4bea40821c85cb87fd3fd6b40a72c", "lat": 38.8765875, "bike_id": "e0a4bea40821c85cb87fd3fd6b40a72c"}, {"lon": -77.05321016666667, "rental_uris": {"android": "https://dc.lft.to/lastmile_qr_scan", "ios": "https://dc.lft.to/lastmile_qr_scan"}, "fusion_lon": 0.0, "is_reserved": 0, "is_disabled": 0, "fusion_lat": 0.0, "type": "electric_scooter", "name": "28d757201951ce1037e949055b7069fe", "lat": 38.90266116666667, "bike_id": "28d757201951ce1037e949055b7069fe"}, {"lon": -77.02484783333334, "rental_uris": {"android": "https://dc.lft.to/lastmile_qr_scan", "ios": "https://dc.lft.to/lastmile_qr_scan"}, "fusion_lon": 0.0, "is_reserved": 0, "is_disabled": 0, "fusion_lat": 0.0, "type": "electric_scooter", "name": "83b874f569ebb4d5f2d207e0c4d6b087", "lat": 38.930957166666666, "bike_id": "83b874f569ebb4d5f2d207e0c4d6b087"}, {"lon": -77.03808533333333, "rental_uris": {"android": "https://dc.lft.to/lastmile_qr_scan", "ios": "https://dc.lft.to/lastmile_qr_scan"}, "fusion_lon": 0.0, "is_reserved": 0, "is_disabled": 0, "fusion_lat": 0.0, "type": "electric_scooter", "name": "56538b207db30c3e723169ec141d4b8a", "lat": 38.91559316666667, "bike_id": "56538b207db30c3e723169ec141d4b8a"}, {"lon": -77.00698166666666, "rental_uris": {"android": "https://dc.lft.to/lastmile_qr_scan", "ios": "https://dc.lft.to/lastmile_qr_scan"}, "fusion_lon": 0.0, "is_reserved": 0, "is_disabled": 0, "fusion_lat": 0.0, "type": "electric_scooter", "name": "3ae6d6256ddaf047f213a851a6a7b9c9", "lat": 38.91546133333333, "bike_id": "3ae6d6256ddaf047f213a851a6a7b9c9"}, {"lon": -77.0183645, "rental_uris": {"android": "https://dc.lft.to/lastmile_qr_scan", "ios": "https://dc.lft.to/lastmile_qr_scan"}, "fusion_lon": 0.0, "is_reserved": 0, "is_disabled": 0, "fusion_lat": 0.0, "type": "electric_scooter", "name": "b50d854b3a01d87aa6a0227efd155e8f", "lat": 38.92269866666667, "bike_id": "b50d854b3a01d87aa6a0227efd155e8f"}, {"lon": -77.043681, "rental_uris": {"android": "https://dc.lft.to/lastmile_qr_scan", "ios": "https://dc.lft.to/lastmile_qr_scan"}, "fusion_lon": 0.0, "is_reserved": 0, "is_disabled": 0, "fusion_lat": 0.0, "type": "electric_scooter", "name": "600a50d4eeb5d610961b8deee1942bcb", "lat": 38.900285833333335, "bike_id": "600a50d4eeb5d610961b8deee1942bcb"}, {"lon": -77.0312015, "rental_uris": {"android": "https://dc.lft.to/lastmile_qr_scan", "ios": "https://dc.lft.to/lastmile_qr_scan"}, "fusion_lon": 0.0, "is_reserved": 0, "is_disabled": 0, "fusion_lat": 0.0, "type": "electric_scooter", "name": "9a8479a57e753df7fb7df8ee67513f7e", "lat": 38.920179166666664, "bike_id": "9a8479a57e753df7fb7df8ee67513f7e"}, {"lon": -77.0282055, "rental_uris": {"android": "https://dc.lft.to/lastmile_qr_scan", "ios": "https://dc.lft.to/lastmile_qr_scan"}, "fusion_lon": 0.0, "is_reserved": 0, "is_disabled": 0, "fusion_lat": 0.0, "type": "electric_scooter", "name": "8f83c476ee08d61915cd0415a1ac9dea", "lat": 38.92757366666667, "bike_id": "8f83c476ee08d61915cd0415a1ac9dea"}, {"lon": -77.02984083333334, "rental_uris": {"android": "https://dc.lft.to/lastmile_qr_scan", "ios": "https://dc.lft.to/lastmile_qr_scan"}, "fusion_lon": 0.0, "is_reserved": 0, "is_disabled": 0, "fusion_lat": 0.0, "type": "electric_scooter", "name": "e4c6608238a6562642914ccfd65a543a", "lat": 38.931393166666666, "bike_id": "e4c6608238a6562642914ccfd65a543a"}, {"lon": -77.03419616666666, "rental_uris": {"android": "https://dc.lft.to/lastmile_qr_scan", "ios": "https://dc.lft.to/lastmile_qr_scan"}, "fusion_lon": 0.0, "is_reserved": 0, "is_disabled": 0, "fusion_lat": 0.0, "type": "electric_scooter", "name": "6b028b25ab8d234d8eadf4c68648650b", "lat": 38.90277916666667, "bike_id": "6b028b25ab8d234d8eadf4c68648650b"}, {"lon": -77.04860783333334, "rental_uris": {"android": "https://dc.lft.to/lastmile_qr_scan", "ios": "https://dc.lft.to/lastmile_qr_scan"}, "fusion_lon": 0.0, "is_reserved": 0, "is_disabled": 0, "fusion_lat": 0.0, "type": "electric_scooter", "name": "d9292ec2426b779f5da221c56c7603eb", "lat": 38.900430666666665, "bike_id": "d9292ec2426b779f5da221c56c7603eb"}, {"lon": -77.04056233333333, "rental_uris": {"android": "https://dc.lft.to/lastmile_qr_scan", "ios": "https://dc.lft.to/lastmile_qr_scan"}, "fusion_lon": 0.0, "is_reserved": 0, "is_disabled": 0, "fusion_lat": 0.0, "type": "electric_scooter", "name": "304da34eaadebb0e2fea119556f16a0b", "lat": 38.927929, "bike_id": "304da34eaadebb0e2fea119556f16a0b"}, {"lon": -77.02181466666667, "rental_uris": {"android": "https://dc.lft.to/lastmile_qr_scan", "ios": "https://dc.lft.to/lastmile_qr_scan"}, "fusion_lon": 0.0, "is_reserved": 0, "is_disabled": 0, "fusion_lat": 0.0, "type": "electric_scooter", "name": "ee984e6f59141fe190746959265aeb04", "lat": 38.89353783333333, "bike_id": "ee984e6f59141fe190746959265aeb04"}, {"lon": -76.98358716666667, "rental_uris": {"android": "https://dc.lft.to/lastmile_qr_scan", "ios": "https://dc.lft.to/lastmile_qr_scan"}, "fusion_lon": 0.0, "is_reserved": 0, "is_disabled": 0, "fusion_lat": 0.0, "type": "electric_scooter", "name": "389f789125dcf579c47fe2095edec068", "lat": 38.88990183333333, "bike_id": "389f789125dcf579c47fe2095edec068"}, {"lon": -76.9461365, "rental_uris": {"android": "https://dc.lft.to/lastmile_qr_scan", "ios": "https://dc.lft.to/lastmile_qr_scan"}, "fusion_lon": 0.0, "is_reserved": 0, "is_disabled": 0, "fusion_lat": 0.0, "type": "electric_scooter", "name": "a9ca44f907b1d157480d6b9c137b1c96", "lat": 38.898270333333336, "bike_id": "a9ca44f907b1d157480d6b9c137b1c96"}, {"lon": -77.025198, "rental_uris": {"android": "https://dc.lft.to/lastmile_qr_scan", "ios": "https://dc.lft.to/lastmile_qr_scan"}, "fusion_lon": 0.0, "is_reserved": 0, "is_disabled": 0, "fusion_lat": 0.0, "type": "electric_scooter", "name": "1c87d5dd663eff353334a10941b1b802", "lat": 38.9298345, "bike_id": "1c87d5dd663eff353334a10941b1b802"}, {"lon": -77.00599216666667, "rental_uris": {"android": "https://dc.lft.to/lastmile_qr_scan", "ios": "https://dc.lft.to/lastmile_qr_scan"}, "fusion_lon": 0.0, "is_reserved": 0, "is_disabled": 0, "fusion_lat": 0.0, "type": "electric_scooter", "name": "74954f727f96e635b0ce7d479ec6a94e", "lat": 38.875704, "bike_id": "74954f727f96e635b0ce7d479ec6a94e"}, {"lon": -77.03225283333333, "rental_uris": {"android": "https://dc.lft.to/lastmile_qr_scan", "ios": "https://dc.lft.to/lastmile_qr_scan"}, "fusion_lon": 0.0, "is_reserved": 0, "is_disabled": 0, "fusion_lat": 0.0, "type": "electric_scooter", "name": "ac480ecb775d4167b83647e0decc4f30", "lat": 38.901534833333336, "bike_id": "ac480ecb775d4167b83647e0decc4f30"}, {"lon": -77.04532883333333, "rental_uris": {"android": "https://dc.lft.to/lastmile_qr_scan", "ios": "https://dc.lft.to/lastmile_qr_scan"}, "fusion_lon": 0.0, "is_reserved": 0, "is_disabled": 0, "fusion_lat": 0.0, "type": "electric_scooter", "name": "29a3a78b64f8bf63801c80247b766ddc", "lat": 38.91323883333333, "bike_id": "29a3a78b64f8bf63801c80247b766ddc"}, {"lon": -77.04621183333333, "rental_uris": {"android": "https://dc.lft.to/lastmile_qr_scan", "ios": "https://dc.lft.to/lastmile_qr_scan"}, "fusion_lon": 0.0, "is_reserved": 0, "is_disabled": 0, "fusion_lat": 0.0, "type": "electric_scooter", "name": "bbc2f01c64e6608b28beb4493fd95758", "lat": 38.903897666666666, "bike_id": "bbc2f01c64e6608b28beb4493fd95758"}, {"lon": -77.00389333333334, "rental_uris": {"android": "https://dc.lft.to/lastmile_qr_scan", "ios": "https://dc.lft.to/lastmile_qr_scan"}, "fusion_lon": 0.0, "is_reserved": 0, "is_disabled": 0, "fusion_lat": 0.0, "type": "electric_scooter", "name": "d29fda54b3c6667be4d3db466cd7172d", "lat": 38.900038333333335, "bike_id": "d29fda54b3c6667be4d3db466cd7172d"}, {"lon": -77.01945583333334, "rental_uris": {"android": "https://dc.lft.to/lastmile_qr_scan", "ios": "https://dc.lft.to/lastmile_qr_scan"}, "fusion_lon": 0.0, "is_reserved": 0, "is_disabled": 0, "fusion_lat": 0.0, "type": "electric_scooter", "name": "67aa6f7e735768150be0cf9033e28850", "lat": 38.92267183333333, "bike_id": "67aa6f7e735768150be0cf9033e28850"}, {"lon": -77.035698, "rental_uris": {"android": "https://dc.lft.to/lastmile_qr_scan", "ios": "https://dc.lft.to/lastmile_qr_scan"}, "fusion_lon": 0.0, "is_reserved": 0, "is_disabled": 0, "fusion_lat": 0.0, "type": "electric_scooter", "name": "21159ce22bdcc7b6b670d72eaade0ab2", "lat": 38.90836016666667, "bike_id": "21159ce22bdcc7b6b670d72eaade0ab2"}, {"lon": -77.061587, "rental_uris": {"android": "https://dc.lft.to/lastmile_qr_scan", "ios": "https://dc.lft.to/lastmile_qr_scan"}, "fusion_lon": 0.0, "is_reserved": 0, "is_disabled": 0, "fusion_lat": 0.0, "type": "electric_scooter", "name": "3ab72e4320f731db78ef5a85cf52be10", "lat": 38.943320666666665, "bike_id": "3ab72e4320f731db78ef5a85cf52be10"}, {"lon": -77.00220716666666, "rental_uris": {"android": "https://dc.lft.to/lastmile_qr_scan", "ios": "https://dc.lft.to/lastmile_qr_scan"}, "fusion_lon": 0.0, "is_reserved": 0, "is_disabled": 0, "fusion_lat": 0.0, "type": "electric_scooter", "name": "ec849bd5dc20b5055bfa05a104ec4824", "lat": 38.900319833333334, "bike_id": "ec849bd5dc20b5055bfa05a104ec4824"}, {"lon": -77.0053605, "rental_uris": {"android": "https://dc.lft.to/lastmile_qr_scan", "ios": "https://dc.lft.to/lastmile_qr_scan"}, "fusion_lon": 0.0, "is_reserved": 0, "is_disabled": 0, "fusion_lat": 0.0, "type": "electric_scooter", "name": "40b6ce7a5fb3e808a7e58deabda2045b", "lat": 38.875448, "bike_id": "40b6ce7a5fb3e808a7e58deabda2045b"}, {"lon": -77.03144433333334, "rental_uris": {"android": "https://dc.lft.to/lastmile_qr_scan", "ios": "https://dc.lft.to/lastmile_qr_scan"}, "fusion_lon": 0.0, "is_reserved": 0, "is_disabled": 0, "fusion_lat": 0.0, "type": "electric_scooter", "name": "c509adee31021253e85d80efb7f6859a", "lat": 38.90246616666667, "bike_id": "c509adee31021253e85d80efb7f6859a"}, {"lon": -77.021831, "rental_uris": {"android": "https://dc.lft.to/lastmile_qr_scan", "ios": "https://dc.lft.to/lastmile_qr_scan"}, "fusion_lon": 0.0, "is_reserved": 0, "is_disabled": 0, "fusion_lat": 0.0, "type": "electric_bike", "name": "fea4960967d40438dfc82085f274ae6c", "lat": 39.00479083333333, "bike_id": "fea4960967d40438dfc82085f274ae6c"}, {"lon": -77.04026616666667, "rental_uris": {"android": "https://dc.lft.to/lastmile_qr_scan", "ios": "https://dc.lft.to/lastmile_qr_scan"}, "fusion_lon": 0.0, "is_reserved": 0, "is_disabled": 0, "fusion_lat": 0.0, "type": "electric_scooter", "name": "2290891abcd7f6766ecf52035b7e0d7b", "lat": 38.903676, "bike_id": "2290891abcd7f6766ecf52035b7e0d7b"}, {"lon": -77.04026366666666, "rental_uris": {"android": "https://dc.lft.to/lastmile_qr_scan", "ios": "https://dc.lft.to/lastmile_qr_scan"}, "fusion_lon": 0.0, "is_reserved": 0, "is_disabled": 0, "fusion_lat": 0.0, "type": "electric_scooter", "name": "289769a4ecf21f6a5414edfc280d2117", "lat": 38.90145366666667, "bike_id": "289769a4ecf21f6a5414edfc280d2117"}, {"lon": -76.96505083333334, "rental_uris": {"android": "https://dc.lft.to/lastmile_qr_scan", "ios": "https://dc.lft.to/lastmile_qr_scan"}, "fusion_lon": 0.0, "is_reserved": 0, "is_disabled": 0, "fusion_lat": 0.0, "type": "electric_scooter", "name": "5fd00b79228bc11c10e1db5f027e700f", "lat": 38.87647616666667, "bike_id": "5fd00b79228bc11c10e1db5f027e700f"}, {"lon": -77.05129183333334, "rental_uris": {"android": "https://dc.lft.to/lastmile_qr_scan", "ios": "https://dc.lft.to/lastmile_qr_scan"}, "fusion_lon": 0.0, "is_reserved": 0, "is_disabled": 0, "fusion_lat": 0.0, "type": "electric_scooter", "name": "2df25babf1556da11156852e821783d5", "lat": 38.906424, "bike_id": "2df25babf1556da11156852e821783d5"}, {"lon": -77.05379133333334, "rental_uris": {"android": "https://dc.lft.to/lastmile_qr_scan", "ios": "https://dc.lft.to/lastmile_qr_scan"}, "fusion_lon": 0.0, "is_reserved": 0, "is_disabled": 0, "fusion_lat": 0.0, "type": "electric_scooter", "name": "3356a3427c5651fe2477482dea4909c0", "lat": 38.927325, "bike_id": "3356a3427c5651fe2477482dea4909c0"}, {"lon": -77.037975, "rental_uris": {"android": "https://dc.lft.to/lastmile_qr_scan", "ios": "https://dc.lft.to/lastmile_qr_scan"}, "fusion_lon": 0.0, "is_reserved": 0, "is_disabled": 0, "fusion_lat": 0.0, "type": "electric_scooter", "name": "c388e9e0b7bb9a07cdae70c7ce1a3d46", "lat": 38.90652, "bike_id": "c388e9e0b7bb9a07cdae70c7ce1a3d46"}, {"lon": -77.04675033333334, "rental_uris": {"android": "https://dc.lft.to/lastmile_qr_scan", "ios": "https://dc.lft.to/lastmile_qr_scan"}, "fusion_lon": 0.0, "is_reserved": 0, "is_disabled": 0, "fusion_lat": 0.0, "type": "electric_scooter", "name": "3e4b51844f2507a5bf0ba520e1d306ff", "lat": 38.895027, "bike_id": "3e4b51844f2507a5bf0ba520e1d306ff"}, {"lon": -77.03174933333334, "rental_uris": {"android": "https://dc.lft.to/lastmile_qr_scan", "ios": "https://dc.lft.to/lastmile_qr_scan"}, "fusion_lon": 0.0, "is_reserved": 0, "is_disabled": 0, "fusion_lat": 0.0, "type": "electric_scooter", "name": "2c7c684534f9ef5d6ecfbbf5beed7cdc", "lat": 38.892136, "bike_id": "2c7c684534f9ef5d6ecfbbf5beed7cdc"}, {"lon": -76.97521566666667, "rental_uris": {"android": "https://dc.lft.to/lastmile_qr_scan", "ios": "https://dc.lft.to/lastmile_qr_scan"}, "fusion_lon": 0.0, "is_reserved": 0, "is_disabled": 0, "fusion_lat": 0.0, "type": "electric_bike", "name": "322148e618b99eacb681d84bd557a90b", "lat": 38.84003466666667, "bike_id": "322148e618b99eacb681d84bd557a90b"}, {"lon": -77.03639133333333, "rental_uris": {"android": "https://dc.lft.to/lastmile_qr_scan", "ios": "https://dc.lft.to/lastmile_qr_scan"}, "fusion_lon": 0.0, "is_reserved": 0, "is_disabled": 0, "fusion_lat": 0.0, "type": "electric_scooter", "name": "db668fb3f530fa8291d4cc47bcd6e92e", "lat": 38.91294633333333, "bike_id": "db668fb3f530fa8291d4cc47bcd6e92e"}, {"lon": -77.02708616666666, "rental_uris": {"android": "https://dc.lft.to/lastmile_qr_scan", "ios": "https://dc.lft.to/lastmile_qr_scan"}, "fusion_lon": 0.0, "is_reserved": 0, "is_disabled": 0, "fusion_lat": 0.0, "type": "electric_scooter", "name": "52d8ff18b40dc88b09bf12d11f8498d2", "lat": 38.9240305, "bike_id": "52d8ff18b40dc88b09bf12d11f8498d2"}, {"lon": -77.02823516666666, "rental_uris": {"android": "https://dc.lft.to/lastmile_qr_scan", "ios": "https://dc.lft.to/lastmile_qr_scan"}, "fusion_lon": 0.0, "is_reserved": 0, "is_disabled": 0, "fusion_lat": 0.0, "type": "electric_scooter", "name": "508b13eb6dc06ebb53601b1f677d4d05", "lat": 38.8949035, "bike_id": "508b13eb6dc06ebb53601b1f677d4d05"}, {"lon": -77.03805483333333, "rental_uris": {"android": "https://dc.lft.to/lastmile_qr_scan", "ios": "https://dc.lft.to/lastmile_qr_scan"}, "fusion_lon": 0.0, "is_reserved": 0, "is_disabled": 0, "fusion_lat": 0.0, "type": "electric_scooter", "name": "b92394418bf2ab3ebe346eb35e90f010", "lat": 38.90680483333333, "bike_id": "b92394418bf2ab3ebe346eb35e90f010"}, {"lon": -77.02592916666667, "rental_uris": {"android": "https://dc.lft.to/lastmile_qr_scan", "ios": "https://dc.lft.to/lastmile_qr_scan"}, "fusion_lon": 0.0, "is_reserved": 0, "is_disabled": 0, "fusion_lat": 0.0, "type": "electric_scooter", "name": "53ff2074c2cf6dd0a7043c5182b77a2a", "lat": 38.898571833333335, "bike_id": "53ff2074c2cf6dd0a7043c5182b77a2a"}, {"lon": -77.03159416666666, "rental_uris": {"android": "https://dc.lft.to/lastmile_qr_scan", "ios": "https://dc.lft.to/lastmile_qr_scan"}, "fusion_lon": 0.0, "is_reserved": 0, "is_disabled": 0, "fusion_lat": 0.0, "type": "electric_scooter", "name": "b27619d4c04a0a7f108846a874223c01", "lat": 38.912600166666664, "bike_id": "b27619d4c04a0a7f108846a874223c01"}, {"lon": -77.04607083333333, "rental_uris": {"android": "https://dc.lft.to/lastmile_qr_scan", "ios": "https://dc.lft.to/lastmile_qr_scan"}, "fusion_lon": 0.0, "is_reserved": 0, "is_disabled": 0, "fusion_lat": 0.0, "type": "electric_scooter", "name": "6c9fe4ed966e680ed2062a7c5a56f3b8", "lat": 38.902333166666665, "bike_id": "6c9fe4ed966e680ed2062a7c5a56f3b8"}, {"lon": -77.02707883333333, "rental_uris": {"android": "https://dc.lft.to/lastmile_qr_scan", "ios": "https://dc.lft.to/lastmile_qr_scan"}, "fusion_lon": 0.0, "is_reserved": 0, "is_disabled": 0, "fusion_lat": 0.0, "type": "electric_scooter", "name": "90b54950c7977f2f5c3847c80f394450", "lat": 38.91685733333333, "bike_id": "90b54950c7977f2f5c3847c80f394450"}, {"lon": -77.04824566666667, "rental_uris": {"android": "https://dc.lft.to/lastmile_qr_scan", "ios": "https://dc.lft.to/lastmile_qr_scan"}, "fusion_lon": 0.0, "is_reserved": 0, "is_disabled": 0, "fusion_lat": 0.0, "type": "electric_scooter", "name": "b3529b254d0d6da336d987273b719a96", "lat": 38.92104116666667, "bike_id": "b3529b254d0d6da336d987273b719a96"}, {"lon": -77.03820816666666, "rental_uris": {"android": "https://dc.lft.to/lastmile_qr_scan", "ios": "https://dc.lft.to/lastmile_qr_scan"}, "fusion_lon": 0.0, "is_reserved": 0, "is_disabled": 0, "fusion_lat": 0.0, "type": "electric_scooter", "name": "5565e6d5f307fb3f188ec2ccbab1049c", "lat": 38.92167633333333, "bike_id": "5565e6d5f307fb3f188ec2ccbab1049c"}, {"lon": -77.01221083333333, "rental_uris": {"android": "https://dc.lft.to/lastmile_qr_scan", "ios": "https://dc.lft.to/lastmile_qr_scan"}, "fusion_lon": 0.0, "is_reserved": 0, "is_disabled": 0, "fusion_lat": 0.0, "type": "electric_scooter", "name": "56dffedf90f1c7620214cd587aad4a7f", "lat": 38.9153215, "bike_id": "56dffedf90f1c7620214cd587aad4a7f"}, {"lon": -77.04116283333333, "rental_uris": {"android": "https://dc.lft.to/lastmile_qr_scan", "ios": "https://dc.lft.to/lastmile_qr_scan"}, "fusion_lon": 0.0, "is_reserved": 0, "is_disabled": 0, "fusion_lat": 0.0, "type": "electric_scooter", "name": "f45822d73ae2ddcd1adde85997312530", "lat": 38.923561666666664, "bike_id": "f45822d73ae2ddcd1adde85997312530"}, {"lon": -77.01967733333333, "rental_uris": {"android": "https://dc.lft.to/lastmile_qr_scan", "ios": "https://dc.lft.to/lastmile_qr_scan"}, "fusion_lon": 0.0, "is_reserved": 0, "is_disabled": 0, "fusion_lat": 0.0, "type": "electric_bike", "name": "ce90872198a6977b31c8612f15b69889", "lat": 38.9026525, "bike_id": "ce90872198a6977b31c8612f15b69889"}, {"lon": -77.015503, "rental_uris": {"android": "https://dc.lft.to/lastmile_qr_scan", "ios": "https://dc.lft.to/lastmile_qr_scan"}, "fusion_lon": 0.0, "is_reserved": 0, "is_disabled": 0, "fusion_lat": 0.0, "type": "electric_scooter", "name": "6d19c6850b1c60a64479d4b83a5d6fe6", "lat": 38.914666833333335, "bike_id": "6d19c6850b1c60a64479d4b83a5d6fe6"}, {"lon": -76.98563333333334, "rental_uris": {"android": "https://dc.lft.to/lastmile_qr_scan", "ios": "https://dc.lft.to/lastmile_qr_scan"}, "fusion_lon": 0.0, "is_reserved": 0, "is_disabled": 0, "fusion_lat": 0.0, "type": "electric_scooter", "name": "f9e8845f0659bad8323682519af450ee", "lat": 38.89617766666667, "bike_id": "f9e8845f0659bad8323682519af450ee"}, {"lon": -77.042769, "rental_uris": {"android": "https://dc.lft.to/lastmile_qr_scan", "ios": "https://dc.lft.to/lastmile_qr_scan"}, "fusion_lon": 0.0, "is_reserved": 0, "is_disabled": 0, "fusion_lat": 0.0, "type": "electric_scooter", "name": "d54c467c7b460fa126013a83169e50ec", "lat": 38.93420016666666, "bike_id": "d54c467c7b460fa126013a83169e50ec"}, {"lon": -77.041735, "rental_uris": {"android": "https://dc.lft.to/lastmile_qr_scan", "ios": "https://dc.lft.to/lastmile_qr_scan"}, "fusion_lon": 0.0, "is_reserved": 0, "is_disabled": 0, "fusion_lat": 0.0, "type": "electric_scooter", "name": "d4f7217d403f4b816f3e3d1fc4d0b1c6", "lat": 38.907998166666665, "bike_id": "d4f7217d403f4b816f3e3d1fc4d0b1c6"}, {"lon": -77.00067266666667, "rental_uris": {"android": "https://dc.lft.to/lastmile_qr_scan", "ios": "https://dc.lft.to/lastmile_qr_scan"}, "fusion_lon": 0.0, "is_reserved": 0, "is_disabled": 0, "fusion_lat": 0.0, "type": "electric_scooter", "name": "124c02b15438cc9dc0f82a7a59435602", "lat": 38.92392666666667, "bike_id": "124c02b15438cc9dc0f82a7a59435602"}, {"lon": -77.05404066666667, "rental_uris": {"android": "https://dc.lft.to/lastmile_qr_scan", "ios": "https://dc.lft.to/lastmile_qr_scan"}, "fusion_lon": 0.0, "is_reserved": 0, "is_disabled": 0, "fusion_lat": 0.0, "type": "electric_scooter", "name": "09ac50685e99088490174341a1049f72", "lat": 38.9038195, "bike_id": "09ac50685e99088490174341a1049f72"}, {"lon": -77.03278883333333, "rental_uris": {"android": "https://dc.lft.to/lastmile_qr_scan", "ios": "https://dc.lft.to/lastmile_qr_scan"}, "fusion_lon": 0.0, "is_reserved": 0, "is_disabled": 0, "fusion_lat": 0.0, "type": "electric_scooter", "name": "e80eb4da55e1d1b96fade5056dd5f39e", "lat": 38.937996166666665, "bike_id": "e80eb4da55e1d1b96fade5056dd5f39e"}, {"lon": -77.0035595, "rental_uris": {"android": "https://dc.lft.to/lastmile_qr_scan", "ios": "https://dc.lft.to/lastmile_qr_scan"}, "fusion_lon": 0.0, "is_reserved": 0, "is_disabled": 0, "fusion_lat": 0.0, "type": "electric_scooter", "name": "919720914ba9ba427476b72abfecc285", "lat": 38.8963465, "bike_id": "919720914ba9ba427476b72abfecc285"}, {"lon": -77.03506366666667, "rental_uris": {"android": "https://dc.lft.to/lastmile_qr_scan", "ios": "https://dc.lft.to/lastmile_qr_scan"}, "fusion_lon": 0.0, "is_reserved": 0, "is_disabled": 0, "fusion_lat": 0.0, "type": "electric_scooter", "name": "5064c1207c9c0cc5a663766a2e5875c8", "lat": 38.92325483333333, "bike_id": "5064c1207c9c0cc5a663766a2e5875c8"}, {"lon": -77.01348733333333, "rental_uris": {"android": "https://dc.lft.to/lastmile_qr_scan", "ios": "https://dc.lft.to/lastmile_qr_scan"}, "fusion_lon": 0.0, "is_reserved": 0, "is_disabled": 0, "fusion_lat": 0.0, "type": "electric_scooter", "name": "ad3e3ddbeb20d626b3935218cfd4ac49", "lat": 38.92897716666667, "bike_id": "ad3e3ddbeb20d626b3935218cfd4ac49"}, {"lon": -77.03936683333333, "rental_uris": {"android": "https://dc.lft.to/lastmile_qr_scan", "ios": "https://dc.lft.to/lastmile_qr_scan"}, "fusion_lon": 0.0, "is_reserved": 0, "is_disabled": 0, "fusion_lat": 0.0, "type": "electric_scooter", "name": "06d4a452479d6a93bf3a137792ca892c", "lat": 38.901580833333334, "bike_id": "06d4a452479d6a93bf3a137792ca892c"}, {"lon": -77.02323433333333, "rental_uris": {"android": "https://dc.lft.to/lastmile_qr_scan", "ios": "https://dc.lft.to/lastmile_qr_scan"},