{"data": {"bikes": [{"type": "electric_scooter", "name": "236bba7c942fcb9faefba961e269ccef", "rental_uris": {"ios": "https://dc.lft.to/lastmile_qr_scan", "android": "https://dc.lft.to/lastmile_qr_scan"}, "fusion_lon": 0.0, "lat": 38.8967695, "is_disabled": 0, "bike_id": "236bba7c942fcb9faefba961e269ccef", "fusion_lat": 0.0, "is_reserved": 0, "lon": -77.00518183333334}, {"type": "electric_scooter", "name": "34050c8a4210d39b95468c0cb20fc81c", "rental_uris": {"ios": "https://dc.lft.to/lastmile_qr_scan", "android": "https://dc.lft.to/lastmile_qr_scan"}, "fusion_lon": 0.0, "lat": 38.91064466666667, "is_disabled": 0, "bike_id": "34050c8a4210d39b95468c0cb20fc81c", "fusion_lat": 0.0, "is_reserved": 0, "lon": -77.0407995}, {"type": "electric_scooter", "name": "f62a6869cffb9a86aeee249cb9c42f53", "rental_uris": {"ios": "https://dc.lft.to/lastmile_qr_scan", "android": "https://dc.lft.to/lastmile_qr_scan"}, "fusion_lon": 0.0, "lat": 38.8859245, "is_disabled": 0, "bike_id": "f62a6869cffb9a86aeee249cb9c42f53", "fusion_lat": 0.0, "is_reserved": 0, "lon": -77.017208}, {"type": "electric_scooter", "name": "91f200a7018e565cfce29f02747f1107", "rental_uris": {"ios": "https://dc.lft.to/lastmile_qr_scan", "android": "https://dc.lft.to/lastmile_qr_scan"}, "fusion_lon": 0.0, "lat": 38.9235475, "is_disabled": 0, "bike_id": "91f200a7018e565cfce29f02747f1107", "fusion_lat": 0.0, "is_reserved": 0, "lon": -77.04338716666666}, {"type": "electric_scooter", "name": "a653241c1e40070e4d8acc9146cf53ad", "rental_uris": {"ios": "https://dc.lft.to/lastmile_qr_scan", "android": "https://dc.lft.to/lastmile_qr_scan"}, "fusion_lon": 0.0, "lat": 38.89803716666667, "is_disabled": 0, "bike_id": "a653241c1e40070e4d8acc9146cf53ad", "fusion_lat": 0.0, "is_reserved": 0, "lon": -77.028088}, {"type": "electric_scooter", "name": "df78ef220c297e3f7583640a4bf3fda3", "rental_uris": {"ios": "https://dc.lft.to/lastmile_qr_scan", "android": "https://dc.lft.to/lastmile_qr_scan"}, "fusion_lon": 0.0, "lat": 38.9172445, "is_disabled": 0, "bike_id": "df78ef220c297e3f7583640a4bf3fda3", "fusion_lat": 0.0, "is_reserved": 0, "lon": -77.0259365}, {"type": "electric_scooter", "name": "08ffa0db17286fb93f2fbcfd99491782", "rental_uris": {"ios": "https://dc.lft.to/lastmile_qr_scan", "android": "https://dc.lft.to/lastmile_qr_scan"}, "fusion_lon": 0.0, "lat": 38.93398116666667, "is_disabled": 0, "bike_id": "08ffa0db17286fb93f2fbcfd99491782", "fusion_lat": 0.0, "is_reserved": 0, "lon": -77.05744966666667}, {"type": "electric_scooter", "name": "6917eff2e641150bea5941388c157b7a", "rental_uris": {"ios": "https://dc.lft.to/lastmile_qr_scan", "android": "https://dc.lft.to/lastmile_qr_scan"}, "fusion_lon": 0.0, "lat": 38.90975816666667, "is_disabled": 0, "bike_id": "6917eff2e641150bea5941388c157b7a", "fusion_lat": 0.0, "is_reserved": 0, "lon": -77.03443616666667}, {"type": "electric_scooter", "name": "271a36c9638625b59c1bb40402af6739", "rental_uris": {"ios": "https://dc.lft.to/lastmile_qr_scan", "android": "https://dc.lft.to/lastmile_qr_scan"}, "fusion_lon": 0.0, "lat": 38.9161665, "is_disabled": 0, "bike_id": "271a36c9638625b59c1bb40402af6739", "fusion_lat": 0.0, "is_reserved": 0, "lon": -77.04622566666667}, {"type": "electric_scooter", "name": "31c06d6eb4e4fa5507aaac3bcefbc17a", "rental_uris": {"ios": "https://dc.lft.to/lastmile_qr_scan", "android": "https://dc.lft.to/lastmile_qr_scan"}, "fusion_lon": 0.0, "lat": 38.920888833333336, "is_disabled": 0, "bike_id": "31c06d6eb4e4fa5507aaac3bcefbc17a", "fusion_lat": 0.0, "is_reserved": 0, "lon": -77.02255183333334}, {"type": "electric_scooter", "name": "171f4c69fc8e9c67096c3ef3d3363d66", "rental_uris": {"ios": "https://dc.lft.to/lastmile_qr_scan", "android": "https://dc.lft.to/lastmile_qr_scan"}, "fusion_lon": 0.0, "lat": 38.91418316666667, "is_disabled": 0, "bike_id": "171f4c69fc8e9c67096c3ef3d3363d66", "fusion_lat": 0.0, "is_reserved": 0, "lon": -77.02364483333334}, {"type": "electric_scooter", "name": "4d0cae8967a3f5aaa148e9c60017d21c", "rental_uris": {"ios": "https://dc.lft.to/lastmile_qr_scan", "android": "https://dc.lft.to/lastmile_qr_scan"}, "fusion_lon": 0.0, "lat": 38.917898666666666, "is_disabled": 0, "bike_id": "4d0cae8967a3f5aaa148e9c60017d21c", "fusion_lat": 0.0, "is_reserved": 0, "lon": -77.0227865}, {"type": "electric_scooter", "name": "e0cc10948dcc490cc183cb2cc3aec832", "rental_uris": {"ios": "https://dc.lft.to/lastmile_qr_scan", "android": "https://dc.lft.to/lastmile_qr_scan"}, "fusion_lon": 0.0, "lat": 38.90020166666667, "is_disabled": 0, "bike_id": "e0cc10948dcc490cc183cb2cc3aec832", "fusion_lat": 0.0, "is_reserved": 0, "lon": -77.03165616666666}, {"type": "electric_scooter", "name": "bf75e3a4893a7fa545c2bba4a2bf55a9", "rental_uris": {"ios": "https://dc.lft.to/lastmile_qr_scan", "android": "https://dc.lft.to/lastmile_qr_scan"}, "fusion_lon": 0.0, "lat": 38.91938316666667, "is_disabled": 0, "bike_id": "bf75e3a4893a7fa545c2bba4a2bf55a9", "fusion_lat": 0.0, "is_reserved": 0, "lon": -77.01358466666667}, {"type": "electric_scooter", "name": "48fb422be1dadbfad0a0f92728e36e79", "rental_uris": {"ios": "https://dc.lft.to/lastmile_qr_scan", "android": "https://dc.lft.to/lastmile_qr_scan"}, "fusion_lon": 0.0, "lat": 38.89044666666667, "is_disabled": 0, "bike_id": "48fb422be1dadbfad0a0f92728e36e79", "fusion_lat": 0.0, "is_reserved": 0, "lon": -76.95245033333333}, {"type": "electric_scooter", "name": "b531114dcce256dde2e39d2be4e69a2e", "rental_uris": {"ios": "https://dc.lft.to/lastmile_qr_scan", "android": "https://dc.lft.to/lastmile_qr_scan"}, "fusion_lon": 0.0, "lat": 38.9241845, "is_disabled": 0, "bike_id": "b531114dcce256dde2e39d2be4e69a2e", "fusion_lat": 0.0, "is_reserved": 0, "lon": -77.02031233333334}, {"type": "electric_scooter", "name": "d1ddb80b0a75d26f985c168f2e6d993d", "rental_uris": {"ios": "https://dc.lft.to/lastmile_qr_scan", "android": "https://dc.lft.to/lastmile_qr_scan"}, "fusion_lon": 0.0, "lat": 38.89237383333333, "is_disabled": 0, "bike_id": "d1ddb80b0a75d26f985c168f2e6d993d", "fusion_lat": 0.0, "is_reserved": 0, "lon": -77.04152716666667}, {"type": "electric_scooter", "name": "0d703426cc9d5ca06b35cc5facff048e", "rental_uris": {"ios": "https://dc.lft.to/lastmile_qr_scan", "android": "https://dc.lft.to/lastmile_qr_scan"}, "fusion_lon": 0.0, "lat": 38.91110533333333, "is_disabled": 0, "bike_id": "0d703426cc9d5ca06b35cc5facff048e", "fusion_lat": 0.0, "is_reserved": 0, "lon": -77.02418366666667}, {"type": "electric_scooter", "name": "9ace0869357889d9e8dc7ebaef9dffec", "rental_uris": {"ios": "https://dc.lft.to/lastmile_qr_scan", "android": "https://dc.lft.to/lastmile_qr_scan"}, "fusion_lon": 0.0, "lat": 38.88599216666667, "is_disabled": 0, "bike_id": "9ace0869357889d9e8dc7ebaef9dffec", "fusion_lat": 0.0, "is_reserved": 0, "lon": -77.01761683333334}, {"type": "electric_scooter", "name": "599a21c3bb07b0f74bc9f4f6a216e2e7", "rental_uris": {"ios": "https://dc.lft.to/lastmile_qr_scan", "android": "https://dc.lft.to/lastmile_qr_scan"}, "fusion_lon": 0.0, "lat": 38.864238, "is_disabled": 0, "bike_id": "599a21c3bb07b0f74bc9f4f6a216e2e7", "fusion_lat": 0.0, "is_reserved": 0, "lon": -76.990196}, {"type": "electric_scooter", "name": "f9bdcdfe04f199d97faf1e122ea650db", "rental_uris": {"ios": "https://dc.lft.to/lastmile_qr_scan", "android": "https://dc.lft.to/lastmile_qr_scan"}, "fusion_lon": 0.0, "lat": 38.891444, "is_disabled": 0, "bike_id": "f9bdcdfe04f199d97faf1e122ea650db", "fusion_lat": 0.0, "is_reserved": 0, "lon": -76.99260733333334}, {"type": "electric_scooter", "name": "fb744dece2284bce14cefa6094b5f2ab", "rental_uris": {"ios": "https://dc.lft.to/lastmile_qr_scan", "android": "https://dc.lft.to/lastmile_qr_scan"}, "fusion_lon": 0.0, "lat": 38.8830145, "is_disabled": 0, "bike_id": "fb744dece2284bce14cefa6094b5f2ab", "fusion_lat": 0.0, "is_reserved": 0, "lon": -76.94856116666666}, {"type": "electric_scooter", "name": "be474e569aa285d3b1da54aad06840d3", "rental_uris": {"ios": "https://dc.lft.to/lastmile_qr_scan", "android": "https://dc.lft.to/lastmile_qr_scan"}, "fusion_lon": 0.0, "lat": 38.914696666666664, "is_disabled": 0, "bike_id": "be474e569aa285d3b1da54aad06840d3", "fusion_lat": 0.0, "is_reserved": 0, "lon": -77.03886083333333}, {"type": "electric_scooter", "name": "a683c95b494bb36413ca5ff9b1ab4d0f", "rental_uris": {"ios": "https://dc.lft.to/lastmile_qr_scan", "android": "https://dc.lft.to/lastmile_qr_scan"}, "fusion_lon": 0.0, "lat": 38.931429333333334, "is_disabled": 0, "bike_id": "a683c95b494bb36413ca5ff9b1ab4d0f", "fusion_lat": 0.0, "is_reserved": 0, "lon": -77.03832066666666}, {"type": "electric_bike", "name": "5af2deb25681430eff1b26e3629fe5f9", "rental_uris": {"ios": "https://dc.lft.to/lastmile_qr_scan", "android": "https://dc.lft.to/lastmile_qr_scan"}, "fusion_lon": 0.0, "lat": 38.9423225, "is_disabled": 0, "bike_id": "5af2deb25681430eff1b26e3629fe5f9", "fusion_lat": 0.0, "is_reserved": 0, "lon": -76.9658515}, {"type": "electric_scooter", "name": "24b4cf1dcf151f81179cc90ee4d93eca", "rental_uris": {"ios": "https://dc.lft.to/lastmile_qr_scan", "android": "https://dc.lft.to/lastmile_qr_scan"}, "fusion_lon": 0.0, "lat": 38.92953633333333, "is_disabled": 0, "bike_id": "24b4cf1dcf151f81179cc90ee4d93eca", "fusion_lat": 0.0, "is_reserved": 0, "lon": -77.04405433333334}, {"type": "electric_scooter", "name": "430adf0d47a92206a05aaa9d1e6e9d83", "rental_uris": {"ios": "https://dc.lft.to/lastmile_qr_scan", "android": "https://dc.lft.to/lastmile_qr_scan"}, "fusion_lon": 0.0, "lat": 38.92047433333333, "is_disabled": 0, "bike_id": "430adf0d47a92206a05aaa9d1e6e9d83", "fusion_lat": 0.0, "is_reserved": 0, "lon": -77.025741}, {"type": "electric_scooter", "name": "ba69a8e1d5ead930ab42622823075aa6", "rental_uris": {"ios": "https://dc.lft.to/lastmile_qr_scan", "android": "https://dc.lft.to/lastmile_qr_scan"}, "fusion_lon": 0.0, "lat": 38.855505, "is_disabled": 0, "bike_id": "ba69a8e1d5ead930ab42622823075aa6", "fusion_lat": 0.0, "is_reserved": 0, "lon": -76.98759366666667}, {"type": "electric_scooter", "name": "346c1802341ce1fa1871739916d5559a", "rental_uris": {"ios": "https://dc.lft.to/lastmile_qr_scan", "android": "https://dc.lft.to/lastmile_qr_scan"}, "fusion_lon": 0.0, "lat": 38.9230025, "is_disabled": 0, "bike_id": "346c1802341ce1fa1871739916d5559a", "fusion_lat": 0.0, "is_reserved": 0, "lon": -77.04271333333334}, {"type": "electric_scooter", "name": "e35e50249f991c70ae9d1fcb9ab68ed0", "rental_uris": {"ios": "https://dc.lft.to/lastmile_qr_scan", "android": "https://dc.lft.to/lastmile_qr_scan"}, "fusion_lon": 0.0, "lat": 38.9094605, "is_disabled": 0, "bike_id": "e35e50249f991c70ae9d1fcb9ab68ed0", "fusion_lat": 0.0, "is_reserved": 0, "lon": -77.02820183333333}, {"type": "electric_scooter", "name": "48c2991860b8456254cf7474607b9b55", "rental_uris": {"ios": "https://dc.lft.to/lastmile_qr_scan", "android": "https://dc.lft.to/lastmile_qr_scan"}, "fusion_lon": 0.0, "lat": 38.90615666666667, "is_disabled": 0, "bike_id": "48c2991860b8456254cf7474607b9b55", "fusion_lat": 0.0, "is_reserved": 0, "lon": -77.00363883333333}, {"type": "electric_scooter", "name": "067fb6008b8b31e096710d9f80941d25", "rental_uris": {"ios": "https://dc.lft.to/lastmile_qr_scan", "android": "https://dc.lft.to/lastmile_qr_scan"}, "fusion_lon": 0.0, "lat": 38.901141, "is_disabled": 0, "bike_id": "067fb6008b8b31e096710d9f80941d25", "fusion_lat": 0.0, "is_reserved": 0, "lon": -77.04487883333333}, {"type": "electric_scooter", "name": "d87d91594bc76616efa74943eb6a3c8f", "rental_uris": {"ios": "https://dc.lft.to/lastmile_qr_scan", "android": "https://dc.lft.to/lastmile_qr_scan"}, "fusion_lon": 0.0, "lat": 38.92240133333333, "is_disabled": 0, "bike_id": "d87d91594bc76616efa74943eb6a3c8f", "fusion_lat": 0.0, "is_reserved": 0, "lon": -77.02091233333333}, {"type": "electric_scooter", "name": "b79c74871565041d90c22a85ae35e71e", "rental_uris": {"ios": "https://dc.lft.to/lastmile_qr_scan", "android": "https://dc.lft.to/lastmile_qr_scan"}, "fusion_lon": 0.0, "lat": 38.925066666666666, "is_disabled": 0, "bike_id": "b79c74871565041d90c22a85ae35e71e", "fusion_lat": 0.0, "is_reserved": 0, "lon": -77.00234983333333}, {"type": "electric_scooter", "name": "239e109d19ae949c243ff3f5a91c2497", "rental_uris": {"ios": "https://dc.lft.to/lastmile_qr_scan", "android": "https://dc.lft.to/lastmile_qr_scan"}, "fusion_lon": 0.0, "lat": 38.89724, "is_disabled": 0, "bike_id": "239e109d19ae949c243ff3f5a91c2497", "fusion_lat": 0.0, "is_reserved": 0, "lon": -77.04343616666667}, {"type": "electric_bike", "name": "561d47c63b7d75e529646964ea49abfa", "rental_uris": {"ios": "https://dc.lft.to/lastmile_qr_scan", "android": "https://dc.lft.to/lastmile_qr_scan"}, "fusion_lon": 0.0, "lat": 38.84088533333333, "is_disabled": 0, "bike_id": "561d47c63b7d75e529646964ea49abfa", "fusion_lat": 0.0, "is_reserved": 0, "lon": -76.97026333333334}, {"type": "electric_scooter", "name": "058d0ff26236440ae72bd7a2ad770bda", "rental_uris": {"ios": "https://dc.lft.to/lastmile_qr_scan", "android": "https://dc.lft.to/lastmile_qr_scan"}, "fusion_lon": 0.0, "lat": 38.91985533333333, "is_disabled": 0, "bike_id": "058d0ff26236440ae72bd7a2ad770bda", "fusion_lat": 0.0, "is_reserved": 0, "lon": -76.97310533333334}, {"type": "electric_scooter", "name": "3c1555e7381cd8c4f8eb57a95a37d3a0", "rental_uris": {"ios": "https://dc.lft.to/lastmile_qr_scan", "android": "https://dc.lft.to/lastmile_qr_scan"}, "fusion_lon": 0.0, "lat": 38.89746233333334, "is_disabled": 0, "bike_id": "3c1555e7381cd8c4f8eb57a95a37d3a0", "fusion_lat": 0.0, "is_reserved": 0, "lon": -77.009179}, {"type": "electric_scooter", "name": "6999389de877e49d54cac055909adaa7", "rental_uris": {"ios": "https://dc.lft.to/lastmile_qr_scan", "android": "https://dc.lft.to/lastmile_qr_scan"}, "fusion_lon": 0.0, "lat": 38.8975715, "is_disabled": 0, "bike_id": "6999389de877e49d54cac055909adaa7", "fusion_lat": 0.0, "is_reserved": 0, "lon": -77.04577883333333}, {"type": "electric_bike", "name": "fc6dadd1f51407025edd996f492a61db", "rental_uris": {"ios": "https://dc.lft.to/lastmile_qr_scan", "android": "https://dc.lft.to/lastmile_qr_scan"}, "fusion_lon": 0.0, "lat": 38.88364283333333, "is_disabled": 0, "bike_id": "fc6dadd1f51407025edd996f492a61db", "fusion_lat": 0.0, "is_reserved": 0, "lon": -76.98219666666667}, {"type": "electric_scooter", "name": "8555f5e93c84ffc7b87b5fe537f4a1eb", "rental_uris": {"ios": "https://dc.lft.to/lastmile_qr_scan", "android": "https://dc.lft.to/lastmile_qr_scan"}, "fusion_lon": 0.0, "lat": 38.90832266666666, "is_disabled": 0, "bike_id": "8555f5e93c84ffc7b87b5fe537f4a1eb", "fusion_lat": 0.0, "is_reserved": 0, "lon": -77.03555433333334}, {"type": "electric_scooter", "name": "efb2049e7d9c0de8b2416e2d10bd69b8", "rental_uris": {"ios": "https://dc.lft.to/lastmile_qr_scan", "android": "https://dc.lft.to/lastmile_qr_scan"}, "fusion_lon": 0.0, "lat": 38.9048275, "is_disabled": 0, "bike_id": "efb2049e7d9c0de8b2416e2d10bd69b8", "fusion_lat": 0.0, "is_reserved": 0, "lon": -77.00210783333333}, {"type": "electric_scooter", "name": "d3fda2867e3bdea60633864c6aa56378", "rental_uris": {"ios": "https://dc.lft.to/lastmile_qr_scan", "android": "https://dc.lft.to/lastmile_qr_scan"}, "fusion_lon": 0.0, "lat": 38.90856866666667, "is_disabled": 0, "bike_id": "d3fda2867e3bdea60633864c6aa56378", "fusion_lat": 0.0, "is_reserved": 0, "lon": -76.997978}, {"type": "electric_scooter", "name": "3b1613c91fbb2de7a9a1167a8dfba0da", "rental_uris": {"ios": "https://dc.lft.to/lastmile_qr_scan", "android": "https://dc.lft.to/lastmile_qr_scan"}, "fusion_lon": 0.0, "lat": 38.877178, "is_disabled": 0, "bike_id": "3b1613c91fbb2de7a9a1167a8dfba0da", "fusion_lat": 0.0, "is_reserved": 0, "lon": -77.00423}, {"type": "electric_scooter", "name": "597f14bc0a075979ac0530bc303ec387", "rental_uris": {"ios": "https://dc.lft.to/lastmile_qr_scan", "android": "https://dc.lft.to/lastmile_qr_scan"}, "fusion_lon": 0.0, "lat": 38.89328733333333, "is_disabled": 0, "bike_id": "597f14bc0a075979ac0530bc303ec387", "fusion_lat": 0.0, "is_reserved": 0, "lon": -77.0223185}, {"type": "electric_scooter", "name": "67639ed79fffe27e7465095dc35d45e3", "rental_uris": {"ios": "https://dc.lft.to/lastmile_qr_scan", "android": "https://dc.lft.to/lastmile_qr_scan"}, "fusion_lon": 0.0, "lat": 38.926731333333336, "is_disabled": 0, "bike_id": "67639ed79fffe27e7465095dc35d45e3", "fusion_lat": 0.0, "is_reserved": 0, "lon": -77.015123}, {"type": "electric_scooter", "name": "87314dee28f0b806b7cfdf760a21f645", "rental_uris": {"ios": "https://dc.lft.to/lastmile_qr_scan", "android": "https://dc.lft.to/lastmile_qr_scan"}, "fusion_lon": 0.0, "lat": 38.92475483333333, "is_disabled": 0, "bike_id": "87314dee28f0b806b7cfdf760a21f645", "fusion_lat": 0.0, "is_reserved": 0, "lon": -76.9903405}, {"type": "electric_bike", "name": "560b831e84535ef3c9897beb32eb03ea", "rental_uris": {"ios": "https://dc.lft.to/lastmile_qr_scan", "android": "https://dc.lft.to/lastmile_qr_scan"}, "fusion_lon": 0.0, "lat": 38.8576545, "is_disabled": 0, "bike_id": "560b831e84535ef3c9897beb32eb03ea", "fusion_lat": 0.0, "is_reserved": 0, "lon": -77.086575}, {"type": "electric_scooter", "name": "698f47b0ca11159f37f11da85834af86", "rental_uris": {"ios": "https://dc.lft.to/lastmile_qr_scan", "android": "https://dc.lft.to/lastmile_qr_scan"}, "fusion_lon": 0.0, "lat": 38.90088033333333, "is_disabled": 0, "bike_id": "698f47b0ca11159f37f11da85834af86", "fusion_lat": 0.0, "is_reserved": 0, "lon": -77.024631}, {"type": "electric_scooter", "name": "b019b94e96480e4850731f059ff0bec8", "rental_uris": {"ios": "https://dc.lft.to/lastmile_qr_scan", "android": "https://dc.lft.to/lastmile_qr_scan"}, "fusion_lon": 0.0, "lat": 38.92302816666667, "is_disabled": 0, "bike_id": "b019b94e96480e4850731f059ff0bec8", "fusion_lat": 0.0, "is_reserved": 0, "lon": -77.02441033333334}, {"type": "electric_bike", "name": "1a385249a37c2de7c721425d2fcebb71", "rental_uris": {"ios": "https://dc.lft.to/lastmile_qr_scan", "android": "https://dc.lft.to/lastmile_qr_scan"}, "fusion_lon": 0.0, "lat": 38.961987666666666, "is_disabled": 0, "bike_id": "1a385249a37c2de7c721425d2fcebb71", "fusion_lat": 0.0, "is_reserved": 0, "lon": -77.00078333333333}, {"type": "electric_bike", "name": "6d8291db7f81fd3b5b9a9270018cc7cb", "rental_uris": {"ios": "https://dc.lft.to/lastmile_qr_scan", "android": "https://dc.lft.to/lastmile_qr_scan"}, "fusion_lon": 0.0, "lat": 38.99101983333333, "is_disabled": 0, "bike_id": "6d8291db7f81fd3b5b9a9270018cc7cb", "fusion_lat": 0.0, "is_reserved": 0, "lon": -76.99370133333333}, {"type": "electric_scooter", "name": "eca31c5d43ba89842a0a4a96c65960ab", "rental_uris": {"ios": "https://dc.lft.to/lastmile_qr_scan", "android": "https://dc.lft.to/lastmile_qr_scan"}, "fusion_lon": 0.0, "lat": 38.929534, "is_disabled": 0, "bike_id": "eca31c5d43ba89842a0a4a96c65960ab", "fusion_lat": 0.0, "is_reserved": 0, "lon": -77.0550635}, {"type": "electric_bike", "name": "115e929f9670fe21a4d47802a9fb8845", "rental_uris": {"ios": "https://dc.lft.to/lastmile_qr_scan", "android": "https://dc.lft.to/lastmile_qr_scan"}, "fusion_lon": 0.0, "lat": 38.89901, "is_disabled": 0, "bike_id": "115e929f9670fe21a4d47802a9fb8845", "fusion_lat": 0.0, "is_reserved": 0, "lon": -77.09620683333333}, {"type": "electric_scooter", "name": "a557f984008e7fe232c474fede6809bc", "rental_uris": {"ios": "https://dc.lft.to/lastmile_qr_scan", "android": "https://dc.lft.to/lastmile_qr_scan"}, "fusion_lon": 0.0, "lat": 38.86681866666667, "is_disabled": 0, "bike_id": "a557f984008e7fe232c474fede6809bc", "fusion_lat": 0.0, "is_reserved": 0, "lon": -76.98568366666666}, {"type": "electric_scooter", "name": "12346a34e383d32e243a713b87403d2b", "rental_uris": {"ios": "https://dc.lft.to/lastmile_qr_scan", "android": "https://dc.lft.to/lastmile_qr_scan"}, "fusion_lon": 0.0, "lat": 38.906754666666664, "is_disabled": 0, "bike_id": "12346a34e383d32e243a713b87403d2b", "fusion_lat": 0.0, "is_reserved": 0, "lon": -77.07174533333334}, {"type": "electric_scooter", "name": "548cf9edcf1afe2450c90f33ded37a9a", "rental_uris": {"ios": "https://dc.lft.to/lastmile_qr_scan", "android": "https://dc.lft.to/lastmile_qr_scan"}, "fusion_lon": 0.0, "lat": 38.91120516666667, "is_disabled": 0, "bike_id": "548cf9edcf1afe2450c90f33ded37a9a", "fusion_lat": 0.0, "is_reserved": 0, "lon": -77.00609}, {"type": "electric_scooter", "name": "d0e1973fa051bf405540e0ad71ab0350", "rental_uris": {"ios": "https://dc.lft.to/lastmile_qr_scan", "android": "https://dc.lft.to/lastmile_qr_scan"}, "fusion_lon": 0.0, "lat": 38.91716133333333, "is_disabled": 0, "bike_id": "d0e1973fa051bf405540e0ad71ab0350", "fusion_lat": 0.0, "is_reserved": 0, "lon": -77.00889533333333}, {"type": "electric_scooter", "name": "36fe71eb425c48b1b4ac52f8a6428222", "rental_uris": {"ios": "https://dc.lft.to/lastmile_qr_scan", "android": "https://dc.lft.to/lastmile_qr_scan"}, "fusion_lon": 0.0, "lat": 38.918344, "is_disabled": 0, "bike_id": "36fe71eb425c48b1b4ac52f8a6428222", "fusion_lat": 0.0, "is_reserved": 0, "lon": -77.0417085}, {"type": "electric_scooter", "name": "0c0e363f6a49f66de52690cb568bec4d", "rental_uris": {"ios": "https://dc.lft.to/lastmile_qr_scan", "android": "https://dc.lft.to/lastmile_qr_scan"}, "fusion_lon": 0.0, "lat": 38.93517683333334, "is_disabled": 0, "bike_id": "0c0e363f6a49f66de52690cb568bec4d", "fusion_lat": 0.0, "is_reserved": 0, "lon": -77.05839533333334}, {"type": "electric_scooter", "name": "431aaf8a8a3b69e106a6e5cb60f7ebbd", "rental_uris": {"ios": "https://dc.lft.to/lastmile_qr_scan", "android": "https://dc.lft.to/lastmile_qr_scan"}, "fusion_lon": 0.0, "lat": 38.87796383333333, "is_disabled": 0, "bike_id": "431aaf8a8a3b69e106a6e5cb60f7ebbd", "fusion_lat": 0.0, "is_reserved": 0, "lon": -77.0012545}, {"type": "electric_bike", "name": "35b49bc8de52b9f180f89efef0e7912c", "rental_uris": {"ios": "https://dc.lft.to/lastmile_qr_scan", "android": "https://dc.lft.to/lastmile_qr_scan"}, "fusion_lon": 0.0, "lat": 38.9057935, "is_disabled": 0, "bike_id": "35b49bc8de52b9f180f89efef0e7912c", "fusion_lat": 0.0, "is_reserved": 0, "lon": -77.002991}, {"type": "electric_scooter", "name": "88e2a02b62d9fae9a12938e56272e4d8", "rental_uris": {"ios": "https://dc.lft.to/lastmile_qr_scan", "android": "https://dc.lft.to/lastmile_qr_scan"}, "fusion_lon": 0.0, "lat": 38.9014555, "is_disabled": 0, "bike_id": "88e2a02b62d9fae9a12938e56272e4d8", "fusion_lat": 0.0, "is_reserved": 0, "lon": -77.06072466666667}, {"type": "electric_scooter", "name": "1c8a6e0820e49fa44fe7e415694fa3ee", "rental_uris": {"ios": "https://dc.lft.to/lastmile_qr_scan", "android": "https://dc.lft.to/lastmile_qr_scan"}, "fusion_lon": 0.0, "lat": 38.9038795, "is_disabled": 0, "bike_id": "1c8a6e0820e49fa44fe7e415694fa3ee", "fusion_lat": 0.0, "is_reserved": 0, "lon": -77.032162}, {"type": "electric_scooter", "name": "0fffdbdb5ba611fc00b7b79bb7f1d4ba", "rental_uris": {"ios": "https://dc.lft.to/lastmile_qr_scan", "android": "https://dc.lft.to/lastmile_qr_scan"}, "fusion_lon": 0.0, "lat": 38.90054683333334, "is_disabled": 0, "bike_id": "0fffdbdb5ba611fc00b7b79bb7f1d4ba", "fusion_lat": 0.0, "is_reserved": 0, "lon": -77.00066416666667}, {"type": "electric_scooter", "name": "75fa8936a352ea4f2063ef94e835eb51", "rental_uris": {"ios": "https://dc.lft.to/lastmile_qr_scan", "android": "https://dc.lft.to/lastmile_qr_scan"}, "fusion_lon": 0.0, "lat": 38.905856, "is_disabled": 0, "bike_id": "75fa8936a352ea4f2063ef94e835eb51", "fusion_lat": 0.0, "is_reserved": 0, "lon": -77.0041155}, {"type": "electric_scooter", "name": "9fecabcee14d311f1716d8098df04407", "rental_uris": {"ios": "https://dc.lft.to/lastmile_qr_scan", "android": "https://dc.lft.to/lastmile_qr_scan"}, "fusion_lon": 0.0, "lat": 38.90268866666667, "is_disabled": 0, "bike_id": "9fecabcee14d311f1716d8098df04407", "fusion_lat": 0.0, "is_reserved": 0, "lon": -77.053226}, {"type": "electric_scooter", "name": "0c11d686b0414a7fbbad1bfa75b312e8", "rental_uris": {"ios": "https://dc.lft.to/lastmile_qr_scan", "android": "https://dc.lft.to/lastmile_qr_scan"}, "fusion_lon": 0.0, "lat": 38.91323633333333, "is_disabled": 0, "bike_id": "0c11d686b0414a7fbbad1bfa75b312e8", "fusion_lat": 0.0, "is_reserved": 0, "lon": -77.032033}, {"type": "electric_scooter", "name": "6055791b1a972e713e26974b006ca445", "rental_uris": {"ios": "https://dc.lft.to/lastmile_qr_scan", "android": "https://dc.lft.to/lastmile_qr_scan"}, "fusion_lon": 0.0, "lat": 38.908496666666665, "is_disabled": 0, "bike_id": "6055791b1a972e713e26974b006ca445", "fusion_lat": 0.0, "is_reserved": 0, "lon": -76.998023}, {"type": "electric_bike", "name": "49aded739686e79801507ecc11894021", "rental_uris": {"ios": "https://dc.lft.to/lastmile_qr_scan", "android": "https://dc.lft.to/lastmile_qr_scan"}, "fusion_lon": 0.0, "lat": 38.88417883333334, "is_disabled": 0, "bike_id": "49aded739686e79801507ecc11894021", "fusion_lat": 0.0, "is_reserved": 0, "lon": -76.95411683333333}, {"type": "electric_scooter", "name": "cb5658cbf273c2c1ff8a2a080fffaf9c", "rental_uris": {"ios": "https://dc.lft.to/lastmile_qr_scan", "android": "https://dc.lft.to/lastmile_qr_scan"}, "fusion_lon": 0.0, "lat": 38.91115033333333, "is_disabled": 0, "bike_id": "cb5658cbf273c2c1ff8a2a080fffaf9c", "fusion_lat": 0.0, "is_reserved": 0, "lon": -77.03833233333333}, {"type": "electric_scooter", "name": "6fb15387a17a72b265ad017ba6a2c7d8", "rental_uris": {"ios": "https://dc.lft.to/lastmile_qr_scan", "android": "https://dc.lft.to/lastmile_qr_scan"}, "fusion_lon": 0.0, "lat": 38.88747033333333, "is_disabled": 0, "bike_id": "6fb15387a17a72b265ad017ba6a2c7d8", "fusion_lat": 0.0, "is_reserved": 0, "lon": -77.02118283333333}, {"type": "electric_scooter", "name": "ae67ac20f11fbf33ddbf6f41163ab684", "rental_uris": {"ios": "https://dc.lft.to/lastmile_qr_scan", "android": "https://dc.lft.to/lastmile_qr_scan"}, "fusion_lon": 0.0, "lat": 38.90352433333334, "is_disabled": 0, "bike_id": "ae67ac20f11fbf33ddbf6f41163ab684", "fusion_lat": 0.0, "is_reserved": 0, "lon": -76.97479333333334}, {"type": "electric_scooter", "name": "bbcdeba3ec902b38963c26684b33c24b", "rental_uris": {"ios": "https://dc.lft.to/lastmile_qr_scan", "android": "https://dc.lft.to/lastmile_qr_scan"}, "fusion_lon": 0.0, "lat": 38.8987855, "is_disabled": 0, "bike_id": "bbcdeba3ec902b38963c26684b33c24b", "fusion_lat": 0.0, "is_reserved": 0, "lon": -77.00744266666666}, {"type": "electric_scooter", "name": "6b3c45b2cc3cc65acb8e2aaade716892", "rental_uris": {"ios": "https://dc.lft.to/lastmile_qr_scan", "android": "https://dc.lft.to/lastmile_qr_scan"}, "fusion_lon": 0.0, "lat": 38.91787033333333, "is_disabled": 0, "bike_id": "6b3c45b2cc3cc65acb8e2aaade716892", "fusion_lat": 0.0, "is_reserved": 0, "lon": -77.03188383333334}, {"type": "electric_scooter", "name": "5974da0ac81ca0105dc711b5e47769aa", "rental_uris": {"ios": "https://dc.lft.to/lastmile_qr_scan", "android": "https://dc.lft.to/lastmile_qr_scan"}, "fusion_lon": 0.0, "lat": 38.90273166666667, "is_disabled": 0, "bike_id": "5974da0ac81ca0105dc711b5e47769aa", "fusion_lat": 0.0, "is_reserved": 0, "lon": -77.03972283333333}, {"type": "electric_scooter", "name": "06544d4575dd5db258ea93a6df93759c", "rental_uris": {"ios": "https://dc.lft.to/lastmile_qr_scan", "android": "https://dc.lft.to/lastmile_qr_scan"}, "fusion_lon": 0.0, "lat": 38.8967145, "is_disabled": 0, "bike_id": "06544d4575dd5db258ea93a6df93759c", "fusion_lat": 0.0, "is_reserved": 0, "lon": -76.93210066666667}, {"type": "electric_scooter", "name": "9d0e9edf93ea29a4b1c0061b0d3abb5c", "rental_uris": {"ios": "https://dc.lft.to/lastmile_qr_scan", "android": "https://dc.lft.to/lastmile_qr_scan"}, "fusion_lon": 0.0, "lat": 38.936736, "is_disabled": 0, "bike_id": "9d0e9edf93ea29a4b1c0061b0d3abb5c", "fusion_lat": 0.0, "is_reserved": 0, "lon": -77.03595233333333}, {"type": "electric_scooter", "name": "c8b1c36c3e5cc411e6edd242930fdb7a", "rental_uris": {"ios": "https://dc.lft.to/lastmile_qr_scan", "android": "https://dc.lft.to/lastmile_qr_scan"}, "fusion_lon": 0.0, "lat": 38.90143616666667, "is_disabled": 0, "bike_id": "c8b1c36c3e5cc411e6edd242930fdb7a", "fusion_lat": 0.0, "is_reserved": 0, "lon": -77.0607395}, {"type": "electric_scooter", "name": "5dbc458e6fdecdd86b84d88b1407766c", "rental_uris": {"ios": "https://dc.lft.to/lastmile_qr_scan", "android": "https://dc.lft.to/lastmile_qr_scan"}, "fusion_lon": 0.0, "lat": 38.93059216666666, "is_disabled": 0, "bike_id": "5dbc458e6fdecdd86b84d88b1407766c", "fusion_lat": 0.0, "is_reserved": 0, "lon": -77.01861566666666}, {"type": "electric_scooter", "name": "99ebb807519a92b2e8e37f5b623f1be9", "rental_uris": {"ios": "https://dc.lft.to/lastmile_qr_scan", "android": "https://dc.lft.to/lastmile_qr_scan"}, "fusion_lon": 0.0, "lat": 38.896246833333336, "is_disabled": 0, "bike_id": "99ebb807519a92b2e8e37f5b623f1be9", "fusion_lat": 0.0, "is_reserved": 0, "lon": -77.04075433333334}, {"type": "electric_scooter", "name": "e59f84f17f29adf2ed05a377a805edfc", "rental_uris": {"ios": "https://dc.lft.to/lastmile_qr_scan", "android": "https://dc.lft.to/lastmile_qr_scan"}, "fusion_lon": 0.0, "lat": 38.88335583333333, "is_disabled": 0, "bike_id": "e59f84f17f29adf2ed05a377a805edfc", "fusion_lat": 0.0, "is_reserved": 0, "lon": -77.013579}, {"type": "electric_scooter", "name": "e4eac3929e569cfcaa5976e94ecd3ec8", "rental_uris": {"ios": "https://dc.lft.to/lastmile_qr_scan", "android": "https://dc.lft.to/lastmile_qr_scan"}, "fusion_lon": 0.0, "lat": 38.89610883333334, "is_disabled": 0, "bike_id": "e4eac3929e569cfcaa5976e94ecd3ec8", "fusion_lat": 0.0, "is_reserved": 0, "lon": -77.0427235}, {"type": "electric_scooter", "name": "59cc86ab075fcc8859e8d22ee440bbac", "rental_uris": {"ios": "https://dc.lft.to/lastmile_qr_scan", "android": "https://dc.lft.to/lastmile_qr_scan"}, "fusion_lon": 0.0, "lat": 38.922489, "is_disabled": 0, "bike_id": "59cc86ab075fcc8859e8d22ee440bbac", "fusion_lat": 0.0, "is_reserved": 0, "lon": -77.01946216666667}, {"type": "electric_scooter", "name": "c4d5e1cf3425d37beb7e9079873e5a4d", "rental_uris": {"ios": "https://dc.lft.to/lastmile_qr_scan", "android": "https://dc.lft.to/lastmile_qr_scan"}, "fusion_lon": 0.0, "lat": 38.9302225, "is_disabled": 0, "bike_id": "c4d5e1cf3425d37beb7e9079873e5a4d", "fusion_lat": 0.0, "is_reserved": 0, "lon": -77.03798433333333}, {"type": "electric_scooter", "name": "ef373853558f1427a72e9807c7f112fa", "rental_uris": {"ios": "https://dc.lft.to/lastmile_qr_scan", "android": "https://dc.lft.to/lastmile_qr_scan"}, "fusion_lon": 0.0, "lat": 38.930057166666664, "is_disabled": 0, "bike_id": "ef373853558f1427a72e9807c7f112fa", "fusion_lat": 0.0, "is_reserved": 0, "lon": -77.0125715}, {"type": "electric_scooter", "name": "eb7611fc293d5d3c53406b398cbd7a1d", "rental_uris": {"ios": "https://dc.lft.to/lastmile_qr_scan", "android": "https://dc.lft.to/lastmile_qr_scan"}, "fusion_lon": 0.0, "lat": 38.905644833333334, "is_disabled": 0, "bike_id": "eb7611fc293d5d3c53406b398cbd7a1d", "fusion_lat": 0.0, "is_reserved": 0, "lon": -77.04635266666666}, {"type": "electric_bike", "name": "5240067451ef9117f9b09d3d89df107e", "rental_uris": {"ios": "https://dc.lft.to/lastmile_qr_scan", "android": "https://dc.lft.to/lastmile_qr_scan"}, "fusion_lon": 0.0, "lat": 38.92108416666667, "is_disabled": 0, "bike_id": "5240067451ef9117f9b09d3d89df107e", "fusion_lat": 0.0, "is_reserved": 0, "lon": -77.06330833333334}, {"type": "electric_scooter", "name": "8f6ee7f7d20c46982a1fc29bc395de9e", "rental_uris": {"ios": "https://dc.lft.to/lastmile_qr_scan", "android": "https://dc.lft.to/lastmile_qr_scan"}, "fusion_lon": 0.0, "lat": 38.92826816666667, "is_disabled": 0, "bike_id": "8f6ee7f7d20c46982a1fc29bc395de9e", "fusion_lat": 0.0, "is_reserved": 0, "lon": -77.0140235}, {"type": "electric_scooter", "name": "1138c5dfe7dd569198c5162938f116c8", "rental_uris": {"ios": "https://dc.lft.to/lastmile_qr_scan", "android": "https://dc.lft.to/lastmile_qr_scan"}, "fusion_lon": 0.0, "lat": 38.90962316666667, "is_disabled": 0, "bike_id": "1138c5dfe7dd569198c5162938f116c8", "fusion_lat": 0.0, "is_reserved": 0, "lon": -77.04537416666666}, {"type": "electric_bike", "name": "38441c4c3acc57c199f83b5d9e07b20d", "rental_uris": {"ios": "https://dc.lft.to/lastmile_qr_scan", "android": "https://dc.lft.to/lastmile_qr_scan"}, "fusion_lon": 0.0, "lat": 38.864600333333335, "is_disabled": 0, "bike_id": "38441c4c3acc57c199f83b5d9e07b20d", "fusion_lat": 0.0, "is_reserved": 0, "lon": -76.945332}, {"type": "electric_scooter", "name": "a3b88a94124d403af1a8ba49aca7f79a", "rental_uris": {"ios": "https://dc.lft.to/lastmile_qr_scan", "android": "https://dc.lft.to/lastmile_qr_scan"}, "fusion_lon": 0.0, "lat": 38.924788166666666, "is_disabled": 0, "bike_id": "a3b88a94124d403af1a8ba49aca7f79a", "fusion_lat": 0.0, "is_reserved": 0, "lon": -77.03821883333333}, {"type": "electric_bike", "name": "69c4b06308dd2d796c88843be6fe5d01", "rental_uris": {"ios": "https://dc.lft.to/lastmile_qr_scan", "android": "https://dc.lft.to/lastmile_qr_scan"}, "fusion_lon": 0.0, "lat": 38.89228466666667, "is_disabled": 0, "bike_id": "69c4b06308dd2d796c88843be6fe5d01", "fusion_lat": 0.0, "is_reserved": 0, "lon": -77.01383483333333}, {"type": "electric_scooter", "name": "058835bdb38fd72c09742fc2eb338573", "rental_uris": {"ios": "https://dc.lft.to/lastmile_qr_scan", "android": "https://dc.lft.to/lastmile_qr_scan"}, "fusion_lon": 0.0, "lat": 38.89224766666667, "is_disabled": 0, "bike_id": "058835bdb38fd72c09742fc2eb338573", "fusion_lat": 0.0, "is_reserved": 0, "lon": -77.0419425}, {"type": "electric_scooter", "name": "0fdd098c4a41714ad4726703cc0ed705", "rental_uris": {"ios": "https://dc.lft.to/lastmile_qr_scan", "android": "https://dc.lft.to/lastmile_qr_scan"}, "fusion_lon": 0.0, "lat": 38.902556, "is_disabled": 0, "bike_id": "0fdd098c4a41714ad4726703cc0ed705", "fusion_lat": 0.0, "is_reserved": 0, "lon": -77.01838766666667}, {"type": "electric_scooter", "name": "1e13b0036b2a4649f1a1594c197fc39a", "rental_uris": {"ios": "https://dc.lft.to/lastmile_qr_scan", "android": "https://dc.lft.to/lastmile_qr_scan"}, "fusion_lon": 0.0, "lat": 38.95497733333333, "is_disabled": 0, "bike_id": "1e13b0036b2a4649f1a1594c197fc39a", "fusion_lat": 0.0, "is_reserved": 0, "lon": -77.01725116666667}, {"type": "electric_scooter", "name": "a46fcca9f54598f90072448e490c9ef8", "rental_uris": {"ios": "https://dc.lft.to/lastmile_qr_scan", "android": "https://dc.lft.to/lastmile_qr_scan"}, "fusion_lon": 0.0, "lat": 38.905235166666664, "is_disabled": 0, "bike_id": "a46fcca9f54598f90072448e490c9ef8", "fusion_lat": 0.0, "is_reserved": 0, "lon": -77.04172133333333}, {"type": "electric_scooter", "name": "2249ee16d054ea7fce7cd211c3eb72aa", "rental_uris": {"ios": "https://dc.lft.to/lastmile_qr_scan", "android": "https://dc.lft.to/lastmile_qr_scan"}, "fusion_lon": 0.0, "lat": 38.916231333333336, "is_disabled": 0, "bike_id": "2249ee16d054ea7fce7cd211c3eb72aa", "fusion_lat": 0.0, "is_reserved": 0, "lon": -77.04006066666666}, {"type": "electric_bike", "name": "a48714ca087e75a4d0d134d37597e25e", "rental_uris": {"ios": "https://dc.lft.to/lastmile_qr_scan", "android": "https://dc.lft.to/lastmile_qr_scan"}, "fusion_lon": 0.0, "lat": 38.908688166666664, "is_disabled": 0, "bike_id": "a48714ca087e75a4d0d134d37597e25e", "fusion_lat": 0.0, "is_reserved": 0, "lon": -76.99955933333334}, {"type": "electric_scooter", "name": "b8e7620b64842210bea008d9f560cb7b", "rental_uris": {"ios": "https://dc.lft.to/lastmile_qr_scan", "android": "https://dc.lft.to/lastmile_qr_scan"}, "fusion_lon": 0.0, "lat": 38.92789666666667, "is_disabled": 0, "bike_id": "b8e7620b64842210bea008d9f560cb7b", "fusion_lat": 0.0, "is_reserved": 0, "lon": -77.03151016666666}, {"type": "electric_scooter", "name": "81892d193600815028af9e7998d4848f", "rental_uris": {"ios": "https://dc.lft.to/lastmile_qr_scan", "android": "https://dc.lft.to/lastmile_qr_scan"}, "fusion_lon": 0.0, "lat": 38.866834833333336, "is_disabled": 0, "bike_id": "81892d193600815028af9e7998d4848f", "fusion_lat": 0.0, "is_reserved": 0, "lon": -76.9856645}, {"type": "electric_scooter", "name": "527f5955699fa36e01e1591ebc068e3b", "rental_uris": {"ios": "https://dc.lft.to/lastmile_qr_scan", "android": "https://dc.lft.to/lastmile_qr_scan"}, "fusion_lon": 0.0, "lat": 38.902559333333336, "is_disabled": 0, "bike_id": "527f5955699fa36e01e1591ebc068e3b", "fusion_lat": 0.0, "is_reserved": 0, "lon": -77.0342125}, {"type": "electric_scooter", "name": "7b225a9994e7eb2f67b1e876ad327e4d", "rental_uris": {"ios": "https://dc.lft.to/lastmile_qr_scan", "android": "https://dc.lft.to/lastmile_qr_scan"}, "fusion_lon": 0.0, "lat": 38.909595333333336, "is_disabled": 0, "bike_id": "7b225a9994e7eb2f67b1e876ad327e4d", "fusion_lat": 0.0, "is_reserved": 0, "lon": -77.04864066666667}, {"type": "electric_scooter", "name": "06ba8f57fe8e9c06e45372b87abd719c", "rental_uris": {"ios": "https://dc.lft.to/lastmile_qr_scan", "android": "https://dc.lft.to/lastmile_qr_scan"}, "fusion_lon": 0.0, "lat": 38.8986515, "is_disabled": 0, "bike_id": "06ba8f57fe8e9c06e45372b87abd719c", "fusion_lat": 0.0, "is_reserved": 0, "lon": -76.94641266666666}, {"type": "electric_scooter", "name": "085b7219d28c4f3719ff2be2e9d76429", "rental_uris": {"ios": "https://dc.lft.to/lastmile_qr_scan", "android": "https://dc.lft.to/lastmile_qr_scan"}, "fusion_lon": 0.0, "lat": 38.91388366666666, "is_disabled": 0, "bike_id": "085b7219d28c4f3719ff2be2e9d76429", "fusion_lat": 0.0, "is_reserved": 0, "lon": -77.0321055}, {"type": "electric_scooter", "name": "7611dc7c12386452cb58c437caf09029", "rental_uris": {"ios": "https://dc.lft.to/lastmile_qr_scan", "android": "https://dc.lft.to/lastmile_qr_scan"}, "fusion_lon": 0.0, "lat": 38.92842566666667, "is_disabled": 0, "bike_id": "7611dc7c12386452cb58c437caf09029", "fusion_lat": 0.0, "is_reserved": 0, "lon": -77.0329845}, {"type": "electric_scooter", "name": "71c14d54b6cfb8f85aedc4bc1dfce221", "rental_uris": {"ios": "https://dc.lft.to/lastmile_qr_scan", "android": "https://dc.lft.to/lastmile_qr_scan"}, "fusion_lon": 0.0, "lat": 38.910758, "is_disabled": 0, "bike_id": "71c14d54b6cfb8f85aedc4bc1dfce221", "fusion_lat": 0.0, "is_reserved": 0, "lon": -77.02717916666667}, {"type": "electric_scooter", "name": "2cbe0eb21debc2db5e8955ebcdf5a4d5", "rental_uris": {"ios": "https://dc.lft.to/lastmile_qr_scan", "android": "https://dc.lft.to/lastmile_qr_scan"}, "fusion_lon": 0.0, "lat": 38.90384816666667, "is_disabled": 0, "bike_id": "2cbe0eb21debc2db5e8955ebcdf5a4d5", "fusion_lat": 0.0, "is_reserved": 0, "lon": -77.01652016666667}, {"type": "electric_bike", "name": "28960ed08ecebed5f4f801c5a83a77a9", "rental_uris": {"ios": "https://dc.lft.to/lastmile_qr_scan", "android": "https://dc.lft.to/lastmile_qr_scan"}, "fusion_lon": 0.0, "lat": 38.84284483333333, "is_disabled": 0, "bike_id": "28960ed08ecebed5f4f801c5a83a77a9", "fusion_lat": 0.0, "is_reserved": 0, "lon": -77.045037}, {"type": "electric_scooter", "name": "e715481e7fa138a3853a19f9b24528fc", "rental_uris": {"ios": "https://dc.lft.to/lastmile_qr_scan", "android": "https://dc.lft.to/lastmile_qr_scan"}, "fusion_lon": 0.0, "lat": 38.91122766666667, "is_disabled": 0, "bike_id": "e715481e7fa138a3853a19f9b24528fc", "fusion_lat": 0.0, "is_reserved": 0, "lon": -77.04463366666667}, {"type": "electric_scooter", "name": "607efdec16f96d3f39432dfd137f6ba8", "rental_uris": {"ios": "https://dc.lft.to/lastmile_qr_scan", "android": "https://dc.lft.to/lastmile_qr_scan"}, "fusion_lon": 0.0, "lat": 38.934647, "is_disabled": 0, "bike_id": "607efdec16f96d3f39432dfd137f6ba8", "fusion_lat": 0.0, "is_reserved": 0, "lon": -77.04123983333334}, {"type": "electric_scooter", "name": "aaf5c70df2571171f0ec2caa2d8d097d", "rental_uris": {"ios": "https://dc.lft.to/lastmile_qr_scan", "android": "https://dc.lft.to/lastmile_qr_scan"}, "fusion_lon": 0.0, "lat": 38.88490483333333, "is_disabled": 0, "bike_id": "aaf5c70df2571171f0ec2caa2d8d097d", "fusion_lat": 0.0, "is_reserved": 0, "lon": -77.00708433333334}, {"type": "electric_scooter", "name": "0cdea0646c7fbf162ace06736e014035", "rental_uris": {"ios": "https://dc.lft.to/lastmile_qr_scan", "android": "https://dc.lft.to/lastmile_qr_scan"}, "fusion_lon": 0.0, "lat": 38.91091, "is_disabled": 0, "bike_id": "0cdea0646c7fbf162ace06736e014035", "fusion_lat": 0.0, "is_reserved": 0, "lon": -77.0383805}, {"type": "electric_scooter", "name": "71ddd76dfabffd2d7b34c470ace31df3", "rental_uris": {"ios": "https://dc.lft.to/lastmile_qr_scan", "android": "https://dc.lft.to/lastmile_qr_scan"}, "fusion_lon": 0.0, "lat": 38.941031333333335, "is_disabled": 0, "bike_id": "71ddd76dfabffd2d7b34c470ace31df3", "fusion_lat": 0.0, "is_reserved": 0, "lon": -77.0002555}, {"type": "electric_scooter", "name": "be9dd1e530787fec5661d784f3be164b", "rental_uris": {"ios": "https://dc.lft.to/lastmile_qr_scan", "android": "https://dc.lft.to/lastmile_qr_scan"}, "fusion_lon": 0.0, "lat": 38.90272433333333, "is_disabled": 0, "bike_id": "be9dd1e530787fec5661d784f3be164b", "fusion_lat": 0.0, "is_reserved": 0, "lon": -77.03045183333333}, {"type": "electric_scooter", "name": "533eb3318bbd5d66840ca582cab001a1", "rental_uris": {"ios": "https://dc.lft.to/lastmile_qr_scan", "android": "https://dc.lft.to/lastmile_qr_scan"}, "fusion_lon": 0.0, "lat": 38.8796835, "is_disabled": 0, "bike_id": "533eb3318bbd5d66840ca582cab001a1", "fusion_lat": 0.0, "is_reserved": 0, "lon": -77.02375333333333}, {"type": "electric_bike", "name": "8b12b16374e6acbbff9ff5cfbe058d69", "rental_uris": {"ios": "https://dc.lft.to/lastmile_qr_scan", "android": "https://dc.lft.to/lastmile_qr_scan"}, "fusion_lon": 0.0, "lat": 38.9708555, "is_disabled": 0, "bike_id": "8b12b16374e6acbbff9ff5cfbe058d69", "fusion_lat": 0.0, "is_reserved": 0, "lon": -76.93604883333333}, {"type": "electric_scooter", "name": "d923b98cc476082009986276d61f4a0f", "rental_uris": {"ios": "https://dc.lft.to/lastmile_qr_scan", "android": "https://dc.lft.to/lastmile_qr_scan"}, "fusion_lon": 0.0, "lat": 38.92591083333333, "is_disabled": 0, "bike_id": "d923b98cc476082009986276d61f4a0f", "fusion_lat": 0.0, "is_reserved": 0, "lon": -77.03782633333333}, {"type": "electric_scooter", "name": "9e2bf926fe5cf4de6a41449169d36413", "rental_uris": {"ios": "https://dc.lft.to/lastmile_qr_scan", "android": "https://dc.lft.to/lastmile_qr_scan"}, "fusion_lon": 0.0, "lat": 38.89740616666667, "is_disabled": 0, "bike_id": "9e2bf926fe5cf4de6a41449169d36413", "fusion_lat": 0.0, "is_reserved": 0, "lon": -77.00980383333334}, {"type": "electric_scooter", "name": "8f5579fdcdf049eb80b04104313315ad", "rental_uris": {"ios": "https://dc.lft.to/lastmile_qr_scan", "android": "https://dc.lft.to/lastmile_qr_scan"}, "fusion_lon": 0.0, "lat": 38.936710166666664, "is_disabled": 0, "bike_id": "8f5579fdcdf049eb80b04104313315ad", "fusion_lat": 0.0, "is_reserved": 0, "lon": -77.03638483333333}, {"type": "electric_scooter", "name": "c359427f6ee0ded9901987ad422579cb", "rental_uris": {"ios": "https://dc.lft.to/lastmile_qr_scan", "android": "https://dc.lft.to/lastmile_qr_scan"}, "fusion_lon": 0.0, "lat": 38.932873666666666, "is_disabled": 0, "bike_id": "c359427f6ee0ded9901987ad422579cb", "fusion_lat": 0.0, "is_reserved": 0, "lon": -77.0254745}, {"type": "electric_scooter", "name": "8dadbb1d02e0cd54772246f58631429a", "rental_uris": {"ios": "https://dc.lft.to/lastmile_qr_scan", "android": "https://dc.lft.to/lastmile_qr_scan"}, "fusion_lon": 0.0, "lat": 38.922936166666666, "is_disabled": 0, "bike_id": "8dadbb1d02e0cd54772246f58631429a", "fusion_lat": 0.0, "is_reserved": 0, "lon": -77.032061}, {"type": "electric_scooter", "name": "4f1cb8fea79bde002e4248138d153b1b", "rental_uris": {"ios": "https://dc.lft.to/lastmile_qr_scan", "android": "https://dc.lft.to/lastmile_qr_scan"}, "fusion_lon": 0.0, "lat": 38.92372266666667, "is_disabled": 0, "bike_id": "4f1cb8fea79bde002e4248138d153b1b", "fusion_lat": 0.0, "is_reserved": 0, "lon": -77.02125466666666}, {"type": "electric_scooter", "name": "e6ea94450fcf1b60ae7beb5f5f1e0ef1", "rental_uris": {"ios": "https://dc.lft.to/lastmile_qr_scan", "android": "https://dc.lft.to/lastmile_qr_scan"}, "fusion_lon": 0.0, "lat": 38.92954783333333, "is_disabled": 0, "bike_id": "e6ea94450fcf1b60ae7beb5f5f1e0ef1", "fusion_lat": 0.0, "is_reserved": 0, "lon": -77.01839116666666}, {"type": "electric_bike", "name": "1b660b362cc7d66c9bd10d351d25457d", "rental_uris": {"ios": "https://dc.lft.to/lastmile_qr_scan", "android": "https://dc.lft.to/lastmile_qr_scan"}, "fusion_lon": 0.0, "lat": 38.92270516666667, "is_disabled": 0, "bike_id": "1b660b362cc7d66c9bd10d351d25457d", "fusion_lat": 0.0, "is_reserved": 0, "lon": -77.018516}, {"type": "electric_scooter", "name": "9bae4e93842c73fd47c916f5acddecff", "rental_uris": {"ios": "https://dc.lft.to/lastmile_qr_scan", "android": "https://dc.lft.to/lastmile_qr_scan"}, "fusion_lon": 0.0, "lat": 38.92369433333333, "is_disabled": 0, "bike_id": "9bae4e93842c73fd47c916f5acddecff", "fusion_lat": 0.0, "is_reserved": 0, "lon": -77.01952516666667}, {"type": "electric_scooter", "name": "4d93d5b90510d9e0d33b84001dcd6543", "rental_uris": {"ios": "https://dc.lft.to/lastmile_qr_scan", "android": "https://dc.lft.to/lastmile_qr_scan"}, "fusion_lon": 0.0, "lat": 38.900171666666665, "is_disabled": 0, "bike_id": "4d93d5b90510d9e0d33b84001dcd6543", "fusion_lat": 0.0, "is_reserved": 0, "lon": -76.9983895}, {"type": "electric_scooter", "name": "1de2bc54dd6e5ee7ce93a20a009905ae", "rental_uris": {"ios": "https://dc.lft.to/lastmile_qr_scan", "android": "https://dc.lft.to/lastmile_qr_scan"}, "fusion_lon": 0.0, "lat": 38.89732566666667, "is_disabled": 0, "bike_id": "1de2bc54dd6e5ee7ce93a20a009905ae", "fusion_lat": 0.0, "is_reserved": 0, "lon": -77.05523966666667}, {"type": "electric_scooter", "name": "6ae3925643574e732dad520ea5817ec4", "rental_uris": {"ios": "https://dc.lft.to/lastmile_qr_scan", "android": "https://dc.lft.to/lastmile_qr_scan"}, "fusion_lon": 0.0, "lat": 38.918918, "is_disabled": 0, "bike_id": "6ae3925643574e732dad520ea5817ec4", "fusion_lat": 0.0, "is_reserved": 0, "lon": -77.00349266666667}, {"type": "electric_scooter", "name": "35f08f8042aa62907d6a24a4b982e7c3", "rental_uris": {"ios": "https://dc.lft.to/lastmile_qr_scan", "android": "https://dc.lft.to/lastmile_qr_scan"}, "fusion_lon": 0.0, "lat": 38.89746066666667, "is_disabled": 0, "bike_id": "35f08f8042aa62907d6a24a4b982e7c3", "fusion_lat": 0.0, "is_reserved": 0, "lon": -77.03230033333334}, {"type": "electric_scooter", "name": "2ab490de96d72d773a92e775e54b23d1", "rental_uris": {"ios": "https://dc.lft.to/lastmile_qr_scan", "android": "https://dc.lft.to/lastmile_qr_scan"}, "fusion_lon": 0.0, "lat": 38.91488983333333, "is_disabled": 0, "bike_id": "2ab490de96d72d773a92e775e54b23d1", "fusion_lat": 0.0, "is_reserved": 0, "lon": -77.03734133333333}, {"type": "electric_scooter", "name": "91fabc691a49eaa9bd3bee2190d07c10", "rental_uris": {"ios": "https://dc.lft.to/lastmile_qr_scan", "android": "https://dc.lft.to/lastmile_qr_scan"}, "fusion_lon": 0.0, "lat": 38.925348, "is_disabled": 0, "bike_id": "91fabc691a49eaa9bd3bee2190d07c10", "fusion_lat": 0.0, "is_reserved": 0, "lon": -77.02275816666666}, {"type": "electric_bike", "name": "db38e26f876b74be734a02585ce0d3ef", "rental_uris": {"ios": "https://dc.lft.to/lastmile_qr_scan", "android": "https://dc.lft.to/lastmile_qr_scan"}, "fusion_lon": 0.0, "lat": 38.93581133333333, "is_disabled": 0, "bike_id": "db38e26f876b74be734a02585ce0d3ef", "fusion_lat": 0.0, "is_reserved": 0, "lon": -76.999327}, {"type": "electric_scooter", "name": "fa6a9436e568ffc3965c389280d2dfd5", "rental_uris": {"ios": "https://dc.lft.to/lastmile_qr_scan", "android": "https://dc.lft.to/lastmile_qr_scan"}, "fusion_lon": 0.0, "lat": 38.90519483333333, "is_disabled": 0, "bike_id": "fa6a9436e568ffc3965c389280d2dfd5", "fusion_lat": 0.0, "is_reserved": 0, "lon": -77.04959433333333}, {"type": "electric_scooter", "name": "efa516d58eb04ea7615a59e6f8434889", "rental_uris": {"ios": "https://dc.lft.to/lastmile_qr_scan", "android": "https://dc.lft.to/lastmile_qr_scan"}, "fusion_lon": 0.0, "lat": 38.8922475, "is_disabled": 0, "bike_id": "efa516d58eb04ea7615a59e6f8434889", "fusion_lat": 0.0, "is_reserved": 0, "lon": -77.0477295}, {"type": "electric_scooter", "name": "e79f1954d2fa8af4d56ce6a0328ac4ba", "rental_uris": {"ios": "https://dc.lft.to/lastmile_qr_scan", "android": "https://dc.lft.to/lastmile_qr_scan"}, "fusion_lon": 0.0, "lat": 38.92603483333333, "is_disabled": 0, "bike_id": "e79f1954d2fa8af4d56ce6a0328ac4ba", "fusion_lat": 0.0, "is_reserved": 0, "lon": -77.0238905}, {"type": "electric_bike", "name": "1e126bde256b4732c67d6a39091328c5", "rental_uris": {"ios": "https://dc.lft.to/lastmile_qr_scan", "android": "https://dc.lft.to/lastmile_qr_scan"}, "fusion_lon": 0.0, "lat": 38.83934883333333, "is_disabled": 0, "bike_id": "1e126bde256b4732c67d6a39091328c5", "fusion_lat": 0.0, "is_reserved": 0, "lon": -77.079032}, {"type": "electric_scooter", "name": "3e30b9028678dc11f800128ac311d5cc", "rental_uris": {"ios": "https://dc.lft.to/lastmile_qr_scan", "android": "https://dc.lft.to/lastmile_qr_scan"}, "fusion_lon": 0.0, "lat": 38.917616333333335, "is_disabled": 0, "bike_id": "3e30b9028678dc11f800128ac311d5cc", "fusion_lat": 0.0, "is_reserved": 0, "lon": -77.01216816666667}, {"type": "electric_scooter", "name": "d385005cb60030507cf9a9d1fc238040", "rental_uris": {"ios": "https://dc.lft.to/lastmile_qr_scan", "android": "https://dc.lft.to/lastmile_qr_scan"}, "fusion_lon": 0.0, "lat": 38.92013466666667, "is_disabled": 0, "bike_id": "d385005cb60030507cf9a9d1fc238040", "fusion_lat": 0.0, "is_reserved": 0, "lon": -77.03146233333334}, {"type": "electric_scooter", "name": "f2ab6cd69db424a6e7cceb3d1befc289", "rental_uris": {"ios": "https://dc.lft.to/lastmile_qr_scan", "android": "https://dc.lft.to/lastmile_qr_scan"}, "fusion_lon": 0.0, "lat": 38.886107833333334, "is_disabled": 0, "bike_id": "f2ab6cd69db424a6e7cceb3d1befc289", "fusion_lat": 0.0, "is_reserved": 0, "lon": -77.032098}, {"type": "electric_scooter", "name": "fc18334325da394bd8a0366503acb283", "rental_uris": {"ios": "https://dc.lft.to/lastmile_qr_scan", "android": "https://dc.lft.to/lastmile_qr_scan"}, "fusion_lon": 0.0, "lat": 38.887396, "is_disabled": 0, "bike_id": "fc18334325da394bd8a0366503acb283", "fusion_lat": 0.0, "is_reserved": 0, "lon": -77.02577316666667}, {"type": "electric_scooter", "name": "3c1d4f2725a1077ef7cd58ada68d0667", "rental_uris": {"ios": "https://dc.lft.to/lastmile_qr_scan", "android": "https://dc.lft.to/lastmile_qr_scan"}, "fusion_lon": 0.0, "lat": 38.91717766666667, "is_disabled": 0, "bike_id": "3c1d4f2725a1077ef7cd58ada68d0667", "fusion_lat": 0.0, "is_reserved": 0, "lon": -77.03664683333334}, {"type": "electric_scooter", "name": "ab1f0234e62ad25e65a27be8e7dd24d6", "rental_uris": {"ios": "https://dc.lft.to/lastmile_qr_scan", "android": "https://dc.lft.to/lastmile_qr_scan"}, "fusion_lon": 0.0, "lat": 38.90960466666667, "is_disabled": 0, "bike_id": "ab1f0234e62ad25e65a27be8e7dd24d6", "fusion_lat": 0.0, "is_reserved": 0, "lon": -77.03325033333333}, {"type": "electric_bike", "name": "6a6425e84999bd151303480e9b33de88", "rental_uris": {"ios": "https://dc.lft.to/lastmile_qr_scan", "android": "https://dc.lft.to/lastmile_qr_scan"}, "fusion_lon": 0.0, "lat": 38.9788415, "is_disabled": 0, "bike_id": "6a6425e84999bd151303480e9b33de88", "fusion_lat": 0.0, "is_reserved": 0, "lon": -77.06030583333333}, {"type": "electric_scooter", "name": "45f72ce74d3d82ea4ba66156e41ab72f", "rental_uris": {"ios": "https://dc.lft.to/lastmile_qr_scan", "android": "https://dc.lft.to/lastmile_qr_scan"}, "fusion_lon": 0.0, "lat": 38.9157, "is_disabled": 0, "bike_id": "45f72ce74d3d82ea4ba66156e41ab72f", "fusion_lat": 0.0, "is_reserved": 0, "lon": -77.02128533333334}, {"type": "electric_scooter", "name": "56d7ca0f50c2887e212f19dc7a99f67b", "rental_uris": {"ios": "https://dc.lft.to/lastmile_qr_scan", "android": "https://dc.lft.to/lastmile_qr_scan"}, "fusion_lon": 0.0, "lat": 38.907371166666664, "is_disabled": 0, "bike_id": "56d7ca0f50c2887e212f19dc7a99f67b", "fusion_lat": 0.0, "is_reserved": 0, "lon": -76.99781233333333}, {"type": "electric_bike", "name": "e687ae9f446ef2433954057c9f0d7380", "rental_uris": {"ios": "https://dc.lft.to/lastmile_qr_scan", "android": "https://dc.lft.to/lastmile_qr_scan"}, "fusion_lon": 0.0, "lat": 38.90645966666666, "is_disabled": 0, "bike_id": "e687ae9f446ef2433954057c9f0d7380", "fusion_lat": 0.0, "is_reserved": 0, "lon": -77.043411}, {"type": "electric_scooter", "name": "339e3dc4f848897de08544a076120b22", "rental_uris": {"ios": "https://dc.lft.to/lastmile_qr_scan", "android": "https://dc.lft.to/lastmile_qr_scan"}, "fusion_lon": 0.0, "lat": 38.900179333333334, "is_disabled": 0, "bike_id": "339e3dc4f848897de08544a076120b22", "fusion_lat": 0.0, "is_reserved": 0, "lon": -77.02721416666667}, {"type": "electric_scooter", "name": "144386c3a1e836bd1ff201338b752b1b", "rental_uris": {"ios": "https://dc.lft.to/lastmile_qr_scan", "android": "https://dc.lft.to/lastmile_qr_scan"}, "fusion_lon": 0.0, "lat": 38.9039165, "is_disabled": 0, "bike_id": "144386c3a1e836bd1ff201338b752b1b", "fusion_lat": 0.0, "is_reserved": 0, "lon": -77.04382166666667}, {"type": "electric_scooter", "name": "abcead48f34463d96fa5c22fadf3a0c9", "rental_uris": {"ios": "https://dc.lft.to/lastmile_qr_scan", "android": "https://dc.lft.to/lastmile_qr_scan"}, "fusion_lon": 0.0, "lat": 38.90533383333333, "is_disabled": 0, "bike_id": "abcead48f34463d96fa5c22fadf3a0c9", "fusion_lat": 0.0, "is_reserved": 0, "lon": -77.048866}, {"type": "electric_scooter", "name": "6b7ff5b61108986fc9887f71a5fc2dba", "rental_uris": {"ios": "https://dc.lft.to/lastmile_qr_scan", "android": "https://dc.lft.to/lastmile_qr_scan"}, "fusion_lon": 0.0, "lat": 38.88447266666667, "is_disabled": 0, "bike_id": "6b7ff5b61108986fc9887f71a5fc2dba", "fusion_lat": 0.0, "is_reserved": 0, "lon": -76.9962515}, {"type": "electric_scooter", "name": "ce803c0c712afbb7b49484f10c7f7be2", "rental_uris": {"ios": "https://dc.lft.to/lastmile_qr_scan", "android": "https://dc.lft.to/lastmile_qr_scan"}, "fusion_lon": 0.0, "lat": 38.88736333333333, "is_disabled": 0, "bike_id": "ce803c0c712afbb7b49484f10c7f7be2", "fusion_lat": 0.0, "is_reserved": 0, "lon": -77.02577633333334}, {"type": "electric_scooter", "name": "0102bc014082dd5b8106549b3a0c4f2f", "rental_uris": {"ios": "https://dc.lft.to/lastmile_qr_scan", "android": "https://dc.lft.to/lastmile_qr_scan"}, "fusion_lon": 0.0, "lat": 38.9017775, "is_disabled": 0, "bike_id": "0102bc014082dd5b8106549b3a0c4f2f", "fusion_lat": 0.0, "is_reserved": 0, "lon": -76.94144533333333}, {"type": "electric_scooter", "name": "52d56105a7ca0bc92f592a0609bc901d", "rental_uris": {"ios": "https://dc.lft.to/lastmile_qr_scan", "android": "https://dc.lft.to/lastmile_qr_scan"}, "fusion_lon": 0.0, "lat": 38.9137315, "is_disabled": 0, "bike_id": "52d56105a7ca0bc92f592a0609bc901d", "fusion_lat": 0.0, "is_reserved": 0, "lon": -77.01834183333334}, {"type": "electric_bike", "name": "9484e5ac7059f836b5195c7f0e2f4aae", "rental_uris": {"ios": "https://dc.lft.to/lastmile_qr_scan", "android": "https://dc.lft.to/lastmile_qr_scan"}, "fusion_lon": 0.0, "lat": 38.8916315, "is_disabled": 0, "bike_id": "9484e5ac7059f836b5195c7f0e2f4aae", "fusion_lat": 0.0, "is_reserved": 0, "lon": -77.004682}, {"type": "electric_scooter", "name": "08a7188ff9905185d89fd64dee251235", "rental_uris": {"ios": "https://dc.lft.to/lastmile_qr_scan", "android": "https://dc.lft.to/lastmile_qr_scan"}, "fusion_lon": 0.0, "lat": 38.92050233333333, "is_disabled": 0, "bike_id": "08a7188ff9905185d89fd64dee251235", "fusion_lat": 0.0, "is_reserved": 0, "lon": -77.025779}, {"type": "electric_scooter", "name": "68cddb7195149cdee297e8ca743619a7", "rental_uris": {"ios": "https://dc.lft.to/lastmile_qr_scan", "android": "https://dc.lft.to/lastmile_qr_scan"}, "fusion_lon": 0.0, "lat": 38.89620733333334, "is_disabled": 0, "bike_id": "68cddb7195149cdee297e8ca743619a7", "fusion_lat": 0.0, "is_reserved": 0, "lon": -76.97969766666667}, {"type": "electric_scooter", "name": "8db4de1b2b0f7ea480663f324fa42288", "rental_uris": {"ios": "https://dc.lft.to/lastmile_qr_scan", "android": "https://dc.lft.to/lastmile_qr_scan"}, "fusion_lon": 0.0, "lat": 38.920443166666665, "is_disabled": 0, "bike_id": "8db4de1b2b0f7ea480663f324fa42288", "fusion_lat": 0.0, "is_reserved": 0, "lon": -77.01793266666667}, {"type": "electric_scooter", "name": "fe7f960082043be33706e9300c5ee774", "rental_uris": {"ios": "https://dc.lft.to/lastmile_qr_scan", "android": "https://dc.lft.to/lastmile_qr_scan"}, "fusion_lon": 0.0, "lat": 38.901344, "is_disabled": 0, "bike_id": "fe7f960082043be33706e9300c5ee774", "fusion_lat": 0.0, "is_reserved": 0, "lon": -77.036292}, {"type": "electric_scooter", "name": "46dc9627dcba6b189d170c0025c63d49", "rental_uris": {"ios": "https://dc.lft.to/lastmile_qr_scan", "android": "https://dc.lft.to/lastmile_qr_scan"}, "fusion_lon": 0.0, "lat": 38.9014205, "is_disabled": 0, "bike_id": "46dc9627dcba6b189d170c0025c63d49", "fusion_lat": 0.0, "is_reserved": 0, "lon": -76.9896565}, {"type": "electric_scooter", "name": "1c136f7c9a658539ede15cef0cc9765f", "rental_uris": {"ios": "https://dc.lft.to/lastmile_qr_scan", "android": "https://dc.lft.to/lastmile_qr_scan"}, "fusion_lon": 0.0, "lat": 38.896208333333334, "is_disabled": 0, "bike_id": "1c136f7c9a658539ede15cef0cc9765f", "fusion_lat": 0.0, "is_reserved": 0, "lon": -76.99333516666667}, {"type": "electric_scooter", "name": "9194b5279756dee975a4e3d9de15e7c1", "rental_uris": {"ios": "https://dc.lft.to/lastmile_qr_scan", "android": "https://dc.lft.to/lastmile_qr_scan"}, "fusion_lon": 0.0, "lat": 38.9101535, "is_disabled": 0, "bike_id": "9194b5279756dee975a4e3d9de15e7c1", "fusion_lat": 0.0, "is_reserved": 0, "lon": -77.0219555}, {"type": "electric_scooter", "name": "99582473bf52991bcb51ccc5109bc163", "rental_uris": {"ios": "https://dc.lft.to/lastmile_qr_scan", "android": "https://dc.lft.to/lastmile_qr_scan"}, "fusion_lon": 0.0, "lat": 38.915515666666664, "is_disabled": 0, "bike_id": "99582473bf52991bcb51ccc5109bc163", "fusion_lat": 0.0, "is_reserved": 0, "lon": -77.0377465}, {"type": "electric_scooter", "name": "e91ed1836765316fa5b7cc39061d7536", "rental_uris": {"ios": "https://dc.lft.to/lastmile_qr_scan", "android": "https://dc.lft.to/lastmile_qr_scan"}, "fusion_lon": 0.0, "lat": 38.89659983333333, "is_disabled": 0, "bike_id": "e91ed1836765316fa5b7cc39061d7536", "fusion_lat": 0.0, "is_reserved": 0, "lon": -77.02618333333334}, {"type": "electric_scooter", "name": "0a25b110c2f36ff7461a04551957b614", "rental_uris": {"ios": "https://dc.lft.to/lastmile_qr_scan", "android": "https://dc.lft.to/lastmile_qr_scan"}, "fusion_lon": 0.0, "lat": 38.92367083333333, "is_disabled": 0, "bike_id": "0a25b110c2f36ff7461a04551957b614", "fusion_lat": 0.0, "is_reserved": 0, "lon": -77.05033483333334}, {"type": "electric_scooter", "name": "30068cf6c54181e7574d77bfcb40842d", "rental_uris": {"ios": "https://dc.lft.to/lastmile_qr_scan", "android": "https://dc.lft.to/lastmile_qr_scan"}, "fusion_lon": 0.0, "lat": 38.876653833333336, "is_disabled": 0, "bike_id": "30068cf6c54181e7574d77bfcb40842d", "fusion_lat": 0.0, "is_reserved": 0, "lon": -77.005206}, {"type": "electric_scooter", "name": "7ad79e40235b8d355ff962f6db283c1b", "rental_uris": {"ios": "https://dc.lft.to/lastmile_qr_scan", "android": "https://dc.lft.to/lastmile_qr_scan"}, "fusion_lon": 0.0, "lat": 38.905965, "is_disabled": 0, "bike_id": "7ad79e40235b8d355ff962f6db283c1b", "fusion_lat": 0.0, "is_reserved": 0, "lon": -77.04085633333334}, {"type": "electric_scooter", "name": "0cbfcafbdccb3a8145a9283d3f02b3fb", "rental_uris": {"ios": "https://dc.lft.to/lastmile_qr_scan", "android": "https://dc.lft.to/lastmile_qr_scan"}, "fusion_lon": 0.0, "lat": 38.90048633333333, "is_disabled": 0, "bike_id": "0cbfcafbdccb3a8145a9283d3f02b3fb", "fusion_lat": 0.0, "is_reserved": 0, "lon": -76.98843633333334}, {"type": "electric_scooter", "name": "14a39e03b2b4b50cc6c61b86c68dc2c9", "rental_uris": {"ios": "https://dc.lft.to/lastmile_qr_scan", "android": "https://dc.lft.to/lastmile_qr_scan"}, "fusion_lon": 0.0, "lat": 38.9125795, "is_disabled": 0, "bike_id": "14a39e03b2b4b50cc6c61b86c68dc2c9", "fusion_lat": 0.0, "is_reserved": 0, "lon": -76.9834835}, {"type": "electric_scooter", "name": "9a04be115c0dab80ceee86fb83ea2ec9", "rental_uris": {"ios": "https://dc.lft.to/lastmile_qr_scan", "android": "https://dc.lft.to/lastmile_qr_scan"}, "fusion_lon": 0.0, "lat": 38.912728666666666, "is_disabled": 0, "bike_id": "9a04be115c0dab80ceee86fb83ea2ec9", "fusion_lat": 0.0, "is_reserved": 0, "lon": -77.0383055}, {"type": "electric_scooter", "name": "6ebefca25de2dd58f743e687e98352f5", "rental_uris": {"ios": "https://dc.lft.to/lastmile_qr_scan", "android": "https://dc.lft.to/lastmile_qr_scan"}, "fusion_lon": 0.0, "lat": 38.8863655, "is_disabled": 0, "bike_id": "6ebefca25de2dd58f743e687e98352f5", "fusion_lat": 0.0, "is_reserved": 0, "lon": -77.01546483333334}, {"type": "electric_scooter", "name": "51f8251a17bf7535fbe590e850339142", "rental_uris": {"ios": "https://dc.lft.to/lastmile_qr_scan", "android": "https://dc.lft.to/lastmile_qr_scan"}, "fusion_lon": 0.0, "lat": 38.916405166666664, "is_disabled": 0, "bike_id": "51f8251a17bf7535fbe590e850339142", "fusion_lat": 0.0, "is_reserved": 0, "lon": -77.04127433333333}, {"type": "electric_scooter", "name": "d3bbf652cab2343115d1eec67ff93414", "rental_uris": {"ios": "https://dc.lft.to/lastmile_qr_scan", "android": "https://dc.lft.to/lastmile_qr_scan"}, "fusion_lon": 0.0, "lat": 38.898452166666665, "is_disabled": 0, "bike_id": "d3bbf652cab2343115d1eec67ff93414", "fusion_lat": 0.0, "is_reserved": 0, "lon": -77.03958966666667}, {"type": "electric_scooter", "name": "79681bc9b1adeb16c500e09576a559a1", "rental_uris": {"ios": "https://dc.lft.to/lastmile_qr_scan", "android": "https://dc.lft.to/lastmile_qr_scan"}, "fusion_lon": 0.0, "lat": 38.91269916666667, "is_disabled": 0, "bike_id": "79681bc9b1adeb16c500e09576a559a1", "fusion_lat": 0.0, "is_reserved": 0, "lon": -77.01438633333333}, {"type": "electric_scooter", "name": "d8847b5b0afbfeb4b3750e10dc2be675", "rental_uris": {"ios": "https://dc.lft.to/lastmile_qr_scan", "android": "https://dc.lft.to/lastmile_qr_scan"}, "fusion_lon": 0.0, "lat": 38.936820166666664, "is_disabled": 0, "bike_id": "d8847b5b0afbfeb4b3750e10dc2be675", "fusion_lat": 0.0, "is_reserved": 0, "lon": -77.084469}, {"type": "electric_scooter", "name": "e91b1a02c849f63ab7540e12b0366d0a", "rental_uris": {"ios": "https://dc.lft.to/lastmile_qr_scan", "android": "https://dc.lft.to/lastmile_qr_scan"}, "fusion_lon": 0.0, "lat": 38.92614533333333, "is_disabled": 0, "bike_id": "e91b1a02c849f63ab7540e12b0366d0a", "fusion_lat": 0.0, "is_reserved": 0, "lon": -77.05707766666667}, {"type": "electric_scooter", "name": "3468bb0b2c9ba9be9256d59e0aa2a200", "rental_uris": {"ios": "https://dc.lft.to/lastmile_qr_scan", "android": "https://dc.lft.to/lastmile_qr_scan"}, "fusion_lon": 0.0, "lat": 38.93182266666667, "is_disabled": 0, "bike_id": "3468bb0b2c9ba9be9256d59e0aa2a200", "fusion_lat": 0.0, "is_reserved": 0, "lon": -77.0431305}, {"type": "electric_scooter", "name": "bf6107ec9f13c7cc15d9b2d1e5cc9e38", "rental_uris": {"ios": "https://dc.lft.to/lastmile_qr_scan", "android": "https://dc.lft.to/lastmile_qr_scan"}, "fusion_lon": 0.0, "lat": 38.916871, "is_disabled": 0, "bike_id": "bf6107ec9f13c7cc15d9b2d1e5cc9e38", "fusion_lat": 0.0, "is_reserved": 0, "lon": -77.02963133333333}, {"type": "electric_scooter", "name": "07cd4d1f14ee409baff034770c228d9e", "rental_uris": {"ios": "https://dc.lft.to/lastmile_qr_scan", "android": "https://dc.lft.to/lastmile_qr_scan"}, "fusion_lon": 0.0, "lat": 38.911178166666666, "is_disabled": 0, "bike_id": "07cd4d1f14ee409baff034770c228d9e", "fusion_lat": 0.0, "is_reserved": 0, "lon": -77.02207566666667}, {"type": "electric_scooter", "name": "6232f7d143d1128181d6ae3674acd743", "rental_uris": {"ios": "https://dc.lft.to/lastmile_qr_scan", "android": "https://dc.lft.to/lastmile_qr_scan"}, "fusion_lon": 0.0, "lat": 38.936096666666664, "is_disabled": 0, "bike_id": "6232f7d143d1128181d6ae3674acd743", "fusion_lat": 0.0, "is_reserved": 0, "lon": -77.0380955}, {"type": "electric_scooter", "name": "e196e1687117276d99199f05f3a63ea1", "rental_uris": {"ios": "https://dc.lft.to/lastmile_qr_scan", "android": "https://dc.lft.to/lastmile_qr_scan"}, "fusion_lon": 0.0, "lat": 38.90400316666667, "is_disabled": 0, "bike_id": "e196e1687117276d99199f05f3a63ea1", "fusion_lat": 0.0, "is_reserved": 0, "lon": -76.98469833333333}, {"type": "electric_scooter", "name": "60d3c6a2603163a1347e45fd7d9b3bb0", "rental_uris": {"ios": "https://dc.lft.to/lastmile_qr_scan", "android": "https://dc.lft.to/lastmile_qr_scan"}, "fusion_lon": 0.0, "lat": 38.92435066666667, "is_disabled": 0, "bike_id": "60d3c6a2603163a1347e45fd7d9b3bb0", "fusion_lat": 0.0, "is_reserved": 0, "lon": -77.04250583333334}, {"type": "electric_scooter", "name": "40163bb22ec961569d7f915f3a22490b", "rental_uris": {"ios": "https://dc.lft.to/lastmile_qr_scan", "android": "https://dc.lft.to/lastmile_qr_scan"}, "fusion_lon": 0.0, "lat": 38.8871905, "is_disabled": 0, "bike_id": "40163bb22ec961569d7f915f3a22490b", "fusion_lat": 0.0, "is_reserved": 0, "lon": -77.022015}, {"type": "electric_scooter", "name": "95a8556aed08b772bfbb508dc767037a", "rental_uris": {"ios": "https://dc.lft.to/lastmile_qr_scan", "android": "https://dc.lft.to/lastmile_qr_scan"}, "fusion_lon": 0.0, "lat": 38.917086166666664, "is_disabled": 0, "bike_id": "95a8556aed08b772bfbb508dc767037a", "fusion_lat": 0.0, "is_reserved": 0, "lon": -77.03237533333333}, {"type": "electric_scooter", "name": "5b2408f91836d2768a1fc9b46ac2c67c", "rental_uris": {"ios": "https://dc.lft.to/lastmile_qr_scan", "android": "https://dc.lft.to/lastmile_qr_scan"}, "fusion_lon": 0.0, "lat": 38.89794783333333, "is_disabled": 0, "bike_id": "5b2408f91836d2768a1fc9b46ac2c67c", "fusion_lat": 0.0, "is_reserved": 0, "lon": -77.02729383333333}, {"type": "electric_scooter", "name": "d246163f7b160e1be381f320881f8dec", "rental_uris": {"ios": "https://dc.lft.to/lastmile_qr_scan", "android": "https://dc.lft.to/lastmile_qr_scan"}, "fusion_lon": 0.0, "lat": 38.907115833333336, "is_disabled": 0, "bike_id": "d246163f7b160e1be381f320881f8dec", "fusion_lat": 0.0, "is_reserved": 0, "lon": -77.00204066666667}, {"type": "electric_scooter", "name": "e816817d60fba4efbff5acfdcd03f78a", "rental_uris": {"ios": "https://dc.lft.to/lastmile_qr_scan", "android": "https://dc.lft.to/lastmile_qr_scan"}, "fusion_lon": 0.0, "lat": 38.904548166666665, "is_disabled": 0, "bike_id": "e816817d60fba4efbff5acfdcd03f78a", "fusion_lat": 0.0, "is_reserved": 0, "lon": -77.043568}, {"type": "electric_scooter", "name": "6e7a22f12044223fa3e3cd0ddccf88a3", "rental_uris": {"ios": "https://dc.lft.to/lastmile_qr_scan", "android": "https://dc.lft.to/lastmile_qr_scan"}, "fusion_lon": 0.0, "lat": 38.919902, "is_disabled": 0, "bike_id": "6e7a22f12044223fa3e3cd0ddccf88a3", "fusion_lat": 0.0, "is_reserved": 0, "lon": -76.97306216666667}, {"type": "electric_scooter", "name": "3e902750b8a5e5748e863265dc793f5c", "rental_uris": {"ios": "https://dc.lft.to/lastmile_qr_scan", "android": "https://dc.lft.to/lastmile_qr_scan"}, "fusion_lon": 0.0, "lat": 38.881834, "is_disabled": 0, "bike_id": "3e902750b8a5e5748e863265dc793f5c", "fusion_lat": 0.0, "is_reserved": 0, "lon": -76.95899883333334}, {"type": "electric_scooter", "name": "37bb678d5928062f6234b9b722858e88", "rental_uris": {"ios": "https://dc.lft.to/lastmile_qr_scan", "android": "https://dc.lft.to/lastmile_qr_scan"}, "fusion_lon": 0.0, "lat": 38.918299166666664, "is_disabled": 0, "bike_id": "37bb678d5928062f6234b9b722858e88", "fusion_lat": 0.0, "is_reserved": 0, "lon": -77.04172066666666}, {"type": "electric_bike", "name": "b0e723a259d07402062edf11c711c896", "rental_uris": {"ios": "https://dc.lft.to/lastmile_qr_scan", "android": "https://dc.lft.to/lastmile_qr_scan"}, "fusion_lon": 0.0, "lat": 38.845087166666666, "is_disabled": 0, "bike_id": "b0e723a259d07402062edf11c711c896", "fusion_lat": 0.0, "is_reserved": 0, "lon": -76.993509}, {"type": "electric_scooter", "name": "7d49e97733aa6c5c31e5b06d686c7087", "rental_uris": {"ios": "https://dc.lft.to/lastmile_qr_scan", "android": "https://dc.lft.to/lastmile_qr_scan"}, "fusion_lon": 0.0, "lat": 38.9021305, "is_disabled": 0, "bike_id": "7d49e97733aa6c5c31e5b06d686c7087", "fusion_lat": 0.0, "is_reserved": 0, "lon": -77.02711683333334}, {"type": "electric_scooter", "name": "e7e482f98f419adb987b586babe8a9cc", "rental_uris": {"ios": "https://dc.lft.to/lastmile_qr_scan", "android": "https://dc.lft.to/lastmile_qr_scan"}, "fusion_lon": 0.0, "lat": 38.92941833333333, "is_disabled": 0, "bike_id": "e7e482f98f419adb987b586babe8a9cc", "fusion_lat": 0.0, "is_reserved": 0, "lon": -77.03270983333333}, {"type": "electric_scooter", "name": "1e796e53fdd8a98aadb753896730d046", "rental_uris": {"ios": "https://dc.lft.to/lastmile_qr_scan", "android": "https://dc.lft.to/lastmile_qr_scan"}, "fusion_lon": 0.0, "lat": 38.90977183333333, "is_disabled": 0, "bike_id": "1e796e53fdd8a98aadb753896730d046", "fusion_lat": 0.0, "is_reserved": 0, "lon": -77.0193995}, {"type": "electric_scooter", "name": "e8f0fa2bb918ce18e081c7e5787f70bc", "rental_uris": {"ios": "https://dc.lft.to/lastmile_qr_scan", "android": "https://dc.lft.to/lastmile_qr_scan"}, "fusion_lon": 0.0, "lat": 38.929885166666665, "is_disabled": 0, "bike_id": "e8f0fa2bb918ce18e081c7e5787f70bc", "fusion_lat": 0.0, "is_reserved": 0, "lon": -77.01055883333333}, {"type": "electric_scooter", "name": "496acb8b49b0a4516e4f2522a491ba44", "rental_uris": {"ios": "https://dc.lft.to/lastmile_qr_scan", "android": "https://dc.lft.to/lastmile_qr_scan"}, "fusion_lon": 0.0, "lat": 38.89759683333333, "is_disabled": 0, "bike_id": "496acb8b49b0a4516e4f2522a491ba44", "fusion_lat": 0.0, "is_reserved": 0, "lon": -77.03023733333333}, {"type": "electric_scooter", "name": "780c61777a6eee007d2cc094969952db", "rental_uris": {"ios": "https://dc.lft.to/lastmile_qr_scan", "android": "https://dc.lft.to/lastmile_qr_scan"}, "fusion_lon": 0.0, "lat": 38.91926466666666, "is_disabled": 0, "bike_id": "780c61777a6eee007d2cc094969952db", "fusion_lat": 0.0, "is_reserved": 0, "lon": -77.02342816666666}, {"type": "electric_scooter", "name": "9c3e0fd260c151b940f43bf8e8f3bbfd", "rental_uris": {"ios": "https://dc.lft.to/lastmile_qr_scan", "android": "https://dc.lft.to/lastmile_qr_scan"}, "fusion_lon": 0.0, "lat": 38.95937633333333, "is_disabled": 0, "bike_id": "9c3e0fd260c151b940f43bf8e8f3bbfd", "fusion_lat": 0.0, "is_reserved": 0, "lon": -77.03115416666667}, {"type": "electric_scooter", "name": "3d5652647d4da32f460ea2a0334b2d29", "rental_uris": {"ios": "https://dc.lft.to/lastmile_qr_scan", "android": "https://dc.lft.to/lastmile_qr_scan"}, "fusion_lon": 0.0, "lat": 38.9123375, "is_disabled": 0, "bike_id": "3d5652647d4da32f460ea2a0334b2d29", "fusion_lat": 0.0, "is_reserved": 0, "lon": -77.03800916666667}, {"type": "electric_scooter", "name": "5c88687d787d59d5be7f97fb21602d60", "rental_uris": {"ios": "https://dc.lft.to/lastmile_qr_scan", "android": "https://dc.lft.to/lastmile_qr_scan"}, "fusion_lon": 0.0, "lat": 38.944638, "is_disabled": 0, "bike_id": "5c88687d787d59d5be7f97fb21602d60", "fusion_lat": 0.0, "is_reserved": 0, "lon": -77.00657366666667}, {"type": "electric_scooter", "name": "14f2f1b50b9d5c80f0a629f4efc8a910", "rental_uris": {"ios": "https://dc.lft.to/lastmile_qr_scan", "android": "https://dc.lft.to/lastmile_qr_scan"}, "fusion_lon": 0.0, "lat": 38.902955666666664, "is_disabled": 0, "bike_id": "14f2f1b50b9d5c80f0a629f4efc8a910", "fusion_lat": 0.0, "is_reserved": 0, "lon": -77.03857033333334}, {"type": "electric_scooter", "name": "014ec2ab3c9b7a24ef8aa55f7a5efe02", "rental_uris": {"ios": "https://dc.lft.to/lastmile_qr_scan", "android": "https://dc.lft.to/lastmile_qr_scan"}, "fusion_lon": 0.0, "lat": 38.93325216666667, "is_disabled": 0, "bike_id": "014ec2ab3c9b7a24ef8aa55f7a5efe02", "fusion_lat": 0.0, "is_reserved": 0, "lon": -77.02858883333333}, {"type": "electric_scooter", "name": "12f93a093384bf8a5ae9fd411d4e078f", "rental_uris": {"ios": "https://dc.lft.to/lastmile_qr_scan", "android": "https://dc.lft.to/lastmile_qr_scan"}, "fusion_lon": 0.0, "lat": 38.898720833333336, "is_disabled": 0, "bike_id": "12f93a093384bf8a5ae9fd411d4e078f", "fusion_lat": 0.0, "is_reserved": 0, "lon": -76.94662466666666}, {"type": "electric_scooter", "name": "4dc00f97bd6db65e3907ca144f1b2fd5", "rental_uris": {"ios": "https://dc.lft.to/lastmile_qr_scan", "android": "https://dc.lft.to/lastmile_qr_scan"}, "fusion_lon": 0.0, "lat": 38.9066685, "is_disabled": 0, "bike_id": "4dc00f97bd6db65e3907ca144f1b2fd5", "fusion_lat": 0.0, "is_reserved": 0, "lon": -77.02712533333333}, {"type": "electric_scooter", "name": "9d6a5afe9dd5d00f1033b11421a6b1f9", "rental_uris": {"ios": "https://dc.lft.to/lastmile_qr_scan", "android": "https://dc.lft.to/lastmile_qr_scan"}, "fusion_lon": 0.0, "lat": 38.911774, "is_disabled": 0, "bike_id": "9d6a5afe9dd5d00f1033b11421a6b1f9", "fusion_lat": 0.0, "is_reserved": 0, "lon": -77.06099116666667}, {"type": "electric_scooter", "name": "a508c8496447018caf4756588f9ff3a0", "rental_uris": {"ios": "https://dc.lft.to/lastmile_qr_scan", "android": "https://dc.lft.to/lastmile_qr_scan"}, "fusion_lon": 0.0, "lat": 38.88527833333333, "is_disabled": 0, "bike_id": "a508c8496447018caf4756588f9ff3a0", "fusion_lat": 0.0, "is_reserved": 0, "lon": -77.01525833333334}, {"type": "electric_scooter", "name": "28c560a3f924d6c74772319b1061e43b", "rental_uris": {"ios": "https://dc.lft.to/lastmile_qr_scan", "android": "https://dc.lft.to/lastmile_qr_scan"}, "fusion_lon": 0.0, "lat": 38.927709, "is_disabled": 0, "bike_id": "28c560a3f924d6c74772319b1061e43b", "fusion_lat": 0.0, "is_reserved": 0, "lon": -77.02679083333334}, {"type": "electric_scooter", "name": "057ffab04869b67ad811bf03f7f79578", "rental_uris": {"ios": "https://dc.lft.to/lastmile_qr_scan", "android": "https://dc.lft.to/lastmile_qr_scan"}, "fusion_lon": 0.0, "lat": 38.917059, "is_disabled": 0, "bike_id": "057ffab04869b67ad811bf03f7f79578", "fusion_lat": 0.0, "is_reserved": 0, "lon": -77.0303955}, {"type": "electric_scooter", "name": "6f244c80109abcd52839579fbb3428b1", "rental_uris": {"ios": "https://dc.lft.to/lastmile_qr_scan", "android": "https://dc.lft.to/lastmile_qr_scan"}, "fusion_lon": 0.0, "lat": 38.92170433333333, "is_disabled": 0, "bike_id": "6f244c80109abcd52839579fbb3428b1", "fusion_lat": 0.0, "is_reserved": 0, "lon": -77.03388283333334}, {"type": "electric_scooter", "name": "15bedf56cf14e8d8f2d6f909953ea16d", "rental_uris": {"ios": "https://dc.lft.to/lastmile_qr_scan", "android": "https://dc.lft.to/lastmile_qr_scan"}, "fusion_lon": 0.0, "lat": 38.9014325, "is_disabled": 0, "bike_id": "15bedf56cf14e8d8f2d6f909953ea16d", "fusion_lat": 0.0, "is_reserved": 0, "lon": -77.03561983333333}, {"type": "electric_scooter", "name": "7f02fea868d4e7f725d93df0868c4ce5", "rental_uris": {"ios": "https://dc.lft.to/lastmile_qr_scan", "android": "https://dc.lft.to/lastmile_qr_scan"}, "fusion_lon": 0.0, "lat": 38.91344683333333, "is_disabled": 0, "bike_id": "7f02fea868d4e7f725d93df0868c4ce5", "fusion_lat": 0.0, "is_reserved": 0, "lon": -77.031719}, {"type": "electric_scooter", "name": "3c0dc67b3e26977ec25fab3d963d23e2", "rental_uris": {"ios": "https://dc.lft.to/lastmile_qr_scan", "android": "https://dc.lft.to/lastmile_qr_scan"}, "fusion_lon": 0.0, "lat": 38.9065265, "is_disabled": 0, "bike_id": "3c0dc67b3e26977ec25fab3d963d23e2", "fusion_lat": 0.0, "is_reserved": 0, "lon": -77.035799}, {"type": "electric_scooter", "name": "afd485027b12627fcf2d19b76428268f", "rental_uris": {"ios": "https://dc.lft.to/lastmile_qr_scan", "android": "https://dc.lft.to/lastmile_qr_scan"}, "fusion_lon": 0.0, "lat": 38.9324345, "is_disabled": 0, "bike_id": "afd485027b12627fcf2d19b76428268f", "fusion_lat": 0.0, "is_reserved": 0, "lon": -77.03416183333333}, {"type": "electric_scooter", "name": "43e5a42964c890d56e1c09f38005f4a1", "rental_uris": {"ios": "https://dc.lft.to/lastmile_qr_scan", "android": "https://dc.lft.to/lastmile_qr_scan"}, "fusion_lon": 0.0, "lat": 38.924213, "is_disabled": 0, "bike_id": "43e5a42964c890d56e1c09f38005f4a1", "fusion_lat": 0.0, "is_reserved": 0, "lon": -77.020122}, {"type": "electric_scooter", "name": "d1a3af6af3696da0ad776aa032901c81", "rental_uris": {"ios": "https://dc.lft.to/lastmile_qr_scan", "android": "https://dc.lft.to/lastmile_qr_scan"}, "fusion_lon": 0.0, "lat": 38.920436333333335, "is_disabled": 0, "bike_id": "d1a3af6af3696da0ad776aa032901c81", "fusion_lat": 0.0, "is_reserved": 0, "lon": -77.017947}, {"type": "electric_scooter", "name": "1c9972f0105bfc097691e50aa7633d63", "rental_uris": {"ios": "https://dc.lft.to/lastmile_qr_scan", "android": "https://dc.lft.to/lastmile_qr_scan"}, "fusion_lon": 0.0, "lat": 38.92681483333333, "is_disabled": 0, "bike_id": "1c9972f0105bfc097691e50aa7633d63", "fusion_lat": 0.0, "is_reserved": 0, "lon": -77.01479033333334}, {"type": "electric_scooter", "name": "f8e52f31cabb42965fc50026ef724487", "rental_uris": {"ios": "https://dc.lft.to/lastmile_qr_scan", "android": "https://dc.lft.to/lastmile_qr_scan"}, "fusion_lon": 0.0, "lat": 38.88719, "is_disabled": 0, "bike_id": "f8e52f31cabb42965fc50026ef724487", "fusion_lat": 0.0, "is_reserved": 0, "lon": -76.99687133333333}, {"type": "electric_scooter", "name": "6a6035f440c2ef75c4ce96f2c2284fb5", "rental_uris": {"ios": "https://dc.lft.to/lastmile_qr_scan", "android": "https://dc.lft.to/lastmile_qr_scan"}, "fusion_lon": 0.0, "lat": 38.9027135, "is_disabled": 0, "bike_id": "6a6035f440c2ef75c4ce96f2c2284fb5", "fusion_lat": 0.0, "is_reserved": 0, "lon": -77.01765216666666}, {"type": "electric_scooter", "name": "ca94cd6e0bd047f7c5a2829aee88a814", "rental_uris": {"ios": "https://dc.lft.to/lastmile_qr_scan", "android": "https://dc.lft.to/lastmile_qr_scan"}, "fusion_lon": 0.0, "lat": 38.91032333333333, "is_disabled": 0, "bike_id": "ca94cd6e0bd047f7c5a2829aee88a814", "fusion_lat": 0.0, "is_reserved": 0, "lon": -77.02929816666666}, {"type": "electric_scooter", "name": "716a84f576d5aa2c86742c1c7ac0ea00", "rental_uris": {"ios": "https://dc.lft.to/lastmile_qr_scan", "android": "https://dc.lft.to/lastmile_qr_scan"}, "fusion_lon": 0.0, "lat": 38.91557316666667, "is_disabled": 0, "bike_id": "716a84f576d5aa2c86742c1c7ac0ea00", "fusion_lat": 0.0, "is_reserved": 0, "lon": -77.0217975}, {"type": "electric_scooter", "name": "3aa9168ecaed02bb3c0f1426c0c8c115", "rental_uris": {"ios": "https://dc.lft.to/lastmile_qr_scan", "android": "https://dc.lft.to/lastmile_qr_scan"}, "fusion_lon": 0.0, "lat": 38.90521666666667, "is_disabled": 0, "bike_id": "3aa9168ecaed02bb3c0f1426c0c8c115", "fusion_lat": 0.0, "is_reserved": 0, "lon": -77.04748683333334}, {"type": "electric_bike", "name": "839ae88e0c429c13e282701abc6ea949", "rental_uris": {"ios": "https://dc.lft.to/lastmile_qr_scan", "android": "https://dc.lft.to/lastmile_qr_scan"}, "fusion_lon": 0.0, "lat": 38.89616933333333, "is_disabled": 0, "bike_id": "839ae88e0c429c13e282701abc6ea949", "fusion_lat": 0.0, "is_reserved": 0, "lon": -76.90740983333333}, {"type": "electric_scooter", "name": "42445127a4b9c919663acbfe2c032a9f", "rental_uris": {"ios": "https://dc.lft.to/lastmile_qr_scan", "android": "https://dc.lft.to/lastmile_qr_scan"}, "fusion_lon": 0.0, "lat": 38.898469, "is_disabled": 0, "bike_id": "42445127a4b9c919663acbfe2c032a9f", "fusion_lat": 0.0, "is_reserved": 0, "lon": -77.04153683333334}, {"type": "electric_scooter", "name": "253bc2a1c5df7fbc30f5afe0cebbc926", "rental_uris": {"ios": "https://dc.lft.to/lastmile_qr_scan", "android": "https://dc.lft.to/lastmile_qr_scan"}, "fusion_lon": 0.0, "lat": 38.924214166666665, "is_disabled": 0, "bike_id": "253bc2a1c5df7fbc30f5afe0cebbc926", "fusion_lat": 0.0, "is_reserved": 0, "lon": -77.04459616666666}, {"type": "electric_scooter", "name": "69d0f320b0f1fde39feeeaad4052ad9f", "rental_uris": {"ios": "https://dc.lft.to/lastmile_qr_scan", "android": "https://dc.lft.to/lastmile_qr_scan"}, "fusion_lon": 0.0, "lat": 38.92053716666667, "is_disabled": 0, "bike_id": "69d0f320b0f1fde39feeeaad4052ad9f", "fusion_lat": 0.0, "is_reserved": 0, "lon": -77.04181583333333}, {"type": "electric_scooter", "name": "504dbaf6a1e35d296f08bd0ef4a70b4e", "rental_uris": {"ios": "https://dc.lft.to/lastmile_qr_scan", "android": "https://dc.lft.to/lastmile_qr_scan"}, "fusion_lon": 0.0, "lat": 38.9085865, "is_disabled": 0, "bike_id": "504dbaf6a1e35d296f08bd0ef4a70b4e", "fusion_lat": 0.0, "is_reserved": 0, "lon": -76.99794533333333}, {"type": "electric_scooter", "name": "063a825423d418e524e3e5c5ee109170", "rental_uris": {"ios": "https://dc.lft.to/lastmile_qr_scan", "android": "https://dc.lft.to/lastmile_qr_scan"}, "fusion_lon": 0.0, "lat": 38.902606, "is_disabled": 0, "bike_id": "063a825423d418e524e3e5c5ee109170", "fusion_lat": 0.0, "is_reserved": 0, "lon": -76.97451916666667}, {"type": "electric_scooter", "name": "7c26f8585aaefedf9c923d4d90e8df07", "rental_uris": {"ios": "https://dc.lft.to/lastmile_qr_scan", "android": "https://dc.lft.to/lastmile_qr_scan"}, "fusion_lon": 0.0, "lat": 38.9040895, "is_disabled": 0, "bike_id": "7c26f8585aaefedf9c923d4d90e8df07", "fusion_lat": 0.0, "is_reserved": 0, "lon": -76.9733125}, {"type": "electric_scooter", "name": "f6b23a558f93190105f4eccc1aa631a9", "rental_uris": {"ios": "https://dc.lft.to/lastmile_qr_scan", "android": "https://dc.lft.to/lastmile_qr_scan"}, "fusion_lon": 0.0, "lat": 38.9078645, "is_disabled": 0, "bike_id": "f6b23a558f93190105f4eccc1aa631a9", "fusion_lat": 0.0, "is_reserved": 0, "lon": -77.03999216666666}, {"type": "electric_scooter", "name": "9d63d40fc7c1ecc0d6db003b4a45427b", "rental_uris": {"ios": "https://dc.lft.to/lastmile_qr_scan", "android": "https://dc.lft.to/lastmile_qr_scan"}, "fusion_lon": 0.0, "lat": 38.91719483333333, "is_disabled": 0, "bike_id": "9d63d40fc7c1ecc0d6db003b4a45427b", "fusion_lat": 0.0, "is_reserved": 0, "lon": -77.034775}, {"type": "electric_scooter", "name": "61c70bff46d9210e9f7de9bbafee78b8", "rental_uris": {"ios": "https://dc.lft.to/lastmile_qr_scan", "android": "https://dc.lft.to/lastmile_qr_scan"}, "fusion_lon": 0.0, "lat": 38.92883633333334, "is_disabled": 0, "bike_id": "61c70bff46d9210e9f7de9bbafee78b8", "fusion_lat": 0.0, "is_reserved": 0, "lon": -77.02712716666667}, {"type": "electric_scooter", "name": "f5c0bbc970dad7851ce32b4e2928b2f4", "rental_uris": {"ios": "https://dc.lft.to/lastmile_qr_scan", "android": "https://dc.lft.to/lastmile_qr_scan"}, "fusion_lon": 0.0, "lat": 38.90807433333333, "is_disabled": 0, "bike_id": "f5c0bbc970dad7851ce32b4e2928b2f4", "fusion_lat": 0.0, "is_reserved": 0, "lon": -77.043419}, {"type": "electric_scooter", "name": "a8220b1f223228800ae3c5d911515593", "rental_uris": {"ios": "https://dc.lft.to/lastmile_qr_scan", "android": "https://dc.lft.to/lastmile_qr_scan"}, "fusion_lon": 0.0, "lat": 38.9156685, "is_disabled": 0, "bike_id": "a8220b1f223228800ae3c5d911515593", "fusion_lat": 0.0, "is_reserved": 0, "lon": -77.038515}, {"type": "electric_scooter", "name": "b41d0aed4cb658732e48050d65b62689", "rental_uris": {"ios": "https://dc.lft.to/lastmile_qr_scan", "android": "https://dc.lft.to/lastmile_qr_scan"}, "fusion_lon": 0.0, "lat": 38.901062333333336, "is_disabled": 0, "bike_id": "b41d0aed4cb658732e48050d65b62689", "fusion_lat": 0.0, "is_reserved": 0, "lon": -77.02379333333333}, {"type": "electric_scooter", "name": "a44df8afc12fdadf6a2f60158234a5fb", "rental_uris": {"ios": "https://dc.lft.to/lastmile_qr_scan", "android": "https://dc.lft.to/lastmile_qr_scan"}, "fusion_lon": 0.0, "lat": 38.9246235, "is_disabled": 0, "bike_id": "a44df8afc12fdadf6a2f60158234a5fb", "fusion_lat": 0.0, "is_reserved": 0, "lon": -77.05240283333333}, {"type": "electric_scooter", "name": "48f1f12a4fc15dc2de90720a3b21e083", "rental_uris": {"ios": "https://dc.lft.to/lastmile_qr_scan", "android": "https://dc.lft.to/lastmile_qr_scan"}, "fusion_lon": 0.0, "lat": 38.9098005, "is_disabled": 0, "bike_id": "48f1f12a4fc15dc2de90720a3b21e083", "fusion_lat": 0.0, "is_reserved": 0, "lon": -77.03435066666667}, {"type": "electric_scooter", "name": "322d97276717b4922e81b965551b656b", "rental_uris": {"ios": "https://dc.lft.to/lastmile_qr_scan", "android": "https://dc.lft.to/lastmile_qr_scan"}, "fusion_lon": 0.0, "lat": 38.898201666666665, "is_disabled": 0, "bike_id": "322d97276717b4922e81b965551b656b", "fusion_lat": 0.0, "is_reserved": 0, "lon": -77.03160933333334}, {"type": "electric_scooter", "name": "4c0eb575e48b3fd8790e74261d50e270", "rental_uris": {"ios": "https://dc.lft.to/lastmile_qr_scan", "android": "https://dc.lft.to/lastmile_qr_scan"}, "fusion_lon": 0.0, "lat": 38.913136, "is_disabled": 0, "bike_id": "4c0eb575e48b3fd8790e74261d50e270", "fusion_lat": 0.0, "is_reserved": 0, "lon": -77.01511066666667}, {"type": "electric_scooter", "name": "23ddb1e1b20d45dd8125097caa2be5da", "rental_uris": {"ios": "https://dc.lft.to/lastmile_qr_scan", "android": "https://dc.lft.to/lastmile_qr_scan"}, "fusion_lon": 0.0, "lat": 38.93507683333333, "is_disabled": 0, "bike_id": "23ddb1e1b20d45dd8125097caa2be5da", "fusion_lat": 0.0, "is_reserved": 0, "lon": -77.05834766666666}, {"type": "electric_scooter", "name": "f8e763093030ea6ccb61d061d2e9ea53", "rental_uris": {"ios": "https://dc.lft.to/lastmile_qr_scan", "android": "https://dc.lft.to/lastmile_qr_scan"}, "fusion_lon": 0.0, "lat": 38.933252, "is_disabled": 0, "bike_id": "f8e763093030ea6ccb61d061d2e9ea53", "fusion_lat": 0.0, "is_reserved": 0, "lon": -77.03440716666667}, {"type": "electric_scooter", "name": "253c8e2f77c81ed726605694b9d73937", "rental_uris": {"ios": "https://dc.lft.to/lastmile_qr_scan", "android": "https://dc.lft.to/lastmile_qr_scan"}, "fusion_lon": 0.0, "lat": 38.898437333333334, "is_disabled": 0, "bike_id": "253c8e2f77c81ed726605694b9d73937", "fusion_lat": 0.0, "is_reserved": 0, "lon": -77.01269266666667}, {"type": "electric_scooter", "name": "0597864a9398955968a061aa08615849", "rental_uris": {"ios": "https://dc.lft.to/lastmile_qr_scan", "android": "https://dc.lft.to/lastmile_qr_scan"}, "fusion_lon": 0.0, "lat": 38.876798, "is_disabled": 0, "bike_id": "0597864a9398955968a061aa08615849", "fusion_lat": 0.0, "is_reserved": 0, "lon": -77.007626}, {"type": "electric_scooter", "name": "6211e3bbbdf3fba7c0dd4dcb4544417f", "rental_uris": {"ios": "https://dc.lft.to/lastmile_qr_scan", "android": "https://dc.lft.to/lastmile_qr_scan"}, "fusion_lon": 0.0, "lat": 38.9447205, "is_disabled": 0, "bike_id": "6211e3bbbdf3fba7c0dd4dcb4544417f", "fusion_lat": 0.0, "is_reserved": 0, "lon": -77.02356683333333}, {"type": "electric_scooter", "name": "3f0d34216aaf00c60e05b94183efeb71", "rental_uris": {"ios": "https://dc.lft.to/lastmile_qr_scan", "android": "https://dc.lft.to/lastmile_qr_scan"}, "fusion_lon": 0.0, "lat": 38.932543333333335, "is_disabled": 0, "bike_id": "3f0d34216aaf00c60e05b94183efeb71", "fusion_lat": 0.0, "is_reserved": 0, "lon": -76.99594883333333}, {"type": "electric_scooter", "name": "94c16319a214785dd1b7346bd66f53c9", "rental_uris": {"ios": "https://dc.lft.to/lastmile_qr_scan", "android": "https://dc.lft.to/lastmile_qr_scan"}, "fusion_lon": 0.0, "lat": 38.91695933333333, "is_disabled": 0, "bike_id": "94c16319a214785dd1b7346bd66f53c9", "fusion_lat": 0.0, "is_reserved": 0, "lon": -77.02597533333334}, {"type": "electric_scooter", "name": "d0df98062186ebcf277f01030888ff56", "rental_uris": {"ios": "https://dc.lft.to/lastmile_qr_scan", "android": "https://dc.lft.to/lastmile_qr_scan"}, "fusion_lon": 0.0, "lat": 38.892223666666666, "is_disabled": 0, "bike_id": "d0df98062186ebcf277f01030888ff56", "fusion_lat": 0.0, "is_reserved": 0, "lon": -77.02222833333333}, {"type": "electric_bike", "name": "ea2f1ab53df5c6b657c72cb3977995f4", "rental_uris": {"ios": "https://dc.lft.to/lastmile_qr_scan", "android": "https://dc.lft.to/lastmile_qr_scan"}, "fusion_lon": 0.0, "lat": 38.94824116666667, "is_disabled": 0, "bike_id": "ea2f1ab53df5c6b657c72cb3977995f4", "fusion_lat": 0.0, "is_reserved": 0, "lon": -77.02944583333333}, {"type": "electric_scooter", "name": "6c7e21df013f8920ce182f574a168671", "rental_uris": {"ios": "https://dc.lft.to/lastmile_qr_scan", "android": "https://dc.lft.to/lastmile_qr_scan"}, "fusion_lon": 0.0, "lat": 38.92868966666666, "is_disabled": 0, "bike_id": "6c7e21df013f8920ce182f574a168671", "fusion_lat": 0.0, "is_reserved": 0, "lon": -77.03293783333334}, {"type": "electric_bike", "name": "86db3a9bd50be80118e74bcac5954121", "rental_uris": {"ios": "https://dc.lft.to/lastmile_qr_scan", "android": "https://dc.lft.to/lastmile_qr_scan"}, "fusion_lon": 0.0, "lat": 39.01079083333333, "is_disabled": 0, "bike_id": "86db3a9bd50be80118e74bcac5954121", "fusion_lat": 0.0, "is_reserved": 0, "lon": -76.91065933333333}, {"type": "electric_scooter", "name": "87626a180a67024436d78186bc0112c2", "rental_uris": {"ios": "https://dc.lft.to/lastmile_qr_scan", "android": "https://dc.lft.to/lastmile_qr_scan"}, "fusion_lon": 0.0, "lat": 38.923339666666664, "is_disabled": 0, "bike_id": "87626a180a67024436d78186bc0112c2", "fusion_lat": 0.0, "is_reserved": 0, "lon": -77.01954483333333}, {"type": "electric_scooter", "name": "b7a95a895aef7771420421a1c6d16733", "rental_uris": {"ios": "https://dc.lft.to/lastmile_qr_scan", "android": "https://dc.lft.to/lastmile_qr_scan"}, "fusion_lon": 0.0, "lat": 38.911233, "is_disabled": 0, "bike_id": "b7a95a895aef7771420421a1c6d16733", "fusion_lat": 0.0, "is_reserved": 0, "lon": -77.03303933333333}, {"type": "electric_scooter", "name": "17e5fc7584c9dd0c87856380008ff233", "rental_uris": {"ios": "https://dc.lft.to/lastmile_qr_scan", "android": "https://dc.lft.to/lastmile_qr_scan"}, "fusion_lon": 0.0, "lat": 38.898533666666665, "is_disabled": 0, "bike_id": "17e5fc7584c9dd0c87856380008ff233", "fusion_lat": 0.0, "is_reserved": 0, "lon": -77.01891}, {"type": "electric_scooter", "name": "25ec923d41574b4effe58c1fe5f5b230", "rental_uris": {"ios": "https://dc.lft.to/lastmile_qr_scan", "android": "https://dc.lft.to/lastmile_qr_scan"}, "fusion_lon": 0.0, "lat": 38.90109966666667, "is_disabled": 0, "bike_id": "25ec923d41574b4effe58c1fe5f5b230", "fusion_lat": 0.0, "is_reserved": 0, "lon": -77.01987333333334}, {"type": "electric_scooter", "name": "253ecf1aa280d73f13abadcee968907e", "rental_uris": {"ios": "https://dc.lft.to/lastmile_qr_scan", "android": "https://dc.lft.to/lastmile_qr_scan"}, "fusion_lon": 0.0, "lat": 38.9528415, "is_disabled": 0, "bike_id": "253ecf1aa280d73f13abadcee968907e", "fusion_lat": 0.0, "is_reserved": 0, "lon": -77.01796866666666}, {"type": "electric_scooter", "name": "10b02e5768a405bf30bb6f535c2825d8", "rental_uris": {"ios": "https://dc.lft.to/lastmile_qr_scan", "android": "https://dc.lft.to/lastmile_qr_scan"}, "fusion_lon": 0.0, "lat": 38.9171595, "is_disabled": 0, "bike_id": "10b02e5768a405bf30bb6f535c2825d8", "fusion_lat": 0.0, "is_reserved": 0, "lon": -77.01206433333333}, {"type": "electric_scooter", "name": "ef9b6db1c35b2cef898b6ea08c9fa936", "rental_uris": {"ios": "https://dc.lft.to/lastmile_qr_scan", "android": "https://dc.lft.to/lastmile_qr_scan"}, "fusion_lon": 0.0, "lat": 38.90324733333333, "is_disabled": 0, "bike_id": "ef9b6db1c35b2cef898b6ea08c9fa936", "fusion_lat": 0.0, "is_reserved": 0, "lon": -77.044694}, {"type": "electric_bike", "name": "8c0eadfc4174f3c256eb8d8d07dd0e7a", "rental_uris": {"ios": "https://dc.lft.to/lastmile_qr_scan", "android": "https://dc.lft.to/lastmile_qr_scan"}, "fusion_lon": 0.0, "lat": 38.90846966666667, "is_disabled": 0, "bike_id": "8c0eadfc4174f3c256eb8d8d07dd0e7a", "fusion_lat": 0.0, "is_reserved": 0, "lon": -77.05492683333334}, {"type": "electric_scooter", "name": "9692669dd6979d645f2e0781a5cba7f7", "rental_uris": {"ios": "https://dc.lft.to/lastmile_qr_scan", "android": "https://dc.lft.to/lastmile_qr_scan"}, "fusion_lon": 0.0, "lat": 38.89500966666667, "is_disabled": 0, "bike_id": "9692669dd6979d645f2e0781a5cba7f7", "fusion_lat": 0.0, "is_reserved": 0, "lon": -77.01519933333333}, {"type": "electric_scooter", "name": "db6a5fee010e35d6c6154499f4b09bd1", "rental_uris": {"ios": "https://dc.lft.to/lastmile_qr_scan", "android": "https://dc.lft.to/lastmile_qr_scan"}, "fusion_lon": 0.0, "lat": 38.9375065, "is_disabled": 0, "bike_id": "db6a5fee010e35d6c6154499f4b09bd1", "fusion_lat": 0.0, "is_reserved": 0, "lon": -77.03616866666667}, {"type": "electric_scooter", "name": "9f576db061cce05e13f60318a0d1c86f", "rental_uris": {"ios": "https://dc.lft.to/lastmile_qr_scan", "android": "https://dc.lft.to/lastmile_qr_scan"}, "fusion_lon": 0.0, "lat": 38.89620033333333, "is_disabled": 0, "bike_id": "9f576db061cce05e13f60318a0d1c86f", "fusion_lat": 0.0, "is_reserved": 0, "lon": -77.0297285}, {"type": "electric_scooter", "name": "22073b1e928a3d111cb7bdc72e5dc8af", "rental_uris": {"ios": "https://dc.lft.to/lastmile_qr_scan", "android": "https://dc.lft.to/lastmile_qr_scan"}, "fusion_lon": 0.0, "lat": 38.918818, "is_disabled": 0, "bike_id": "22073b1e928a3d111cb7bdc72e5dc8af", "fusion_lat": 0.0, "is_reserved": 0, "lon": -77.0407185}, {"type": "electric_scooter", "name": "7b4de285d4846f3c8701370a63f00270", "rental_uris": {"ios": "https://dc.lft.to/lastmile_qr_scan", "android": "https://dc.lft.to/lastmile_qr_scan"}, "fusion_lon": 0.0, "lat": 38.9319225, "is_disabled": 0, "bike_id": "7b4de285d4846f3c8701370a63f00270", "fusion_lat": 0.0, "is_reserved": 0, "lon": -77.04303766666666}, {"type": "electric_scooter", "name": "652d043a207bb9d9a45867b605e879c5", "rental_uris": {"ios": "https://dc.lft.to/lastmile_qr_scan", "android": "https://dc.lft.to/lastmile_qr_scan"}, "fusion_lon": 0.0, "lat": 38.919350333333334, "is_disabled": 0, "bike_id": "652d043a207bb9d9a45867b605e879c5", "fusion_lat": 0.0, "is_reserved": 0, "lon": -77.02475466666667}, {"type": "electric_scooter", "name": "a35cc81159ea3a84fe1330293269a1c2", "rental_uris": {"ios": "https://dc.lft.to/lastmile_qr_scan", "android": "https://dc.lft.to/lastmile_qr_scan"}, "fusion_lon": 0.0, "lat": 38.892360333333336, "is_disabled": 0, "bike_id": "a35cc81159ea3a84fe1330293269a1c2", "fusion_lat": 0.0, "is_reserved": 0, "lon": -77.05002433333334}, {"type": "electric_scooter", "name": "2aa1bfb8183dee6bc8c0cae9254a3434", "rental_uris": {"ios": "https://dc.lft.to/lastmile_qr_scan", "android": "https://dc.lft.to/lastmile_qr_scan"}, "fusion_lon": 0.0, "lat": 38.90827, "is_disabled": 0, "bike_id": "2aa1bfb8183dee6bc8c0cae9254a3434", "fusion_lat": 0.0, "is_reserved": 0, "lon": -77.0549095}, {"type": "electric_scooter", "name": "972360582efb9e42d4f56834af6e9163", "rental_uris": {"ios": "https://dc.lft.to/lastmile_qr_scan", "android": "https://dc.lft.to/lastmile_qr_scan"}, "fusion_lon": 0.0, "lat": 38.922442333333336, "is_disabled": 0, "bike_id": "972360582efb9e42d4f56834af6e9163", "fusion_lat": 0.0, "is_reserved": 0, "lon": -77.02812716666666}, {"type": "electric_scooter", "name": "a3970ed605e96a0640436ceaa16261e1", "rental_uris": {"ios": "https://dc.lft.to/lastmile_qr_scan", "android": "https://dc.lft.to/lastmile_qr_scan"}, "fusion_lon": 0.0, "lat": 38.884552666666664, "is_disabled": 0, "bike_id": "a3970ed605e96a0640436ceaa16261e1", "fusion_lat": 0.0, "is_reserved": 0, "lon": -76.99844916666666}, {"type": "electric_scooter", "name": "2d4fb83e9c0b5d219cedd387a5fc946e", "rental_uris": {"ios": "https://dc.lft.to/lastmile_qr_scan", "android": "https://dc.lft.to/lastmile_qr_scan"}, "fusion_lon": 0.0, "lat": 38.93881433333333, "is_disabled": 0, "bike_id": "2d4fb83e9c0b5d219cedd387a5fc946e", "fusion_lat": 0.0, "is_reserved": 0, "lon": -77.0246555}, {"type": "electric_scooter", "name": "081e99fbe6a0348239fb384722c2f135", "rental_uris": {"ios": "https://dc.lft.to/lastmile_qr_scan", "android": "https://dc.lft.to/lastmile_qr_scan"}, "fusion_lon": 0.0, "lat": 38.91841633333333, "is_disabled": 0, "bike_id": "081e99fbe6a0348239fb384722c2f135", "fusion_lat": 0.0, "is_reserved": 0, "lon": -77.04833833333333}, {"type": "electric_scooter", "name": "4bf48105a081d425ed140cd5ef279027", "rental_uris": {"ios": "https://dc.lft.to/lastmile_qr_scan", "android": "https://dc.lft.to/lastmile_qr_scan"}, "fusion_lon": 0.0, "lat": 38.8792385, "is_disabled": 0, "bike_id": "4bf48105a081d425ed140cd5ef279027", "fusion_lat": 0.0, "is_reserved": 0, "lon": -77.0038575}, {"type": "electric_scooter", "name": "c0d1f46fdf672c24782ad4d2656c08d1", "rental_uris": {"ios": "https://dc.lft.to/lastmile_qr_scan", "android": "https://dc.lft.to/lastmile_qr_scan"}, "fusion_lon": 0.0, "lat": 38.96082416666667, "is_disabled": 0, "bike_id": "c0d1f46fdf672c24782ad4d2656c08d1", "fusion_lat": 0.0, "is_reserved": 0, "lon": -77.02886433333333}, {"type": "electric_bike", "name": "e561d4714b6b02f3cde090446c32c0ff", "rental_uris": {"ios": "https://dc.lft.to/lastmile_qr_scan", "android": "https://dc.lft.to/lastmile_qr_scan"}, "fusion_lon": 0.0, "lat": 38.821821166666666, "is_disabled": 0, "bike_id": "e561d4714b6b02f3cde090446c32c0ff", "fusion_lat": 0.0, "is_reserved": 0, "lon": -76.99511166666667}, {"type": "electric_scooter", "name": "85584501f843ac24d9b9cdc791cde038", "rental_uris": {"ios": "https://dc.lft.to/lastmile_qr_scan", "android": "https://dc.lft.to/lastmile_qr_scan"}, "fusion_lon": 0.0, "lat": 38.9104865, "is_disabled": 0, "bike_id": "85584501f843ac24d9b9cdc791cde038", "fusion_lat": 0.0, "is_reserved": 0, "lon": -76.99783866666667}, {"type": "electric_bike", "name": "23f6866ad405df2c69ea56e97236b354", "rental_uris": {"ios": "https://dc.lft.to/lastmile_qr_scan", "android": "https://dc.lft.to/lastmile_qr_scan"}, "fusion_lon": 0.0, "lat": 38.92428683333333, "is_disabled": 0, "bike_id": "23f6866ad405df2c69ea56e97236b354", "fusion_lat": 0.0, "is_reserved": 0, "lon": -77.04333083333333}, {"type": "electric_scooter", "name": "064f98f85f06c74c2f15c92dae1e84ad", "rental_uris": {"ios": "https://dc.lft.to/lastmile_qr_scan", "android": "https://dc.lft.to/lastmile_qr_scan"}, "fusion_lon": 0.0, "lat": 38.88746866666666, "is_disabled": 0, "bike_id": "064f98f85f06c74c2f15c92dae1e84ad", "fusion_lat": 0.0, "is_reserved": 0, "lon": -77.03160516666667}, {"type": "electric_scooter", "name": "6a18bdc89e69d04c03080277233703ca", "rental_uris": {"ios": "https://dc.lft.to/lastmile_qr_scan", "android": "https://dc.lft.to/lastmile_qr_scan"}, "fusion_lon": 0.0, "lat": 38.887092833333334, "is_disabled": 0, "bike_id": "6a18bdc89e69d04c03080277233703ca", "fusion_lat": 0.0, "is_reserved": 0, "lon": -77.002453}, {"type": "electric_scooter", "name": "670871e4332c45b97695596829118938", "rental_uris": {"ios": "https://dc.lft.to/lastmile_qr_scan", "android": "https://dc.lft.to/lastmile_qr_scan"}, "fusion_lon": 0.0, "lat": 38.8983275, "is_disabled": 0, "bike_id": "670871e4332c45b97695596829118938", "fusion_lat": 0.0, "is_reserved": 0, "lon": -76.9463215}, {"type": "electric_scooter", "name": "1fcf9bda4237ba9bce5118f37b39fd56", "rental_uris": {"ios": "https://dc.lft.to/lastmile_qr_scan", "android": "https://dc.lft.to/lastmile_qr_scan"}, "fusion_lon": 0.0, "lat": 38.879572, "is_disabled": 0, "bike_id": "1fcf9bda4237ba9bce5118f37b39fd56", "fusion_lat": 0.0, "is_reserved": 0, "lon": -76.99011616666667}, {"type": "electric_bike", "name": "47316679595de7f21969771a454737d5", "rental_uris": {"ios": "https://dc.lft.to/lastmile_qr_scan", "android": "https://dc.lft.to/lastmile_qr_scan"}, "fusion_lon": 0.0, "lat": 38.852507333333335, "is_disabled": 0, "bike_id": "47316679595de7f21969771a454737d5", "fusion_lat": 0.0, "is_reserved": 0, "lon": -77.10787733333333}, {"type": "electric_bike", "name": "c454e40c140c2aa64de3d471575e997d", "rental_uris": {"ios": "https://dc.lft.to/lastmile_qr_scan", "android": "https://dc.lft.to/lastmile_qr_scan"}, "fusion_lon": 0.0, "lat": 38.80454783333333, "is_disabled": 0, "bike_id": "c454e40c140c2aa64de3d471575e997d", "fusion_lat": 0.0, "is_reserved": 0, "lon": -77.0539185}, {"type": "electric_scooter", "name": "c8ef81f8bf86cb71d92d84ee4d4ff681", "rental_uris": {"ios": "https://dc.lft.to/lastmile_qr_scan", "android": "https://dc.lft.to/lastmile_qr_scan"}, "fusion_lon": 0.0, "lat": 38.899227333333336, "is_disabled": 0, "bike_id": "c8ef81f8bf86cb71d92d84ee4d4ff681", "fusion_lat": 0.0, "is_reserved": 0, "lon": -77.03294783333334}, {"type": "electric_scooter", "name": "fbd91043733fff67f87c09e60be331da", "rental_uris": {"ios": "https://dc.lft.to/lastmile_qr_scan", "android": "https://dc.lft.to/lastmile_qr_scan"}, "fusion_lon": 0.0, "lat": 38.90746866666667, "is_disabled": 0, "bike_id": "fbd91043733fff67f87c09e60be331da", "fusion_lat": 0.0, "is_reserved": 0, "lon": -77.04336816666667},