{"data": {"bikes": [{"lat": 38.86501883333333, "fusion_lat": 0.0, "type": "electric_bike", "bike_id": "00a3e314bab1a7eef2ba4240342b6478", "rental_uris": {"ios": "https://dc.lft.to/lastmile_qr_scan", "android": "https://dc.lft.to/lastmile_qr_scan"}, "fusion_lon": 0.0, "lon": -77.07671616666667, "name": "00a3e314bab1a7eef2ba4240342b6478", "is_reserved": 0, "is_disabled": 0}, {"lat": 38.937114666666666, "fusion_lat": 0.0, "type": "electric_scooter", "bike_id": "83a6c4f0e605d8abe272d8034014ae9a", "rental_uris": {"ios": "https://dc.lft.to/lastmile_qr_scan", "android": "https://dc.lft.to/lastmile_qr_scan"}, "fusion_lon": 0.0, "lon": -77.089837, "name": "83a6c4f0e605d8abe272d8034014ae9a", "is_reserved": 0, "is_disabled": 0}, {"lat": 38.89789, "fusion_lat": 0.0, "type": "electric_scooter", "bike_id": "6104dafbe58e0ab76608d2a346769089", "rental_uris": {"ios": "https://dc.lft.to/lastmile_qr_scan", "android": "https://dc.lft.to/lastmile_qr_scan"}, "fusion_lon": 0.0, "lon": -77.02796066666667, "name": "6104dafbe58e0ab76608d2a346769089", "is_reserved": 0, "is_disabled": 0}, {"lat": 38.91885533333333, "fusion_lat": 0.0, "type": "electric_scooter", "bike_id": "b58e44e4c20493a3f01d9afc7ebff3b6", "rental_uris": {"ios": "https://dc.lft.to/lastmile_qr_scan", "android": "https://dc.lft.to/lastmile_qr_scan"}, "fusion_lon": 0.0, "lon": -77.03565916666666, "name": "b58e44e4c20493a3f01d9afc7ebff3b6", "is_reserved": 0, "is_disabled": 0}, {"lat": 38.89194483333333, "fusion_lat": 0.0, "type": "electric_scooter", "bike_id": "863201fb6d6ea8e6821fdb44695a20f7", "rental_uris": {"ios": "https://dc.lft.to/lastmile_qr_scan", "android": "https://dc.lft.to/lastmile_qr_scan"}, "fusion_lon": 0.0, "lon": -76.9985615, "name": "863201fb6d6ea8e6821fdb44695a20f7", "is_reserved": 0, "is_disabled": 0}, {"lat": 38.9347095, "fusion_lat": 0.0, "type": "electric_scooter", "bike_id": "d291ea29f4bae3d70e6d769a5bbf3a47", "rental_uris": {"ios": "https://dc.lft.to/lastmile_qr_scan", "android": "https://dc.lft.to/lastmile_qr_scan"}, "fusion_lon": 0.0, "lon": -77.0728045, "name": "d291ea29f4bae3d70e6d769a5bbf3a47", "is_reserved": 0, "is_disabled": 0}, {"lat": 38.90969366666667, "fusion_lat": 0.0, "type": "electric_scooter", "bike_id": "8e25aedf23a237b22946787a16284390", "rental_uris": {"ios": "https://dc.lft.to/lastmile_qr_scan", "android": "https://dc.lft.to/lastmile_qr_scan"}, "fusion_lon": 0.0, "lon": -77.03259, "name": "8e25aedf23a237b22946787a16284390", "is_reserved": 0, "is_disabled": 0}, {"lat": 38.919572, "fusion_lat": 0.0, "type": "electric_scooter", "bike_id": "81bc323c72e8c10c5e8090e60a73b391", "rental_uris": {"ios": "https://dc.lft.to/lastmile_qr_scan", "android": "https://dc.lft.to/lastmile_qr_scan"}, "fusion_lon": 0.0, "lon": -77.02350316666667, "name": "81bc323c72e8c10c5e8090e60a73b391", "is_reserved": 0, "is_disabled": 0}, {"lat": 38.819138, "fusion_lat": 0.0, "type": "electric_bike", "bike_id": "20fdd489ae381bd083da75e5252ee19d", "rental_uris": {"ios": "https://dc.lft.to/lastmile_qr_scan", "android": "https://dc.lft.to/lastmile_qr_scan"}, "fusion_lon": 0.0, "lon": -77.12650266666667, "name": "20fdd489ae381bd083da75e5252ee19d", "is_reserved": 0, "is_disabled": 0}, {"lat": 38.9249105, "fusion_lat": 0.0, "type": "electric_scooter", "bike_id": "ad1baa660a0cb70f6e258c3f42962e92", "rental_uris": {"ios": "https://dc.lft.to/lastmile_qr_scan", "android": "https://dc.lft.to/lastmile_qr_scan"}, "fusion_lon": 0.0, "lon": -77.0521505, "name": "ad1baa660a0cb70f6e258c3f42962e92", "is_reserved": 0, "is_disabled": 0}, {"lat": 38.9207855, "fusion_lat": 0.0, "type": "electric_scooter", "bike_id": "af36b10054e7cc3b9009cbe52cc6341d", "rental_uris": {"ios": "https://dc.lft.to/lastmile_qr_scan", "android": "https://dc.lft.to/lastmile_qr_scan"}, "fusion_lon": 0.0, "lon": -77.02412416666667, "name": "af36b10054e7cc3b9009cbe52cc6341d", "is_reserved": 0, "is_disabled": 0}, {"lat": 38.933608666666665, "fusion_lat": 0.0, "type": "electric_scooter", "bike_id": "6c2a965380df7d8cbc35e9dca7ed289a", "rental_uris": {"ios": "https://dc.lft.to/lastmile_qr_scan", "android": "https://dc.lft.to/lastmile_qr_scan"}, "fusion_lon": 0.0, "lon": -77.03724616666666, "name": "6c2a965380df7d8cbc35e9dca7ed289a", "is_reserved": 0, "is_disabled": 0}, {"lat": 38.89014, "fusion_lat": 0.0, "type": "electric_scooter", "bike_id": "5b5a718465fadd980f48132aa068cd2e", "rental_uris": {"ios": "https://dc.lft.to/lastmile_qr_scan", "android": "https://dc.lft.to/lastmile_qr_scan"}, "fusion_lon": 0.0, "lon": -76.93733316666666, "name": "5b5a718465fadd980f48132aa068cd2e", "is_reserved": 0, "is_disabled": 0}, {"lat": 38.91553416666667, "fusion_lat": 0.0, "type": "electric_scooter", "bike_id": "22fef99515e9fa4766f33a537c1224cc", "rental_uris": {"ios": "https://dc.lft.to/lastmile_qr_scan", "android": "https://dc.lft.to/lastmile_qr_scan"}, "fusion_lon": 0.0, "lon": -77.01185766666667, "name": "22fef99515e9fa4766f33a537c1224cc", "is_reserved": 0, "is_disabled": 0}, {"lat": 38.927395833333335, "fusion_lat": 0.0, "type": "electric_scooter", "bike_id": "335405e5d811d4864acbbeacfa265846", "rental_uris": {"ios": "https://dc.lft.to/lastmile_qr_scan", "android": "https://dc.lft.to/lastmile_qr_scan"}, "fusion_lon": 0.0, "lon": -77.03499433333333, "name": "335405e5d811d4864acbbeacfa265846", "is_reserved": 0, "is_disabled": 0}, {"lat": 38.9022445, "fusion_lat": 0.0, "type": "electric_scooter", "bike_id": "037773a96f175cb16385e97d8b0a4467", "rental_uris": {"ios": "https://dc.lft.to/lastmile_qr_scan", "android": "https://dc.lft.to/lastmile_qr_scan"}, "fusion_lon": 0.0, "lon": -76.98185866666667, "name": "037773a96f175cb16385e97d8b0a4467", "is_reserved": 0, "is_disabled": 0}, {"lat": 38.89982116666667, "fusion_lat": 0.0, "type": "electric_scooter", "bike_id": "bd31aab9fd65da0272a6e0d1df39aa77", "rental_uris": {"ios": "https://dc.lft.to/lastmile_qr_scan", "android": "https://dc.lft.to/lastmile_qr_scan"}, "fusion_lon": 0.0, "lon": -77.02924533333334, "name": "bd31aab9fd65da0272a6e0d1df39aa77", "is_reserved": 0, "is_disabled": 0}, {"lat": 38.93099183333333, "fusion_lat": 0.0, "type": "electric_scooter", "bike_id": "3c838022d5f91bc2919fb89c11e3ddcf", "rental_uris": {"ios": "https://dc.lft.to/lastmile_qr_scan", "android": "https://dc.lft.to/lastmile_qr_scan"}, "fusion_lon": 0.0, "lon": -77.0247275, "name": "3c838022d5f91bc2919fb89c11e3ddcf", "is_reserved": 0, "is_disabled": 0}, {"lat": 39.099668, "fusion_lat": 0.0, "type": "electric_bike", "bike_id": "1c72101c04e67163db88f7911deb7e28", "rental_uris": {"ios": "https://dc.lft.to/lastmile_qr_scan", "android": "https://dc.lft.to/lastmile_qr_scan"}, "fusion_lon": 0.0, "lon": -77.18304316666666, "name": "1c72101c04e67163db88f7911deb7e28", "is_reserved": 0, "is_disabled": 0}, {"lat": 38.90863433333333, "fusion_lat": 0.0, "type": "electric_scooter", "bike_id": "34a2e67f9a67495913d3b440a705eacc", "rental_uris": {"ios": "https://dc.lft.to/lastmile_qr_scan", "android": "https://dc.lft.to/lastmile_qr_scan"}, "fusion_lon": 0.0, "lon": -77.01940883333333, "name": "34a2e67f9a67495913d3b440a705eacc", "is_reserved": 0, "is_disabled": 0}, {"lat": 38.89929333333333, "fusion_lat": 0.0, "type": "electric_scooter", "bike_id": "df799b60b91e5a8ab6af5ba58a24fca9", "rental_uris": {"ios": "https://dc.lft.to/lastmile_qr_scan", "android": "https://dc.lft.to/lastmile_qr_scan"}, "fusion_lon": 0.0, "lon": -77.04999933333333, "name": "df799b60b91e5a8ab6af5ba58a24fca9", "is_reserved": 0, "is_disabled": 0}, {"lat": 38.919151, "fusion_lat": 0.0, "type": "electric_scooter", "bike_id": "9718c356c1db8700a49af5e85647cb28", "rental_uris": {"ios": "https://dc.lft.to/lastmile_qr_scan", "android": "https://dc.lft.to/lastmile_qr_scan"}, "fusion_lon": 0.0, "lon": -77.04460433333334, "name": "9718c356c1db8700a49af5e85647cb28", "is_reserved": 0, "is_disabled": 0}, {"lat": 38.90650333333333, "fusion_lat": 0.0, "type": "electric_scooter", "bike_id": "2c714df565284503afe5d75f3f61c374", "rental_uris": {"ios": "https://dc.lft.to/lastmile_qr_scan", "android": "https://dc.lft.to/lastmile_qr_scan"}, "fusion_lon": 0.0, "lon": -77.03900133333333, "name": "2c714df565284503afe5d75f3f61c374", "is_reserved": 0, "is_disabled": 0}, {"lat": 38.908344166666666, "fusion_lat": 0.0, "type": "electric_scooter", "bike_id": "c508929aa4b1f3bf0a0a48ace0ed4bdd", "rental_uris": {"ios": "https://dc.lft.to/lastmile_qr_scan", "android": "https://dc.lft.to/lastmile_qr_scan"}, "fusion_lon": 0.0, "lon": -77.034439, "name": "c508929aa4b1f3bf0a0a48ace0ed4bdd", "is_reserved": 0, "is_disabled": 0}, {"lat": 38.88635, "fusion_lat": 0.0, "type": "electric_scooter", "bike_id": "eaa5931d58e904707b2510d6dd811c6b", "rental_uris": {"ios": "https://dc.lft.to/lastmile_qr_scan", "android": "https://dc.lft.to/lastmile_qr_scan"}, "fusion_lon": 0.0, "lon": -76.92587083333333, "name": "eaa5931d58e904707b2510d6dd811c6b", "is_reserved": 0, "is_disabled": 0}, {"lat": 38.87868266666667, "fusion_lat": 0.0, "type": "electric_scooter", "bike_id": "9799388eeacc47fd123b7de228f6f2af", "rental_uris": {"ios": "https://dc.lft.to/lastmile_qr_scan", "android": "https://dc.lft.to/lastmile_qr_scan"}, "fusion_lon": 0.0, "lon": -76.96257233333333, "name": "9799388eeacc47fd123b7de228f6f2af", "is_reserved": 0, "is_disabled": 0}, {"lat": 38.919687833333334, "fusion_lat": 0.0, "type": "electric_scooter", "bike_id": "e8732282d57ffc31a90f347ca42d0292", "rental_uris": {"ios": "https://dc.lft.to/lastmile_qr_scan", "android": "https://dc.lft.to/lastmile_qr_scan"}, "fusion_lon": 0.0, "lon": -77.03377833333333, "name": "e8732282d57ffc31a90f347ca42d0292", "is_reserved": 0, "is_disabled": 0}, {"lat": 38.89848216666667, "fusion_lat": 0.0, "type": "electric_scooter", "bike_id": "b03de4c5658876f501e256d2eb8bf114", "rental_uris": {"ios": "https://dc.lft.to/lastmile_qr_scan", "android": "https://dc.lft.to/lastmile_qr_scan"}, "fusion_lon": 0.0, "lon": -76.94256066666667, "name": "b03de4c5658876f501e256d2eb8bf114", "is_reserved": 0, "is_disabled": 0}, {"lat": 38.920675833333334, "fusion_lat": 0.0, "type": "electric_scooter", "bike_id": "66a482cb377332e9339d706976124fad", "rental_uris": {"ios": "https://dc.lft.to/lastmile_qr_scan", "android": "https://dc.lft.to/lastmile_qr_scan"}, "fusion_lon": 0.0, "lon": -77.024114, "name": "66a482cb377332e9339d706976124fad", "is_reserved": 0, "is_disabled": 0}, {"lat": 38.903854833333334, "fusion_lat": 0.0, "type": "electric_scooter", "bike_id": "8e7d36b9c0543f926777e6eb80de9a32", "rental_uris": {"ios": "https://dc.lft.to/lastmile_qr_scan", "android": "https://dc.lft.to/lastmile_qr_scan"}, "fusion_lon": 0.0, "lon": -77.04489, "name": "8e7d36b9c0543f926777e6eb80de9a32", "is_reserved": 0, "is_disabled": 0}, {"lat": 38.9082245, "fusion_lat": 0.0, "type": "electric_scooter", "bike_id": "0b61b60d0871132113a749278c03b9c5", "rental_uris": {"ios": "https://dc.lft.to/lastmile_qr_scan", "android": "https://dc.lft.to/lastmile_qr_scan"}, "fusion_lon": 0.0, "lon": -77.04335516666667, "name": "0b61b60d0871132113a749278c03b9c5", "is_reserved": 0, "is_disabled": 0}, {"lat": 38.911055166666664, "fusion_lat": 0.0, "type": "electric_scooter", "bike_id": "4211072df7d56e9ebf6eb2f6938255b7", "rental_uris": {"ios": "https://dc.lft.to/lastmile_qr_scan", "android": "https://dc.lft.to/lastmile_qr_scan"}, "fusion_lon": 0.0, "lon": -77.04548216666667, "name": "4211072df7d56e9ebf6eb2f6938255b7", "is_reserved": 0, "is_disabled": 0}, {"lat": 38.875369666666664, "fusion_lat": 0.0, "type": "electric_scooter", "bike_id": "20707fc976f4745d9a4c5096ea38ff79", "rental_uris": {"ios": "https://dc.lft.to/lastmile_qr_scan", "android": "https://dc.lft.to/lastmile_qr_scan"}, "fusion_lon": 0.0, "lon": -77.005074, "name": "20707fc976f4745d9a4c5096ea38ff79", "is_reserved": 0, "is_disabled": 0}, {"lat": 38.90936383333333, "fusion_lat": 0.0, "type": "electric_scooter", "bike_id": "a170a61484d226785b3fcb75d8addc2c", "rental_uris": {"ios": "https://dc.lft.to/lastmile_qr_scan", "android": "https://dc.lft.to/lastmile_qr_scan"}, "fusion_lon": 0.0, "lon": -77.03186133333334, "name": "a170a61484d226785b3fcb75d8addc2c", "is_reserved": 0, "is_disabled": 0}, {"lat": 38.892237333333334, "fusion_lat": 0.0, "type": "electric_scooter", "bike_id": "6bdfed4623ba0bdce96f6f6ccedde149", "rental_uris": {"ios": "https://dc.lft.to/lastmile_qr_scan", "android": "https://dc.lft.to/lastmile_qr_scan"}, "fusion_lon": 0.0, "lon": -77.041982, "name": "6bdfed4623ba0bdce96f6f6ccedde149", "is_reserved": 0, "is_disabled": 0}, {"lat": 38.895551, "fusion_lat": 0.0, "type": "electric_scooter", "bike_id": "36f13a7a17b1b31cb165bf4b59dc2d91", "rental_uris": {"ios": "https://dc.lft.to/lastmile_qr_scan", "android": "https://dc.lft.to/lastmile_qr_scan"}, "fusion_lon": 0.0, "lon": -76.9487445, "name": "36f13a7a17b1b31cb165bf4b59dc2d91", "is_reserved": 0, "is_disabled": 0}, {"lat": 38.92287733333333, "fusion_lat": 0.0, "type": "electric_scooter", "bike_id": "fa79c216eb5ab4903f847dbeb532fd81", "rental_uris": {"ios": "https://dc.lft.to/lastmile_qr_scan", "android": "https://dc.lft.to/lastmile_qr_scan"}, "fusion_lon": 0.0, "lon": -77.02242616666666, "name": "fa79c216eb5ab4903f847dbeb532fd81", "is_reserved": 0, "is_disabled": 0}, {"lat": 38.908181666666664, "fusion_lat": 0.0, "type": "electric_scooter", "bike_id": "53a145dafd9f966ac5e62fa6b6374f55", "rental_uris": {"ios": "https://dc.lft.to/lastmile_qr_scan", "android": "https://dc.lft.to/lastmile_qr_scan"}, "fusion_lon": 0.0, "lon": -77.03548883333333, "name": "53a145dafd9f966ac5e62fa6b6374f55", "is_reserved": 0, "is_disabled": 0}, {"lat": 38.9298365, "fusion_lat": 0.0, "type": "electric_scooter", "bike_id": "06cb5e12ffd830573fdb01aab7bf44a5", "rental_uris": {"ios": "https://dc.lft.to/lastmile_qr_scan", "android": "https://dc.lft.to/lastmile_qr_scan"}, "fusion_lon": 0.0, "lon": -77.03658983333334, "name": "06cb5e12ffd830573fdb01aab7bf44a5", "is_reserved": 0, "is_disabled": 0}, {"lat": 38.907136, "fusion_lat": 0.0, "type": "electric_scooter", "bike_id": "a0841c70e4e7af2801d56ec32ac26b6c", "rental_uris": {"ios": "https://dc.lft.to/lastmile_qr_scan", "android": "https://dc.lft.to/lastmile_qr_scan"}, "fusion_lon": 0.0, "lon": -77.029782, "name": "a0841c70e4e7af2801d56ec32ac26b6c", "is_reserved": 0, "is_disabled": 0}, {"lat": 38.9040565, "fusion_lat": 0.0, "type": "electric_scooter", "bike_id": "d7fb4c9cc678d90c712efec462b06839", "rental_uris": {"ios": "https://dc.lft.to/lastmile_qr_scan", "android": "https://dc.lft.to/lastmile_qr_scan"}, "fusion_lon": 0.0, "lon": -77.0293565, "name": "d7fb4c9cc678d90c712efec462b06839", "is_reserved": 0, "is_disabled": 0}, {"lat": 38.911871, "fusion_lat": 0.0, "type": "electric_scooter", "bike_id": "5d356b812e9f503a3c7c6c41af5d540e", "rental_uris": {"ios": "https://dc.lft.to/lastmile_qr_scan", "android": "https://dc.lft.to/lastmile_qr_scan"}, "fusion_lon": 0.0, "lon": -77.02001, "name": "5d356b812e9f503a3c7c6c41af5d540e", "is_reserved": 0, "is_disabled": 0}, {"lat": 38.90826633333333, "fusion_lat": 0.0, "type": "electric_scooter", "bike_id": "dfe6dad92a68f7f38d61286b2d7ee701", "rental_uris": {"ios": "https://dc.lft.to/lastmile_qr_scan", "android": "https://dc.lft.to/lastmile_qr_scan"}, "fusion_lon": 0.0, "lon": -77.0365405, "name": "dfe6dad92a68f7f38d61286b2d7ee701", "is_reserved": 0, "is_disabled": 0}, {"lat": 38.89543233333333, "fusion_lat": 0.0, "type": "electric_scooter", "bike_id": "2630b3165e47caae02213e5aa1136761", "rental_uris": {"ios": "https://dc.lft.to/lastmile_qr_scan", "android": "https://dc.lft.to/lastmile_qr_scan"}, "fusion_lon": 0.0, "lon": -76.94955533333334, "name": "2630b3165e47caae02213e5aa1136761", "is_reserved": 0, "is_disabled": 0}, {"lat": 38.88104366666666, "fusion_lat": 0.0, "type": "electric_scooter", "bike_id": "50be0e036bd010ffb3ff189cd438e6b6", "rental_uris": {"ios": "https://dc.lft.to/lastmile_qr_scan", "android": "https://dc.lft.to/lastmile_qr_scan"}, "fusion_lon": 0.0, "lon": -77.01683766666666, "name": "50be0e036bd010ffb3ff189cd438e6b6", "is_reserved": 0, "is_disabled": 0}, {"lat": 38.924064666666666, "fusion_lat": 0.0, "type": "electric_scooter", "bike_id": "bbfda142560642bd527856768f7bd7f1", "rental_uris": {"ios": "https://dc.lft.to/lastmile_qr_scan", "android": "https://dc.lft.to/lastmile_qr_scan"}, "fusion_lon": 0.0, "lon": -77.05166883333334, "name": "bbfda142560642bd527856768f7bd7f1", "is_reserved": 0, "is_disabled": 0}, {"lat": 38.88187083333333, "fusion_lat": 0.0, "type": "electric_scooter", "bike_id": "f7f629647dcc996978e9567bfd2ada61", "rental_uris": {"ios": "https://dc.lft.to/lastmile_qr_scan", "android": "https://dc.lft.to/lastmile_qr_scan"}, "fusion_lon": 0.0, "lon": -76.99252433333334, "name": "f7f629647dcc996978e9567bfd2ada61", "is_reserved": 0, "is_disabled": 0}, {"lat": 38.860347833333336, "fusion_lat": 0.0, "type": "electric_bike", "bike_id": "ec5f236328a84b25ea24d8489d4c4ba2", "rental_uris": {"ios": "https://dc.lft.to/lastmile_qr_scan", "android": "https://dc.lft.to/lastmile_qr_scan"}, "fusion_lon": 0.0, "lon": -77.09377966666666, "name": "ec5f236328a84b25ea24d8489d4c4ba2", "is_reserved": 0, "is_disabled": 0}, {"lat": 38.807614666666666, "fusion_lat": 0.0, "type": "electric_bike", "bike_id": "7b686d03a7cdfb870e6c7766f8d2aa45", "rental_uris": {"ios": "https://dc.lft.to/lastmile_qr_scan", "android": "https://dc.lft.to/lastmile_qr_scan"}, "fusion_lon": 0.0, "lon": -77.1298465, "name": "7b686d03a7cdfb870e6c7766f8d2aa45", "is_reserved": 0, "is_disabled": 0}, {"lat": 38.90431733333333, "fusion_lat": 0.0, "type": "electric_scooter", "bike_id": "0cf5759cff459dd12757608ebdf02ab0", "rental_uris": {"ios": "https://dc.lft.to/lastmile_qr_scan", "android": "https://dc.lft.to/lastmile_qr_scan"}, "fusion_lon": 0.0, "lon": -77.01978266666667, "name": "0cf5759cff459dd12757608ebdf02ab0", "is_reserved": 0, "is_disabled": 0}, {"lat": 38.927113166666665, "fusion_lat": 0.0, "type": "electric_scooter", "bike_id": "d29e622e566b08d7e8b61b92faef0a6a", "rental_uris": {"ios": "https://dc.lft.to/lastmile_qr_scan", "android": "https://dc.lft.to/lastmile_qr_scan"}, "fusion_lon": 0.0, "lon": -77.0382205, "name": "d29e622e566b08d7e8b61b92faef0a6a", "is_reserved": 0, "is_disabled": 0}, {"lat": 38.91272383333333, "fusion_lat": 0.0, "type": "electric_scooter", "bike_id": "a34f6e503fa504f1f7b9e1891169a121", "rental_uris": {"ios": "https://dc.lft.to/lastmile_qr_scan", "android": "https://dc.lft.to/lastmile_qr_scan"}, "fusion_lon": 0.0, "lon": -77.03858083333333, "name": "a34f6e503fa504f1f7b9e1891169a121", "is_reserved": 0, "is_disabled": 0}, {"lat": 38.9497915, "fusion_lat": 0.0, "type": "electric_scooter", "bike_id": "47424d58e54beb9a05a2d5e0bf716250", "rental_uris": {"ios": "https://dc.lft.to/lastmile_qr_scan", "android": "https://dc.lft.to/lastmile_qr_scan"}, "fusion_lon": 0.0, "lon": -77.09962216666666, "name": "47424d58e54beb9a05a2d5e0bf716250", "is_reserved": 0, "is_disabled": 0}, {"lat": 38.892398166666666, "fusion_lat": 0.0, "type": "electric_scooter", "bike_id": "d80c2f5e77cb477da55dced50b4bc263", "rental_uris": {"ios": "https://dc.lft.to/lastmile_qr_scan", "android": "https://dc.lft.to/lastmile_qr_scan"}, "fusion_lon": 0.0, "lon": -77.04486216666666, "name": "d80c2f5e77cb477da55dced50b4bc263", "is_reserved": 0, "is_disabled": 0}, {"lat": 38.99436166666667, "fusion_lat": 0.0, "type": "electric_bike", "bike_id": "745d3e21eb82f676688242cc765916a6", "rental_uris": {"ios": "https://dc.lft.to/lastmile_qr_scan", "android": "https://dc.lft.to/lastmile_qr_scan"}, "fusion_lon": 0.0, "lon": -77.02660966666667, "name": "745d3e21eb82f676688242cc765916a6", "is_reserved": 0, "is_disabled": 0}, {"lat": 38.92364416666667, "fusion_lat": 0.0, "type": "electric_scooter", "bike_id": "6521cee9a711c76c2745281a3fc77576", "rental_uris": {"ios": "https://dc.lft.to/lastmile_qr_scan", "android": "https://dc.lft.to/lastmile_qr_scan"}, "fusion_lon": 0.0, "lon": -77.05048066666667, "name": "6521cee9a711c76c2745281a3fc77576", "is_reserved": 0, "is_disabled": 0}, {"lat": 38.84757233333333, "fusion_lat": 0.0, "type": "electric_scooter", "bike_id": "57df0969ff08ecc08df7510234c53466", "rental_uris": {"ios": "https://dc.lft.to/lastmile_qr_scan", "android": "https://dc.lft.to/lastmile_qr_scan"}, "fusion_lon": 0.0, "lon": -76.9949845, "name": "57df0969ff08ecc08df7510234c53466", "is_reserved": 0, "is_disabled": 0}, {"lat": 38.89979833333334, "fusion_lat": 0.0, "type": "electric_scooter", "bike_id": "f6925756bcfceccb846173d9c5b8ef99", "rental_uris": {"ios": "https://dc.lft.to/lastmile_qr_scan", "android": "https://dc.lft.to/lastmile_qr_scan"}, "fusion_lon": 0.0, "lon": -76.9854695, "name": "f6925756bcfceccb846173d9c5b8ef99", "is_reserved": 0, "is_disabled": 0}, {"lat": 38.904369333333335, "fusion_lat": 0.0, "type": "electric_scooter", "bike_id": "1a1485e7bb673c741e5b81579aba2d4a", "rental_uris": {"ios": "https://dc.lft.to/lastmile_qr_scan", "android": "https://dc.lft.to/lastmile_qr_scan"}, "fusion_lon": 0.0, "lon": -77.02594, "name": "1a1485e7bb673c741e5b81579aba2d4a", "is_reserved": 0, "is_disabled": 0}, {"lat": 38.9064905, "fusion_lat": 0.0, "type": "electric_scooter", "bike_id": "054756fe16cbd3e55215078525ea67df", "rental_uris": {"ios": "https://dc.lft.to/lastmile_qr_scan", "android": "https://dc.lft.to/lastmile_qr_scan"}, "fusion_lon": 0.0, "lon": -77.034565, "name": "054756fe16cbd3e55215078525ea67df", "is_reserved": 0, "is_disabled": 0}, {"lat": 38.916957, "fusion_lat": 0.0, "type": "electric_scooter", "bike_id": "7c6f82d65f8fd38a5f0db6ab7b0cbb68", "rental_uris": {"ios": "https://dc.lft.to/lastmile_qr_scan", "android": "https://dc.lft.to/lastmile_qr_scan"}, "fusion_lon": 0.0, "lon": -77.01229316666667, "name": "7c6f82d65f8fd38a5f0db6ab7b0cbb68", "is_reserved": 0, "is_disabled": 0}, {"lat": 39.0525475, "fusion_lat": 0.0, "type": "electric_bike", "bike_id": "3bb374d3b51d60c15266a2b4cf2e2cc5", "rental_uris": {"ios": "https://dc.lft.to/lastmile_qr_scan", "android": "https://dc.lft.to/lastmile_qr_scan"}, "fusion_lon": 0.0, "lon": -77.08067433333333, "name": "3bb374d3b51d60c15266a2b4cf2e2cc5", "is_reserved": 0, "is_disabled": 0}, {"lat": 38.90577583333334, "fusion_lat": 0.0, "type": "electric_scooter", "bike_id": "33710bfb4f49d2ba45bfc0ef3673b4a2", "rental_uris": {"ios": "https://dc.lft.to/lastmile_qr_scan", "android": "https://dc.lft.to/lastmile_qr_scan"}, "fusion_lon": 0.0, "lon": -77.018542, "name": "33710bfb4f49d2ba45bfc0ef3673b4a2", "is_reserved": 0, "is_disabled": 0}, {"lat": 38.8931715, "fusion_lat": 0.0, "type": "electric_scooter", "bike_id": "86b6d2d4bfb1c622db26e413312f6632", "rental_uris": {"ios": "https://dc.lft.to/lastmile_qr_scan", "android": "https://dc.lft.to/lastmile_qr_scan"}, "fusion_lon": 0.0, "lon": -77.07875433333334, "name": "86b6d2d4bfb1c622db26e413312f6632", "is_reserved": 0, "is_disabled": 0}, {"lat": 38.907721, "fusion_lat": 0.0, "type": "electric_scooter", "bike_id": "186fcf0b698707f808eae6db44e1c2e1", "rental_uris": {"ios": "https://dc.lft.to/lastmile_qr_scan", "android": "https://dc.lft.to/lastmile_qr_scan"}, "fusion_lon": 0.0, "lon": -77.03861383333333, "name": "186fcf0b698707f808eae6db44e1c2e1", "is_reserved": 0, "is_disabled": 0}, {"lat": 38.868954333333335, "fusion_lat": 0.0, "type": "electric_bike", "bike_id": "2b1402d6390b4633afddf1696551a337", "rental_uris": {"ios": "https://dc.lft.to/lastmile_qr_scan", "android": "https://dc.lft.to/lastmile_qr_scan"}, "fusion_lon": 0.0, "lon": -76.985209, "name": "2b1402d6390b4633afddf1696551a337", "is_reserved": 0, "is_disabled": 0}, {"lat": 38.89393033333333, "fusion_lat": 0.0, "type": "electric_scooter", "bike_id": "f51f3ce6a0379fa1fc23e9412aa8d476", "rental_uris": {"ios": "https://dc.lft.to/lastmile_qr_scan", "android": "https://dc.lft.to/lastmile_qr_scan"}, "fusion_lon": 0.0, "lon": -76.9231135, "name": "f51f3ce6a0379fa1fc23e9412aa8d476", "is_reserved": 0, "is_disabled": 0}, {"lat": 38.93424683333333, "fusion_lat": 0.0, "type": "electric_scooter", "bike_id": "49bb8d8c27f0836560d3468421484d7d", "rental_uris": {"ios": "https://dc.lft.to/lastmile_qr_scan", "android": "https://dc.lft.to/lastmile_qr_scan"}, "fusion_lon": 0.0, "lon": -77.04004766666667, "name": "49bb8d8c27f0836560d3468421484d7d", "is_reserved": 0, "is_disabled": 0}, {"lat": 38.9305045, "fusion_lat": 0.0, "type": "electric_scooter", "bike_id": "9538c2477d17f08df1a239d956d3aa29", "rental_uris": {"ios": "https://dc.lft.to/lastmile_qr_scan", "android": "https://dc.lft.to/lastmile_qr_scan"}, "fusion_lon": 0.0, "lon": -77.07303966666667, "name": "9538c2477d17f08df1a239d956d3aa29", "is_reserved": 0, "is_disabled": 0}, {"lat": 38.948068666666664, "fusion_lat": 0.0, "type": "electric_bike", "bike_id": "652755e85a2b2c7663cee78a02cf1656", "rental_uris": {"ios": "https://dc.lft.to/lastmile_qr_scan", "android": "https://dc.lft.to/lastmile_qr_scan"}, "fusion_lon": 0.0, "lon": -76.959676, "name": "652755e85a2b2c7663cee78a02cf1656", "is_reserved": 0, "is_disabled": 0}, {"lat": 38.89609683333333, "fusion_lat": 0.0, "type": "electric_scooter", "bike_id": "17e2ee1d8433cee9997c10e1151c852a", "rental_uris": {"ios": "https://dc.lft.to/lastmile_qr_scan", "android": "https://dc.lft.to/lastmile_qr_scan"}, "fusion_lon": 0.0, "lon": -77.00902033333334, "name": "17e2ee1d8433cee9997c10e1151c852a", "is_reserved": 0, "is_disabled": 0}, {"lat": 38.902658833333334, "fusion_lat": 0.0, "type": "electric_scooter", "bike_id": "8a291ded9856e01ed6e669766660b29a", "rental_uris": {"ios": "https://dc.lft.to/lastmile_qr_scan", "android": "https://dc.lft.to/lastmile_qr_scan"}, "fusion_lon": 0.0, "lon": -77.01815933333333, "name": "8a291ded9856e01ed6e669766660b29a", "is_reserved": 0, "is_disabled": 0}, {"lat": 38.923956833333335, "fusion_lat": 0.0, "type": "electric_scooter", "bike_id": "a50dea8b8ec4dbeafa23d07e371beec3", "rental_uris": {"ios": "https://dc.lft.to/lastmile_qr_scan", "android": "https://dc.lft.to/lastmile_qr_scan"}, "fusion_lon": 0.0, "lon": -77.05060683333333, "name": "a50dea8b8ec4dbeafa23d07e371beec3", "is_reserved": 0, "is_disabled": 0}, {"lat": 38.9097495, "fusion_lat": 0.0, "type": "electric_scooter", "bike_id": "0617d5ba8545ded65b90f85ba0edebac", "rental_uris": {"ios": "https://dc.lft.to/lastmile_qr_scan", "android": "https://dc.lft.to/lastmile_qr_scan"}, "fusion_lon": 0.0, "lon": -77.03340516666667, "name": "0617d5ba8545ded65b90f85ba0edebac", "is_reserved": 0, "is_disabled": 0}, {"lat": 38.9238735, "fusion_lat": 0.0, "type": "electric_scooter", "bike_id": "4f6a2284b5da1df0c45260746ae17dd5", "rental_uris": {"ios": "https://dc.lft.to/lastmile_qr_scan", "android": "https://dc.lft.to/lastmile_qr_scan"}, "fusion_lon": 0.0, "lon": -77.040895, "name": "4f6a2284b5da1df0c45260746ae17dd5", "is_reserved": 0, "is_disabled": 0}, {"lat": 38.906137, "fusion_lat": 0.0, "type": "electric_scooter", "bike_id": "6bb474a81e7d7753385755288edba4a9", "rental_uris": {"ios": "https://dc.lft.to/lastmile_qr_scan", "android": "https://dc.lft.to/lastmile_qr_scan"}, "fusion_lon": 0.0, "lon": -77.021766, "name": "6bb474a81e7d7753385755288edba4a9", "is_reserved": 0, "is_disabled": 0}, {"lat": 38.90962416666667, "fusion_lat": 0.0, "type": "electric_scooter", "bike_id": "9c11f196ae7ecd376056d2cd3af7ef56", "rental_uris": {"ios": "https://dc.lft.to/lastmile_qr_scan", "android": "https://dc.lft.to/lastmile_qr_scan"}, "fusion_lon": 0.0, "lon": -77.03434366666667, "name": "9c11f196ae7ecd376056d2cd3af7ef56", "is_reserved": 0, "is_disabled": 0}, {"lat": 38.87252866666667, "fusion_lat": 0.0, "type": "electric_bike", "bike_id": "3dd4761a9908c359ed549f8ed6d4800f", "rental_uris": {"ios": "https://dc.lft.to/lastmile_qr_scan", "android": "https://dc.lft.to/lastmile_qr_scan"}, "fusion_lon": 0.0, "lon": -76.97673133333333, "name": "3dd4761a9908c359ed549f8ed6d4800f", "is_reserved": 0, "is_disabled": 0}, {"lat": 38.920783, "fusion_lat": 0.0, "type": "electric_scooter", "bike_id": "fa9f7217bdad3ef0426a9e7a1939fae9", "rental_uris": {"ios": "https://dc.lft.to/lastmile_qr_scan", "android": "https://dc.lft.to/lastmile_qr_scan"}, "fusion_lon": 0.0, "lon": -77.0241795, "name": "fa9f7217bdad3ef0426a9e7a1939fae9", "is_reserved": 0, "is_disabled": 0}, {"lat": 38.925309, "fusion_lat": 0.0, "type": "electric_scooter", "bike_id": "51ad7ef34b39b7edf56da545f369abfb", "rental_uris": {"ios": "https://dc.lft.to/lastmile_qr_scan", "android": "https://dc.lft.to/lastmile_qr_scan"}, "fusion_lon": 0.0, "lon": -77.04128, "name": "51ad7ef34b39b7edf56da545f369abfb", "is_reserved": 0, "is_disabled": 0}, {"lat": 38.92192266666667, "fusion_lat": 0.0, "type": "electric_scooter", "bike_id": "9cca5666db15e9217870cb998963dd63", "rental_uris": {"ios": "https://dc.lft.to/lastmile_qr_scan", "android": "https://dc.lft.to/lastmile_qr_scan"}, "fusion_lon": 0.0, "lon": -77.03784433333334, "name": "9cca5666db15e9217870cb998963dd63", "is_reserved": 0, "is_disabled": 0}, {"lat": 39.034334, "fusion_lat": 0.0, "type": "electric_bike", "bike_id": "13b7bb37feca49d02ef130019cb281ef", "rental_uris": {"ios": "https://dc.lft.to/lastmile_qr_scan", "android": "https://dc.lft.to/lastmile_qr_scan"}, "fusion_lon": 0.0, "lon": -77.04314483333333, "name": "13b7bb37feca49d02ef130019cb281ef", "is_reserved": 0, "is_disabled": 0}, {"lat": 38.92138583333333, "fusion_lat": 0.0, "type": "electric_scooter", "bike_id": "5c89970e9eae0ce1329e053aeca8a02f", "rental_uris": {"ios": "https://dc.lft.to/lastmile_qr_scan", "android": "https://dc.lft.to/lastmile_qr_scan"}, "fusion_lon": 0.0, "lon": -77.01830166666667, "name": "5c89970e9eae0ce1329e053aeca8a02f", "is_reserved": 0, "is_disabled": 0}, {"lat": 38.92338783333334, "fusion_lat": 0.0, "type": "electric_scooter", "bike_id": "549b27f34be40a3c19750513594915a4", "rental_uris": {"ios": "https://dc.lft.to/lastmile_qr_scan", "android": "https://dc.lft.to/lastmile_qr_scan"}, "fusion_lon": 0.0, "lon": -77.03538166666667, "name": "549b27f34be40a3c19750513594915a4", "is_reserved": 0, "is_disabled": 0}, {"lat": 38.87764583333333, "fusion_lat": 0.0, "type": "electric_scooter", "bike_id": "7afd7dae253f34105af16e86f5ba65b7", "rental_uris": {"ios": "https://dc.lft.to/lastmile_qr_scan", "android": "https://dc.lft.to/lastmile_qr_scan"}, "fusion_lon": 0.0, "lon": -77.0174875, "name": "7afd7dae253f34105af16e86f5ba65b7", "is_reserved": 0, "is_disabled": 0}, {"lat": 38.86065266666667, "fusion_lat": 0.0, "type": "electric_scooter", "bike_id": "77391a45ec5c99ae8deeb93e76142375", "rental_uris": {"ios": "https://dc.lft.to/lastmile_qr_scan", "android": "https://dc.lft.to/lastmile_qr_scan"}, "fusion_lon": 0.0, "lon": -76.96715333333333, "name": "77391a45ec5c99ae8deeb93e76142375", "is_reserved": 0, "is_disabled": 0}, {"lat": 38.859297166666664, "fusion_lat": 0.0, "type": "electric_scooter", "bike_id": "1f6fffda752b02d24f9ba6bf9632621c", "rental_uris": {"ios": "https://dc.lft.to/lastmile_qr_scan", "android": "https://dc.lft.to/lastmile_qr_scan"}, "fusion_lon": 0.0, "lon": -76.98966733333333, "name": "1f6fffda752b02d24f9ba6bf9632621c", "is_reserved": 0, "is_disabled": 0}, {"lat": 38.920483, "fusion_lat": 0.0, "type": "electric_scooter", "bike_id": "1f8f984860170364b2a8054776634a4b", "rental_uris": {"ios": "https://dc.lft.to/lastmile_qr_scan", "android": "https://dc.lft.to/lastmile_qr_scan"}, "fusion_lon": 0.0, "lon": -77.01707266666666, "name": "1f8f984860170364b2a8054776634a4b", "is_reserved": 0, "is_disabled": 0}, {"lat": 38.9051255, "fusion_lat": 0.0, "type": "electric_scooter", "bike_id": "702a151df4513b20b113b6625e8c08bd", "rental_uris": {"ios": "https://dc.lft.to/lastmile_qr_scan", "android": "https://dc.lft.to/lastmile_qr_scan"}, "fusion_lon": 0.0, "lon": -77.048237, "name": "702a151df4513b20b113b6625e8c08bd", "is_reserved": 0, "is_disabled": 0}, {"lat": 38.876594833333336, "fusion_lat": 0.0, "type": "electric_scooter", "bike_id": "b7418c41d30b65ef4d0f0da30d643828", "rental_uris": {"ios": "https://dc.lft.to/lastmile_qr_scan", "android": "https://dc.lft.to/lastmile_qr_scan"}, "fusion_lon": 0.0, "lon": -76.9945945, "name": "b7418c41d30b65ef4d0f0da30d643828", "is_reserved": 0, "is_disabled": 0}, {"lat": 38.916123, "fusion_lat": 0.0, "type": "electric_scooter", "bike_id": "c23ecab5d1734bbad4e4be64424fd17c", "rental_uris": {"ios": "https://dc.lft.to/lastmile_qr_scan", "android": "https://dc.lft.to/lastmile_qr_scan"}, "fusion_lon": 0.0, "lon": -77.0115475, "name": "c23ecab5d1734bbad4e4be64424fd17c", "is_reserved": 0, "is_disabled": 0}, {"lat": 38.87727133333333, "fusion_lat": 0.0, "type": "electric_scooter", "bike_id": "e6754402a46664e4b6ea2440fc05bad7", "rental_uris": {"ios": "https://dc.lft.to/lastmile_qr_scan", "android": "https://dc.lft.to/lastmile_qr_scan"}, "fusion_lon": 0.0, "lon": -77.017362, "name": "e6754402a46664e4b6ea2440fc05bad7", "is_reserved": 0, "is_disabled": 0}, {"lat": 38.9037215, "fusion_lat": 0.0, "type": "electric_scooter", "bike_id": "fb4131301e69d69d73cc08093f175576", "rental_uris": {"ios": "https://dc.lft.to/lastmile_qr_scan", "android": "https://dc.lft.to/lastmile_qr_scan"}, "fusion_lon": 0.0, "lon": -77.04866633333333, "name": "fb4131301e69d69d73cc08093f175576", "is_reserved": 0, "is_disabled": 0}, {"lat": 38.91069016666667, "fusion_lat": 0.0, "type": "electric_scooter", "bike_id": "7a56039c48fbe8042c32f03f446df4bc", "rental_uris": {"ios": "https://dc.lft.to/lastmile_qr_scan", "android": "https://dc.lft.to/lastmile_qr_scan"}, "fusion_lon": 0.0, "lon": -77.04480983333333, "name": "7a56039c48fbe8042c32f03f446df4bc", "is_reserved": 0, "is_disabled": 0}, {"lat": 38.917904166666666, "fusion_lat": 0.0, "type": "electric_scooter", "bike_id": "6b456a467d1d8597272dff9354497553", "rental_uris": {"ios": "https://dc.lft.to/lastmile_qr_scan", "android": "https://dc.lft.to/lastmile_qr_scan"}, "fusion_lon": 0.0, "lon": -77.02293466666667, "name": "6b456a467d1d8597272dff9354497553", "is_reserved": 0, "is_disabled": 0}, {"lat": 38.907464833333336, "fusion_lat": 0.0, "type": "electric_scooter", "bike_id": "b4d8ed5c165f655f09f6f92e85fe1bdb", "rental_uris": {"ios": "https://dc.lft.to/lastmile_qr_scan", "android": "https://dc.lft.to/lastmile_qr_scan"}, "fusion_lon": 0.0, "lon": -77.02805466666666, "name": "b4d8ed5c165f655f09f6f92e85fe1bdb", "is_reserved": 0, "is_disabled": 0}, {"lat": 38.915419166666666, "fusion_lat": 0.0, "type": "electric_scooter", "bike_id": "1e5d00ff6fe7b7d434ca66875ac0bb97", "rental_uris": {"ios": "https://dc.lft.to/lastmile_qr_scan", "android": "https://dc.lft.to/lastmile_qr_scan"}, "fusion_lon": 0.0, "lon": -77.03184266666666, "name": "1e5d00ff6fe7b7d434ca66875ac0bb97", "is_reserved": 0, "is_disabled": 0}, {"lat": 38.92650666666667, "fusion_lat": 0.0, "type": "electric_scooter", "bike_id": "504f703613cad37217c275b3d0232ecf", "rental_uris": {"ios": "https://dc.lft.to/lastmile_qr_scan", "android": "https://dc.lft.to/lastmile_qr_scan"}, "fusion_lon": 0.0, "lon": -77.03409433333333, "name": "504f703613cad37217c275b3d0232ecf", "is_reserved": 0, "is_disabled": 0}, {"lat": 38.89774283333333, "fusion_lat": 0.0, "type": "electric_scooter", "bike_id": "9ce988224d5c686a8112b9f52dc03882", "rental_uris": {"ios": "https://dc.lft.to/lastmile_qr_scan", "android": "https://dc.lft.to/lastmile_qr_scan"}, "fusion_lon": 0.0, "lon": -76.98458483333333, "name": "9ce988224d5c686a8112b9f52dc03882", "is_reserved": 0, "is_disabled": 0}, {"lat": 38.931158333333336, "fusion_lat": 0.0, "type": "electric_scooter", "bike_id": "84e8e8391118b8c48be01527c16d79b7", "rental_uris": {"ios": "https://dc.lft.to/lastmile_qr_scan", "android": "https://dc.lft.to/lastmile_qr_scan"}, "fusion_lon": 0.0, "lon": -77.02138216666667, "name": "84e8e8391118b8c48be01527c16d79b7", "is_reserved": 0, "is_disabled": 0}, {"lat": 38.90269383333333, "fusion_lat": 0.0, "type": "electric_scooter", "bike_id": "7d53436dd404077a02a76203ee47a86b", "rental_uris": {"ios": "https://dc.lft.to/lastmile_qr_scan", "android": "https://dc.lft.to/lastmile_qr_scan"}, "fusion_lon": 0.0, "lon": -77.05320933333333, "name": "7d53436dd404077a02a76203ee47a86b", "is_reserved": 0, "is_disabled": 0}, {"lat": 38.92410783333333, "fusion_lat": 0.0, "type": "electric_scooter", "bike_id": "dbde045457105ca88c448e82e6e656a8", "rental_uris": {"ios": "https://dc.lft.to/lastmile_qr_scan", "android": "https://dc.lft.to/lastmile_qr_scan"}, "fusion_lon": 0.0, "lon": -77.02083633333334, "name": "dbde045457105ca88c448e82e6e656a8", "is_reserved": 0, "is_disabled": 0}, {"lat": 38.923166333333334, "fusion_lat": 0.0, "type": "electric_scooter", "bike_id": "5b2e7a668e081556fcae1f47bcd32c47", "rental_uris": {"ios": "https://dc.lft.to/lastmile_qr_scan", "android": "https://dc.lft.to/lastmile_qr_scan"}, "fusion_lon": 0.0, "lon": -77.0298135, "name": "5b2e7a668e081556fcae1f47bcd32c47", "is_reserved": 0, "is_disabled": 0}, {"lat": 38.8956205, "fusion_lat": 0.0, "type": "electric_scooter", "bike_id": "6b360a25f0b6e955c4220a9bd502a9e7", "rental_uris": {"ios": "https://dc.lft.to/lastmile_qr_scan", "android": "https://dc.lft.to/lastmile_qr_scan"}, "fusion_lon": 0.0, "lon": -77.02165933333333, "name": "6b360a25f0b6e955c4220a9bd502a9e7", "is_reserved": 0, "is_disabled": 0}, {"lat": 38.9612975, "fusion_lat": 0.0, "type": "electric_bike", "bike_id": "4879811c4cf2e0da1516b4eb38927eef", "rental_uris": {"ios": "https://dc.lft.to/lastmile_qr_scan", "android": "https://dc.lft.to/lastmile_qr_scan"}, "fusion_lon": 0.0, "lon": -77.03275316666667, "name": "4879811c4cf2e0da1516b4eb38927eef", "is_reserved": 0, "is_disabled": 0}, {"lat": 38.933303, "fusion_lat": 0.0, "type": "electric_scooter", "bike_id": "54acfcae3899ff834c560e99972bc024", "rental_uris": {"ios": "https://dc.lft.to/lastmile_qr_scan", "android": "https://dc.lft.to/lastmile_qr_scan"}, "fusion_lon": 0.0, "lon": -77.02909483333333, "name": "54acfcae3899ff834c560e99972bc024", "is_reserved": 0, "is_disabled": 0}, {"lat": 38.9520055, "fusion_lat": 0.0, "type": "electric_scooter", "bike_id": "778b98ddd57f792532baa64aecfdb7ca", "rental_uris": {"ios": "https://dc.lft.to/lastmile_qr_scan", "android": "https://dc.lft.to/lastmile_qr_scan"}, "fusion_lon": 0.0, "lon": -77.02727666666667, "name": "778b98ddd57f792532baa64aecfdb7ca", "is_reserved": 0, "is_disabled": 0}, {"lat": 38.929732333333334, "fusion_lat": 0.0, "type": "electric_scooter", "bike_id": "68bc5bd0ab1c743ff61dfb2459c17cb9", "rental_uris": {"ios": "https://dc.lft.to/lastmile_qr_scan", "android": "https://dc.lft.to/lastmile_qr_scan"}, "fusion_lon": 0.0, "lon": -77.02345383333333, "name": "68bc5bd0ab1c743ff61dfb2459c17cb9", "is_reserved": 0, "is_disabled": 0}, {"lat": 38.918104166666666, "fusion_lat": 0.0, "type": "electric_scooter", "bike_id": "007b2c21a5398ae7e04c0ce54da10f8d", "rental_uris": {"ios": "https://dc.lft.to/lastmile_qr_scan", "android": "https://dc.lft.to/lastmile_qr_scan"}, "fusion_lon": 0.0, "lon": -77.02562916666666, "name": "007b2c21a5398ae7e04c0ce54da10f8d", "is_reserved": 0, "is_disabled": 0}, {"lat": 38.92498583333333, "fusion_lat": 0.0, "type": "electric_scooter", "bike_id": "68f7dfbe1cf8c02dfe3453377500138f", "rental_uris": {"ios": "https://dc.lft.to/lastmile_qr_scan", "android": "https://dc.lft.to/lastmile_qr_scan"}, "fusion_lon": 0.0, "lon": -77.039208, "name": "68f7dfbe1cf8c02dfe3453377500138f", "is_reserved": 0, "is_disabled": 0}, {"lat": 38.923335333333334, "fusion_lat": 0.0, "type": "electric_scooter", "bike_id": "17068ad6299bf35e9877b4ce48965e4a", "rental_uris": {"ios": "https://dc.lft.to/lastmile_qr_scan", "android": "https://dc.lft.to/lastmile_qr_scan"}, "fusion_lon": 0.0, "lon": -77.02963933333334, "name": "17068ad6299bf35e9877b4ce48965e4a", "is_reserved": 0, "is_disabled": 0}, {"lat": 38.90041166666666, "fusion_lat": 0.0, "type": "electric_scooter", "bike_id": "5cc6bddabfa8db8bb8f2af167175fcd8", "rental_uris": {"ios": "https://dc.lft.to/lastmile_qr_scan", "android": "https://dc.lft.to/lastmile_qr_scan"}, "fusion_lon": 0.0, "lon": -77.048609, "name": "5cc6bddabfa8db8bb8f2af167175fcd8", "is_reserved": 0, "is_disabled": 0}, {"lat": 38.90423116666667, "fusion_lat": 0.0, "type": "electric_scooter", "bike_id": "d7dfde8b69d2ab12f6ed8f7f83db1011", "rental_uris": {"ios": "https://dc.lft.to/lastmile_qr_scan", "android": "https://dc.lft.to/lastmile_qr_scan"}, "fusion_lon": 0.0, "lon": -77.05309166666666, "name": "d7dfde8b69d2ab12f6ed8f7f83db1011", "is_reserved": 0, "is_disabled": 0}, {"lat": 38.87662316666667, "fusion_lat": 0.0, "type": "electric_scooter", "bike_id": "1775cec8ec797b748f868d15595edd1f", "rental_uris": {"ios": "https://dc.lft.to/lastmile_qr_scan", "android": "https://dc.lft.to/lastmile_qr_scan"}, "fusion_lon": 0.0, "lon": -77.00282766666666, "name": "1775cec8ec797b748f868d15595edd1f", "is_reserved": 0, "is_disabled": 0}, {"lat": 38.88521766666667, "fusion_lat": 0.0, "type": "electric_scooter", "bike_id": "b114a90fe9439617d0ad004dd1823ece", "rental_uris": {"ios": "https://dc.lft.to/lastmile_qr_scan", "android": "https://dc.lft.to/lastmile_qr_scan"}, "fusion_lon": 0.0, "lon": -77.01130733333333, "name": "b114a90fe9439617d0ad004dd1823ece", "is_reserved": 0, "is_disabled": 0}, {"lat": 38.89245833333333, "fusion_lat": 0.0, "type": "electric_scooter", "bike_id": "3316826ef5851b8a48020e2e03307ec1", "rental_uris": {"ios": "https://dc.lft.to/lastmile_qr_scan", "android": "https://dc.lft.to/lastmile_qr_scan"}, "fusion_lon": 0.0, "lon": -77.02788516666666, "name": "3316826ef5851b8a48020e2e03307ec1", "is_reserved": 0, "is_disabled": 0}, {"lat": 38.914115333333335, "fusion_lat": 0.0, "type": "electric_scooter", "bike_id": "4b20a34ad0fdb9771e39acc7dfbf9aa6", "rental_uris": {"ios": "https://dc.lft.to/lastmile_qr_scan", "android": "https://dc.lft.to/lastmile_qr_scan"}, "fusion_lon": 0.0, "lon": -77.0107295, "name": "4b20a34ad0fdb9771e39acc7dfbf9aa6", "is_reserved": 0, "is_disabled": 0}, {"lat": 38.9090735, "fusion_lat": 0.0, "type": "electric_scooter", "bike_id": "b1616f834ea356b705fc1556124a8fd5", "rental_uris": {"ios": "https://dc.lft.to/lastmile_qr_scan", "android": "https://dc.lft.to/lastmile_qr_scan"}, "fusion_lon": 0.0, "lon": -77.04501483333334, "name": "b1616f834ea356b705fc1556124a8fd5", "is_reserved": 0, "is_disabled": 0}, {"lat": 38.9051015, "fusion_lat": 0.0, "type": "electric_scooter", "bike_id": "5d175ac95dea71381f1936914b185867", "rental_uris": {"ios": "https://dc.lft.to/lastmile_qr_scan", "android": "https://dc.lft.to/lastmile_qr_scan"}, "fusion_lon": 0.0, "lon": -77.0317075, "name": "5d175ac95dea71381f1936914b185867", "is_reserved": 0, "is_disabled": 0}, {"lat": 38.944036, "fusion_lat": 0.0, "type": "electric_scooter", "bike_id": "8df7ab57b96bb2a6d3beacd721ad0693", "rental_uris": {"ios": "https://dc.lft.to/lastmile_qr_scan", "android": "https://dc.lft.to/lastmile_qr_scan"}, "fusion_lon": 0.0, "lon": -77.03906883333333, "name": "8df7ab57b96bb2a6d3beacd721ad0693", "is_reserved": 0, "is_disabled": 0}, {"lat": 38.835798833333335, "fusion_lat": 0.0, "type": "electric_bike", "bike_id": "582ecc04f52114b2b36ad7ac80650c66", "rental_uris": {"ios": "https://dc.lft.to/lastmile_qr_scan", "android": "https://dc.lft.to/lastmile_qr_scan"}, "fusion_lon": 0.0, "lon": -77.00117, "name": "582ecc04f52114b2b36ad7ac80650c66", "is_reserved": 0, "is_disabled": 0}, {"lat": 38.89743633333333, "fusion_lat": 0.0, "type": "electric_scooter", "bike_id": "12b45aae35fac6e3b2b3a7f82f2f8aa7", "rental_uris": {"ios": "https://dc.lft.to/lastmile_qr_scan", "android": "https://dc.lft.to/lastmile_qr_scan"}, "fusion_lon": 0.0, "lon": -77.027785, "name": "12b45aae35fac6e3b2b3a7f82f2f8aa7", "is_reserved": 0, "is_disabled": 0}, {"lat": 38.9076365, "fusion_lat": 0.0, "type": "electric_scooter", "bike_id": "e0e31412233e90cff3a01797f040a1c8", "rental_uris": {"ios": "https://dc.lft.to/lastmile_qr_scan", "android": "https://dc.lft.to/lastmile_qr_scan"}, "fusion_lon": 0.0, "lon": -77.01694466666666, "name": "e0e31412233e90cff3a01797f040a1c8", "is_reserved": 0, "is_disabled": 0}, {"lat": 38.90273233333333, "fusion_lat": 0.0, "type": "electric_scooter", "bike_id": "9a6ed2d2fe95c0bfb6cab362d3a0b666", "rental_uris": {"ios": "https://dc.lft.to/lastmile_qr_scan", "android": "https://dc.lft.to/lastmile_qr_scan"}, "fusion_lon": 0.0, "lon": -77.02822016666667, "name": "9a6ed2d2fe95c0bfb6cab362d3a0b666", "is_reserved": 0, "is_disabled": 0}, {"lat": 38.924739, "fusion_lat": 0.0, "type": "electric_scooter", "bike_id": "ad69f70607525aa4784b52e15d6e5c19", "rental_uris": {"ios": "https://dc.lft.to/lastmile_qr_scan", "android": "https://dc.lft.to/lastmile_qr_scan"}, "fusion_lon": 0.0, "lon": -77.0298615, "name": "ad69f70607525aa4784b52e15d6e5c19", "is_reserved": 0, "is_disabled": 0}, {"lat": 38.935802333333335, "fusion_lat": 0.0, "type": "electric_scooter", "bike_id": "281c4f2b3f0639b42ffba8e11f98668c", "rental_uris": {"ios": "https://dc.lft.to/lastmile_qr_scan", "android": "https://dc.lft.to/lastmile_qr_scan"}, "fusion_lon": 0.0, "lon": -77.03361416666667, "name": "281c4f2b3f0639b42ffba8e11f98668c", "is_reserved": 0, "is_disabled": 0}, {"lat": 38.9094485, "fusion_lat": 0.0, "type": "electric_scooter", "bike_id": "72e88835027db42edc43b61ee832d538", "rental_uris": {"ios": "https://dc.lft.to/lastmile_qr_scan", "android": "https://dc.lft.to/lastmile_qr_scan"}, "fusion_lon": 0.0, "lon": -77.04881016666667, "name": "72e88835027db42edc43b61ee832d538", "is_reserved": 0, "is_disabled": 0}, {"lat": 38.90421416666667, "fusion_lat": 0.0, "type": "electric_scooter", "bike_id": "a0da77837b2c27b4526f06f3f9465b92", "rental_uris": {"ios": "https://dc.lft.to/lastmile_qr_scan", "android": "https://dc.lft.to/lastmile_qr_scan"}, "fusion_lon": 0.0, "lon": -77.05311783333333, "name": "a0da77837b2c27b4526f06f3f9465b92", "is_reserved": 0, "is_disabled": 0}, {"lat": 38.941949, "fusion_lat": 0.0, "type": "electric_scooter", "bike_id": "07d420ddc1c3fb17ae8922befd57d609", "rental_uris": {"ios": "https://dc.lft.to/lastmile_qr_scan", "android": "https://dc.lft.to/lastmile_qr_scan"}, "fusion_lon": 0.0, "lon": -77.02477866666666, "name": "07d420ddc1c3fb17ae8922befd57d609", "is_reserved": 0, "is_disabled": 0}, {"lat": 38.873981, "fusion_lat": 0.0, "type": "electric_scooter", "bike_id": "7d6c3d70c1b11564b15d35aa3dccd334", "rental_uris": {"ios": "https://dc.lft.to/lastmile_qr_scan", "android": "https://dc.lft.to/lastmile_qr_scan"}, "fusion_lon": 0.0, "lon": -77.0002945, "name": "7d6c3d70c1b11564b15d35aa3dccd334", "is_reserved": 0, "is_disabled": 0}, {"lat": 38.92887416666667, "fusion_lat": 0.0, "type": "electric_scooter", "bike_id": "bc86a748a762a0a03bf0eb2240e99de7", "rental_uris": {"ios": "https://dc.lft.to/lastmile_qr_scan", "android": "https://dc.lft.to/lastmile_qr_scan"}, "fusion_lon": 0.0, "lon": -77.03280716666667, "name": "bc86a748a762a0a03bf0eb2240e99de7", "is_reserved": 0, "is_disabled": 0}, {"lat": 38.91829516666667, "fusion_lat": 0.0, "type": "electric_scooter", "bike_id": "b66e933a757217eb8b3f8ed70eb5f99f", "rental_uris": {"ios": "https://dc.lft.to/lastmile_qr_scan", "android": "https://dc.lft.to/lastmile_qr_scan"}, "fusion_lon": 0.0, "lon": -77.0228475, "name": "b66e933a757217eb8b3f8ed70eb5f99f", "is_reserved": 0, "is_disabled": 0}, {"lat": 38.9388255, "fusion_lat": 0.0, "type": "electric_scooter", "bike_id": "479fe632c8b20f1b138073b85090ba2c", "rental_uris": {"ios": "https://dc.lft.to/lastmile_qr_scan", "android": "https://dc.lft.to/lastmile_qr_scan"}, "fusion_lon": 0.0, "lon": -77.02481016666667, "name": "479fe632c8b20f1b138073b85090ba2c", "is_reserved": 0, "is_disabled": 0}, {"lat": 38.930969, "fusion_lat": 0.0, "type": "electric_scooter", "bike_id": "e97bb015441fdf90443712c9bd6d7e6c", "rental_uris": {"ios": "https://dc.lft.to/lastmile_qr_scan", "android": "https://dc.lft.to/lastmile_qr_scan"}, "fusion_lon": 0.0, "lon": -77.026649, "name": "e97bb015441fdf90443712c9bd6d7e6c", "is_reserved": 0, "is_disabled": 0}, {"lat": 38.91355766666667, "fusion_lat": 0.0, "type": "electric_scooter", "bike_id": "0d115a8478d975c9863b1739d1e56076", "rental_uris": {"ios": "https://dc.lft.to/lastmile_qr_scan", "android": "https://dc.lft.to/lastmile_qr_scan"}, "fusion_lon": 0.0, "lon": -77.04345383333333, "name": "0d115a8478d975c9863b1739d1e56076", "is_reserved": 0, "is_disabled": 0}, {"lat": 38.9141445, "fusion_lat": 0.0, "type": "electric_scooter", "bike_id": "c844b4c286a034d2443a39213a68e43b", "rental_uris": {"ios": "https://dc.lft.to/lastmile_qr_scan", "android": "https://dc.lft.to/lastmile_qr_scan"}, "fusion_lon": 0.0, "lon": -77.02236616666667, "name": "c844b4c286a034d2443a39213a68e43b", "is_reserved": 0, "is_disabled": 0}, {"lat": 38.896155, "fusion_lat": 0.0, "type": "electric_scooter", "bike_id": "27b76b63227101bf085a4e4b0dce2229", "rental_uris": {"ios": "https://dc.lft.to/lastmile_qr_scan", "android": "https://dc.lft.to/lastmile_qr_scan"}, "fusion_lon": 0.0, "lon": -77.02354283333334, "name": "27b76b63227101bf085a4e4b0dce2229", "is_reserved": 0, "is_disabled": 0}, {"lat": 38.918754666666665, "fusion_lat": 0.0, "type": "electric_scooter", "bike_id": "057c22798760aa757ae1dab7f58b6e51", "rental_uris": {"ios": "https://dc.lft.to/lastmile_qr_scan", "android": "https://dc.lft.to/lastmile_qr_scan"}, "fusion_lon": 0.0, "lon": -77.04767316666667, "name": "057c22798760aa757ae1dab7f58b6e51", "is_reserved": 0, "is_disabled": 0}, {"lat": 38.9343485, "fusion_lat": 0.0, "type": "electric_scooter", "bike_id": "40f5c05d8e24bac21c4b66fdcc560b55", "rental_uris": {"ios": "https://dc.lft.to/lastmile_qr_scan", "android": "https://dc.lft.to/lastmile_qr_scan"}, "fusion_lon": 0.0, "lon": -77.04538866666667, "name": "40f5c05d8e24bac21c4b66fdcc560b55", "is_reserved": 0, "is_disabled": 0}, {"lat": 38.95679533333333, "fusion_lat": 0.0, "type": "electric_scooter", "bike_id": "271900e61449ff8805f5a1c8563158b9", "rental_uris": {"ios": "https://dc.lft.to/lastmile_qr_scan", "android": "https://dc.lft.to/lastmile_qr_scan"}, "fusion_lon": 0.0, "lon": -77.01360116666666, "name": "271900e61449ff8805f5a1c8563158b9", "is_reserved": 0, "is_disabled": 0}, {"lat": 38.93630233333333, "fusion_lat": 0.0, "type": "electric_scooter", "bike_id": "958a2a9cd8095d274560ce4bb0548e64", "rental_uris": {"ios": "https://dc.lft.to/lastmile_qr_scan", "android": "https://dc.lft.to/lastmile_qr_scan"}, "fusion_lon": 0.0, "lon": -77.05877383333333, "name": "958a2a9cd8095d274560ce4bb0548e64", "is_reserved": 0, "is_disabled": 0}, {"lat": 38.876633166666664, "fusion_lat": 0.0, "type": "electric_scooter", "bike_id": "1e51f9fb2059ac1f242b6180909e3dd7", "rental_uris": {"ios": "https://dc.lft.to/lastmile_qr_scan", "android": "https://dc.lft.to/lastmile_qr_scan"}, "fusion_lon": 0.0, "lon": -77.00288283333333, "name": "1e51f9fb2059ac1f242b6180909e3dd7", "is_reserved": 0, "is_disabled": 0}, {"lat": 38.935886833333335, "fusion_lat": 0.0, "type": "electric_scooter", "bike_id": "0ddb5024d240e64b02ef04c9d7421c8c", "rental_uris": {"ios": "https://dc.lft.to/lastmile_qr_scan", "android": "https://dc.lft.to/lastmile_qr_scan"}, "fusion_lon": 0.0, "lon": -77.028484, "name": "0ddb5024d240e64b02ef04c9d7421c8c", "is_reserved": 0, "is_disabled": 0}, {"lat": 38.90458566666667, "fusion_lat": 0.0, "type": "electric_scooter", "bike_id": "b928be44a81d0bf5790c4de03152db07", "rental_uris": {"ios": "https://dc.lft.to/lastmile_qr_scan", "android": "https://dc.lft.to/lastmile_qr_scan"}, "fusion_lon": 0.0, "lon": -77.02691116666666, "name": "b928be44a81d0bf5790c4de03152db07", "is_reserved": 0, "is_disabled": 0}, {"lat": 38.89434166666667, "fusion_lat": 0.0, "type": "electric_scooter", "bike_id": "b6160faaf4bc04dbe0e3a2401868401f", "rental_uris": {"ios": "https://dc.lft.to/lastmile_qr_scan", "android": "https://dc.lft.to/lastmile_qr_scan"}, "fusion_lon": 0.0, "lon": -76.94985033333333, "name": "b6160faaf4bc04dbe0e3a2401868401f", "is_reserved": 0, "is_disabled": 0}, {"lat": 38.91710066666667, "fusion_lat": 0.0, "type": "electric_scooter", "bike_id": "057af40bd1981802d7f012ef3b86cb6f", "rental_uris": {"ios": "https://dc.lft.to/lastmile_qr_scan", "android": "https://dc.lft.to/lastmile_qr_scan"}, "fusion_lon": 0.0, "lon": -77.027703, "name": "057af40bd1981802d7f012ef3b86cb6f", "is_reserved": 0, "is_disabled": 0}, {"lat": 38.9078105, "fusion_lat": 0.0, "type": "electric_scooter", "bike_id": "a9c50413f4d31206014254c21985ae8d", "rental_uris": {"ios": "https://dc.lft.to/lastmile_qr_scan", "android": "https://dc.lft.to/lastmile_qr_scan"}, "fusion_lon": 0.0, "lon": -77.038323, "name": "a9c50413f4d31206014254c21985ae8d", "is_reserved": 0, "is_disabled": 0}, {"lat": 38.9170145, "fusion_lat": 0.0, "type": "electric_scooter", "bike_id": "9f063382e9f2287909884de538763e68", "rental_uris": {"ios": "https://dc.lft.to/lastmile_qr_scan", "android": "https://dc.lft.to/lastmile_qr_scan"}, "fusion_lon": 0.0, "lon": -77.029159, "name": "9f063382e9f2287909884de538763e68", "is_reserved": 0, "is_disabled": 0}, {"lat": 38.90993683333333, "fusion_lat": 0.0, "type": "electric_scooter", "bike_id": "74a9c58df1d1b8e0565b0b612dfc854f", "rental_uris": {"ios": "https://dc.lft.to/lastmile_qr_scan", "android": "https://dc.lft.to/lastmile_qr_scan"}, "fusion_lon": 0.0, "lon": -77.032034, "name": "74a9c58df1d1b8e0565b0b612dfc854f", "is_reserved": 0, "is_disabled": 0}, {"lat": 38.90783883333334, "fusion_lat": 0.0, "type": "electric_scooter", "bike_id": "123d05ce6d8b62911a4b43bae69ade78", "rental_uris": {"ios": "https://dc.lft.to/lastmile_qr_scan", "android": "https://dc.lft.to/lastmile_qr_scan"}, "fusion_lon": 0.0, "lon": -77.04166133333334, "name": "123d05ce6d8b62911a4b43bae69ade78", "is_reserved": 0, "is_disabled": 0}, {"lat": 38.9055755, "fusion_lat": 0.0, "type": "electric_scooter", "bike_id": "088b352a869f9043b89d104be3e38b9d", "rental_uris": {"ios": "https://dc.lft.to/lastmile_qr_scan", "android": "https://dc.lft.to/lastmile_qr_scan"}, "fusion_lon": 0.0, "lon": -77.0060435, "name": "088b352a869f9043b89d104be3e38b9d", "is_reserved": 0, "is_disabled": 0}, {"lat": 38.9279565, "fusion_lat": 0.0, "type": "electric_scooter", "bike_id": "8152c45f00ed0ff21ac5b7bfd43e0f13", "rental_uris": {"ios": "https://dc.lft.to/lastmile_qr_scan", "android": "https://dc.lft.to/lastmile_qr_scan"}, "fusion_lon": 0.0, "lon": -77.022107, "name": "8152c45f00ed0ff21ac5b7bfd43e0f13", "is_reserved": 0, "is_disabled": 0}, {"lat": 38.880105666666665, "fusion_lat": 0.0, "type": "electric_scooter", "bike_id": "2775f10347bca1712e36e789b9d53a00", "rental_uris": {"ios": "https://dc.lft.to/lastmile_qr_scan", "android": "https://dc.lft.to/lastmile_qr_scan"}, "fusion_lon": 0.0, "lon": -77.0247365, "name": "2775f10347bca1712e36e789b9d53a00", "is_reserved": 0, "is_disabled": 0}, {"lat": 38.91270333333333, "fusion_lat": 0.0, "type": "electric_scooter", "bike_id": "7b5cbc2f6c4d09760521d690901955a3", "rental_uris": {"ios": "https://dc.lft.to/lastmile_qr_scan", "android": "https://dc.lft.to/lastmile_qr_scan"}, "fusion_lon": 0.0, "lon": -77.03830883333333, "name": "7b5cbc2f6c4d09760521d690901955a3", "is_reserved": 0, "is_disabled": 0}, {"lat": 38.917705833333336, "fusion_lat": 0.0, "type": "electric_scooter", "bike_id": "74fca4d897cb74519418250d832b39bc", "rental_uris": {"ios": "https://dc.lft.to/lastmile_qr_scan", "android": "https://dc.lft.to/lastmile_qr_scan"}, "fusion_lon": 0.0, "lon": -77.0406065, "name": "74fca4d897cb74519418250d832b39bc", "is_reserved": 0, "is_disabled": 0}, {"lat": 38.925187, "fusion_lat": 0.0, "type": "electric_scooter", "bike_id": "e84e48fe416f8ada0f5f19d4cd028086", "rental_uris": {"ios": "https://dc.lft.to/lastmile_qr_scan", "android": "https://dc.lft.to/lastmile_qr_scan"}, "fusion_lon": 0.0, "lon": -76.99634966666666, "name": "e84e48fe416f8ada0f5f19d4cd028086", "is_reserved": 0, "is_disabled": 0}, {"lat": 38.93468516666667, "fusion_lat": 0.0, "type": "electric_scooter", "bike_id": "cc1b9c3b72526f3f567b0599f2598ad3", "rental_uris": {"ios": "https://dc.lft.to/lastmile_qr_scan", "android": "https://dc.lft.to/lastmile_qr_scan"}, "fusion_lon": 0.0, "lon": -77.04142666666667, "name": "cc1b9c3b72526f3f567b0599f2598ad3", "is_reserved": 0, "is_disabled": 0}, {"lat": 38.866588666666665, "fusion_lat": 0.0, "type": "electric_scooter", "bike_id": "2115664e3e0a854934217c4c7198434b", "rental_uris": {"ios": "https://dc.lft.to/lastmile_qr_scan", "android": "https://dc.lft.to/lastmile_qr_scan"}, "fusion_lon": 0.0, "lon": -76.98901466666666, "name": "2115664e3e0a854934217c4c7198434b", "is_reserved": 0, "is_disabled": 0}, {"lat": 38.93307216666667, "fusion_lat": 0.0, "type": "electric_scooter", "bike_id": "ba1119ba5d2e3d78f7e31e667d5f4038", "rental_uris": {"ios": "https://dc.lft.to/lastmile_qr_scan", "android": "https://dc.lft.to/lastmile_qr_scan"}, "fusion_lon": 0.0, "lon": -77.03268133333333, "name": "ba1119ba5d2e3d78f7e31e667d5f4038", "is_reserved": 0, "is_disabled": 0}, {"lat": 38.899349, "fusion_lat": 0.0, "type": "electric_scooter", "bike_id": "157742848de0f0c7b2a766343ea73998", "rental_uris": {"ios": "https://dc.lft.to/lastmile_qr_scan", "android": "https://dc.lft.to/lastmile_qr_scan"}, "fusion_lon": 0.0, "lon": -77.04023366666667, "name": "157742848de0f0c7b2a766343ea73998", "is_reserved": 0, "is_disabled": 0}, {"lat": 38.885085333333336, "fusion_lat": 0.0, "type": "electric_scooter", "bike_id": "d14e3b92a4aa2976f7f38364201b9929", "rental_uris": {"ios": "https://dc.lft.to/lastmile_qr_scan", "android": "https://dc.lft.to/lastmile_qr_scan"}, "fusion_lon": 0.0, "lon": -76.9525985, "name": "d14e3b92a4aa2976f7f38364201b9929", "is_reserved": 0, "is_disabled": 0}, {"lat": 38.92083233333334, "fusion_lat": 0.0, "type": "electric_scooter", "bike_id": "7c64cd60a3fc7bf44985cfe55fab2cab", "rental_uris": {"ios": "https://dc.lft.to/lastmile_qr_scan", "android": "https://dc.lft.to/lastmile_qr_scan"}, "fusion_lon": 0.0, "lon": -77.02514566666666, "name": "7c64cd60a3fc7bf44985cfe55fab2cab", "is_reserved": 0, "is_disabled": 0}, {"lat": 38.92465966666666, "fusion_lat": 0.0, "type": "electric_scooter", "bike_id": "d3acb21bae5548ae93102176a46a5630", "rental_uris": {"ios": "https://dc.lft.to/lastmile_qr_scan", "android": "https://dc.lft.to/lastmile_qr_scan"}, "fusion_lon": 0.0, "lon": -77.04030583333333, "name": "d3acb21bae5548ae93102176a46a5630", "is_reserved": 0, "is_disabled": 0}, {"lat": 38.929264333333336, "fusion_lat": 0.0, "type": "electric_scooter", "bike_id": "706f12db7e68f7469563317d7bf351d6", "rental_uris": {"ios": "https://dc.lft.to/lastmile_qr_scan", "android": "https://dc.lft.to/lastmile_qr_scan"}, "fusion_lon": 0.0, "lon": -77.03255916666667, "name": "706f12db7e68f7469563317d7bf351d6", "is_reserved": 0, "is_disabled": 0}, {"lat": 38.89607, "fusion_lat": 0.0, "type": "electric_scooter", "bike_id": "94ff08a289e9bd5c4359527d7a134fec", "rental_uris": {"ios": "https://dc.lft.to/lastmile_qr_scan", "android": "https://dc.lft.to/lastmile_qr_scan"}, "fusion_lon": 0.0, "lon": -77.04461033333334, "name": "94ff08a289e9bd5c4359527d7a134fec", "is_reserved": 0, "is_disabled": 0}, {"lat": 38.881236666666666, "fusion_lat": 0.0, "type": "electric_scooter", "bike_id": "4fda15422447f25c37211fb6466d8a38", "rental_uris": {"ios": "https://dc.lft.to/lastmile_qr_scan", "android": "https://dc.lft.to/lastmile_qr_scan"}, "fusion_lon": 0.0, "lon": -77.00134116666666, "name": "4fda15422447f25c37211fb6466d8a38", "is_reserved": 0, "is_disabled": 0}, {"lat": 38.91698, "fusion_lat": 0.0, "type": "electric_scooter", "bike_id": "e92dbca7addc6c442d45b0d201e7a468", "rental_uris": {"ios": "https://dc.lft.to/lastmile_qr_scan", "android": "https://dc.lft.to/lastmile_qr_scan"}, "fusion_lon": 0.0, "lon": -77.03156, "name": "e92dbca7addc6c442d45b0d201e7a468", "is_reserved": 0, "is_disabled": 0}, {"lat": 38.920036333333336, "fusion_lat": 0.0, "type": "electric_scooter", "bike_id": "954505f2f386534a908a1a34f49af44b", "rental_uris": {"ios": "https://dc.lft.to/lastmile_qr_scan", "android": "https://dc.lft.to/lastmile_qr_scan"}, "fusion_lon": 0.0, "lon": -77.02402716666667, "name": "954505f2f386534a908a1a34f49af44b", "is_reserved": 0, "is_disabled": 0}, {"lat": 38.916656833333334, "fusion_lat": 0.0, "type": "electric_scooter", "bike_id": "b9447305da744871c5fa3482b31f6599", "rental_uris": {"ios": "https://dc.lft.to/lastmile_qr_scan", "android": "https://dc.lft.to/lastmile_qr_scan"}, "fusion_lon": 0.0, "lon": -77.00593116666667, "name": "b9447305da744871c5fa3482b31f6599", "is_reserved": 0, "is_disabled": 0}, {"lat": 38.90200133333333, "fusion_lat": 0.0, "type": "electric_scooter", "bike_id": "4c8e2f563c44ea3148b780d396c052e4", "rental_uris": {"ios": "https://dc.lft.to/lastmile_qr_scan", "android": "https://dc.lft.to/lastmile_qr_scan"}, "fusion_lon": 0.0, "lon": -77.02210716666667, "name": "4c8e2f563c44ea3148b780d396c052e4", "is_reserved": 0, "is_disabled": 0}, {"lat": 38.863695166666666, "fusion_lat": 0.0, "type": "electric_bike", "bike_id": "110757ba51f87ace197da48695e3cfa1", "rental_uris": {"ios": "https://dc.lft.to/lastmile_qr_scan", "android": "https://dc.lft.to/lastmile_qr_scan"}, "fusion_lon": 0.0, "lon": -76.97008283333334, "name": "110757ba51f87ace197da48695e3cfa1", "is_reserved": 0, "is_disabled": 0}, {"lat": 38.807653, "fusion_lat": 0.0, "type": "electric_bike", "bike_id": "bb8718cc0fdc6dc1af4815c4d61ff0bc", "rental_uris": {"ios": "https://dc.lft.to/lastmile_qr_scan", "android": "https://dc.lft.to/lastmile_qr_scan"}, "fusion_lon": 0.0, "lon": -77.09471033333334, "name": "bb8718cc0fdc6dc1af4815c4d61ff0bc", "is_reserved": 0, "is_disabled": 0}, {"lat": 38.907643666666665, "fusion_lat": 0.0, "type": "electric_scooter", "bike_id": "103f311c0738ca579374e7bd4f89ebf5", "rental_uris": {"ios": "https://dc.lft.to/lastmile_qr_scan", "android": "https://dc.lft.to/lastmile_qr_scan"}, "fusion_lon": 0.0, "lon": -77.03741533333333, "name": "103f311c0738ca579374e7bd4f89ebf5", "is_reserved": 0, "is_disabled": 0}, {"lat": 38.91677283333333, "fusion_lat": 0.0, "type": "electric_scooter", "bike_id": "e34e142ba8d2531024497713333d3282", "rental_uris": {"ios": "https://dc.lft.to/lastmile_qr_scan", "android": "https://dc.lft.to/lastmile_qr_scan"}, "fusion_lon": 0.0, "lon": -77.01574166666667, "name": "e34e142ba8d2531024497713333d3282", "is_reserved": 0, "is_disabled": 0}, {"lat": 38.9208265, "fusion_lat": 0.0, "type": "electric_scooter", "bike_id": "62c51d56ef07670821213d9fe329c4e2", "rental_uris": {"ios": "https://dc.lft.to/lastmile_qr_scan", "android": "https://dc.lft.to/lastmile_qr_scan"}, "fusion_lon": 0.0, "lon": -77.025107, "name": "62c51d56ef07670821213d9fe329c4e2", "is_reserved": 0, "is_disabled": 0}, {"lat": 38.92629433333333, "fusion_lat": 0.0, "type": "electric_scooter", "bike_id": "48a6bac452d64fd6bbf95980aa7fbdf1", "rental_uris": {"ios": "https://dc.lft.to/lastmile_qr_scan", "android": "https://dc.lft.to/lastmile_qr_scan"}, "fusion_lon": 0.0, "lon": -77.041933, "name": "48a6bac452d64fd6bbf95980aa7fbdf1", "is_reserved": 0, "is_disabled": 0}, {"lat": 38.915461666666666, "fusion_lat": 0.0, "type": "electric_scooter", "bike_id": "251089dc0660c7c4c338ae97152a69ed", "rental_uris": {"ios": "https://dc.lft.to/lastmile_qr_scan", "android": "https://dc.lft.to/lastmile_qr_scan"}, "fusion_lon": 0.0, "lon": -76.98369633333333, "name": "251089dc0660c7c4c338ae97152a69ed", "is_reserved": 0, "is_disabled": 0}, {"lat": 38.871397333333334, "fusion_lat": 0.0, "type": "electric_scooter", "bike_id": "6d013a4510f740d60da9e27aaabdc7d2", "rental_uris": {"ios": "https://dc.lft.to/lastmile_qr_scan", "android": "https://dc.lft.to/lastmile_qr_scan"}, "fusion_lon": 0.0, "lon": -77.00684316666667, "name": "6d013a4510f740d60da9e27aaabdc7d2", "is_reserved": 0, "is_disabled": 0}, {"lat": 38.92076, "fusion_lat": 0.0, "type": "electric_scooter", "bike_id": "836f2a373b7e8b06474d5f7c31750f86", "rental_uris": {"ios": "https://dc.lft.to/lastmile_qr_scan", "android": "https://dc.lft.to/lastmile_qr_scan"}, "fusion_lon": 0.0, "lon": -77.02442216666667, "name": "836f2a373b7e8b06474d5f7c31750f86", "is_reserved": 0, "is_disabled": 0}, {"lat": 38.92433783333333, "fusion_lat": 0.0, "type": "electric_scooter", "bike_id": "df9fee110afde143070b36e75dd7d6be", "rental_uris": {"ios": "https://dc.lft.to/lastmile_qr_scan", "android": "https://dc.lft.to/lastmile_qr_scan"}, "fusion_lon": 0.0, "lon": -77.04250666666667, "name": "df9fee110afde143070b36e75dd7d6be", "is_reserved": 0, "is_disabled": 0}, {"lat": 38.920165, "fusion_lat": 0.0, "type": "electric_scooter", "bike_id": "4181654a4fd6fbd548b3d0a75e38a658", "rental_uris": {"ios": "https://dc.lft.to/lastmile_qr_scan", "android": "https://dc.lft.to/lastmile_qr_scan"}, "fusion_lon": 0.0, "lon": -77.04404933333333, "name": "4181654a4fd6fbd548b3d0a75e38a658", "is_reserved": 0, "is_disabled": 0}, {"lat": 38.81249, "fusion_lat": 0.0, "type": "electric_bike", "bike_id": "6733d1ee2d764fa182b40f68b66298cb", "rental_uris": {"ios": "https://dc.lft.to/lastmile_qr_scan", "android": "https://dc.lft.to/lastmile_qr_scan"}, "fusion_lon": 0.0, "lon": -77.11748516666667, "name": "6733d1ee2d764fa182b40f68b66298cb", "is_reserved": 0, "is_disabled": 0}, {"lat": 38.922597333333336, "fusion_lat": 0.0, "type": "electric_scooter", "bike_id": "ea5ef166a0a356d886591e32b5fdb021", "rental_uris": {"ios": "https://dc.lft.to/lastmile_qr_scan", "android": "https://dc.lft.to/lastmile_qr_scan"}, "fusion_lon": 0.0, "lon": -77.02979683333334, "name": "ea5ef166a0a356d886591e32b5fdb021", "is_reserved": 0, "is_disabled": 0}, {"lat": 38.9126755, "fusion_lat": 0.0, "type": "electric_scooter", "bike_id": "d9e567613029c949c65395444cb8b5c1", "rental_uris": {"ios": "https://dc.lft.to/lastmile_qr_scan", "android": "https://dc.lft.to/lastmile_qr_scan"}, "fusion_lon": 0.0, "lon": -77.016796, "name": "d9e567613029c949c65395444cb8b5c1", "is_reserved": 0, "is_disabled": 0}, {"lat": 38.9034295, "fusion_lat": 0.0, "type": "electric_scooter", "bike_id": "201bcf06f24595594e009479000ebe82", "rental_uris": {"ios": "https://dc.lft.to/lastmile_qr_scan", "android": "https://dc.lft.to/lastmile_qr_scan"}, "fusion_lon": 0.0, "lon": -77.04010116666667, "name": "201bcf06f24595594e009479000ebe82", "is_reserved": 0, "is_disabled": 0}, {"lat": 38.892242333333336, "fusion_lat": 0.0, "type": "electric_scooter", "bike_id": "27fda04dc1f232eccb1b52b02bb3fea4", "rental_uris": {"ios": "https://dc.lft.to/lastmile_qr_scan", "android": "https://dc.lft.to/lastmile_qr_scan"}, "fusion_lon": 0.0, "lon": -77.04327916666666, "name": "27fda04dc1f232eccb1b52b02bb3fea4", "is_reserved": 0, "is_disabled": 0}, {"lat": 38.90868316666667, "fusion_lat": 0.0, "type": "electric_scooter", "bike_id": "4edd619ad64542906bf2e2d0dd0cc8ad", "rental_uris": {"ios": "https://dc.lft.to/lastmile_qr_scan", "android": "https://dc.lft.to/lastmile_qr_scan"}, "fusion_lon": 0.0, "lon": -77.0238225, "name": "4edd619ad64542906bf2e2d0dd0cc8ad", "is_reserved": 0, "is_disabled": 0}, {"lat": 38.924474833333335, "fusion_lat": 0.0, "type": "electric_scooter", "bike_id": "8ea970e48cac6a2c9a9b6c19bea3c7ad", "rental_uris": {"ios": "https://dc.lft.to/lastmile_qr_scan", "android": "https://dc.lft.to/lastmile_qr_scan"}, "fusion_lon": 0.0, "lon": -76.98986516666666, "name": "8ea970e48cac6a2c9a9b6c19bea3c7ad", "is_reserved": 0, "is_disabled": 0}, {"lat": 38.93931933333333, "fusion_lat": 0.0, "type": "electric_scooter", "bike_id": "8ccedcc8cbaba93d1f407fd524df6655", "rental_uris": {"ios": "https://dc.lft.to/lastmile_qr_scan", "android": "https://dc.lft.to/lastmile_qr_scan"}, "fusion_lon": 0.0, "lon": -77.01585833333333, "name": "8ccedcc8cbaba93d1f407fd524df6655", "is_reserved": 0, "is_disabled": 0}, {"lat": 38.921861166666666, "fusion_lat": 0.0, "type": "electric_scooter", "bike_id": "8b87754c48cab1d15ae4aa098e9b05b4", "rental_uris": {"ios": "https://dc.lft.to/lastmile_qr_scan", "android": "https://dc.lft.to/lastmile_qr_scan"}, "fusion_lon": 0.0, "lon": -77.04255966666666, "name": "8b87754c48cab1d15ae4aa098e9b05b4", "is_reserved": 0, "is_disabled": 0}, {"lat": 38.920685166666665, "fusion_lat": 0.0, "type": "electric_scooter", "bike_id": "a551623cb69324fb966d5aa0de1d2e60", "rental_uris": {"ios": "https://dc.lft.to/lastmile_qr_scan", "android": "https://dc.lft.to/lastmile_qr_scan"}, "fusion_lon": 0.0, "lon": -77.023851, "name": "a551623cb69324fb966d5aa0de1d2e60", "is_reserved": 0, "is_disabled": 0}, {"lat": 38.909491333333335, "fusion_lat": 0.0, "type": "electric_scooter", "bike_id": "611c1b581703c174e3c9f7a128c296e3", "rental_uris": {"ios": "https://dc.lft.to/lastmile_qr_scan", "android": "https://dc.lft.to/lastmile_qr_scan"}, "fusion_lon": 0.0, "lon": -77.03441266666667, "name": "611c1b581703c174e3c9f7a128c296e3", "is_reserved": 0, "is_disabled": 0}, {"lat": 38.9206555, "fusion_lat": 0.0, "type": "electric_scooter", "bike_id": "9a33d159b176a81591942f5313fc740e", "rental_uris": {"ios": "https://dc.lft.to/lastmile_qr_scan", "android": "https://dc.lft.to/lastmile_qr_scan"}, "fusion_lon": 0.0, "lon": -77.04567916666667, "name": "9a33d159b176a81591942f5313fc740e", "is_reserved": 0, "is_disabled": 0}, {"lat": 38.89176766666667, "fusion_lat": 0.0, "type": "electric_scooter", "bike_id": "e0bf22ff4d94f106a02db2550cb000ce", "rental_uris": {"ios": "https://dc.lft.to/lastmile_qr_scan", "android": "https://dc.lft.to/lastmile_qr_scan"}, "fusion_lon": 0.0, "lon": -76.92650983333333, "name": "e0bf22ff4d94f106a02db2550cb000ce", "is_reserved": 0, "is_disabled": 0}, {"lat": 38.925207, "fusion_lat": 0.0, "type": "electric_scooter", "bike_id": "7766da182d6aadf4534c388776db1dd4", "rental_uris": {"ios": "https://dc.lft.to/lastmile_qr_scan", "android": "https://dc.lft.to/lastmile_qr_scan"}, "fusion_lon": 0.0, "lon": -77.05035616666666, "name": "7766da182d6aadf4534c388776db1dd4", "is_reserved": 0, "is_disabled": 0}, {"lat": 38.8845035, "fusion_lat": 0.0, "type": "electric_scooter", "bike_id": "a06d5763bd3af89fc9bf527a8c93135b", "rental_uris": {"ios": "https://dc.lft.to/lastmile_qr_scan", "android": "https://dc.lft.to/lastmile_qr_scan"}, "fusion_lon": 0.0, "lon": -77.01753716666667, "name": "a06d5763bd3af89fc9bf527a8c93135b", "is_reserved": 0, "is_disabled": 0}, {"lat": 38.911064833333334, "fusion_lat": 0.0, "type": "electric_scooter", "bike_id": "9999d4566a3136891680016d415bf5ba", "rental_uris": {"ios": "https://dc.lft.to/lastmile_qr_scan", "android": "https://dc.lft.to/lastmile_qr_scan"}, "fusion_lon": 0.0, "lon": -77.04207466666666, "name": "9999d4566a3136891680016d415bf5ba", "is_reserved": 0, "is_disabled": 0}, {"lat": 38.904399, "fusion_lat": 0.0, "type": "electric_scooter", "bike_id": "bd82ed85831a01a7f7d623d20232c472", "rental_uris": {"ios": "https://dc.lft.to/lastmile_qr_scan", "android": "https://dc.lft.to/lastmile_qr_scan"}, "fusion_lon": 0.0, "lon": -77.025937, "name": "bd82ed85831a01a7f7d623d20232c472", "is_reserved": 0, "is_disabled": 0}, {"lat": 38.907196, "fusion_lat": 0.0, "type": "electric_scooter", "bike_id": "758ebfae5280ee2f8d71896decc9f5ff", "rental_uris": {"ios": "https://dc.lft.to/lastmile_qr_scan", "android": "https://dc.lft.to/lastmile_qr_scan"}, "fusion_lon": 0.0, "lon": -77.0296005, "name": "758ebfae5280ee2f8d71896decc9f5ff", "is_reserved": 0, "is_disabled": 0}, {"lat": 38.9120555, "fusion_lat": 0.0, "type": "electric_scooter", "bike_id": "1826e621fb6dc90a5edf6aacda650a8a", "rental_uris": {"ios": "https://dc.lft.to/lastmile_qr_scan", "android": "https://dc.lft.to/lastmile_qr_scan"}, "fusion_lon": 0.0, "lon": -76.98770166666667, "name": "1826e621fb6dc90a5edf6aacda650a8a", "is_reserved": 0, "is_disabled": 0}, {"lat": 38.920446166666665, "fusion_lat": 0.0, "type": "electric_scooter", "bike_id": "a360391658791d02642851eb990ebecc", "rental_uris": {"ios": "https://dc.lft.to/lastmile_qr_scan", "android": "https://dc.lft.to/lastmile_qr_scan"}, "fusion_lon": 0.0, "lon": -77.02426816666667, "name": "a360391658791d02642851eb990ebecc", "is_reserved": 0, "is_disabled": 0}, {"lat": 38.92767716666667, "fusion_lat": 0.0, "type": "electric_scooter", "bike_id": "ca3c61dff01f6e616a0102f902f2a52b", "rental_uris": {"ios": "https://dc.lft.to/lastmile_qr_scan", "android": "https://dc.lft.to/lastmile_qr_scan"}, "fusion_lon": 0.0, "lon": -77.05273116666666, "name": "ca3c61dff01f6e616a0102f902f2a52b", "is_reserved": 0, "is_disabled": 0}, {"lat": 38.81985816666667, "fusion_lat": 0.0, "type": "electric_bike", "bike_id": "94d2841939d97c03682925798f29b3c5", "rental_uris": {"ios": "https://dc.lft.to/lastmile_qr_scan", "android": "https://dc.lft.to/lastmile_qr_scan"}, "fusion_lon": 0.0, "lon": -76.9980885, "name": "94d2841939d97c03682925798f29b3c5", "is_reserved": 0, "is_disabled": 0}, {"lat": 38.960829833333335, "fusion_lat": 0.0, "type": "electric_scooter", "bike_id": "6e5520d04b168243b07443d3abc0195a", "rental_uris": {"ios": "https://dc.lft.to/lastmile_qr_scan", "android": "https://dc.lft.to/lastmile_qr_scan"}, "fusion_lon": 0.0, "lon": -77.02882083333333, "name": "6e5520d04b168243b07443d3abc0195a", "is_reserved": 0, "is_disabled": 0}, {"lat": 38.89221933333334, "fusion_lat": 0.0, "type": "electric_scooter", "bike_id": "4a41fdfc8a1002db9772735db1843953", "rental_uris": {"ios": "https://dc.lft.to/lastmile_qr_scan", "android": "https://dc.lft.to/lastmile_qr_scan"}, "fusion_lon": 0.0, "lon": -77.03164383333333, "name": "4a41fdfc8a1002db9772735db1843953", "is_reserved": 0, "is_disabled": 0}, {"lat": 38.911123, "fusion_lat": 0.0, "type": "electric_scooter", "bike_id": "702fe70d695dfdd40df2d6763f3e2927", "rental_uris": {"ios": "https://dc.lft.to/lastmile_qr_scan", "android": "https://dc.lft.to/lastmile_qr_scan"}, "fusion_lon": 0.0, "lon": -77.03216133333333, "name": "702fe70d695dfdd40df2d6763f3e2927", "is_reserved": 0, "is_disabled": 0}, {"lat": 38.939305833333336, "fusion_lat": 0.0, "type": "electric_scooter", "bike_id": "01e98b1536aea1512f5ba72f69c2dae1", "rental_uris": {"ios": "https://dc.lft.to/lastmile_qr_scan", "android": "https://dc.lft.to/lastmile_qr_scan"}, "fusion_lon": 0.0, "lon": -77.02583016666667, "name": "01e98b1536aea1512f5ba72f69c2dae1", "is_reserved": 0, "is_disabled": 0}, {"lat": 38.91485, "fusion_lat": 0.0, "type": "electric_scooter", "bike_id": "25ec7a36f67fb5636b1c26703662d017", "rental_uris": {"ios": "https://dc.lft.to/lastmile_qr_scan", "android": "https://dc.lft.to/lastmile_qr_scan"}, "fusion_lon": 0.0, "lon": -77.04081233333334, "name": "25ec7a36f67fb5636b1c26703662d017", "is_reserved": 0, "is_disabled": 0}, {"lat": 38.920711833333336, "fusion_lat": 0.0, "type": "electric_scooter", "bike_id": "552ed81bdeec7c68318371b7deaed7dd", "rental_uris": {"ios": "https://dc.lft.to/lastmile_qr_scan", "android": "https://dc.lft.to/lastmile_qr_scan"}, "fusion_lon": 0.0, "lon": -77.0238235, "name": "552ed81bdeec7c68318371b7deaed7dd", "is_reserved": 0, "is_disabled": 0}, {"lat": 38.923559, "fusion_lat": 0.0, "type": "electric_scooter", "bike_id": "da1924ec10fd677b1833cf2c1115e1e6", "rental_uris": {"ios": "https://dc.lft.to/lastmile_qr_scan", "android": "https://dc.lft.to/lastmile_qr_scan"}, "fusion_lon": 0.0, "lon": -77.032265, "name": "da1924ec10fd677b1833cf2c1115e1e6", "is_reserved": 0, "is_disabled": 0}, {"lat": 38.862705, "fusion_lat": 0.0, "type": "electric_scooter", "bike_id": "602269dffc4088a09b27618710283e0d", "rental_uris": {"ios": "https://dc.lft.to/lastmile_qr_scan", "android": "https://dc.lft.to/lastmile_qr_scan"}, "fusion_lon": 0.0, "lon": -76.99535416666667, "name": "602269dffc4088a09b27618710283e0d", "is_reserved": 0, "is_disabled": 0}, {"lat": 38.916228833333335, "fusion_lat": 0.0, "type": "electric_scooter", "bike_id": "1fac302eff477b731ff8e817b5d2c1d1", "rental_uris": {"ios": "https://dc.lft.to/lastmile_qr_scan", "android": "https://dc.lft.to/lastmile_qr_scan"}, "fusion_lon": 0.0, "lon": -77.03856666666667, "name": "1fac302eff477b731ff8e817b5d2c1d1", "is_reserved": 0, "is_disabled": 0}, {"lat": 38.892228833333334, "fusion_lat": 0.0, "type": "electric_scooter", "bike_id": "f8279453cb5955f54e2e278a106547b1", "rental_uris": {"ios": "https://dc.lft.to/lastmile_qr_scan", "android": "https://dc.lft.to/lastmile_qr_scan"}, "fusion_lon": 0.0, "lon": -77.04469466666667, "name": "f8279453cb5955f54e2e278a106547b1", "is_reserved": 0, "is_disabled": 0}, {"lat": 38.9263475, "fusion_lat": 0.0, "type": "electric_scooter", "bike_id": "d2a0ef8f7e952db0cc1c487c6e3a3478", "rental_uris": {"ios": "https://dc.lft.to/lastmile_qr_scan", "android": "https://dc.lft.to/lastmile_qr_scan"}, "fusion_lon": 0.0, "lon": -77.03701883333333, "name": "d2a0ef8f7e952db0cc1c487c6e3a3478", "is_reserved": 0, "is_disabled": 0}, {"lat": 38.8922235, "fusion_lat": 0.0, "type": "electric_scooter", "bike_id": "013f1926e14702f9448e7b84317599b6", "rental_uris": {"ios": "https://dc.lft.to/lastmile_qr_scan", "android": "https://dc.lft.to/lastmile_qr_scan"}, "fusion_lon": 0.0, "lon": -77.043354, "name": "013f1926e14702f9448e7b84317599b6", "is_reserved": 0, "is_disabled": 0}, {"lat": 38.917129, "fusion_lat": 0.0, "type": "electric_scooter", "bike_id": "6b5c7d8fe90c2e8f82fdaf95b16def5d", "rental_uris": {"ios": "https://dc.lft.to/lastmile_qr_scan", "android": "https://dc.lft.to/lastmile_qr_scan"}, "fusion_lon": 0.0, "lon": -77.03245033333333, "name": "6b5c7d8fe90c2e8f82fdaf95b16def5d", "is_reserved": 0, "is_disabled": 0}, {"lat": 38.89733733333333, "fusion_lat": 0.0, "type": "electric_scooter", "bike_id": "1f0fd166998e325870af978dd815ae2f", "rental_uris": {"ios": "https://dc.lft.to/lastmile_qr_scan", "android": "https://dc.lft.to/lastmile_qr_scan"}, "fusion_lon": 0.0, "lon": -77.05520733333333, "name": "1f0fd166998e325870af978dd815ae2f", "is_reserved": 0, "is_disabled": 0}, {"lat": 38.87659566666667, "fusion_lat": 0.0, "type": "electric_scooter", "bike_id": "1f403fe4933c6e3c3e7a78978ecabeb0", "rental_uris": {"ios": "https://dc.lft.to/lastmile_qr_scan", "android": "https://dc.lft.to/lastmile_qr_scan"}, "fusion_lon": 0.0, "lon": -77.003015, "name": "1f403fe4933c6e3c3e7a78978ecabeb0", "is_reserved": 0, "is_disabled": 0}, {"lat": 38.84756683333333, "fusion_lat": 0.0, "type": "electric_scooter", "bike_id": "f07504e83a8731c5d0350ce89bd9ba3f", "rental_uris": {"ios": "https://dc.lft.to/lastmile_qr_scan", "android": "https://dc.lft.to/lastmile_qr_scan"}, "fusion_lon": 0.0, "lon": -76.99503516666667, "name": "f07504e83a8731c5d0350ce89bd9ba3f", "is_reserved": 0, "is_disabled": 0}, {"lat": 38.95835916666667, "fusion_lat": 0.0, "type": "electric_scooter", "bike_id": "154c504c5565da2a3d6ccbe509404837", "rental_uris": {"ios": "https://dc.lft.to/lastmile_qr_scan", "android": "https://dc.lft.to/lastmile_qr_scan"}, "fusion_lon": 0.0, "lon": -77.00170083333333, "name": "154c504c5565da2a3d6ccbe509404837", "is_reserved": 0, "is_disabled": 0}, {"lat": 38.923161, "fusion_lat": 0.0, "type": "electric_scooter", "bike_id": "c3da67e7661f7e4f3c0153a5e57afe86", "rental_uris": {"ios": "https://dc.lft.to/lastmile_qr_scan", "android": "https://dc.lft.to/lastmile_qr_scan"}, "fusion_lon": 0.0, "lon": -77.038087, "name": "c3da67e7661f7e4f3c0153a5e57afe86", "is_reserved": 0, "is_disabled": 0}, {"lat": 38.9165375, "fusion_lat": 0.0, "type": "electric_scooter", "bike_id": "107c196b97bd2d1ab2d6ec7a08053f1a", "rental_uris": {"ios": "https://dc.lft.to/lastmile_qr_scan", "android": "https://dc.lft.to/lastmile_qr_scan"}, "fusion_lon": 0.0, "lon": -77.03003116666666, "name": "107c196b97bd2d1ab2d6ec7a08053f1a", "is_reserved": 0, "is_disabled": 0}, {"lat": 38.87927416666667, "fusion_lat": 0.0, "type": "electric_scooter", "bike_id": "01e96ce943a8eb882d1c35080c2833db", "rental_uris": {"ios": "https://dc.lft.to/lastmile_qr_scan", "android": "https://dc.lft.to/lastmile_qr_scan"}, "fusion_lon": 0.0, "lon": -77.005198, "name": "01e96ce943a8eb882d1c35080c2833db", "is_reserved": 0, "is_disabled": 0}, {"lat": 38.9188335, "fusion_lat": 0.0, "type": "electric_scooter", "bike_id": "5d43ddfe036d063b2beac7c83b7138de", "rental_uris": {"ios": "https://dc.lft.to/lastmile_qr_scan", "android": "https://dc.lft.to/lastmile_qr_scan"}, "fusion_lon": 0.0, "lon": -77.021774, "name": "5d43ddfe036d063b2beac7c83b7138de", "is_reserved": 0, "is_disabled": 0}, {"lat": 38.916680666666664, "fusion_lat": 0.0, "type": "electric_scooter", "bike_id": "0c2fbcd888b5e3d421d937ad646fce16", "rental_uris": {"ios": "https://dc.lft.to/lastmile_qr_scan", "android": "https://dc.lft.to/lastmile_qr_scan"}, "fusion_lon": 0.0, "lon": -77.0385135, "name": "0c2fbcd888b5e3d421d937ad646fce16", "is_reserved": 0, "is_disabled": 0}, {"lat": 38.8598755, "fusion_lat": 0.0, "type": "electric_scooter", "bike_id": "42914f02a96110ada90e8555a031982f", "rental_uris": {"ios": "https://dc.lft.to/lastmile_qr_scan", "android": "https://dc.lft.to/lastmile_qr_scan"}, "fusion_lon": 0.0, "lon": -76.99652466666667, "name": "42914f02a96110ada90e8555a031982f", "is_reserved": 0, "is_disabled": 0}, {"lat": 38.898103166666665, "fusion_lat": 0.0, "type": "electric_scooter", "bike_id": "87bd03dac2abd1bd3d394af2a9007d5b", "rental_uris": {"ios": "https://dc.lft.to/lastmile_qr_scan", "android": "https://dc.lft.to/lastmile_qr_scan"}, "fusion_lon": 0.0, "lon": -77.03356766666667, "name": "87bd03dac2abd1bd3d394af2a9007d5b", "is_reserved": 0, "is_disabled": 0}, {"lat": 38.9265115, "fusion_lat": 0.0, "type": "electric_scooter", "bike_id": "c105f3a06f034952dcd249f98006ccda", "rental_uris": {"ios": "https://dc.lft.to/lastmile_qr_scan", "android": "https://dc.lft.to/lastmile_qr_scan"}, "fusion_lon": 0.0, "lon": -77.04317233333333, "name": "c105f3a06f034952dcd249f98006ccda", "is_reserved": 0, "is_disabled": 0}, {"lat": 38.93375733333333, "fusion_lat": 0.0, "type": "electric_scooter", "bike_id": "24457fb2f901984e3ec4a767d3431421", "rental_uris": {"ios": "https://dc.lft.to/lastmile_qr_scan", "android": "https://dc.lft.to/lastmile_qr_scan"}, "fusion_lon": 0.0, "lon": -77.05758716666666, "name": "24457fb2f901984e3ec4a767d3431421", "is_reserved": 0, "is_disabled": 0}, {"lat": 38.917666, "fusion_lat": 0.0, "type": "electric_scooter", "bike_id": "f174cbac6e10d54e1469cbb90ca431df", "rental_uris": {"ios": "https://dc.lft.to/lastmile_qr_scan", "android": "https://dc.lft.to/lastmile_qr_scan"}, "fusion_lon": 0.0, "lon": -77.04768866666667, "name": "f174cbac6e10d54e1469cbb90ca431df", "is_reserved": 0, "is_disabled": 0}, {"lat": 38.887355166666666, "fusion_lat": 0.0, "type": "electric_scooter", "bike_id": "71da05875c067788648bfd712e9ec3a8", "rental_uris": {"ios": "https://dc.lft.to/lastmile_qr_scan", "android": "https://dc.lft.to/lastmile_qr_scan"}, "fusion_lon": 0.0, "lon": -77.02822116666667, "name": "71da05875c067788648bfd712e9ec3a8", "is_reserved": 0, "is_disabled": 0}, {"lat": 38.920288, "fusion_lat": 0.0, "type": "electric_scooter", "bike_id": "49a118a77828960f6b199f57cdfd1395", "rental_uris": {"ios": "https://dc.lft.to/lastmile_qr_scan", "android": "https://dc.lft.to/lastmile_qr_scan"}, "fusion_lon": 0.0, "lon": -77.07161916666666, "name": "49a118a77828960f6b199f57cdfd1395", "is_reserved": 0, "is_disabled": 0}, {"lat": 38.89891433333333, "fusion_lat": 0.0, "type": "electric_scooter", "bike_id": "7d9a0f3a260d797408c8b6970e972747", "rental_uris": {"ios": "https://dc.lft.to/lastmile_qr_scan", "android": "https://dc.lft.to/lastmile_qr_scan"}, "fusion_lon": 0.0, "lon": -77.008332, "name": "7d9a0f3a260d797408c8b6970e972747", "is_reserved": 0, "is_disabled": 0}, {"lat": 38.88563466666667, "fusion_lat": 0.0, "type": "electric_scooter", "bike_id": "4da04d821eb4cf660a0172631c359d38", "rental_uris": {"ios": "https://dc.lft.to/lastmile_qr_scan", "android": "https://dc.lft.to/lastmile_qr_scan"}, "fusion_lon": 0.0, "lon": -76.997941, "name": "4da04d821eb4cf660a0172631c359d38", "is_reserved": 0, "is_disabled": 0}, {"lat": 38.89239766666667, "fusion_lat": 0.0, "type": "electric_scooter", "bike_id": "698fd15a3d4cc2c91ec239d80024df69", "rental_uris": {"ios": "https://dc.lft.to/lastmile_qr_scan", "android": "https://dc.lft.to/lastmile_qr_scan"}, "fusion_lon": 0.0, "lon": -77.041642, "name": "698fd15a3d4cc2c91ec239d80024df69", "is_reserved": 0, "is_disabled": 0}, {"lat": 38.83159033333333, "fusion_lat": 0.0, "type": "electric_bike", "bike_id": "755c5bea62619829ed10628b171d1b57", "rental_uris": {"ios": "https://dc.lft.to/lastmile_qr_scan", "android": "https://dc.lft.to/lastmile_qr_scan"}, "fusion_lon": 0.0, "lon": -76.99572316666666, "name": "755c5bea62619829ed10628b171d1b57", "is_reserved": 0, "is_disabled": 0}, {"lat": 38.92998583333333, "fusion_lat": 0.0, "type": "electric_scooter", "bike_id": "0887750efbe08cddd31a2782dab7ca20", "rental_uris": {"ios": "https://dc.lft.to/lastmile_qr_scan", "android": "https://dc.lft.to/lastmile_qr_scan"}, "fusion_lon": 0.0, "lon": -77.02351983333334, "name": "0887750efbe08cddd31a2782dab7ca20", "is_reserved": 0, "is_disabled": 0}, {"lat": 38.904704833333334, "fusion_lat": 0.0, "type": "electric_scooter", "bike_id": "6f2fea20a0e361ceb437b9623325565e", "rental_uris": {"ios": "https://dc.lft.to/lastmile_qr_scan", "android": "https://dc.lft.to/lastmile_qr_scan"}, "fusion_lon": 0.0, "lon": -77.0294435, "name": "6f2fea20a0e361ceb437b9623325565e", "is_reserved": 0, "is_disabled": 0}, {"lat": 38.9285025, "fusion_lat": 0.0, "type": "electric_scooter", "bike_id": "57e2dbe79ec5810bb3f07f0e10ea0af7", "rental_uris": {"ios": "https://dc.lft.to/lastmile_qr_scan", "android": "https://dc.lft.to/lastmile_qr_scan"}, "fusion_lon": 0.0, "lon": -77.055756, "name": "57e2dbe79ec5810bb3f07f0e10ea0af7", "is_reserved": 0, "is_disabled": 0}, {"lat": 38.9160045, "fusion_lat": 0.0, "type": "electric_scooter", "bike_id": "db40dcb6d0c0fe22842b33323c45a3c4", "rental_uris": {"ios": "https://dc.lft.to/lastmile_qr_scan", "android": "https://dc.lft.to/lastmile_qr_scan"}, "fusion_lon": 0.0, "lon": -77.04905883333333, "name": "db40dcb6d0c0fe22842b33323c45a3c4", "is_reserved": 0, "is_disabled": 0}, {"lat": 38.87414233333333, "fusion_lat": 0.0, "type": "electric_scooter", "bike_id": "9a72c3d8c1a2d95fd015f715d757bff2", "rental_uris": {"ios": "https://dc.lft.to/lastmile_qr_scan", "android": "https://dc.lft.to/lastmile_qr_scan"}, "fusion_lon": 0.0, "lon": -77.00204533333333, "name": "9a72c3d8c1a2d95fd015f715d757bff2", "is_reserved": 0, "is_disabled": 0}, {"lat": 38.9234845, "fusion_lat": 0.0, "type": "electric_scooter", "bike_id": "db2e9876edbdd9d4af8c9a2c65edba44", "rental_uris": {"ios": "https://dc.lft.to/lastmile_qr_scan", "android": "https://dc.lft.to/lastmile_qr_scan"}, "fusion_lon": 0.0, "lon": -77.0517305, "name": "db2e9876edbdd9d4af8c9a2c65edba44", "is_reserved": 0, "is_disabled": 0}, {"lat": 38.92194416666667, "fusion_lat": 0.0, "type": "electric_scooter", "bike_id": "fb59194911fe6e8c2c54814969fe3126", "rental_uris": {"ios": "https://dc.lft.to/lastmile_qr_scan", "android": "https://dc.lft.to/lastmile_qr_scan"}, "fusion_lon": 0.0, "lon": -77.01962916666666, "name": "fb59194911fe6e8c2c54814969fe3126", "is_reserved": 0, "is_disabled": 0}, {"lat": 38.900907333333336, "fusion_lat": 0.0, "type": "electric_scooter", "bike_id": "2eb887abea130b3465b843881cb5a445", "rental_uris": {"ios": "https://dc.lft.to/lastmile_qr_scan", "android": "https://dc.lft.to/lastmile_qr_scan"}, "fusion_lon": 0.0, "lon": -77.01824666666667, "name": "2eb887abea130b3465b843881cb5a445", "is_reserved": 0, "is_disabled": 0}, {"lat": 38.900438666666666, "fusion_lat": 0.0, "type": "electric_scooter", "bike_id": "da441c853530f56ff9e00aae578a91fd", "rental_uris": {"ios": "https://dc.lft.to/lastmile_qr_scan", "android": "https://dc.lft.to/lastmile_qr_scan"}, "fusion_lon": 0.0, "lon": -77.001965, "name": "da441c853530f56ff9e00aae578a91fd", "is_reserved": 0, "is_disabled": 0}, {"lat": 38.922300166666666, "fusion_lat": 0.0, "type": "electric_scooter", "bike_id": "d5a40893f76e380630d5da7283f41987", "rental_uris": {"ios": "https://dc.lft.to/lastmile_qr_scan", "android": "https://dc.lft.to/lastmile_qr_scan"}, "fusion_lon": 0.0, "lon": -77.04408733333334, "name": "d5a40893f76e380630d5da7283f41987", "is_reserved": 0, "is_disabled": 0}, {"lat": 38.89230383333334, "fusion_lat": 0.0, "type": "electric_scooter", "bike_id": "8fafeb867506be6a28d4d2d6d007091a", "rental_uris": {"ios": "https://dc.lft.to/lastmile_qr_scan", "android": "https://dc.lft.to/lastmile_qr_scan"}, "fusion_lon": 0.0, "lon": -77.02803883333333, "name": "8fafeb867506be6a28d4d2d6d007091a", "is_reserved": 0, "is_disabled": 0}, {"lat": 38.88117066666667, "fusion_lat": 0.0, "type": "electric_bike", "bike_id": "ae97c317a50bb32c07c7c9f8a89c606a", "rental_uris": {"ios": "https://dc.lft.to/lastmile_qr_scan", "android": "https://dc.lft.to/lastmile_qr_scan"}, "fusion_lon": 0.0, "lon": -77.01658766666667, "name": "ae97c317a50bb32c07c7c9f8a89c606a", "is_reserved": 0, "is_disabled": 0}, {"lat": 38.9179785, "fusion_lat": 0.0, "type": "electric_scooter", "bike_id": "1e014fd9f41ec4b62207fe8dcb91f78c", "rental_uris": {"ios": "https://dc.lft.to/lastmile_qr_scan", "android": "https://dc.lft.to/lastmile_qr_scan"}, "fusion_lon": 0.0, "lon": -77.040143, "name": "1e014fd9f41ec4b62207fe8dcb91f78c", "is_reserved": 0, "is_disabled": 0}, {"lat": 38.915023166666664, "fusion_lat": 0.0, "type": "electric_scooter", "bike_id": "2b582e9f1da7d6fdd346526608296b07", "rental_uris": {"ios": "https://dc.lft.to/lastmile_qr_scan", "android": "https://dc.lft.to/lastmile_qr_scan"}, "fusion_lon": 0.0, "lon": -76.983768, "name": "2b582e9f1da7d6fdd346526608296b07", "is_reserved": 0, "is_disabled": 0}, {"lat": 38.961388166666666, "fusion_lat": 0.0, "type": "electric_bike", "bike_id": "a47011ec4611ca8b0dda3d6bbad6c4b3", "rental_uris": {"ios": "https://dc.lft.to/lastmile_qr_scan", "android": "https://dc.lft.to/lastmile_qr_scan"}, "fusion_lon": 0.0, "lon": -77.03336066666667, "name": "a47011ec4611ca8b0dda3d6bbad6c4b3", "is_reserved": 0, "is_disabled": 0}, {"lat": 38.930363, "fusion_lat": 0.0, "type": "electric_scooter", "bike_id": "4be4d0e9255e8a8b75bc972c116d746f", "rental_uris": {"ios": "https://dc.lft.to/lastmile_qr_scan", "android": "https://dc.lft.to/lastmile_qr_scan"}, "fusion_lon": 0.0, "lon": -77.055587, "name": "4be4d0e9255e8a8b75bc972c116d746f", "is_reserved": 0, "is_disabled": 0}, {"lat": 38.89339533333333, "fusion_lat": 0.0, "type": "electric_scooter", "bike_id": "67304c0f842e712e5ded685aa66d6b71", "rental_uris": {"ios": "https://dc.lft.to/lastmile_qr_scan", "android": "https://dc.lft.to/lastmile_qr_scan"}, "fusion_lon": 0.0, "lon": -76.99383333333333, "name": "67304c0f842e712e5ded685aa66d6b71", "is_reserved": 0, "is_disabled": 0}, {"lat": 38.881222666666666, "fusion_lat": 0.0, "type": "electric_scooter", "bike_id": "9d18ec0d162a77dbcf3c530613310b72", "rental_uris": {"ios": "https://dc.lft.to/lastmile_qr_scan", "android": "https://dc.lft.to/lastmile_qr_scan"}, "fusion_lon": 0.0, "lon": -77.01741066666666, "name": "9d18ec0d162a77dbcf3c530613310b72", "is_reserved": 0, "is_disabled": 0}, {"lat": 38.88770616666667, "fusion_lat": 0.0, "type": "electric_scooter", "bike_id": "a7776a81ca33ec8696ee126b490ef6a0", "rental_uris": {"ios": "https://dc.lft.to/lastmile_qr_scan", "android": "https://dc.lft.to/lastmile_qr_scan"}, "fusion_lon": 0.0, "lon": -77.0223905, "name": "a7776a81ca33ec8696ee126b490ef6a0", "is_reserved": 0, "is_disabled": 0}, {"lat": 38.9057725, "fusion_lat": 0.0, "type": "electric_scooter", "bike_id": "0d1389aadeced2396fd24bf95a24348a", "rental_uris": {"ios": "https://dc.lft.to/lastmile_qr_scan", "android": "https://dc.lft.to/lastmile_qr_scan"}, "fusion_lon": 0.0, "lon": -77.04912116666667, "name": "0d1389aadeced2396fd24bf95a24348a", "is_reserved": 0, "is_disabled": 0}, {"lat": 38.9077935, "fusion_lat": 0.0, "type": "electric_scooter", "bike_id": "e32eddb93fd1159f9952d8f70dbce99c", "rental_uris": {"ios": "https://dc.lft.to/lastmile_qr_scan", "android": "https://dc.lft.to/lastmile_qr_scan"}, "fusion_lon": 0.0, "lon": -77.03829033333334, "name": "e32eddb93fd1159f9952d8f70dbce99c", "is_reserved": 0, "is_disabled": 0}, {"lat": 38.905564, "fusion_lat": 0.0, "type": "electric_scooter", "bike_id": "4e27a22a732eb575aa578378d170b05a", "rental_uris": {"ios": "https://dc.lft.to/lastmile_qr_scan", "android": "https://dc.lft.to/lastmile_qr_scan"}, "fusion_lon": 0.0, "lon": -77.00602816666667, "name": "4e27a22a732eb575aa578378d170b05a", "is_reserved": 0, "is_disabled": 0}, {"lat": 38.87726133333334, "fusion_lat": 0.0, "type": "electric_scooter", "bike_id": "a46671cf313892c3dbf54460befa2456", "rental_uris": {"ios": "https://dc.lft.to/lastmile_qr_scan", "android": "https://dc.lft.to/lastmile_qr_scan"}, "fusion_lon": 0.0, "lon": -77.00663383333334, "name": "a46671cf313892c3dbf54460befa2456", "is_reserved": 0, "is_disabled": 0}, {"lat": 38.92289866666667, "fusion_lat": 0.0, "type": "electric_scooter", "bike_id": "8c20d47afadde0072005d992a8caccfb", "rental_uris": {"ios": "https://dc.lft.to/lastmile_qr_scan", "android": "https://dc.lft.to/lastmile_qr_scan"}, "fusion_lon": 0.0, "lon": -77.0296595, "name": "8c20d47afadde0072005d992a8caccfb", "is_reserved": 0, "is_disabled": 0}, {"lat": 38.91116983333333, "fusion_lat": 0.0, "type": "electric_scooter", "bike_id": "a9d29d18ea8a56d325098c1ccee1adbf", "rental_uris": {"ios": "https://dc.lft.to/lastmile_qr_scan", "android": "https://dc.lft.to/lastmile_qr_scan"}, "fusion_lon": 0.0, "lon": -77.02692733333333, "name": "a9d29d18ea8a56d325098c1ccee1adbf", "is_reserved": 0, "is_disabled": 0}, {"lat": 38.9348685, "fusion_lat": 0.0, "type": "electric_scooter", "bike_id": "147fc9273b2903a4c553a40fdee4f7ff", "rental_uris": {"ios": "https://dc.lft.to/lastmile_qr_scan", "android": "https://dc.lft.to/lastmile_qr_scan"}, "fusion_lon": 0.0, "lon": -77.029783, "name": "147fc9273b2903a4c553a40fdee4f7ff", "is_reserved": 0, "is_disabled": 0}, {"lat": 38.900157666666665, "fusion_lat": 0.0, "type": "electric_scooter", "bike_id": "ac2ac2f397900e1ecdd5efe518c3eb28", "rental_uris": {"ios": "https://dc.lft.to/lastmile_qr_scan", "android": "https://dc.lft.to/lastmile_qr_scan"}, "fusion_lon": 0.0, "lon": -76.9885455, "name": "ac2ac2f397900e1ecdd5efe518c3eb28", "is_reserved": 0, "is_disabled": 0}, {"lat": 38.87024916666667, "fusion_lat": 0.0, "type": "electric_bike", "bike_id": "0ffad5177852978bbcb94ba22f5e3593", "rental_uris": {"ios": "https://dc.lft.to/lastmile_qr_scan", "android": "https://dc.lft.to/lastmile_qr_scan"}, "fusion_lon": 0.0, "lon": -77.22899033333333, "name": "0ffad5177852978bbcb94ba22f5e3593", "is_reserved": 0, "is_disabled": 0}, {"lat": 38.90273, "fusion_lat": 0.0, "type": "electric_scooter", "bike_id": "c8ac386e62c7cea3bf7ce531f819e878", "rental_uris": {"ios": "https://dc.lft.to/lastmile_qr_scan", "android": "https://dc.lft.to/lastmile_qr_scan"}, "fusion_lon": 0.0, "lon": -77.04598116666666, "name": "c8ac386e62c7cea3bf7ce531f819e878", "is_reserved": 0, "is_disabled": 0}, {"lat": 38.924853, "fusion_lat": 0.0, "type": "electric_scooter", "bike_id": "c740bf4413b1d8f76e6a309959423cc3", "rental_uris": {"ios": "https://dc.lft.to/lastmile_qr_scan", "android": "https://dc.lft.to/lastmile_qr_scan"}, "fusion_lon": 0.0, "lon": -77.02839916666667, "name": "c740bf4413b1d8f76e6a309959423cc3", "is_reserved": 0, "is_disabled": 0}, {"lat": 38.937726166666664, "fusion_lat": 0.0, "type": "electric_scooter", "bike_id": "e1c30ef18edf6e6f04e0b26bb92669e9", "rental_uris": {"ios": "https://dc.lft.to/lastmile_qr_scan", "android": "https://dc.lft.to/lastmile_qr_scan"}, "fusion_lon": 0.0, "lon": -77.02349, "name": "e1c30ef18edf6e6f04e0b26bb92669e9", "is_reserved": 0, "is_disabled": 0}, {"lat": 38.921367833333335, "fusion_lat": 0.0, "type": "electric_bike", "bike_id": "3a3d3f379c95bef27ba88814c643d68c", "rental_uris": {"ios": "https://dc.lft.to/lastmile_qr_scan", "android": "https://dc.lft.to/lastmile_qr_scan"}, "fusion_lon": 0.0, "lon": -76.9888025, "name": "3a3d3f379c95bef27ba88814c643d68c", "is_reserved": 0, "is_disabled": 0}, {"lat": 38.915588666666665, "fusion_lat": 0.0, "type": "electric_scooter", "bike_id": "617ac352834b03dde37056daf149a046", "rental_uris": {"ios": "https://dc.lft.to/lastmile_qr_scan", "android": "https://dc.lft.to/lastmile_qr_scan"}, "fusion_lon": 0.0, "lon": -77.03255616666667, "name": "617ac352834b03dde37056daf149a046", "is_reserved": 0, "is_disabled": 0}, {"lat": 38.89743283333333, "fusion_lat": 0.0, "type": "electric_bike", "bike_id": "2faccbb95f40db77bb9f6278309e965b", "rental_uris": {"ios": "https://dc.lft.to/lastmile_qr_scan", "android": "https://dc.lft.to/lastmile_qr_scan"}, "fusion_lon": 0.0, "lon": -76.99216933333334, "name": "2faccbb95f40db77bb9f6278309e965b", "is_reserved": 0, "is_disabled": 0}, {"lat": 38.915793, "fusion_lat": 0.0, "type": "electric_bike", "bike_id": "f6c47a60e824f2757f69fe7e71afdd30", "rental_uris": {"ios": "https://dc.lft.to/lastmile_qr_scan", "android": "https://dc.lft.to/lastmile_qr_scan"}, "fusion_lon": 0.0, "lon": -77.05030016666667, "name": "f6c47a60e824f2757f69fe7e71afdd30", "is_reserved": 0, "is_disabled": 0}, {"lat": 38.8975385, "fusion_lat": 0.0, "type": "electric_scooter", "bike_id": "debf17a2c0d4443aa70706046f79dc25", "rental_uris": {"ios": "https://dc.lft.to/lastmile_qr_scan", "android": "https://dc.lft.to/lastmile_qr_scan"}, "fusion_lon": 0.0, "lon": -77.04344716666667, "name": "debf17a2c0d4443aa70706046f79dc25", "is_reserved": 0, "is_disabled": 0}, {"lat": 38.9046925, "fusion_lat": 0.0, "type": "electric_scooter", "bike_id": "a4973ae118d6abd18c1e57ebc61f2738", "rental_uris": {"ios": "https://dc.lft.to/lastmile_qr_scan", "android": "https://dc.lft.to/lastmile_qr_scan"}, "fusion_lon": 0.0, "lon": -77.02942133333333, "name": "a4973ae118d6abd18c1e57ebc61f2738", "is_reserved": 0, "is_disabled": 0}, {"lat": 38.88769666666666, "fusion_lat": 0.0, "type": "electric_scooter", "bike_id": "56736c2686ece78dc9636b9ce71c3ac1", "rental_uris": {"ios": "https://dc.lft.to/lastmile_qr_scan", "android": "https://dc.lft.to/lastmile_qr_scan"}, "fusion_lon": 0.0, "lon": -77.02838516666667, "name": "56736c2686ece78dc9636b9ce71c3ac1", "is_reserved": 0, "is_disabled": 0}, {"lat": 38.903217166666664, "fusion_lat": 0.0, "type": "electric_scooter", "bike_id": "324f0a446897c10fe7da0188823fb4d3", "rental_uris": {"ios": "https://dc.lft.to/lastmile_qr_scan", "android": "https://dc.lft.to/lastmile_qr_scan"}, "fusion_lon": 0.0, "lon": -77.016202, "name": "324f0a446897c10fe7da0188823fb4d3", "is_reserved": 0, "is_disabled": 0}, {"lat": 38.91477033333334, "fusion_lat": 0.0, "type": "electric_scooter", "bike_id": "6f3402917131eb85f9698d6405d8bb27", "rental_uris": {"ios": "https://dc.lft.to/lastmile_qr_scan", "android": "https://dc.lft.to/lastmile_qr_scan"}, "fusion_lon": 0.0, "lon": -77.03842866666666, "name": "6f3402917131eb85f9698d6405d8bb27", "is_reserved": 0, "is_disabled": 0}, {"lat": 38.926362833333336, "fusion_lat": 0.0, "type": "electric_scooter", "bike_id": "88b895ba4c99b78daaa325360ff56904", "rental_uris": {"ios": "https://dc.lft.to/lastmile_qr_scan", "android": "https://dc.lft.to/lastmile_qr_scan"}, "fusion_lon": 0.0, "lon": -77.0216095, "name": "88b895ba4c99b78daaa325360ff56904", "is_reserved": 0, "is_disabled": 0}, {"lat": 38.893511833333335, "fusion_lat": 0.0, "type": "electric_bike", "bike_id": "dc9a8fa16dc5386e28106c26a2405811", "rental_uris": {"ios": "https://dc.lft.to/lastmile_qr_scan", "android": "https://dc.lft.to/lastmile_qr_scan"}, "fusion_lon": 0.0, "lon": -76.99261816666667, "name": "dc9a8fa16dc5386e28106c26a2405811", "is_reserved": 0, "is_disabled": 0}, {"lat": 38.907960333333335, "fusion_lat": 0.0, "type": "electric_scooter", "bike_id": "eed99c10e84ee5c56fa2a626e3d24a90", "rental_uris": {"ios": "https://dc.lft.to/lastmile_qr_scan", "android": "https://dc.lft.to/lastmile_qr_scan"}, "fusion_lon": 0.0, "lon": -77.04340016666667, "name": "eed99c10e84ee5c56fa2a626e3d24a90", "is_reserved": 0, "is_disabled": 0}, {"lat": 38.84283533333333, "fusion_lat": 0.0, "type": "electric_bike", "bike_id": "23c17563fd6aabfc6ff51984719c265c", "rental_uris": {"ios": "https://dc.lft.to/lastmile_qr_scan", "android": "https://dc.lft.to/lastmile_qr_scan"}, "fusion_lon": 0.0, "lon": -77.07525466666667, "name": "23c17563fd6aabfc6ff51984719c265c", "is_reserved": 0, "is_disabled": 0}, {"lat": 38.87184533333333, "fusion_lat": 0.0, "type": "electric_scooter", "bike_id": "b1b8e4f3fbf08ad51d285cae7c43f55e", "rental_uris": {"ios": "https://dc.lft.to/lastmile_qr_scan", "android": "https://dc.lft.to/lastmile_qr_scan"}, "fusion_lon": 0.0, "lon": -77.006392, "name": "b1b8e4f3fbf08ad51d285cae7c43f55e", "is_reserved": 0, "is_disabled": 0}, {"lat": 38.9357875, "fusion_lat": 0.0, "type": "electric_bike", "bike_id": "5cc97e539a8b2d7bc354e2f6d817c7e5", "rental_uris": {"ios": "https://dc.lft.to/lastmile_qr_scan", "android": "https://dc.lft.to/lastmile_qr_scan"}, "fusion_lon": 0.0, "lon": -77.02125233333334, "name": "5cc97e539a8b2d7bc354e2f6d817c7e5", "is_reserved": 0, "is_disabled": 0},