{"data": {"bikes": [{"fusion_lon": 0.0, "name": "1efe06baca01a5dd9c26f83d3544e115", "rental_uris": {"android": "https://dc.lft.to/lastmile_qr_scan", "ios": "https://dc.lft.to/lastmile_qr_scan"}, "lat": 38.91361783333333, "bike_id": "1efe06baca01a5dd9c26f83d3544e115", "is_disabled": 0, "lon": -77.064023, "is_reserved": 0, "fusion_lat": 0.0, "type": "electric_scooter"}, {"fusion_lon": 0.0, "name": "e7b9268d1fd728badb78d639ee18de87", "rental_uris": {"android": "https://dc.lft.to/lastmile_qr_scan", "ios": "https://dc.lft.to/lastmile_qr_scan"}, "lat": 38.8961785, "bike_id": "e7b9268d1fd728badb78d639ee18de87", "is_disabled": 0, "lon": -77.01630266666666, "is_reserved": 0, "fusion_lat": 0.0, "type": "electric_scooter"}, {"fusion_lon": 0.0, "name": "22b994b8110332f38f03a49aa394e5c8", "rental_uris": {"android": "https://dc.lft.to/lastmile_qr_scan", "ios": "https://dc.lft.to/lastmile_qr_scan"}, "lat": 39.042337833333335, "bike_id": "22b994b8110332f38f03a49aa394e5c8", "is_disabled": 0, "lon": -76.99734483333333, "is_reserved": 0, "fusion_lat": 0.0, "type": "electric_bike"}, {"fusion_lon": 0.0, "name": "b4f5b755ff617673f633f5e9c7b1efbd", "rental_uris": {"android": "https://dc.lft.to/lastmile_qr_scan", "ios": "https://dc.lft.to/lastmile_qr_scan"}, "lat": 38.91325333333333, "bike_id": "b4f5b755ff617673f633f5e9c7b1efbd", "is_disabled": 0, "lon": -77.04540816666666, "is_reserved": 0, "fusion_lat": 0.0, "type": "electric_scooter"}, {"fusion_lon": 0.0, "name": "db9dafd7733d3eb50713cd2ae7614364", "rental_uris": {"android": "https://dc.lft.to/lastmile_qr_scan", "ios": "https://dc.lft.to/lastmile_qr_scan"}, "lat": 38.920540333333335, "bike_id": "db9dafd7733d3eb50713cd2ae7614364", "is_disabled": 0, "lon": -76.98432033333333, "is_reserved": 0, "fusion_lat": 0.0, "type": "electric_scooter"}, {"fusion_lon": 0.0, "name": "16bb90058dd298fe6dc4864fc3e1333b", "rental_uris": {"android": "https://dc.lft.to/lastmile_qr_scan", "ios": "https://dc.lft.to/lastmile_qr_scan"}, "lat": 38.90477683333334, "bike_id": "16bb90058dd298fe6dc4864fc3e1333b", "is_disabled": 0, "lon": -77.035182, "is_reserved": 0, "fusion_lat": 0.0, "type": "electric_scooter"}, {"fusion_lon": 0.0, "name": "8aab439b6e940bfa2a488173b713e225", "rental_uris": {"android": "https://dc.lft.to/lastmile_qr_scan", "ios": "https://dc.lft.to/lastmile_qr_scan"}, "lat": 38.902831666666664, "bike_id": "8aab439b6e940bfa2a488173b713e225", "is_disabled": 0, "lon": -77.03456566666667, "is_reserved": 0, "fusion_lat": 0.0, "type": "electric_scooter"}, {"fusion_lon": 0.0, "name": "3438a5ee5045cdda3ba2ccc6053accca", "rental_uris": {"android": "https://dc.lft.to/lastmile_qr_scan", "ios": "https://dc.lft.to/lastmile_qr_scan"}, "lat": 38.898287, "bike_id": "3438a5ee5045cdda3ba2ccc6053accca", "is_disabled": 0, "lon": -77.02500416666666, "is_reserved": 0, "fusion_lat": 0.0, "type": "electric_scooter"}, {"fusion_lon": 0.0, "name": "58522185d6ba92af16e11a9890af7b61", "rental_uris": {"android": "https://dc.lft.to/lastmile_qr_scan", "ios": "https://dc.lft.to/lastmile_qr_scan"}, "lat": 38.97338166666667, "bike_id": "58522185d6ba92af16e11a9890af7b61", "is_disabled": 0, "lon": -76.9959455, "is_reserved": 0, "fusion_lat": 0.0, "type": "electric_bike"}, {"fusion_lon": 0.0, "name": "582f4d780b33434bd4aaca07153638e1", "rental_uris": {"android": "https://dc.lft.to/lastmile_qr_scan", "ios": "https://dc.lft.to/lastmile_qr_scan"}, "lat": 38.900544, "bike_id": "582f4d780b33434bd4aaca07153638e1", "is_disabled": 0, "lon": -76.98491033333333, "is_reserved": 0, "fusion_lat": 0.0, "type": "electric_scooter"}, {"fusion_lon": 0.0, "name": "692f7270032327a32bd643a093c01de1", "rental_uris": {"android": "https://dc.lft.to/lastmile_qr_scan", "ios": "https://dc.lft.to/lastmile_qr_scan"}, "lat": 38.901345166666665, "bike_id": "692f7270032327a32bd643a093c01de1", "is_disabled": 0, "lon": -77.04691933333334, "is_reserved": 0, "fusion_lat": 0.0, "type": "electric_scooter"}, {"fusion_lon": 0.0, "name": "c7f9ffa25e7e791e5f6ff295185bfecd", "rental_uris": {"android": "https://dc.lft.to/lastmile_qr_scan", "ios": "https://dc.lft.to/lastmile_qr_scan"}, "lat": 38.92338916666667, "bike_id": "c7f9ffa25e7e791e5f6ff295185bfecd", "is_disabled": 0, "lon": -76.97144866666666, "is_reserved": 0, "fusion_lat": 0.0, "type": "electric_bike"}, {"fusion_lon": 0.0, "name": "6783f12fa37e2075e95c48e0086d7287", "rental_uris": {"android": "https://dc.lft.to/lastmile_qr_scan", "ios": "https://dc.lft.to/lastmile_qr_scan"}, "lat": 38.9023815, "bike_id": "6783f12fa37e2075e95c48e0086d7287", "is_disabled": 0, "lon": -77.04061883333334, "is_reserved": 0, "fusion_lat": 0.0, "type": "electric_scooter"}, {"fusion_lon": 0.0, "name": "8e97cc9d343fa5f3a245d0b6950cea47", "rental_uris": {"android": "https://dc.lft.to/lastmile_qr_scan", "ios": "https://dc.lft.to/lastmile_qr_scan"}, "lat": 38.909144166666664, "bike_id": "8e97cc9d343fa5f3a245d0b6950cea47", "is_disabled": 0, "lon": -77.02313233333334, "is_reserved": 0, "fusion_lat": 0.0, "type": "electric_scooter"}, {"fusion_lon": 0.0, "name": "f283b61b323486964af30a42c5e8fe52", "rental_uris": {"android": "https://dc.lft.to/lastmile_qr_scan", "ios": "https://dc.lft.to/lastmile_qr_scan"}, "lat": 38.90358166666667, "bike_id": "f283b61b323486964af30a42c5e8fe52", "is_disabled": 0, "lon": -77.04527866666666, "is_reserved": 0, "fusion_lat": 0.0, "type": "electric_scooter"}, {"fusion_lon": 0.0, "name": "4010ae33e86ec3c8eef07a1353446f9a", "rental_uris": {"android": "https://dc.lft.to/lastmile_qr_scan", "ios": "https://dc.lft.to/lastmile_qr_scan"}, "lat": 38.900610666666665, "bike_id": "4010ae33e86ec3c8eef07a1353446f9a", "is_disabled": 0, "lon": -77.043452, "is_reserved": 0, "fusion_lat": 0.0, "type": "electric_scooter"}, {"fusion_lon": 0.0, "name": "a6ebed9eb25aed6f04968ff0af05aa05", "rental_uris": {"android": "https://dc.lft.to/lastmile_qr_scan", "ios": "https://dc.lft.to/lastmile_qr_scan"}, "lat": 38.850627, "bike_id": "a6ebed9eb25aed6f04968ff0af05aa05", "is_disabled": 0, "lon": -77.05183033333333, "is_reserved": 0, "fusion_lat": 0.0, "type": "electric_bike"}, {"fusion_lon": 0.0, "name": "8fb01350e1c03b807b74cf62f27a6a03", "rental_uris": {"android": "https://dc.lft.to/lastmile_qr_scan", "ios": "https://dc.lft.to/lastmile_qr_scan"}, "lat": 38.88016983333333, "bike_id": "8fb01350e1c03b807b74cf62f27a6a03", "is_disabled": 0, "lon": -77.02479516666666, "is_reserved": 0, "fusion_lat": 0.0, "type": "electric_scooter"}, {"fusion_lon": 0.0, "name": "007818cb47780d4ac503141228990df3", "rental_uris": {"android": "https://dc.lft.to/lastmile_qr_scan", "ios": "https://dc.lft.to/lastmile_qr_scan"}, "lat": 38.95489366666666, "bike_id": "007818cb47780d4ac503141228990df3", "is_disabled": 0, "lon": -77.069929, "is_reserved": 0, "fusion_lat": 0.0, "type": "electric_scooter"}, {"fusion_lon": 0.0, "name": "9f50364a9c9066b4191b374df24fe821", "rental_uris": {"android": "https://dc.lft.to/lastmile_qr_scan", "ios": "https://dc.lft.to/lastmile_qr_scan"}, "lat": 38.89909566666667, "bike_id": "9f50364a9c9066b4191b374df24fe821", "is_disabled": 0, "lon": -76.9882205, "is_reserved": 0, "fusion_lat": 0.0, "type": "electric_scooter"}, {"fusion_lon": 0.0, "name": "0dddfe1a2fa67c121c21d47439b4275e", "rental_uris": {"android": "https://dc.lft.to/lastmile_qr_scan", "ios": "https://dc.lft.to/lastmile_qr_scan"}, "lat": 38.922338833333335, "bike_id": "0dddfe1a2fa67c121c21d47439b4275e", "is_disabled": 0, "lon": -77.03466666666667, "is_reserved": 0, "fusion_lat": 0.0, "type": "electric_scooter"}, {"fusion_lon": 0.0, "name": "63c038186d436d6a582e39f54505b4df", "rental_uris": {"android": "https://dc.lft.to/lastmile_qr_scan", "ios": "https://dc.lft.to/lastmile_qr_scan"}, "lat": 38.916996166666664, "bike_id": "63c038186d436d6a582e39f54505b4df", "is_disabled": 0, "lon": -77.036268, "is_reserved": 0, "fusion_lat": 0.0, "type": "electric_scooter"}, {"fusion_lon": 0.0, "name": "8155c3f8d784884c4706b463fb78fd84", "rental_uris": {"android": "https://dc.lft.to/lastmile_qr_scan", "ios": "https://dc.lft.to/lastmile_qr_scan"}, "lat": 38.923463166666664, "bike_id": "8155c3f8d784884c4706b463fb78fd84", "is_disabled": 0, "lon": -77.0542985, "is_reserved": 0, "fusion_lat": 0.0, "type": "electric_scooter"}, {"fusion_lon": 0.0, "name": "1e3f152a5e8db1d133887afdf0e1a572", "rental_uris": {"android": "https://dc.lft.to/lastmile_qr_scan", "ios": "https://dc.lft.to/lastmile_qr_scan"}, "lat": 38.916437333333334, "bike_id": "1e3f152a5e8db1d133887afdf0e1a572", "is_disabled": 0, "lon": -77.01032516666666, "is_reserved": 0, "fusion_lat": 0.0, "type": "electric_scooter"}, {"fusion_lon": 0.0, "name": "86ce996837ec1900c4f689a99f707a30", "rental_uris": {"android": "https://dc.lft.to/lastmile_qr_scan", "ios": "https://dc.lft.to/lastmile_qr_scan"}, "lat": 38.917170666666664, "bike_id": "86ce996837ec1900c4f689a99f707a30", "is_disabled": 0, "lon": -77.02962266666667, "is_reserved": 0, "fusion_lat": 0.0, "type": "electric_scooter"}, {"fusion_lon": 0.0, "name": "fbe02a104cdf985037e8708a7f9606af", "rental_uris": {"android": "https://dc.lft.to/lastmile_qr_scan", "ios": "https://dc.lft.to/lastmile_qr_scan"}, "lat": 38.941753, "bike_id": "fbe02a104cdf985037e8708a7f9606af", "is_disabled": 0, "lon": -77.03153483333334, "is_reserved": 0, "fusion_lat": 0.0, "type": "electric_scooter"}, {"fusion_lon": 0.0, "name": "4f66bd4bac0a5a9304f2c3864fe87dd6", "rental_uris": {"android": "https://dc.lft.to/lastmile_qr_scan", "ios": "https://dc.lft.to/lastmile_qr_scan"}, "lat": 38.938346833333334, "bike_id": "4f66bd4bac0a5a9304f2c3864fe87dd6", "is_disabled": 0, "lon": -77.02463383333334, "is_reserved": 0, "fusion_lat": 0.0, "type": "electric_scooter"}, {"fusion_lon": 0.0, "name": "983889484ad3b2531567f923dbd7155f", "rental_uris": {"android": "https://dc.lft.to/lastmile_qr_scan", "ios": "https://dc.lft.to/lastmile_qr_scan"}, "lat": 38.875637833333336, "bike_id": "983889484ad3b2531567f923dbd7155f", "is_disabled": 0, "lon": -77.0060685, "is_reserved": 0, "fusion_lat": 0.0, "type": "electric_scooter"}, {"fusion_lon": 0.0, "name": "a021e937c7e8757355064a9a61fe484b", "rental_uris": {"android": "https://dc.lft.to/lastmile_qr_scan", "ios": "https://dc.lft.to/lastmile_qr_scan"}, "lat": 38.92759183333333, "bike_id": "a021e937c7e8757355064a9a61fe484b", "is_disabled": 0, "lon": -77.05271183333333, "is_reserved": 0, "fusion_lat": 0.0, "type": "electric_scooter"}, {"fusion_lon": 0.0, "name": "9d7f83c07750463ff6c23f48d47411ad", "rental_uris": {"android": "https://dc.lft.to/lastmile_qr_scan", "ios": "https://dc.lft.to/lastmile_qr_scan"}, "lat": 38.92869983333333, "bike_id": "9d7f83c07750463ff6c23f48d47411ad", "is_disabled": 0, "lon": -77.0333505, "is_reserved": 0, "fusion_lat": 0.0, "type": "electric_scooter"}, {"fusion_lon": 0.0, "name": "3ea6425cfd19666b6b06037895ee8036", "rental_uris": {"android": "https://dc.lft.to/lastmile_qr_scan", "ios": "https://dc.lft.to/lastmile_qr_scan"}, "lat": 38.902200666666666, "bike_id": "3ea6425cfd19666b6b06037895ee8036", "is_disabled": 0, "lon": -77.02366066666667, "is_reserved": 0, "fusion_lat": 0.0, "type": "electric_scooter"}, {"fusion_lon": 0.0, "name": "cbf51b777053c6686dd9fb2b149e2377", "rental_uris": {"android": "https://dc.lft.to/lastmile_qr_scan", "ios": "https://dc.lft.to/lastmile_qr_scan"}, "lat": 38.92174583333333, "bike_id": "cbf51b777053c6686dd9fb2b149e2377", "is_disabled": 0, "lon": -77.02107533333333, "is_reserved": 0, "fusion_lat": 0.0, "type": "electric_scooter"}, {"fusion_lon": 0.0, "name": "2bf63f8a98f852f2edf7a4846b92db65", "rental_uris": {"android": "https://dc.lft.to/lastmile_qr_scan", "ios": "https://dc.lft.to/lastmile_qr_scan"}, "lat": 38.89720466666667, "bike_id": "2bf63f8a98f852f2edf7a4846b92db65", "is_disabled": 0, "lon": -77.02700616666667, "is_reserved": 0, "fusion_lat": 0.0, "type": "electric_scooter"}, {"fusion_lon": 0.0, "name": "f7bf5d977fd893c5b536cc2a5713de17", "rental_uris": {"android": "https://dc.lft.to/lastmile_qr_scan", "ios": "https://dc.lft.to/lastmile_qr_scan"}, "lat": 38.8763415, "bike_id": "f7bf5d977fd893c5b536cc2a5713de17", "is_disabled": 0, "lon": -77.0028615, "is_reserved": 0, "fusion_lat": 0.0, "type": "electric_scooter"}, {"fusion_lon": 0.0, "name": "5ea5d0af5fc60562b5325269f406489a", "rental_uris": {"android": "https://dc.lft.to/lastmile_qr_scan", "ios": "https://dc.lft.to/lastmile_qr_scan"}, "lat": 38.910262333333336, "bike_id": "5ea5d0af5fc60562b5325269f406489a", "is_disabled": 0, "lon": -77.043034, "is_reserved": 0, "fusion_lat": 0.0, "type": "electric_scooter"}, {"fusion_lon": 0.0, "name": "d75dca7bedfad512b4ba61b6154d282d", "rental_uris": {"android": "https://dc.lft.to/lastmile_qr_scan", "ios": "https://dc.lft.to/lastmile_qr_scan"}, "lat": 38.90520033333333, "bike_id": "d75dca7bedfad512b4ba61b6154d282d", "is_disabled": 0, "lon": -77.06434316666666, "is_reserved": 0, "fusion_lat": 0.0, "type": "electric_scooter"}, {"fusion_lon": 0.0, "name": "287eaa371fd0421f53c3a20e3f1af74b", "rental_uris": {"android": "https://dc.lft.to/lastmile_qr_scan", "ios": "https://dc.lft.to/lastmile_qr_scan"}, "lat": 38.90412283333333, "bike_id": "287eaa371fd0421f53c3a20e3f1af74b", "is_disabled": 0, "lon": -77.03838233333333, "is_reserved": 0, "fusion_lat": 0.0, "type": "electric_scooter"}, {"fusion_lon": 0.0, "name": "c6bf034e3e7c6aeaef39dca34b7cf621", "rental_uris": {"android": "https://dc.lft.to/lastmile_qr_scan", "ios": "https://dc.lft.to/lastmile_qr_scan"}, "lat": 38.898815666666664, "bike_id": "c6bf034e3e7c6aeaef39dca34b7cf621", "is_disabled": 0, "lon": -77.04535633333333, "is_reserved": 0, "fusion_lat": 0.0, "type": "electric_scooter"}, {"fusion_lon": 0.0, "name": "2ec52eb6ab1b2a52dd3ba4d417b011b2", "rental_uris": {"android": "https://dc.lft.to/lastmile_qr_scan", "ios": "https://dc.lft.to/lastmile_qr_scan"}, "lat": 38.919914166666665, "bike_id": "2ec52eb6ab1b2a52dd3ba4d417b011b2", "is_disabled": 0, "lon": -77.0219875, "is_reserved": 0, "fusion_lat": 0.0, "type": "electric_scooter"}, {"fusion_lon": 0.0, "name": "49d154d2071445319c6d31e155782da2", "rental_uris": {"android": "https://dc.lft.to/lastmile_qr_scan", "ios": "https://dc.lft.to/lastmile_qr_scan"}, "lat": 38.901356, "bike_id": "49d154d2071445319c6d31e155782da2", "is_disabled": 0, "lon": -77.0431545, "is_reserved": 0, "fusion_lat": 0.0, "type": "electric_scooter"}, {"fusion_lon": 0.0, "name": "c11cdac0f0e4c58a62cd76c9c3e2b6c1", "rental_uris": {"android": "https://dc.lft.to/lastmile_qr_scan", "ios": "https://dc.lft.to/lastmile_qr_scan"}, "lat": 38.9006585, "bike_id": "c11cdac0f0e4c58a62cd76c9c3e2b6c1", "is_disabled": 0, "lon": -77.04633116666666, "is_reserved": 0, "fusion_lat": 0.0, "type": "electric_scooter"}, {"fusion_lon": 0.0, "name": "c4f99a70bd7d9f55d0a795bbdad4c064", "rental_uris": {"android": "https://dc.lft.to/lastmile_qr_scan", "ios": "https://dc.lft.to/lastmile_qr_scan"}, "lat": 38.89951766666667, "bike_id": "c4f99a70bd7d9f55d0a795bbdad4c064", "is_disabled": 0, "lon": -77.04864766666667, "is_reserved": 0, "fusion_lat": 0.0, "type": "electric_scooter"}, {"fusion_lon": 0.0, "name": "8feafb833a2d186eb667e267446c91eb", "rental_uris": {"android": "https://dc.lft.to/lastmile_qr_scan", "ios": "https://dc.lft.to/lastmile_qr_scan"}, "lat": 38.904054333333335, "bike_id": "8feafb833a2d186eb667e267446c91eb", "is_disabled": 0, "lon": -76.9735125, "is_reserved": 0, "fusion_lat": 0.0, "type": "electric_scooter"}, {"fusion_lon": 0.0, "name": "0949cd8d995e85f7715b58cf2d2816d1", "rental_uris": {"android": "https://dc.lft.to/lastmile_qr_scan", "ios": "https://dc.lft.to/lastmile_qr_scan"}, "lat": 38.91848366666667, "bike_id": "0949cd8d995e85f7715b58cf2d2816d1", "is_disabled": 0, "lon": -77.0251625, "is_reserved": 0, "fusion_lat": 0.0, "type": "electric_scooter"}, {"fusion_lon": 0.0, "name": "27650f8c832157dc86738c464a24f529", "rental_uris": {"android": "https://dc.lft.to/lastmile_qr_scan", "ios": "https://dc.lft.to/lastmile_qr_scan"}, "lat": 38.89687033333333, "bike_id": "27650f8c832157dc86738c464a24f529", "is_disabled": 0, "lon": -76.92791833333334, "is_reserved": 0, "fusion_lat": 0.0, "type": "electric_scooter"}, {"fusion_lon": 0.0, "name": "4f805017867468e8828f4f8b91484018", "rental_uris": {"android": "https://dc.lft.to/lastmile_qr_scan", "ios": "https://dc.lft.to/lastmile_qr_scan"}, "lat": 38.896453666666666, "bike_id": "4f805017867468e8828f4f8b91484018", "is_disabled": 0, "lon": -76.94804616666667, "is_reserved": 0, "fusion_lat": 0.0, "type": "electric_scooter"}, {"fusion_lon": 0.0, "name": "c552923e131a9b55d1ab233bc72d057b", "rental_uris": {"android": "https://dc.lft.to/lastmile_qr_scan", "ios": "https://dc.lft.to/lastmile_qr_scan"}, "lat": 38.96678266666667, "bike_id": "c552923e131a9b55d1ab233bc72d057b", "is_disabled": 0, "lon": -77.03610916666666, "is_reserved": 0, "fusion_lat": 0.0, "type": "electric_scooter"}, {"fusion_lon": 0.0, "name": "f80dd93b43f0bd8fe4236ace16342457", "rental_uris": {"android": "https://dc.lft.to/lastmile_qr_scan", "ios": "https://dc.lft.to/lastmile_qr_scan"}, "lat": 38.9024735, "bike_id": "f80dd93b43f0bd8fe4236ace16342457", "is_disabled": 0, "lon": -77.04189233333334, "is_reserved": 0, "fusion_lat": 0.0, "type": "electric_scooter"}, {"fusion_lon": 0.0, "name": "4c3c8b56a9c2ea569b94eba8f7628fd7", "rental_uris": {"android": "https://dc.lft.to/lastmile_qr_scan", "ios": "https://dc.lft.to/lastmile_qr_scan"}, "lat": 38.953485666666666, "bike_id": "4c3c8b56a9c2ea569b94eba8f7628fd7", "is_disabled": 0, "lon": -77.00765316666667, "is_reserved": 0, "fusion_lat": 0.0, "type": "electric_scooter"}, {"fusion_lon": 0.0, "name": "d2701d323bf34dbc20f9193da4edea92", "rental_uris": {"android": "https://dc.lft.to/lastmile_qr_scan", "ios": "https://dc.lft.to/lastmile_qr_scan"}, "lat": 38.8995935, "bike_id": "d2701d323bf34dbc20f9193da4edea92", "is_disabled": 0, "lon": -77.02716116666667, "is_reserved": 0, "fusion_lat": 0.0, "type": "electric_scooter"}, {"fusion_lon": 0.0, "name": "881d3fe53fe98fc61dc2fd08337eeba6", "rental_uris": {"android": "https://dc.lft.to/lastmile_qr_scan", "ios": "https://dc.lft.to/lastmile_qr_scan"}, "lat": 38.95882916666667, "bike_id": "881d3fe53fe98fc61dc2fd08337eeba6", "is_disabled": 0, "lon": -77.01170383333333, "is_reserved": 0, "fusion_lat": 0.0, "type": "electric_scooter"}, {"fusion_lon": 0.0, "name": "11637edc82bd23e2b19151f89f59840e", "rental_uris": {"android": "https://dc.lft.to/lastmile_qr_scan", "ios": "https://dc.lft.to/lastmile_qr_scan"}, "lat": 38.957172666666665, "bike_id": "11637edc82bd23e2b19151f89f59840e", "is_disabled": 0, "lon": -77.00231666666667, "is_reserved": 0, "fusion_lat": 0.0, "type": "electric_scooter"}, {"fusion_lon": 0.0, "name": "46c249e02b51c2344f178b61688b393e", "rental_uris": {"android": "https://dc.lft.to/lastmile_qr_scan", "ios": "https://dc.lft.to/lastmile_qr_scan"}, "lat": 38.83809383333333, "bike_id": "46c249e02b51c2344f178b61688b393e", "is_disabled": 0, "lon": -77.0952295, "is_reserved": 0, "fusion_lat": 0.0, "type": "electric_bike"}, {"fusion_lon": 0.0, "name": "d02026fe0a41cd3fd2066a3098ce167e", "rental_uris": {"android": "https://dc.lft.to/lastmile_qr_scan", "ios": "https://dc.lft.to/lastmile_qr_scan"}, "lat": 38.8867285, "bike_id": "d02026fe0a41cd3fd2066a3098ce167e", "is_disabled": 0, "lon": -77.03179883333334, "is_reserved": 0, "fusion_lat": 0.0, "type": "electric_scooter"}, {"fusion_lon": 0.0, "name": "c7125c4c426f9dd222b35d3793f78ad4", "rental_uris": {"android": "https://dc.lft.to/lastmile_qr_scan", "ios": "https://dc.lft.to/lastmile_qr_scan"}, "lat": 38.86245816666667, "bike_id": "c7125c4c426f9dd222b35d3793f78ad4", "is_disabled": 0, "lon": -76.99496516666666, "is_reserved": 0, "fusion_lat": 0.0, "type": "electric_scooter"}, {"fusion_lon": 0.0, "name": "23c7109daea4fd3a7ccc751a1354f556", "rental_uris": {"android": "https://dc.lft.to/lastmile_qr_scan", "ios": "https://dc.lft.to/lastmile_qr_scan"}, "lat": 38.88736016666667, "bike_id": "23c7109daea4fd3a7ccc751a1354f556", "is_disabled": 0, "lon": -77.01532383333333, "is_reserved": 0, "fusion_lat": 0.0, "type": "electric_scooter"}, {"fusion_lon": 0.0, "name": "ab18699f82b55ceedd49d3626efb1387", "rental_uris": {"android": "https://dc.lft.to/lastmile_qr_scan", "ios": "https://dc.lft.to/lastmile_qr_scan"}, "lat": 38.94725533333333, "bike_id": "ab18699f82b55ceedd49d3626efb1387", "is_disabled": 0, "lon": -77.0330315, "is_reserved": 0, "fusion_lat": 0.0, "type": "electric_scooter"}, {"fusion_lon": 0.0, "name": "fb034c16fad4cf0d91b3f6ce8de4caa5", "rental_uris": {"android": "https://dc.lft.to/lastmile_qr_scan", "ios": "https://dc.lft.to/lastmile_qr_scan"}, "lat": 38.89540866666667, "bike_id": "fb034c16fad4cf0d91b3f6ce8de4caa5", "is_disabled": 0, "lon": -76.9833695, "is_reserved": 0, "fusion_lat": 0.0, "type": "electric_scooter"}, {"fusion_lon": 0.0, "name": "6578b37f9b0e1bfa577719b1f205deaa", "rental_uris": {"android": "https://dc.lft.to/lastmile_qr_scan", "ios": "https://dc.lft.to/lastmile_qr_scan"}, "lat": 38.90418, "bike_id": "6578b37f9b0e1bfa577719b1f205deaa", "is_disabled": 0, "lon": -77.01760983333334, "is_reserved": 0, "fusion_lat": 0.0, "type": "electric_scooter"}, {"fusion_lon": 0.0, "name": "98096c9fb1835ba083d395ce1fed4b07", "rental_uris": {"android": "https://dc.lft.to/lastmile_qr_scan", "ios": "https://dc.lft.to/lastmile_qr_scan"}, "lat": 38.906786, "bike_id": "98096c9fb1835ba083d395ce1fed4b07", "is_disabled": 0, "lon": -77.02691383333334, "is_reserved": 0, "fusion_lat": 0.0, "type": "electric_scooter"}, {"fusion_lon": 0.0, "name": "c79e333788871869aa5f793689ca65f8", "rental_uris": {"android": "https://dc.lft.to/lastmile_qr_scan", "ios": "https://dc.lft.to/lastmile_qr_scan"}, "lat": 38.906801, "bike_id": "c79e333788871869aa5f793689ca65f8", "is_disabled": 0, "lon": -77.0633725, "is_reserved": 0, "fusion_lat": 0.0, "type": "electric_scooter"}, {"fusion_lon": 0.0, "name": "f9b860e91df75925341e189da0fcdccf", "rental_uris": {"android": "https://dc.lft.to/lastmile_qr_scan", "ios": "https://dc.lft.to/lastmile_qr_scan"}, "lat": 38.925667, "bike_id": "f9b860e91df75925341e189da0fcdccf", "is_disabled": 0, "lon": -77.07877033333334, "is_reserved": 0, "fusion_lat": 0.0, "type": "electric_bike"}, {"fusion_lon": 0.0, "name": "9d4b3f0581fb6cbf2e93a2fe530dabaf", "rental_uris": {"android": "https://dc.lft.to/lastmile_qr_scan", "ios": "https://dc.lft.to/lastmile_qr_scan"}, "lat": 38.89242433333333, "bike_id": "9d4b3f0581fb6cbf2e93a2fe530dabaf", "is_disabled": 0, "lon": -77.01258416666667, "is_reserved": 0, "fusion_lat": 0.0, "type": "electric_scooter"}, {"fusion_lon": 0.0, "name": "f57f187eadfaeaf143e49642f0f059e4", "rental_uris": {"android": "https://dc.lft.to/lastmile_qr_scan", "ios": "https://dc.lft.to/lastmile_qr_scan"}, "lat": 38.90738566666667, "bike_id": "f57f187eadfaeaf143e49642f0f059e4", "is_disabled": 0, "lon": -77.007717, "is_reserved": 0, "fusion_lat": 0.0, "type": "electric_scooter"}, {"fusion_lon": 0.0, "name": "fca504bf39e0a6de6fbd21e6603cccaf", "rental_uris": {"android": "https://dc.lft.to/lastmile_qr_scan", "ios": "https://dc.lft.to/lastmile_qr_scan"}, "lat": 38.93198683333333, "bike_id": "fca504bf39e0a6de6fbd21e6603cccaf", "is_disabled": 0, "lon": -77.03753916666666, "is_reserved": 0, "fusion_lat": 0.0, "type": "electric_scooter"}, {"fusion_lon": 0.0, "name": "f61949fec4834b00ef4739ba66d0e5e8", "rental_uris": {"android": "https://dc.lft.to/lastmile_qr_scan", "ios": "https://dc.lft.to/lastmile_qr_scan"}, "lat": 38.888210666666666, "bike_id": "f61949fec4834b00ef4739ba66d0e5e8", "is_disabled": 0, "lon": -76.9770525, "is_reserved": 0, "fusion_lat": 0.0, "type": "electric_scooter"}, {"fusion_lon": 0.0, "name": "58b9508dd58646322a573c564f181eaf", "rental_uris": {"android": "https://dc.lft.to/lastmile_qr_scan", "ios": "https://dc.lft.to/lastmile_qr_scan"}, "lat": 38.90231083333333, "bike_id": "58b9508dd58646322a573c564f181eaf", "is_disabled": 0, "lon": -77.0343855, "is_reserved": 0, "fusion_lat": 0.0, "type": "electric_scooter"}, {"fusion_lon": 0.0, "name": "b2f2c3bc56793ec39de50d0a5ba78cb5", "rental_uris": {"android": "https://dc.lft.to/lastmile_qr_scan", "ios": "https://dc.lft.to/lastmile_qr_scan"}, "lat": 38.900271333333336, "bike_id": "b2f2c3bc56793ec39de50d0a5ba78cb5", "is_disabled": 0, "lon": -76.988576, "is_reserved": 0, "fusion_lat": 0.0, "type": "electric_scooter"}, {"fusion_lon": 0.0, "name": "47230817b4f95f39baff48c35ed77451", "rental_uris": {"android": "https://dc.lft.to/lastmile_qr_scan", "ios": "https://dc.lft.to/lastmile_qr_scan"}, "lat": 39.029266166666666, "bike_id": "47230817b4f95f39baff48c35ed77451", "is_disabled": 0, "lon": -77.01360816666667, "is_reserved": 0, "fusion_lat": 0.0, "type": "electric_bike"}, {"fusion_lon": 0.0, "name": "2a1b08ddbb36a521dd9fbf604bc86d61", "rental_uris": {"android": "https://dc.lft.to/lastmile_qr_scan", "ios": "https://dc.lft.to/lastmile_qr_scan"}, "lat": 38.93242133333333, "bike_id": "2a1b08ddbb36a521dd9fbf604bc86d61", "is_disabled": 0, "lon": -77.02835683333333, "is_reserved": 0, "fusion_lat": 0.0, "type": "electric_scooter"}, {"fusion_lon": 0.0, "name": "8f5dd28e8db658f18051f81a2fd1b6d5", "rental_uris": {"android": "https://dc.lft.to/lastmile_qr_scan", "ios": "https://dc.lft.to/lastmile_qr_scan"}, "lat": 38.905506, "bike_id": "8f5dd28e8db658f18051f81a2fd1b6d5", "is_disabled": 0, "lon": -77.04581433333334, "is_reserved": 0, "fusion_lat": 0.0, "type": "electric_scooter"}, {"fusion_lon": 0.0, "name": "4d5e968e3a2ac440639a150e23e36940", "rental_uris": {"android": "https://dc.lft.to/lastmile_qr_scan", "ios": "https://dc.lft.to/lastmile_qr_scan"}, "lat": 38.90616, "bike_id": "4d5e968e3a2ac440639a150e23e36940", "is_disabled": 0, "lon": -77.03894933333333, "is_reserved": 0, "fusion_lat": 0.0, "type": "electric_scooter"}, {"fusion_lon": 0.0, "name": "e1600a2878424e690d773de135e17213", "rental_uris": {"android": "https://dc.lft.to/lastmile_qr_scan", "ios": "https://dc.lft.to/lastmile_qr_scan"}, "lat": 38.90241283333334, "bike_id": "e1600a2878424e690d773de135e17213", "is_disabled": 0, "lon": -77.0191265, "is_reserved": 0, "fusion_lat": 0.0, "type": "electric_scooter"}, {"fusion_lon": 0.0, "name": "0321e2958efa083de0e84131da8680ac", "rental_uris": {"android": "https://dc.lft.to/lastmile_qr_scan", "ios": "https://dc.lft.to/lastmile_qr_scan"}, "lat": 38.913468, "bike_id": "0321e2958efa083de0e84131da8680ac", "is_disabled": 0, "lon": -77.01223316666666, "is_reserved": 0, "fusion_lat": 0.0, "type": "electric_scooter"}, {"fusion_lon": 0.0, "name": "2dce9aadfacfea0eb093c901498af361", "rental_uris": {"android": "https://dc.lft.to/lastmile_qr_scan", "ios": "https://dc.lft.to/lastmile_qr_scan"}, "lat": 38.91972833333333, "bike_id": "2dce9aadfacfea0eb093c901498af361", "is_disabled": 0, "lon": -77.0217855, "is_reserved": 0, "fusion_lat": 0.0, "type": "electric_scooter"}, {"fusion_lon": 0.0, "name": "326b7bb7e14db25e776d8899ca7a3d8c", "rental_uris": {"android": "https://dc.lft.to/lastmile_qr_scan", "ios": "https://dc.lft.to/lastmile_qr_scan"}, "lat": 38.96466983333333, "bike_id": "326b7bb7e14db25e776d8899ca7a3d8c", "is_disabled": 0, "lon": -77.0356885, "is_reserved": 0, "fusion_lat": 0.0, "type": "electric_bike"}, {"fusion_lon": 0.0, "name": "3e26ad6332cb1eee851c7e51318a9c71", "rental_uris": {"android": "https://dc.lft.to/lastmile_qr_scan", "ios": "https://dc.lft.to/lastmile_qr_scan"}, "lat": 38.91715266666667, "bike_id": "3e26ad6332cb1eee851c7e51318a9c71", "is_disabled": 0, "lon": -77.02715766666667, "is_reserved": 0, "fusion_lat": 0.0, "type": "electric_scooter"}, {"fusion_lon": 0.0, "name": "38b49a8f471f30c76ffb16d62be40697", "rental_uris": {"android": "https://dc.lft.to/lastmile_qr_scan", "ios": "https://dc.lft.to/lastmile_qr_scan"}, "lat": 38.901132833333335, "bike_id": "38b49a8f471f30c76ffb16d62be40697", "is_disabled": 0, "lon": -77.04983633333333, "is_reserved": 0, "fusion_lat": 0.0, "type": "electric_scooter"}, {"fusion_lon": 0.0, "name": "65eb851400ef39231551ab42875c61ca", "rental_uris": {"android": "https://dc.lft.to/lastmile_qr_scan", "ios": "https://dc.lft.to/lastmile_qr_scan"}, "lat": 38.91855183333333, "bike_id": "65eb851400ef39231551ab42875c61ca", "is_disabled": 0, "lon": -76.96091616666666, "is_reserved": 0, "fusion_lat": 0.0, "type": "electric_bike"}, {"fusion_lon": 0.0, "name": "83c6c3e5796354b4fc01413332fad59c", "rental_uris": {"android": "https://dc.lft.to/lastmile_qr_scan", "ios": "https://dc.lft.to/lastmile_qr_scan"}, "lat": 38.895724666666666, "bike_id": "83c6c3e5796354b4fc01413332fad59c", "is_disabled": 0, "lon": -77.04137483333334, "is_reserved": 0, "fusion_lat": 0.0, "type": "electric_scooter"}, {"fusion_lon": 0.0, "name": "3f2ab887d99b7d16d0e5b6e9e9bce0c9", "rental_uris": {"android": "https://dc.lft.to/lastmile_qr_scan", "ios": "https://dc.lft.to/lastmile_qr_scan"}, "lat": 38.92462733333333, "bike_id": "3f2ab887d99b7d16d0e5b6e9e9bce0c9", "is_disabled": 0, "lon": -77.0220805, "is_reserved": 0, "fusion_lat": 0.0, "type": "electric_scooter"}, {"fusion_lon": 0.0, "name": "8b981f5ad47bfc06e3dc6c3f1a152149", "rental_uris": {"android": "https://dc.lft.to/lastmile_qr_scan", "ios": "https://dc.lft.to/lastmile_qr_scan"}, "lat": 38.88724033333333, "bike_id": "8b981f5ad47bfc06e3dc6c3f1a152149", "is_disabled": 0, "lon": -76.983834, "is_reserved": 0, "fusion_lat": 0.0, "type": "electric_scooter"}, {"fusion_lon": 0.0, "name": "6a0265d45535bf18bec32b82c6ed181c", "rental_uris": {"android": "https://dc.lft.to/lastmile_qr_scan", "ios": "https://dc.lft.to/lastmile_qr_scan"}, "lat": 38.8984735, "bike_id": "6a0265d45535bf18bec32b82c6ed181c", "is_disabled": 0, "lon": -77.0410855, "is_reserved": 0, "fusion_lat": 0.0, "type": "electric_scooter"}, {"fusion_lon": 0.0, "name": "f22f4583f2b787fb7eb8e8911f8a9359", "rental_uris": {"android": "https://dc.lft.to/lastmile_qr_scan", "ios": "https://dc.lft.to/lastmile_qr_scan"}, "lat": 38.9027495, "bike_id": "f22f4583f2b787fb7eb8e8911f8a9359", "is_disabled": 0, "lon": -77.0347145, "is_reserved": 0, "fusion_lat": 0.0, "type": "electric_scooter"}, {"fusion_lon": 0.0, "name": "ed3ff14dea3ccecad711d8e2c6642a26", "rental_uris": {"android": "https://dc.lft.to/lastmile_qr_scan", "ios": "https://dc.lft.to/lastmile_qr_scan"}, "lat": 38.8995265, "bike_id": "ed3ff14dea3ccecad711d8e2c6642a26", "is_disabled": 0, "lon": -77.04843466666667, "is_reserved": 0, "fusion_lat": 0.0, "type": "electric_scooter"}, {"fusion_lon": 0.0, "name": "985dc4c30df702ca379c72334bca6c51", "rental_uris": {"android": "https://dc.lft.to/lastmile_qr_scan", "ios": "https://dc.lft.to/lastmile_qr_scan"}, "lat": 38.8360355, "bike_id": "985dc4c30df702ca379c72334bca6c51", "is_disabled": 0, "lon": -77.00385783333333, "is_reserved": 0, "fusion_lat": 0.0, "type": "electric_bike"}, {"fusion_lon": 0.0, "name": "9b6a8e8681b6d9fdb449b25055f2ac71", "rental_uris": {"android": "https://dc.lft.to/lastmile_qr_scan", "ios": "https://dc.lft.to/lastmile_qr_scan"}, "lat": 38.92664033333333, "bike_id": "9b6a8e8681b6d9fdb449b25055f2ac71", "is_disabled": 0, "lon": -77.01512766666667, "is_reserved": 0, "fusion_lat": 0.0, "type": "electric_scooter"}, {"fusion_lon": 0.0, "name": "070941ba95337c32d67d1a8a3c53a168", "rental_uris": {"android": "https://dc.lft.to/lastmile_qr_scan", "ios": "https://dc.lft.to/lastmile_qr_scan"}, "lat": 38.915117, "bike_id": "070941ba95337c32d67d1a8a3c53a168", "is_disabled": 0, "lon": -77.03215816666666, "is_reserved": 0, "fusion_lat": 0.0, "type": "electric_scooter"}, {"fusion_lon": 0.0, "name": "9ad1870bd4f0523a9d52aedc8403a508", "rental_uris": {"android": "https://dc.lft.to/lastmile_qr_scan", "ios": "https://dc.lft.to/lastmile_qr_scan"}, "lat": 38.90003216666667, "bike_id": "9ad1870bd4f0523a9d52aedc8403a508", "is_disabled": 0, "lon": -77.04140583333333, "is_reserved": 0, "fusion_lat": 0.0, "type": "electric_scooter"}, {"fusion_lon": 0.0, "name": "18117566df5347b8cc1c9f37a2027366", "rental_uris": {"android": "https://dc.lft.to/lastmile_qr_scan", "ios": "https://dc.lft.to/lastmile_qr_scan"}, "lat": 38.901490333333335, "bike_id": "18117566df5347b8cc1c9f37a2027366", "is_disabled": 0, "lon": -76.9742395, "is_reserved": 0, "fusion_lat": 0.0, "type": "electric_scooter"}, {"fusion_lon": 0.0, "name": "412a24e9d12ec0c05942991742778eb2", "rental_uris": {"android": "https://dc.lft.to/lastmile_qr_scan", "ios": "https://dc.lft.to/lastmile_qr_scan"}, "lat": 38.9170255, "bike_id": "412a24e9d12ec0c05942991742778eb2", "is_disabled": 0, "lon": -77.04226516666667, "is_reserved": 0, "fusion_lat": 0.0, "type": "electric_scooter"}, {"fusion_lon": 0.0, "name": "5db1760e6d42bc202f4f6e5a2c936c7f", "rental_uris": {"android": "https://dc.lft.to/lastmile_qr_scan", "ios": "https://dc.lft.to/lastmile_qr_scan"}, "lat": 38.942616666666666, "bike_id": "5db1760e6d42bc202f4f6e5a2c936c7f", "is_disabled": 0, "lon": -76.99071083333334, "is_reserved": 0, "fusion_lat": 0.0, "type": "electric_bike"}, {"fusion_lon": 0.0, "name": "19cdcd343e14b8c7be916e6334632fe4", "rental_uris": {"android": "https://dc.lft.to/lastmile_qr_scan", "ios": "https://dc.lft.to/lastmile_qr_scan"}, "lat": 38.9064255, "bike_id": "19cdcd343e14b8c7be916e6334632fe4", "is_disabled": 0, "lon": -77.041703, "is_reserved": 0, "fusion_lat": 0.0, "type": "electric_scooter"}, {"fusion_lon": 0.0, "name": "408c1eb0ce25978c8021ba2650c33656", "rental_uris": {"android": "https://dc.lft.to/lastmile_qr_scan", "ios": "https://dc.lft.to/lastmile_qr_scan"}, "lat": 38.9066505, "bike_id": "408c1eb0ce25978c8021ba2650c33656", "is_disabled": 0, "lon": -77.02804116666667, "is_reserved": 0, "fusion_lat": 0.0, "type": "electric_scooter"}, {"fusion_lon": 0.0, "name": "16cace3876157b8a2e946e36a52b88c6", "rental_uris": {"android": "https://dc.lft.to/lastmile_qr_scan", "ios": "https://dc.lft.to/lastmile_qr_scan"}, "lat": 38.843527, "bike_id": "16cace3876157b8a2e946e36a52b88c6", "is_disabled": 0, "lon": -76.97655766666666, "is_reserved": 0, "fusion_lat": 0.0, "type": "electric_scooter"}, {"fusion_lon": 0.0, "name": "f468e759f5d967a37468938c6a5d7096", "rental_uris": {"android": "https://dc.lft.to/lastmile_qr_scan", "ios": "https://dc.lft.to/lastmile_qr_scan"}, "lat": 38.80685616666667, "bike_id": "f468e759f5d967a37468938c6a5d7096", "is_disabled": 0, "lon": -77.13379466666666, "is_reserved": 0, "fusion_lat": 0.0, "type": "electric_bike"}, {"fusion_lon": 0.0, "name": "c568968878f694390f81b82ab5e6acd8", "rental_uris": {"android": "https://dc.lft.to/lastmile_qr_scan", "ios": "https://dc.lft.to/lastmile_qr_scan"}, "lat": 38.90181883333333, "bike_id": "c568968878f694390f81b82ab5e6acd8", "is_disabled": 0, "lon": -77.02403983333333, "is_reserved": 0, "fusion_lat": 0.0, "type": "electric_scooter"}, {"fusion_lon": 0.0, "name": "63ca770cfd29951722a226ace635b325", "rental_uris": {"android": "https://dc.lft.to/lastmile_qr_scan", "ios": "https://dc.lft.to/lastmile_qr_scan"}, "lat": 38.89920816666667, "bike_id": "63ca770cfd29951722a226ace635b325", "is_disabled": 0, "lon": -77.032993, "is_reserved": 0, "fusion_lat": 0.0, "type": "electric_scooter"}, {"fusion_lon": 0.0, "name": "ae106b795712eaad00200aad6216b590", "rental_uris": {"android": "https://dc.lft.to/lastmile_qr_scan", "ios": "https://dc.lft.to/lastmile_qr_scan"}, "lat": 38.9639825, "bike_id": "ae106b795712eaad00200aad6216b590", "is_disabled": 0, "lon": -77.027662, "is_reserved": 0, "fusion_lat": 0.0, "type": "electric_scooter"}, {"fusion_lon": 0.0, "name": "f065bcff9c12cd7ca86659d416a51beb", "rental_uris": {"android": "https://dc.lft.to/lastmile_qr_scan", "ios": "https://dc.lft.to/lastmile_qr_scan"}, "lat": 38.91675216666667, "bike_id": "f065bcff9c12cd7ca86659d416a51beb", "is_disabled": 0, "lon": -77.0461525, "is_reserved": 0, "fusion_lat": 0.0, "type": "electric_scooter"}, {"fusion_lon": 0.0, "name": "ea3a1482a1ca083fb650069e36360845", "rental_uris": {"android": "https://dc.lft.to/lastmile_qr_scan", "ios": "https://dc.lft.to/lastmile_qr_scan"}, "lat": 38.928113, "bike_id": "ea3a1482a1ca083fb650069e36360845", "is_disabled": 0, "lon": -77.03146866666667, "is_reserved": 0, "fusion_lat": 0.0, "type": "electric_scooter"}, {"fusion_lon": 0.0, "name": "6e74e66fdf2447bb2784e0c2f91ed328", "rental_uris": {"android": "https://dc.lft.to/lastmile_qr_scan", "ios": "https://dc.lft.to/lastmile_qr_scan"}, "lat": 38.90358633333334, "bike_id": "6e74e66fdf2447bb2784e0c2f91ed328", "is_disabled": 0, "lon": -77.0372195, "is_reserved": 0, "fusion_lat": 0.0, "type": "electric_scooter"}, {"fusion_lon": 0.0, "name": "c7f5ea12726199ea923947497fa51e89", "rental_uris": {"android": "https://dc.lft.to/lastmile_qr_scan", "ios": "https://dc.lft.to/lastmile_qr_scan"}, "lat": 38.90033283333333, "bike_id": "c7f5ea12726199ea923947497fa51e89", "is_disabled": 0, "lon": -77.0407905, "is_reserved": 0, "fusion_lat": 0.0, "type": "electric_scooter"}, {"fusion_lon": 0.0, "name": "f5739094f15f95a7915547b15d848666", "rental_uris": {"android": "https://dc.lft.to/lastmile_qr_scan", "ios": "https://dc.lft.to/lastmile_qr_scan"}, "lat": 38.89049983333334, "bike_id": "f5739094f15f95a7915547b15d848666", "is_disabled": 0, "lon": -77.014129, "is_reserved": 0, "fusion_lat": 0.0, "type": "electric_bike"}, {"fusion_lon": 0.0, "name": "9b40d42aa6814c6cfe67cb4b872b71de", "rental_uris": {"android": "https://dc.lft.to/lastmile_qr_scan", "ios": "https://dc.lft.to/lastmile_qr_scan"}, "lat": 38.928958, "bike_id": "9b40d42aa6814c6cfe67cb4b872b71de", "is_disabled": 0, "lon": -77.03244816666667, "is_reserved": 0, "fusion_lat": 0.0, "type": "electric_scooter"}, {"fusion_lon": 0.0, "name": "836f144881764f0bfde1bb9acfa6580b", "rental_uris": {"android": "https://dc.lft.to/lastmile_qr_scan", "ios": "https://dc.lft.to/lastmile_qr_scan"}, "lat": 38.925631833333334, "bike_id": "836f144881764f0bfde1bb9acfa6580b", "is_disabled": 0, "lon": -77.022839, "is_reserved": 0, "fusion_lat": 0.0, "type": "electric_scooter"}, {"fusion_lon": 0.0, "name": "98247e1cbc5acb125d8dc7d99ca85115", "rental_uris": {"android": "https://dc.lft.to/lastmile_qr_scan", "ios": "https://dc.lft.to/lastmile_qr_scan"}, "lat": 38.93909466666667, "bike_id": "98247e1cbc5acb125d8dc7d99ca85115", "is_disabled": 0, "lon": -77.06045733333333, "is_reserved": 0, "fusion_lat": 0.0, "type": "electric_scooter"}, {"fusion_lon": 0.0, "name": "96206b33c906714b664d48dc59c24b07", "rental_uris": {"android": "https://dc.lft.to/lastmile_qr_scan", "ios": "https://dc.lft.to/lastmile_qr_scan"}, "lat": 38.908960666666665, "bike_id": "96206b33c906714b664d48dc59c24b07", "is_disabled": 0, "lon": -77.07281733333333, "is_reserved": 0, "fusion_lat": 0.0, "type": "electric_scooter"}, {"fusion_lon": 0.0, "name": "227cf457a4cd6eed8c5bdd5e18154f85", "rental_uris": {"android": "https://dc.lft.to/lastmile_qr_scan", "ios": "https://dc.lft.to/lastmile_qr_scan"}, "lat": 38.91681666666667, "bike_id": "227cf457a4cd6eed8c5bdd5e18154f85", "is_disabled": 0, "lon": -77.02972033333333, "is_reserved": 0, "fusion_lat": 0.0, "type": "electric_scooter"}, {"fusion_lon": 0.0, "name": "ecd21715005ea8a91440b45c6c6123b8", "rental_uris": {"android": "https://dc.lft.to/lastmile_qr_scan", "ios": "https://dc.lft.to/lastmile_qr_scan"}, "lat": 38.9050305, "bike_id": "ecd21715005ea8a91440b45c6c6123b8", "is_disabled": 0, "lon": -77.0466075, "is_reserved": 0, "fusion_lat": 0.0, "type": "electric_scooter"}, {"fusion_lon": 0.0, "name": "9744bb5f6ec63f98e4d7942bc1bb26e7", "rental_uris": {"android": "https://dc.lft.to/lastmile_qr_scan", "ios": "https://dc.lft.to/lastmile_qr_scan"}, "lat": 38.92785383333333, "bike_id": "9744bb5f6ec63f98e4d7942bc1bb26e7", "is_disabled": 0, "lon": -77.03081216666666, "is_reserved": 0, "fusion_lat": 0.0, "type": "electric_scooter"}, {"fusion_lon": 0.0, "name": "14f7094061ab2161cb6b9a00c9df9d08", "rental_uris": {"android": "https://dc.lft.to/lastmile_qr_scan", "ios": "https://dc.lft.to/lastmile_qr_scan"}, "lat": 38.915526666666665, "bike_id": "14f7094061ab2161cb6b9a00c9df9d08", "is_disabled": 0, "lon": -77.00721416666667, "is_reserved": 0, "fusion_lat": 0.0, "type": "electric_scooter"}, {"fusion_lon": 0.0, "name": "fc58224b272b49a73c2ef7e5a49ae4af", "rental_uris": {"android": "https://dc.lft.to/lastmile_qr_scan", "ios": "https://dc.lft.to/lastmile_qr_scan"}, "lat": 38.902242333333334, "bike_id": "fc58224b272b49a73c2ef7e5a49ae4af", "is_disabled": 0, "lon": -77.0464915, "is_reserved": 0, "fusion_lat": 0.0, "type": "electric_scooter"}, {"fusion_lon": 0.0, "name": "873bafff8acaa3a37a6b6a39723a57f7", "rental_uris": {"android": "https://dc.lft.to/lastmile_qr_scan", "ios": "https://dc.lft.to/lastmile_qr_scan"}, "lat": 38.9024055, "bike_id": "873bafff8acaa3a37a6b6a39723a57f7", "is_disabled": 0, "lon": -77.01780316666667, "is_reserved": 0, "fusion_lat": 0.0, "type": "electric_scooter"}, {"fusion_lon": 0.0, "name": "c63a25fc5bad87dbfb2f3ef232c09760", "rental_uris": {"android": "https://dc.lft.to/lastmile_qr_scan", "ios": "https://dc.lft.to/lastmile_qr_scan"}, "lat": 38.84903283333333, "bike_id": "c63a25fc5bad87dbfb2f3ef232c09760", "is_disabled": 0, "lon": -77.07813733333333, "is_reserved": 0, "fusion_lat": 0.0, "type": "electric_bike"}, {"fusion_lon": 0.0, "name": "3c4aab3ae48082b2787a96f79486b5cd", "rental_uris": {"android": "https://dc.lft.to/lastmile_qr_scan", "ios": "https://dc.lft.to/lastmile_qr_scan"}, "lat": 38.9285195, "bike_id": "3c4aab3ae48082b2787a96f79486b5cd", "is_disabled": 0, "lon": -77.0327765, "is_reserved": 0, "fusion_lat": 0.0, "type": "electric_scooter"}, {"fusion_lon": 0.0, "name": "c1b5fb5405e1d3907dd75c2548e61d4c", "rental_uris": {"android": "https://dc.lft.to/lastmile_qr_scan", "ios": "https://dc.lft.to/lastmile_qr_scan"}, "lat": 38.896082666666665, "bike_id": "c1b5fb5405e1d3907dd75c2548e61d4c", "is_disabled": 0, "lon": -77.02686916666667, "is_reserved": 0, "fusion_lat": 0.0, "type": "electric_scooter"}, {"fusion_lon": 0.0, "name": "7dfeade722f6bbb8e0383cbef78d3310", "rental_uris": {"android": "https://dc.lft.to/lastmile_qr_scan", "ios": "https://dc.lft.to/lastmile_qr_scan"}, "lat": 38.90516866666667, "bike_id": "7dfeade722f6bbb8e0383cbef78d3310", "is_disabled": 0, "lon": -77.04152616666667, "is_reserved": 0, "fusion_lat": 0.0, "type": "electric_scooter"}, {"fusion_lon": 0.0, "name": "635ab09082445c74bce257eca0821918", "rental_uris": {"android": "https://dc.lft.to/lastmile_qr_scan", "ios": "https://dc.lft.to/lastmile_qr_scan"}, "lat": 38.919279833333334, "bike_id": "635ab09082445c74bce257eca0821918", "is_disabled": 0, "lon": -77.04625366666667, "is_reserved": 0, "fusion_lat": 0.0, "type": "electric_scooter"}, {"fusion_lon": 0.0, "name": "b52701a680b8d6ff98666a2b2157f754", "rental_uris": {"android": "https://dc.lft.to/lastmile_qr_scan", "ios": "https://dc.lft.to/lastmile_qr_scan"}, "lat": 38.92481266666667, "bike_id": "b52701a680b8d6ff98666a2b2157f754", "is_disabled": 0, "lon": -77.00887966666667, "is_reserved": 0, "fusion_lat": 0.0, "type": "electric_scooter"}, {"fusion_lon": 0.0, "name": "478dc22f70da219bf2a38c0a823f83fc", "rental_uris": {"android": "https://dc.lft.to/lastmile_qr_scan", "ios": "https://dc.lft.to/lastmile_qr_scan"}, "lat": 38.902468166666665, "bike_id": "478dc22f70da219bf2a38c0a823f83fc", "is_disabled": 0, "lon": -77.029447, "is_reserved": 0, "fusion_lat": 0.0, "type": "electric_scooter"}, {"fusion_lon": 0.0, "name": "227b7ae60be93dacf24b3986695cd48b", "rental_uris": {"android": "https://dc.lft.to/lastmile_qr_scan", "ios": "https://dc.lft.to/lastmile_qr_scan"}, "lat": 38.91814433333333, "bike_id": "227b7ae60be93dacf24b3986695cd48b", "is_disabled": 0, "lon": -77.0247925, "is_reserved": 0, "fusion_lat": 0.0, "type": "electric_scooter"}, {"fusion_lon": 0.0, "name": "29a56bcdc8963bfa1054e728f6f5431a", "rental_uris": {"android": "https://dc.lft.to/lastmile_qr_scan", "ios": "https://dc.lft.to/lastmile_qr_scan"}, "lat": 38.899738, "bike_id": "29a56bcdc8963bfa1054e728f6f5431a", "is_disabled": 0, "lon": -77.0208905, "is_reserved": 0, "fusion_lat": 0.0, "type": "electric_scooter"}, {"fusion_lon": 0.0, "name": "cd707f88a47d01a02591113c55febcd6", "rental_uris": {"android": "https://dc.lft.to/lastmile_qr_scan", "ios": "https://dc.lft.to/lastmile_qr_scan"}, "lat": 39.007246, "bike_id": "cd707f88a47d01a02591113c55febcd6", "is_disabled": 0, "lon": -76.98148766666667, "is_reserved": 0, "fusion_lat": 0.0, "type": "electric_bike"}, {"fusion_lon": 0.0, "name": "c1fa668a2391283e60749db3ae93870d", "rental_uris": {"android": "https://dc.lft.to/lastmile_qr_scan", "ios": "https://dc.lft.to/lastmile_qr_scan"}, "lat": 38.9079015, "bike_id": "c1fa668a2391283e60749db3ae93870d", "is_disabled": 0, "lon": -76.99437066666667, "is_reserved": 0, "fusion_lat": 0.0, "type": "electric_scooter"}, {"fusion_lon": 0.0, "name": "ae6cf087afc74a5c154cda72b41cc3f6", "rental_uris": {"android": "https://dc.lft.to/lastmile_qr_scan", "ios": "https://dc.lft.to/lastmile_qr_scan"}, "lat": 38.90036633333333, "bike_id": "ae6cf087afc74a5c154cda72b41cc3f6", "is_disabled": 0, "lon": -77.017752, "is_reserved": 0, "fusion_lat": 0.0, "type": "electric_scooter"}, {"fusion_lon": 0.0, "name": "8e8cc1ca1898aaf764f9e9a1b0dfea5c", "rental_uris": {"android": "https://dc.lft.to/lastmile_qr_scan", "ios": "https://dc.lft.to/lastmile_qr_scan"}, "lat": 38.9430285, "bike_id": "8e8cc1ca1898aaf764f9e9a1b0dfea5c", "is_disabled": 0, "lon": -77.05926816666667, "is_reserved": 0, "fusion_lat": 0.0, "type": "electric_scooter"}, {"fusion_lon": 0.0, "name": "6cd1620fcbff5205d1d3347b69171769", "rental_uris": {"android": "https://dc.lft.to/lastmile_qr_scan", "ios": "https://dc.lft.to/lastmile_qr_scan"}, "lat": 38.90979266666667, "bike_id": "6cd1620fcbff5205d1d3347b69171769", "is_disabled": 0, "lon": -77.0271545, "is_reserved": 0, "fusion_lat": 0.0, "type": "electric_scooter"}, {"fusion_lon": 0.0, "name": "57b29c81ca13d8063efa330322d621e3", "rental_uris": {"android": "https://dc.lft.to/lastmile_qr_scan", "ios": "https://dc.lft.to/lastmile_qr_scan"}, "lat": 38.90522133333333, "bike_id": "57b29c81ca13d8063efa330322d621e3", "is_disabled": 0, "lon": -77.0600535, "is_reserved": 0, "fusion_lat": 0.0, "type": "electric_scooter"}, {"fusion_lon": 0.0, "name": "b2f7ca2e8fed2935abd70a974a7feee1", "rental_uris": {"android": "https://dc.lft.to/lastmile_qr_scan", "ios": "https://dc.lft.to/lastmile_qr_scan"}, "lat": 38.901521, "bike_id": "b2f7ca2e8fed2935abd70a974a7feee1", "is_disabled": 0, "lon": -77.02167483333334, "is_reserved": 0, "fusion_lat": 0.0, "type": "electric_scooter"}, {"fusion_lon": 0.0, "name": "bf2b3c45328311a5609696fe9fc12d0e", "rental_uris": {"android": "https://dc.lft.to/lastmile_qr_scan", "ios": "https://dc.lft.to/lastmile_qr_scan"}, "lat": 38.926684333333334, "bike_id": "bf2b3c45328311a5609696fe9fc12d0e", "is_disabled": 0, "lon": -77.01516866666667, "is_reserved": 0, "fusion_lat": 0.0, "type": "electric_scooter"}, {"fusion_lon": 0.0, "name": "9f51c5587e60f070cf7d8253e93c38d9", "rental_uris": {"android": "https://dc.lft.to/lastmile_qr_scan", "ios": "https://dc.lft.to/lastmile_qr_scan"}, "lat": 38.9334295, "bike_id": "9f51c5587e60f070cf7d8253e93c38d9", "is_disabled": 0, "lon": -77.07377616666666, "is_reserved": 0, "fusion_lat": 0.0, "type": "electric_scooter"}, {"fusion_lon": 0.0, "name": "9a1a460426e954d5c296c3319743dc67", "rental_uris": {"android": "https://dc.lft.to/lastmile_qr_scan", "ios": "https://dc.lft.to/lastmile_qr_scan"}, "lat": 38.9012615, "bike_id": "9a1a460426e954d5c296c3319743dc67", "is_disabled": 0, "lon": -77.0305005, "is_reserved": 0, "fusion_lat": 0.0, "type": "electric_scooter"}, {"fusion_lon": 0.0, "name": "7dc5b8172fb75682f9e860acfae2884b", "rental_uris": {"android": "https://dc.lft.to/lastmile_qr_scan", "ios": "https://dc.lft.to/lastmile_qr_scan"}, "lat": 38.906779666666665, "bike_id": "7dc5b8172fb75682f9e860acfae2884b", "is_disabled": 0, "lon": -77.02687833333333, "is_reserved": 0, "fusion_lat": 0.0, "type": "electric_scooter"}, {"fusion_lon": 0.0, "name": "f5df62a89e940af2819bb057a5dfd114", "rental_uris": {"android": "https://dc.lft.to/lastmile_qr_scan", "ios": "https://dc.lft.to/lastmile_qr_scan"}, "lat": 38.895353166666666, "bike_id": "f5df62a89e940af2819bb057a5dfd114", "is_disabled": 0, "lon": -77.03108016666667, "is_reserved": 0, "fusion_lat": 0.0, "type": "electric_scooter"}, {"fusion_lon": 0.0, "name": "1f036ad788c7edf6f9fb11ac584cd9ee", "rental_uris": {"android": "https://dc.lft.to/lastmile_qr_scan", "ios": "https://dc.lft.to/lastmile_qr_scan"}, "lat": 38.89850283333333, "bike_id": "1f036ad788c7edf6f9fb11ac584cd9ee", "is_disabled": 0, "lon": -76.93193183333334, "is_reserved": 0, "fusion_lat": 0.0, "type": "electric_bike"}, {"fusion_lon": 0.0, "name": "13151b927f92edd89e65d67994e1f216", "rental_uris": {"android": "https://dc.lft.to/lastmile_qr_scan", "ios": "https://dc.lft.to/lastmile_qr_scan"}, "lat": 38.90047716666667, "bike_id": "13151b927f92edd89e65d67994e1f216", "is_disabled": 0, "lon": -77.027308, "is_reserved": 0, "fusion_lat": 0.0, "type": "electric_scooter"}, {"fusion_lon": 0.0, "name": "4c4e76572fee047ed5a380eded04748a", "rental_uris": {"android": "https://dc.lft.to/lastmile_qr_scan", "ios": "https://dc.lft.to/lastmile_qr_scan"}, "lat": 38.908123833333335, "bike_id": "4c4e76572fee047ed5a380eded04748a", "is_disabled": 0, "lon": -77.033898, "is_reserved": 0, "fusion_lat": 0.0, "type": "electric_scooter"}, {"fusion_lon": 0.0, "name": "794f35c731d028d054589af417b5f8eb", "rental_uris": {"android": "https://dc.lft.to/lastmile_qr_scan", "ios": "https://dc.lft.to/lastmile_qr_scan"}, "lat": 38.871750166666665, "bike_id": "794f35c731d028d054589af417b5f8eb", "is_disabled": 0, "lon": -77.0062405, "is_reserved": 0, "fusion_lat": 0.0, "type": "electric_scooter"}, {"fusion_lon": 0.0, "name": "7fdc380f932a515cb2cf043456fc6193", "rental_uris": {"android": "https://dc.lft.to/lastmile_qr_scan", "ios": "https://dc.lft.to/lastmile_qr_scan"}, "lat": 38.90714716666667, "bike_id": "7fdc380f932a515cb2cf043456fc6193", "is_disabled": 0, "lon": -77.02403933333333, "is_reserved": 0, "fusion_lat": 0.0, "type": "electric_scooter"}, {"fusion_lon": 0.0, "name": "be98822c455ef62526dfcb4cd1049302", "rental_uris": {"android": "https://dc.lft.to/lastmile_qr_scan", "ios": "https://dc.lft.to/lastmile_qr_scan"}, "lat": 38.905958, "bike_id": "be98822c455ef62526dfcb4cd1049302", "is_disabled": 0, "lon": -77.026045, "is_reserved": 0, "fusion_lat": 0.0, "type": "electric_scooter"}, {"fusion_lon": 0.0, "name": "3673d0e17a6330556947ce368c3380e9", "rental_uris": {"android": "https://dc.lft.to/lastmile_qr_scan", "ios": "https://dc.lft.to/lastmile_qr_scan"}, "lat": 38.92627533333334, "bike_id": "3673d0e17a6330556947ce368c3380e9", "is_disabled": 0, "lon": -77.07709016666666, "is_reserved": 0, "fusion_lat": 0.0, "type": "electric_bike"}, {"fusion_lon": 0.0, "name": "61930c69e35a7287df945970ab9ac4db", "rental_uris": {"android": "https://dc.lft.to/lastmile_qr_scan", "ios": "https://dc.lft.to/lastmile_qr_scan"}, "lat": 38.93835966666666, "bike_id": "61930c69e35a7287df945970ab9ac4db", "is_disabled": 0, "lon": -77.02456716666667, "is_reserved": 0, "fusion_lat": 0.0, "type": "electric_scooter"}, {"fusion_lon": 0.0, "name": "a798c60101b3f7d64a6768cc6bcba900", "rental_uris": {"android": "https://dc.lft.to/lastmile_qr_scan", "ios": "https://dc.lft.to/lastmile_qr_scan"}, "lat": 38.928656333333336, "bike_id": "a798c60101b3f7d64a6768cc6bcba900", "is_disabled": 0, "lon": -77.03667333333334, "is_reserved": 0, "fusion_lat": 0.0, "type": "electric_scooter"}, {"fusion_lon": 0.0, "name": "be28f7313db1d85f5fa8122060508ab8", "rental_uris": {"android": "https://dc.lft.to/lastmile_qr_scan", "ios": "https://dc.lft.to/lastmile_qr_scan"}, "lat": 38.90620883333333, "bike_id": "be28f7313db1d85f5fa8122060508ab8", "is_disabled": 0, "lon": -77.02379066666667, "is_reserved": 0, "fusion_lat": 0.0, "type": "electric_scooter"}, {"fusion_lon": 0.0, "name": "b5d26ccd6310d6af91a766bf1b22a3cb", "rental_uris": {"android": "https://dc.lft.to/lastmile_qr_scan", "ios": "https://dc.lft.to/lastmile_qr_scan"}, "lat": 38.96933883333333, "bike_id": "b5d26ccd6310d6af91a766bf1b22a3cb", "is_disabled": 0, "lon": -77.0270545, "is_reserved": 0, "fusion_lat": 0.0, "type": "electric_scooter"}, {"fusion_lon": 0.0, "name": "be4924dae8be30c992026da10e560227", "rental_uris": {"android": "https://dc.lft.to/lastmile_qr_scan", "ios": "https://dc.lft.to/lastmile_qr_scan"}, "lat": 38.926723833333334, "bike_id": "be4924dae8be30c992026da10e560227", "is_disabled": 0, "lon": -77.0150815, "is_reserved": 0, "fusion_lat": 0.0, "type": "electric_scooter"}, {"fusion_lon": 0.0, "name": "cda5a60d5bb5921514f2736bd6467a0a", "rental_uris": {"android": "https://dc.lft.to/lastmile_qr_scan", "ios": "https://dc.lft.to/lastmile_qr_scan"}, "lat": 38.90146466666667, "bike_id": "cda5a60d5bb5921514f2736bd6467a0a", "is_disabled": 0, "lon": -77.02486883333333, "is_reserved": 0, "fusion_lat": 0.0, "type": "electric_scooter"}, {"fusion_lon": 0.0, "name": "89f684ba60bacd538043b5aabc33a94b", "rental_uris": {"android": "https://dc.lft.to/lastmile_qr_scan", "ios": "https://dc.lft.to/lastmile_qr_scan"}, "lat": 38.92919166666667, "bike_id": "89f684ba60bacd538043b5aabc33a94b", "is_disabled": 0, "lon": -76.99816433333334, "is_reserved": 0, "fusion_lat": 0.0, "type": "electric_scooter"}, {"fusion_lon": 0.0, "name": "a737c9b508d43754507c73dcf3330a63", "rental_uris": {"android": "https://dc.lft.to/lastmile_qr_scan", "ios": "https://dc.lft.to/lastmile_qr_scan"}, "lat": 38.926008, "bike_id": "a737c9b508d43754507c73dcf3330a63", "is_disabled": 0, "lon": -77.0215655, "is_reserved": 0, "fusion_lat": 0.0, "type": "electric_scooter"}, {"fusion_lon": 0.0, "name": "37128f0492c2553c4e57fdc234b8dbfa", "rental_uris": {"android": "https://dc.lft.to/lastmile_qr_scan", "ios": "https://dc.lft.to/lastmile_qr_scan"}, "lat": 38.935028, "bike_id": "37128f0492c2553c4e57fdc234b8dbfa", "is_disabled": 0, "lon": -77.02011133333333, "is_reserved": 0, "fusion_lat": 0.0, "type": "electric_scooter"}, {"fusion_lon": 0.0, "name": "90814cdec0cb06e79d9cc60267bb03b8", "rental_uris": {"android": "https://dc.lft.to/lastmile_qr_scan", "ios": "https://dc.lft.to/lastmile_qr_scan"}, "lat": 38.92157066666667, "bike_id": "90814cdec0cb06e79d9cc60267bb03b8", "is_disabled": 0, "lon": -77.0338385, "is_reserved": 0, "fusion_lat": 0.0, "type": "electric_scooter"}, {"fusion_lon": 0.0, "name": "8777a5d29336e9611aa95c95de337581", "rental_uris": {"android": "https://dc.lft.to/lastmile_qr_scan", "ios": "https://dc.lft.to/lastmile_qr_scan"}, "lat": 38.92806866666667, "bike_id": "8777a5d29336e9611aa95c95de337581", "is_disabled": 0, "lon": -77.03374316666667, "is_reserved": 0, "fusion_lat": 0.0, "type": "electric_scooter"}, {"fusion_lon": 0.0, "name": "ba90671f6c7d7d797c6fccb513b9f3e5", "rental_uris": {"android": "https://dc.lft.to/lastmile_qr_scan", "ios": "https://dc.lft.to/lastmile_qr_scan"}, "lat": 38.89682083333334, "bike_id": "ba90671f6c7d7d797c6fccb513b9f3e5", "is_disabled": 0, "lon": -77.0436865, "is_reserved": 0, "fusion_lat": 0.0, "type": "electric_scooter"}, {"fusion_lon": 0.0, "name": "0dcbd3dd53a7280da5abaa49482c0406", "rental_uris": {"android": "https://dc.lft.to/lastmile_qr_scan", "ios": "https://dc.lft.to/lastmile_qr_scan"}, "lat": 38.910486166666665, "bike_id": "0dcbd3dd53a7280da5abaa49482c0406", "is_disabled": 0, "lon": -77.043739, "is_reserved": 0, "fusion_lat": 0.0, "type": "electric_scooter"}, {"fusion_lon": 0.0, "name": "2913f51267c16980d5bbe96820849004", "rental_uris": {"android": "https://dc.lft.to/lastmile_qr_scan", "ios": "https://dc.lft.to/lastmile_qr_scan"}, "lat": 38.914207833333336, "bike_id": "2913f51267c16980d5bbe96820849004", "is_disabled": 0, "lon": -77.01800166666666, "is_reserved": 0, "fusion_lat": 0.0, "type": "electric_scooter"}, {"fusion_lon": 0.0, "name": "59a921e31433e102ea294b712d566cb0", "rental_uris": {"android": "https://dc.lft.to/lastmile_qr_scan", "ios": "https://dc.lft.to/lastmile_qr_scan"}, "lat": 38.88833016666667, "bike_id": "59a921e31433e102ea294b712d566cb0", "is_disabled": 0, "lon": -76.98687783333334, "is_reserved": 0, "fusion_lat": 0.0, "type": "electric_scooter"}, {"fusion_lon": 0.0, "name": "46a01617624c1c16ca3e7cb340096686", "rental_uris": {"android": "https://dc.lft.to/lastmile_qr_scan", "ios": "https://dc.lft.to/lastmile_qr_scan"}, "lat": 38.91693433333333, "bike_id": "46a01617624c1c16ca3e7cb340096686", "is_disabled": 0, "lon": -77.043388, "is_reserved": 0, "fusion_lat": 0.0, "type": "electric_scooter"}, {"fusion_lon": 0.0, "name": "e874c78c237466d9f4485b8684e024b9", "rental_uris": {"android": "https://dc.lft.to/lastmile_qr_scan", "ios": "https://dc.lft.to/lastmile_qr_scan"}, "lat": 38.91006566666667, "bike_id": "e874c78c237466d9f4485b8684e024b9", "is_disabled": 0, "lon": -76.9940105, "is_reserved": 0, "fusion_lat": 0.0, "type": "electric_scooter"}, {"fusion_lon": 0.0, "name": "031c630c76bf4337eee2a4e06c617acb", "rental_uris": {"android": "https://dc.lft.to/lastmile_qr_scan", "ios": "https://dc.lft.to/lastmile_qr_scan"}, "lat": 38.9032965, "bike_id": "031c630c76bf4337eee2a4e06c617acb", "is_disabled": 0, "lon": -76.97531016666667, "is_reserved": 0, "fusion_lat": 0.0, "type": "electric_bike"}, {"fusion_lon": 0.0, "name": "ea1162e58b44fdb99cfabc8cc98e223b", "rental_uris": {"android": "https://dc.lft.to/lastmile_qr_scan", "ios": "https://dc.lft.to/lastmile_qr_scan"}, "lat": 38.9051445, "bike_id": "ea1162e58b44fdb99cfabc8cc98e223b", "is_disabled": 0, "lon": -77.0450255, "is_reserved": 0, "fusion_lat": 0.0, "type": "electric_scooter"}, {"fusion_lon": 0.0, "name": "b4b63373c3179dfcbf98917775db6023", "rental_uris": {"android": "https://dc.lft.to/lastmile_qr_scan", "ios": "https://dc.lft.to/lastmile_qr_scan"}, "lat": 38.915819166666665, "bike_id": "b4b63373c3179dfcbf98917775db6023", "is_disabled": 0, "lon": -77.04484883333333, "is_reserved": 0, "fusion_lat": 0.0, "type": "electric_scooter"}, {"fusion_lon": 0.0, "name": "65868fe3e5154cb3f0258da6c618b15b", "rental_uris": {"android": "https://dc.lft.to/lastmile_qr_scan", "ios": "https://dc.lft.to/lastmile_qr_scan"}, "lat": 38.890407833333335, "bike_id": "65868fe3e5154cb3f0258da6c618b15b", "is_disabled": 0, "lon": -76.9375005, "is_reserved": 0, "fusion_lat": 0.0, "type": "electric_scooter"}, {"fusion_lon": 0.0, "name": "1ddfa7e90efe9d391d4ad633708f31d0", "rental_uris": {"android": "https://dc.lft.to/lastmile_qr_scan", "ios": "https://dc.lft.to/lastmile_qr_scan"}, "lat": 38.9197965, "bike_id": "1ddfa7e90efe9d391d4ad633708f31d0", "is_disabled": 0, "lon": -77.021847, "is_reserved": 0, "fusion_lat": 0.0, "type": "electric_scooter"}, {"fusion_lon": 0.0, "name": "aa1fba79765c0ee14e835d0338665d1d", "rental_uris": {"android": "https://dc.lft.to/lastmile_qr_scan", "ios": "https://dc.lft.to/lastmile_qr_scan"}, "lat": 38.916874166666666, "bike_id": "aa1fba79765c0ee14e835d0338665d1d", "is_disabled": 0, "lon": -77.03475316666666, "is_reserved": 0, "fusion_lat": 0.0, "type": "electric_scooter"}, {"fusion_lon": 0.0, "name": "67ee4f9cac44f43fb8a3bdc025d5a961", "rental_uris": {"android": "https://dc.lft.to/lastmile_qr_scan", "ios": "https://dc.lft.to/lastmile_qr_scan"}, "lat": 38.8987895, "bike_id": "67ee4f9cac44f43fb8a3bdc025d5a961", "is_disabled": 0, "lon": -77.03316433333333, "is_reserved": 0, "fusion_lat": 0.0, "type": "electric_scooter"}, {"fusion_lon": 0.0, "name": "ed22eb53114aeeaab9978384928b4360", "rental_uris": {"android": "https://dc.lft.to/lastmile_qr_scan", "ios": "https://dc.lft.to/lastmile_qr_scan"}, "lat": 38.910121, "bike_id": "ed22eb53114aeeaab9978384928b4360", "is_disabled": 0, "lon": -76.9937185, "is_reserved": 0, "fusion_lat": 0.0, "type": "electric_scooter"}, {"fusion_lon": 0.0, "name": "18c0bdd469a266d887866dea9b32bd2c", "rental_uris": {"android": "https://dc.lft.to/lastmile_qr_scan", "ios": "https://dc.lft.to/lastmile_qr_scan"}, "lat": 38.920584, "bike_id": "18c0bdd469a266d887866dea9b32bd2c", "is_disabled": 0, "lon": -77.02303333333333, "is_reserved": 0, "fusion_lat": 0.0, "type": "electric_scooter"}, {"fusion_lon": 0.0, "name": "e380c740ce3885cffe297e984deda272", "rental_uris": {"android": "https://dc.lft.to/lastmile_qr_scan", "ios": "https://dc.lft.to/lastmile_qr_scan"}, "lat": 38.905517, "bike_id": "e380c740ce3885cffe297e984deda272", "is_disabled": 0, "lon": -77.04571433333334, "is_reserved": 0, "fusion_lat": 0.0, "type": "electric_scooter"}, {"fusion_lon": 0.0, "name": "3ada2e882b72389d7e28cd75bcaaa470", "rental_uris": {"android": "https://dc.lft.to/lastmile_qr_scan", "ios": "https://dc.lft.to/lastmile_qr_scan"}, "lat": 38.91695583333333, "bike_id": "3ada2e882b72389d7e28cd75bcaaa470", "is_disabled": 0, "lon": -77.03827533333333, "is_reserved": 0, "fusion_lat": 0.0, "type": "electric_scooter"}, {"fusion_lon": 0.0, "name": "10b08ee85ba707dabf81b4e2d676284c", "rental_uris": {"android": "https://dc.lft.to/lastmile_qr_scan", "ios": "https://dc.lft.to/lastmile_qr_scan"}, "lat": 38.9062165, "bike_id": "10b08ee85ba707dabf81b4e2d676284c", "is_disabled": 0, "lon": -76.993292, "is_reserved": 0, "fusion_lat": 0.0, "type": "electric_scooter"}, {"fusion_lon": 0.0, "name": "beae9fd0598ccf01a384ca855bf02e06", "rental_uris": {"android": "https://dc.lft.to/lastmile_qr_scan", "ios": "https://dc.lft.to/lastmile_qr_scan"}, "lat": 38.9006885, "bike_id": "beae9fd0598ccf01a384ca855bf02e06", "is_disabled": 0, "lon": -77.0218085, "is_reserved": 0, "fusion_lat": 0.0, "type": "electric_scooter"}, {"fusion_lon": 0.0, "name": "026575b186b9ddca60fd7eef7dcd5861", "rental_uris": {"android": "https://dc.lft.to/lastmile_qr_scan", "ios": "https://dc.lft.to/lastmile_qr_scan"}, "lat": 38.8752685, "bike_id": "026575b186b9ddca60fd7eef7dcd5861", "is_disabled": 0, "lon": -77.012296, "is_reserved": 0, "fusion_lat": 0.0, "type": "electric_scooter"}, {"fusion_lon": 0.0, "name": "ad49ac1140e1ddf6badae4a83834a46b", "rental_uris": {"android": "https://dc.lft.to/lastmile_qr_scan", "ios": "https://dc.lft.to/lastmile_qr_scan"}, "lat": 38.90730383333333, "bike_id": "ad49ac1140e1ddf6badae4a83834a46b", "is_disabled": 0, "lon": -77.03961183333334, "is_reserved": 0, "fusion_lat": 0.0, "type": "electric_scooter"}, {"fusion_lon": 0.0, "name": "fc064c194699396aa2d6eeb786487e82", "rental_uris": {"android": "https://dc.lft.to/lastmile_qr_scan", "ios": "https://dc.lft.to/lastmile_qr_scan"}, "lat": 38.973106666666666, "bike_id": "fc064c194699396aa2d6eeb786487e82", "is_disabled": 0, "lon": -77.02707866666667, "is_reserved": 0, "fusion_lat": 0.0, "type": "electric_scooter"}, {"fusion_lon": 0.0, "name": "d97a55c01fd30c21f6adf51c9096b2c4", "rental_uris": {"android": "https://dc.lft.to/lastmile_qr_scan", "ios": "https://dc.lft.to/lastmile_qr_scan"}, "lat": 38.90424983333333, "bike_id": "d97a55c01fd30c21f6adf51c9096b2c4", "is_disabled": 0, "lon": -77.05336933333334, "is_reserved": 0, "fusion_lat": 0.0, "type": "electric_scooter"}, {"fusion_lon": 0.0, "name": "79243ae0f568a371b146787b5575346a", "rental_uris": {"android": "https://dc.lft.to/lastmile_qr_scan", "ios": "https://dc.lft.to/lastmile_qr_scan"}, "lat": 38.92261233333333, "bike_id": "79243ae0f568a371b146787b5575346a", "is_disabled": 0, "lon": -76.98645983333333, "is_reserved": 0, "fusion_lat": 0.0, "type": "electric_scooter"}, {"fusion_lon": 0.0, "name": "68f7fe7e88f14d59db9aa442ca1d5b3d", "rental_uris": {"android": "https://dc.lft.to/lastmile_qr_scan", "ios": "https://dc.lft.to/lastmile_qr_scan"}, "lat": 38.90367033333333, "bike_id": "68f7fe7e88f14d59db9aa442ca1d5b3d", "is_disabled": 0, "lon": -77.04500833333333, "is_reserved": 0, "fusion_lat": 0.0, "type": "electric_scooter"}, {"fusion_lon": 0.0, "name": "a3a3433b97c55a69e106e612a5a554af", "rental_uris": {"android": "https://dc.lft.to/lastmile_qr_scan", "ios": "https://dc.lft.to/lastmile_qr_scan"}, "lat": 38.9008465, "bike_id": "a3a3433b97c55a69e106e612a5a554af", "is_disabled": 0, "lon": -77.012321, "is_reserved": 0, "fusion_lat": 0.0, "type": "electric_scooter"}, {"fusion_lon": 0.0, "name": "26f70816f5f716e5d131fcf66d1480e9", "rental_uris": {"android": "https://dc.lft.to/lastmile_qr_scan", "ios": "https://dc.lft.to/lastmile_qr_scan"}, "lat": 38.92697833333333, "bike_id": "26f70816f5f716e5d131fcf66d1480e9", "is_disabled": 0, "lon": -77.02082633333333, "is_reserved": 0, "fusion_lat": 0.0, "type": "electric_scooter"}, {"fusion_lon": 0.0, "name": "89bfc29889c6d436607c56ccc9057411", "rental_uris": {"android": "https://dc.lft.to/lastmile_qr_scan", "ios": "https://dc.lft.to/lastmile_qr_scan"}, "lat": 38.92984383333334, "bike_id": "89bfc29889c6d436607c56ccc9057411", "is_disabled": 0, "lon": -77.03654466666667, "is_reserved": 0, "fusion_lat": 0.0, "type": "electric_scooter"}, {"fusion_lon": 0.0, "name": "b35e5c879f93efdefd9f9922891117a8", "rental_uris": {"android": "https://dc.lft.to/lastmile_qr_scan", "ios": "https://dc.lft.to/lastmile_qr_scan"}, "lat": 38.920202333333336, "bike_id": "b35e5c879f93efdefd9f9922891117a8", "is_disabled": 0, "lon": -77.01907133333333, "is_reserved": 0, "fusion_lat": 0.0, "type": "electric_scooter"}, {"fusion_lon": 0.0, "name": "ca4f57888b8a222c3799d0abca6fc7eb", "rental_uris": {"android": "https://dc.lft.to/lastmile_qr_scan", "ios": "https://dc.lft.to/lastmile_qr_scan"}, "lat": 38.92467333333333, "bike_id": "ca4f57888b8a222c3799d0abca6fc7eb", "is_disabled": 0, "lon": -77.02220866666667, "is_reserved": 0, "fusion_lat": 0.0, "type": "electric_scooter"}, {"fusion_lon": 0.0, "name": "8c7ab7b66a168b7fbb1ed57261b537b2", "rental_uris": {"android": "https://dc.lft.to/lastmile_qr_scan", "ios": "https://dc.lft.to/lastmile_qr_scan"}, "lat": 38.9370175, "bike_id": "8c7ab7b66a168b7fbb1ed57261b537b2", "is_disabled": 0, "lon": -77.05599666666667, "is_reserved": 0, "fusion_lat": 0.0, "type": "electric_scooter"}, {"fusion_lon": 0.0, "name": "a5b800b8e1dcf1c8c1ba41948d272cb7", "rental_uris": {"android": "https://dc.lft.to/lastmile_qr_scan", "ios": "https://dc.lft.to/lastmile_qr_scan"}, "lat": 38.90418566666666, "bike_id": "a5b800b8e1dcf1c8c1ba41948d272cb7", "is_disabled": 0, "lon": -77.04065566666667, "is_reserved": 0, "fusion_lat": 0.0, "type": "electric_scooter"}, {"fusion_lon": 0.0, "name": "dc158a427201c2002f569647b4b38378", "rental_uris": {"android": "https://dc.lft.to/lastmile_qr_scan", "ios": "https://dc.lft.to/lastmile_qr_scan"}, "lat": 38.88771766666667, "bike_id": "dc158a427201c2002f569647b4b38378", "is_disabled": 0, "lon": -76.93261833333334, "is_reserved": 0, "fusion_lat": 0.0, "type": "electric_scooter"}, {"fusion_lon": 0.0, "name": "640c816931481ade335c2b71c59354f7", "rental_uris": {"android": "https://dc.lft.to/lastmile_qr_scan", "ios": "https://dc.lft.to/lastmile_qr_scan"}, "lat": 38.924624333333334, "bike_id": "640c816931481ade335c2b71c59354f7", "is_disabled": 0, "lon": -77.02116716666667, "is_reserved": 0, "fusion_lat": 0.0, "type": "electric_scooter"}, {"fusion_lon": 0.0, "name": "2fa70af829c9670c948bdf8df397c7cc", "rental_uris": {"android": "https://dc.lft.to/lastmile_qr_scan", "ios": "https://dc.lft.to/lastmile_qr_scan"}, "lat": 38.916914, "bike_id": "2fa70af829c9670c948bdf8df397c7cc", "is_disabled": 0, "lon": -77.02603483333333, "is_reserved": 0, "fusion_lat": 0.0, "type": "electric_scooter"}, {"fusion_lon": 0.0, "name": "1dc1554a359749840f87227f5ed7cffa", "rental_uris": {"android": "https://dc.lft.to/lastmile_qr_scan", "ios": "https://dc.lft.to/lastmile_qr_scan"}, "lat": 38.805616666666666, "bike_id": "1dc1554a359749840f87227f5ed7cffa", "is_disabled": 0, "lon": -77.13227883333333, "is_reserved": 0, "fusion_lat": 0.0, "type": "electric_bike"}, {"fusion_lon": 0.0, "name": "b50fac490df7614905e4ea127d584646", "rental_uris": {"android": "https://dc.lft.to/lastmile_qr_scan", "ios": "https://dc.lft.to/lastmile_qr_scan"}, "lat": 39.0037325, "bike_id": "b50fac490df7614905e4ea127d584646", "is_disabled": 0, "lon": -77.01300166666667, "is_reserved": 0, "fusion_lat": 0.0, "type": "electric_bike"}, {"fusion_lon": 0.0, "name": "27f1dce10b9fb6b4389b22455d6d2a1f", "rental_uris": {"android": "https://dc.lft.to/lastmile_qr_scan", "ios": "https://dc.lft.to/lastmile_qr_scan"}, "lat": 38.88070116666667, "bike_id": "27f1dce10b9fb6b4389b22455d6d2a1f", "is_disabled": 0, "lon": -77.02550116666667, "is_reserved": 0, "fusion_lat": 0.0, "type": "electric_scooter"}, {"fusion_lon": 0.0, "name": "9efa436b1a433c72ca9b8fd8f17f31fb", "rental_uris": {"android": "https://dc.lft.to/lastmile_qr_scan", "ios": "https://dc.lft.to/lastmile_qr_scan"}, "lat": 38.91693133333333, "bike_id": "9efa436b1a433c72ca9b8fd8f17f31fb", "is_disabled": 0, "lon": -77.03131883333333, "is_reserved": 0, "fusion_lat": 0.0, "type": "electric_scooter"}, {"fusion_lon": 0.0, "name": "899c9d4f0f1bc3560126dba557fdb7c5", "rental_uris": {"android": "https://dc.lft.to/lastmile_qr_scan", "ios": "https://dc.lft.to/lastmile_qr_scan"}, "lat": 38.89545316666667, "bike_id": "899c9d4f0f1bc3560126dba557fdb7c5", "is_disabled": 0, "lon": -76.98336483333334, "is_reserved": 0, "fusion_lat": 0.0, "type": "electric_scooter"}, {"fusion_lon": 0.0, "name": "e07f6f31573d47e150d1ecf8684f12b1", "rental_uris": {"android": "https://dc.lft.to/lastmile_qr_scan", "ios": "https://dc.lft.to/lastmile_qr_scan"}, "lat": 38.90276166666666, "bike_id": "e07f6f31573d47e150d1ecf8684f12b1", "is_disabled": 0, "lon": -77.03348133333333, "is_reserved": 0, "fusion_lat": 0.0, "type": "electric_scooter"}, {"fusion_lon": 0.0, "name": "ddaec4cda2ec055f2b8a7c25c3c2f507", "rental_uris": {"android": "https://dc.lft.to/lastmile_qr_scan", "ios": "https://dc.lft.to/lastmile_qr_scan"}, "lat": 38.89723933333333, "bike_id": "ddaec4cda2ec055f2b8a7c25c3c2f507", "is_disabled": 0, "lon": -77.02139733333334, "is_reserved": 0, "fusion_lat": 0.0, "type": "electric_scooter"}, {"fusion_lon": 0.0, "name": "039e1807036ca8b4a3b3d5f1940da0df", "rental_uris": {"android": "https://dc.lft.to/lastmile_qr_scan", "ios": "https://dc.lft.to/lastmile_qr_scan"}, "lat": 38.876682833333334, "bike_id": "039e1807036ca8b4a3b3d5f1940da0df", "is_disabled": 0, "lon": -76.99607183333333, "is_reserved": 0, "fusion_lat": 0.0, "type": "electric_scooter"}, {"fusion_lon": 0.0, "name": "322f53d0e53fe31bc28b88dd2ee51a7e", "rental_uris": {"android": "https://dc.lft.to/lastmile_qr_scan", "ios": "https://dc.lft.to/lastmile_qr_scan"}, "lat": 38.9073375, "bike_id": "322f53d0e53fe31bc28b88dd2ee51a7e", "is_disabled": 0, "lon": -77.0130755, "is_reserved": 0, "fusion_lat": 0.0, "type": "electric_scooter"}, {"fusion_lon": 0.0, "name": "e35818a1831cb3e5f9989de803574612", "rental_uris": {"android": "https://dc.lft.to/lastmile_qr_scan", "ios": "https://dc.lft.to/lastmile_qr_scan"}, "lat": 38.91051866666667, "bike_id": "e35818a1831cb3e5f9989de803574612", "is_disabled": 0, "lon": -77.0218315, "is_reserved": 0, "fusion_lat": 0.0, "type": "electric_scooter"}, {"fusion_lon": 0.0, "name": "43fc64cd63bff33ea4242849ac3ab170", "rental_uris": {"android": "https://dc.lft.to/lastmile_qr_scan", "ios": "https://dc.lft.to/lastmile_qr_scan"}, "lat": 38.903165666666666, "bike_id": "43fc64cd63bff33ea4242849ac3ab170", "is_disabled": 0, "lon": -77.02208966666667, "is_reserved": 0, "fusion_lat": 0.0, "type": "electric_scooter"}, {"fusion_lon": 0.0, "name": "8c83df2ed3ecaf74eac20eb876d0ce3e", "rental_uris": {"android": "https://dc.lft.to/lastmile_qr_scan", "ios": "https://dc.lft.to/lastmile_qr_scan"}, "lat": 38.91475033333333, "bike_id": "8c83df2ed3ecaf74eac20eb876d0ce3e", "is_disabled": 0, "lon": -77.03244533333333, "is_reserved": 0, "fusion_lat": 0.0, "type": "electric_scooter"}, {"fusion_lon": 0.0, "name": "4c9b942081a79c568bf035f846dcc24c", "rental_uris": {"android": "https://dc.lft.to/lastmile_qr_scan", "ios": "https://dc.lft.to/lastmile_qr_scan"}, "lat": 38.926011, "bike_id": "4c9b942081a79c568bf035f846dcc24c", "is_disabled": 0, "lon": -77.02156666666667, "is_reserved": 0, "fusion_lat": 0.0, "type": "electric_scooter"}, {"fusion_lon": 0.0, "name": "8d72950c9513592ef4b244fc26203d18", "rental_uris": {"android": "https://dc.lft.to/lastmile_qr_scan", "ios": "https://dc.lft.to/lastmile_qr_scan"}, "lat": 38.88501816666667, "bike_id": "8d72950c9513592ef4b244fc26203d18", "is_disabled": 0, "lon": -77.002231, "is_reserved": 0, "fusion_lat": 0.0, "type": "electric_scooter"}, {"fusion_lon": 0.0, "name": "2a72955b0dfa9b21f930123236dd8bb3", "rental_uris": {"android": "https://dc.lft.to/lastmile_qr_scan", "ios": "https://dc.lft.to/lastmile_qr_scan"}, "lat": 39.01092516666667, "bike_id": "2a72955b0dfa9b21f930123236dd8bb3", "is_disabled": 0, "lon": -77.04955716666667, "is_reserved": 0, "fusion_lat": 0.0, "type": "electric_bike"}, {"fusion_lon": 0.0, "name": "648ccd088902e68c823654b7e01338a9", "rental_uris": {"android": "https://dc.lft.to/lastmile_qr_scan", "ios": "https://dc.lft.to/lastmile_qr_scan"}, "lat": 38.81338733333333, "bike_id": "648ccd088902e68c823654b7e01338a9", "is_disabled": 0, "lon": -77.0508965, "is_reserved": 0, "fusion_lat": 0.0, "type": "electric_bike"}, {"fusion_lon": 0.0, "name": "31160fadbecef2078de19ef703ae9b84", "rental_uris": {"android": "https://dc.lft.to/lastmile_qr_scan", "ios": "https://dc.lft.to/lastmile_qr_scan"}, "lat": 38.9039035, "bike_id": "31160fadbecef2078de19ef703ae9b84", "is_disabled": 0, "lon": -77.02839533333334, "is_reserved": 0, "fusion_lat": 0.0, "type": "electric_scooter"}, {"fusion_lon": 0.0, "name": "0fed54292f6aa7f7cc2a73e150cdf062", "rental_uris": {"android": "https://dc.lft.to/lastmile_qr_scan", "ios": "https://dc.lft.to/lastmile_qr_scan"}, "lat": 38.91325483333333, "bike_id": "0fed54292f6aa7f7cc2a73e150cdf062", "is_disabled": 0, "lon": -77.03194833333333, "is_reserved": 0, "fusion_lat": 0.0, "type": "electric_scooter"}, {"fusion_lon": 0.0, "name": "2e65e9a5f9052bd01697539f960b359b", "rental_uris": {"android": "https://dc.lft.to/lastmile_qr_scan", "ios": "https://dc.lft.to/lastmile_qr_scan"}, "lat": 38.91357683333333, "bike_id": "2e65e9a5f9052bd01697539f960b359b", "is_disabled": 0, "lon": -77.01993966666667, "is_reserved": 0, "fusion_lat": 0.0, "type": "electric_scooter"}, {"fusion_lon": 0.0, "name": "6dc920213a4e68aa0d16834696923f7b", "rental_uris": {"android": "https://dc.lft.to/lastmile_qr_scan", "ios": "https://dc.lft.to/lastmile_qr_scan"}, "lat": 38.90509816666667, "bike_id": "6dc920213a4e68aa0d16834696923f7b", "is_disabled": 0, "lon": -77.04327633333334, "is_reserved": 0, "fusion_lat": 0.0, "type": "electric_scooter"}, {"fusion_lon": 0.0, "name": "e458d04193503bb93cb53d3f01c3ed80", "rental_uris": {"android": "https://dc.lft.to/lastmile_qr_scan", "ios": "https://dc.lft.to/lastmile_qr_scan"}, "lat": 38.91364, "bike_id": "e458d04193503bb93cb53d3f01c3ed80", "is_disabled": 0, "lon": -77.09188216666666, "is_reserved": 0, "fusion_lat": 0.0, "type": "electric_scooter"}, {"fusion_lon": 0.0, "name": "6c7bb69ca810bd6c7c928e2f9343da7f", "rental_uris": {"android": "https://dc.lft.to/lastmile_qr_scan", "ios": "https://dc.lft.to/lastmile_qr_scan"}, "lat": 38.91814566666667, "bike_id": "6c7bb69ca810bd6c7c928e2f9343da7f", "is_disabled": 0, "lon": -77.02476166666666, "is_reserved": 0, "fusion_lat": 0.0, "type": "electric_scooter"}, {"fusion_lon": 0.0, "name": "52ecb8c339aecbad85d8e3cad36a3329", "rental_uris": {"android": "https://dc.lft.to/lastmile_qr_scan", "ios": "https://dc.lft.to/lastmile_qr_scan"}, "lat": 38.896179333333336, "bike_id": "52ecb8c339aecbad85d8e3cad36a3329", "is_disabled": 0, "lon": -77.040708, "is_reserved": 0, "fusion_lat": 0.0, "type": "electric_scooter"}, {"fusion_lon": 0.0, "name": "b1ef06c78590ec80cfff4c382164ad14", "rental_uris": {"android": "https://dc.lft.to/lastmile_qr_scan", "ios": "https://dc.lft.to/lastmile_qr_scan"}, "lat": 38.9292005, "bike_id": "b1ef06c78590ec80cfff4c382164ad14", "is_disabled": 0, "lon": -77.03250583333333, "is_reserved": 0, "fusion_lat": 0.0, "type": "electric_scooter"}, {"fusion_lon": 0.0, "name": "94cb431933fa8e8c4c2443b352f9c66e", "rental_uris": {"android": "https://dc.lft.to/lastmile_qr_scan", "ios": "https://dc.lft.to/lastmile_qr_scan"}, "lat": 38.88441516666666, "bike_id": "94cb431933fa8e8c4c2443b352f9c66e", "is_disabled": 0, "lon": -76.95769016666667, "is_reserved": 0, "fusion_lat": 0.0, "type": "electric_scooter"}, {"fusion_lon": 0.0, "name": "a931f1a20dd4a988e55475be9ff65364", "rental_uris": {"android": "https://dc.lft.to/lastmile_qr_scan", "ios": "https://dc.lft.to/lastmile_qr_scan"}, "lat": 38.865253333333335, "bike_id": "a931f1a20dd4a988e55475be9ff65364", "is_disabled": 0, "lon": -76.96908916666666, "is_reserved": 0, "fusion_lat": 0.0, "type": "electric_scooter"}, {"fusion_lon": 0.0, "name": "71f8a58100eea7d107986889f6e2f1a8", "rental_uris": {"android": "https://dc.lft.to/lastmile_qr_scan", "ios": "https://dc.lft.to/lastmile_qr_scan"}, "lat": 38.89223616666666, "bike_id": "71f8a58100eea7d107986889f6e2f1a8", "is_disabled": 0, "lon": -77.02568933333333, "is_reserved": 0, "fusion_lat": 0.0, "type": "electric_scooter"}, {"fusion_lon": 0.0, "name": "ac853c278f2acf16375b0542557d9991", "rental_uris": {"android": "https://dc.lft.to/lastmile_qr_scan", "ios": "https://dc.lft.to/lastmile_qr_scan"}, "lat": 38.90397466666667, "bike_id": "ac853c278f2acf16375b0542557d9991", "is_disabled": 0, "lon": -77.03432233333334, "is_reserved": 0, "fusion_lat": 0.0, "type": "electric_scooter"}, {"fusion_lon": 0.0, "name": "bc9c297d8a5b123883d9484fdc5bbbec", "rental_uris": {"android": "https://dc.lft.to/lastmile_qr_scan", "ios": "https://dc.lft.to/lastmile_qr_scan"}, "lat": 38.9072815, "bike_id": "bc9c297d8a5b123883d9484fdc5bbbec", "is_disabled": 0, "lon": -77.05025916666666, "is_reserved": 0, "fusion_lat": 0.0, "type": "electric_scooter"}, {"fusion_lon": 0.0, "name": "1ae49ae70a3ca80f7085ff6ad3d4c06b", "rental_uris": {"android": "https://dc.lft.to/lastmile_qr_scan", "ios": "https://dc.lft.to/lastmile_qr_scan"}, "lat": 38.961184, "bike_id": "1ae49ae70a3ca80f7085ff6ad3d4c06b", "is_disabled": 0, "lon": -77.0278965, "is_reserved": 0, "fusion_lat": 0.0, "type": "electric_scooter"}, {"fusion_lon": 0.0, "name": "78ead2dc47c7d656b85a540f4b2c1170", "rental_uris": {"android": "https://dc.lft.to/lastmile_qr_scan", "ios": "https://dc.lft.to/lastmile_qr_scan"}, "lat": 38.9072765, "bike_id": "78ead2dc47c7d656b85a540f4b2c1170", "is_disabled": 0, "lon": -77.039471, "is_reserved": 0, "fusion_lat": 0.0, "type": "electric_scooter"}, {"fusion_lon": 0.0, "name": "f822bf67c1137cf54e612b1eacbeeccd", "rental_uris": {"android": "https://dc.lft.to/lastmile_qr_scan", "ios": "https://dc.lft.to/lastmile_qr_scan"}, "lat": 38.88990533333333, "bike_id": "f822bf67c1137cf54e612b1eacbeeccd", "is_disabled": 0, "lon": -77.0031515, "is_reserved": 0, "fusion_lat": 0.0, "type": "electric_scooter"}, {"fusion_lon": 0.0, "name": "160b05fee20dad86fac77b95a3823d87", "rental_uris": {"android": "https://dc.lft.to/lastmile_qr_scan", "ios": "https://dc.lft.to/lastmile_qr_scan"}, "lat": 38.898947, "bike_id": "160b05fee20dad86fac77b95a3823d87", "is_disabled": 0, "lon": -76.97603133333334, "is_reserved": 0, "fusion_lat": 0.0, "type": "electric_scooter"}, {"fusion_lon": 0.0, "name": "7b66e9ace387d4c54ac204226f6c224f", "rental_uris": {"android": "https://dc.lft.to/lastmile_qr_scan", "ios": "https://dc.lft.to/lastmile_qr_scan"}, "lat": 38.929388833333334, "bike_id": "7b66e9ace387d4c54ac204226f6c224f", "is_disabled": 0, "lon": -77.03297133333334, "is_reserved": 0, "fusion_lat": 0.0, "type": "electric_scooter"}, {"fusion_lon": 0.0, "name": "e505d9733608d486a06b63e23adace30", "rental_uris": {"android": "https://dc.lft.to/lastmile_qr_scan", "ios": "https://dc.lft.to/lastmile_qr_scan"}, "lat": 38.9185425, "bike_id": "e505d9733608d486a06b63e23adace30", "is_disabled": 0, "lon": -77.03219633333333, "is_reserved": 0, "fusion_lat": 0.0, "type": "electric_scooter"}, {"fusion_lon": 0.0, "name": "10a8f6bb70760bb61431a7cb6c3051e3", "rental_uris": {"android": "https://dc.lft.to/lastmile_qr_scan", "ios": "https://dc.lft.to/lastmile_qr_scan"}, "lat": 38.90228233333333, "bike_id": "10a8f6bb70760bb61431a7cb6c3051e3", "is_disabled": 0, "lon": -77.04592516666666, "is_reserved": 0, "fusion_lat": 0.0, "type": "electric_scooter"}, {"fusion_lon": 0.0, "name": "d8663560b63bfdf93ee70dba7b94f74e", "rental_uris": {"android": "https://dc.lft.to/lastmile_qr_scan", "ios": "https://dc.lft.to/lastmile_qr_scan"}, "lat": 38.89826133333333, "bike_id": "d8663560b63bfdf93ee70dba7b94f74e", "is_disabled": 0, "lon": -77.0468285, "is_reserved": 0, "fusion_lat": 0.0, "type": "electric_bike"}, {"fusion_lon": 0.0, "name": "a36520dd3e72c892e8bdb56568be8e13", "rental_uris": {"android": "https://dc.lft.to/lastmile_qr_scan", "ios": "https://dc.lft.to/lastmile_qr_scan"}, "lat": 38.89880616666667, "bike_id": "a36520dd3e72c892e8bdb56568be8e13", "is_disabled": 0, "lon": -76.98836916666667, "is_reserved": 0, "fusion_lat": 0.0, "type": "electric_scooter"}, {"fusion_lon": 0.0, "name": "2d32706ad59e145a95bacc21c6a197de", "rental_uris": {"android": "https://dc.lft.to/lastmile_qr_scan", "ios": "https://dc.lft.to/lastmile_qr_scan"}, "lat": 38.880365166666664, "bike_id": "2d32706ad59e145a95bacc21c6a197de", "is_disabled": 0, "lon": -77.00351166666667, "is_reserved": 0, "fusion_lat": 0.0, "type": "electric_scooter"}, {"fusion_lon": 0.0, "name": "789520d1069a3d69c23909ceabd0512b", "rental_uris": {"android": "https://dc.lft.to/lastmile_qr_scan", "ios": "https://dc.lft.to/lastmile_qr_scan"}, "lat": 38.91840233333333, "bike_id": "789520d1069a3d69c23909ceabd0512b", "is_disabled": 0, "lon": -77.03856216666667, "is_reserved": 0, "fusion_lat": 0.0, "type": "electric_scooter"}, {"fusion_lon": 0.0, "name": "c189b06681465a3c35f625b54011dd61", "rental_uris": {"android": "https://dc.lft.to/lastmile_qr_scan", "ios": "https://dc.lft.to/lastmile_qr_scan"}, "lat": 38.865737, "bike_id": "c189b06681465a3c35f625b54011dd61", "is_disabled": 0, "lon": -76.99040066666667, "is_reserved": 0, "fusion_lat": 0.0, "type": "electric_bike"}, {"fusion_lon": 0.0, "name": "fd6e354d820933b0ecc3b28854ef4eb5", "rental_uris": {"android": "https://dc.lft.to/lastmile_qr_scan", "ios": "https://dc.lft.to/lastmile_qr_scan"}, "lat": 38.936366, "bike_id": "fd6e354d820933b0ecc3b28854ef4eb5", "is_disabled": 0, "lon": -77.032648, "is_reserved": 0, "fusion_lat": 0.0, "type": "electric_scooter"}, {"fusion_lon": 0.0, "name": "2d0a4808f0e03fc45b82aa853b71bfec", "rental_uris": {"android": "https://dc.lft.to/lastmile_qr_scan", "ios": "https://dc.lft.to/lastmile_qr_scan"}, "lat": 38.91708116666667, "bike_id": "2d0a4808f0e03fc45b82aa853b71bfec", "is_disabled": 0, "lon": -77.038641, "is_reserved": 0, "fusion_lat": 0.0, "type": "electric_scooter"}, {"fusion_lon": 0.0, "name": "525d2c8c457687bc83645bf9abfce642", "rental_uris": {"android": "https://dc.lft.to/lastmile_qr_scan", "ios": "https://dc.lft.to/lastmile_qr_scan"}, "lat": 38.9403035, "bike_id": "525d2c8c457687bc83645bf9abfce642", "is_disabled": 0, "lon": -77.02495233333333, "is_reserved": 0, "fusion_lat": 0.0, "type": "electric_scooter"}, {"fusion_lon": 0.0, "name": "419b7442be5ff0222c6cde48c7cd6266", "rental_uris": {"android": "https://dc.lft.to/lastmile_qr_scan", "ios": "https://dc.lft.to/lastmile_qr_scan"}, "lat": 38.92468316666667, "bike_id": "419b7442be5ff0222c6cde48c7cd6266", "is_disabled": 0, "lon": -77.0383045, "is_reserved": 0, "fusion_lat": 0.0, "type": "electric_scooter"}, {"fusion_lon": 0.0, "name": "3ffb5690b1f5749a7d722e57ec90237f", "rental_uris": {"android": "https://dc.lft.to/lastmile_qr_scan", "ios": "https://dc.lft.to/lastmile_qr_scan"}, "lat": 38.900014, "bike_id": "3ffb5690b1f5749a7d722e57ec90237f", "is_disabled": 0, "lon": -77.03395566666667, "is_reserved": 0, "fusion_lat": 0.0, "type": "electric_scooter"}, {"fusion_lon": 0.0, "name": "f9175a8cf4d1a9e79db0708ad6ca636e", "rental_uris": {"android": "https://dc.lft.to/lastmile_qr_scan", "ios": "https://dc.lft.to/lastmile_qr_scan"}, "lat": 38.89542683333333, "bike_id": "f9175a8cf4d1a9e79db0708ad6ca636e", "is_disabled": 0, "lon": -76.98334766666666, "is_reserved": 0, "fusion_lat": 0.0, "type": "electric_scooter"}, {"fusion_lon": 0.0, "name": "55656834d4ebf078c3cd637090a2246f", "rental_uris": {"android": "https://dc.lft.to/lastmile_qr_scan", "ios": "https://dc.lft.to/lastmile_qr_scan"}, "lat": 38.9170105, "bike_id": "55656834d4ebf078c3cd637090a2246f", "is_disabled": 0, "lon": -77.02971583333333, "is_reserved": 0, "fusion_lat": 0.0, "type": "electric_scooter"}, {"fusion_lon": 0.0, "name": "3813dcb2138f4769e24ff5d2bbffc4a4", "rental_uris": {"android": "https://dc.lft.to/lastmile_qr_scan", "ios": "https://dc.lft.to/lastmile_qr_scan"}, "lat": 38.944600333333334, "bike_id": "3813dcb2138f4769e24ff5d2bbffc4a4", "is_disabled": 0, "lon": -77.063908, "is_reserved": 0, "fusion_lat": 0.0, "type": "electric_scooter"}, {"fusion_lon": 0.0, "name": "9d75a9545c265e99ebfda9bf058836ef", "rental_uris": {"android": "https://dc.lft.to/lastmile_qr_scan", "ios": "https://dc.lft.to/lastmile_qr_scan"}, "lat": 38.89930316666667, "bike_id": "9d75a9545c265e99ebfda9bf058836ef", "is_disabled": 0, "lon": -77.02798483333333, "is_reserved": 0, "fusion_lat": 0.0, "type": "electric_scooter"}, {"fusion_lon": 0.0, "name": "ee883edc147cc0e4ce0fca5ea483a1e8", "rental_uris": {"android": "https://dc.lft.to/lastmile_qr_scan", "ios": "https://dc.lft.to/lastmile_qr_scan"}, "lat": 38.918391666666665, "bike_id": "ee883edc147cc0e4ce0fca5ea483a1e8", "is_disabled": 0, "lon": -77.02306233333333, "is_reserved": 0, "fusion_lat": 0.0, "type": "electric_scooter"}, {"fusion_lon": 0.0, "name": "5331727aaa1b0de14586f40e3a0affd0", "rental_uris": {"android": "https://dc.lft.to/lastmile_qr_scan", "ios": "https://dc.lft.to/lastmile_qr_scan"}, "lat": 38.8847875, "bike_id": "5331727aaa1b0de14586f40e3a0affd0", "is_disabled": 0, "lon": -77.01979766666666, "is_reserved": 0, "fusion_lat": 0.0, "type": "electric_scooter"}, {"fusion_lon": 0.0, "name": "d69f479641dbf9afb2a47596250ff1f0", "rental_uris": {"android": "https://dc.lft.to/lastmile_qr_scan", "ios": "https://dc.lft.to/lastmile_qr_scan"}, "lat": 38.905634166666665, "bike_id": "d69f479641dbf9afb2a47596250ff1f0", "is_disabled": 0, "lon": -77.0060535, "is_reserved": 0, "fusion_lat": 0.0, "type": "electric_scooter"}, {"fusion_lon": 0.0, "name": "5f4439e7bf3a640d943f3affe57acd7f", "rental_uris": {"android": "https://dc.lft.to/lastmile_qr_scan", "ios": "https://dc.lft.to/lastmile_qr_scan"}, "lat": 38.928190666666666, "bike_id": "5f4439e7bf3a640d943f3affe57acd7f", "is_disabled": 0, "lon": -77.022434, "is_reserved": 0, "fusion_lat": 0.0, "type": "electric_scooter"}, {"fusion_lon": 0.0, "name": "64fbef673b65aee1ce1882b4f073a77b", "rental_uris": {"android": "https://dc.lft.to/lastmile_qr_scan", "ios": "https://dc.lft.to/lastmile_qr_scan"}, "lat": 38.89894983333333, "bike_id": "64fbef673b65aee1ce1882b4f073a77b", "is_disabled": 0, "lon": -77.02446066666667, "is_reserved": 0, "fusion_lat": 0.0, "type": "electric_scooter"}, {"fusion_lon": 0.0, "name": "76a50e9771e7a2c0b48f336e85b2c880", "rental_uris": {"android": "https://dc.lft.to/lastmile_qr_scan", "ios": "https://dc.lft.to/lastmile_qr_scan"}, "lat": 38.87568783333333, "bike_id": "76a50e9771e7a2c0b48f336e85b2c880", "is_disabled": 0, "lon": -77.005853, "is_reserved": 0, "fusion_lat": 0.0, "type": "electric_scooter"}, {"fusion_lon": 0.0, "name": "3d466f1b6a21e542649cd4aba2b79bfb", "rental_uris": {"android": "https://dc.lft.to/lastmile_qr_scan", "ios": "https://dc.lft.to/lastmile_qr_scan"}, "lat": 38.8851255, "bike_id": "3d466f1b6a21e542649cd4aba2b79bfb", "is_disabled": 0, "lon": -77.0053935, "is_reserved": 0, "fusion_lat": 0.0, "type": "electric_scooter"}, {"fusion_lon": 0.0, "name": "d93fec6282a33ced5e1c79e5fffb4a5b", "rental_uris": {"android": "https://dc.lft.to/lastmile_qr_scan", "ios": "https://dc.lft.to/lastmile_qr_scan"}, "lat": 38.9204905, "bike_id": "d93fec6282a33ced5e1c79e5fffb4a5b", "is_disabled": 0, "lon": -77.03197016666667, "is_reserved": 0, "fusion_lat": 0.0, "type": "electric_scooter"}, {"fusion_lon": 0.0, "name": "43ba3f83dead2c1edaa68adf5df4ed9d", "rental_uris": {"android": "https://dc.lft.to/lastmile_qr_scan", "ios": "https://dc.lft.to/lastmile_qr_scan"}, "lat": 38.915814, "bike_id": "43ba3f83dead2c1edaa68adf5df4ed9d", "is_disabled": 0, "lon": -77.01232033333334, "is_reserved": 0, "fusion_lat": 0.0, "type": "electric_scooter"}, {"fusion_lon": 0.0, "name": "3201eef6372f9aca44328abe691b3324", "rental_uris": {"android": "https://dc.lft.to/lastmile_qr_scan", "ios": "https://dc.lft.to/lastmile_qr_scan"}, "lat": 38.884407333333336, "bike_id": "3201eef6372f9aca44328abe691b3324", "is_disabled": 0, "lon": -76.95768116666666, "is_reserved": 0, "fusion_lat": 0.0, "type": "electric_scooter"}, {"fusion_lon": 0.0, "name": "3c3145e9468b5091a9169f701acf018b", "rental_uris": {"android": "https://dc.lft.to/lastmile_qr_scan", "ios": "https://dc.lft.to/lastmile_qr_scan"}, "lat": 38.903807666666665, "bike_id": "3c3145e9468b5091a9169f701acf018b", "is_disabled": 0, "lon": -77.0386885, "is_reserved": 0, "fusion_lat": 0.0, "type": "electric_scooter"}, {"fusion_lon": 0.0, "name": "6dfce67a70a640c54303c7c6c94a0151", "rental_uris": {"android": "https://dc.lft.to/lastmile_qr_scan", "ios": "https://dc.lft.to/lastmile_qr_scan"}, "lat": 38.90580333333333, "bike_id": "6dfce67a70a640c54303c7c6c94a0151", "is_disabled": 0, "lon": -77.04199383333334, "is_reserved": 0, "fusion_lat": 0.0, "type": "electric_scooter"}, {"fusion_lon": 0.0, "name": "bb8c68fd04c351f4ea44ac3c2f92d535", "rental_uris": {"android": "https://dc.lft.to/lastmile_qr_scan", "ios": "https://dc.lft.to/lastmile_qr_scan"}, "lat": 38.906447, "bike_id": "bb8c68fd04c351f4ea44ac3c2f92d535", "is_disabled": 0, "lon": -77.03795183333334, "is_reserved": 0, "fusion_lat": 0.0, "type": "electric_scooter"}, {"fusion_lon": 0.0, "name": "5864ed8449f3d8d7346ed841901760c2", "rental_uris": {"android": "https://dc.lft.to/lastmile_qr_scan", "ios": "https://dc.lft.to/lastmile_qr_scan"}, "lat": 38.832960166666666, "bike_id": "5864ed8449f3d8d7346ed841901760c2", "is_disabled": 0, "lon": -77.08410266666667, "is_reserved": 0, "fusion_lat": 0.0, "type": "electric_bike"}, {"fusion_lon": 0.0, "name": "380094cbb18e2294a61ea255521ffad0", "rental_uris": {"android": "https://dc.lft.to/lastmile_qr_scan", "ios": "https://dc.lft.to/lastmile_qr_scan"}, "lat": 38.909083, "bike_id": "380094cbb18e2294a61ea255521ffad0", "is_disabled": 0, "lon": -77.04399416666666, "is_reserved": 0, "fusion_lat": 0.0, "type": "electric_scooter"}, {"fusion_lon": 0.0, "name": "6ff215ee1572302e1a460beea92e1c3f", "rental_uris": {"android": "https://dc.lft.to/lastmile_qr_scan", "ios": "https://dc.lft.to/lastmile_qr_scan"}, "lat": 38.906072333333334, "bike_id": "6ff215ee1572302e1a460beea92e1c3f", "is_disabled": 0, "lon": -77.0762475, "is_reserved": 0, "fusion_lat": 0.0, "type": "electric_bike"}, {"fusion_lon": 0.0, "name": "465282136b65767228f26d49835cc5d8", "rental_uris": {"android": "https://dc.lft.to/lastmile_qr_scan", "ios": "https://dc.lft.to/lastmile_qr_scan"}, "lat": 38.901173666666665, "bike_id": "465282136b65767228f26d49835cc5d8", "is_disabled": 0, "lon": -77.03710216666667, "is_reserved": 0, "fusion_lat": 0.0, "type": "electric_scooter"}, {"fusion_lon": 0.0, "name": "ffd9efd62180176780ad5510a410081a", "rental_uris": {"android": "https://dc.lft.to/lastmile_qr_scan", "ios": "https://dc.lft.to/lastmile_qr_scan"}, "lat": 38.91552016666667, "bike_id": "ffd9efd62180176780ad5510a410081a", "is_disabled": 0, "lon": -77.03512333333333, "is_reserved": 0, "fusion_lat": 0.0, "type": "electric_scooter"}, {"fusion_lon": 0.0, "name": "2f14213823f26adc4d7b609b244c8edc", "rental_uris": {"android": "https://dc.lft.to/lastmile_qr_scan", "ios": "https://dc.lft.to/lastmile_qr_scan"}, "lat": 38.90574083333333, "bike_id": "2f14213823f26adc4d7b609b244c8edc", "is_disabled": 0, "lon": -77.04004133333333, "is_reserved": 0, "fusion_lat": 0.0, "type": "electric_scooter"}, {"fusion_lon": 0.0, "name": "692d09317fdde0df38319350e02cab10", "rental_uris": {"android": "https://dc.lft.to/lastmile_qr_scan", "ios": "https://dc.lft.to/lastmile_qr_scan"}, "lat": 38.89728983333333, "bike_id": "692d09317fdde0df38319350e02cab10", "is_disabled": 0, "lon": -77.02994066666666, "is_reserved": 0, "fusion_lat": 0.0, "type": "electric_scooter"}, {"fusion_lon": 0.0, "name": "d65eb56bba6948d9116e0581ff3a1ad4", "rental_uris": {"android": "https://dc.lft.to/lastmile_qr_scan", "ios": "https://dc.lft.to/lastmile_qr_scan"}, "lat": 38.8862215, "bike_id": "d65eb56bba6948d9116e0581ff3a1ad4", "is_disabled": 0, "lon": -77.032131, "is_reserved": 0, "fusion_lat": 0.0, "type": "electric_scooter"}, {"fusion_lon": 0.0, "name": "f0dd03ae4307a3614ed97cf2466a4cf6", "rental_uris": {"android": "https://dc.lft.to/lastmile_qr_scan", "ios": "https://dc.lft.to/lastmile_qr_scan"}, "lat": 38.86570966666667, "bike_id": "f0dd03ae4307a3614ed97cf2466a4cf6", "is_disabled": 0, "lon": -76.97843366666666, "is_reserved": 0, "fusion_lat": 0.0, "type": "electric_scooter"}, {"fusion_lon": 0.0, "name": "cd7eab16746edd363b18dc867855a6fa", "rental_uris": {"android": "https://dc.lft.to/lastmile_qr_scan", "ios": "https://dc.lft.to/lastmile_qr_scan"}, "lat": 38.924451833333336, "bike_id": "cd7eab16746edd363b18dc867855a6fa", "is_disabled": 0, "lon": -77.03239316666667, "is_reserved": 0, "fusion_lat": 0.0, "type": "electric_scooter"}, {"fusion_lon": 0.0, "name": "39c89f2edb6401500562b4560f199c71", "rental_uris": {"android": "https://dc.lft.to/lastmile_qr_scan", "ios": "https://dc.lft.to/lastmile_qr_scan"}, "lat": 38.907424166666665, "bike_id": "39c89f2edb6401500562b4560f199c71", "is_disabled": 0, "lon": -76.98342683333334, "is_reserved": 0, "fusion_lat": 0.0, "type": "electric_scooter"}, {"fusion_lon": 0.0, "name": "734ce71d4e14efd2f7c0801ec19700ad", "rental_uris": {"android": "https://dc.lft.to/lastmile_qr_scan", "ios": "https://dc.lft.to/lastmile_qr_scan"}, "lat": 38.89734, "bike_id": "734ce71d4e14efd2f7c0801ec19700ad", "is_disabled": 0, "lon": -77.0249325, "is_reserved": 0, "fusion_lat": 0.0, "type": "electric_scooter"}, {"fusion_lon": 0.0, "name": "b0282c35935e1767e9ef1d80cccac0d3", "rental_uris": {"android": "https://dc.lft.to/lastmile_qr_scan", "ios": "https://dc.lft.to/lastmile_qr_scan"}, "lat": 38.9203715, "bike_id": "b0282c35935e1767e9ef1d80cccac0d3", "is_disabled": 0, "lon": -77.04820016666666, "is_reserved": 0, "fusion_lat": 0.0, "type": "electric_scooter"}, {"fusion_lon": 0.0, "name": "d225682855da8072f72164050f416ae7", "rental_uris": {"android": "https://dc.lft.to/lastmile_qr_scan", "ios": "https://dc.lft.to/lastmile_qr_scan"}, "lat": 38.9286455, "bike_id": "d225682855da8072f72164050f416ae7", "is_disabled": 0, "lon": -77.01387816666667, "is_reserved": 0, "fusion_lat": 0.0, "type": "electric_scooter"}, {"fusion_lon": 0.0, "name": "70871d71511255595fb5a304a3189c07", "rental_uris": {"android": "https://dc.lft.to/lastmile_qr_scan", "ios": "https://dc.lft.to/lastmile_qr_scan"}, "lat": 38.884917, "bike_id": "70871d71511255595fb5a304a3189c07", "is_disabled": 0, "lon": -77.00713733333333, "is_reserved": 0, "fusion_lat": 0.0, "type": "electric_scooter"}, {"fusion_lon": 0.0, "name": "7581f338b394882f7ccbb2a16a633a1f", "rental_uris": {"android": "https://dc.lft.to/lastmile_qr_scan", "ios": "https://dc.lft.to/lastmile_qr_scan"}, "lat": 38.92434016666667, "bike_id": "7581f338b394882f7ccbb2a16a633a1f", "is_disabled": 0, "lon": -77.003203, "is_reserved": 0, "fusion_lat": 0.0, "type": "electric_scooter"}, {"fusion_lon": 0.0, "name": "2fbb7af0b494548ddb6d374aa7e02fe7", "rental_uris": {"android": "https://dc.lft.to/lastmile_qr_scan", "ios": "https://dc.lft.to/lastmile_qr_scan"}, "lat": 38.95602916666667, "bike_id": "2fbb7af0b494548ddb6d374aa7e02fe7", "is_disabled": 0, "lon": -76.96478666666667, "is_reserved": 0, "fusion_lat": 0.0, "type": "electric_bike"}, {"fusion_lon": 0.0, "name": "cdd4be84d3efefa486dd2ffa53b85d05", "rental_uris": {"android": "https://dc.lft.to/lastmile_qr_scan", "ios": "https://dc.lft.to/lastmile_qr_scan"}, "lat": 38.898653333333336, "bike_id": "cdd4be84d3efefa486dd2ffa53b85d05", "is_disabled": 0, "lon": -76.9467335, "is_reserved": 0, "fusion_lat": 0.0, "type": "electric_scooter"}, {"fusion_lon": 0.0, "name": "1536ec796ddd1ffca2ca00850dc90531", "rental_uris": {"android": "https://dc.lft.to/lastmile_qr_scan", "ios": "https://dc.lft.to/lastmile_qr_scan"}, "lat": 38.91839433333333, "bike_id": "1536ec796ddd1ffca2ca00850dc90531", "is_disabled": 0, "lon": -77.03187466666667, "is_reserved": 0, "fusion_lat": 0.0, "type": "electric_scooter"}, {"fusion_lon": 0.0, "name": "bd5ef8cb53e3753a3e4fb09e97c103d4", "rental_uris": {"android": "https://dc.lft.to/lastmile_qr_scan", "ios": "https://dc.lft.to/lastmile_qr_scan"}, "lat": 38.89438483333333, "bike_id": "bd5ef8cb53e3753a3e4fb09e97c103d4", "is_disabled": 0, "lon": -77.01898216666666, "is_reserved": 0, "fusion_lat": 0.0, "type": "electric_scooter"}, {"fusion_lon": 0.0, "name": "cf62a1aa76791d73128bf2f1f162ca73", "rental_uris": {"android": "https://dc.lft.to/lastmile_qr_scan", "ios": "https://dc.lft.to/lastmile_qr_scan"}, "lat": 38.9725775, "bike_id": "cf62a1aa76791d73128bf2f1f162ca73", "is_disabled": 0, "lon": -76.992792, "is_reserved": 0, "fusion_lat": 0.0, "type": "electric_bike"}, {"fusion_lon": 0.0, "name": "3d92b4beb6b557cedad7693bcfe4beec", "rental_uris": {"android": "https://dc.lft.to/lastmile_qr_scan", "ios": "https://dc.lft.to/lastmile_qr_scan"}, "lat": 38.92386533333333, "bike_id": "3d92b4beb6b557cedad7693bcfe4beec", "is_disabled": 0, "lon": -77.02137366666666, "is_reserved": 0, "fusion_lat": 0.0, "type": "electric_scooter"}, {"fusion_lon": 0.0, "name": "935ea94fce58644497805d0d5954ee39", "rental_uris": {"android": "https://dc.lft.to/lastmile_qr_scan", "ios": "https://dc.lft.to/lastmile_qr_scan"}, "lat": 38.92027216666666, "bike_id": "935ea94fce58644497805d0d5954ee39", "is_disabled": 0, "lon": -77.0180775, "is_reserved": 0, "fusion_lat": 0.0, "type": "electric_scooter"}, {"fusion_lon": 0.0, "name": "9676b9118f02cdd4dae19360cdd54142", "rental_uris": {"android": "https://dc.lft.to/lastmile_qr_scan", "ios": "https://dc.lft.to/lastmile_qr_scan"}, "lat": 38.900748666666665, "bike_id": "9676b9118f02cdd4dae19360cdd54142", "is_disabled": 0, "lon": -77.04907716666666, "is_reserved": 0, "fusion_lat": 0.0, "type": "electric_scooter"}, {"fusion_lon": 0.0, "name": "44cd44bdff5ed2d1428ceb7dc9b081ae", "rental_uris": {"android": "https://dc.lft.to/lastmile_qr_scan", "ios": "https://dc.lft.to/lastmile_qr_scan"}, "lat": 38.863329666666665, "bike_id": "44cd44bdff5ed2d1428ceb7dc9b081ae", "is_disabled": 0, "lon": -76.9872755, "is_reserved": 0, "fusion_lat": 0.0, "type": "electric_bike"}, {"fusion_lon": 0.0, "name": "934d6a0ed4f69787e8eef5ca4bff53be", "rental_uris": {"android": "https://dc.lft.to/lastmile_qr_scan", "ios": "https://dc.lft.to/lastmile_qr_scan"}, "lat": 38.90884783333333, "bike_id": "934d6a0ed4f69787e8eef5ca4bff53be", "is_disabled": 0, "lon": -77.0753035, "is_reserved": 0, "fusion_lat": 0.0, "type": "electric_scooter"}, {"fusion_lon": 0.0, "name": "d008a36c6542573549b3f66980aa5f87", "rental_uris": {"android": "https://dc.lft.to/lastmile_qr_scan", "ios": "https://dc.lft.to/lastmile_qr_scan"}, "lat": 38.887249833333335, "bike_id": "d008a36c6542573549b3f66980aa5f87", "is_disabled": 0, "lon": -76.98380733333333, "is_reserved": 0, "fusion_lat": 0.0, "type": "electric_scooter"}, {"fusion_lon": 0.0, "name": "0ef052872268cfd094dfd34ec63708a7", "rental_uris": {"android": "https://dc.lft.to/lastmile_qr_scan", "ios": "https://dc.lft.to/lastmile_qr_scan"}, "lat": 38.8973145, "bike_id": "0ef052872268cfd094dfd34ec63708a7", "is_disabled": 0, "lon": -77.0316595, "is_reserved": 0, "fusion_lat": 0.0, "type": "electric_scooter"}, {"fusion_lon": 0.0, "name": "c8a6e5b5749e39b0ff0d8ee21c80f692", "rental_uris": {"android": "https://dc.lft.to/lastmile_qr_scan", "ios": "https://dc.lft.to/lastmile_qr_scan"}, "lat": 38.898606666666666, "bike_id": "c8a6e5b5749e39b0ff0d8ee21c80f692", "is_disabled": 0, "lon": -77.0222255, "is_reserved": 0, "fusion_lat": 0.0, "type": "electric_scooter"}, {"fusion_lon": 0.0, "name": "754fb79adf1006d37709bb91d4610354", "rental_uris": {"android": "https://dc.lft.to/lastmile_qr_scan", "ios": "https://dc.lft.to/lastmile_qr_scan"}, "lat": 38.903245, "bike_id": "754fb79adf1006d37709bb91d4610354", "is_disabled": 0, "lon": -77.02608366666666, "is_reserved": 0, "fusion_lat": 0.0, "type": "electric_scooter"}, {"fusion_lon": 0.0, "name": "ecb4ba5e25d1dcf9f7e8da085b26c3c3", "rental_uris": {"android": "https://dc.lft.to/lastmile_qr_scan", "ios": "https://dc.lft.to/lastmile_qr_scan"}, "lat": 38.87498, "bike_id": "ecb4ba5e25d1dcf9f7e8da085b26c3c3", "is_disabled": 0, "lon": -76.99795583333334, "is_reserved": 0, "fusion_lat": 0.0, "type": "electric_scooter"},