{"data": {"bikes": [{"is_disabled": 0, "fusion_lon": 0.0, "fusion_lat": 0.0, "lat": 38.893904166666665, "type": "electric_scooter", "lon": -76.9499665, "bike_id": "3df51c0314b5121da075c98b1b5360b2", "rental_uris": {"android": "https://dc.lft.to/lastmile_qr_scan", "ios": "https://dc.lft.to/lastmile_qr_scan"}, "name": "3df51c0314b5121da075c98b1b5360b2", "is_reserved": 0}, {"is_disabled": 0, "fusion_lon": 0.0, "fusion_lat": 0.0, "lat": 38.91195716666667, "type": "electric_scooter", "lon": -77.03719033333333, "bike_id": "dfcfeaee4674d7111f20b6beaa9f6e7d", "rental_uris": {"android": "https://dc.lft.to/lastmile_qr_scan", "ios": "https://dc.lft.to/lastmile_qr_scan"}, "name": "dfcfeaee4674d7111f20b6beaa9f6e7d", "is_reserved": 0}, {"is_disabled": 0, "fusion_lon": 0.0, "fusion_lat": 0.0, "lat": 38.9258215, "type": "electric_scooter", "lon": -77.0320945, "bike_id": "ee8b17a5155975e18a0e58fe32b85c7f", "rental_uris": {"android": "https://dc.lft.to/lastmile_qr_scan", "ios": "https://dc.lft.to/lastmile_qr_scan"}, "name": "ee8b17a5155975e18a0e58fe32b85c7f", "is_reserved": 0}, {"is_disabled": 0, "fusion_lon": 0.0, "fusion_lat": 0.0, "lat": 38.90530483333333, "type": "electric_scooter", "lon": -77.06777916666667, "bike_id": "c13e5a54515ebbe8dda91fcb4d859fd6", "rental_uris": {"android": "https://dc.lft.to/lastmile_qr_scan", "ios": "https://dc.lft.to/lastmile_qr_scan"}, "name": "c13e5a54515ebbe8dda91fcb4d859fd6", "is_reserved": 0}, {"is_disabled": 0, "fusion_lon": 0.0, "fusion_lat": 0.0, "lat": 38.90845866666667, "type": "electric_scooter", "lon": -77.02061616666667, "bike_id": "0547f37d185f46d84c9c2a8bacbe03d4", "rental_uris": {"android": "https://dc.lft.to/lastmile_qr_scan", "ios": "https://dc.lft.to/lastmile_qr_scan"}, "name": "0547f37d185f46d84c9c2a8bacbe03d4", "is_reserved": 0}, {"is_disabled": 0, "fusion_lon": 0.0, "fusion_lat": 0.0, "lat": 38.90562633333333, "type": "electric_scooter", "lon": -77.04350383333333, "bike_id": "2b0b37bad1f235a0512dfabb394f2a3e", "rental_uris": {"android": "https://dc.lft.to/lastmile_qr_scan", "ios": "https://dc.lft.to/lastmile_qr_scan"}, "name": "2b0b37bad1f235a0512dfabb394f2a3e", "is_reserved": 0}, {"is_disabled": 0, "fusion_lon": 0.0, "fusion_lat": 0.0, "lat": 38.89782116666667, "type": "electric_scooter", "lon": -77.02902383333333, "bike_id": "debd7611891319b5d333486458e20675", "rental_uris": {"android": "https://dc.lft.to/lastmile_qr_scan", "ios": "https://dc.lft.to/lastmile_qr_scan"}, "name": "debd7611891319b5d333486458e20675", "is_reserved": 0}, {"is_disabled": 0, "fusion_lon": 0.0, "fusion_lat": 0.0, "lat": 38.936061, "type": "electric_scooter", "lon": -77.0586495, "bike_id": "93230c25eec83dc7dbc0fd86ffc0b940", "rental_uris": {"android": "https://dc.lft.to/lastmile_qr_scan", "ios": "https://dc.lft.to/lastmile_qr_scan"}, "name": "93230c25eec83dc7dbc0fd86ffc0b940", "is_reserved": 0}, {"is_disabled": 0, "fusion_lon": 0.0, "fusion_lat": 0.0, "lat": 38.912636666666664, "type": "electric_scooter", "lon": -77.03873966666667, "bike_id": "83681b740cdd4fd6bde17b27ee24e48f", "rental_uris": {"android": "https://dc.lft.to/lastmile_qr_scan", "ios": "https://dc.lft.to/lastmile_qr_scan"}, "name": "83681b740cdd4fd6bde17b27ee24e48f", "is_reserved": 0}, {"is_disabled": 0, "fusion_lon": 0.0, "fusion_lat": 0.0, "lat": 38.885936666666666, "type": "electric_scooter", "lon": -77.01765633333333, "bike_id": "c56eda05b700706a28d5253b7171d8b5", "rental_uris": {"android": "https://dc.lft.to/lastmile_qr_scan", "ios": "https://dc.lft.to/lastmile_qr_scan"}, "name": "c56eda05b700706a28d5253b7171d8b5", "is_reserved": 0}, {"is_disabled": 0, "fusion_lon": 0.0, "fusion_lat": 0.0, "lat": 38.92329016666667, "type": "electric_scooter", "lon": -77.0418575, "bike_id": "2fa7852a5eccb28e3c478b77eeade590", "rental_uris": {"android": "https://dc.lft.to/lastmile_qr_scan", "ios": "https://dc.lft.to/lastmile_qr_scan"}, "name": "2fa7852a5eccb28e3c478b77eeade590", "is_reserved": 0}, {"is_disabled": 0, "fusion_lon": 0.0, "fusion_lat": 0.0, "lat": 38.9006445, "type": "electric_scooter", "lon": -76.933893, "bike_id": "7900e09a3d6dfa19de0112059d5a11bd", "rental_uris": {"android": "https://dc.lft.to/lastmile_qr_scan", "ios": "https://dc.lft.to/lastmile_qr_scan"}, "name": "7900e09a3d6dfa19de0112059d5a11bd", "is_reserved": 0}, {"is_disabled": 0, "fusion_lon": 0.0, "fusion_lat": 0.0, "lat": 38.87896816666667, "type": "electric_scooter", "lon": -76.93525966666667, "bike_id": "e51525bbbb7b92e309bb2577e7b656c2", "rental_uris": {"android": "https://dc.lft.to/lastmile_qr_scan", "ios": "https://dc.lft.to/lastmile_qr_scan"}, "name": "e51525bbbb7b92e309bb2577e7b656c2", "is_reserved": 0}, {"is_disabled": 0, "fusion_lon": 0.0, "fusion_lat": 0.0, "lat": 38.91293533333333, "type": "electric_scooter", "lon": -77.0382765, "bike_id": "d89fc14d29ac6e7e915714fdbdd8ff22", "rental_uris": {"android": "https://dc.lft.to/lastmile_qr_scan", "ios": "https://dc.lft.to/lastmile_qr_scan"}, "name": "d89fc14d29ac6e7e915714fdbdd8ff22", "is_reserved": 0}, {"is_disabled": 0, "fusion_lon": 0.0, "fusion_lat": 0.0, "lat": 38.899595, "type": "electric_scooter", "lon": -77.05150166666667, "bike_id": "8fe30e199e37484fbb4b7b256d4e4ce2", "rental_uris": {"android": "https://dc.lft.to/lastmile_qr_scan", "ios": "https://dc.lft.to/lastmile_qr_scan"}, "name": "8fe30e199e37484fbb4b7b256d4e4ce2", "is_reserved": 0}, {"is_disabled": 0, "fusion_lon": 0.0, "fusion_lat": 0.0, "lat": 38.931116, "type": "electric_scooter", "lon": -77.0348415, "bike_id": "b098dc9939fb12d28ea819917557c20e", "rental_uris": {"android": "https://dc.lft.to/lastmile_qr_scan", "ios": "https://dc.lft.to/lastmile_qr_scan"}, "name": "b098dc9939fb12d28ea819917557c20e", "is_reserved": 0}, {"is_disabled": 0, "fusion_lon": 0.0, "fusion_lat": 0.0, "lat": 38.887202333333335, "type": "electric_scooter", "lon": -77.02835483333334, "bike_id": "d7a4665c70c14cc216a84d3e7228c5c2", "rental_uris": {"android": "https://dc.lft.to/lastmile_qr_scan", "ios": "https://dc.lft.to/lastmile_qr_scan"}, "name": "d7a4665c70c14cc216a84d3e7228c5c2", "is_reserved": 0}, {"is_disabled": 0, "fusion_lon": 0.0, "fusion_lat": 0.0, "lat": 38.932019833333335, "type": "electric_scooter", "lon": -77.036598, "bike_id": "abaf84dc3beb3fd97348c8ae6a803a24", "rental_uris": {"android": "https://dc.lft.to/lastmile_qr_scan", "ios": "https://dc.lft.to/lastmile_qr_scan"}, "name": "abaf84dc3beb3fd97348c8ae6a803a24", "is_reserved": 0}, {"is_disabled": 0, "fusion_lon": 0.0, "fusion_lat": 0.0, "lat": 38.89620716666667, "type": "electric_scooter", "lon": -76.99640383333333, "bike_id": "c0b83efd4100a10c8ef5d3c721ca4182", "rental_uris": {"android": "https://dc.lft.to/lastmile_qr_scan", "ios": "https://dc.lft.to/lastmile_qr_scan"}, "name": "c0b83efd4100a10c8ef5d3c721ca4182", "is_reserved": 0}, {"is_disabled": 0, "fusion_lon": 0.0, "fusion_lat": 0.0, "lat": 38.9127885, "type": "electric_scooter", "lon": -77.01400533333333, "bike_id": "6f3a860ad9dd571ff247c2cfde0888a8", "rental_uris": {"android": "https://dc.lft.to/lastmile_qr_scan", "ios": "https://dc.lft.to/lastmile_qr_scan"}, "name": "6f3a860ad9dd571ff247c2cfde0888a8", "is_reserved": 0}, {"is_disabled": 0, "fusion_lon": 0.0, "fusion_lat": 0.0, "lat": 38.918806833333335, "type": "electric_scooter", "lon": -77.04430566666667, "bike_id": "f207448c04da5d0791aac7df6aeb9bbf", "rental_uris": {"android": "https://dc.lft.to/lastmile_qr_scan", "ios": "https://dc.lft.to/lastmile_qr_scan"}, "name": "f207448c04da5d0791aac7df6aeb9bbf", "is_reserved": 0}, {"is_disabled": 0, "fusion_lon": 0.0, "fusion_lat": 0.0, "lat": 38.918718166666665, "type": "electric_bike", "lon": -76.96126316666667, "bike_id": "3c7c8157760c3f271a05d479eca5fb16", "rental_uris": {"android": "https://dc.lft.to/lastmile_qr_scan", "ios": "https://dc.lft.to/lastmile_qr_scan"}, "name": "3c7c8157760c3f271a05d479eca5fb16", "is_reserved": 0}, {"is_disabled": 0, "fusion_lon": 0.0, "fusion_lat": 0.0, "lat": 38.908142833333336, "type": "electric_scooter", "lon": -77.03391766666667, "bike_id": "09ad5509339797f7c3e855f7df950f93", "rental_uris": {"android": "https://dc.lft.to/lastmile_qr_scan", "ios": "https://dc.lft.to/lastmile_qr_scan"}, "name": "09ad5509339797f7c3e855f7df950f93", "is_reserved": 0}, {"is_disabled": 0, "fusion_lon": 0.0, "fusion_lat": 0.0, "lat": 38.947882166666666, "type": "electric_scooter", "lon": -77.0927575, "bike_id": "594373ee2a11da87e79644383c2bdcb3", "rental_uris": {"android": "https://dc.lft.to/lastmile_qr_scan", "ios": "https://dc.lft.to/lastmile_qr_scan"}, "name": "594373ee2a11da87e79644383c2bdcb3", "is_reserved": 0}, {"is_disabled": 0, "fusion_lon": 0.0, "fusion_lat": 0.0, "lat": 38.91919133333333, "type": "electric_scooter", "lon": -77.0342425, "bike_id": "76bf5c923f7b1fae293622cfcb1d039a", "rental_uris": {"android": "https://dc.lft.to/lastmile_qr_scan", "ios": "https://dc.lft.to/lastmile_qr_scan"}, "name": "76bf5c923f7b1fae293622cfcb1d039a", "is_reserved": 0}, {"is_disabled": 0, "fusion_lon": 0.0, "fusion_lat": 0.0, "lat": 38.920624833333335, "type": "electric_scooter", "lon": -77.01804116666666, "bike_id": "ed14a002b34b75fc049c3f20f2c2e0b0", "rental_uris": {"android": "https://dc.lft.to/lastmile_qr_scan", "ios": "https://dc.lft.to/lastmile_qr_scan"}, "name": "ed14a002b34b75fc049c3f20f2c2e0b0", "is_reserved": 0}, {"is_disabled": 0, "fusion_lon": 0.0, "fusion_lat": 0.0, "lat": 38.86581233333333, "type": "electric_scooter", "lon": -76.99053066666667, "bike_id": "173d6ce1fe1d0d6fdc6444efefd1d39f", "rental_uris": {"android": "https://dc.lft.to/lastmile_qr_scan", "ios": "https://dc.lft.to/lastmile_qr_scan"}, "name": "173d6ce1fe1d0d6fdc6444efefd1d39f", "is_reserved": 0}, {"is_disabled": 0, "fusion_lon": 0.0, "fusion_lat": 0.0, "lat": 38.90523183333333, "type": "electric_scooter", "lon": -77.04669433333333, "bike_id": "a847acba25013ee5d40abb6c4b173bfa", "rental_uris": {"android": "https://dc.lft.to/lastmile_qr_scan", "ios": "https://dc.lft.to/lastmile_qr_scan"}, "name": "a847acba25013ee5d40abb6c4b173bfa", "is_reserved": 0}, {"is_disabled": 0, "fusion_lon": 0.0, "fusion_lat": 0.0, "lat": 38.919188166666665, "type": "electric_scooter", "lon": -77.03425583333333, "bike_id": "80804937612458d72c1e69e10141ae32", "rental_uris": {"android": "https://dc.lft.to/lastmile_qr_scan", "ios": "https://dc.lft.to/lastmile_qr_scan"}, "name": "80804937612458d72c1e69e10141ae32", "is_reserved": 0}, {"is_disabled": 0, "fusion_lon": 0.0, "fusion_lat": 0.0, "lat": 38.90176733333333, "type": "electric_scooter", "lon": -76.9282555, "bike_id": "a97e809095beff6f5d304207c9a82f29", "rental_uris": {"android": "https://dc.lft.to/lastmile_qr_scan", "ios": "https://dc.lft.to/lastmile_qr_scan"}, "name": "a97e809095beff6f5d304207c9a82f29", "is_reserved": 0}, {"is_disabled": 0, "fusion_lon": 0.0, "fusion_lat": 0.0, "lat": 38.91105116666667, "type": "electric_scooter", "lon": -77.038306, "bike_id": "38989afbd2e80ee4625021d5792d189b", "rental_uris": {"android": "https://dc.lft.to/lastmile_qr_scan", "ios": "https://dc.lft.to/lastmile_qr_scan"}, "name": "38989afbd2e80ee4625021d5792d189b", "is_reserved": 0}, {"is_disabled": 0, "fusion_lon": 0.0, "fusion_lat": 0.0, "lat": 38.927529166666666, "type": "electric_scooter", "lon": -77.07593983333334, "bike_id": "696b5524421bac92359ecdcdcc978cc9", "rental_uris": {"android": "https://dc.lft.to/lastmile_qr_scan", "ios": "https://dc.lft.to/lastmile_qr_scan"}, "name": "696b5524421bac92359ecdcdcc978cc9", "is_reserved": 0}, {"is_disabled": 0, "fusion_lon": 0.0, "fusion_lat": 0.0, "lat": 38.959611333333335, "type": "electric_scooter", "lon": -77.021184, "bike_id": "9f27193ff2babe078bead81c6a3c6197", "rental_uris": {"android": "https://dc.lft.to/lastmile_qr_scan", "ios": "https://dc.lft.to/lastmile_qr_scan"}, "name": "9f27193ff2babe078bead81c6a3c6197", "is_reserved": 0}, {"is_disabled": 0, "fusion_lon": 0.0, "fusion_lat": 0.0, "lat": 38.921185, "type": "electric_scooter", "lon": -77.01212433333333, "bike_id": "473227493f6aa55ad099d5c5b2a0027f", "rental_uris": {"android": "https://dc.lft.to/lastmile_qr_scan", "ios": "https://dc.lft.to/lastmile_qr_scan"}, "name": "473227493f6aa55ad099d5c5b2a0027f", "is_reserved": 0}, {"is_disabled": 0, "fusion_lon": 0.0, "fusion_lat": 0.0, "lat": 38.907627, "type": "electric_scooter", "lon": -77.03585566666666, "bike_id": "a60df2855fe45b80e49e93da9cde7984", "rental_uris": {"android": "https://dc.lft.to/lastmile_qr_scan", "ios": "https://dc.lft.to/lastmile_qr_scan"}, "name": "a60df2855fe45b80e49e93da9cde7984", "is_reserved": 0}, {"is_disabled": 0, "fusion_lon": 0.0, "fusion_lat": 0.0, "lat": 38.95633983333333, "type": "electric_scooter", "lon": -77.02984, "bike_id": "efe55ef92e902002e72fd6ffecb46c45", "rental_uris": {"android": "https://dc.lft.to/lastmile_qr_scan", "ios": "https://dc.lft.to/lastmile_qr_scan"}, "name": "efe55ef92e902002e72fd6ffecb46c45", "is_reserved": 0}, {"is_disabled": 0, "fusion_lon": 0.0, "fusion_lat": 0.0, "lat": 38.883853, "type": "electric_bike", "lon": -77.0309185, "bike_id": "385b15866afbd9d1b2fb58f315996383", "rental_uris": {"android": "https://dc.lft.to/lastmile_qr_scan", "ios": "https://dc.lft.to/lastmile_qr_scan"}, "name": "385b15866afbd9d1b2fb58f315996383", "is_reserved": 0}, {"is_disabled": 0, "fusion_lon": 0.0, "fusion_lat": 0.0, "lat": 38.93556533333334, "type": "electric_scooter", "lon": -77.08199183333333, "bike_id": "2a73d2f38d4b3a1aef66fae458ee593c", "rental_uris": {"android": "https://dc.lft.to/lastmile_qr_scan", "ios": "https://dc.lft.to/lastmile_qr_scan"}, "name": "2a73d2f38d4b3a1aef66fae458ee593c", "is_reserved": 0}, {"is_disabled": 0, "fusion_lon": 0.0, "fusion_lat": 0.0, "lat": 38.89502483333333, "type": "electric_scooter", "lon": -77.01608116666667, "bike_id": "44a2f9508f21c8c1a4789f25567fad26", "rental_uris": {"android": "https://dc.lft.to/lastmile_qr_scan", "ios": "https://dc.lft.to/lastmile_qr_scan"}, "name": "44a2f9508f21c8c1a4789f25567fad26", "is_reserved": 0}, {"is_disabled": 0, "fusion_lon": 0.0, "fusion_lat": 0.0, "lat": 38.8460565, "type": "electric_bike", "lon": -76.9687785, "bike_id": "e6f268bbbd85919f3559ab35a3ba4fbc", "rental_uris": {"android": "https://dc.lft.to/lastmile_qr_scan", "ios": "https://dc.lft.to/lastmile_qr_scan"}, "name": "e6f268bbbd85919f3559ab35a3ba4fbc", "is_reserved": 0}, {"is_disabled": 0, "fusion_lon": 0.0, "fusion_lat": 0.0, "lat": 38.8990795, "type": "electric_scooter", "lon": -76.933911, "bike_id": "a77155030cd7c411f6e3b199a740ebc6", "rental_uris": {"android": "https://dc.lft.to/lastmile_qr_scan", "ios": "https://dc.lft.to/lastmile_qr_scan"}, "name": "a77155030cd7c411f6e3b199a740ebc6", "is_reserved": 0}, {"is_disabled": 0, "fusion_lon": 0.0, "fusion_lat": 0.0, "lat": 38.930286333333335, "type": "electric_scooter", "lon": -77.0194745, "bike_id": "9768859c283af31db90578076885ebf7", "rental_uris": {"android": "https://dc.lft.to/lastmile_qr_scan", "ios": "https://dc.lft.to/lastmile_qr_scan"}, "name": "9768859c283af31db90578076885ebf7", "is_reserved": 0}, {"is_disabled": 0, "fusion_lon": 0.0, "fusion_lat": 0.0, "lat": 38.9195225, "type": "electric_scooter", "lon": -77.01656783333334, "bike_id": "ca94dfb822f76a6269e999304c6c2075", "rental_uris": {"android": "https://dc.lft.to/lastmile_qr_scan", "ios": "https://dc.lft.to/lastmile_qr_scan"}, "name": "ca94dfb822f76a6269e999304c6c2075", "is_reserved": 0}, {"is_disabled": 0, "fusion_lon": 0.0, "fusion_lat": 0.0, "lat": 38.90974466666667, "type": "electric_scooter", "lon": -77.0386725, "bike_id": "bcbc4b0abbc07839751e0ca8970fc507", "rental_uris": {"android": "https://dc.lft.to/lastmile_qr_scan", "ios": "https://dc.lft.to/lastmile_qr_scan"}, "name": "bcbc4b0abbc07839751e0ca8970fc507", "is_reserved": 0}, {"is_disabled": 0, "fusion_lon": 0.0, "fusion_lat": 0.0, "lat": 38.91116933333333, "type": "electric_scooter", "lon": -77.04475333333333, "bike_id": "cdab4e39f506307acc053433a6616bbf", "rental_uris": {"android": "https://dc.lft.to/lastmile_qr_scan", "ios": "https://dc.lft.to/lastmile_qr_scan"}, "name": "cdab4e39f506307acc053433a6616bbf", "is_reserved": 0}, {"is_disabled": 0, "fusion_lon": 0.0, "fusion_lat": 0.0, "lat": 38.89511783333333, "type": "electric_bike", "lon": -76.94945616666666, "bike_id": "518bf8bfc9cd7a4433a564ed89224dc8", "rental_uris": {"android": "https://dc.lft.to/lastmile_qr_scan", "ios": "https://dc.lft.to/lastmile_qr_scan"}, "name": "518bf8bfc9cd7a4433a564ed89224dc8", "is_reserved": 0}, {"is_disabled": 0, "fusion_lon": 0.0, "fusion_lat": 0.0, "lat": 38.885769833333335, "type": "electric_scooter", "lon": -77.03109766666667, "bike_id": "eb0dbacaa4db381f2a95627589a5681f", "rental_uris": {"android": "https://dc.lft.to/lastmile_qr_scan", "ios": "https://dc.lft.to/lastmile_qr_scan"}, "name": "eb0dbacaa4db381f2a95627589a5681f", "is_reserved": 0}, {"is_disabled": 0, "fusion_lon": 0.0, "fusion_lat": 0.0, "lat": 38.93227233333333, "type": "electric_scooter", "lon": -77.02028433333334, "bike_id": "54a5b09527dfc49ecb81fe5bd81e1452", "rental_uris": {"android": "https://dc.lft.to/lastmile_qr_scan", "ios": "https://dc.lft.to/lastmile_qr_scan"}, "name": "54a5b09527dfc49ecb81fe5bd81e1452", "is_reserved": 0}, {"is_disabled": 0, "fusion_lon": 0.0, "fusion_lat": 0.0, "lat": 38.898509833333335, "type": "electric_scooter", "lon": -77.03960833333333, "bike_id": "c681d5c6f925ba08cb6d6906e44a5c61", "rental_uris": {"android": "https://dc.lft.to/lastmile_qr_scan", "ios": "https://dc.lft.to/lastmile_qr_scan"}, "name": "c681d5c6f925ba08cb6d6906e44a5c61", "is_reserved": 0}, {"is_disabled": 0, "fusion_lon": 0.0, "fusion_lat": 0.0, "lat": 38.8633455, "type": "electric_bike", "lon": -76.98720116666667, "bike_id": "563d67c94267914630be13437ed41c28", "rental_uris": {"android": "https://dc.lft.to/lastmile_qr_scan", "ios": "https://dc.lft.to/lastmile_qr_scan"}, "name": "563d67c94267914630be13437ed41c28", "is_reserved": 0}, {"is_disabled": 0, "fusion_lon": 0.0, "fusion_lat": 0.0, "lat": 38.919555833333334, "type": "electric_scooter", "lon": -77.00071716666666, "bike_id": "d55a7e206c0967251d09d72ee549b76e", "rental_uris": {"android": "https://dc.lft.to/lastmile_qr_scan", "ios": "https://dc.lft.to/lastmile_qr_scan"}, "name": "d55a7e206c0967251d09d72ee549b76e", "is_reserved": 0}, {"is_disabled": 0, "fusion_lon": 0.0, "fusion_lat": 0.0, "lat": 38.9005985, "type": "electric_scooter", "lon": -76.9347265, "bike_id": "31758b60d0f506b4cf7c7fb1cac95c79", "rental_uris": {"android": "https://dc.lft.to/lastmile_qr_scan", "ios": "https://dc.lft.to/lastmile_qr_scan"}, "name": "31758b60d0f506b4cf7c7fb1cac95c79", "is_reserved": 0}, {"is_disabled": 0, "fusion_lon": 0.0, "fusion_lat": 0.0, "lat": 38.906915833333336, "type": "electric_bike", "lon": -76.9520235, "bike_id": "1b7c3a56f6b541cd4cf69119a57f9096", "rental_uris": {"android": "https://dc.lft.to/lastmile_qr_scan", "ios": "https://dc.lft.to/lastmile_qr_scan"}, "name": "1b7c3a56f6b541cd4cf69119a57f9096", "is_reserved": 0}, {"is_disabled": 0, "fusion_lon": 0.0, "fusion_lat": 0.0, "lat": 38.9073355, "type": "electric_scooter", "lon": -77.02981833333334, "bike_id": "574664d45bff4fca2737f93b2bf376fb", "rental_uris": {"android": "https://dc.lft.to/lastmile_qr_scan", "ios": "https://dc.lft.to/lastmile_qr_scan"}, "name": "574664d45bff4fca2737f93b2bf376fb", "is_reserved": 0}, {"is_disabled": 0, "fusion_lon": 0.0, "fusion_lat": 0.0, "lat": 38.9028795, "type": "electric_scooter", "lon": -77.04881833333333, "bike_id": "7ca68045e042e020f0a44ccaeb731b4e", "rental_uris": {"android": "https://dc.lft.to/lastmile_qr_scan", "ios": "https://dc.lft.to/lastmile_qr_scan"}, "name": "7ca68045e042e020f0a44ccaeb731b4e", "is_reserved": 0}, {"is_disabled": 0, "fusion_lon": 0.0, "fusion_lat": 0.0, "lat": 38.91463666666667, "type": "electric_scooter", "lon": -76.984479, "bike_id": "2c1ac9cbc0bcad637df93b710aac4da9", "rental_uris": {"android": "https://dc.lft.to/lastmile_qr_scan", "ios": "https://dc.lft.to/lastmile_qr_scan"}, "name": "2c1ac9cbc0bcad637df93b710aac4da9", "is_reserved": 0}, {"is_disabled": 0, "fusion_lon": 0.0, "fusion_lat": 0.0, "lat": 38.940687, "type": "electric_scooter", "lon": -77.02882283333334, "bike_id": "b8a5acafaf8d6dfa0ef59da9718b1eda", "rental_uris": {"android": "https://dc.lft.to/lastmile_qr_scan", "ios": "https://dc.lft.to/lastmile_qr_scan"}, "name": "b8a5acafaf8d6dfa0ef59da9718b1eda", "is_reserved": 0}, {"is_disabled": 0, "fusion_lon": 0.0, "fusion_lat": 0.0, "lat": 38.8531925, "type": "electric_bike", "lon": -77.05337483333334, "bike_id": "585aa8256ef28c368920cedc265f5693", "rental_uris": {"android": "https://dc.lft.to/lastmile_qr_scan", "ios": "https://dc.lft.to/lastmile_qr_scan"}, "name": "585aa8256ef28c368920cedc265f5693", "is_reserved": 0}, {"is_disabled": 0, "fusion_lon": 0.0, "fusion_lat": 0.0, "lat": 38.89527366666667, "type": "electric_scooter", "lon": -77.04851, "bike_id": "ff2e04c4fee448132b0dba0587fd337f", "rental_uris": {"android": "https://dc.lft.to/lastmile_qr_scan", "ios": "https://dc.lft.to/lastmile_qr_scan"}, "name": "ff2e04c4fee448132b0dba0587fd337f", "is_reserved": 0}, {"is_disabled": 0, "fusion_lon": 0.0, "fusion_lat": 0.0, "lat": 38.939590833333334, "type": "electric_bike", "lon": -77.36096733333333, "bike_id": "e075c67fb65485589d4f0eaeda55e77c", "rental_uris": {"android": "https://dc.lft.to/lastmile_qr_scan", "ios": "https://dc.lft.to/lastmile_qr_scan"}, "name": "e075c67fb65485589d4f0eaeda55e77c", "is_reserved": 0}, {"is_disabled": 0, "fusion_lon": 0.0, "fusion_lat": 0.0, "lat": 38.92114633333333, "type": "electric_scooter", "lon": -77.017661, "bike_id": "e0a4fc18ef23a3bda0fe0a5ca3640b0a", "rental_uris": {"android": "https://dc.lft.to/lastmile_qr_scan", "ios": "https://dc.lft.to/lastmile_qr_scan"}, "name": "e0a4fc18ef23a3bda0fe0a5ca3640b0a", "is_reserved": 0}, {"is_disabled": 0, "fusion_lon": 0.0, "fusion_lat": 0.0, "lat": 38.92567183333333, "type": "electric_scooter", "lon": -77.08058316666667, "bike_id": "88b120c97bf8f2575c57ff9d88062164", "rental_uris": {"android": "https://dc.lft.to/lastmile_qr_scan", "ios": "https://dc.lft.to/lastmile_qr_scan"}, "name": "88b120c97bf8f2575c57ff9d88062164", "is_reserved": 0}, {"is_disabled": 0, "fusion_lon": 0.0, "fusion_lat": 0.0, "lat": 38.87757766666667, "type": "electric_bike", "lon": -76.97998066666666, "bike_id": "9c90587fa178be24b36f618926b5031c", "rental_uris": {"android": "https://dc.lft.to/lastmile_qr_scan", "ios": "https://dc.lft.to/lastmile_qr_scan"}, "name": "9c90587fa178be24b36f618926b5031c", "is_reserved": 0}, {"is_disabled": 0, "fusion_lon": 0.0, "fusion_lat": 0.0, "lat": 38.924637833333335, "type": "electric_scooter", "lon": -77.0786445, "bike_id": "e95ae3659cf72a4d7122c274917b799f", "rental_uris": {"android": "https://dc.lft.to/lastmile_qr_scan", "ios": "https://dc.lft.to/lastmile_qr_scan"}, "name": "e95ae3659cf72a4d7122c274917b799f", "is_reserved": 0}, {"is_disabled": 0, "fusion_lon": 0.0, "fusion_lat": 0.0, "lat": 38.90576183333334, "type": "electric_scooter", "lon": -77.05589183333333, "bike_id": "512c2141c96c95e141db2fd7212451a0", "rental_uris": {"android": "https://dc.lft.to/lastmile_qr_scan", "ios": "https://dc.lft.to/lastmile_qr_scan"}, "name": "512c2141c96c95e141db2fd7212451a0", "is_reserved": 0}, {"is_disabled": 0, "fusion_lon": 0.0, "fusion_lat": 0.0, "lat": 38.92282, "type": "electric_scooter", "lon": -77.0446765, "bike_id": "2442043e71524411e873f3b7a48ff393", "rental_uris": {"android": "https://dc.lft.to/lastmile_qr_scan", "ios": "https://dc.lft.to/lastmile_qr_scan"}, "name": "2442043e71524411e873f3b7a48ff393", "is_reserved": 0}, {"is_disabled": 0, "fusion_lon": 0.0, "fusion_lat": 0.0, "lat": 38.9166625, "type": "electric_scooter", "lon": -77.02796033333334, "bike_id": "848603fc91262915e75e38da9376495d", "rental_uris": {"android": "https://dc.lft.to/lastmile_qr_scan", "ios": "https://dc.lft.to/lastmile_qr_scan"}, "name": "848603fc91262915e75e38da9376495d", "is_reserved": 0}, {"is_disabled": 0, "fusion_lon": 0.0, "fusion_lat": 0.0, "lat": 38.907118833333335, "type": "electric_scooter", "lon": -77.02716266666667, "bike_id": "06a3acb61349499e6b167433d0c98141", "rental_uris": {"android": "https://dc.lft.to/lastmile_qr_scan", "ios": "https://dc.lft.to/lastmile_qr_scan"}, "name": "06a3acb61349499e6b167433d0c98141", "is_reserved": 0}, {"is_disabled": 0, "fusion_lon": 0.0, "fusion_lat": 0.0, "lat": 38.845065166666664, "type": "electric_bike", "lon": -76.97211566666667, "bike_id": "23193cd431be520b5702470b4834c545", "rental_uris": {"android": "https://dc.lft.to/lastmile_qr_scan", "ios": "https://dc.lft.to/lastmile_qr_scan"}, "name": "23193cd431be520b5702470b4834c545", "is_reserved": 0}, {"is_disabled": 0, "fusion_lon": 0.0, "fusion_lat": 0.0, "lat": 38.936304666666665, "type": "electric_scooter", "lon": -77.0246355, "bike_id": "765ae7cdaa23233a3ab39f726c1633ab", "rental_uris": {"android": "https://dc.lft.to/lastmile_qr_scan", "ios": "https://dc.lft.to/lastmile_qr_scan"}, "name": "765ae7cdaa23233a3ab39f726c1633ab", "is_reserved": 0}, {"is_disabled": 0, "fusion_lon": 0.0, "fusion_lat": 0.0, "lat": 38.91913516666666, "type": "electric_scooter", "lon": -77.03388983333333, "bike_id": "7500341cc6a7c3844c6b4389f53a8713", "rental_uris": {"android": "https://dc.lft.to/lastmile_qr_scan", "ios": "https://dc.lft.to/lastmile_qr_scan"}, "name": "7500341cc6a7c3844c6b4389f53a8713", "is_reserved": 0}, {"is_disabled": 0, "fusion_lon": 0.0, "fusion_lat": 0.0, "lat": 38.895191833333335, "type": "electric_scooter", "lon": -77.010908, "bike_id": "f5616dc5653af0215f5201fedcd9c8c8", "rental_uris": {"android": "https://dc.lft.to/lastmile_qr_scan", "ios": "https://dc.lft.to/lastmile_qr_scan"}, "name": "f5616dc5653af0215f5201fedcd9c8c8", "is_reserved": 0}, {"is_disabled": 0, "fusion_lon": 0.0, "fusion_lat": 0.0, "lat": 38.97256183333333, "type": "electric_bike", "lon": -76.99170633333334, "bike_id": "1b15ab78b3bd7827980ae103dc75bcf4", "rental_uris": {"android": "https://dc.lft.to/lastmile_qr_scan", "ios": "https://dc.lft.to/lastmile_qr_scan"}, "name": "1b15ab78b3bd7827980ae103dc75bcf4", "is_reserved": 0}, {"is_disabled": 0, "fusion_lon": 0.0, "fusion_lat": 0.0, "lat": 38.91767316666667, "type": "electric_scooter", "lon": -77.0474845, "bike_id": "e439951bd6b3c995d1685e9246bf7ac1", "rental_uris": {"android": "https://dc.lft.to/lastmile_qr_scan", "ios": "https://dc.lft.to/lastmile_qr_scan"}, "name": "e439951bd6b3c995d1685e9246bf7ac1", "is_reserved": 0}, {"is_disabled": 0, "fusion_lon": 0.0, "fusion_lat": 0.0, "lat": 38.89741516666667, "type": "electric_scooter", "lon": -77.00998666666666, "bike_id": "d1e357c817ee95661e44566de7cb21f2", "rental_uris": {"android": "https://dc.lft.to/lastmile_qr_scan", "ios": "https://dc.lft.to/lastmile_qr_scan"}, "name": "d1e357c817ee95661e44566de7cb21f2", "is_reserved": 0}, {"is_disabled": 0, "fusion_lon": 0.0, "fusion_lat": 0.0, "lat": 38.934693333333335, "type": "electric_scooter", "lon": -77.06882583333334, "bike_id": "c5f1b63f37c34ce80d9f88c3121f7bda", "rental_uris": {"android": "https://dc.lft.to/lastmile_qr_scan", "ios": "https://dc.lft.to/lastmile_qr_scan"}, "name": "c5f1b63f37c34ce80d9f88c3121f7bda", "is_reserved": 0}, {"is_disabled": 0, "fusion_lon": 0.0, "fusion_lat": 0.0, "lat": 38.89429033333333, "type": "electric_scooter", "lon": -77.01105066666666, "bike_id": "cc93e7965c131c795a9373b7fdd7beef", "rental_uris": {"android": "https://dc.lft.to/lastmile_qr_scan", "ios": "https://dc.lft.to/lastmile_qr_scan"}, "name": "cc93e7965c131c795a9373b7fdd7beef", "is_reserved": 0}, {"is_disabled": 0, "fusion_lon": 0.0, "fusion_lat": 0.0, "lat": 38.839317666666666, "type": "electric_bike", "lon": -77.07903066666667, "bike_id": "ede3a472b93b5a1bddafb3f4c11459bb", "rental_uris": {"android": "https://dc.lft.to/lastmile_qr_scan", "ios": "https://dc.lft.to/lastmile_qr_scan"}, "name": "ede3a472b93b5a1bddafb3f4c11459bb", "is_reserved": 0}, {"is_disabled": 0, "fusion_lon": 0.0, "fusion_lat": 0.0, "lat": 38.90380066666667, "type": "electric_scooter", "lon": -77.0164175, "bike_id": "9dfd9ad790d467b61c94f84ee762be32", "rental_uris": {"android": "https://dc.lft.to/lastmile_qr_scan", "ios": "https://dc.lft.to/lastmile_qr_scan"}, "name": "9dfd9ad790d467b61c94f84ee762be32", "is_reserved": 0}, {"is_disabled": 0, "fusion_lon": 0.0, "fusion_lat": 0.0, "lat": 38.85810266666667, "type": "electric_scooter", "lon": -76.98964016666666, "bike_id": "6840ba34d3981a8bdbadefa0f5a767d5", "rental_uris": {"android": "https://dc.lft.to/lastmile_qr_scan", "ios": "https://dc.lft.to/lastmile_qr_scan"}, "name": "6840ba34d3981a8bdbadefa0f5a767d5", "is_reserved": 0}, {"is_disabled": 0, "fusion_lon": 0.0, "fusion_lat": 0.0, "lat": 38.91807433333334, "type": "electric_scooter", "lon": -77.04031733333333, "bike_id": "93593b491d7a357b2e2932de7cbba40b", "rental_uris": {"android": "https://dc.lft.to/lastmile_qr_scan", "ios": "https://dc.lft.to/lastmile_qr_scan"}, "name": "93593b491d7a357b2e2932de7cbba40b", "is_reserved": 0}, {"is_disabled": 0, "fusion_lon": 0.0, "fusion_lat": 0.0, "lat": 38.916884, "type": "electric_scooter", "lon": -77.02851833333334, "bike_id": "8f0aebc7a3c676ba84eae690d74c3111", "rental_uris": {"android": "https://dc.lft.to/lastmile_qr_scan", "ios": "https://dc.lft.to/lastmile_qr_scan"}, "name": "8f0aebc7a3c676ba84eae690d74c3111", "is_reserved": 0}, {"is_disabled": 0, "fusion_lon": 0.0, "fusion_lat": 0.0, "lat": 38.962162666666664, "type": "electric_scooter", "lon": -77.02796116666667, "bike_id": "8859b4390b33927bc774fb81af417f06", "rental_uris": {"android": "https://dc.lft.to/lastmile_qr_scan", "ios": "https://dc.lft.to/lastmile_qr_scan"}, "name": "8859b4390b33927bc774fb81af417f06", "is_reserved": 0}, {"is_disabled": 0, "fusion_lon": 0.0, "fusion_lat": 0.0, "lat": 38.94281383333333, "type": "electric_scooter", "lon": -77.03632833333333, "bike_id": "5fbab6c8a4f404f50583cfcaf7e0560e", "rental_uris": {"android": "https://dc.lft.to/lastmile_qr_scan", "ios": "https://dc.lft.to/lastmile_qr_scan"}, "name": "5fbab6c8a4f404f50583cfcaf7e0560e", "is_reserved": 0}, {"is_disabled": 0, "fusion_lon": 0.0, "fusion_lat": 0.0, "lat": 38.86514583333334, "type": "electric_scooter", "lon": -76.97331866666667, "bike_id": "e74e9ce643ae387a584fc8786ccfdb6d", "rental_uris": {"android": "https://dc.lft.to/lastmile_qr_scan", "ios": "https://dc.lft.to/lastmile_qr_scan"}, "name": "e74e9ce643ae387a584fc8786ccfdb6d", "is_reserved": 0}, {"is_disabled": 0, "fusion_lon": 0.0, "fusion_lat": 0.0, "lat": 38.8948205, "type": "electric_scooter", "lon": -76.99522166666667, "bike_id": "df487863cdb87ada0abac14c841b3127", "rental_uris": {"android": "https://dc.lft.to/lastmile_qr_scan", "ios": "https://dc.lft.to/lastmile_qr_scan"}, "name": "df487863cdb87ada0abac14c841b3127", "is_reserved": 0}, {"is_disabled": 0, "fusion_lon": 0.0, "fusion_lat": 0.0, "lat": 38.96117, "type": "electric_scooter", "lon": -77.0281715, "bike_id": "c572da60697d39f327f3e4f987154b58", "rental_uris": {"android": "https://dc.lft.to/lastmile_qr_scan", "ios": "https://dc.lft.to/lastmile_qr_scan"}, "name": "c572da60697d39f327f3e4f987154b58", "is_reserved": 0}, {"is_disabled": 0, "fusion_lon": 0.0, "fusion_lat": 0.0, "lat": 38.905417166666666, "type": "electric_scooter", "lon": -77.050387, "bike_id": "3760dfa2c4502154fc6a8e938fc78c39", "rental_uris": {"android": "https://dc.lft.to/lastmile_qr_scan", "ios": "https://dc.lft.to/lastmile_qr_scan"}, "name": "3760dfa2c4502154fc6a8e938fc78c39", "is_reserved": 0}, {"is_disabled": 0, "fusion_lon": 0.0, "fusion_lat": 0.0, "lat": 38.926701666666666, "type": "electric_scooter", "lon": -77.026868, "bike_id": "2b1842301d550452b16f3f3d90351c65", "rental_uris": {"android": "https://dc.lft.to/lastmile_qr_scan", "ios": "https://dc.lft.to/lastmile_qr_scan"}, "name": "2b1842301d550452b16f3f3d90351c65", "is_reserved": 0}, {"is_disabled": 0, "fusion_lon": 0.0, "fusion_lat": 0.0, "lat": 38.921102166666664, "type": "electric_scooter", "lon": -77.01752783333333, "bike_id": "8ead590492f27b06255a5ca6e09320b1", "rental_uris": {"android": "https://dc.lft.to/lastmile_qr_scan", "ios": "https://dc.lft.to/lastmile_qr_scan"}, "name": "8ead590492f27b06255a5ca6e09320b1", "is_reserved": 0}, {"is_disabled": 0, "fusion_lon": 0.0, "fusion_lat": 0.0, "lat": 38.91268433333333, "type": "electric_scooter", "lon": -77.02226133333333, "bike_id": "e8a7a1ea8c251e66e5d7a9b92c27f65f", "rental_uris": {"android": "https://dc.lft.to/lastmile_qr_scan", "ios": "https://dc.lft.to/lastmile_qr_scan"}, "name": "e8a7a1ea8c251e66e5d7a9b92c27f65f", "is_reserved": 0}, {"is_disabled": 0, "fusion_lon": 0.0, "fusion_lat": 0.0, "lat": 38.892849166666664, "type": "electric_scooter", "lon": -77.0213595, "bike_id": "56bb72e9c5b1728bedcd1276dc18e1a7", "rental_uris": {"android": "https://dc.lft.to/lastmile_qr_scan", "ios": "https://dc.lft.to/lastmile_qr_scan"}, "name": "56bb72e9c5b1728bedcd1276dc18e1a7", "is_reserved": 0}, {"is_disabled": 0, "fusion_lon": 0.0, "fusion_lat": 0.0, "lat": 38.949865333333335, "type": "electric_scooter", "lon": -77.0270565, "bike_id": "52a9781b1313da0d8174ebf7e01dfaa8", "rental_uris": {"android": "https://dc.lft.to/lastmile_qr_scan", "ios": "https://dc.lft.to/lastmile_qr_scan"}, "name": "52a9781b1313da0d8174ebf7e01dfaa8", "is_reserved": 0}, {"is_disabled": 0, "fusion_lon": 0.0, "fusion_lat": 0.0, "lat": 38.85987866666667, "type": "electric_bike", "lon": -76.9705205, "bike_id": "d7836facadc877bce563a725bfa0f0b9", "rental_uris": {"android": "https://dc.lft.to/lastmile_qr_scan", "ios": "https://dc.lft.to/lastmile_qr_scan"}, "name": "d7836facadc877bce563a725bfa0f0b9", "is_reserved": 0}, {"is_disabled": 0, "fusion_lon": 0.0, "fusion_lat": 0.0, "lat": 38.9945515, "type": "electric_bike", "lon": -76.90817, "bike_id": "fcee4003c4f87a47286da8a8b52a7023", "rental_uris": {"android": "https://dc.lft.to/lastmile_qr_scan", "ios": "https://dc.lft.to/lastmile_qr_scan"}, "name": "fcee4003c4f87a47286da8a8b52a7023", "is_reserved": 0}, {"is_disabled": 0, "fusion_lon": 0.0, "fusion_lat": 0.0, "lat": 38.868921, "type": "electric_scooter", "lon": -76.98316433333333, "bike_id": "d10a67ff70f53115d8471520f3cb416c", "rental_uris": {"android": "https://dc.lft.to/lastmile_qr_scan", "ios": "https://dc.lft.to/lastmile_qr_scan"}, "name": "d10a67ff70f53115d8471520f3cb416c", "is_reserved": 0}, {"is_disabled": 0, "fusion_lon": 0.0, "fusion_lat": 0.0, "lat": 38.91701283333333, "type": "electric_scooter", "lon": -77.04176683333333, "bike_id": "f65948b3efb57414f2fd85fc2a060cac", "rental_uris": {"android": "https://dc.lft.to/lastmile_qr_scan", "ios": "https://dc.lft.to/lastmile_qr_scan"}, "name": "f65948b3efb57414f2fd85fc2a060cac", "is_reserved": 0}, {"is_disabled": 0, "fusion_lon": 0.0, "fusion_lat": 0.0, "lat": 38.9146485, "type": "electric_scooter", "lon": -77.0279685, "bike_id": "c4fb32f598849db7262dc0c1cecd47bf", "rental_uris": {"android": "https://dc.lft.to/lastmile_qr_scan", "ios": "https://dc.lft.to/lastmile_qr_scan"}, "name": "c4fb32f598849db7262dc0c1cecd47bf", "is_reserved": 0}, {"is_disabled": 0, "fusion_lon": 0.0, "fusion_lat": 0.0, "lat": 38.90575166666667, "type": "electric_scooter", "lon": -77.02205416666666, "bike_id": "b14d27f4d9516f687e3437c299ba92ce", "rental_uris": {"android": "https://dc.lft.to/lastmile_qr_scan", "ios": "https://dc.lft.to/lastmile_qr_scan"}, "name": "b14d27f4d9516f687e3437c299ba92ce", "is_reserved": 0}, {"is_disabled": 0, "fusion_lon": 0.0, "fusion_lat": 0.0, "lat": 38.88370833333333, "type": "electric_scooter", "lon": -76.9856465, "bike_id": "6e7713a9501c05be4865048c9a76773d", "rental_uris": {"android": "https://dc.lft.to/lastmile_qr_scan", "ios": "https://dc.lft.to/lastmile_qr_scan"}, "name": "6e7713a9501c05be4865048c9a76773d", "is_reserved": 0}, {"is_disabled": 0, "fusion_lon": 0.0, "fusion_lat": 0.0, "lat": 38.92561583333333, "type": "electric_scooter", "lon": -77.022779, "bike_id": "998a636baf1e49e3340037a863af5c0e", "rental_uris": {"android": "https://dc.lft.to/lastmile_qr_scan", "ios": "https://dc.lft.to/lastmile_qr_scan"}, "name": "998a636baf1e49e3340037a863af5c0e", "is_reserved": 0}, {"is_disabled": 0, "fusion_lon": 0.0, "fusion_lat": 0.0, "lat": 38.91380233333334, "type": "electric_scooter", "lon": -77.0297215, "bike_id": "3b04d8d63d9e95daabd00fe12b0006d1", "rental_uris": {"android": "https://dc.lft.to/lastmile_qr_scan", "ios": "https://dc.lft.to/lastmile_qr_scan"}, "name": "3b04d8d63d9e95daabd00fe12b0006d1", "is_reserved": 0}, {"is_disabled": 0, "fusion_lon": 0.0, "fusion_lat": 0.0, "lat": 38.923831166666666, "type": "electric_scooter", "lon": -77.02762183333333, "bike_id": "017aa08e654968ea619e97f4f21d54d3", "rental_uris": {"android": "https://dc.lft.to/lastmile_qr_scan", "ios": "https://dc.lft.to/lastmile_qr_scan"}, "name": "017aa08e654968ea619e97f4f21d54d3", "is_reserved": 0}, {"is_disabled": 0, "fusion_lon": 0.0, "fusion_lat": 0.0, "lat": 38.8834545, "type": "electric_scooter", "lon": -76.92787033333333, "bike_id": "ccc9817d0bbb681c16aaea7efa3999fb", "rental_uris": {"android": "https://dc.lft.to/lastmile_qr_scan", "ios": "https://dc.lft.to/lastmile_qr_scan"}, "name": "ccc9817d0bbb681c16aaea7efa3999fb", "is_reserved": 0}, {"is_disabled": 0, "fusion_lon": 0.0, "fusion_lat": 0.0, "lat": 38.879457, "type": "electric_scooter", "lon": -77.0058245, "bike_id": "7973e81aa59099aa9ff410ca2d2f58be", "rental_uris": {"android": "https://dc.lft.to/lastmile_qr_scan", "ios": "https://dc.lft.to/lastmile_qr_scan"}, "name": "7973e81aa59099aa9ff410ca2d2f58be", "is_reserved": 0}, {"is_disabled": 0, "fusion_lon": 0.0, "fusion_lat": 0.0, "lat": 38.892581, "type": "electric_scooter", "lon": -76.94156183333334, "bike_id": "4473574134ba59c4aea0631c2ba2514b", "rental_uris": {"android": "https://dc.lft.to/lastmile_qr_scan", "ios": "https://dc.lft.to/lastmile_qr_scan"}, "name": "4473574134ba59c4aea0631c2ba2514b", "is_reserved": 0}, {"is_disabled": 0, "fusion_lon": 0.0, "fusion_lat": 0.0, "lat": 38.898509833333335, "type": "electric_bike", "lon": -76.93189883333334, "bike_id": "e34ebabf25038a10d5e689c186add5b5", "rental_uris": {"android": "https://dc.lft.to/lastmile_qr_scan", "ios": "https://dc.lft.to/lastmile_qr_scan"}, "name": "e34ebabf25038a10d5e689c186add5b5", "is_reserved": 0}, {"is_disabled": 0, "fusion_lon": 0.0, "fusion_lat": 0.0, "lat": 38.90818016666667, "type": "electric_scooter", "lon": -77.0334175, "bike_id": "6a02a238088a88e2b8de715efb100a96", "rental_uris": {"android": "https://dc.lft.to/lastmile_qr_scan", "ios": "https://dc.lft.to/lastmile_qr_scan"}, "name": "6a02a238088a88e2b8de715efb100a96", "is_reserved": 0}, {"is_disabled": 0, "fusion_lon": 0.0, "fusion_lat": 0.0, "lat": 38.90947466666667, "type": "electric_scooter", "lon": -77.01527633333333, "bike_id": "4394ff57ce561e4aa9e69ab6c13222a9", "rental_uris": {"android": "https://dc.lft.to/lastmile_qr_scan", "ios": "https://dc.lft.to/lastmile_qr_scan"}, "name": "4394ff57ce561e4aa9e69ab6c13222a9", "is_reserved": 0}, {"is_disabled": 0, "fusion_lon": 0.0, "fusion_lat": 0.0, "lat": 38.906545333333334, "type": "electric_scooter", "lon": -77.02523783333334, "bike_id": "886dd777007b676263b514d14f0175e3", "rental_uris": {"android": "https://dc.lft.to/lastmile_qr_scan", "ios": "https://dc.lft.to/lastmile_qr_scan"}, "name": "886dd777007b676263b514d14f0175e3", "is_reserved": 0}, {"is_disabled": 0, "fusion_lon": 0.0, "fusion_lat": 0.0, "lat": 38.9073195, "type": "electric_scooter", "lon": -77.02416816666667, "bike_id": "0a306e3eeb122e1c3768ad9267026c1d", "rental_uris": {"android": "https://dc.lft.to/lastmile_qr_scan", "ios": "https://dc.lft.to/lastmile_qr_scan"}, "name": "0a306e3eeb122e1c3768ad9267026c1d", "is_reserved": 0}, {"is_disabled": 0, "fusion_lon": 0.0, "fusion_lat": 0.0, "lat": 38.91918166666667, "type": "electric_scooter", "lon": -77.04493633333334, "bike_id": "0c7030e70b4fddb9c4c6c75b97073733", "rental_uris": {"android": "https://dc.lft.to/lastmile_qr_scan", "ios": "https://dc.lft.to/lastmile_qr_scan"}, "name": "0c7030e70b4fddb9c4c6c75b97073733", "is_reserved": 0}, {"is_disabled": 0, "fusion_lon": 0.0, "fusion_lat": 0.0, "lat": 38.930995833333334, "type": "electric_scooter", "lon": -77.02455883333333, "bike_id": "7f2970b157869e5fe4ff27407048d7c6", "rental_uris": {"android": "https://dc.lft.to/lastmile_qr_scan", "ios": "https://dc.lft.to/lastmile_qr_scan"}, "name": "7f2970b157869e5fe4ff27407048d7c6", "is_reserved": 0}, {"is_disabled": 0, "fusion_lon": 0.0, "fusion_lat": 0.0, "lat": 38.887213833333334, "type": "electric_scooter", "lon": -77.02203133333333, "bike_id": "e6d2ce9e4b9205ecef5ec02b65b377fd", "rental_uris": {"android": "https://dc.lft.to/lastmile_qr_scan", "ios": "https://dc.lft.to/lastmile_qr_scan"}, "name": "e6d2ce9e4b9205ecef5ec02b65b377fd", "is_reserved": 0}, {"is_disabled": 0, "fusion_lon": 0.0, "fusion_lat": 0.0, "lat": 38.9133835, "type": "electric_scooter", "lon": -77.0422785, "bike_id": "f9f5fcfa1d6528bd15524e839d4958d4", "rental_uris": {"android": "https://dc.lft.to/lastmile_qr_scan", "ios": "https://dc.lft.to/lastmile_qr_scan"}, "name": "f9f5fcfa1d6528bd15524e839d4958d4", "is_reserved": 0}, {"is_disabled": 0, "fusion_lon": 0.0, "fusion_lat": 0.0, "lat": 38.9292375, "type": "electric_scooter", "lon": -77.02147683333334, "bike_id": "ac24c1443b82d9c65cdd43503d5015e1", "rental_uris": {"android": "https://dc.lft.to/lastmile_qr_scan", "ios": "https://dc.lft.to/lastmile_qr_scan"}, "name": "ac24c1443b82d9c65cdd43503d5015e1", "is_reserved": 0}, {"is_disabled": 0, "fusion_lon": 0.0, "fusion_lat": 0.0, "lat": 38.902611666666665, "type": "electric_scooter", "lon": -77.00021983333333, "bike_id": "ae202c93d6487a10b04a818f9d0f207e", "rental_uris": {"android": "https://dc.lft.to/lastmile_qr_scan", "ios": "https://dc.lft.to/lastmile_qr_scan"}, "name": "ae202c93d6487a10b04a818f9d0f207e", "is_reserved": 0}, {"is_disabled": 0, "fusion_lon": 0.0, "fusion_lat": 0.0, "lat": 38.9214175, "type": "electric_scooter", "lon": -77.009199, "bike_id": "c27bcaae1bc237d9326d528c2e6266a7", "rental_uris": {"android": "https://dc.lft.to/lastmile_qr_scan", "ios": "https://dc.lft.to/lastmile_qr_scan"}, "name": "c27bcaae1bc237d9326d528c2e6266a7", "is_reserved": 0}, {"is_disabled": 0, "fusion_lon": 0.0, "fusion_lat": 0.0, "lat": 38.8646245, "type": "electric_scooter", "lon": -76.9961195, "bike_id": "74caddbbbb03d20e7325f47c83749b18", "rental_uris": {"android": "https://dc.lft.to/lastmile_qr_scan", "ios": "https://dc.lft.to/lastmile_qr_scan"}, "name": "74caddbbbb03d20e7325f47c83749b18", "is_reserved": 0}, {"is_disabled": 0, "fusion_lon": 0.0, "fusion_lat": 0.0, "lat": 38.8749315, "type": "electric_scooter", "lon": -76.99796216666667, "bike_id": "e0855791459fe525be3a87d91973d92e", "rental_uris": {"android": "https://dc.lft.to/lastmile_qr_scan", "ios": "https://dc.lft.to/lastmile_qr_scan"}, "name": "e0855791459fe525be3a87d91973d92e", "is_reserved": 0}, {"is_disabled": 0, "fusion_lon": 0.0, "fusion_lat": 0.0, "lat": 38.99088066666667, "type": "electric_bike", "lon": -76.87495883333334, "bike_id": "53060cd947370f92b19a82466fc2d920", "rental_uris": {"android": "https://dc.lft.to/lastmile_qr_scan", "ios": "https://dc.lft.to/lastmile_qr_scan"}, "name": "53060cd947370f92b19a82466fc2d920", "is_reserved": 0}, {"is_disabled": 0, "fusion_lon": 0.0, "fusion_lat": 0.0, "lat": 38.9284605, "type": "electric_scooter", "lon": -77.01413533333333, "bike_id": "ba45893e6d077b907168174739221b3e", "rental_uris": {"android": "https://dc.lft.to/lastmile_qr_scan", "ios": "https://dc.lft.to/lastmile_qr_scan"}, "name": "ba45893e6d077b907168174739221b3e", "is_reserved": 0}, {"is_disabled": 0, "fusion_lon": 0.0, "fusion_lat": 0.0, "lat": 38.863625666666664, "type": "electric_scooter", "lon": -76.99079233333333, "bike_id": "4321a966ddb537b1a85484ec6247706c", "rental_uris": {"android": "https://dc.lft.to/lastmile_qr_scan", "ios": "https://dc.lft.to/lastmile_qr_scan"}, "name": "4321a966ddb537b1a85484ec6247706c", "is_reserved": 0}, {"is_disabled": 0, "fusion_lon": 0.0, "fusion_lat": 0.0, "lat": 38.91121783333333, "type": "electric_scooter", "lon": -77.04208783333333, "bike_id": "81116509b419b8f3b61799152bfb886c", "rental_uris": {"android": "https://dc.lft.to/lastmile_qr_scan", "ios": "https://dc.lft.to/lastmile_qr_scan"}, "name": "81116509b419b8f3b61799152bfb886c", "is_reserved": 0}, {"is_disabled": 0, "fusion_lon": 0.0, "fusion_lat": 0.0, "lat": 38.905234166666666, "type": "electric_scooter", "lon": -77.0500205, "bike_id": "a37d392cb46b4f8d11bace70198e2ab3", "rental_uris": {"android": "https://dc.lft.to/lastmile_qr_scan", "ios": "https://dc.lft.to/lastmile_qr_scan"}, "name": "a37d392cb46b4f8d11bace70198e2ab3", "is_reserved": 0}, {"is_disabled": 0, "fusion_lon": 0.0, "fusion_lat": 0.0, "lat": 38.885857666666666, "type": "electric_scooter", "lon": -77.01979116666666, "bike_id": "3aa5316fa03557e6d5c13bfb0805d854", "rental_uris": {"android": "https://dc.lft.to/lastmile_qr_scan", "ios": "https://dc.lft.to/lastmile_qr_scan"}, "name": "3aa5316fa03557e6d5c13bfb0805d854", "is_reserved": 0}, {"is_disabled": 0, "fusion_lon": 0.0, "fusion_lat": 0.0, "lat": 38.990655, "type": "electric_bike", "lon": -77.1003205, "bike_id": "0faff807e39729d481cc32b3cf1e1d45", "rental_uris": {"android": "https://dc.lft.to/lastmile_qr_scan", "ios": "https://dc.lft.to/lastmile_qr_scan"}, "name": "0faff807e39729d481cc32b3cf1e1d45", "is_reserved": 0}, {"is_disabled": 0, "fusion_lon": 0.0, "fusion_lat": 0.0, "lat": 38.926900333333336, "type": "electric_scooter", "lon": -77.0374115, "bike_id": "f0d80b4324e9aaf51f704fb812fa74c6", "rental_uris": {"android": "https://dc.lft.to/lastmile_qr_scan", "ios": "https://dc.lft.to/lastmile_qr_scan"}, "name": "f0d80b4324e9aaf51f704fb812fa74c6", "is_reserved": 0}, {"is_disabled": 0, "fusion_lon": 0.0, "fusion_lat": 0.0, "lat": 38.90781333333334, "type": "electric_scooter", "lon": -77.03195716666667, "bike_id": "66c8ba155d5cf7cfe004bf9698437384", "rental_uris": {"android": "https://dc.lft.to/lastmile_qr_scan", "ios": "https://dc.lft.to/lastmile_qr_scan"}, "name": "66c8ba155d5cf7cfe004bf9698437384", "is_reserved": 0}, {"is_disabled": 0, "fusion_lon": 0.0, "fusion_lat": 0.0, "lat": 38.91262666666667, "type": "electric_scooter", "lon": -77.03380616666666, "bike_id": "1c75faf0a472c260ea9ef9c2e270f016", "rental_uris": {"android": "https://dc.lft.to/lastmile_qr_scan", "ios": "https://dc.lft.to/lastmile_qr_scan"}, "name": "1c75faf0a472c260ea9ef9c2e270f016", "is_reserved": 0}, {"is_disabled": 0, "fusion_lon": 0.0, "fusion_lat": 0.0, "lat": 38.96613083333333, "type": "electric_scooter", "lon": -77.035371, "bike_id": "a99a95322c6a6ac780774c7cf7b37051", "rental_uris": {"android": "https://dc.lft.to/lastmile_qr_scan", "ios": "https://dc.lft.to/lastmile_qr_scan"}, "name": "a99a95322c6a6ac780774c7cf7b37051", "is_reserved": 0}, {"is_disabled": 0, "fusion_lon": 0.0, "fusion_lat": 0.0, "lat": 38.92961116666667, "type": "electric_scooter", "lon": -77.04210216666667, "bike_id": "0248121b5cba071a4cfc331bb718cd61", "rental_uris": {"android": "https://dc.lft.to/lastmile_qr_scan", "ios": "https://dc.lft.to/lastmile_qr_scan"}, "name": "0248121b5cba071a4cfc331bb718cd61", "is_reserved": 0}, {"is_disabled": 0, "fusion_lon": 0.0, "fusion_lat": 0.0, "lat": 38.92002, "type": "electric_scooter", "lon": -77.039685, "bike_id": "bec32dd2b372c633994ba1c549c895fb", "rental_uris": {"android": "https://dc.lft.to/lastmile_qr_scan", "ios": "https://dc.lft.to/lastmile_qr_scan"}, "name": "bec32dd2b372c633994ba1c549c895fb", "is_reserved": 0}, {"is_disabled": 0, "fusion_lon": 0.0, "fusion_lat": 0.0, "lat": 38.94617266666667, "type": "electric_scooter", "lon": -77.036218, "bike_id": "2e515d427adaa1874dd6bc4129df1cfc", "rental_uris": {"android": "https://dc.lft.to/lastmile_qr_scan", "ios": "https://dc.lft.to/lastmile_qr_scan"}, "name": "2e515d427adaa1874dd6bc4129df1cfc", "is_reserved": 0}, {"is_disabled": 0, "fusion_lon": 0.0, "fusion_lat": 0.0, "lat": 38.934362, "type": "electric_scooter", "lon": -77.025912, "bike_id": "5e068ec1527af6cfddc8db6115e0a9d1", "rental_uris": {"android": "https://dc.lft.to/lastmile_qr_scan", "ios": "https://dc.lft.to/lastmile_qr_scan"}, "name": "5e068ec1527af6cfddc8db6115e0a9d1", "is_reserved": 0}, {"is_disabled": 0, "fusion_lon": 0.0, "fusion_lat": 0.0, "lat": 38.920434666666665, "type": "electric_bike", "lon": -77.00358, "bike_id": "18a2c17a52b8c2875b0099ff26d57650", "rental_uris": {"android": "https://dc.lft.to/lastmile_qr_scan", "ios": "https://dc.lft.to/lastmile_qr_scan"}, "name": "18a2c17a52b8c2875b0099ff26d57650", "is_reserved": 0}, {"is_disabled": 0, "fusion_lon": 0.0, "fusion_lat": 0.0, "lat": 38.95172433333333, "type": "electric_scooter", "lon": -77.03336066666667, "bike_id": "b2163c0e7dbd679641f5149c7523f5b7", "rental_uris": {"android": "https://dc.lft.to/lastmile_qr_scan", "ios": "https://dc.lft.to/lastmile_qr_scan"}, "name": "b2163c0e7dbd679641f5149c7523f5b7", "is_reserved": 0}, {"is_disabled": 0, "fusion_lon": 0.0, "fusion_lat": 0.0, "lat": 38.91301566666667, "type": "electric_scooter", "lon": -77.00838033333333, "bike_id": "ee6f299400dfb3a2ea7bbc87129060d7", "rental_uris": {"android": "https://dc.lft.to/lastmile_qr_scan", "ios": "https://dc.lft.to/lastmile_qr_scan"}, "name": "ee6f299400dfb3a2ea7bbc87129060d7", "is_reserved": 0}, {"is_disabled": 0, "fusion_lon": 0.0, "fusion_lat": 0.0, "lat": 38.90739383333333, "type": "electric_scooter", "lon": -77.0009335, "bike_id": "eb8918e2d6de34a53c3f89ec53fdfc54", "rental_uris": {"android": "https://dc.lft.to/lastmile_qr_scan", "ios": "https://dc.lft.to/lastmile_qr_scan"}, "name": "eb8918e2d6de34a53c3f89ec53fdfc54", "is_reserved": 0}, {"is_disabled": 0, "fusion_lon": 0.0, "fusion_lat": 0.0, "lat": 38.918062, "type": "electric_scooter", "lon": -77.040305, "bike_id": "690ed0a5722efdd3f6657e700ae267fb", "rental_uris": {"android": "https://dc.lft.to/lastmile_qr_scan", "ios": "https://dc.lft.to/lastmile_qr_scan"}, "name": "690ed0a5722efdd3f6657e700ae267fb", "is_reserved": 0}, {"is_disabled": 0, "fusion_lon": 0.0, "fusion_lat": 0.0, "lat": 38.88688766666667, "type": "electric_scooter", "lon": -76.987931, "bike_id": "f9074d109af451d16a43e94167d94654", "rental_uris": {"android": "https://dc.lft.to/lastmile_qr_scan", "ios": "https://dc.lft.to/lastmile_qr_scan"}, "name": "f9074d109af451d16a43e94167d94654", "is_reserved": 0}, {"is_disabled": 0, "fusion_lon": 0.0, "fusion_lat": 0.0, "lat": 38.919149166666664, "type": "electric_scooter", "lon": -77.02399716666666, "bike_id": "54ea3ea39e48ad027fbb02019af02f9f", "rental_uris": {"android": "https://dc.lft.to/lastmile_qr_scan", "ios": "https://dc.lft.to/lastmile_qr_scan"}, "name": "54ea3ea39e48ad027fbb02019af02f9f", "is_reserved": 0}, {"is_disabled": 0, "fusion_lon": 0.0, "fusion_lat": 0.0, "lat": 38.8564705, "type": "electric_bike", "lon": -77.08529433333334, "bike_id": "306c6c02462a4c14a7f9f81f7200d04a", "rental_uris": {"android": "https://dc.lft.to/lastmile_qr_scan", "ios": "https://dc.lft.to/lastmile_qr_scan"}, "name": "306c6c02462a4c14a7f9f81f7200d04a", "is_reserved": 0}, {"is_disabled": 0, "fusion_lon": 0.0, "fusion_lat": 0.0, "lat": 38.8493155, "type": "electric_bike", "lon": -77.10012966666666, "bike_id": "cc5b866cd1a7c406483459f54c1173a2", "rental_uris": {"android": "https://dc.lft.to/lastmile_qr_scan", "ios": "https://dc.lft.to/lastmile_qr_scan"}, "name": "cc5b866cd1a7c406483459f54c1173a2", "is_reserved": 0}, {"is_disabled": 0, "fusion_lon": 0.0, "fusion_lat": 0.0, "lat": 38.916986666666666, "type": "electric_scooter", "lon": -77.011721, "bike_id": "1fac13422fc7dc3c838368acc644773c", "rental_uris": {"android": "https://dc.lft.to/lastmile_qr_scan", "ios": "https://dc.lft.to/lastmile_qr_scan"}, "name": "1fac13422fc7dc3c838368acc644773c", "is_reserved": 0}, {"is_disabled": 0, "fusion_lon": 0.0, "fusion_lat": 0.0, "lat": 38.93698633333333, "type": "electric_scooter", "lon": -77.05597966666667, "bike_id": "ec0af038cd05f0e66bb1398600515c7e", "rental_uris": {"android": "https://dc.lft.to/lastmile_qr_scan", "ios": "https://dc.lft.to/lastmile_qr_scan"}, "name": "ec0af038cd05f0e66bb1398600515c7e", "is_reserved": 0}, {"is_disabled": 0, "fusion_lon": 0.0, "fusion_lat": 0.0, "lat": 38.903958333333335, "type": "electric_scooter", "lon": -77.05367166666667, "bike_id": "c20f2f13fe7d0f1947f974d79215a0c3", "rental_uris": {"android": "https://dc.lft.to/lastmile_qr_scan", "ios": "https://dc.lft.to/lastmile_qr_scan"}, "name": "c20f2f13fe7d0f1947f974d79215a0c3", "is_reserved": 0}, {"is_disabled": 0, "fusion_lon": 0.0, "fusion_lat": 0.0, "lat": 38.88612366666667, "type": "electric_scooter", "lon": -77.005783, "bike_id": "a396ec7941c47f59b44b8fd7d251c4a2", "rental_uris": {"android": "https://dc.lft.to/lastmile_qr_scan", "ios": "https://dc.lft.to/lastmile_qr_scan"}, "name": "a396ec7941c47f59b44b8fd7d251c4a2", "is_reserved": 0}, {"is_disabled": 0, "fusion_lon": 0.0, "fusion_lat": 0.0, "lat": 38.9131345, "type": "electric_scooter", "lon": -77.014352, "bike_id": "b78b7c097bba31bce77b8c8aa66154a8", "rental_uris": {"android": "https://dc.lft.to/lastmile_qr_scan", "ios": "https://dc.lft.to/lastmile_qr_scan"}, "name": "b78b7c097bba31bce77b8c8aa66154a8", "is_reserved": 0}, {"is_disabled": 0, "fusion_lon": 0.0, "fusion_lat": 0.0, "lat": 38.87054666666667, "type": "electric_scooter", "lon": -76.98083016666666, "bike_id": "3df55283f99dff9869559e5527b3b976", "rental_uris": {"android": "https://dc.lft.to/lastmile_qr_scan", "ios": "https://dc.lft.to/lastmile_qr_scan"}, "name": "3df55283f99dff9869559e5527b3b976", "is_reserved": 0}, {"is_disabled": 0, "fusion_lon": 0.0, "fusion_lat": 0.0, "lat": 38.956399833333336, "type": "electric_scooter", "lon": -77.09102766666666, "bike_id": "8911e41abf0f3262467ee34cd460683b", "rental_uris": {"android": "https://dc.lft.to/lastmile_qr_scan", "ios": "https://dc.lft.to/lastmile_qr_scan"}, "name": "8911e41abf0f3262467ee34cd460683b", "is_reserved": 0}, {"is_disabled": 0, "fusion_lon": 0.0, "fusion_lat": 0.0, "lat": 38.900093166666665, "type": "electric_scooter", "lon": -77.03956983333333, "bike_id": "d30187b2542cf6217a0180c7aecdbbce", "rental_uris": {"android": "https://dc.lft.to/lastmile_qr_scan", "ios": "https://dc.lft.to/lastmile_qr_scan"}, "name": "d30187b2542cf6217a0180c7aecdbbce", "is_reserved": 0}, {"is_disabled": 0, "fusion_lon": 0.0, "fusion_lat": 0.0, "lat": 38.9258515, "type": "electric_scooter", "lon": -77.03210483333334, "bike_id": "fd84791b3f27015b166be73cc86f98e6", "rental_uris": {"android": "https://dc.lft.to/lastmile_qr_scan", "ios": "https://dc.lft.to/lastmile_qr_scan"}, "name": "fd84791b3f27015b166be73cc86f98e6", "is_reserved": 0}, {"is_disabled": 0, "fusion_lon": 0.0, "fusion_lat": 0.0, "lat": 38.91817366666667, "type": "electric_scooter", "lon": -77.0363645, "bike_id": "5e922bc3e61da5b254c578f9177a40fc", "rental_uris": {"android": "https://dc.lft.to/lastmile_qr_scan", "ios": "https://dc.lft.to/lastmile_qr_scan"}, "name": "5e922bc3e61da5b254c578f9177a40fc", "is_reserved": 0}, {"is_disabled": 0, "fusion_lon": 0.0, "fusion_lat": 0.0, "lat": 38.915868, "type": "electric_scooter", "lon": -77.021286, "bike_id": "08dd56e290554d759ec7fd1c0bba8a75", "rental_uris": {"android": "https://dc.lft.to/lastmile_qr_scan", "ios": "https://dc.lft.to/lastmile_qr_scan"}, "name": "08dd56e290554d759ec7fd1c0bba8a75", "is_reserved": 0}, {"is_disabled": 0, "fusion_lon": 0.0, "fusion_lat": 0.0, "lat": 38.916051, "type": "electric_scooter", "lon": -77.04601233333334, "bike_id": "1778165dd3593da8b0227f5a4ac437e0", "rental_uris": {"android": "https://dc.lft.to/lastmile_qr_scan", "ios": "https://dc.lft.to/lastmile_qr_scan"}, "name": "1778165dd3593da8b0227f5a4ac437e0", "is_reserved": 0}, {"is_disabled": 0, "fusion_lon": 0.0, "fusion_lat": 0.0, "lat": 38.88629, "type": "electric_scooter", "lon": -76.95516683333334, "bike_id": "3650f3ce2ba915f918a48e6cb4ecbad7", "rental_uris": {"android": "https://dc.lft.to/lastmile_qr_scan", "ios": "https://dc.lft.to/lastmile_qr_scan"}, "name": "3650f3ce2ba915f918a48e6cb4ecbad7", "is_reserved": 0}, {"is_disabled": 0, "fusion_lon": 0.0, "fusion_lat": 0.0, "lat": 38.9053105, "type": "electric_scooter", "lon": -77.0502775, "bike_id": "8304efa24a9edea5954e01cc4e9246e3", "rental_uris": {"android": "https://dc.lft.to/lastmile_qr_scan", "ios": "https://dc.lft.to/lastmile_qr_scan"}, "name": "8304efa24a9edea5954e01cc4e9246e3", "is_reserved": 0}, {"is_disabled": 0, "fusion_lon": 0.0, "fusion_lat": 0.0, "lat": 38.92470216666667, "type": "electric_scooter", "lon": -77.03794966666666, "bike_id": "291193d248d5347f501298217948943c", "rental_uris": {"android": "https://dc.lft.to/lastmile_qr_scan", "ios": "https://dc.lft.to/lastmile_qr_scan"}, "name": "291193d248d5347f501298217948943c", "is_reserved": 0}, {"is_disabled": 0, "fusion_lon": 0.0, "fusion_lat": 0.0, "lat": 38.9455445, "type": "electric_bike", "lon": -77.05122316666667, "bike_id": "b89987d464836b3d0324e247899220d5", "rental_uris": {"android": "https://dc.lft.to/lastmile_qr_scan", "ios": "https://dc.lft.to/lastmile_qr_scan"}, "name": "b89987d464836b3d0324e247899220d5", "is_reserved": 0}, {"is_disabled": 0, "fusion_lon": 0.0, "fusion_lat": 0.0, "lat": 38.88132916666667, "type": "electric_scooter", "lon": -77.02079416666666, "bike_id": "f959ad74831796d593b20c3606043e15", "rental_uris": {"android": "https://dc.lft.to/lastmile_qr_scan", "ios": "https://dc.lft.to/lastmile_qr_scan"}, "name": "f959ad74831796d593b20c3606043e15", "is_reserved": 0}, {"is_disabled": 0, "fusion_lon": 0.0, "fusion_lat": 0.0, "lat": 38.901423, "type": "electric_scooter", "lon": -77.039602, "bike_id": "78a94faee21912ddbca917d3620c2b07", "rental_uris": {"android": "https://dc.lft.to/lastmile_qr_scan", "ios": "https://dc.lft.to/lastmile_qr_scan"}, "name": "78a94faee21912ddbca917d3620c2b07", "is_reserved": 0}, {"is_disabled": 0, "fusion_lon": 0.0, "fusion_lat": 0.0, "lat": 38.907323833333336, "type": "electric_scooter", "lon": -77.022513, "bike_id": "44d973ca46915c0c724c7011bd50814b", "rental_uris": {"android": "https://dc.lft.to/lastmile_qr_scan", "ios": "https://dc.lft.to/lastmile_qr_scan"}, "name": "44d973ca46915c0c724c7011bd50814b", "is_reserved": 0}, {"is_disabled": 0, "fusion_lon": 0.0, "fusion_lat": 0.0, "lat": 38.91182033333333, "type": "electric_bike", "lon": -77.01146633333333, "bike_id": "16676fc843dd0fb2061f14c5d196296f", "rental_uris": {"android": "https://dc.lft.to/lastmile_qr_scan", "ios": "https://dc.lft.to/lastmile_qr_scan"}, "name": "16676fc843dd0fb2061f14c5d196296f", "is_reserved": 0}, {"is_disabled": 0, "fusion_lon": 0.0, "fusion_lat": 0.0, "lat": 38.990770166666664, "type": "electric_bike", "lon": -77.0238155, "bike_id": "7c22439d8bc1d9e4b980e9ff140d77d1", "rental_uris": {"android": "https://dc.lft.to/lastmile_qr_scan", "ios": "https://dc.lft.to/lastmile_qr_scan"}, "name": "7c22439d8bc1d9e4b980e9ff140d77d1", "is_reserved": 0}, {"is_disabled": 0, "fusion_lon": 0.0, "fusion_lat": 0.0, "lat": 38.923478333333335, "type": "electric_bike", "lon": -76.99249466666667, "bike_id": "6cc56029f6a11b72822277aff8a44e28", "rental_uris": {"android": "https://dc.lft.to/lastmile_qr_scan", "ios": "https://dc.lft.to/lastmile_qr_scan"}, "name": "6cc56029f6a11b72822277aff8a44e28", "is_reserved": 0}, {"is_disabled": 0, "fusion_lon": 0.0, "fusion_lat": 0.0, "lat": 38.90850416666667, "type": "electric_scooter", "lon": -77.06349183333333, "bike_id": "8feec20adbeaaee28c5ecae1f176a442", "rental_uris": {"android": "https://dc.lft.to/lastmile_qr_scan", "ios": "https://dc.lft.to/lastmile_qr_scan"}, "name": "8feec20adbeaaee28c5ecae1f176a442", "is_reserved": 0}, {"is_disabled": 0, "fusion_lon": 0.0, "fusion_lat": 0.0, "lat": 38.917835333333336, "type": "electric_scooter", "lon": -77.04357783333333, "bike_id": "c5b2187f6563364ce9aafd234ff2f721", "rental_uris": {"android": "https://dc.lft.to/lastmile_qr_scan", "ios": "https://dc.lft.to/lastmile_qr_scan"}, "name": "c5b2187f6563364ce9aafd234ff2f721", "is_reserved": 0}, {"is_disabled": 0, "fusion_lon": 0.0, "fusion_lat": 0.0, "lat": 38.909465, "type": "electric_scooter", "lon": -77.03447666666666, "bike_id": "052a8cc117def607bdeb314c815d3840", "rental_uris": {"android": "https://dc.lft.to/lastmile_qr_scan", "ios": "https://dc.lft.to/lastmile_qr_scan"}, "name": "052a8cc117def607bdeb314c815d3840", "is_reserved": 0}, {"is_disabled": 0, "fusion_lon": 0.0, "fusion_lat": 0.0, "lat": 38.8968955, "type": "electric_scooter", "lon": -77.011644, "bike_id": "2d0e817e2e94e09c92ec041ea15b8289", "rental_uris": {"android": "https://dc.lft.to/lastmile_qr_scan", "ios": "https://dc.lft.to/lastmile_qr_scan"}, "name": "2d0e817e2e94e09c92ec041ea15b8289", "is_reserved": 0}, {"is_disabled": 0, "fusion_lon": 0.0, "fusion_lat": 0.0, "lat": 38.8936885, "type": "electric_scooter", "lon": -77.02263166666667, "bike_id": "d1a3197a5907dac995bb308d387db32e", "rental_uris": {"android": "https://dc.lft.to/lastmile_qr_scan", "ios": "https://dc.lft.to/lastmile_qr_scan"}, "name": "d1a3197a5907dac995bb308d387db32e", "is_reserved": 0}, {"is_disabled": 0, "fusion_lon": 0.0, "fusion_lat": 0.0, "lat": 38.846002666666664, "type": "electric_bike", "lon": -76.96878966666667, "bike_id": "6b42d7df95329bdab2b5da39f72aee2d", "rental_uris": {"android": "https://dc.lft.to/lastmile_qr_scan", "ios": "https://dc.lft.to/lastmile_qr_scan"}, "name": "6b42d7df95329bdab2b5da39f72aee2d", "is_reserved": 0}, {"is_disabled": 0, "fusion_lon": 0.0, "fusion_lat": 0.0, "lat": 38.91706933333333, "type": "electric_scooter", "lon": -77.034733, "bike_id": "066c3ace8453e3120eafcecda1a264cc", "rental_uris": {"android": "https://dc.lft.to/lastmile_qr_scan", "ios": "https://dc.lft.to/lastmile_qr_scan"}, "name": "066c3ace8453e3120eafcecda1a264cc", "is_reserved": 0}, {"is_disabled": 0, "fusion_lon": 0.0, "fusion_lat": 0.0, "lat": 38.919585, "type": "electric_scooter", "lon": -77.02371766666667, "bike_id": "38d32e5f4970a295dda8dc5ed83c6f58", "rental_uris": {"android": "https://dc.lft.to/lastmile_qr_scan", "ios": "https://dc.lft.to/lastmile_qr_scan"}, "name": "38d32e5f4970a295dda8dc5ed83c6f58", "is_reserved": 0}, {"is_disabled": 0, "fusion_lon": 0.0, "fusion_lat": 0.0, "lat": 38.924818, "type": "electric_scooter", "lon": -77.02711433333333, "bike_id": "3a5fabac37bc2a605e54e65189e10140", "rental_uris": {"android": "https://dc.lft.to/lastmile_qr_scan", "ios": "https://dc.lft.to/lastmile_qr_scan"}, "name": "3a5fabac37bc2a605e54e65189e10140", "is_reserved": 0}, {"is_disabled": 0, "fusion_lon": 0.0, "fusion_lat": 0.0, "lat": 38.9675955, "type": "electric_bike", "lon": -77.09168383333333, "bike_id": "ff9fc402e9b6b9929f26c14779f26a27", "rental_uris": {"android": "https://dc.lft.to/lastmile_qr_scan", "ios": "https://dc.lft.to/lastmile_qr_scan"}, "name": "ff9fc402e9b6b9929f26c14779f26a27", "is_reserved": 0}, {"is_disabled": 0, "fusion_lon": 0.0, "fusion_lat": 0.0, "lat": 38.91582, "type": "electric_scooter", "lon": -76.981121, "bike_id": "a6197069664e4699295f2395f1d4b1ef", "rental_uris": {"android": "https://dc.lft.to/lastmile_qr_scan", "ios": "https://dc.lft.to/lastmile_qr_scan"}, "name": "a6197069664e4699295f2395f1d4b1ef", "is_reserved": 0}, {"is_disabled": 0, "fusion_lon": 0.0, "fusion_lat": 0.0, "lat": 38.841978833333336, "type": "electric_bike", "lon": -77.10686683333333, "bike_id": "b6a713b636de4b0dcdb3e1e77b846205", "rental_uris": {"android": "https://dc.lft.to/lastmile_qr_scan", "ios": "https://dc.lft.to/lastmile_qr_scan"}, "name": "b6a713b636de4b0dcdb3e1e77b846205", "is_reserved": 0}, {"is_disabled": 0, "fusion_lon": 0.0, "fusion_lat": 0.0, "lat": 38.8580595, "type": "electric_scooter", "lon": -76.9865405, "bike_id": "390caa20f3fcc6fb1a5bc33ccfc6ff30", "rental_uris": {"android": "https://dc.lft.to/lastmile_qr_scan", "ios": "https://dc.lft.to/lastmile_qr_scan"}, "name": "390caa20f3fcc6fb1a5bc33ccfc6ff30", "is_reserved": 0}, {"is_disabled": 0, "fusion_lon": 0.0, "fusion_lat": 0.0, "lat": 38.998796666666664, "type": "electric_bike", "lon": -77.02870633333333, "bike_id": "f5e194d9639fe5619051fdce0c57afe3", "rental_uris": {"android": "https://dc.lft.to/lastmile_qr_scan", "ios": "https://dc.lft.to/lastmile_qr_scan"}, "name": "f5e194d9639fe5619051fdce0c57afe3", "is_reserved": 0}, {"is_disabled": 0, "fusion_lon": 0.0, "fusion_lat": 0.0, "lat": 38.92869616666667, "type": "electric_scooter", "lon": -77.01413933333333, "bike_id": "034b65223b707abd28763b3a7aee5e9a", "rental_uris": {"android": "https://dc.lft.to/lastmile_qr_scan", "ios": "https://dc.lft.to/lastmile_qr_scan"}, "name": "034b65223b707abd28763b3a7aee5e9a", "is_reserved": 0}, {"is_disabled": 0, "fusion_lon": 0.0, "fusion_lat": 0.0, "lat": 38.863161, "type": "electric_scooter", "lon": -76.990566, "bike_id": "a700f6ae7289d84c0270f19476068603", "rental_uris": {"android": "https://dc.lft.to/lastmile_qr_scan", "ios": "https://dc.lft.to/lastmile_qr_scan"}, "name": "a700f6ae7289d84c0270f19476068603", "is_reserved": 0}, {"is_disabled": 0, "fusion_lon": 0.0, "fusion_lat": 0.0, "lat": 38.92481633333333, "type": "electric_scooter", "lon": -77.0348385, "bike_id": "8438aa67eec54964c41dfdaad20ea494", "rental_uris": {"android": "https://dc.lft.to/lastmile_qr_scan", "ios": "https://dc.lft.to/lastmile_qr_scan"}, "name": "8438aa67eec54964c41dfdaad20ea494", "is_reserved": 0}, {"is_disabled": 0, "fusion_lon": 0.0, "fusion_lat": 0.0, "lat": 38.93089483333333, "type": "electric_scooter", "lon": -77.02541033333334, "bike_id": "ee2740a34205079f41c92106c579bb07", "rental_uris": {"android": "https://dc.lft.to/lastmile_qr_scan", "ios": "https://dc.lft.to/lastmile_qr_scan"}, "name": "ee2740a34205079f41c92106c579bb07", "is_reserved": 0}, {"is_disabled": 0, "fusion_lon": 0.0, "fusion_lat": 0.0, "lat": 38.9073275, "type": "electric_scooter", "lon": -77.03203716666667, "bike_id": "7e076b4b699af8c994df9c3f7ea56ba9", "rental_uris": {"android": "https://dc.lft.to/lastmile_qr_scan", "ios": "https://dc.lft.to/lastmile_qr_scan"}, "name": "7e076b4b699af8c994df9c3f7ea56ba9", "is_reserved": 0}, {"is_disabled": 0, "fusion_lon": 0.0, "fusion_lat": 0.0, "lat": 38.931354666666664, "type": "electric_scooter", "lon": -77.07855, "bike_id": "6c6af627d0bc661e5cfcc9d482aac728", "rental_uris": {"android": "https://dc.lft.to/lastmile_qr_scan", "ios": "https://dc.lft.to/lastmile_qr_scan"}, "name": "6c6af627d0bc661e5cfcc9d482aac728", "is_reserved": 0}, {"is_disabled": 0, "fusion_lon": 0.0, "fusion_lat": 0.0, "lat": 38.92997233333333, "type": "electric_scooter", "lon": -77.038017, "bike_id": "1a8c703eb19ec1de19e4e41493765b8a", "rental_uris": {"android": "https://dc.lft.to/lastmile_qr_scan", "ios": "https://dc.lft.to/lastmile_qr_scan"}, "name": "1a8c703eb19ec1de19e4e41493765b8a", "is_reserved": 0}, {"is_disabled": 0, "fusion_lon": 0.0, "fusion_lat": 0.0, "lat": 38.93217933333333, "type": "electric_scooter", "lon": -77.03648516666667, "bike_id": "6d6acd6263f1dba36d4a0c0d3871fbd8", "rental_uris": {"android": "https://dc.lft.to/lastmile_qr_scan", "ios": "https://dc.lft.to/lastmile_qr_scan"}, "name": "6d6acd6263f1dba36d4a0c0d3871fbd8", "is_reserved": 0}, {"is_disabled": 0, "fusion_lon": 0.0, "fusion_lat": 0.0, "lat": 38.8749405, "type": "electric_scooter", "lon": -76.99796966666666, "bike_id": "8244d503f24b35b1dc9236844f329a1a", "rental_uris": {"android": "https://dc.lft.to/lastmile_qr_scan", "ios": "https://dc.lft.to/lastmile_qr_scan"}, "name": "8244d503f24b35b1dc9236844f329a1a", "is_reserved": 0}, {"is_disabled": 0, "fusion_lon": 0.0, "fusion_lat": 0.0, "lat": 38.90519333333334, "type": "electric_scooter", "lon": -77.04882333333333, "bike_id": "18f830c1c68e4e59f1f2dc20221d71ad", "rental_uris": {"android": "https://dc.lft.to/lastmile_qr_scan", "ios": "https://dc.lft.to/lastmile_qr_scan"}, "name": "18f830c1c68e4e59f1f2dc20221d71ad", "is_reserved": 0}, {"is_disabled": 0, "fusion_lon": 0.0, "fusion_lat": 0.0, "lat": 38.90875583333333, "type": "electric_scooter", "lon": -77.044417, "bike_id": "15e97198fa38c96e9034326387b2b8a6", "rental_uris": {"android": "https://dc.lft.to/lastmile_qr_scan", "ios": "https://dc.lft.to/lastmile_qr_scan"}, "name": "15e97198fa38c96e9034326387b2b8a6", "is_reserved": 0}, {"is_disabled": 0, "fusion_lon": 0.0, "fusion_lat": 0.0, "lat": 38.894958, "type": "electric_scooter", "lon": -77.00949583333333, "bike_id": "c87e2e841710ef6dc419ea6adc72eda5", "rental_uris": {"android": "https://dc.lft.to/lastmile_qr_scan", "ios": "https://dc.lft.to/lastmile_qr_scan"}, "name": "c87e2e841710ef6dc419ea6adc72eda5", "is_reserved": 0}, {"is_disabled": 0, "fusion_lon": 0.0, "fusion_lat": 0.0, "lat": 38.93557933333334, "type": "electric_scooter", "lon": -77.03449366666666, "bike_id": "52dde918d5d421766a3eabd4d398f6ff", "rental_uris": {"android": "https://dc.lft.to/lastmile_qr_scan", "ios": "https://dc.lft.to/lastmile_qr_scan"}, "name": "52dde918d5d421766a3eabd4d398f6ff", "is_reserved": 0}, {"is_disabled": 0, "fusion_lon": 0.0, "fusion_lat": 0.0, "lat": 38.92997233333333, "type": "electric_scooter", "lon": -77.024047, "bike_id": "d294a4e5f9e7429e6ace10d09d02421c", "rental_uris": {"android": "https://dc.lft.to/lastmile_qr_scan", "ios": "https://dc.lft.to/lastmile_qr_scan"}, "name": "d294a4e5f9e7429e6ace10d09d02421c", "is_reserved": 0}, {"is_disabled": 0, "fusion_lon": 0.0, "fusion_lat": 0.0, "lat": 38.9211695, "type": "electric_scooter", "lon": -77.0120815, "bike_id": "61b54fa9ff9bfa82390ab7b084e0bc36", "rental_uris": {"android": "https://dc.lft.to/lastmile_qr_scan", "ios": "https://dc.lft.to/lastmile_qr_scan"}, "name": "61b54fa9ff9bfa82390ab7b084e0bc36", "is_reserved": 0}, {"is_disabled": 0, "fusion_lon": 0.0, "fusion_lat": 0.0, "lat": 38.9017515, "type": "electric_scooter", "lon": -76.99384933333333, "bike_id": "90931519758d8d3c915cb97ce64bee62", "rental_uris": {"android": "https://dc.lft.to/lastmile_qr_scan", "ios": "https://dc.lft.to/lastmile_qr_scan"}, "name": "90931519758d8d3c915cb97ce64bee62", "is_reserved": 0}, {"is_disabled": 0, "fusion_lon": 0.0, "fusion_lat": 0.0, "lat": 38.90275333333334, "type": "electric_scooter", "lon": -77.00318933333334, "bike_id": "068fe7fa6b8f73f23d9114a14f6d7982", "rental_uris": {"android": "https://dc.lft.to/lastmile_qr_scan", "ios": "https://dc.lft.to/lastmile_qr_scan"}, "name": "068fe7fa6b8f73f23d9114a14f6d7982", "is_reserved": 0}, {"is_disabled": 0, "fusion_lon": 0.0, "fusion_lat": 0.0, "lat": 38.94841366666667, "type": "electric_bike", "lon": -76.97226816666667, "bike_id": "594875fd63362bd34177ae097cac1c2b", "rental_uris": {"android": "https://dc.lft.to/lastmile_qr_scan", "ios": "https://dc.lft.to/lastmile_qr_scan"}, "name": "594875fd63362bd34177ae097cac1c2b", "is_reserved": 0}, {"is_disabled": 0, "fusion_lon": 0.0, "fusion_lat": 0.0, "lat": 38.91730883333334, "type": "electric_scooter", "lon": -76.99182116666667, "bike_id": "7b9de6f91f67ac881217cc4f76f925db", "rental_uris": {"android": "https://dc.lft.to/lastmile_qr_scan", "ios": "https://dc.lft.to/lastmile_qr_scan"}, "name": "7b9de6f91f67ac881217cc4f76f925db", "is_reserved": 0}, {"is_disabled": 0, "fusion_lon": 0.0, "fusion_lat": 0.0, "lat": 38.8720925, "type": "electric_bike", "lon": -76.95486933333333, "bike_id": "a5eff8cba489dca3a5ee69fd024c0fe2", "rental_uris": {"android": "https://dc.lft.to/lastmile_qr_scan", "ios": "https://dc.lft.to/lastmile_qr_scan"}, "name": "a5eff8cba489dca3a5ee69fd024c0fe2", "is_reserved": 0}, {"is_disabled": 0, "fusion_lon": 0.0, "fusion_lat": 0.0, "lat": 38.9706085, "type": "electric_bike", "lon": -76.96055416666667, "bike_id": "9d9d5b93b9fbd0fdeded4074e9df6a5e", "rental_uris": {"android": "https://dc.lft.to/lastmile_qr_scan", "ios": "https://dc.lft.to/lastmile_qr_scan"}, "name": "9d9d5b93b9fbd0fdeded4074e9df6a5e", "is_reserved": 0}, {"is_disabled": 0, "fusion_lon": 0.0, "fusion_lat": 0.0, "lat": 38.918484, "type": "electric_scooter", "lon": -77.03195733333334, "bike_id": "f7c908309c68da68781c95c3da454706", "rental_uris": {"android": "https://dc.lft.to/lastmile_qr_scan", "ios": "https://dc.lft.to/lastmile_qr_scan"}, "name": "f7c908309c68da68781c95c3da454706", "is_reserved": 0}, {"is_disabled": 0, "fusion_lon": 0.0, "fusion_lat": 0.0, "lat": 38.912030666666666, "type": "electric_scooter", "lon": -76.9848995, "bike_id": "55197c249674a1b54dd5736b51a17827", "rental_uris": {"android": "https://dc.lft.to/lastmile_qr_scan", "ios": "https://dc.lft.to/lastmile_qr_scan"}, "name": "55197c249674a1b54dd5736b51a17827", "is_reserved": 0}, {"is_disabled": 0, "fusion_lon": 0.0, "fusion_lat": 0.0, "lat": 38.887539833333335, "type": "electric_scooter", "lon": -77.00227433333333, "bike_id": "3b67d0c20f75640782f916101790b0a3", "rental_uris": {"android": "https://dc.lft.to/lastmile_qr_scan", "ios": "https://dc.lft.to/lastmile_qr_scan"}, "name": "3b67d0c20f75640782f916101790b0a3", "is_reserved": 0}, {"is_disabled": 0, "fusion_lon": 0.0, "fusion_lat": 0.0, "lat": 38.8763725, "type": "electric_scooter", "lon": -76.99764816666666, "bike_id": "ec54e5f098676935808e5e744f10e1cd", "rental_uris": {"android": "https://dc.lft.to/lastmile_qr_scan", "ios": "https://dc.lft.to/lastmile_qr_scan"}, "name": "ec54e5f098676935808e5e744f10e1cd", "is_reserved": 0}, {"is_disabled": 0, "fusion_lon": 0.0, "fusion_lat": 0.0, "lat": 38.899945833333334, "type": "electric_scooter", "lon": -76.99161083333334, "bike_id": "0d078c2b91d4b7887d5911314103f86c", "rental_uris": {"android": "https://dc.lft.to/lastmile_qr_scan", "ios": "https://dc.lft.to/lastmile_qr_scan"}, "name": "0d078c2b91d4b7887d5911314103f86c", "is_reserved": 0}, {"is_disabled": 0, "fusion_lon": 0.0, "fusion_lat": 0.0, "lat": 38.901721, "type": "electric_scooter", "lon": -77.050111, "bike_id": "ae32aa94edbbf93d837a9209ab67a170", "rental_uris": {"android": "https://dc.lft.to/lastmile_qr_scan", "ios": "https://dc.lft.to/lastmile_qr_scan"}, "name": "ae32aa94edbbf93d837a9209ab67a170", "is_reserved": 0}, {"is_disabled": 0, "fusion_lon": 0.0, "fusion_lat": 0.0, "lat": 38.901957833333334, "type": "electric_scooter", "lon": -77.03950766666667, "bike_id": "c74ab78731c64a7d0fa3367d13c5f8d8", "rental_uris": {"android": "https://dc.lft.to/lastmile_qr_scan", "ios": "https://dc.lft.to/lastmile_qr_scan"}, "name": "c74ab78731c64a7d0fa3367d13c5f8d8", "is_reserved": 0}, {"is_disabled": 0, "fusion_lon": 0.0, "fusion_lat": 0.0, "lat": 38.9156605, "type": "electric_scooter", "lon": -77.03874633333334, "bike_id": "8536b005a6d28a4c9f03f5944e1773e5", "rental_uris": {"android": "https://dc.lft.to/lastmile_qr_scan", "ios": "https://dc.lft.to/lastmile_qr_scan"}, "name": "8536b005a6d28a4c9f03f5944e1773e5", "is_reserved": 0}, {"is_disabled": 0, "fusion_lon": 0.0, "fusion_lat": 0.0, "lat": 38.900185666666665, "type": "electric_scooter", "lon": -77.05222866666666, "bike_id": "859e8d2281bc13f21713608c0c8e7aad", "rental_uris": {"android": "https://dc.lft.to/lastmile_qr_scan", "ios": "https://dc.lft.to/lastmile_qr_scan"}, "name": "859e8d2281bc13f21713608c0c8e7aad", "is_reserved": 0}, {"is_disabled": 0, "fusion_lon": 0.0, "fusion_lat": 0.0, "lat": 38.92163883333333, "type": "electric_scooter", "lon": -77.03394766666666, "bike_id": "b6b174c1b1c4c6b359a63652d6743c22", "rental_uris": {"android": "https://dc.lft.to/lastmile_qr_scan", "ios": "https://dc.lft.to/lastmile_qr_scan"}, "name": "b6b174c1b1c4c6b359a63652d6743c22", "is_reserved": 0}, {"is_disabled": 0, "fusion_lon": 0.0, "fusion_lat": 0.0, "lat": 39.02684966666666, "type": "electric_bike", "lon": -77.12599866666666, "bike_id": "57a1974b855fac31329274cf9a612276", "rental_uris": {"android": "https://dc.lft.to/lastmile_qr_scan", "ios": "https://dc.lft.to/lastmile_qr_scan"}, "name": "57a1974b855fac31329274cf9a612276", "is_reserved": 0}, {"is_disabled": 0, "fusion_lon": 0.0, "fusion_lat": 0.0, "lat": 38.90398583333333, "type": "electric_scooter", "lon": -77.048883, "bike_id": "f96c4ebe867e350b90b1d1e0a9b6e0be", "rental_uris": {"android": "https://dc.lft.to/lastmile_qr_scan", "ios": "https://dc.lft.to/lastmile_qr_scan"}, "name": "f96c4ebe867e350b90b1d1e0a9b6e0be", "is_reserved": 0}, {"is_disabled": 0, "fusion_lon": 0.0, "fusion_lat": 0.0, "lat": 38.889858333333336, "type": "electric_scooter", "lon": -77.00250183333333, "bike_id": "89ccf419a26595b94d614f49647f77d1", "rental_uris": {"android": "https://dc.lft.to/lastmile_qr_scan", "ios": "https://dc.lft.to/lastmile_qr_scan"}, "name": "89ccf419a26595b94d614f49647f77d1", "is_reserved": 0}, {"is_disabled": 0, "fusion_lon": 0.0, "fusion_lat": 0.0, "lat": 38.90634, "type": "electric_scooter", "lon": -76.98567233333333, "bike_id": "df63293f1f843ff85da9e54b919f1984", "rental_uris": {"android": "https://dc.lft.to/lastmile_qr_scan", "ios": "https://dc.lft.to/lastmile_qr_scan"}, "name": "df63293f1f843ff85da9e54b919f1984", "is_reserved": 0}, {"is_disabled": 0, "fusion_lon": 0.0, "fusion_lat": 0.0, "lat": 38.90138133333333, "type": "electric_scooter", "lon": -76.98966816666666, "bike_id": "de83def0bbc986b10ec88bb9dcdd92fa", "rental_uris": {"android": "https://dc.lft.to/lastmile_qr_scan", "ios": "https://dc.lft.to/lastmile_qr_scan"}, "name": "de83def0bbc986b10ec88bb9dcdd92fa", "is_reserved": 0}, {"is_disabled": 0, "fusion_lon": 0.0, "fusion_lat": 0.0, "lat": 38.9233765, "type": "electric_scooter", "lon": -77.03511966666667, "bike_id": "e266f188f2df4274d79dcd360ecdda8f", "rental_uris": {"android": "https://dc.lft.to/lastmile_qr_scan", "ios": "https://dc.lft.to/lastmile_qr_scan"}, "name": "e266f188f2df4274d79dcd360ecdda8f", "is_reserved": 0}, {"is_disabled": 0, "fusion_lon": 0.0, "fusion_lat": 0.0, "lat": 38.92149533333333, "type": "electric_scooter", "lon": -77.03509033333333, "bike_id": "8bcfa1eb77aecc510dff8657de245197", "rental_uris": {"android": "https://dc.lft.to/lastmile_qr_scan", "ios": "https://dc.lft.to/lastmile_qr_scan"}, "name": "8bcfa1eb77aecc510dff8657de245197", "is_reserved": 0}, {"is_disabled": 0, "fusion_lon": 0.0, "fusion_lat": 0.0, "lat": 38.91713466666667, "type": "electric_scooter", "lon": -77.098116, "bike_id": "f4d417cbafc2052b9aa8a44bb998131b", "rental_uris": {"android": "https://dc.lft.to/lastmile_qr_scan", "ios": "https://dc.lft.to/lastmile_qr_scan"}, "name": "f4d417cbafc2052b9aa8a44bb998131b", "is_reserved": 0}, {"is_disabled": 0, "fusion_lon": 0.0, "fusion_lat": 0.0, "lat": 38.905169666666666, "type": "electric_scooter", "lon": -77.02980516666666, "bike_id": "44578112670dc42e1d71ff37ea04abee", "rental_uris": {"android": "https://dc.lft.to/lastmile_qr_scan", "ios": "https://dc.lft.to/lastmile_qr_scan"}, "name": "44578112670dc42e1d71ff37ea04abee", "is_reserved": 0}, {"is_disabled": 0, "fusion_lon": 0.0, "fusion_lat": 0.0, "lat": 38.90352983333333, "type": "electric_scooter", "lon": -77.0318815, "bike_id": "13b2c3e5c41a881f81e3d601edded489", "rental_uris": {"android": "https://dc.lft.to/lastmile_qr_scan", "ios": "https://dc.lft.to/lastmile_qr_scan"}, "name": "13b2c3e5c41a881f81e3d601edded489", "is_reserved": 0}, {"is_disabled": 0, "fusion_lon": 0.0, "fusion_lat": 0.0, "lat": 38.9470135, "type": "electric_scooter", "lon": -77.01943783333333, "bike_id": "0dfc8cf54f9821ff5577cebe90540b69", "rental_uris": {"android": "https://dc.lft.to/lastmile_qr_scan", "ios": "https://dc.lft.to/lastmile_qr_scan"}, "name": "0dfc8cf54f9821ff5577cebe90540b69", "is_reserved": 0}, {"is_disabled": 0, "fusion_lon": 0.0, "fusion_lat": 0.0, "lat": 38.884696166666664, "type": "electric_scooter", "lon": -76.952343, "bike_id": "45ee661e93d394105158d3f40075c1ff", "rental_uris": {"android": "https://dc.lft.to/lastmile_qr_scan", "ios": "https://dc.lft.to/lastmile_qr_scan"}, "name": "45ee661e93d394105158d3f40075c1ff", "is_reserved": 0}, {"is_disabled": 0, "fusion_lon": 0.0, "fusion_lat": 0.0, "lat": 38.9267145, "type": "electric_scooter", "lon": -77.10312866666666, "bike_id": "49b1dd7162ec5e4009e2c4363090706c", "rental_uris": {"android": "https://dc.lft.to/lastmile_qr_scan", "ios": "https://dc.lft.to/lastmile_qr_scan"}, "name": "49b1dd7162ec5e4009e2c4363090706c", "is_reserved": 0}, {"is_disabled": 0, "fusion_lon": 0.0, "fusion_lat": 0.0, "lat": 38.921711, "type": "electric_scooter", "lon": -77.05525916666667, "bike_id": "96188791bd85512b82e57378aad7c7f8", "rental_uris": {"android": "https://dc.lft.to/lastmile_qr_scan", "ios": "https://dc.lft.to/lastmile_qr_scan"}, "name": "96188791bd85512b82e57378aad7c7f8", "is_reserved": 0}, {"is_disabled": 0, "fusion_lon": 0.0, "fusion_lat": 0.0, "lat": 38.9061195, "type": "electric_scooter", "lon": -77.05726866666667, "bike_id": "2118bf7131e2a0319a035c7fa331ed9c", "rental_uris": {"android": "https://dc.lft.to/lastmile_qr_scan", "ios": "https://dc.lft.to/lastmile_qr_scan"}, "name": "2118bf7131e2a0319a035c7fa331ed9c", "is_reserved": 0}, {"is_disabled": 0, "fusion_lon": 0.0, "fusion_lat": 0.0, "lat": 38.919578666666666, "type": "electric_scooter", "lon": -77.02721983333333, "bike_id": "9140d8b9f1a121edd21cf53b0cf484c9", "rental_uris": {"android": "https://dc.lft.to/lastmile_qr_scan", "ios": "https://dc.lft.to/lastmile_qr_scan"}, "name": "9140d8b9f1a121edd21cf53b0cf484c9", "is_reserved": 0}, {"is_disabled": 0, "fusion_lon": 0.0, "fusion_lat": 0.0, "lat": 38.923914333333336, "type": "electric_scooter", "lon": -77.02964833333333, "bike_id": "5328d3163289a72a4e4b599f3e1afd3d", "rental_uris": {"android": "https://dc.lft.to/lastmile_qr_scan", "ios": "https://dc.lft.to/lastmile_qr_scan"}, "name": "5328d3163289a72a4e4b599f3e1afd3d", "is_reserved": 0}, {"is_disabled": 0, "fusion_lon": 0.0, "fusion_lat": 0.0, "lat": 38.9107885, "type": "electric_scooter", "lon": -77.01508783333334, "bike_id": "08d3803e34b507c4a09299f72a121d88", "rental_uris": {"android": "https://dc.lft.to/lastmile_qr_scan", "ios": "https://dc.lft.to/lastmile_qr_scan"}, "name": "08d3803e34b507c4a09299f72a121d88", "is_reserved": 0}, {"is_disabled": 0, "fusion_lon": 0.0, "fusion_lat": 0.0, "lat": 38.922273, "type": "electric_scooter", "lon": -76.975309, "bike_id": "5ab6b289fc0cb53559c48ef4f355f32f", "rental_uris": {"android": "https://dc.lft.to/lastmile_qr_scan", "ios": "https://dc.lft.to/lastmile_qr_scan"}, "name": "5ab6b289fc0cb53559c48ef4f355f32f", "is_reserved": 0}, {"is_disabled": 0, "fusion_lon": 0.0, "fusion_lat": 0.0, "lat": 38.90076616666666, "type": "electric_scooter", "lon": -77.04927366666666, "bike_id": "52cdd0753692a4bf2959bd418e0d71ac", "rental_uris": {"android": "https://dc.lft.to/lastmile_qr_scan", "ios": "https://dc.lft.to/lastmile_qr_scan"}, "name": "52cdd0753692a4bf2959bd418e0d71ac", "is_reserved": 0}, {"is_disabled": 0, "fusion_lon": 0.0, "fusion_lat": 0.0, "lat": 38.92459216666666, "type": "electric_scooter", "lon": -77.02157283333334, "bike_id": "a561929e17c996dedf63d58dd29fa4d5", "rental_uris": {"android": "https://dc.lft.to/lastmile_qr_scan", "ios": "https://dc.lft.to/lastmile_qr_scan"}, "name": "a561929e17c996dedf63d58dd29fa4d5", "is_reserved": 0}, {"is_disabled": 0, "fusion_lon": 0.0, "fusion_lat": 0.0, "lat": 38.91219816666667, "type": "electric_scooter", "lon": -76.98464116666666, "bike_id": "5e1a83d60da63ee8761588506b38302c", "rental_uris": {"android": "https://dc.lft.to/lastmile_qr_scan", "ios": "https://dc.lft.to/lastmile_qr_scan"}, "name": "5e1a83d60da63ee8761588506b38302c", "is_reserved": 0}, {"is_disabled": 0, "fusion_lon": 0.0, "fusion_lat": 0.0, "lat": 38.90560966666666, "type": "electric_scooter", "lon": -77.0347545, "bike_id": "4cdc9400198c52efa86f7865b2b25b79", "rental_uris": {"android": "https://dc.lft.to/lastmile_qr_scan", "ios": "https://dc.lft.to/lastmile_qr_scan"}, "name": "4cdc9400198c52efa86f7865b2b25b79", "is_reserved": 0}, {"is_disabled": 0, "fusion_lon": 0.0, "fusion_lat": 0.0, "lat": 38.92262683333333, "type": "electric_scooter", "lon": -77.04135283333333, "bike_id": "c48fe6c2ae638c46e19b6efdcad71ca8", "rental_uris": {"android": "https://dc.lft.to/lastmile_qr_scan", "ios": "https://dc.lft.to/lastmile_qr_scan"}, "name": "c48fe6c2ae638c46e19b6efdcad71ca8", "is_reserved": 0}, {"is_disabled": 0, "fusion_lon": 0.0, "fusion_lat": 0.0, "lat": 38.92580816666667, "type": "electric_scooter", "lon": -76.99494933333334, "bike_id": "361dbd3c906491f85c6a72abc2341457", "rental_uris": {"android": "https://dc.lft.to/lastmile_qr_scan", "ios": "https://dc.lft.to/lastmile_qr_scan"}, "name": "361dbd3c906491f85c6a72abc2341457", "is_reserved": 0}, {"is_disabled": 0, "fusion_lon": 0.0, "fusion_lat": 0.0, "lat": 38.894792, "type": "electric_bike", "lon": -76.99519766666667, "bike_id": "4b15a2dadd84448034751cafff8146a3", "rental_uris": {"android": "https://dc.lft.to/lastmile_qr_scan", "ios": "https://dc.lft.to/lastmile_qr_scan"}, "name": "4b15a2dadd84448034751cafff8146a3", "is_reserved": 0}, {"is_disabled": 0, "fusion_lon": 0.0, "fusion_lat": 0.0, "lat": 38.937850833333336, "type": "electric_scooter", "lon": -77.018806, "bike_id": "6621974a6af5bf0882276534f8069765", "rental_uris": {"android": "https://dc.lft.to/lastmile_qr_scan", "ios": "https://dc.lft.to/lastmile_qr_scan"}, "name": "6621974a6af5bf0882276534f8069765", "is_reserved": 0}, {"is_disabled": 0, "fusion_lon": 0.0, "fusion_lat": 0.0, "lat": 38.96118233333333, "type": "electric_scooter", "lon": -77.0853, "bike_id": "b9d1ee00af76b483312580662b4b0337", "rental_uris": {"android": "https://dc.lft.to/lastmile_qr_scan", "ios": "https://dc.lft.to/lastmile_qr_scan"}, "name": "b9d1ee00af76b483312580662b4b0337", "is_reserved": 0}, {"is_disabled": 0, "fusion_lon": 0.0, "fusion_lat": 0.0, "lat": 38.92223283333333, "type": "electric_scooter", "lon": -77.03296133333333, "bike_id": "88ad693be30773f16549c6c8d61e3be0", "rental_uris": {"android": "https://dc.lft.to/lastmile_qr_scan", "ios": "https://dc.lft.to/lastmile_qr_scan"}, "name": "88ad693be30773f16549c6c8d61e3be0", "is_reserved": 0}, {"is_disabled": 0, "fusion_lon": 0.0, "fusion_lat": 0.0, "lat": 38.88743783333334, "type": "electric_scooter", "lon": -77.01537866666666, "bike_id": "12935d690a2491ce125db40c2ded753e", "rental_uris": {"android": "https://dc.lft.to/lastmile_qr_scan", "ios": "https://dc.lft.to/lastmile_qr_scan"}, "name": "12935d690a2491ce125db40c2ded753e", "is_reserved": 0}, {"is_disabled": 0, "fusion_lon": 0.0, "fusion_lat": 0.0, "lat": 38.91621516666667, "type": "electric_scooter", "lon": -77.048755, "bike_id": "a66b45291f955e5bc0df2cd68c2ca5fb", "rental_uris": {"android": "https://dc.lft.to/lastmile_qr_scan", "ios": "https://dc.lft.to/lastmile_qr_scan"}, "name": "a66b45291f955e5bc0df2cd68c2ca5fb", "is_reserved": 0}, {"is_disabled": 0, "fusion_lon": 0.0, "fusion_lat": 0.0, "lat": 38.8956635, "type": "electric_bike", "lon": -77.12740066666667, "bike_id": "2d871acc7fde2d9222f2129f83713da3", "rental_uris": {"android": "https://dc.lft.to/lastmile_qr_scan", "ios": "https://dc.lft.to/lastmile_qr_scan"}, "name": "2d871acc7fde2d9222f2129f83713da3", "is_reserved": 0}, {"is_disabled": 0, "fusion_lon": 0.0, "fusion_lat": 0.0, "lat": 38.912677, "type": "electric_scooter", "lon": -77.03373566666667, "bike_id": "dbbaed439e9a435d9058bad29511decd", "rental_uris": {"android": "https://dc.lft.to/lastmile_qr_scan", "ios": "https://dc.lft.to/lastmile_qr_scan"}, "name": "dbbaed439e9a435d9058bad29511decd", "is_reserved": 0}, {"is_disabled": 0, "fusion_lon": 0.0, "fusion_lat": 0.0, "lat": 38.94973516666667, "type": "electric_scooter", "lon": -77.09444966666666, "bike_id": "c134fb911bed6e9f28d2fbf9191befab", "rental_uris": {"android": "https://dc.lft.to/lastmile_qr_scan", "ios": "https://dc.lft.to/lastmile_qr_scan"}, "name": "c134fb911bed6e9f28d2fbf9191befab", "is_reserved": 0}, {"is_disabled": 0, "fusion_lon": 0.0, "fusion_lat": 0.0, "lat": 38.87824966666667, "type": "electric_scooter", "lon": -76.96317516666667, "bike_id": "f24fd35bec445164c77eaa0349ab6973", "rental_uris": {"android": "https://dc.lft.to/lastmile_qr_scan", "ios": "https://dc.lft.to/lastmile_qr_scan"}, "name": "f24fd35bec445164c77eaa0349ab6973", "is_reserved": 0}, {"is_disabled": 0, "fusion_lon": 0.0, "fusion_lat": 0.0, "lat": 38.876666, "type": "electric_scooter", "lon": -76.93193566666666, "bike_id": "01f749399d043350fbe54c30c706aad6", "rental_uris": {"android": "https://dc.lft.to/lastmile_qr_scan", "ios": "https://dc.lft.to/lastmile_qr_scan"}, "name": "01f749399d043350fbe54c30c706aad6", "is_reserved": 0}, {"is_disabled": 0, "fusion_lon": 0.0, "fusion_lat": 0.0, "lat": 38.94999416666667, "type": "electric_bike", "lon": -77.35314383333333, "bike_id": "a76b1d373fb3c3c1914d5bc164448c8e", "rental_uris": {"android": "https://dc.lft.to/lastmile_qr_scan", "ios": "https://dc.lft.to/lastmile_qr_scan"}, "name": "a76b1d373fb3c3c1914d5bc164448c8e", "is_reserved": 0}, {"is_disabled": 0, "fusion_lon": 0.0, "fusion_lat": 0.0, "lat": 38.9170335, "type": "electric_scooter", "lon": -77.00114533333333, "bike_id": "06345a5865dac47fd431ceb2a6b5f562", "rental_uris": {"android": "https://dc.lft.to/lastmile_qr_scan", "ios": "https://dc.lft.to/lastmile_qr_scan"}, "name": "06345a5865dac47fd431ceb2a6b5f562", "is_reserved": 0}, {"is_disabled": 0, "fusion_lon": 0.0, "fusion_lat": 0.0, "lat": 38.90926666666667, "type": "electric_scooter", "lon": -77.02302983333334, "bike_id": "a9bfceb66ba9e44a0f7a627efb36b19d", "rental_uris": {"android": "https://dc.lft.to/lastmile_qr_scan", "ios": "https://dc.lft.to/lastmile_qr_scan"}, "name": "a9bfceb66ba9e44a0f7a627efb36b19d", "is_reserved": 0}, {"is_disabled": 0, "fusion_lon": 0.0, "fusion_lat": 0.0, "lat": 38.9178995, "type": "electric_scooter", "lon": -77.02404483333333, "bike_id": "930f4397505859933688e76eb9fd9b19", "rental_uris": {"android": "https://dc.lft.to/lastmile_qr_scan", "ios": "https://dc.lft.to/lastmile_qr_scan"}, "name": "930f4397505859933688e76eb9fd9b19", "is_reserved": 0}, {"is_disabled": 0, "fusion_lon": 0.0, "fusion_lat": 0.0, "lat": 38.98498683333333, "type": "electric_bike", "lon": -76.98189216666667, "bike_id": "f8a7f7c563b8bd5351b434d254c54da8", "rental_uris": {"android": "https://dc.lft.to/lastmile_qr_scan", "ios": "https://dc.lft.to/lastmile_qr_scan"}, "name": "f8a7f7c563b8bd5351b434d254c54da8", "is_reserved": 0}, {"is_disabled": 0, "fusion_lon": 0.0, "fusion_lat": 0.0, "lat": 38.903566833333336, "type": "electric_scooter", "lon": -77.03195, "bike_id": "39fa84fe1195785d000f9456ff16abd0", "rental_uris": {"android": "https://dc.lft.to/lastmile_qr_scan", "ios": "https://dc.lft.to/lastmile_qr_scan"}, "name": "39fa84fe1195785d000f9456ff16abd0", "is_reserved": 0}, {"is_disabled": 0, "fusion_lon": 0.0, "fusion_lat": 0.0, "lat": 38.905169, "type": "electric_scooter", "lon": -77.02559416666666, "bike_id": "32cdb2fb8fa1e2b8ddeef4cce15870d7", "rental_uris": {"android": "https://dc.lft.to/lastmile_qr_scan", "ios": "https://dc.lft.to/lastmile_qr_scan"}, "name": "32cdb2fb8fa1e2b8ddeef4cce15870d7", "is_reserved": 0}, {"is_disabled": 0, "fusion_lon": 0.0, "fusion_lat": 0.0, "lat": 38.904804666666664, "type": "electric_scooter", "lon": -76.97327433333334, "bike_id": "78a80cfec8a6b3cfa608d0eae3b2abca", "rental_uris": {"android": "https://dc.lft.to/lastmile_qr_scan", "ios": "https://dc.lft.to/lastmile_qr_scan"}, "name": "78a80cfec8a6b3cfa608d0eae3b2abca", "is_reserved": 0}, {"is_disabled": 0, "fusion_lon": 0.0, "fusion_lat": 0.0, "lat": 38.918109333333334, "type": "electric_scooter", "lon": -77.03217983333333, "bike_id": "8d39503bf0ab2ca879780a688f4757cf", "rental_uris": {"android": "https://dc.lft.to/lastmile_qr_scan", "ios": "https://dc.lft.to/lastmile_qr_scan"}, "name": "8d39503bf0ab2ca879780a688f4757cf", "is_reserved": 0}, {"is_disabled": 0, "fusion_lon": 0.0, "fusion_lat": 0.0, "lat": 38.9156095, "type": "electric_scooter", "lon": -77.01025183333333, "bike_id": "ed3aa85276be60db8f9feda4b984978a", "rental_uris": {"android": "https://dc.lft.to/lastmile_qr_scan", "ios": "https://dc.lft.to/lastmile_qr_scan"}, "name": "ed3aa85276be60db8f9feda4b984978a", "is_reserved": 0}, {"is_disabled": 0, "fusion_lon": 0.0, "fusion_lat": 0.0, "lat": 38.93356266666667, "type": "electric_scooter", "lon": -77.0737515, "bike_id": "9af9f22c9023f732b2634a91efdd7e5a", "rental_uris": {"android": "https://dc.lft.to/lastmile_qr_scan", "ios": "https://dc.lft.to/lastmile_qr_scan"}, "name": "9af9f22c9023f732b2634a91efdd7e5a", "is_reserved": 0}, {"is_disabled": 0, "fusion_lon": 0.0, "fusion_lat": 0.0, "lat": 38.90545983333333, "type": "electric_scooter", "lon": -77.02697833333333, "bike_id": "58eff116958b4e3bad3cd4e0c2a27a5d", "rental_uris": {"android": "https://dc.lft.to/lastmile_qr_scan", "ios": "https://dc.lft.to/lastmile_qr_scan"}, "name": "58eff116958b4e3bad3cd4e0c2a27a5d", "is_reserved": 0}, {"is_disabled": 0, "fusion_lon": 0.0, "fusion_lat": 0.0, "lat": 38.909725333333334, "type": "electric_scooter", "lon": -77.0387205, "bike_id": "b8588df3373f9bf628728797e8e5b48d", "rental_uris": {"android": "https://dc.lft.to/lastmile_qr_scan", "ios": "https://dc.lft.to/lastmile_qr_scan"}, "name": "b8588df3373f9bf628728797e8e5b48d", "is_reserved": 0}, {"is_disabled": 0, "fusion_lon": 0.0, "fusion_lat": 0.0, "lat": 38.8750455, "type": "electric_scooter", "lon": -77.01381066666667, "bike_id": "720c577f316d81bf097b15fa5f3f28e5", "rental_uris": {"android": "https://dc.lft.to/lastmile_qr_scan", "ios": "https://dc.lft.to/lastmile_qr_scan"}, "name": "720c577f316d81bf097b15fa5f3f28e5", "is_reserved": 0}, {"is_disabled": 0, "fusion_lon": 0.0, "fusion_lat": 0.0, "lat": 38.896737, "type": "electric_scooter", "lon": -77.0435245, "bike_id": "b011a18b18afe7e6cffad29a3bc5f389", "rental_uris": {"android": "https://dc.lft.to/lastmile_qr_scan", "ios": "https://dc.lft.to/lastmile_qr_scan"}, "name": "b011a18b18afe7e6cffad29a3bc5f389", "is_reserved": 0}, {"is_disabled": 0, "fusion_lon": 0.0, "fusion_lat": 0.0, "lat": 38.9263015, "type": "electric_scooter", "lon": -77.04198, "bike_id": "e4447efc671bb848130bca6bc60d6ed2", "rental_uris": {"android": "https://dc.lft.to/lastmile_qr_scan", "ios": "https://dc.lft.to/lastmile_qr_scan"}, "name": "e4447efc671bb848130bca6bc60d6ed2", "is_reserved": 0}, {"is_disabled": 0, "fusion_lon": 0.0, "fusion_lat": 0.0, "lat": 38.99669333333333, "type": "electric_bike", "lon": -76.99143516666666, "bike_id": "e5da60c87b0d0c21a1dfb60d4474d84b", "rental_uris": {"android": "https://dc.lft.to/lastmile_qr_scan", "ios": "https://dc.lft.to/lastmile_qr_scan"}, "name": "e5da60c87b0d0c21a1dfb60d4474d84b", "is_reserved": 0}, {"is_disabled": 0, "fusion_lon": 0.0, "fusion_lat": 0.0, "lat": 38.944535333333334, "type": "electric_scooter", "lon": -77.060232, "bike_id": "2159a81ca8c531e0cdc2b40c5122ea28", "rental_uris": {"android": "https://dc.lft.to/lastmile_qr_scan", "ios": "https://dc.lft.to/lastmile_qr_scan"}, "name": "2159a81ca8c531e0cdc2b40c5122ea28", "is_reserved": 0}, {"is_disabled": 0, "fusion_lon": 0.0, "fusion_lat": 0.0, "lat": 38.8973885, "type": "electric_scooter", "lon": -77.04683616666667, "bike_id": "4f05c585cd6729883d4fd73772da3337", "rental_uris": {"android": "https://dc.lft.to/lastmile_qr_scan", "ios": "https://dc.lft.to/lastmile_qr_scan"}, "name": "4f05c585cd6729883d4fd73772da3337", "is_reserved": 0}, {"is_disabled": 0, "fusion_lon": 0.0, "fusion_lat": 0.0, "lat": 38.892378, "type": "electric_scooter", "lon": -77.04678566666666, "bike_id": "ee24e3dbffee219c738f3bf66d4850aa", "rental_uris": {"android": "https://dc.lft.to/lastmile_qr_scan", "ios": "https://dc.lft.to/lastmile_qr_scan"}, "name": "ee24e3dbffee219c738f3bf66d4850aa", "is_reserved": 0}, {"is_disabled": 0, "fusion_lon": 0.0, "fusion_lat": 0.0, "lat": 38.935353, "type": "electric_scooter", "lon": -77.0340785, "bike_id": "3b9efe1e67d4c258d8ffcdb2a8a5833b", "rental_uris": {"android": "https://dc.lft.to/lastmile_qr_scan", "ios": "https://dc.lft.to/lastmile_qr_scan"}, "name": "3b9efe1e67d4c258d8ffcdb2a8a5833b", "is_reserved": 0}, {"is_disabled": 0, "fusion_lon": 0.0, "fusion_lat": 0.0, "lat": 38.9046745, "type": "electric_scooter", "lon": -76.99204316666666, "bike_id": "b0f6c0d7363aec116a1a3d7aaf93adaf", "rental_uris": {"android": "https://dc.lft.to/lastmile_qr_scan", "ios": "https://dc.lft.to/lastmile_qr_scan"}, "name": "b0f6c0d7363aec116a1a3d7aaf93adaf", "is_reserved": 0}, {"is_disabled": 0, "fusion_lon": 0.0, "fusion_lat": 0.0, "lat": 38.93047116666666, "type": "electric_scooter", "lon": -76.99633583333333, "bike_id": "75aa65c7ae9b10e35614fea41b909d98", "rental_uris": {"android": "https://dc.lft.to/lastmile_qr_scan", "ios": "https://dc.lft.to/lastmile_qr_scan"}, "name": "75aa65c7ae9b10e35614fea41b909d98", "is_reserved": 0}, {"is_disabled": 0, "fusion_lon": 0.0, "fusion_lat": 0.0, "lat": 38.92259816666667, "type": "electric_scooter", "lon": -77.07136283333334, "bike_id": "0383a102c3596274e159f662dab2e34b", "rental_uris": {"android": "https://dc.lft.to/lastmile_qr_scan", "ios": "https://dc.lft.to/lastmile_qr_scan"}, "name": "0383a102c3596274e159f662dab2e34b", "is_reserved": 0}, {"is_disabled": 0, "fusion_lon": 0.0, "fusion_lat": 0.0, "lat": 38.91150016666667, "type": "electric_scooter", "lon": -76.98501933333333, "bike_id": "f26facae7a90b350f2fbd840ec62809f", "rental_uris": {"android": "https://dc.lft.to/lastmile_qr_scan", "ios": "https://dc.lft.to/lastmile_qr_scan"}, "name": "f26facae7a90b350f2fbd840ec62809f", "is_reserved": 0}, {"is_disabled": 0, "fusion_lon": 0.0, "fusion_lat": 0.0, "lat": 38.905156166666664, "type": "electric_scooter", "lon": -76.98252416666666, "bike_id": "584efa52a93aabbbf9cb5c794b6dcbec", "rental_uris": {"android": "https://dc.lft.to/lastmile_qr_scan", "ios": "https://dc.lft.to/lastmile_qr_scan"}, "name": "584efa52a93aabbbf9cb5c794b6dcbec", "is_reserved": 0}, {"is_disabled": 0, "fusion_lon": 0.0, "fusion_lat": 0.0, "lat": 38.9110845, "type": "electric_scooter", "lon": -77.0356045, "bike_id": "326cc2159d4222bede7cec517bc7d53b", "rental_uris": {"android": "https://dc.lft.to/lastmile_qr_scan", "ios": "https://dc.lft.to/lastmile_qr_scan"}, "name": "326cc2159d4222bede7cec517bc7d53b", "is_reserved": 0}, {"is_disabled": 0, "fusion_lon": 0.0, "fusion_lat": 0.0, "lat": 38.9168975, "type": "electric_scooter", "lon": -77.02596016666666, "bike_id": "95a3a407cfad221d968d9821ce1d6095", "rental_uris": {"android": "https://dc.lft.to/lastmile_qr_scan", "ios": "https://dc.lft.to/lastmile_qr_scan"}, "name": "95a3a407cfad221d968d9821ce1d6095", "is_reserved": 0}, {"is_disabled": 0, "fusion_lon": 0.0, "fusion_lat": 0.0, "lat": 39.007887333333336, "type": "electric_bike", "lon": -76.9957245, "bike_id": "ed92cf7b3ceb2e2c8bedc14030c049e0", "rental_uris": {"android": "https://dc.lft.to/lastmile_qr_scan", "ios": "https://dc.lft.to/lastmile_qr_scan"}, "name": "ed92cf7b3ceb2e2c8bedc14030c049e0", "is_reserved": 0}, {"is_disabled": 0, "fusion_lon": 0.0, "fusion_lat": 0.0, "lat": 38.896404, "type": "electric_scooter", "lon": -77.00914966666667, "bike_id": "2f3cd99f4be73a0567cc79e90b538051", "rental_uris": {"android": "https://dc.lft.to/lastmile_qr_scan", "ios": "https://dc.lft.to/lastmile_qr_scan"}, "name": "2f3cd99f4be73a0567cc79e90b538051", "is_reserved": 0}, {"is_disabled": 0, "fusion_lon": 0.0, "fusion_lat": 0.0, "lat": 38.9170535, "type": "electric_scooter", "lon": -77.02979516666667, "bike_id": "b5f4d19952294559c2f8815ea7ab3f21", "rental_uris": {"android": "https://dc.lft.to/lastmile_qr_scan", "ios": "https://dc.lft.to/lastmile_qr_scan"}, "name": "b5f4d19952294559c2f8815ea7ab3f21", "is_reserved": 0}, {"is_disabled": 0, "fusion_lon": 0.0, "fusion_lat": 0.0, "lat": 38.83430933333333, "type": "electric_bike", "lon": -77.10351966666667, "bike_id": "50350e45e199badd25269caa27fbf587", "rental_uris": {"android": "https://dc.lft.to/lastmile_qr_scan", "ios": "https://dc.lft.to/lastmile_qr_scan"}, "name": "50350e45e199badd25269caa27fbf587", "is_reserved": 0}, {"is_disabled": 0, "fusion_lon": 0.0, "fusion_lat": 0.0, "lat": 38.90255366666667, "type": "electric_scooter", "lon": -77.017262, "bike_id": "9cda93e0aa0432cf825c61c2b123b64e", "rental_uris": {"android": "https://dc.lft.to/lastmile_qr_scan", "ios": "https://dc.lft.to/lastmile_qr_scan"}, "name": "9cda93e0aa0432cf825c61c2b123b64e", "is_reserved": 0}, {"is_disabled": 0, "fusion_lon": 0.0, "fusion_lat": 0.0, "lat": 38.90647466666667, "type": "electric_scooter", "lon": -77.0454135, "bike_id": "d6fd04fe649e27aa7533c5ab272e1403", "rental_uris": {"android": "https://dc.lft.to/lastmile_qr_scan", "ios": "https://dc.lft.to/lastmile_qr_scan"}, "name": "d6fd04fe649e27aa7533c5ab272e1403", "is_reserved": 0}, {"is_disabled": 0, "fusion_lon": 0.0, "fusion_lat": 0.0, "lat": 38.9008545, "type": "electric_scooter", "lon": -77.0493435, "bike_id": "4295ef723d297f2b2042689114b16a0b", "rental_uris": {"android": "https://dc.lft.to/lastmile_qr_scan", "ios": "https://dc.lft.to/lastmile_qr_scan"}, "name": "4295ef723d297f2b2042689114b16a0b", "is_reserved": 0},